{"last_updated":1701277607,"ttl":30,"version":"2.2","data":{"bikes":[{"bike_id":"c4696f35-eb88-445b-bc3d-78ecd731d297","system_id":"levelo_inurba_marseille","lat":43.31206,"lon":5.368156,"is_reserved":false,"is_disabled":false,"rental_uris":{"android":"levelo://app?vid=c4696f35-eb88-445b-bc3d-78ecd731d297","ios":"levelo://app?vid=c4696f35-eb88-445b-bc3d-78ecd731d297"},"vehicle_type_id":"4","last_reported":1701277607,"current_range_meters":30000,"station_id":"ce4bgl92rcd13ifvqbq0","pricing_plan_id":"free"},{"bike_id":"9e057b0d-9626-4f4b-a1bb-9f586879a0a3","system_id":"levelo_inurba_marseille","lat":43.309076,"lon":5.368465,"is_reserved":false,"is_disabled":false,"rental_uris":{"android":"levelo://app?vid=9e057b0d-9626-4f4b-a1bb-9f586879a0a3","ios":"levelo://app?vid=9e057b0d-9626-4f4b-a1bb-9f586879a0a3"},"vehicle_type_id":"4","last_reported":1701277607,"current_range_meters":0,"station_id":"ce4bgn92rcd13ifvqbvg","pricing_plan_id":"free"},{"bike_id":"13cdba01-2023-41bb-a51b-c25b255062d2","system_id":"levelo_inurba_marseille","lat":43.314811,"lon":5.373103,"is_reserved":false,"is_disabled":false,"rental_uris":{"android":"levelo://app?vid=13cdba01-2023-41bb-a51b-c25b255062d2","ios":"levelo://app?vid=13cdba01-2023-41bb-a51b-c25b255062d2"},"vehicle_type_id":"4","last_reported":1701277607,"current_range_meters":0,"station_id":"ce4bgt12rcd13ifvqcd0","pricing_plan_id":"free"},{"bike_id":"882ce85f-e87b-4f8e-91d8-e07a57d317ae","system_id":"levelo_inurba_marseille","lat":43.309039,"lon":5.371797,"is_reserved":false,"is_disabled":false,"rental_uris":{"android":"levelo://app?vid=882ce85f-e87b-4f8e-91d8-e07a57d317ae","ios":"levelo://app?vid=882ce85f-e87b-4f8e-91d8-e07a57d317ae"},"vehicle_type_id":"4","last_reported":1701277607,"current_range_meters":24400,"station_id":"ce4bguh2rcd13ifvqckg","pricing_plan_id":"free"},{"bike_id":"2920a171-e54d-4089-81e2-1a7366335733","system_id":"levelo_inurba_marseille","lat":43.305714,"lon":5.365633,"is_reserved":false,"is_disabled":false,"rental_uris":{"android":"levelo://app?vid=2920a171-e54d-4089-81e2-1a7366335733","ios":"levelo://app?vid=2920a171-e54d-4089-81e2-1a7366335733"},"vehicle_type_id":"4","last_reported":1701277607,"current_range_meters":3200,"station_id":"ce4bgs12rcd13ifvqcag","pricing_plan_id":"free"},{"bike_id":"663f4afb-fccd-433c-a911-1877ce94de6b","system_id":"levelo_inurba_marseille","lat":43.31114,"lon":5.3777,"is_reserved":false,"is_disabled":false,"rental_uris":{"android":"levelo://app?vid=663f4afb-fccd-433c-a911-1877ce94de6b","ios":"levelo://app?vid=663f4afb-fccd-433c-a911-1877ce94de6b"},"vehicle_type_id":"4","last_reported":1701277607,"current_range_meters":0,"station_id":"ce4bgt92rcd13ifvqcg0","pricing_plan_id":"free"},{"bike_id":"8b312b22-a1e0-4019-8597-8ef7d5ea35d4","system_id":"levelo_inurba_marseille","lat":43.311131,"lon":5.377651,"is_reserved":false,"is_disabled":false,"rental_uris":{"android":"levelo://app?vid=8b312b22-a1e0-4019-8597-8ef7d5ea35d4","ios":"levelo://app?vid=8b312b22-a1e0-4019-8597-8ef7d5ea35d4"},"vehicle_type_id":"4","last_reported":1701277607,"current_range_meters":13600,"station_id":"ce4bgt92rcd13ifvqcg0","pricing_plan_id":"free"},{"bike_id":"b5129530-3639-47e5-92b6-d358b01a2cff","system_id":"levelo_inurba_marseille","lat":43.308203,"lon":5.376617,"is_reserved":false,"is_disabled":false,"rental_uris":{"android":"levelo://app?vid=b5129530-3639-47e5-92b6-d358b01a2cff","ios":"levelo://app?vid=b5129530-3639-47e5-92b6-d358b01a2cff"},"vehicle_type_id":"4","last_reported":1701277607,"current_range_meters":24400,"station_id":"ce4bgv92rcd13ifvqcq0","pricing_plan_id":"free"},{"bike_id":"f427a2c3-6e4a-446b-ae2f-9be8aa7f4122","system_id":"levelo_inurba_marseille","lat":43.31719,"lon":5.376813,"is_reserved":false,"is_disabled":false,"rental_uris":{"android":"levelo://app?vid=f427a2c3-6e4a-446b-ae2f-9be8aa7f4122","ios":"levelo://app?vid=f427a2c3-6e4a-446b-ae2f-9be8aa7f4122"},"vehicle_type_id":"4","last_reported":1701277607,"current_range_meters":8800,"station_id":"ce4bgth2rcd13ifvqch0","pricing_plan_id":"free"},{"bike_id":"e913f328-1e31-4c22-bd87-f809ea246de4","system_id":"levelo_inurba_marseille","lat":43.317168,"lon":5.376883,"is_reserved":false,"is_disabled":false,"rental_uris":{"android":"levelo://app?vid=e913f328-1e31-4c22-bd87-f809ea246de4","ios":"levelo://app?vid=e913f328-1e31-4c22-bd87-f809ea246de4"},"vehicle_type_id":"4","last_reported":1701277607,"current_range_meters":11200,"station_id":"ce4bgth2rcd13ifvqch0","pricing_plan_id":"free"},{"bike_id":"c2e124d9-b668-4c03-8989-16bcb2192184","system_id":"levelo_inurba_marseille","lat":43.307945,"lon":5.376487,"is_reserved":false,"is_disabled":false,"rental_uris":{"android":"levelo://app?vid=c2e124d9-b668-4c03-8989-16bcb2192184","ios":"levelo://app?vid=c2e124d9-b668-4c03-8989-16bcb2192184"},"vehicle_type_id":"4","last_reported":1701277607,"current_range_meters":30800,"station_id":"ce4bgv92rcd13ifvqcq0","pricing_plan_id":"free"},{"bike_id":"d2f8c28c-2e48-419b-a8f4-cdad5fefafd7","system_id":"levelo_inurba_marseille","lat":43.307945,"lon":5.376487,"is_reserved":false,"is_disabled":false,"rental_uris":{"android":"levelo://app?vid=d2f8c28c-2e48-419b-a8f4-cdad5fefafd7","ios":"levelo://app?vid=d2f8c28c-2e48-419b-a8f4-cdad5fefafd7"},"vehicle_type_id":"4","last_reported":1701277607,"current_range_meters":18800,"station_id":"ce4bgv92rcd13ifvqcq0","pricing_plan_id":"free"},{"bike_id":"77621d6b-8990-4544-be4b-ead551752d29","system_id":"levelo_inurba_marseille","lat":43.31699,"lon":5.378364,"is_reserved":false,"is_disabled":false,"rental_uris":{"android":"levelo://app?vid=77621d6b-8990-4544-be4b-ead551752d29","ios":"levelo://app?vid=77621d6b-8990-4544-be4b-ead551752d29"},"vehicle_type_id":"4","last_reported":1701277607,"current_range_meters":21600,"station_id":"","pricing_plan_id":"free"},{"bike_id":"3e09080e-9db5-4c48-951f-c5f672a60264","system_id":"levelo_inurba_marseille","lat":43.321474,"lon":5.374852,"is_reserved":false,"is_disabled":false,"rental_uris":{"android":"levelo://app?vid=3e09080e-9db5-4c48-951f-c5f672a60264","ios":"levelo://app?vid=3e09080e-9db5-4c48-951f-c5f672a60264"},"vehicle_type_id":"4","last_reported":1701277607,"current_range_meters":7200,"station_id":"","pricing_plan_id":"free"},{"bike_id":"9274419b-96db-4056-9c11-8ff89c5d69aa","system_id":"levelo_inurba_marseille","lat":43.301763,"lon":5.370357,"is_reserved":false,"is_disabled":false,"rental_uris":{"android":"levelo://app?vid=9274419b-96db-4056-9c11-8ff89c5d69aa","ios":"levelo://app?vid=9274419b-96db-4056-9c11-8ff89c5d69aa"},"vehicle_type_id":"4","last_reported":1701277607,"current_range_meters":0,"station_id":"","pricing_plan_id":"free"},{"bike_id":"72235a84-19a3-4c74-b9b9-8aead95286b5","system_id":"levelo_inurba_marseille","lat":43.308012,"lon":5.381511,"is_reserved":false,"is_disabled":false,"rental_uris":{"android":"levelo://app?vid=72235a84-19a3-4c74-b9b9-8aead95286b5","ios":"levelo://app?vid=72235a84-19a3-4c74-b9b9-8aead95286b5"},"vehicle_type_id":"4","last_reported":1701277607,"current_range_meters":9200,"station_id":"ce4bgt12rcd13ifvqce0","pricing_plan_id":"free"},{"bike_id":"b4061827-e2cc-4632-b16f-e713e2df4694","system_id":"levelo_inurba_marseille","lat":43.304606,"lon":5.379026,"is_reserved":false,"is_disabled":false,"rental_uris":{"android":"levelo://app?vid=b4061827-e2cc-4632-b16f-e713e2df4694","ios":"levelo://app?vid=b4061827-e2cc-4632-b16f-e713e2df4694"},"vehicle_type_id":"4","last_reported":1701277607,"current_range_meters":0,"station_id":"ce4bgup2rcd13ifvqcn0","pricing_plan_id":"free"},{"bike_id":"0c75cf2f-5061-4986-b82c-3c6147f21904","system_id":"levelo_inurba_marseille","lat":43.302784,"lon":5.377158,"is_reserved":false,"is_disabled":false,"rental_uris":{"android":"levelo://app?vid=0c75cf2f-5061-4986-b82c-3c6147f21904","ios":"levelo://app?vid=0c75cf2f-5061-4986-b82c-3c6147f21904"},"vehicle_type_id":"4","last_reported":1701277607,"current_range_meters":18000,"station_id":"ce4bguh2rcd13ifvqcj0","pricing_plan_id":"free"},{"bike_id":"2275aca5-3158-4c2c-8022-ca5d2714bc86","system_id":"levelo_inurba_marseille","lat":43.319997,"lon":5.381594,"is_reserved":false,"is_disabled":false,"rental_uris":{"android":"levelo://app?vid=2275aca5-3158-4c2c-8022-ca5d2714bc86","ios":"levelo://app?vid=2275aca5-3158-4c2c-8022-ca5d2714bc86"},"vehicle_type_id":"4","last_reported":1701277607,"current_range_meters":26000,"station_id":"ce4bhr12rcd13ifvqhpg","pricing_plan_id":"free"},{"bike_id":"3e01df68-27f0-42b4-ac09-2ec4a13acda6","system_id":"levelo_inurba_marseille","lat":43.319935,"lon":5.381699,"is_reserved":false,"is_disabled":false,"rental_uris":{"android":"levelo://app?vid=3e01df68-27f0-42b4-ac09-2ec4a13acda6","ios":"levelo://app?vid=3e01df68-27f0-42b4-ac09-2ec4a13acda6"},"vehicle_type_id":"4","last_reported":1701277607,"current_range_meters":13200,"station_id":"ce4bhr12rcd13ifvqhpg","pricing_plan_id":"free"},{"bike_id":"9389f636-c148-484e-a000-ba5b89b8a162","system_id":"levelo_inurba_marseille","lat":43.313633,"lon":5.384938,"is_reserved":false,"is_disabled":false,"rental_uris":{"android":"levelo://app?vid=9389f636-c148-484e-a000-ba5b89b8a162","ios":"levelo://app?vid=9389f636-c148-484e-a000-ba5b89b8a162"},"vehicle_type_id":"4","last_reported":1701277607,"current_range_meters":29600,"station_id":"ce4bgt92rcd13ifvqcf0","pricing_plan_id":"free"},{"bike_id":"355860c1-3794-4289-a6a9-10df575d6f1a","system_id":"levelo_inurba_marseille","lat":43.299243,"lon":5.37481,"is_reserved":false,"is_disabled":false,"rental_uris":{"android":"levelo://app?vid=355860c1-3794-4289-a6a9-10df575d6f1a","ios":"levelo://app?vid=355860c1-3794-4289-a6a9-10df575d6f1a"},"vehicle_type_id":"4","last_reported":1701277607,"current_range_meters":0,"station_id":"ce4bgjh2rcd13ifvqbg0","pricing_plan_id":"free"},{"bike_id":"aebb5f1f-3a1e-4323-a4f0-ae83e0b78d14","system_id":"levelo_inurba_marseille","lat":43.327603,"lon":5.36705,"is_reserved":false,"is_disabled":false,"rental_uris":{"android":"levelo://app?vid=aebb5f1f-3a1e-4323-a4f0-ae83e0b78d14","ios":"levelo://app?vid=aebb5f1f-3a1e-4323-a4f0-ae83e0b78d14"},"vehicle_type_id":"4","last_reported":1701277607,"current_range_meters":27600,"station_id":"","pricing_plan_id":"free"},{"bike_id":"35b80531-8046-40e1-8205-aabad0c7bd4d","system_id":"levelo_inurba_marseille","lat":43.311722,"lon":5.387247,"is_reserved":false,"is_disabled":false,"rental_uris":{"android":"levelo://app?vid=35b80531-8046-40e1-8205-aabad0c7bd4d","ios":"levelo://app?vid=35b80531-8046-40e1-8205-aabad0c7bd4d"},"vehicle_type_id":"4","last_reported":1701277607,"current_range_meters":15200,"station_id":"ce4bgv12rcd13ifvqcp0","pricing_plan_id":"free"},{"bike_id":"0da4b62f-0db6-4479-8cb1-8d25ba70b760","system_id":"levelo_inurba_marseille","lat":43.322872,"lon":5.382756,"is_reserved":false,"is_disabled":false,"rental_uris":{"android":"levelo://app?vid=0da4b62f-0db6-4479-8cb1-8d25ba70b760","ios":"levelo://app?vid=0da4b62f-0db6-4479-8cb1-8d25ba70b760"},"vehicle_type_id":"4","last_reported":1701277607,"current_range_meters":20800,"station_id":"ce4bhr12rcd13ifvqhqg","pricing_plan_id":"free"},{"bike_id":"d36e4daa-8cbf-4921-b012-b92a6a8b8bf6","system_id":"levelo_inurba_marseille","lat":43.322872,"lon":5.382756,"is_reserved":false,"is_disabled":false,"rental_uris":{"android":"levelo://app?vid=d36e4daa-8cbf-4921-b012-b92a6a8b8bf6","ios":"levelo://app?vid=d36e4daa-8cbf-4921-b012-b92a6a8b8bf6"},"vehicle_type_id":"4","last_reported":1701277607,"current_range_meters":7200,"station_id":"ce4bhr12rcd13ifvqhqg","pricing_plan_id":"free"},{"bike_id":"3486d651-45b6-46b6-82dc-903d5fa070d2","system_id":"levelo_inurba_marseille","lat":43.32827,"lon":5.36689,"is_reserved":false,"is_disabled":false,"rental_uris":{"android":"levelo://app?vid=3486d651-45b6-46b6-82dc-903d5fa070d2","ios":"levelo://app?vid=3486d651-45b6-46b6-82dc-903d5fa070d2"},"vehicle_type_id":"4","last_reported":1701277607,"current_range_meters":19600,"station_id":"ce4bhs92rcd13ifvqi0g","pricing_plan_id":"free"},{"bike_id":"8c4ca1db-b96b-4fa5-bedd-ad1c7b8d02f4","system_id":"levelo_inurba_marseille","lat":43.297163,"lon":5.365866,"is_reserved":false,"is_disabled":false,"rental_uris":{"android":"levelo://app?vid=8c4ca1db-b96b-4fa5-bedd-ad1c7b8d02f4","ios":"levelo://app?vid=8c4ca1db-b96b-4fa5-bedd-ad1c7b8d02f4"},"vehicle_type_id":"4","last_reported":1701277607,"current_range_meters":11200,"station_id":"ce4bgn12rcd13ifvqbt0","pricing_plan_id":"free"},{"bike_id":"422ecd82-981c-48f7-acfe-44a96d10ea13","system_id":"levelo_inurba_marseille","lat":43.297163,"lon":5.365866,"is_reserved":false,"is_disabled":false,"rental_uris":{"android":"levelo://app?vid=422ecd82-981c-48f7-acfe-44a96d10ea13","ios":"levelo://app?vid=422ecd82-981c-48f7-acfe-44a96d10ea13"},"vehicle_type_id":"4","last_reported":1701277607,"current_range_meters":28400,"station_id":"ce4bgn12rcd13ifvqbt0","pricing_plan_id":"free"},{"bike_id":"a58c35d5-a52e-4ea6-a8d8-4de6150062dc","system_id":"levelo_inurba_marseille","lat":43.29855,"lon":5.3765,"is_reserved":false,"is_disabled":false,"rental_uris":{"android":"levelo://app?vid=a58c35d5-a52e-4ea6-a8d8-4de6150062dc","ios":"levelo://app?vid=a58c35d5-a52e-4ea6-a8d8-4de6150062dc"},"vehicle_type_id":"4","last_reported":1701277607,"current_range_meters":26400,"station_id":"","pricing_plan_id":"free"},{"bike_id":"bfd2a142-a95f-4ee3-8e0b-04ac2d0f0a83","system_id":"levelo_inurba_marseille","lat":43.2968,"lon":5.37291,"is_reserved":false,"is_disabled":false,"rental_uris":{"android":"levelo://app?vid=bfd2a142-a95f-4ee3-8e0b-04ac2d0f0a83","ios":"levelo://app?vid=bfd2a142-a95f-4ee3-8e0b-04ac2d0f0a83"},"vehicle_type_id":"4","last_reported":1701277607,"current_range_meters":14000,"station_id":"ce4bgk12rcd13ifvqbj0","pricing_plan_id":"free"},{"bike_id":"56768e4e-9386-4af4-86a9-5511352d419c","system_id":"levelo_inurba_marseille","lat":43.296017,"lon":5.367303,"is_reserved":false,"is_disabled":false,"rental_uris":{"android":"levelo://app?vid=56768e4e-9386-4af4-86a9-5511352d419c","ios":"levelo://app?vid=56768e4e-9386-4af4-86a9-5511352d419c"},"vehicle_type_id":"4","last_reported":1701277607,"current_range_meters":11600,"station_id":"ce4bgph2rcd13ifvqc2g","pricing_plan_id":"free"},{"bike_id":"6f4a9f2b-025e-4ce9-a9bf-f1e45e2362df","system_id":"levelo_inurba_marseille","lat":43.295732,"lon":5.37505,"is_reserved":false,"is_disabled":false,"rental_uris":{"android":"levelo://app?vid=6f4a9f2b-025e-4ce9-a9bf-f1e45e2362df","ios":"levelo://app?vid=6f4a9f2b-025e-4ce9-a9bf-f1e45e2362df"},"vehicle_type_id":"4","last_reported":1701277607,"current_range_meters":0,"station_id":"ce4bgh92rcd13ifvqb50","pricing_plan_id":"free"},{"bike_id":"ae402495-8eaa-4f7e-95e8-12345166988e","system_id":"levelo_inurba_marseille","lat":43.295748,"lon":5.37522,"is_reserved":false,"is_disabled":false,"rental_uris":{"android":"levelo://app?vid=ae402495-8eaa-4f7e-95e8-12345166988e","ios":"levelo://app?vid=ae402495-8eaa-4f7e-95e8-12345166988e"},"vehicle_type_id":"4","last_reported":1701277607,"current_range_meters":2800,"station_id":"ce4bgh92rcd13ifvqb50","pricing_plan_id":"free"},{"bike_id":"dff535ce-eeda-481f-b4af-3a10584e7620","system_id":"levelo_inurba_marseille","lat":43.304274,"lon":5.388873,"is_reserved":false,"is_disabled":false,"rental_uris":{"android":"levelo://app?vid=dff535ce-eeda-481f-b4af-3a10584e7620","ios":"levelo://app?vid=dff535ce-eeda-481f-b4af-3a10584e7620"},"vehicle_type_id":"4","last_reported":1701277607,"current_range_meters":2800,"station_id":"ce4bgk12rcd13ifvqbi0","pricing_plan_id":"free"},{"bike_id":"106e0d94-a55e-49ac-9895-c505746d08ca","system_id":"levelo_inurba_marseille","lat":43.304274,"lon":5.388873,"is_reserved":false,"is_disabled":false,"rental_uris":{"android":"levelo://app?vid=106e0d94-a55e-49ac-9895-c505746d08ca","ios":"levelo://app?vid=106e0d94-a55e-49ac-9895-c505746d08ca"},"vehicle_type_id":"4","last_reported":1701277607,"current_range_meters":0,"station_id":"ce4bgk12rcd13ifvqbi0","pricing_plan_id":"free"},{"bike_id":"640418f2-c618-4292-a9fa-7c480f3759f9","system_id":"levelo_inurba_marseille","lat":43.29973,"lon":5.38487,"is_reserved":false,"is_disabled":false,"rental_uris":{"android":"levelo://app?vid=640418f2-c618-4292-a9fa-7c480f3759f9","ios":"levelo://app?vid=640418f2-c618-4292-a9fa-7c480f3759f9"},"vehicle_type_id":"4","last_reported":1701277607,"current_range_meters":0,"station_id":"ce4bgj92rcd13ifvqbd0","pricing_plan_id":"free"},{"bike_id":"e0dbf47d-9aca-46a2-95c2-b6acfc410a42","system_id":"levelo_inurba_marseille","lat":43.299707,"lon":5.384859,"is_reserved":false,"is_disabled":false,"rental_uris":{"android":"levelo://app?vid=e0dbf47d-9aca-46a2-95c2-b6acfc410a42","ios":"levelo://app?vid=e0dbf47d-9aca-46a2-95c2-b6acfc410a42"},"vehicle_type_id":"4","last_reported":1701277607,"current_range_meters":3600,"station_id":"ce4bgj92rcd13ifvqbd0","pricing_plan_id":"free"},{"bike_id":"15da0b4f-77ff-4f70-908f-d29e92cd5483","system_id":"levelo_inurba_marseille","lat":43.299717,"lon":5.384845,"is_reserved":false,"is_disabled":false,"rental_uris":{"android":"levelo://app?vid=15da0b4f-77ff-4f70-908f-d29e92cd5483","ios":"levelo://app?vid=15da0b4f-77ff-4f70-908f-d29e92cd5483"},"vehicle_type_id":"4","last_reported":1701277607,"current_range_meters":0,"station_id":"ce4bgj92rcd13ifvqbd0","pricing_plan_id":"free"},{"bike_id":"bb23399e-524e-43ac-9bfa-d55c1864d6d3","system_id":"levelo_inurba_marseille","lat":43.32364,"lon":5.3889,"is_reserved":false,"is_disabled":false,"rental_uris":{"android":"levelo://app?vid=bb23399e-524e-43ac-9bfa-d55c1864d6d3","ios":"levelo://app?vid=bb23399e-524e-43ac-9bfa-d55c1864d6d3"},"vehicle_type_id":"4","last_reported":1701277607,"current_range_meters":24000,"station_id":"ce4bhqp2rcd13ifvqhog","pricing_plan_id":"free"},{"bike_id":"5ee05c64-27da-442f-adfa-267bf4577d41","system_id":"levelo_inurba_marseille","lat":43.32365,"lon":5.3889,"is_reserved":false,"is_disabled":false,"rental_uris":{"android":"levelo://app?vid=5ee05c64-27da-442f-adfa-267bf4577d41","ios":"levelo://app?vid=5ee05c64-27da-442f-adfa-267bf4577d41"},"vehicle_type_id":"4","last_reported":1701277607,"current_range_meters":12400,"station_id":"ce4bhqp2rcd13ifvqhog","pricing_plan_id":"free"},{"bike_id":"0777a99f-c820-4d0a-be6d-63843a16821a","system_id":"levelo_inurba_marseille","lat":43.32366,"lon":5.3889,"is_reserved":false,"is_disabled":false,"rental_uris":{"android":"levelo://app?vid=0777a99f-c820-4d0a-be6d-63843a16821a","ios":"levelo://app?vid=0777a99f-c820-4d0a-be6d-63843a16821a"},"vehicle_type_id":"4","last_reported":1701277607,"current_range_meters":4000,"station_id":"ce4bhqp2rcd13ifvqhog","pricing_plan_id":"free"},{"bike_id":"63876e34-d4b5-4d1d-9353-985b00d0b682","system_id":"levelo_inurba_marseille","lat":43.29602,"lon":5.381084,"is_reserved":false,"is_disabled":false,"rental_uris":{"android":"levelo://app?vid=63876e34-d4b5-4d1d-9353-985b00d0b682","ios":"levelo://app?vid=63876e34-d4b5-4d1d-9353-985b00d0b682"},"vehicle_type_id":"4","last_reported":1701277607,"current_range_meters":9600,"station_id":"ce4bgl12rcd13ifvqbo0","pricing_plan_id":"free"},{"bike_id":"465a9787-40f8-4237-bf33-3ffaa07524cb","system_id":"levelo_inurba_marseille","lat":43.292749,"lon":5.368402,"is_reserved":false,"is_disabled":false,"rental_uris":{"android":"levelo://app?vid=465a9787-40f8-4237-bf33-3ffaa07524cb","ios":"levelo://app?vid=465a9787-40f8-4237-bf33-3ffaa07524cb"},"vehicle_type_id":"4","last_reported":1701277607,"current_range_meters":21600,"station_id":"ce4bhbp2rcd13ifvqesg","pricing_plan_id":"free"},{"bike_id":"15525196-49d8-4351-8e35-8721c752dca1","system_id":"levelo_inurba_marseille","lat":43.305671,"lon":5.393628,"is_reserved":false,"is_disabled":false,"rental_uris":{"android":"levelo://app?vid=15525196-49d8-4351-8e35-8721c752dca1","ios":"levelo://app?vid=15525196-49d8-4351-8e35-8721c752dca1"},"vehicle_type_id":"4","last_reported":1701277607,"current_range_meters":0,"station_id":"","pricing_plan_id":"free"},{"bike_id":"a5ef95ea-2122-4a97-882f-2fba082a4a69","system_id":"levelo_inurba_marseille","lat":43.2936,"lon":5.37835,"is_reserved":false,"is_disabled":false,"rental_uris":{"android":"levelo://app?vid=a5ef95ea-2122-4a97-882f-2fba082a4a69","ios":"levelo://app?vid=a5ef95ea-2122-4a97-882f-2fba082a4a69"},"vehicle_type_id":"4","last_reported":1701277607,"current_range_meters":0,"station_id":"ce4bgjh2rcd13ifvqbf0","pricing_plan_id":"free"},{"bike_id":"2a0770d0-078e-4cab-b2ea-d76cf8492e14","system_id":"levelo_inurba_marseille","lat":43.298764,"lon":5.388973,"is_reserved":false,"is_disabled":false,"rental_uris":{"android":"levelo://app?vid=2a0770d0-078e-4cab-b2ea-d76cf8492e14","ios":"levelo://app?vid=2a0770d0-078e-4cab-b2ea-d76cf8492e14"},"vehicle_type_id":"4","last_reported":1701277607,"current_range_meters":22000,"station_id":"ce4bh392rcd13ifvqdl0","pricing_plan_id":"free"},{"bike_id":"d736a3a0-e0ba-44c9-be47-b2c5d3595594","system_id":"levelo_inurba_marseille","lat":43.3133,"lon":5.39692,"is_reserved":false,"is_disabled":false,"rental_uris":{"android":"levelo://app?vid=d736a3a0-e0ba-44c9-be47-b2c5d3595594","ios":"levelo://app?vid=d736a3a0-e0ba-44c9-be47-b2c5d3595594"},"vehicle_type_id":"4","last_reported":1701277607,"current_range_meters":0,"station_id":"ce4bgvp2rcd13ifvqcu0","pricing_plan_id":"free"},{"bike_id":"4a09bbcc-4a9b-4e20-a1dd-dc2d704c2936","system_id":"levelo_inurba_marseille","lat":43.31331,"lon":5.397,"is_reserved":false,"is_disabled":false,"rental_uris":{"android":"levelo://app?vid=4a09bbcc-4a9b-4e20-a1dd-dc2d704c2936","ios":"levelo://app?vid=4a09bbcc-4a9b-4e20-a1dd-dc2d704c2936"},"vehicle_type_id":"4","last_reported":1701277607,"current_range_meters":0,"station_id":"ce4bgvp2rcd13ifvqcu0","pricing_plan_id":"free"},{"bike_id":"6d6bab3f-4f99-42a8-bc9d-bc74d6153ad6","system_id":"levelo_inurba_marseille","lat":43.309038,"lon":5.396546,"is_reserved":false,"is_disabled":false,"rental_uris":{"android":"levelo://app?vid=6d6bab3f-4f99-42a8-bc9d-bc74d6153ad6","ios":"levelo://app?vid=6d6bab3f-4f99-42a8-bc9d-bc74d6153ad6"},"vehicle_type_id":"4","last_reported":1701277607,"current_range_meters":5200,"station_id":"ce4bh012rcd13ifvqcv0","pricing_plan_id":"free"},{"bike_id":"aefb3414-4fb2-4f0e-bffb-5330911e92c1","system_id":"levelo_inurba_marseille","lat":43.309038,"lon":5.396546,"is_reserved":false,"is_disabled":false,"rental_uris":{"android":"levelo://app?vid=aefb3414-4fb2-4f0e-bffb-5330911e92c1","ios":"levelo://app?vid=aefb3414-4fb2-4f0e-bffb-5330911e92c1"},"vehicle_type_id":"4","last_reported":1701277607,"current_range_meters":4000,"station_id":"ce4bh012rcd13ifvqcv0","pricing_plan_id":"free"},{"bike_id":"285422c3-ffea-4438-886d-cac9dc806a7b","system_id":"levelo_inurba_marseille","lat":43.309047,"lon":5.396551,"is_reserved":false,"is_disabled":false,"rental_uris":{"android":"levelo://app?vid=285422c3-ffea-4438-886d-cac9dc806a7b","ios":"levelo://app?vid=285422c3-ffea-4438-886d-cac9dc806a7b"},"vehicle_type_id":"4","last_reported":1701277607,"current_range_meters":8800,"station_id":"ce4bh012rcd13ifvqcv0","pricing_plan_id":"free"},{"bike_id":"758509dc-ce6c-4ab4-946e-ab56cca1f9c9","system_id":"levelo_inurba_marseille","lat":43.29529,"lon":5.385581,"is_reserved":false,"is_disabled":false,"rental_uris":{"android":"levelo://app?vid=758509dc-ce6c-4ab4-946e-ab56cca1f9c9","ios":"levelo://app?vid=758509dc-ce6c-4ab4-946e-ab56cca1f9c9"},"vehicle_type_id":"4","last_reported":1701277607,"current_range_meters":12400,"station_id":"ce4bgih2rcd13ifvqba0","pricing_plan_id":"free"},{"bike_id":"ff31f675-adf4-4d69-9e9d-58a5a49182e4","system_id":"levelo_inurba_marseille","lat":43.290779,"lon":5.371482,"is_reserved":false,"is_disabled":false,"rental_uris":{"android":"levelo://app?vid=ff31f675-adf4-4d69-9e9d-58a5a49182e4","ios":"levelo://app?vid=ff31f675-adf4-4d69-9e9d-58a5a49182e4"},"vehicle_type_id":"4","last_reported":1701277607,"current_range_meters":19600,"station_id":"ce4bh5p2rcd13ifvqe4g","pricing_plan_id":"free"},{"bike_id":"ff1ed000-c085-4863-847d-b824a5639b7f","system_id":"levelo_inurba_marseille","lat":43.290779,"lon":5.371482,"is_reserved":false,"is_disabled":false,"rental_uris":{"android":"levelo://app?vid=ff1ed000-c085-4863-847d-b824a5639b7f","ios":"levelo://app?vid=ff1ed000-c085-4863-847d-b824a5639b7f"},"vehicle_type_id":"4","last_reported":1701277607,"current_range_meters":31200,"station_id":"ce4bh5p2rcd13ifvqe4g","pricing_plan_id":"free"},{"bike_id":"e2cbec63-d729-4e80-ad98-74bf8db208bd","system_id":"levelo_inurba_marseille","lat":43.302008,"lon":5.394694,"is_reserved":false,"is_disabled":false,"rental_uris":{"android":"levelo://app?vid=e2cbec63-d729-4e80-ad98-74bf8db208bd","ios":"levelo://app?vid=e2cbec63-d729-4e80-ad98-74bf8db208bd"},"vehicle_type_id":"4","last_reported":1701277607,"current_range_meters":10400,"station_id":"ce4bh0p2rcd13ifvqd70","pricing_plan_id":"free"},{"bike_id":"d2ac74d8-363f-4fbd-99b6-e1736b5dff26","system_id":"levelo_inurba_marseille","lat":43.289184,"lon":5.366408,"is_reserved":false,"is_disabled":false,"rental_uris":{"android":"levelo://app?vid=d2ac74d8-363f-4fbd-99b6-e1736b5dff26","ios":"levelo://app?vid=d2ac74d8-363f-4fbd-99b6-e1736b5dff26"},"vehicle_type_id":"4","last_reported":1701277607,"current_range_meters":16800,"station_id":"ce4bhap2rcd13ifvqek0","pricing_plan_id":"free"},{"bike_id":"0c78b78a-523b-451f-9802-b370b8bc8f6a","system_id":"levelo_inurba_marseille","lat":43.289184,"lon":5.366408,"is_reserved":false,"is_disabled":false,"rental_uris":{"android":"levelo://app?vid=0c78b78a-523b-451f-9802-b370b8bc8f6a","ios":"levelo://app?vid=0c78b78a-523b-451f-9802-b370b8bc8f6a"},"vehicle_type_id":"4","last_reported":1701277607,"current_range_meters":6400,"station_id":"ce4bhap2rcd13ifvqek0","pricing_plan_id":"free"},{"bike_id":"9f663db8-e9d4-4d9f-8975-680b6ce2a0e5","system_id":"levelo_inurba_marseille","lat":43.28952,"lon":5.36407,"is_reserved":false,"is_disabled":false,"rental_uris":{"android":"levelo://app?vid=9f663db8-e9d4-4d9f-8975-680b6ce2a0e5","ios":"levelo://app?vid=9f663db8-e9d4-4d9f-8975-680b6ce2a0e5"},"vehicle_type_id":"4","last_reported":1701277607,"current_range_meters":27200,"station_id":"ce4bhc92rcd13ifvqetg","pricing_plan_id":"free"},{"bike_id":"3c852f68-0f38-4e7e-9fea-2aa181ae2ab5","system_id":"levelo_inurba_marseille","lat":43.289184,"lon":5.366408,"is_reserved":false,"is_disabled":false,"rental_uris":{"android":"levelo://app?vid=3c852f68-0f38-4e7e-9fea-2aa181ae2ab5","ios":"levelo://app?vid=3c852f68-0f38-4e7e-9fea-2aa181ae2ab5"},"vehicle_type_id":"4","last_reported":1701277607,"current_range_meters":0,"station_id":"ce4bhap2rcd13ifvqek0","pricing_plan_id":"free"},{"bike_id":"552de4a7-f9c7-4e63-b970-a90ce9bde369","system_id":"levelo_inurba_marseille","lat":43.289184,"lon":5.366408,"is_reserved":false,"is_disabled":false,"rental_uris":{"android":"levelo://app?vid=552de4a7-f9c7-4e63-b970-a90ce9bde369","ios":"levelo://app?vid=552de4a7-f9c7-4e63-b970-a90ce9bde369"},"vehicle_type_id":"4","last_reported":1701277607,"current_range_meters":0,"station_id":"ce4bhap2rcd13ifvqek0","pricing_plan_id":"free"},{"bike_id":"299211fa-4ba1-4cd2-a393-7c99d6e7ec3b","system_id":"levelo_inurba_marseille","lat":43.289743,"lon":5.378304,"is_reserved":false,"is_disabled":false,"rental_uris":{"android":"levelo://app?vid=299211fa-4ba1-4cd2-a393-7c99d6e7ec3b","ios":"levelo://app?vid=299211fa-4ba1-4cd2-a393-7c99d6e7ec3b"},"vehicle_type_id":"4","last_reported":1701277607,"current_range_meters":2800,"station_id":"ce4bh9p2rcd13ifvqed0","pricing_plan_id":"free"},{"bike_id":"32b1292a-58a1-4b93-ae2e-4eeb301a1254","system_id":"levelo_inurba_marseille","lat":43.297815,"lon":5.393548,"is_reserved":false,"is_disabled":false,"rental_uris":{"android":"levelo://app?vid=32b1292a-58a1-4b93-ae2e-4eeb301a1254","ios":"levelo://app?vid=32b1292a-58a1-4b93-ae2e-4eeb301a1254"},"vehicle_type_id":"4","last_reported":1701277607,"current_range_meters":21600,"station_id":"chh1huq6cuj3fo74tm60","pricing_plan_id":"free"},{"bike_id":"4c8ca4bf-18f8-4798-9657-4dfe9abdaba7","system_id":"levelo_inurba_marseille","lat":43.29525,"lon":5.39031,"is_reserved":false,"is_disabled":false,"rental_uris":{"android":"levelo://app?vid=4c8ca4bf-18f8-4798-9657-4dfe9abdaba7","ios":"levelo://app?vid=4c8ca4bf-18f8-4798-9657-4dfe9abdaba7"},"vehicle_type_id":"4","last_reported":1701277607,"current_range_meters":22400,"station_id":"ce4bh3p2rcd13ifvqdp0","pricing_plan_id":"free"},{"bike_id":"571b9fb1-1bbd-435f-8c44-7689ef5de699","system_id":"levelo_inurba_marseille","lat":43.295169,"lon":5.390426,"is_reserved":false,"is_disabled":false,"rental_uris":{"android":"levelo://app?vid=571b9fb1-1bbd-435f-8c44-7689ef5de699","ios":"levelo://app?vid=571b9fb1-1bbd-435f-8c44-7689ef5de699"},"vehicle_type_id":"4","last_reported":1701277607,"current_range_meters":12000,"station_id":"ce4bh3p2rcd13ifvqdp0","pricing_plan_id":"free"},{"bike_id":"cd303de2-539d-4aad-b45e-65166ea341e2","system_id":"levelo_inurba_marseille","lat":43.309298,"lon":5.401435,"is_reserved":false,"is_disabled":false,"rental_uris":{"android":"levelo://app?vid=cd303de2-539d-4aad-b45e-65166ea341e2","ios":"levelo://app?vid=cd303de2-539d-4aad-b45e-65166ea341e2"},"vehicle_type_id":"4","last_reported":1701277607,"current_range_meters":1600,"station_id":"ce4bgvp2rcd13ifvqct0","pricing_plan_id":"free"},{"bike_id":"fb5f170d-2490-4436-87a6-bba2582b13d8","system_id":"levelo_inurba_marseille","lat":43.33755,"lon":5.37464,"is_reserved":false,"is_disabled":false,"rental_uris":{"android":"levelo://app?vid=fb5f170d-2490-4436-87a6-bba2582b13d8","ios":"levelo://app?vid=fb5f170d-2490-4436-87a6-bba2582b13d8"},"vehicle_type_id":"4","last_reported":1701277607,"current_range_meters":20800,"station_id":"","pricing_plan_id":"free"},{"bike_id":"efc4f5d1-cdac-4eb1-a9da-759885cbd675","system_id":"levelo_inurba_marseille","lat":43.301117,"lon":5.398795,"is_reserved":false,"is_disabled":false,"rental_uris":{"android":"levelo://app?vid=efc4f5d1-cdac-4eb1-a9da-759885cbd675","ios":"levelo://app?vid=efc4f5d1-cdac-4eb1-a9da-759885cbd675"},"vehicle_type_id":"4","last_reported":1701277607,"current_range_meters":12000,"station_id":"ce4bh0h2rcd13ifvqd40","pricing_plan_id":"free"},{"bike_id":"26028496-dbe3-4a6f-9eb6-90ffd80cad48","system_id":"levelo_inurba_marseille","lat":43.28727,"lon":5.36078,"is_reserved":false,"is_disabled":false,"rental_uris":{"android":"levelo://app?vid=26028496-dbe3-4a6f-9eb6-90ffd80cad48","ios":"levelo://app?vid=26028496-dbe3-4a6f-9eb6-90ffd80cad48"},"vehicle_type_id":"4","last_reported":1701277607,"current_range_meters":15200,"station_id":"cki0cbj6b192h4jlfktg","pricing_plan_id":"free"},{"bike_id":"c9c2ce1b-8eaf-4dd8-8572-e8fa5fed8f69","system_id":"levelo_inurba_marseille","lat":43.298681,"lon":5.397225,"is_reserved":false,"is_disabled":false,"rental_uris":{"android":"levelo://app?vid=c9c2ce1b-8eaf-4dd8-8572-e8fa5fed8f69","ios":"levelo://app?vid=c9c2ce1b-8eaf-4dd8-8572-e8fa5fed8f69"},"vehicle_type_id":"4","last_reported":1701277607,"current_range_meters":14000,"station_id":"ce4bh0h2rcd13ifvqd50","pricing_plan_id":"free"},{"bike_id":"d4e70d9a-6833-426a-86e3-f910aecd3b75","system_id":"levelo_inurba_marseille","lat":43.286591,"lon":5.363346,"is_reserved":false,"is_disabled":false,"rental_uris":{"android":"levelo://app?vid=d4e70d9a-6833-426a-86e3-f910aecd3b75","ios":"levelo://app?vid=d4e70d9a-6833-426a-86e3-f910aecd3b75"},"vehicle_type_id":"4","last_reported":1701277607,"current_range_meters":20000,"station_id":"ce4bhah2rcd13ifvqej0","pricing_plan_id":"free"},{"bike_id":"1e401612-d892-4131-937f-31c0cda1a881","system_id":"levelo_inurba_marseille","lat":43.286593,"lon":5.363346,"is_reserved":false,"is_disabled":false,"rental_uris":{"android":"levelo://app?vid=1e401612-d892-4131-937f-31c0cda1a881","ios":"levelo://app?vid=1e401612-d892-4131-937f-31c0cda1a881"},"vehicle_type_id":"4","last_reported":1701277607,"current_range_meters":0,"station_id":"ce4bhah2rcd13ifvqej0","pricing_plan_id":"free"},{"bike_id":"680f38b3-10bc-49e7-8b04-2ba3b1915b37","system_id":"levelo_inurba_marseille","lat":43.286593,"lon":5.363346,"is_reserved":false,"is_disabled":false,"rental_uris":{"android":"levelo://app?vid=680f38b3-10bc-49e7-8b04-2ba3b1915b37","ios":"levelo://app?vid=680f38b3-10bc-49e7-8b04-2ba3b1915b37"},"vehicle_type_id":"4","last_reported":1701277607,"current_range_meters":11600,"station_id":"ce4bhah2rcd13ifvqej0","pricing_plan_id":"free"},{"bike_id":"d6bee68e-4184-47cc-a9db-1cdd22caa02b","system_id":"levelo_inurba_marseille","lat":43.290344,"lon":5.386452,"is_reserved":false,"is_disabled":false,"rental_uris":{"android":"levelo://app?vid=d6bee68e-4184-47cc-a9db-1cdd22caa02b","ios":"levelo://app?vid=d6bee68e-4184-47cc-a9db-1cdd22caa02b"},"vehicle_type_id":"4","last_reported":1701277607,"current_range_meters":21200,"station_id":"ce4bh4p2rcd13ifvqe0g","pricing_plan_id":"free"},{"bike_id":"9b4c07bb-e7c7-4555-b636-8f7f7e03eb36","system_id":"levelo_inurba_marseille","lat":43.29027,"lon":5.38638,"is_reserved":false,"is_disabled":false,"rental_uris":{"android":"levelo://app?vid=9b4c07bb-e7c7-4555-b636-8f7f7e03eb36","ios":"levelo://app?vid=9b4c07bb-e7c7-4555-b636-8f7f7e03eb36"},"vehicle_type_id":"4","last_reported":1701277607,"current_range_meters":0,"station_id":"","pricing_plan_id":"free"},{"bike_id":"731cdb0d-b90f-453d-9a1e-96bfe6f39119","system_id":"levelo_inurba_marseille","lat":43.302759,"lon":5.400793,"is_reserved":false,"is_disabled":false,"rental_uris":{"android":"levelo://app?vid=731cdb0d-b90f-453d-9a1e-96bfe6f39119","ios":"levelo://app?vid=731cdb0d-b90f-453d-9a1e-96bfe6f39119"},"vehicle_type_id":"4","last_reported":1701277607,"current_range_meters":2400,"station_id":"ce4bgvh2rcd13ifvqcs0","pricing_plan_id":"free"},{"bike_id":"954f4efa-609b-491c-b070-69b1a37e943b","system_id":"levelo_inurba_marseille","lat":43.286039,"lon":5.370679,"is_reserved":false,"is_disabled":false,"rental_uris":{"android":"levelo://app?vid=954f4efa-609b-491c-b070-69b1a37e943b","ios":"levelo://app?vid=954f4efa-609b-491c-b070-69b1a37e943b"},"vehicle_type_id":"4","last_reported":1701277607,"current_range_meters":1600,"station_id":"ce4bht12rcd13ifvqi60","pricing_plan_id":"free"},{"bike_id":"b90edfcd-0c25-4a1b-9cff-c409f38b75b5","system_id":"levelo_inurba_marseille","lat":43.316517,"lon":5.404375,"is_reserved":false,"is_disabled":false,"rental_uris":{"android":"levelo://app?vid=b90edfcd-0c25-4a1b-9cff-c409f38b75b5","ios":"levelo://app?vid=b90edfcd-0c25-4a1b-9cff-c409f38b75b5"},"vehicle_type_id":"4","last_reported":1701277607,"current_range_meters":18400,"station_id":"ce4bh012rcd13ifvqd00","pricing_plan_id":"free"},{"bike_id":"eb198927-43a0-4a01-ad6d-9c94c79e011f","system_id":"levelo_inurba_marseille","lat":43.316517,"lon":5.404375,"is_reserved":false,"is_disabled":false,"rental_uris":{"android":"levelo://app?vid=eb198927-43a0-4a01-ad6d-9c94c79e011f","ios":"levelo://app?vid=eb198927-43a0-4a01-ad6d-9c94c79e011f"},"vehicle_type_id":"4","last_reported":1701277607,"current_range_meters":19600,"station_id":"ce4bh012rcd13ifvqd00","pricing_plan_id":"free"},{"bike_id":"45ede02c-c6a3-4fbb-b67f-c8a2563892a7","system_id":"levelo_inurba_marseille","lat":43.291994,"lon":5.392907,"is_reserved":false,"is_disabled":false,"rental_uris":{"android":"levelo://app?vid=45ede02c-c6a3-4fbb-b67f-c8a2563892a7","ios":"levelo://app?vid=45ede02c-c6a3-4fbb-b67f-c8a2563892a7"},"vehicle_type_id":"4","last_reported":1701277607,"current_range_meters":21600,"station_id":"ce4bh192rcd13ifvqdd0","pricing_plan_id":"free"},{"bike_id":"b3a03462-443f-4af8-a42b-5296212551ee","system_id":"levelo_inurba_marseille","lat":43.29197,"lon":5.39316,"is_reserved":false,"is_disabled":false,"rental_uris":{"android":"levelo://app?vid=b3a03462-443f-4af8-a42b-5296212551ee","ios":"levelo://app?vid=b3a03462-443f-4af8-a42b-5296212551ee"},"vehicle_type_id":"4","last_reported":1701277607,"current_range_meters":3600,"station_id":"ce4bh192rcd13ifvqdd0","pricing_plan_id":"free"},{"bike_id":"1649f1a9-c131-4e36-8045-1cc8a622f0f5","system_id":"levelo_inurba_marseille","lat":43.291994,"lon":5.392907,"is_reserved":false,"is_disabled":false,"rental_uris":{"android":"levelo://app?vid=1649f1a9-c131-4e36-8045-1cc8a622f0f5","ios":"levelo://app?vid=1649f1a9-c131-4e36-8045-1cc8a622f0f5"},"vehicle_type_id":"4","last_reported":1701277607,"current_range_meters":26000,"station_id":"ce4bh192rcd13ifvqdd0","pricing_plan_id":"free"},{"bike_id":"a6362d52-6052-4900-8cf3-c43110ab7b40","system_id":"levelo_inurba_marseille","lat":43.29195,"lon":5.39338,"is_reserved":false,"is_disabled":false,"rental_uris":{"android":"levelo://app?vid=a6362d52-6052-4900-8cf3-c43110ab7b40","ios":"levelo://app?vid=a6362d52-6052-4900-8cf3-c43110ab7b40"},"vehicle_type_id":"4","last_reported":1701277607,"current_range_meters":0,"station_id":"ce4bh192rcd13ifvqdd0","pricing_plan_id":"free"},{"bike_id":"52f300b5-2517-4d60-bf42-81013e1d3c7a","system_id":"levelo_inurba_marseille","lat":43.284538,"lon":5.358657,"is_reserved":false,"is_disabled":false,"rental_uris":{"android":"levelo://app?vid=52f300b5-2517-4d60-bf42-81013e1d3c7a","ios":"levelo://app?vid=52f300b5-2517-4d60-bf42-81013e1d3c7a"},"vehicle_type_id":"4","last_reported":1701277607,"current_range_meters":26000,"station_id":"ce4bhah2rcd13ifvqei0","pricing_plan_id":"free"},{"bike_id":"4decc44a-bd91-4d7a-870b-2ad1ea885f5b","system_id":"levelo_inurba_marseille","lat":43.284538,"lon":5.358657,"is_reserved":false,"is_disabled":false,"rental_uris":{"android":"levelo://app?vid=4decc44a-bd91-4d7a-870b-2ad1ea885f5b","ios":"levelo://app?vid=4decc44a-bd91-4d7a-870b-2ad1ea885f5b"},"vehicle_type_id":"4","last_reported":1701277607,"current_range_meters":23200,"station_id":"ce4bhah2rcd13ifvqei0","pricing_plan_id":"free"},{"bike_id":"bce8683f-c779-4be1-a388-197e44b65b21","system_id":"levelo_inurba_marseille","lat":43.28462,"lon":5.358903,"is_reserved":false,"is_disabled":false,"rental_uris":{"android":"levelo://app?vid=bce8683f-c779-4be1-a388-197e44b65b21","ios":"levelo://app?vid=bce8683f-c779-4be1-a388-197e44b65b21"},"vehicle_type_id":"4","last_reported":1701277607,"current_range_meters":4800,"station_id":"ce4bhah2rcd13ifvqei0","pricing_plan_id":"free"},{"bike_id":"1f1ca563-358a-4120-8cd6-64730c1d51af","system_id":"levelo_inurba_marseille","lat":43.284538,"lon":5.358657,"is_reserved":false,"is_disabled":false,"rental_uris":{"android":"levelo://app?vid=1f1ca563-358a-4120-8cd6-64730c1d51af","ios":"levelo://app?vid=1f1ca563-358a-4120-8cd6-64730c1d51af"},"vehicle_type_id":"4","last_reported":1701277607,"current_range_meters":12000,"station_id":"ce4bhah2rcd13ifvqei0","pricing_plan_id":"free"},{"bike_id":"d2120d76-0fad-47eb-b244-dc59d199f1f4","system_id":"levelo_inurba_marseille","lat":43.333385,"lon":5.397672,"is_reserved":false,"is_disabled":false,"rental_uris":{"android":"levelo://app?vid=d2120d76-0fad-47eb-b244-dc59d199f1f4","ios":"levelo://app?vid=d2120d76-0fad-47eb-b244-dc59d199f1f4"},"vehicle_type_id":"4","last_reported":1701277607,"current_range_meters":2400,"station_id":"","pricing_plan_id":"free"},{"bike_id":"a3b4d41c-c0c1-4f1c-86c9-4ce38700ebb8","system_id":"levelo_inurba_marseille","lat":43.284793,"lon":5.384119,"is_reserved":false,"is_disabled":false,"rental_uris":{"android":"levelo://app?vid=a3b4d41c-c0c1-4f1c-86c9-4ce38700ebb8","ios":"levelo://app?vid=a3b4d41c-c0c1-4f1c-86c9-4ce38700ebb8"},"vehicle_type_id":"4","last_reported":1701277607,"current_range_meters":3600,"station_id":"ce4bh512rcd13ifvqe3g","pricing_plan_id":"free"},{"bike_id":"76e0c885-c60a-4838-b008-82a3bcce8cd0","system_id":"levelo_inurba_marseille","lat":43.284683,"lon":5.384177,"is_reserved":false,"is_disabled":false,"rental_uris":{"android":"levelo://app?vid=76e0c885-c60a-4838-b008-82a3bcce8cd0","ios":"levelo://app?vid=76e0c885-c60a-4838-b008-82a3bcce8cd0"},"vehicle_type_id":"4","last_reported":1701277607,"current_range_meters":2400,"station_id":"ce4bh512rcd13ifvqe3g","pricing_plan_id":"free"},{"bike_id":"871aadb9-fffa-4ace-84ea-bfc7195a1204","system_id":"levelo_inurba_marseille","lat":43.29795,"lon":5.404086,"is_reserved":false,"is_disabled":false,"rental_uris":{"android":"levelo://app?vid=871aadb9-fffa-4ace-84ea-bfc7195a1204","ios":"levelo://app?vid=871aadb9-fffa-4ace-84ea-bfc7195a1204"},"vehicle_type_id":"4","last_reported":1701277607,"current_range_meters":17600,"station_id":"ce4bh112rcd13ifvqd90","pricing_plan_id":"free"},{"bike_id":"f6efdc12-706a-4830-977e-783e80ee7ec4","system_id":"levelo_inurba_marseille","lat":43.29795,"lon":5.404086,"is_reserved":false,"is_disabled":false,"rental_uris":{"android":"levelo://app?vid=f6efdc12-706a-4830-977e-783e80ee7ec4","ios":"levelo://app?vid=f6efdc12-706a-4830-977e-783e80ee7ec4"},"vehicle_type_id":"4","last_reported":1701277607,"current_range_meters":6400,"station_id":"ce4bh112rcd13ifvqd90","pricing_plan_id":"free"},{"bike_id":"caffbb01-2475-4d62-a344-d6d2f1a256d3","system_id":"levelo_inurba_marseille","lat":43.288501,"lon":5.393087,"is_reserved":false,"is_disabled":false,"rental_uris":{"android":"levelo://app?vid=caffbb01-2475-4d62-a344-d6d2f1a256d3","ios":"levelo://app?vid=caffbb01-2475-4d62-a344-d6d2f1a256d3"},"vehicle_type_id":"4","last_reported":1701277607,"current_range_meters":2800,"station_id":"ce4bh2p2rcd13ifvqdi0","pricing_plan_id":"free"},{"bike_id":"c89b6d09-cc22-46a5-95ad-7cbe42c4b8dd","system_id":"levelo_inurba_marseille","lat":43.292724,"lon":5.401131,"is_reserved":false,"is_disabled":false,"rental_uris":{"android":"levelo://app?vid=c89b6d09-cc22-46a5-95ad-7cbe42c4b8dd","ios":"levelo://app?vid=c89b6d09-cc22-46a5-95ad-7cbe42c4b8dd"},"vehicle_type_id":"4","last_reported":1701277607,"current_range_meters":20400,"station_id":"ce4bh312rcd13ifvqdk0","pricing_plan_id":"free"},{"bike_id":"f6ebb7a9-b097-4f65-bad2-e6900739b283","system_id":"levelo_inurba_marseille","lat":43.28039,"lon":5.369297,"is_reserved":false,"is_disabled":false,"rental_uris":{"android":"levelo://app?vid=f6ebb7a9-b097-4f65-bad2-e6900739b283","ios":"levelo://app?vid=f6ebb7a9-b097-4f65-bad2-e6900739b283"},"vehicle_type_id":"4","last_reported":1701277607,"current_range_meters":20800,"station_id":"ce4bha12rcd13ifvqef0","pricing_plan_id":"free"},{"bike_id":"df12172f-9418-4545-8acb-1a923b49bef8","system_id":"levelo_inurba_marseille","lat":43.283502,"lon":5.386471,"is_reserved":false,"is_disabled":false,"rental_uris":{"android":"levelo://app?vid=df12172f-9418-4545-8acb-1a923b49bef8","ios":"levelo://app?vid=df12172f-9418-4545-8acb-1a923b49bef8"},"vehicle_type_id":"4","last_reported":1701277607,"current_range_meters":16000,"station_id":"ce4bh492rcd13ifvqdvg","pricing_plan_id":"free"},{"bike_id":"8a891255-5e41-470c-bd58-bb776f77a0f2","system_id":"levelo_inurba_marseille","lat":43.28043,"lon":5.36951,"is_reserved":false,"is_disabled":false,"rental_uris":{"android":"levelo://app?vid=8a891255-5e41-470c-bd58-bb776f77a0f2","ios":"levelo://app?vid=8a891255-5e41-470c-bd58-bb776f77a0f2"},"vehicle_type_id":"4","last_reported":1701277607,"current_range_meters":12800,"station_id":"ce4bha12rcd13ifvqef0","pricing_plan_id":"free"},{"bike_id":"275d6402-0ea6-4af0-8fc5-9b35462d469f","system_id":"levelo_inurba_marseille","lat":43.280382,"lon":5.369291,"is_reserved":false,"is_disabled":false,"rental_uris":{"android":"levelo://app?vid=275d6402-0ea6-4af0-8fc5-9b35462d469f","ios":"levelo://app?vid=275d6402-0ea6-4af0-8fc5-9b35462d469f"},"vehicle_type_id":"4","last_reported":1701277607,"current_range_meters":0,"station_id":"ce4bha12rcd13ifvqef0","pricing_plan_id":"free"},{"bike_id":"f3edfa28-1f6b-4879-b4f7-158bdbbdee95","system_id":"levelo_inurba_marseille","lat":43.280382,"lon":5.369291,"is_reserved":false,"is_disabled":false,"rental_uris":{"android":"levelo://app?vid=f3edfa28-1f6b-4879-b4f7-158bdbbdee95","ios":"levelo://app?vid=f3edfa28-1f6b-4879-b4f7-158bdbbdee95"},"vehicle_type_id":"4","last_reported":1701277607,"current_range_meters":17600,"station_id":"ce4bha12rcd13ifvqef0","pricing_plan_id":"free"},{"bike_id":"ec192ce5-d044-4c70-bc66-c04c59104cec","system_id":"levelo_inurba_marseille","lat":43.281044,"lon":5.378308,"is_reserved":false,"is_disabled":false,"rental_uris":{"android":"levelo://app?vid=ec192ce5-d044-4c70-bc66-c04c59104cec","ios":"levelo://app?vid=ec192ce5-d044-4c70-bc66-c04c59104cec"},"vehicle_type_id":"4","last_reported":1701277607,"current_range_meters":12000,"station_id":"ce4bha12rcd13ifvqee0","pricing_plan_id":"free"},{"bike_id":"98d78070-eec9-4a1b-ab75-52e6b8aeb6f1","system_id":"levelo_inurba_marseille","lat":43.281044,"lon":5.378308,"is_reserved":false,"is_disabled":false,"rental_uris":{"android":"levelo://app?vid=98d78070-eec9-4a1b-ab75-52e6b8aeb6f1","ios":"levelo://app?vid=98d78070-eec9-4a1b-ab75-52e6b8aeb6f1"},"vehicle_type_id":"4","last_reported":1701277607,"current_range_meters":31200,"station_id":"ce4bha12rcd13ifvqee0","pricing_plan_id":"free"},{"bike_id":"0c0b19d5-1a90-42fa-86ca-2d5cebe401fc","system_id":"levelo_inurba_marseille","lat":43.281044,"lon":5.378308,"is_reserved":false,"is_disabled":false,"rental_uris":{"android":"levelo://app?vid=0c0b19d5-1a90-42fa-86ca-2d5cebe401fc","ios":"levelo://app?vid=0c0b19d5-1a90-42fa-86ca-2d5cebe401fc"},"vehicle_type_id":"4","last_reported":1701277607,"current_range_meters":12400,"station_id":"ce4bha12rcd13ifvqee0","pricing_plan_id":"free"},{"bike_id":"bc36f6a1-0faf-4230-a98e-d4853a058dde","system_id":"levelo_inurba_marseille","lat":43.281044,"lon":5.378308,"is_reserved":false,"is_disabled":false,"rental_uris":{"android":"levelo://app?vid=bc36f6a1-0faf-4230-a98e-d4853a058dde","ios":"levelo://app?vid=bc36f6a1-0faf-4230-a98e-d4853a058dde"},"vehicle_type_id":"4","last_reported":1701277607,"current_range_meters":18000,"station_id":"ce4bha12rcd13ifvqee0","pricing_plan_id":"free"},{"bike_id":"1a56d2af-520c-4944-91e0-812401ad1ecd","system_id":"levelo_inurba_marseille","lat":43.296263,"lon":5.40601,"is_reserved":false,"is_disabled":false,"rental_uris":{"android":"levelo://app?vid=1a56d2af-520c-4944-91e0-812401ad1ecd","ios":"levelo://app?vid=1a56d2af-520c-4944-91e0-812401ad1ecd"},"vehicle_type_id":"4","last_reported":1701277607,"current_range_meters":13600,"station_id":"ce4bh0h2rcd13ifvqd60","pricing_plan_id":"free"},{"bike_id":"950242da-ed7b-4478-a8f0-6a7b9d21aeb7","system_id":"levelo_inurba_marseille","lat":43.281044,"lon":5.378308,"is_reserved":false,"is_disabled":false,"rental_uris":{"android":"levelo://app?vid=950242da-ed7b-4478-a8f0-6a7b9d21aeb7","ios":"levelo://app?vid=950242da-ed7b-4478-a8f0-6a7b9d21aeb7"},"vehicle_type_id":"4","last_reported":1701277607,"current_range_meters":15200,"station_id":"ce4bha12rcd13ifvqee0","pricing_plan_id":"free"},{"bike_id":"938793aa-b3bf-4ebb-9a08-2637a43275a1","system_id":"levelo_inurba_marseille","lat":43.296263,"lon":5.40601,"is_reserved":false,"is_disabled":false,"rental_uris":{"android":"levelo://app?vid=938793aa-b3bf-4ebb-9a08-2637a43275a1","ios":"levelo://app?vid=938793aa-b3bf-4ebb-9a08-2637a43275a1"},"vehicle_type_id":"4","last_reported":1701277607,"current_range_meters":25200,"station_id":"ce4bh0h2rcd13ifvqd60","pricing_plan_id":"free"},{"bike_id":"dedcf8df-01fc-4a40-b033-d63098305b93","system_id":"levelo_inurba_marseille","lat":43.281044,"lon":5.378308,"is_reserved":false,"is_disabled":false,"rental_uris":{"android":"levelo://app?vid=dedcf8df-01fc-4a40-b033-d63098305b93","ios":"levelo://app?vid=dedcf8df-01fc-4a40-b033-d63098305b93"},"vehicle_type_id":"4","last_reported":1701277607,"current_range_meters":28000,"station_id":"ce4bha12rcd13ifvqee0","pricing_plan_id":"free"},{"bike_id":"d961d3ec-8875-4bd8-8d51-4024e9d78ed2","system_id":"levelo_inurba_marseille","lat":43.281044,"lon":5.378308,"is_reserved":false,"is_disabled":false,"rental_uris":{"android":"levelo://app?vid=d961d3ec-8875-4bd8-8d51-4024e9d78ed2","ios":"levelo://app?vid=d961d3ec-8875-4bd8-8d51-4024e9d78ed2"},"vehicle_type_id":"4","last_reported":1701277607,"current_range_meters":11200,"station_id":"ce4bha12rcd13ifvqee0","pricing_plan_id":"free"},{"bike_id":"5f001284-d420-4716-a4f7-3c6723f81512","system_id":"levelo_inurba_marseille","lat":43.296263,"lon":5.40601,"is_reserved":false,"is_disabled":false,"rental_uris":{"android":"levelo://app?vid=5f001284-d420-4716-a4f7-3c6723f81512","ios":"levelo://app?vid=5f001284-d420-4716-a4f7-3c6723f81512"},"vehicle_type_id":"4","last_reported":1701277607,"current_range_meters":3200,"station_id":"ce4bh0h2rcd13ifvqd60","pricing_plan_id":"free"},{"bike_id":"b7245695-2b95-4ad2-979c-35db105a872e","system_id":"levelo_inurba_marseille","lat":43.284462,"lon":5.392121,"is_reserved":false,"is_disabled":false,"rental_uris":{"android":"levelo://app?vid=b7245695-2b95-4ad2-979c-35db105a872e","ios":"levelo://app?vid=b7245695-2b95-4ad2-979c-35db105a872e"},"vehicle_type_id":"4","last_reported":1701277607,"current_range_meters":26000,"station_id":"ce4bhoh2rcd13ifvqh5g","pricing_plan_id":"free"},{"bike_id":"fd1f8412-4ee0-41a8-9d6a-78b70689bb15","system_id":"levelo_inurba_marseille","lat":43.28439,"lon":5.39196,"is_reserved":false,"is_disabled":false,"rental_uris":{"android":"levelo://app?vid=fd1f8412-4ee0-41a8-9d6a-78b70689bb15","ios":"levelo://app?vid=fd1f8412-4ee0-41a8-9d6a-78b70689bb15"},"vehicle_type_id":"4","last_reported":1701277607,"current_range_meters":4400,"station_id":"ce4bhoh2rcd13ifvqh5g","pricing_plan_id":"free"},{"bike_id":"8afbd51c-99de-427b-b3d0-08f22b6d74f4","system_id":"levelo_inurba_marseille","lat":43.279087,"lon":5.380114,"is_reserved":false,"is_disabled":false,"rental_uris":{"android":"levelo://app?vid=8afbd51c-99de-427b-b3d0-08f22b6d74f4","ios":"levelo://app?vid=8afbd51c-99de-427b-b3d0-08f22b6d74f4"},"vehicle_type_id":"4","last_reported":1701277607,"current_range_meters":1600,"station_id":"ce4bhf92rcd13ifvqf50","pricing_plan_id":"free"},{"bike_id":"5afb2e7f-0575-467c-bbf4-fdea6a87a92c","system_id":"levelo_inurba_marseille","lat":43.279087,"lon":5.380114,"is_reserved":false,"is_disabled":false,"rental_uris":{"android":"levelo://app?vid=5afb2e7f-0575-467c-bbf4-fdea6a87a92c","ios":"levelo://app?vid=5afb2e7f-0575-467c-bbf4-fdea6a87a92c"},"vehicle_type_id":"4","last_reported":1701277607,"current_range_meters":0,"station_id":"ce4bhf92rcd13ifvqf50","pricing_plan_id":"free"},{"bike_id":"710aa5e4-1981-432d-8fa5-cf2fb59445a8","system_id":"levelo_inurba_marseille","lat":43.292571,"lon":5.409107,"is_reserved":false,"is_disabled":false,"rental_uris":{"android":"levelo://app?vid=710aa5e4-1981-432d-8fa5-cf2fb59445a8","ios":"levelo://app?vid=710aa5e4-1981-432d-8fa5-cf2fb59445a8"},"vehicle_type_id":"4","last_reported":1701277607,"current_range_meters":14800,"station_id":"ce4bh192rcd13ifvqdc0","pricing_plan_id":"free"},{"bike_id":"70c4704e-0253-4830-911f-92e6d531e9ad","system_id":"levelo_inurba_marseille","lat":43.27622,"lon":5.36111,"is_reserved":false,"is_disabled":false,"rental_uris":{"android":"levelo://app?vid=70c4704e-0253-4830-911f-92e6d531e9ad","ios":"levelo://app?vid=70c4704e-0253-4830-911f-92e6d531e9ad"},"vehicle_type_id":"4","last_reported":1701277607,"current_range_meters":15600,"station_id":"ce4bgj92rcd13ifvqbe0","pricing_plan_id":"free"},{"bike_id":"42439523-e5aa-41eb-a78c-3304593ccbaa","system_id":"levelo_inurba_marseille","lat":43.29256,"lon":5.40918,"is_reserved":false,"is_disabled":false,"rental_uris":{"android":"levelo://app?vid=42439523-e5aa-41eb-a78c-3304593ccbaa","ios":"levelo://app?vid=42439523-e5aa-41eb-a78c-3304593ccbaa"},"vehicle_type_id":"4","last_reported":1701277607,"current_range_meters":1200,"station_id":"ce4bh192rcd13ifvqdc0","pricing_plan_id":"free"},{"bike_id":"beebb394-2e9c-4057-baef-3b0211b92c5c","system_id":"levelo_inurba_marseille","lat":43.292569,"lon":5.409107,"is_reserved":false,"is_disabled":false,"rental_uris":{"android":"levelo://app?vid=beebb394-2e9c-4057-baef-3b0211b92c5c","ios":"levelo://app?vid=beebb394-2e9c-4057-baef-3b0211b92c5c"},"vehicle_type_id":"4","last_reported":1701277607,"current_range_meters":22400,"station_id":"ce4bh192rcd13ifvqdc0","pricing_plan_id":"free"},{"bike_id":"569a7c8d-045c-44fc-aad7-e4fc488ba2dd","system_id":"levelo_inurba_marseille","lat":43.280784,"lon":5.396622,"is_reserved":false,"is_disabled":false,"rental_uris":{"android":"levelo://app?vid=569a7c8d-045c-44fc-aad7-e4fc488ba2dd","ios":"levelo://app?vid=569a7c8d-045c-44fc-aad7-e4fc488ba2dd"},"vehicle_type_id":"4","last_reported":1701277607,"current_range_meters":22400,"station_id":"ce4bho12rcd13ifvqh2g","pricing_plan_id":"free"},{"bike_id":"f24bc288-73f9-4d38-b2ff-bbd72ec4c6da","system_id":"levelo_inurba_marseille","lat":43.2784,"lon":5.3921,"is_reserved":false,"is_disabled":false,"rental_uris":{"android":"levelo://app?vid=f24bc288-73f9-4d38-b2ff-bbd72ec4c6da","ios":"levelo://app?vid=f24bc288-73f9-4d38-b2ff-bbd72ec4c6da"},"vehicle_type_id":"4","last_reported":1701277607,"current_range_meters":0,"station_id":"ce4bhjp2rcd13ifvqga0","pricing_plan_id":"free"},{"bike_id":"6ecd0055-a513-4dea-a0fd-cf4b6716dca9","system_id":"levelo_inurba_marseille","lat":43.273609,"lon":5.362708,"is_reserved":false,"is_disabled":false,"rental_uris":{"android":"levelo://app?vid=6ecd0055-a513-4dea-a0fd-cf4b6716dca9","ios":"levelo://app?vid=6ecd0055-a513-4dea-a0fd-cf4b6716dca9"},"vehicle_type_id":"4","last_reported":1701277607,"current_range_meters":18000,"station_id":"ce4bhbh2rcd13ifvqeo0","pricing_plan_id":"free"},{"bike_id":"2ff8d530-edfd-4dcb-b395-370a78501d2b","system_id":"levelo_inurba_marseille","lat":43.276113,"lon":5.389373,"is_reserved":false,"is_disabled":false,"rental_uris":{"android":"levelo://app?vid=2ff8d530-edfd-4dcb-b395-370a78501d2b","ios":"levelo://app?vid=2ff8d530-edfd-4dcb-b395-370a78501d2b"},"vehicle_type_id":"4","last_reported":1701277607,"current_range_meters":26800,"station_id":"","pricing_plan_id":"free"},{"bike_id":"f56f0157-d2b8-4860-9d96-d2662b8425af","system_id":"levelo_inurba_marseille","lat":43.279952,"lon":5.400085,"is_reserved":false,"is_disabled":false,"rental_uris":{"android":"levelo://app?vid=f56f0157-d2b8-4860-9d96-d2662b8425af","ios":"levelo://app?vid=f56f0157-d2b8-4860-9d96-d2662b8425af"},"vehicle_type_id":"4","last_reported":1701277607,"current_range_meters":23200,"station_id":"ce4bho92rcd13ifvqh4g","pricing_plan_id":"free"},{"bike_id":"f3d8b928-76ed-4254-92d8-6ae044be212c","system_id":"levelo_inurba_marseille","lat":43.279952,"lon":5.400085,"is_reserved":false,"is_disabled":false,"rental_uris":{"android":"levelo://app?vid=f3d8b928-76ed-4254-92d8-6ae044be212c","ios":"levelo://app?vid=f3d8b928-76ed-4254-92d8-6ae044be212c"},"vehicle_type_id":"4","last_reported":1701277607,"current_range_meters":30000,"station_id":"ce4bho92rcd13ifvqh4g","pricing_plan_id":"free"},{"bike_id":"69074476-d243-4f41-9b35-a2ca1c437551","system_id":"levelo_inurba_marseille","lat":43.317121,"lon":5.423936,"is_reserved":false,"is_disabled":false,"rental_uris":{"android":"levelo://app?vid=69074476-d243-4f41-9b35-a2ca1c437551","ios":"levelo://app?vid=69074476-d243-4f41-9b35-a2ca1c437551"},"vehicle_type_id":"4","last_reported":1701277607,"current_range_meters":13200,"station_id":"ce4bhp92rcd13ifvqhbg","pricing_plan_id":"free"},{"bike_id":"895975d4-b512-4f01-b74e-5282988aefb9","system_id":"levelo_inurba_marseille","lat":43.274099,"lon":5.394019,"is_reserved":false,"is_disabled":false,"rental_uris":{"android":"levelo://app?vid=895975d4-b512-4f01-b74e-5282988aefb9","ios":"levelo://app?vid=895975d4-b512-4f01-b74e-5282988aefb9"},"vehicle_type_id":"4","last_reported":1701277607,"current_range_meters":2800,"station_id":"ce4bhdp2rcd13ifvqf20","pricing_plan_id":"free"},{"bike_id":"c3dc8637-ee37-4aeb-8127-66fc8d020f2d","system_id":"levelo_inurba_marseille","lat":43.304096,"lon":5.425385,"is_reserved":false,"is_disabled":false,"rental_uris":{"android":"levelo://app?vid=c3dc8637-ee37-4aeb-8127-66fc8d020f2d","ios":"levelo://app?vid=c3dc8637-ee37-4aeb-8127-66fc8d020f2d"},"vehicle_type_id":"4","last_reported":1701277607,"current_range_meters":9600,"station_id":"ce4bhoh2rcd13ifvqh6g","pricing_plan_id":"free"},{"bike_id":"4629788e-4f7a-4103-b95e-583d0b30f54b","system_id":"levelo_inurba_marseille","lat":43.27283,"lon":5.39092,"is_reserved":false,"is_disabled":false,"rental_uris":{"android":"levelo://app?vid=4629788e-4f7a-4103-b95e-583d0b30f54b","ios":"levelo://app?vid=4629788e-4f7a-4103-b95e-583d0b30f54b"},"vehicle_type_id":"4","last_reported":1701277607,"current_range_meters":0,"station_id":"ce4bhgp2rcd13ifvqfe0","pricing_plan_id":"free"},{"bike_id":"0120dbbf-4353-4df3-96d2-747d00c5e0f6","system_id":"levelo_inurba_marseille","lat":43.2952,"lon":5.42276,"is_reserved":false,"is_disabled":false,"rental_uris":{"android":"levelo://app?vid=0120dbbf-4353-4df3-96d2-747d00c5e0f6","ios":"levelo://app?vid=0120dbbf-4353-4df3-96d2-747d00c5e0f6"},"vehicle_type_id":"4","last_reported":1701277607,"current_range_meters":24000,"station_id":"ce4bhph2rcd13ifvqhdg","pricing_plan_id":"free"},{"bike_id":"1d1727f4-230d-4945-b92f-0c95f84949dc","system_id":"levelo_inurba_marseille","lat":43.29518,"lon":5.42281,"is_reserved":false,"is_disabled":false,"rental_uris":{"android":"levelo://app?vid=1d1727f4-230d-4945-b92f-0c95f84949dc","ios":"levelo://app?vid=1d1727f4-230d-4945-b92f-0c95f84949dc"},"vehicle_type_id":"4","last_reported":1701277607,"current_range_meters":28800,"station_id":"ce4bhph2rcd13ifvqhdg","pricing_plan_id":"free"},{"bike_id":"c0d6895c-75c2-49e1-9c37-e75ea662122d","system_id":"levelo_inurba_marseille","lat":43.272116,"lon":5.391747,"is_reserved":false,"is_disabled":false,"rental_uris":{"android":"levelo://app?vid=c0d6895c-75c2-49e1-9c37-e75ea662122d","ios":"levelo://app?vid=c0d6895c-75c2-49e1-9c37-e75ea662122d"},"vehicle_type_id":"4","last_reported":1701277607,"current_range_meters":0,"station_id":"ce4bhhp2rcd13ifvqfm0","pricing_plan_id":"free"},{"bike_id":"f261c018-f877-4151-8c45-42805450cbf4","system_id":"levelo_inurba_marseille","lat":43.231919,"lon":5.355532,"is_reserved":false,"is_disabled":false,"rental_uris":{"android":"levelo://app?vid=f261c018-f877-4151-8c45-42805450cbf4","ios":"levelo://app?vid=f261c018-f877-4151-8c45-42805450cbf4"},"vehicle_type_id":"4","last_reported":1701277607,"current_range_meters":27200,"station_id":"ce4bhu92rcd13ifvqi70","pricing_plan_id":"free"},{"bike_id":"92e95527-a2d8-46af-bc90-2bd3b2b7eb39","system_id":"levelo_inurba_marseille","lat":43.278128,"lon":5.407195,"is_reserved":false,"is_disabled":false,"rental_uris":{"android":"levelo://app?vid=92e95527-a2d8-46af-bc90-2bd3b2b7eb39","ios":"levelo://app?vid=92e95527-a2d8-46af-bc90-2bd3b2b7eb39"},"vehicle_type_id":"4","last_reported":1701277607,"current_range_meters":7200,"station_id":"ce4bhnh2rcd13ifvqgtg","pricing_plan_id":"free"},{"bike_id":"27d360e1-85df-44b0-88ff-255b897cba20","system_id":"levelo_inurba_marseille","lat":43.278128,"lon":5.407195,"is_reserved":false,"is_disabled":false,"rental_uris":{"android":"levelo://app?vid=27d360e1-85df-44b0-88ff-255b897cba20","ios":"levelo://app?vid=27d360e1-85df-44b0-88ff-255b897cba20"},"vehicle_type_id":"4","last_reported":1701277607,"current_range_meters":24400,"station_id":"ce4bhnh2rcd13ifvqgtg","pricing_plan_id":"free"},{"bike_id":"ba1e8cb7-0974-42d7-8947-a1b823d74697","system_id":"levelo_inurba_marseille","lat":43.269467,"lon":5.386439,"is_reserved":false,"is_disabled":false,"rental_uris":{"android":"levelo://app?vid=ba1e8cb7-0974-42d7-8947-a1b823d74697","ios":"levelo://app?vid=ba1e8cb7-0974-42d7-8947-a1b823d74697"},"vehicle_type_id":"4","last_reported":1701277607,"current_range_meters":18800,"station_id":"ce4bhh92rcd13ifvqfh0","pricing_plan_id":"free"},{"bike_id":"6971dc55-f89c-48fe-9e37-aeea44e0003d","system_id":"levelo_inurba_marseille","lat":43.269467,"lon":5.386439,"is_reserved":false,"is_disabled":false,"rental_uris":{"android":"levelo://app?vid=6971dc55-f89c-48fe-9e37-aeea44e0003d","ios":"levelo://app?vid=6971dc55-f89c-48fe-9e37-aeea44e0003d"},"vehicle_type_id":"4","last_reported":1701277607,"current_range_meters":24800,"station_id":"ce4bhh92rcd13ifvqfh0","pricing_plan_id":"free"},{"bike_id":"045779ff-ce10-49fc-ab34-07600a04f8ad","system_id":"levelo_inurba_marseille","lat":43.27949,"lon":5.41045,"is_reserved":false,"is_disabled":false,"rental_uris":{"android":"levelo://app?vid=045779ff-ce10-49fc-ab34-07600a04f8ad","ios":"levelo://app?vid=045779ff-ce10-49fc-ab34-07600a04f8ad"},"vehicle_type_id":"4","last_reported":1701277607,"current_range_meters":19600,"station_id":"ce4bhnp2rcd13ifvqh0g","pricing_plan_id":"free"},{"bike_id":"2fe0213a-db3b-4099-abf8-142eaf042b75","system_id":"levelo_inurba_marseille","lat":43.279465,"lon":5.410561,"is_reserved":false,"is_disabled":false,"rental_uris":{"android":"levelo://app?vid=2fe0213a-db3b-4099-abf8-142eaf042b75","ios":"levelo://app?vid=2fe0213a-db3b-4099-abf8-142eaf042b75"},"vehicle_type_id":"4","last_reported":1701277607,"current_range_meters":0,"station_id":"ce4bhnp2rcd13ifvqh0g","pricing_plan_id":"free"},{"bike_id":"54076147-df7c-4bc4-a8d6-b055c0c3f6f9","system_id":"levelo_inurba_marseille","lat":43.26554,"lon":5.3729,"is_reserved":false,"is_disabled":false,"rental_uris":{"android":"levelo://app?vid=54076147-df7c-4bc4-a8d6-b055c0c3f6f9","ios":"levelo://app?vid=54076147-df7c-4bc4-a8d6-b055c0c3f6f9"},"vehicle_type_id":"4","last_reported":1701277607,"current_range_meters":0,"station_id":"ce4bhg12rcd13ifvqf70","pricing_plan_id":"free"},{"bike_id":"7d7112c9-f055-433a-a0f2-f80eaaa4601f","system_id":"levelo_inurba_marseille","lat":43.27996,"lon":5.416624,"is_reserved":false,"is_disabled":false,"rental_uris":{"android":"levelo://app?vid=7d7112c9-f055-433a-a0f2-f80eaaa4601f","ios":"levelo://app?vid=7d7112c9-f055-433a-a0f2-f80eaaa4601f"},"vehicle_type_id":"4","last_reported":1701277607,"current_range_meters":4800,"station_id":"ce4bho12rcd13ifvqh1g","pricing_plan_id":"free"},{"bike_id":"77c9a3c7-ec31-4d0b-b06e-b4c7dd1ae7db","system_id":"levelo_inurba_marseille","lat":43.27996,"lon":5.416624,"is_reserved":false,"is_disabled":false,"rental_uris":{"android":"levelo://app?vid=77c9a3c7-ec31-4d0b-b06e-b4c7dd1ae7db","ios":"levelo://app?vid=77c9a3c7-ec31-4d0b-b06e-b4c7dd1ae7db"},"vehicle_type_id":"4","last_reported":1701277607,"current_range_meters":19200,"station_id":"ce4bho12rcd13ifvqh1g","pricing_plan_id":"free"},{"bike_id":"04b8105c-5835-4be7-b074-8f2d2e8ed1ed","system_id":"levelo_inurba_marseille","lat":43.27996,"lon":5.416624,"is_reserved":false,"is_disabled":false,"rental_uris":{"android":"levelo://app?vid=04b8105c-5835-4be7-b074-8f2d2e8ed1ed","ios":"levelo://app?vid=04b8105c-5835-4be7-b074-8f2d2e8ed1ed"},"vehicle_type_id":"4","last_reported":1701277607,"current_range_meters":5200,"station_id":"ce4bho12rcd13ifvqh1g","pricing_plan_id":"free"},{"bike_id":"678707f0-f18b-4526-938d-cbb54df77004","system_id":"levelo_inurba_marseille","lat":43.267855,"lon":5.39613,"is_reserved":false,"is_disabled":false,"rental_uris":{"android":"levelo://app?vid=678707f0-f18b-4526-938d-cbb54df77004","ios":"levelo://app?vid=678707f0-f18b-4526-938d-cbb54df77004"},"vehicle_type_id":"4","last_reported":1701277607,"current_range_meters":30800,"station_id":"","pricing_plan_id":"free"},{"bike_id":"2270d9e8-b2e1-4b2f-91b4-ee84d42efebd","system_id":"levelo_inurba_marseille","lat":43.2658,"lon":5.39017,"is_reserved":false,"is_disabled":false,"rental_uris":{"android":"levelo://app?vid=2270d9e8-b2e1-4b2f-91b4-ee84d42efebd","ios":"levelo://app?vid=2270d9e8-b2e1-4b2f-91b4-ee84d42efebd"},"vehicle_type_id":"4","last_reported":1701277607,"current_range_meters":25600,"station_id":"ce4bhe12rcd13ifvqf30","pricing_plan_id":"free"},{"bike_id":"f8861fa3-c0b2-458c-a6dd-4e296c7b0930","system_id":"levelo_inurba_marseille","lat":43.308051,"lon":5.43527,"is_reserved":false,"is_disabled":false,"rental_uris":{"android":"levelo://app?vid=f8861fa3-c0b2-458c-a6dd-4e296c7b0930","ios":"levelo://app?vid=f8861fa3-c0b2-458c-a6dd-4e296c7b0930"},"vehicle_type_id":"4","last_reported":1701277607,"current_range_meters":28400,"station_id":"ce4bhph2rcd13ifvqheg","pricing_plan_id":"free"},{"bike_id":"c6379d7f-c0c5-44e8-ad09-9ea54b728abb","system_id":"levelo_inurba_marseille","lat":43.308051,"lon":5.43527,"is_reserved":false,"is_disabled":false,"rental_uris":{"android":"levelo://app?vid=c6379d7f-c0c5-44e8-ad09-9ea54b728abb","ios":"levelo://app?vid=c6379d7f-c0c5-44e8-ad09-9ea54b728abb"},"vehicle_type_id":"4","last_reported":1701277607,"current_range_meters":24400,"station_id":"ce4bhph2rcd13ifvqheg","pricing_plan_id":"free"},{"bike_id":"df4785bd-8119-42cd-8e2d-61e67212a193","system_id":"levelo_inurba_marseille","lat":43.26949,"lon":5.40262,"is_reserved":false,"is_disabled":false,"rental_uris":{"android":"levelo://app?vid=df4785bd-8119-42cd-8e2d-61e67212a193","ios":"levelo://app?vid=df4785bd-8119-42cd-8e2d-61e67212a193"},"vehicle_type_id":"4","last_reported":1701277607,"current_range_meters":4000,"station_id":"cjm6bp8fraef2m0cb0m0","pricing_plan_id":"free"},{"bike_id":"f554caff-ea27-4c9a-835c-3ef548d12f07","system_id":"levelo_inurba_marseille","lat":43.317104,"lon":5.436818,"is_reserved":false,"is_disabled":false,"rental_uris":{"android":"levelo://app?vid=f554caff-ea27-4c9a-835c-3ef548d12f07","ios":"levelo://app?vid=f554caff-ea27-4c9a-835c-3ef548d12f07"},"vehicle_type_id":"4","last_reported":1701277607,"current_range_meters":6000,"station_id":"ce4bhp92rcd13ifvqhcg","pricing_plan_id":"free"},{"bike_id":"1c859d8c-6823-4772-9abb-da577a635321","system_id":"levelo_inurba_marseille","lat":43.317104,"lon":5.436818,"is_reserved":false,"is_disabled":false,"rental_uris":{"android":"levelo://app?vid=1c859d8c-6823-4772-9abb-da577a635321","ios":"levelo://app?vid=1c859d8c-6823-4772-9abb-da577a635321"},"vehicle_type_id":"4","last_reported":1701277607,"current_range_meters":21200,"station_id":"ce4bhp92rcd13ifvqhcg","pricing_plan_id":"free"},{"bike_id":"99d63533-62af-4498-b6d6-41c459d84925","system_id":"levelo_inurba_marseille","lat":43.317104,"lon":5.436818,"is_reserved":false,"is_disabled":false,"rental_uris":{"android":"levelo://app?vid=99d63533-62af-4498-b6d6-41c459d84925","ios":"levelo://app?vid=99d63533-62af-4498-b6d6-41c459d84925"},"vehicle_type_id":"4","last_reported":1701277607,"current_range_meters":22800,"station_id":"ce4bhp92rcd13ifvqhcg","pricing_plan_id":"free"},{"bike_id":"9bd45e5e-52fc-41b1-9dc3-7691501b0b47","system_id":"levelo_inurba_marseille","lat":43.271368,"lon":5.40928,"is_reserved":false,"is_disabled":false,"rental_uris":{"android":"levelo://app?vid=9bd45e5e-52fc-41b1-9dc3-7691501b0b47","ios":"levelo://app?vid=9bd45e5e-52fc-41b1-9dc3-7691501b0b47"},"vehicle_type_id":"4","last_reported":1701277607,"current_range_meters":1600,"station_id":"ce4bhl12rcd13ifvqgf0","pricing_plan_id":"free"},{"bike_id":"195b20b0-2279-4ac4-be28-705dd66df2d2","system_id":"levelo_inurba_marseille","lat":43.267959,"lon":5.402685,"is_reserved":false,"is_disabled":false,"rental_uris":{"android":"levelo://app?vid=195b20b0-2279-4ac4-be28-705dd66df2d2","ios":"levelo://app?vid=195b20b0-2279-4ac4-be28-705dd66df2d2"},"vehicle_type_id":"4","last_reported":1701277607,"current_range_meters":400,"station_id":"ce501612rcd8frsf0b60","pricing_plan_id":"free"},{"bike_id":"0048fac2-56d5-4842-9efe-a79340b04119","system_id":"levelo_inurba_marseille","lat":43.298768,"lon":5.43643,"is_reserved":false,"is_disabled":false,"rental_uris":{"android":"levelo://app?vid=0048fac2-56d5-4842-9efe-a79340b04119","ios":"levelo://app?vid=0048fac2-56d5-4842-9efe-a79340b04119"},"vehicle_type_id":"4","last_reported":1701277607,"current_range_meters":15600,"station_id":"ce4bhpp2rcd13ifvqhfg","pricing_plan_id":"free"},{"bike_id":"6f84c55d-bb59-4e45-aace-0862fdfac904","system_id":"levelo_inurba_marseille","lat":43.298768,"lon":5.43643,"is_reserved":false,"is_disabled":false,"rental_uris":{"android":"levelo://app?vid=6f84c55d-bb59-4e45-aace-0862fdfac904","ios":"levelo://app?vid=6f84c55d-bb59-4e45-aace-0862fdfac904"},"vehicle_type_id":"4","last_reported":1701277607,"current_range_meters":5600,"station_id":"ce4bhpp2rcd13ifvqhfg","pricing_plan_id":"free"},{"bike_id":"21a03390-fa51-48ce-b3df-632632e9af2b","system_id":"levelo_inurba_marseille","lat":43.298768,"lon":5.43643,"is_reserved":false,"is_disabled":false,"rental_uris":{"android":"levelo://app?vid=21a03390-fa51-48ce-b3df-632632e9af2b","ios":"levelo://app?vid=21a03390-fa51-48ce-b3df-632632e9af2b"},"vehicle_type_id":"4","last_reported":1701277607,"current_range_meters":15200,"station_id":"ce4bhpp2rcd13ifvqhfg","pricing_plan_id":"free"},{"bike_id":"cf79ef16-5b21-49cb-a587-4111e2745d6f","system_id":"levelo_inurba_marseille","lat":43.260219,"lon":5.37546,"is_reserved":false,"is_disabled":false,"rental_uris":{"android":"levelo://app?vid=cf79ef16-5b21-49cb-a587-4111e2745d6f","ios":"levelo://app?vid=cf79ef16-5b21-49cb-a587-4111e2745d6f"},"vehicle_type_id":"4","last_reported":1701277607,"current_range_meters":18000,"station_id":"ce4bhgh2rcd13ifvqfa0","pricing_plan_id":"free"},{"bike_id":"5d6c08b1-f1a5-4de3-874d-829b5159ed1d","system_id":"levelo_inurba_marseille","lat":43.281548,"lon":5.42643,"is_reserved":false,"is_disabled":false,"rental_uris":{"android":"levelo://app?vid=5d6c08b1-f1a5-4de3-874d-829b5159ed1d","ios":"levelo://app?vid=5d6c08b1-f1a5-4de3-874d-829b5159ed1d"},"vehicle_type_id":"4","last_reported":1701277607,"current_range_meters":4800,"station_id":"ce4bhnh2rcd13ifvqgug","pricing_plan_id":"free"},{"bike_id":"2cbd4b3c-d8dd-4b95-ac76-1323d53b4182","system_id":"levelo_inurba_marseille","lat":43.281548,"lon":5.42643,"is_reserved":false,"is_disabled":false,"rental_uris":{"android":"levelo://app?vid=2cbd4b3c-d8dd-4b95-ac76-1323d53b4182","ios":"levelo://app?vid=2cbd4b3c-d8dd-4b95-ac76-1323d53b4182"},"vehicle_type_id":"4","last_reported":1701277607,"current_range_meters":21200,"station_id":"ce4bhnh2rcd13ifvqgug","pricing_plan_id":"free"},{"bike_id":"00d1bf49-5f2f-40eb-ba1c-6d61ac984990","system_id":"levelo_inurba_marseille","lat":43.281548,"lon":5.42643,"is_reserved":false,"is_disabled":false,"rental_uris":{"android":"levelo://app?vid=00d1bf49-5f2f-40eb-ba1c-6d61ac984990","ios":"levelo://app?vid=00d1bf49-5f2f-40eb-ba1c-6d61ac984990"},"vehicle_type_id":"4","last_reported":1701277607,"current_range_meters":26400,"station_id":"ce4bhnh2rcd13ifvqgug","pricing_plan_id":"free"},{"bike_id":"54e7103a-044b-433e-9f97-9f60b9ff0bee","system_id":"levelo_inurba_marseille","lat":43.281548,"lon":5.42643,"is_reserved":false,"is_disabled":false,"rental_uris":{"android":"levelo://app?vid=54e7103a-044b-433e-9f97-9f60b9ff0bee","ios":"levelo://app?vid=54e7103a-044b-433e-9f97-9f60b9ff0bee"},"vehicle_type_id":"4","last_reported":1701277607,"current_range_meters":9200,"station_id":"ce4bhnh2rcd13ifvqgug","pricing_plan_id":"free"},{"bike_id":"5e5647d4-bf18-443b-bece-2a35f7188eb7","system_id":"levelo_inurba_marseille","lat":43.2607,"lon":5.393983,"is_reserved":false,"is_disabled":false,"rental_uris":{"android":"levelo://app?vid=5e5647d4-bf18-443b-bece-2a35f7188eb7","ios":"levelo://app?vid=5e5647d4-bf18-443b-bece-2a35f7188eb7"},"vehicle_type_id":"4","last_reported":1701277607,"current_range_meters":17200,"station_id":"ce4bhh92rcd13ifvqfj0","pricing_plan_id":"free"},{"bike_id":"0d161d60-14b3-418b-bacb-b07245507db5","system_id":"levelo_inurba_marseille","lat":43.2607,"lon":5.393983,"is_reserved":false,"is_disabled":false,"rental_uris":{"android":"levelo://app?vid=0d161d60-14b3-418b-bacb-b07245507db5","ios":"levelo://app?vid=0d161d60-14b3-418b-bacb-b07245507db5"},"vehicle_type_id":"4","last_reported":1701277607,"current_range_meters":20000,"station_id":"ce4bhh92rcd13ifvqfj0","pricing_plan_id":"free"},{"bike_id":"6caaa4fa-010e-4487-87c6-2a7834625e67","system_id":"levelo_inurba_marseille","lat":43.275028,"lon":5.424534,"is_reserved":false,"is_disabled":false,"rental_uris":{"android":"levelo://app?vid=6caaa4fa-010e-4487-87c6-2a7834625e67","ios":"levelo://app?vid=6caaa4fa-010e-4487-87c6-2a7834625e67"},"vehicle_type_id":"4","last_reported":1701277607,"current_range_meters":14000,"station_id":"ce4bhn92rcd13ifvqgrg","pricing_plan_id":"free"},{"bike_id":"1852d67a-8c21-4b1e-b985-a0eec17db892","system_id":"levelo_inurba_marseille","lat":43.26089,"lon":5.39776,"is_reserved":false,"is_disabled":false,"rental_uris":{"android":"levelo://app?vid=1852d67a-8c21-4b1e-b985-a0eec17db892","ios":"levelo://app?vid=1852d67a-8c21-4b1e-b985-a0eec17db892"},"vehicle_type_id":"4","last_reported":1701277607,"current_range_meters":16800,"station_id":"ce4bhi12rcd13ifvqfq0","pricing_plan_id":"free"},{"bike_id":"e82b6c9e-e84f-4b64-b05d-0660bb7ad571","system_id":"levelo_inurba_marseille","lat":43.2558,"lon":5.38232,"is_reserved":false,"is_disabled":false,"rental_uris":{"android":"levelo://app?vid=e82b6c9e-e84f-4b64-b05d-0660bb7ad571","ios":"levelo://app?vid=e82b6c9e-e84f-4b64-b05d-0660bb7ad571"},"vehicle_type_id":"4","last_reported":1701277607,"current_range_meters":8000,"station_id":"ce4bhih2rcd13ifvqfs0","pricing_plan_id":"free"},{"bike_id":"0694c14d-d578-4fb1-88e4-7fd03f1c0294","system_id":"levelo_inurba_marseille","lat":43.25577,"lon":5.38231,"is_reserved":false,"is_disabled":false,"rental_uris":{"android":"levelo://app?vid=0694c14d-d578-4fb1-88e4-7fd03f1c0294","ios":"levelo://app?vid=0694c14d-d578-4fb1-88e4-7fd03f1c0294"},"vehicle_type_id":"4","last_reported":1701277607,"current_range_meters":5600,"station_id":"ce4bhih2rcd13ifvqfs0","pricing_plan_id":"free"},{"bike_id":"7cdda053-6c47-46e5-af8c-5944bf0d382f","system_id":"levelo_inurba_marseille","lat":43.25576,"lon":5.38232,"is_reserved":false,"is_disabled":false,"rental_uris":{"android":"levelo://app?vid=7cdda053-6c47-46e5-af8c-5944bf0d382f","ios":"levelo://app?vid=7cdda053-6c47-46e5-af8c-5944bf0d382f"},"vehicle_type_id":"4","last_reported":1701277607,"current_range_meters":22000,"station_id":"ce4bhih2rcd13ifvqfs0","pricing_plan_id":"free"},{"bike_id":"c8f50670-8adb-4818-a3e9-418cc08bdd0e","system_id":"levelo_inurba_marseille","lat":43.254947,"lon":5.376454,"is_reserved":false,"is_disabled":false,"rental_uris":{"android":"levelo://app?vid=c8f50670-8adb-4818-a3e9-418cc08bdd0e","ios":"levelo://app?vid=c8f50670-8adb-4818-a3e9-418cc08bdd0e"},"vehicle_type_id":"4","last_reported":1701277607,"current_range_meters":16800,"station_id":"ce4bhh12rcd13ifvqff0","pricing_plan_id":"free"},{"bike_id":"19029ed7-bf97-4f4d-a8c2-7d27e70ef7f7","system_id":"levelo_inurba_marseille","lat":43.270721,"lon":5.422764,"is_reserved":false,"is_disabled":false,"rental_uris":{"android":"levelo://app?vid=19029ed7-bf97-4f4d-a8c2-7d27e70ef7f7","ios":"levelo://app?vid=19029ed7-bf97-4f4d-a8c2-7d27e70ef7f7"},"vehicle_type_id":"4","last_reported":1701277607,"current_range_meters":27600,"station_id":"ce4bhk92rcd13ifvqgb0","pricing_plan_id":"free"},{"bike_id":"08f02361-5df3-4783-8256-33d18b44d326","system_id":"levelo_inurba_marseille","lat":43.258658,"lon":5.398935,"is_reserved":false,"is_disabled":false,"rental_uris":{"android":"levelo://app?vid=08f02361-5df3-4783-8256-33d18b44d326","ios":"levelo://app?vid=08f02361-5df3-4783-8256-33d18b44d326"},"vehicle_type_id":"4","last_reported":1701277607,"current_range_meters":3200,"station_id":"ce4bhl92rcd13ifvqghg","pricing_plan_id":"free"},{"bike_id":"25a65a87-265e-4842-acd7-5eaab446bd6d","system_id":"levelo_inurba_marseille","lat":43.258658,"lon":5.398935,"is_reserved":false,"is_disabled":false,"rental_uris":{"android":"levelo://app?vid=25a65a87-265e-4842-acd7-5eaab446bd6d","ios":"levelo://app?vid=25a65a87-265e-4842-acd7-5eaab446bd6d"},"vehicle_type_id":"4","last_reported":1701277607,"current_range_meters":9600,"station_id":"ce4bhl92rcd13ifvqghg","pricing_plan_id":"free"},{"bike_id":"31fec433-bb71-4db3-a76f-110d48b543b0","system_id":"levelo_inurba_marseille","lat":43.2479,"lon":5.374457,"is_reserved":false,"is_disabled":false,"rental_uris":{"android":"levelo://app?vid=31fec433-bb71-4db3-a76f-110d48b543b0","ios":"levelo://app?vid=31fec433-bb71-4db3-a76f-110d48b543b0"},"vehicle_type_id":"4","last_reported":1701277607,"current_range_meters":11200,"station_id":"ce4bhgh2rcd13ifvqfb0","pricing_plan_id":"free"},{"bike_id":"5b7b2117-90bc-43ef-88ab-a80cb2bb1b2d","system_id":"levelo_inurba_marseille","lat":43.2479,"lon":5.374457,"is_reserved":false,"is_disabled":false,"rental_uris":{"android":"levelo://app?vid=5b7b2117-90bc-43ef-88ab-a80cb2bb1b2d","ios":"levelo://app?vid=5b7b2117-90bc-43ef-88ab-a80cb2bb1b2d"},"vehicle_type_id":"4","last_reported":1701277607,"current_range_meters":13200,"station_id":"ce4bhgh2rcd13ifvqfb0","pricing_plan_id":"free"},{"bike_id":"987ff51d-b31d-4176-9915-e7c653778fdc","system_id":"levelo_inurba_marseille","lat":43.250897,"lon":5.395161,"is_reserved":false,"is_disabled":false,"rental_uris":{"android":"levelo://app?vid=987ff51d-b31d-4176-9915-e7c653778fdc","ios":"levelo://app?vid=987ff51d-b31d-4176-9915-e7c653778fdc"},"vehicle_type_id":"4","last_reported":1701277607,"current_range_meters":12000,"station_id":"ce4bhm12rcd13ifvqgkg","pricing_plan_id":"free"},{"bike_id":"51b49d2c-71aa-4e8a-9241-da25f3d4ff8c","system_id":"levelo_inurba_marseille","lat":43.25085,"lon":5.39523,"is_reserved":false,"is_disabled":false,"rental_uris":{"android":"levelo://app?vid=51b49d2c-71aa-4e8a-9241-da25f3d4ff8c","ios":"levelo://app?vid=51b49d2c-71aa-4e8a-9241-da25f3d4ff8c"},"vehicle_type_id":"4","last_reported":1701277607,"current_range_meters":0,"station_id":"ce4bhm12rcd13ifvqgkg","pricing_plan_id":"free"},{"bike_id":"32118a7c-d338-4b34-8411-cc7d63f3076d","system_id":"levelo_inurba_marseille","lat":43.25133,"lon":5.40306,"is_reserved":false,"is_disabled":false,"rental_uris":{"android":"levelo://app?vid=32118a7c-d338-4b34-8411-cc7d63f3076d","ios":"levelo://app?vid=32118a7c-d338-4b34-8411-cc7d63f3076d"},"vehicle_type_id":"4","last_reported":1701277607,"current_range_meters":7600,"station_id":"ce4bhlh2rcd13ifvqgig","pricing_plan_id":"free"},{"bike_id":"a23dd7e9-be4a-4f35-b135-65353465142c","system_id":"levelo_inurba_marseille","lat":43.25102,"lon":5.403214,"is_reserved":false,"is_disabled":false,"rental_uris":{"android":"levelo://app?vid=a23dd7e9-be4a-4f35-b135-65353465142c","ios":"levelo://app?vid=a23dd7e9-be4a-4f35-b135-65353465142c"},"vehicle_type_id":"4","last_reported":1701277607,"current_range_meters":11200,"station_id":"ce4bhlh2rcd13ifvqgig","pricing_plan_id":"free"},{"bike_id":"304eca21-8170-4fce-b931-53b104d15fb0","system_id":"levelo_inurba_marseille","lat":43.246467,"lon":5.388984,"is_reserved":false,"is_disabled":false,"rental_uris":{"android":"levelo://app?vid=304eca21-8170-4fce-b931-53b104d15fb0","ios":"levelo://app?vid=304eca21-8170-4fce-b931-53b104d15fb0"},"vehicle_type_id":"4","last_reported":1701277607,"current_range_meters":2800,"station_id":"ce4bhg12rcd13ifvqf60","pricing_plan_id":"free"},{"bike_id":"fdcf38f3-d4f1-4e07-a513-36367a461231","system_id":"levelo_inurba_marseille","lat":43.243884,"lon":5.370737,"is_reserved":false,"is_disabled":false,"rental_uris":{"android":"levelo://app?vid=fdcf38f3-d4f1-4e07-a513-36367a461231","ios":"levelo://app?vid=fdcf38f3-d4f1-4e07-a513-36367a461231"},"vehicle_type_id":"4","last_reported":1701277607,"current_range_meters":8400,"station_id":"ce4bhhh2rcd13ifvqfk0","pricing_plan_id":"free"},{"bike_id":"57f8568a-6ba3-41bc-8358-a0e032c9f729","system_id":"levelo_inurba_marseille","lat":43.240623,"lon":5.377642,"is_reserved":false,"is_disabled":false,"rental_uris":{"android":"levelo://app?vid=57f8568a-6ba3-41bc-8358-a0e032c9f729","ios":"levelo://app?vid=57f8568a-6ba3-41bc-8358-a0e032c9f729"},"vehicle_type_id":"4","last_reported":1701277607,"current_range_meters":15200,"station_id":"ce4bhnp2rcd13ifvqgvg","pricing_plan_id":"free"},{"bike_id":"a3472066-e2d4-4751-b8db-7d56280dd827","system_id":"levelo_inurba_marseille","lat":43.240623,"lon":5.377642,"is_reserved":false,"is_disabled":false,"rental_uris":{"android":"levelo://app?vid=a3472066-e2d4-4751-b8db-7d56280dd827","ios":"levelo://app?vid=a3472066-e2d4-4751-b8db-7d56280dd827"},"vehicle_type_id":"4","last_reported":1701277607,"current_range_meters":22800,"station_id":"ce4bhnp2rcd13ifvqgvg","pricing_plan_id":"free"},{"bike_id":"a4f0713b-16ab-4e4d-9b5a-a0234158e979","system_id":"levelo_inurba_marseille","lat":43.240623,"lon":5.377642,"is_reserved":false,"is_disabled":false,"rental_uris":{"android":"levelo://app?vid=a4f0713b-16ab-4e4d-9b5a-a0234158e979","ios":"levelo://app?vid=a4f0713b-16ab-4e4d-9b5a-a0234158e979"},"vehicle_type_id":"4","last_reported":1701277607,"current_range_meters":24400,"station_id":"ce4bhnp2rcd13ifvqgvg","pricing_plan_id":"free"},{"bike_id":"5387bbc7-d9dc-417a-abae-cd880eeddcf3","system_id":"levelo_inurba_marseille","lat":43.239588,"lon":5.366238,"is_reserved":false,"is_disabled":false,"rental_uris":{"android":"levelo://app?vid=5387bbc7-d9dc-417a-abae-cd880eeddcf3","ios":"levelo://app?vid=5387bbc7-d9dc-417a-abae-cd880eeddcf3"},"vehicle_type_id":"4","last_reported":1701277607,"current_range_meters":5600,"station_id":"ce4bhi12rcd13ifvqfp0","pricing_plan_id":"free"},{"bike_id":"5d2ec41b-f892-41f1-89a0-79d933518660","system_id":"levelo_inurba_marseille","lat":43.239588,"lon":5.366238,"is_reserved":false,"is_disabled":false,"rental_uris":{"android":"levelo://app?vid=5d2ec41b-f892-41f1-89a0-79d933518660","ios":"levelo://app?vid=5d2ec41b-f892-41f1-89a0-79d933518660"},"vehicle_type_id":"4","last_reported":1701277607,"current_range_meters":26800,"station_id":"ce4bhi12rcd13ifvqfp0","pricing_plan_id":"free"},{"bike_id":"675c970c-c0cf-4822-a023-175273da4489","system_id":"levelo_inurba_marseille","lat":43.231923,"lon":5.355545,"is_reserved":false,"is_disabled":false,"rental_uris":{"android":"levelo://app?vid=675c970c-c0cf-4822-a023-175273da4489","ios":"levelo://app?vid=675c970c-c0cf-4822-a023-175273da4489"},"vehicle_type_id":"4","last_reported":1701277607,"current_range_meters":10800,"station_id":"ce4bhu92rcd13ifvqi70","pricing_plan_id":"free"},{"bike_id":"3bbe1fd5-b7d2-484c-969b-f57a381950c3","system_id":"levelo_inurba_marseille","lat":43.231923,"lon":5.355545,"is_reserved":false,"is_disabled":false,"rental_uris":{"android":"levelo://app?vid=3bbe1fd5-b7d2-484c-969b-f57a381950c3","ios":"levelo://app?vid=3bbe1fd5-b7d2-484c-969b-f57a381950c3"},"vehicle_type_id":"4","last_reported":1701277607,"current_range_meters":14400,"station_id":"ce4bhu92rcd13ifvqi70","pricing_plan_id":"free"},{"bike_id":"be42eec5-4aaf-4f1c-8445-219a8901db92","system_id":"levelo_inurba_marseille","lat":43.231923,"lon":5.355545,"is_reserved":false,"is_disabled":false,"rental_uris":{"android":"levelo://app?vid=be42eec5-4aaf-4f1c-8445-219a8901db92","ios":"levelo://app?vid=be42eec5-4aaf-4f1c-8445-219a8901db92"},"vehicle_type_id":"4","last_reported":1701277607,"current_range_meters":4000,"station_id":"ce4bhu92rcd13ifvqi70","pricing_plan_id":"free"},{"bike_id":"26cd3036-9e31-4635-8449-e01c086f6041","system_id":"levelo_inurba_marseille","lat":43.231923,"lon":5.355545,"is_reserved":false,"is_disabled":false,"rental_uris":{"android":"levelo://app?vid=26cd3036-9e31-4635-8449-e01c086f6041","ios":"levelo://app?vid=26cd3036-9e31-4635-8449-e01c086f6041"},"vehicle_type_id":"4","last_reported":1701277607,"current_range_meters":22000,"station_id":"ce4bhu92rcd13ifvqi70","pricing_plan_id":"free"},{"bike_id":"27c15942-7a4e-473e-b5d5-2b37bc2761cd","system_id":"levelo_inurba_marseille","lat":43.231919,"lon":5.355532,"is_reserved":false,"is_disabled":false,"rental_uris":{"android":"levelo://app?vid=27c15942-7a4e-473e-b5d5-2b37bc2761cd","ios":"levelo://app?vid=27c15942-7a4e-473e-b5d5-2b37bc2761cd"},"vehicle_type_id":"4","last_reported":1701277607,"current_range_meters":12400,"station_id":"ce4bhu92rcd13ifvqi70","pricing_plan_id":"free"},{"bike_id":"b37cf8bc-ef87-4960-b38c-3279b894369f","system_id":"levelo_inurba_marseille","lat":43.231923,"lon":5.355545,"is_reserved":false,"is_disabled":false,"rental_uris":{"android":"levelo://app?vid=b37cf8bc-ef87-4960-b38c-3279b894369f","ios":"levelo://app?vid=b37cf8bc-ef87-4960-b38c-3279b894369f"},"vehicle_type_id":"4","last_reported":1701277607,"current_range_meters":31200,"station_id":"ce4bhu92rcd13ifvqi70","pricing_plan_id":"free"},{"bike_id":"d1703505-b125-4a98-a807-11024241bc04","system_id":"levelo_inurba_marseille","lat":43.231923,"lon":5.355545,"is_reserved":false,"is_disabled":false,"rental_uris":{"android":"levelo://app?vid=d1703505-b125-4a98-a807-11024241bc04","ios":"levelo://app?vid=d1703505-b125-4a98-a807-11024241bc04"},"vehicle_type_id":"4","last_reported":1701277607,"current_range_meters":31200,"station_id":"ce4bhu92rcd13ifvqi70","pricing_plan_id":"free"},{"bike_id":"6a15bd61-65f5-44c0-9706-42eeb78c349c","system_id":"levelo_inurba_marseille","lat":43.231919,"lon":5.355532,"is_reserved":false,"is_disabled":false,"rental_uris":{"android":"levelo://app?vid=6a15bd61-65f5-44c0-9706-42eeb78c349c","ios":"levelo://app?vid=6a15bd61-65f5-44c0-9706-42eeb78c349c"},"vehicle_type_id":"4","last_reported":1701277607,"current_range_meters":31200,"station_id":"ce4bhu92rcd13ifvqi70","pricing_plan_id":"free"},{"bike_id":"1cc950d9-b775-4678-93c4-e31b06221635","system_id":"levelo_inurba_marseille","lat":43.23187,"lon":5.39972,"is_reserved":false,"is_disabled":false,"rental_uris":{"android":"levelo://app?vid=1cc950d9-b775-4678-93c4-e31b06221635","ios":"levelo://app?vid=1cc950d9-b775-4678-93c4-e31b06221635"},"vehicle_type_id":"4","last_reported":1701277607,"current_range_meters":10000,"station_id":"ce4bhn12rcd13ifvqgqg","pricing_plan_id":"free"},{"bike_id":"c0c7fee1-5737-446f-a765-fa607e9e3e85","system_id":"levelo_inurba_marseille","lat":43.231793,"lon":5.400044,"is_reserved":false,"is_disabled":false,"rental_uris":{"android":"levelo://app?vid=c0c7fee1-5737-446f-a765-fa607e9e3e85","ios":"levelo://app?vid=c0c7fee1-5737-446f-a765-fa607e9e3e85"},"vehicle_type_id":"4","last_reported":1701277607,"current_range_meters":20400,"station_id":"ce4bhn12rcd13ifvqgqg","pricing_plan_id":"free"},{"bike_id":"017c7298-0a0b-4b52-accd-1cfa244cac68","system_id":"levelo_inurba_marseille","lat":43.231793,"lon":5.400044,"is_reserved":false,"is_disabled":false,"rental_uris":{"android":"levelo://app?vid=017c7298-0a0b-4b52-accd-1cfa244cac68","ios":"levelo://app?vid=017c7298-0a0b-4b52-accd-1cfa244cac68"},"vehicle_type_id":"4","last_reported":1701277607,"current_range_meters":31200,"station_id":"ce4bhn12rcd13ifvqgqg","pricing_plan_id":"free"},{"bike_id":"aa92b96d-64d8-4c3b-a126-5fd9d905cd28","system_id":"levelo_inurba_marseille","lat":43.231793,"lon":5.400044,"is_reserved":false,"is_disabled":false,"rental_uris":{"android":"levelo://app?vid=aa92b96d-64d8-4c3b-a126-5fd9d905cd28","ios":"levelo://app?vid=aa92b96d-64d8-4c3b-a126-5fd9d905cd28"},"vehicle_type_id":"4","last_reported":1701277607,"current_range_meters":31200,"station_id":"ce4bhn12rcd13ifvqgqg","pricing_plan_id":"free"},{"bike_id":"bf302e61-4f67-454e-a18b-ae01c9d54d0c","system_id":"levelo_inurba_marseille","lat":43.231793,"lon":5.400044,"is_reserved":false,"is_disabled":false,"rental_uris":{"android":"levelo://app?vid=bf302e61-4f67-454e-a18b-ae01c9d54d0c","ios":"levelo://app?vid=bf302e61-4f67-454e-a18b-ae01c9d54d0c"},"vehicle_type_id":"4","last_reported":1701277607,"current_range_meters":20000,"station_id":"ce4bhn12rcd13ifvqgqg","pricing_plan_id":"free"},{"bike_id":"06853db6-aa55-4d29-9d8f-a856bd2de594","system_id":"levelo_inurba_marseille","lat":43.231793,"lon":5.400044,"is_reserved":false,"is_disabled":false,"rental_uris":{"android":"levelo://app?vid=06853db6-aa55-4d29-9d8f-a856bd2de594","ios":"levelo://app?vid=06853db6-aa55-4d29-9d8f-a856bd2de594"},"vehicle_type_id":"4","last_reported":1701277607,"current_range_meters":25200,"station_id":"ce4bhn12rcd13ifvqgqg","pricing_plan_id":"free"},{"bike_id":"5ff68776-d431-4895-866c-f190f6faec3c","system_id":"levelo_inurba_marseille","lat":43.231793,"lon":5.400044,"is_reserved":false,"is_disabled":false,"rental_uris":{"android":"levelo://app?vid=5ff68776-d431-4895-866c-f190f6faec3c","ios":"levelo://app?vid=5ff68776-d431-4895-866c-f190f6faec3c"},"vehicle_type_id":"4","last_reported":1701277607,"current_range_meters":31200,"station_id":"ce4bhn12rcd13ifvqgqg","pricing_plan_id":"free"},{"bike_id":"bf960234-cffc-43d1-ad60-fe105776c7f7","system_id":"levelo_inurba_marseille","lat":43.23184,"lon":5.39996,"is_reserved":false,"is_disabled":false,"rental_uris":{"android":"levelo://app?vid=bf960234-cffc-43d1-ad60-fe105776c7f7","ios":"levelo://app?vid=bf960234-cffc-43d1-ad60-fe105776c7f7"},"vehicle_type_id":"4","last_reported":1701277607,"current_range_meters":0,"station_id":"ce4bhn12rcd13ifvqgqg","pricing_plan_id":"free"},{"bike_id":"5aaac2be-844c-4cf3-8da3-46c7e8da8247","system_id":"levelo_inurba_marseille","lat":43.231793,"lon":5.400044,"is_reserved":false,"is_disabled":false,"rental_uris":{"android":"levelo://app?vid=5aaac2be-844c-4cf3-8da3-46c7e8da8247","ios":"levelo://app?vid=5aaac2be-844c-4cf3-8da3-46c7e8da8247"},"vehicle_type_id":"4","last_reported":1701277607,"current_range_meters":10400,"station_id":"ce4bhn12rcd13ifvqgqg","pricing_plan_id":"free"},{"bike_id":"5c24af45-4ee2-4093-93e4-b4426fd403c2","system_id":"levelo_inurba_marseille","lat":43.231794,"lon":5.400052,"is_reserved":false,"is_disabled":false,"rental_uris":{"android":"levelo://app?vid=5c24af45-4ee2-4093-93e4-b4426fd403c2","ios":"levelo://app?vid=5c24af45-4ee2-4093-93e4-b4426fd403c2"},"vehicle_type_id":"4","last_reported":1701277607,"current_range_meters":29600,"station_id":"ce4bhn12rcd13ifvqgqg","pricing_plan_id":"free"},{"bike_id":"429fd36b-cb83-44c4-aa6c-85355f42987e","system_id":"levelo_inurba_marseille","lat":43.23155,"lon":5.43706,"is_reserved":false,"is_disabled":false,"rental_uris":{"android":"levelo://app?vid=429fd36b-cb83-44c4-aa6c-85355f42987e","ios":"levelo://app?vid=429fd36b-cb83-44c4-aa6c-85355f42987e"},"vehicle_type_id":"4","last_reported":1701277607,"current_range_meters":29600,"station_id":"ce4bhmp2rcd13ifvqgog","pricing_plan_id":"free"}]}}