{"last_updated":1727878088,"ttl":60,"version":"2.2","data":{"bikes":[{"bike_id":"88b6e2e4-11cd-437d-be5a-b1ba6200a57a","system_id":"levelo_inurba_marseille","lat":43.28331,"lon":5.38102,"is_reserved":false,"is_disabled":false,"rental_uris":{"android":"levelo://app?vid=88b6e2e4-11cd-437d-be5a-b1ba6200a57a","ios":"levelo://app?vid=88b6e2e4-11cd-437d-be5a-b1ba6200a57a"},"vehicle_type_id":"4","last_reported":1727878088,"current_range_meters":15200,"station_id":"ce4bh412rcd13ifvqdr0","pricing_plan_id":"cebpf4jnsgd1na2vs0mg"},{"bike_id":"4245ba54-afba-4501-99a1-154d07883719","system_id":"levelo_inurba_marseille","lat":43.29543,"lon":5.38527,"is_reserved":false,"is_disabled":false,"rental_uris":{"android":"levelo://app?vid=4245ba54-afba-4501-99a1-154d07883719","ios":"levelo://app?vid=4245ba54-afba-4501-99a1-154d07883719"},"vehicle_type_id":"4","last_reported":1727878088,"current_range_meters":38800,"station_id":"ce4bgih2rcd13ifvqba0","pricing_plan_id":"cebpf4jnsgd1na2vs0mg"},{"bike_id":"50c01756-546e-4df1-9354-30fd0b84448a","system_id":"levelo_inurba_marseille","lat":43.3011,"lon":5.39047,"is_reserved":false,"is_disabled":false,"rental_uris":{"android":"levelo://app?vid=50c01756-546e-4df1-9354-30fd0b84448a","ios":"levelo://app?vid=50c01756-546e-4df1-9354-30fd0b84448a"},"vehicle_type_id":"4","last_reported":1727878088,"current_range_meters":24400,"station_id":"ce4bh192rcd13ifvqdb0","pricing_plan_id":"cebpf4jnsgd1na2vs0mg"},{"bike_id":"1c365f2a-8b8d-429a-a2c0-90496f1de5ea","system_id":"levelo_inurba_marseille","lat":43.24662,"lon":5.3816,"is_reserved":false,"is_disabled":false,"rental_uris":{"android":"levelo://app?vid=1c365f2a-8b8d-429a-a2c0-90496f1de5ea","ios":"levelo://app?vid=1c365f2a-8b8d-429a-a2c0-90496f1de5ea"},"vehicle_type_id":"4","last_reported":1727878088,"current_range_meters":9200,"station_id":"ce4bhih2rcd13ifvqfr0","pricing_plan_id":"cebpf4jnsgd1na2vs0mg"},{"bike_id":"108b31e0-5077-41b3-acbb-05ffa91a0fad","system_id":"levelo_inurba_marseille","lat":43.29897,"lon":5.43669,"is_reserved":false,"is_disabled":false,"rental_uris":{"android":"levelo://app?vid=108b31e0-5077-41b3-acbb-05ffa91a0fad","ios":"levelo://app?vid=108b31e0-5077-41b3-acbb-05ffa91a0fad"},"vehicle_type_id":"4","last_reported":1727878088,"current_range_meters":36000,"station_id":"ce4bhpp2rcd13ifvqhfg","pricing_plan_id":"cebpf4jnsgd1na2vs0mg"},{"bike_id":"12e093d1-edf3-49c9-99b0-8214651f201e","system_id":"levelo_inurba_marseille","lat":43.30323,"lon":5.40436,"is_reserved":false,"is_disabled":false,"rental_uris":{"android":"levelo://app?vid=12e093d1-edf3-49c9-99b0-8214651f201e","ios":"levelo://app?vid=12e093d1-edf3-49c9-99b0-8214651f201e"},"vehicle_type_id":"4","last_reported":1727878088,"current_range_meters":37600,"station_id":"ce4bh012rcd13ifvqd10","pricing_plan_id":"cebpf4jnsgd1na2vs0mg"},{"bike_id":"49cd4443-d6dd-4b0a-b11d-28dd808839ca","system_id":"levelo_inurba_marseille","lat":43.27368,"lon":5.36249,"is_reserved":false,"is_disabled":false,"rental_uris":{"android":"levelo://app?vid=49cd4443-d6dd-4b0a-b11d-28dd808839ca","ios":"levelo://app?vid=49cd4443-d6dd-4b0a-b11d-28dd808839ca"},"vehicle_type_id":"4","last_reported":1727878088,"current_range_meters":38800,"station_id":"ce4bhbh2rcd13ifvqeo0","pricing_plan_id":"cebpf4jnsgd1na2vs0mg"},{"bike_id":"c9d21d93-4991-4925-bdde-e80d62e3a069","system_id":"levelo_inurba_marseille","lat":43.24179,"lon":5.39737,"is_reserved":false,"is_disabled":false,"rental_uris":{"android":"levelo://app?vid=c9d21d93-4991-4925-bdde-e80d62e3a069","ios":"levelo://app?vid=c9d21d93-4991-4925-bdde-e80d62e3a069"},"vehicle_type_id":"4","last_reported":1727878088,"current_range_meters":17600,"station_id":"ce4bhn12rcd13ifvqgpg","pricing_plan_id":"cebpf4jnsgd1na2vs0mg"},{"bike_id":"c83df802-aacf-4a79-bb30-b1b7f393970c","system_id":"levelo_inurba_marseille","lat":43.337444,"lon":5.374475,"is_reserved":false,"is_disabled":false,"rental_uris":{"android":"levelo://app?vid=c83df802-aacf-4a79-bb30-b1b7f393970c","ios":"levelo://app?vid=c83df802-aacf-4a79-bb30-b1b7f393970c"},"vehicle_type_id":"4","last_reported":1727878088,"current_range_meters":38800,"station_id":"","pricing_plan_id":"cebpf4jnsgd1na2vs0mg"},{"bike_id":"3539f04a-57da-4c14-8696-c1324c6accef","system_id":"levelo_inurba_marseille","lat":43.28572,"lon":5.3949,"is_reserved":false,"is_disabled":false,"rental_uris":{"android":"levelo://app?vid=3539f04a-57da-4c14-8696-c1324c6accef","ios":"levelo://app?vid=3539f04a-57da-4c14-8696-c1324c6accef"},"vehicle_type_id":"4","last_reported":1727878088,"current_range_meters":29600,"station_id":"ce4bh292rcd13ifvqdg0","pricing_plan_id":"cebpf4jnsgd1na2vs0mg"},{"bike_id":"d6852ed8-116f-4d91-a768-183d51d75781","system_id":"levelo_inurba_marseille","lat":43.26567,"lon":5.39008,"is_reserved":false,"is_disabled":false,"rental_uris":{"android":"levelo://app?vid=d6852ed8-116f-4d91-a768-183d51d75781","ios":"levelo://app?vid=d6852ed8-116f-4d91-a768-183d51d75781"},"vehicle_type_id":"4","last_reported":1727878088,"current_range_meters":30800,"station_id":"ce4bhe12rcd13ifvqf30","pricing_plan_id":"cebpf4jnsgd1na2vs0mg"},{"bike_id":"f2a52a03-ce58-4c37-b055-7122fd508af1","system_id":"levelo_inurba_marseille","lat":43.32337,"lon":5.40617,"is_reserved":false,"is_disabled":false,"rental_uris":{"android":"levelo://app?vid=f2a52a03-ce58-4c37-b055-7122fd508af1","ios":"levelo://app?vid=f2a52a03-ce58-4c37-b055-7122fd508af1"},"vehicle_type_id":"4","last_reported":1727878088,"current_range_meters":4800,"station_id":"ce4bhq92rcd13ifvqhjg","pricing_plan_id":"cebpf4jnsgd1na2vs0mg"},{"bike_id":"5f2e32d7-6e0b-4351-b5ce-fc3369e0c7f5","system_id":"levelo_inurba_marseille","lat":43.23188,"lon":5.39972,"is_reserved":false,"is_disabled":false,"rental_uris":{"android":"levelo://app?vid=5f2e32d7-6e0b-4351-b5ce-fc3369e0c7f5","ios":"levelo://app?vid=5f2e32d7-6e0b-4351-b5ce-fc3369e0c7f5"},"vehicle_type_id":"4","last_reported":1727878088,"current_range_meters":28400,"station_id":"ce4bhn12rcd13ifvqgqg","pricing_plan_id":"cebpf4jnsgd1na2vs0mg"},{"bike_id":"35f988e1-bb7f-42ee-a027-e71d9ebce6e0","system_id":"levelo_inurba_marseille","lat":43.30553,"lon":5.36697,"is_reserved":false,"is_disabled":false,"rental_uris":{"android":"levelo://app?vid=35f988e1-bb7f-42ee-a027-e71d9ebce6e0","ios":"levelo://app?vid=35f988e1-bb7f-42ee-a027-e71d9ebce6e0"},"vehicle_type_id":"4","last_reported":1727878088,"current_range_meters":22000,"station_id":"ce4bgrp2rcd13ifvqc9g","pricing_plan_id":"cebpf4jnsgd1na2vs0mg"},{"bike_id":"ab00df15-6bd8-4bdb-9b30-89f559c48932","system_id":"levelo_inurba_marseille","lat":43.23183,"lon":5.39987,"is_reserved":false,"is_disabled":false,"rental_uris":{"android":"levelo://app?vid=ab00df15-6bd8-4bdb-9b30-89f559c48932","ios":"levelo://app?vid=ab00df15-6bd8-4bdb-9b30-89f559c48932"},"vehicle_type_id":"4","last_reported":1727878088,"current_range_meters":28000,"station_id":"ce4bhn12rcd13ifvqgqg","pricing_plan_id":"cebpf4jnsgd1na2vs0mg"},{"bike_id":"42ed059b-5d3c-445d-b109-e24ad7adc6ec","system_id":"levelo_inurba_marseille","lat":43.30196,"lon":5.36606,"is_reserved":false,"is_disabled":false,"rental_uris":{"android":"levelo://app?vid=42ed059b-5d3c-445d-b109-e24ad7adc6ec","ios":"levelo://app?vid=42ed059b-5d3c-445d-b109-e24ad7adc6ec"},"vehicle_type_id":"4","last_reported":1727878088,"current_range_meters":16400,"station_id":"ce4bgrh2rcd13ifvqc8g","pricing_plan_id":"cebpf4jnsgd1na2vs0mg"},{"bike_id":"ccff8c17-068b-432e-81ad-ea6edf889947","system_id":"levelo_inurba_marseille","lat":43.30947,"lon":5.39029,"is_reserved":false,"is_disabled":false,"rental_uris":{"android":"levelo://app?vid=ccff8c17-068b-432e-81ad-ea6edf889947","ios":"levelo://app?vid=ccff8c17-068b-432e-81ad-ea6edf889947"},"vehicle_type_id":"4","last_reported":1727878088,"current_range_meters":36000,"station_id":"ce4bgup2rcd13ifvqco0","pricing_plan_id":"cebpf4jnsgd1na2vs0mg"},{"bike_id":"2bb03c07-8adf-4363-82bb-97597b530c17","system_id":"levelo_inurba_marseille","lat":43.2583,"lon":5.39439,"is_reserved":false,"is_disabled":false,"rental_uris":{"android":"levelo://app?vid=2bb03c07-8adf-4363-82bb-97597b530c17","ios":"levelo://app?vid=2bb03c07-8adf-4363-82bb-97597b530c17"},"vehicle_type_id":"4","last_reported":1727878088,"current_range_meters":38800,"station_id":"ce4bhip2rcd13ifvqft0","pricing_plan_id":"cebpf4jnsgd1na2vs0mg"},{"bike_id":"cc1b0ea3-ad3d-4cdd-bd2d-01272f02e72c","system_id":"levelo_inurba_marseille","lat":43.30097,"lon":5.3907,"is_reserved":false,"is_disabled":false,"rental_uris":{"android":"levelo://app?vid=cc1b0ea3-ad3d-4cdd-bd2d-01272f02e72c","ios":"levelo://app?vid=cc1b0ea3-ad3d-4cdd-bd2d-01272f02e72c"},"vehicle_type_id":"4","last_reported":1727878088,"current_range_meters":34800,"station_id":"ce4bh192rcd13ifvqdb0","pricing_plan_id":"cebpf4jnsgd1na2vs0mg"},{"bike_id":"43dff44e-c1e3-44c1-be80-38c2a7ae61e0","system_id":"levelo_inurba_marseille","lat":43.25936,"lon":5.40915,"is_reserved":false,"is_disabled":false,"rental_uris":{"android":"levelo://app?vid=43dff44e-c1e3-44c1-be80-38c2a7ae61e0","ios":"levelo://app?vid=43dff44e-c1e3-44c1-be80-38c2a7ae61e0"},"vehicle_type_id":"4","last_reported":1727878088,"current_range_meters":4400,"station_id":"ce4bhm92rcd13ifvqglg","pricing_plan_id":"cebpf4jnsgd1na2vs0mg"},{"bike_id":"3266d668-2f81-4f3b-ae04-8070b32a0e52","system_id":"levelo_inurba_marseille","lat":43.3303,"lon":5.39037,"is_reserved":false,"is_disabled":false,"rental_uris":{"android":"levelo://app?vid=3266d668-2f81-4f3b-ae04-8070b32a0e52","ios":"levelo://app?vid=3266d668-2f81-4f3b-ae04-8070b32a0e52"},"vehicle_type_id":"4","last_reported":1727878088,"current_range_meters":38800,"station_id":"ce4bhr92rcd13ifvqhrg","pricing_plan_id":"cebpf4jnsgd1na2vs0mg"},{"bike_id":"2ff6a432-b655-4e5b-b942-71174d27e379","system_id":"levelo_inurba_marseille","lat":43.249964,"lon":5.389244,"is_reserved":false,"is_disabled":false,"rental_uris":{"android":"levelo://app?vid=2ff6a432-b655-4e5b-b942-71174d27e379","ios":"levelo://app?vid=2ff6a432-b655-4e5b-b942-71174d27e379"},"vehicle_type_id":"4","last_reported":1727878088,"current_range_meters":9200,"station_id":"ce4bhh12rcd13ifvqfg0","pricing_plan_id":"cebpf4jnsgd1na2vs0mg"},{"bike_id":"b5257c19-a7e8-4dba-bdd5-387f08a42a97","system_id":"levelo_inurba_marseille","lat":43.31331,"lon":5.39693,"is_reserved":false,"is_disabled":false,"rental_uris":{"android":"levelo://app?vid=b5257c19-a7e8-4dba-bdd5-387f08a42a97","ios":"levelo://app?vid=b5257c19-a7e8-4dba-bdd5-387f08a42a97"},"vehicle_type_id":"4","last_reported":1727878088,"current_range_meters":17200,"station_id":"ce4bgvp2rcd13ifvqcu0","pricing_plan_id":"cebpf4jnsgd1na2vs0mg"},{"bike_id":"5c379d33-83e1-4c4c-b171-494f898c8000","system_id":"levelo_inurba_marseille","lat":43.31486,"lon":5.37307,"is_reserved":false,"is_disabled":false,"rental_uris":{"android":"levelo://app?vid=5c379d33-83e1-4c4c-b171-494f898c8000","ios":"levelo://app?vid=5c379d33-83e1-4c4c-b171-494f898c8000"},"vehicle_type_id":"4","last_reported":1727878088,"current_range_meters":20400,"station_id":"ce4bgt12rcd13ifvqcd0","pricing_plan_id":"cebpf4jnsgd1na2vs0mg"},{"bike_id":"74d9aacb-35a0-4109-a003-87617aadcb6a","system_id":"levelo_inurba_marseille","lat":43.24664,"lon":5.38161,"is_reserved":false,"is_disabled":false,"rental_uris":{"android":"levelo://app?vid=74d9aacb-35a0-4109-a003-87617aadcb6a","ios":"levelo://app?vid=74d9aacb-35a0-4109-a003-87617aadcb6a"},"vehicle_type_id":"4","last_reported":1727878088,"current_range_meters":25200,"station_id":"ce4bhih2rcd13ifvqfr0","pricing_plan_id":"cebpf4jnsgd1na2vs0mg"},{"bike_id":"cda1ff19-c8e7-4dce-9f37-aa697db0ed32","system_id":"levelo_inurba_marseille","lat":43.31364,"lon":5.36706,"is_reserved":false,"is_disabled":false,"rental_uris":{"android":"levelo://app?vid=cda1ff19-c8e7-4dce-9f37-aa697db0ed32","ios":"levelo://app?vid=cda1ff19-c8e7-4dce-9f37-aa697db0ed32"},"vehicle_type_id":"4","last_reported":1727878088,"current_range_meters":4800,"station_id":"ce4bgr92rcd13ifvqc6g","pricing_plan_id":"cebpf4jnsgd1na2vs0mg"},{"bike_id":"5b7f941a-2cfa-4946-a747-548ee3471558","system_id":"levelo_inurba_marseille","lat":43.28852,"lon":5.39329,"is_reserved":false,"is_disabled":false,"rental_uris":{"android":"levelo://app?vid=5b7f941a-2cfa-4946-a747-548ee3471558","ios":"levelo://app?vid=5b7f941a-2cfa-4946-a747-548ee3471558"},"vehicle_type_id":"4","last_reported":1727878088,"current_range_meters":32400,"station_id":"ce4bh2p2rcd13ifvqdi0","pricing_plan_id":"cebpf4jnsgd1na2vs0mg"},{"bike_id":"24b8f41a-3ca2-445c-a0ab-f7f3545231d9","system_id":"levelo_inurba_marseille","lat":43.27999,"lon":5.40005,"is_reserved":false,"is_disabled":false,"rental_uris":{"android":"levelo://app?vid=24b8f41a-3ca2-445c-a0ab-f7f3545231d9","ios":"levelo://app?vid=24b8f41a-3ca2-445c-a0ab-f7f3545231d9"},"vehicle_type_id":"4","last_reported":1727878088,"current_range_meters":8000,"station_id":"ce4bho92rcd13ifvqh4g","pricing_plan_id":"cebpf4jnsgd1na2vs0mg"},{"bike_id":"a543fa7f-8314-4265-bb4e-7eb17650a5e8","system_id":"levelo_inurba_marseille","lat":43.34138,"lon":5.40904,"is_reserved":false,"is_disabled":false,"rental_uris":{"android":"levelo://app?vid=a543fa7f-8314-4265-bb4e-7eb17650a5e8","ios":"levelo://app?vid=a543fa7f-8314-4265-bb4e-7eb17650a5e8"},"vehicle_type_id":"4","last_reported":1727878088,"current_range_meters":33600,"station_id":"ce4bhqh2rcd13ifvqhlg","pricing_plan_id":"cebpf4jnsgd1na2vs0mg"},{"bike_id":"70506f30-4604-41bd-818e-e50c97d4b599","system_id":"levelo_inurba_marseille","lat":43.32478,"lon":5.36554,"is_reserved":false,"is_disabled":false,"rental_uris":{"android":"levelo://app?vid=70506f30-4604-41bd-818e-e50c97d4b599","ios":"levelo://app?vid=70506f30-4604-41bd-818e-e50c97d4b599"},"vehicle_type_id":"4","last_reported":1727878088,"current_range_meters":30400,"station_id":"ce4bhs12rcd13ifvqhvg","pricing_plan_id":"cebpf4jnsgd1na2vs0mg"},{"bike_id":"ec1c3e2c-022c-4156-88fa-de4eba1043d2","system_id":"levelo_inurba_marseille","lat":43.25008,"lon":5.38914,"is_reserved":false,"is_disabled":false,"rental_uris":{"android":"levelo://app?vid=ec1c3e2c-022c-4156-88fa-de4eba1043d2","ios":"levelo://app?vid=ec1c3e2c-022c-4156-88fa-de4eba1043d2"},"vehicle_type_id":"4","last_reported":1727878088,"current_range_meters":32800,"station_id":"ce4bhgp2rcd13ifvqfd0","pricing_plan_id":"cebpf4jnsgd1na2vs0mg"},{"bike_id":"3e65f00c-f0c4-4777-96c6-f283e47f3b97","system_id":"levelo_inurba_marseille","lat":43.27942,"lon":5.41041,"is_reserved":false,"is_disabled":false,"rental_uris":{"android":"levelo://app?vid=3e65f00c-f0c4-4777-96c6-f283e47f3b97","ios":"levelo://app?vid=3e65f00c-f0c4-4777-96c6-f283e47f3b97"},"vehicle_type_id":"4","last_reported":1727878088,"current_range_meters":33200,"station_id":"ce4bhnp2rcd13ifvqh0g","pricing_plan_id":"cebpf4jnsgd1na2vs0mg"},{"bike_id":"ba7add68-28bb-469f-aeac-c5f928b2c215","system_id":"levelo_inurba_marseille","lat":43.259308,"lon":5.409122,"is_reserved":false,"is_disabled":false,"rental_uris":{"android":"levelo://app?vid=ba7add68-28bb-469f-aeac-c5f928b2c215","ios":"levelo://app?vid=ba7add68-28bb-469f-aeac-c5f928b2c215"},"vehicle_type_id":"4","last_reported":1727878088,"current_range_meters":28000,"station_id":"ce4bhm92rcd13ifvqglg","pricing_plan_id":"cebpf4jnsgd1na2vs0mg"},{"bike_id":"dd654719-3f27-42c1-a877-a1fb327b1541","system_id":"levelo_inurba_marseille","lat":43.298706,"lon":5.389103,"is_reserved":false,"is_disabled":false,"rental_uris":{"android":"levelo://app?vid=dd654719-3f27-42c1-a877-a1fb327b1541","ios":"levelo://app?vid=dd654719-3f27-42c1-a877-a1fb327b1541"},"vehicle_type_id":"4","last_reported":1727878088,"current_range_meters":4800,"station_id":"ce4bh392rcd13ifvqdl0","pricing_plan_id":"cebpf4jnsgd1na2vs0mg"},{"bike_id":"46513b01-0c4e-4334-8358-d98d4900c24b","system_id":"levelo_inurba_marseille","lat":43.32338,"lon":5.4062,"is_reserved":false,"is_disabled":false,"rental_uris":{"android":"levelo://app?vid=46513b01-0c4e-4334-8358-d98d4900c24b","ios":"levelo://app?vid=46513b01-0c4e-4334-8358-d98d4900c24b"},"vehicle_type_id":"4","last_reported":1727878088,"current_range_meters":36000,"station_id":"ce4bhq92rcd13ifvqhjg","pricing_plan_id":"cebpf4jnsgd1na2vs0mg"},{"bike_id":"4fa686aa-99a7-4908-b63e-cb5e320c48a3","system_id":"levelo_inurba_marseille","lat":43.25864,"lon":5.39895,"is_reserved":false,"is_disabled":false,"rental_uris":{"android":"levelo://app?vid=4fa686aa-99a7-4908-b63e-cb5e320c48a3","ios":"levelo://app?vid=4fa686aa-99a7-4908-b63e-cb5e320c48a3"},"vehicle_type_id":"4","last_reported":1727878088,"current_range_meters":22400,"station_id":"ce4bhl92rcd13ifvqghg","pricing_plan_id":"cebpf4jnsgd1na2vs0mg"},{"bike_id":"800b1c1f-8a35-4ae7-a533-7cc9de1f4c12","system_id":"levelo_inurba_marseille","lat":43.2988,"lon":5.38917,"is_reserved":false,"is_disabled":false,"rental_uris":{"android":"levelo://app?vid=800b1c1f-8a35-4ae7-a533-7cc9de1f4c12","ios":"levelo://app?vid=800b1c1f-8a35-4ae7-a533-7cc9de1f4c12"},"vehicle_type_id":"4","last_reported":1727878088,"current_range_meters":27200,"station_id":"ce4bh392rcd13ifvqdl0","pricing_plan_id":"cebpf4jnsgd1na2vs0mg"},{"bike_id":"b4ec986c-94df-4342-83db-52d9575ea684","system_id":"levelo_inurba_marseille","lat":43.30314,"lon":5.369,"is_reserved":false,"is_disabled":false,"rental_uris":{"android":"levelo://app?vid=b4ec986c-94df-4342-83db-52d9575ea684","ios":"levelo://app?vid=b4ec986c-94df-4342-83db-52d9575ea684"},"vehicle_type_id":"4","last_reported":1727878088,"current_range_meters":23200,"station_id":"ce4bgqh2rcd13ifvqc5g","pricing_plan_id":"cebpf4jnsgd1na2vs0mg"},{"bike_id":"90b7edda-53c7-47fc-8818-49f222543e81","system_id":"levelo_inurba_marseille","lat":43.31723,"lon":5.42407,"is_reserved":false,"is_disabled":false,"rental_uris":{"android":"levelo://app?vid=90b7edda-53c7-47fc-8818-49f222543e81","ios":"levelo://app?vid=90b7edda-53c7-47fc-8818-49f222543e81"},"vehicle_type_id":"4","last_reported":1727878088,"current_range_meters":34000,"station_id":"ce4bhp92rcd13ifvqhbg","pricing_plan_id":"cebpf4jnsgd1na2vs0mg"},{"bike_id":"b2d306ff-9f58-4d67-b6e1-5402487eab98","system_id":"levelo_inurba_marseille","lat":43.30461,"lon":5.36514,"is_reserved":false,"is_disabled":false,"rental_uris":{"android":"levelo://app?vid=b2d306ff-9f58-4d67-b6e1-5402487eab98","ios":"levelo://app?vid=b2d306ff-9f58-4d67-b6e1-5402487eab98"},"vehicle_type_id":"4","last_reported":1727878088,"current_range_meters":15200,"station_id":"","pricing_plan_id":"cebpf4jnsgd1na2vs0mg"},{"bike_id":"a38b35a2-3cea-4d86-a11d-f07d01035cf5","system_id":"levelo_inurba_marseille","lat":43.26494,"lon":5.39539,"is_reserved":false,"is_disabled":false,"rental_uris":{"android":"levelo://app?vid=a38b35a2-3cea-4d86-a11d-f07d01035cf5","ios":"levelo://app?vid=a38b35a2-3cea-4d86-a11d-f07d01035cf5"},"vehicle_type_id":"4","last_reported":1727878088,"current_range_meters":26000,"station_id":"ce4bh3p2rcd13ifvqdp0","pricing_plan_id":"cebpf4jnsgd1na2vs0mg"},{"bike_id":"a587c262-d08f-4166-9426-48311d2c35ed","system_id":"levelo_inurba_marseille","lat":43.30193,"lon":5.36628,"is_reserved":false,"is_disabled":false,"rental_uris":{"android":"levelo://app?vid=a587c262-d08f-4166-9426-48311d2c35ed","ios":"levelo://app?vid=a587c262-d08f-4166-9426-48311d2c35ed"},"vehicle_type_id":"4","last_reported":1727878088,"current_range_meters":8400,"station_id":"ce4bgrh2rcd13ifvqc8g","pricing_plan_id":"cebpf4jnsgd1na2vs0mg"},{"bike_id":"d1f0d014-7557-47d8-822b-5e26ceaae108","system_id":"levelo_inurba_marseille","lat":43.23193,"lon":5.39969,"is_reserved":false,"is_disabled":false,"rental_uris":{"android":"levelo://app?vid=d1f0d014-7557-47d8-822b-5e26ceaae108","ios":"levelo://app?vid=d1f0d014-7557-47d8-822b-5e26ceaae108"},"vehicle_type_id":"4","last_reported":1727878088,"current_range_meters":22000,"station_id":"ce4bhn12rcd13ifvqgqg","pricing_plan_id":"cebpf4jnsgd1na2vs0mg"},{"bike_id":"463a4129-8e68-4ff1-b9b1-1a08995ec664","system_id":"levelo_inurba_marseille","lat":43.30543,"lon":5.36698,"is_reserved":false,"is_disabled":false,"rental_uris":{"android":"levelo://app?vid=463a4129-8e68-4ff1-b9b1-1a08995ec664","ios":"levelo://app?vid=463a4129-8e68-4ff1-b9b1-1a08995ec664"},"vehicle_type_id":"4","last_reported":1727878088,"current_range_meters":36800,"station_id":"ce4bgrp2rcd13ifvqc9g","pricing_plan_id":"cebpf4jnsgd1na2vs0mg"},{"bike_id":"0555ddb6-9464-4f20-a2bd-74d5d204ffdc","system_id":"levelo_inurba_marseille","lat":43.27691,"lon":5.38871,"is_reserved":false,"is_disabled":false,"rental_uris":{"android":"levelo://app?vid=0555ddb6-9464-4f20-a2bd-74d5d204ffdc","ios":"levelo://app?vid=0555ddb6-9464-4f20-a2bd-74d5d204ffdc"},"vehicle_type_id":"4","last_reported":1727878088,"current_range_meters":38800,"station_id":"ce4bhjp2rcd13ifvqga0","pricing_plan_id":"cebpf4jnsgd1na2vs0mg"},{"bike_id":"a32e6350-58b1-4ab3-99f4-754aab2fed37","system_id":"levelo_inurba_marseille","lat":43.28467,"lon":5.3588,"is_reserved":false,"is_disabled":false,"rental_uris":{"android":"levelo://app?vid=a32e6350-58b1-4ab3-99f4-754aab2fed37","ios":"levelo://app?vid=a32e6350-58b1-4ab3-99f4-754aab2fed37"},"vehicle_type_id":"4","last_reported":1727878088,"current_range_meters":38800,"station_id":"ce4bhah2rcd13ifvqei0","pricing_plan_id":"cebpf4jnsgd1na2vs0mg"},{"bike_id":"b1e5553a-af93-444d-b975-fdabd87490d9","system_id":"levelo_inurba_marseille","lat":43.3093,"lon":5.40141,"is_reserved":false,"is_disabled":false,"rental_uris":{"android":"levelo://app?vid=b1e5553a-af93-444d-b975-fdabd87490d9","ios":"levelo://app?vid=b1e5553a-af93-444d-b975-fdabd87490d9"},"vehicle_type_id":"4","last_reported":1727878088,"current_range_meters":28400,"station_id":"ce4bgvp2rcd13ifvqct0","pricing_plan_id":"cebpf4jnsgd1na2vs0mg"},{"bike_id":"be19b1fe-4ab5-45f0-a575-f506ba21f8b3","system_id":"levelo_inurba_marseille","lat":43.29195,"lon":5.39313,"is_reserved":false,"is_disabled":false,"rental_uris":{"android":"levelo://app?vid=be19b1fe-4ab5-45f0-a575-f506ba21f8b3","ios":"levelo://app?vid=be19b1fe-4ab5-45f0-a575-f506ba21f8b3"},"vehicle_type_id":"4","last_reported":1727878088,"current_range_meters":24800,"station_id":"ce4bh192rcd13ifvqdd0","pricing_plan_id":"cebpf4jnsgd1na2vs0mg"},{"bike_id":"6e956258-0a1f-44e5-bcf1-86d1587fa8f1","system_id":"levelo_inurba_marseille","lat":43.309271,"lon":5.401373,"is_reserved":false,"is_disabled":false,"rental_uris":{"android":"levelo://app?vid=6e956258-0a1f-44e5-bcf1-86d1587fa8f1","ios":"levelo://app?vid=6e956258-0a1f-44e5-bcf1-86d1587fa8f1"},"vehicle_type_id":"4","last_reported":1727878088,"current_range_meters":38800,"station_id":"ce4bgvp2rcd13ifvqct0","pricing_plan_id":"cebpf4jnsgd1na2vs0mg"},{"bike_id":"3a48058d-bdb7-4fa4-aea5-da158a7a0b38","system_id":"levelo_inurba_marseille","lat":43.33028,"lon":5.39043,"is_reserved":false,"is_disabled":false,"rental_uris":{"android":"levelo://app?vid=3a48058d-bdb7-4fa4-aea5-da158a7a0b38","ios":"levelo://app?vid=3a48058d-bdb7-4fa4-aea5-da158a7a0b38"},"vehicle_type_id":"4","last_reported":1727878088,"current_range_meters":31200,"station_id":"ce4bhr92rcd13ifvqhrg","pricing_plan_id":"cebpf4jnsgd1na2vs0mg"},{"bike_id":"44d82db3-2da0-4dff-9361-a1ab7a77bd41","system_id":"levelo_inurba_marseille","lat":43.23187,"lon":5.39978,"is_reserved":false,"is_disabled":false,"rental_uris":{"android":"levelo://app?vid=44d82db3-2da0-4dff-9361-a1ab7a77bd41","ios":"levelo://app?vid=44d82db3-2da0-4dff-9361-a1ab7a77bd41"},"vehicle_type_id":"4","last_reported":1727878088,"current_range_meters":3200,"station_id":"ce4bhn12rcd13ifvqgqg","pricing_plan_id":"cebpf4jnsgd1na2vs0mg"},{"bike_id":"06efadec-6126-4b98-a648-25e613d5c207","system_id":"levelo_inurba_marseille","lat":43.23155,"lon":5.43721,"is_reserved":false,"is_disabled":false,"rental_uris":{"android":"levelo://app?vid=06efadec-6126-4b98-a648-25e613d5c207","ios":"levelo://app?vid=06efadec-6126-4b98-a648-25e613d5c207"},"vehicle_type_id":"4","last_reported":1727878088,"current_range_meters":7200,"station_id":"ce4bhmp2rcd13ifvqgog","pricing_plan_id":"cebpf4jnsgd1na2vs0mg"},{"bike_id":"a1ac91c2-e22c-4ece-bfe2-4d5e13ad6026","system_id":"levelo_inurba_marseille","lat":43.34074,"lon":5.42005,"is_reserved":false,"is_disabled":false,"rental_uris":{"android":"levelo://app?vid=a1ac91c2-e22c-4ece-bfe2-4d5e13ad6026","ios":"levelo://app?vid=a1ac91c2-e22c-4ece-bfe2-4d5e13ad6026"},"vehicle_type_id":"4","last_reported":1727878088,"current_range_meters":4400,"station_id":"","pricing_plan_id":"cebpf4jnsgd1na2vs0mg"},{"bike_id":"a9fc5cf7-7ef1-424f-b528-81244a953126","system_id":"levelo_inurba_marseille","lat":43.29977,"lon":5.38486,"is_reserved":false,"is_disabled":false,"rental_uris":{"android":"levelo://app?vid=a9fc5cf7-7ef1-424f-b528-81244a953126","ios":"levelo://app?vid=a9fc5cf7-7ef1-424f-b528-81244a953126"},"vehicle_type_id":"4","last_reported":1727878088,"current_range_meters":38800,"station_id":"ce4bgj92rcd13ifvqbd0","pricing_plan_id":"cebpf4jnsgd1na2vs0mg"},{"bike_id":"a915f8f0-ed57-438d-af5c-f3bcbc7ec5a7","system_id":"levelo_inurba_marseille","lat":43.30137,"lon":5.38775,"is_reserved":false,"is_disabled":false,"rental_uris":{"android":"levelo://app?vid=a915f8f0-ed57-438d-af5c-f3bcbc7ec5a7","ios":"levelo://app?vid=a915f8f0-ed57-438d-af5c-f3bcbc7ec5a7"},"vehicle_type_id":"4","last_reported":1727878088,"current_range_meters":30800,"station_id":"ce4bghh2rcd13ifvqb60","pricing_plan_id":"cebpf4jnsgd1na2vs0mg"},{"bike_id":"41a46847-18f7-404e-ad82-85223006aef2","system_id":"levelo_inurba_marseille","lat":43.296661,"lon":5.378486,"is_reserved":false,"is_disabled":false,"rental_uris":{"android":"levelo://app?vid=41a46847-18f7-404e-ad82-85223006aef2","ios":"levelo://app?vid=41a46847-18f7-404e-ad82-85223006aef2"},"vehicle_type_id":"4","last_reported":1727878088,"current_range_meters":38000,"station_id":"ce4bgkh2rcd13ifvqbl0","pricing_plan_id":"cebpf4jnsgd1na2vs0mg"},{"bike_id":"33f48761-cbf3-4f21-9a5d-56758ffdb18f","system_id":"levelo_inurba_marseille","lat":43.32341,"lon":5.40623,"is_reserved":false,"is_disabled":false,"rental_uris":{"android":"levelo://app?vid=33f48761-cbf3-4f21-9a5d-56758ffdb18f","ios":"levelo://app?vid=33f48761-cbf3-4f21-9a5d-56758ffdb18f"},"vehicle_type_id":"4","last_reported":1727878088,"current_range_meters":39200,"station_id":"ce4bhq92rcd13ifvqhjg","pricing_plan_id":"cebpf4jnsgd1na2vs0mg"},{"bike_id":"609844d3-402e-4c83-8b7f-d2093120cb67","system_id":"levelo_inurba_marseille","lat":43.32537,"lon":5.41443,"is_reserved":false,"is_disabled":false,"rental_uris":{"android":"levelo://app?vid=609844d3-402e-4c83-8b7f-d2093120cb67","ios":"levelo://app?vid=609844d3-402e-4c83-8b7f-d2093120cb67"},"vehicle_type_id":"4","last_reported":1727878088,"current_range_meters":35600,"station_id":"ce4bhq12rcd13ifvqhhg","pricing_plan_id":"cebpf4jnsgd1na2vs0mg"},{"bike_id":"26bf5417-b151-4fba-a9c0-b0cb4935de69","system_id":"levelo_inurba_marseille","lat":43.2465,"lon":5.38894,"is_reserved":false,"is_disabled":false,"rental_uris":{"android":"levelo://app?vid=26bf5417-b151-4fba-a9c0-b0cb4935de69","ios":"levelo://app?vid=26bf5417-b151-4fba-a9c0-b0cb4935de69"},"vehicle_type_id":"4","last_reported":1727878088,"current_range_meters":19200,"station_id":"ce4bhg12rcd13ifvqf60","pricing_plan_id":"cebpf4jnsgd1na2vs0mg"},{"bike_id":"ee9e0424-af0c-43d0-9013-eb1ebf9a730d","system_id":"levelo_inurba_marseille","lat":43.30927,"lon":5.40145,"is_reserved":false,"is_disabled":false,"rental_uris":{"android":"levelo://app?vid=ee9e0424-af0c-43d0-9013-eb1ebf9a730d","ios":"levelo://app?vid=ee9e0424-af0c-43d0-9013-eb1ebf9a730d"},"vehicle_type_id":"4","last_reported":1727878088,"current_range_meters":38800,"station_id":"ce4bgvp2rcd13ifvqct0","pricing_plan_id":"cebpf4jnsgd1na2vs0mg"},{"bike_id":"751b5e2a-2b30-4cad-a15c-81176dc96059","system_id":"levelo_inurba_marseille","lat":43.31372,"lon":5.38497,"is_reserved":false,"is_disabled":false,"rental_uris":{"android":"levelo://app?vid=751b5e2a-2b30-4cad-a15c-81176dc96059","ios":"levelo://app?vid=751b5e2a-2b30-4cad-a15c-81176dc96059"},"vehicle_type_id":"4","last_reported":1727878088,"current_range_meters":21600,"station_id":"ce4bgt92rcd13ifvqcf0","pricing_plan_id":"cebpf4jnsgd1na2vs0mg"},{"bike_id":"5a0d3d90-449e-478b-94b1-488eb695ddbe","system_id":"levelo_inurba_marseille","lat":43.29843,"lon":5.36269,"is_reserved":false,"is_disabled":false,"rental_uris":{"android":"levelo://app?vid=5a0d3d90-449e-478b-94b1-488eb695ddbe","ios":"levelo://app?vid=5a0d3d90-449e-478b-94b1-488eb695ddbe"},"vehicle_type_id":"4","last_reported":1727878088,"current_range_meters":35600,"station_id":"ce4bgpp2rcd13ifvqc3g","pricing_plan_id":"cebpf4jnsgd1na2vs0mg"},{"bike_id":"cb0e5d4a-ca93-41fd-b51a-946f04588e62","system_id":"levelo_inurba_marseille","lat":43.29979,"lon":5.38507,"is_reserved":false,"is_disabled":false,"rental_uris":{"android":"levelo://app?vid=cb0e5d4a-ca93-41fd-b51a-946f04588e62","ios":"levelo://app?vid=cb0e5d4a-ca93-41fd-b51a-946f04588e62"},"vehicle_type_id":"4","last_reported":1727878088,"current_range_meters":37600,"station_id":"ce4bgj92rcd13ifvqbd0","pricing_plan_id":"cebpf4jnsgd1na2vs0mg"},{"bike_id":"ded110e0-9c92-4635-b314-556250006736","system_id":"levelo_inurba_marseille","lat":43.27374,"lon":5.36257,"is_reserved":false,"is_disabled":false,"rental_uris":{"android":"levelo://app?vid=ded110e0-9c92-4635-b314-556250006736","ios":"levelo://app?vid=ded110e0-9c92-4635-b314-556250006736"},"vehicle_type_id":"4","last_reported":1727878088,"current_range_meters":18000,"station_id":"ce4bhbh2rcd13ifvqeo0","pricing_plan_id":"cebpf4jnsgd1na2vs0mg"},{"bike_id":"f77c1722-4fc0-4587-9e7c-163d954b1ae3","system_id":"levelo_inurba_marseille","lat":43.29899,"lon":5.43658,"is_reserved":false,"is_disabled":false,"rental_uris":{"android":"levelo://app?vid=f77c1722-4fc0-4587-9e7c-163d954b1ae3","ios":"levelo://app?vid=f77c1722-4fc0-4587-9e7c-163d954b1ae3"},"vehicle_type_id":"4","last_reported":1727878088,"current_range_meters":28800,"station_id":"ce4bhpp2rcd13ifvqhfg","pricing_plan_id":"cebpf4jnsgd1na2vs0mg"},{"bike_id":"29da839a-70d3-4f5c-9bc3-97ff70636a0e","system_id":"levelo_inurba_marseille","lat":43.26569,"lon":5.38992,"is_reserved":false,"is_disabled":false,"rental_uris":{"android":"levelo://app?vid=29da839a-70d3-4f5c-9bc3-97ff70636a0e","ios":"levelo://app?vid=29da839a-70d3-4f5c-9bc3-97ff70636a0e"},"vehicle_type_id":"4","last_reported":1727878088,"current_range_meters":38800,"station_id":"ce4bhe12rcd13ifvqf30","pricing_plan_id":"cebpf4jnsgd1na2vs0mg"},{"bike_id":"79e472cb-f3ef-47ae-9ec9-4f7496893958","system_id":"levelo_inurba_marseille","lat":43.258631,"lon":5.398977,"is_reserved":false,"is_disabled":false,"rental_uris":{"android":"levelo://app?vid=79e472cb-f3ef-47ae-9ec9-4f7496893958","ios":"levelo://app?vid=79e472cb-f3ef-47ae-9ec9-4f7496893958"},"vehicle_type_id":"4","last_reported":1727878088,"current_range_meters":12000,"station_id":"ce4bhi12rcd13ifvqfq0","pricing_plan_id":"cebpf4jnsgd1na2vs0mg"},{"bike_id":"a253aee3-25a2-4169-81f0-7160ec578495","system_id":"levelo_inurba_marseille","lat":43.27363,"lon":5.3624,"is_reserved":false,"is_disabled":false,"rental_uris":{"android":"levelo://app?vid=a253aee3-25a2-4169-81f0-7160ec578495","ios":"levelo://app?vid=a253aee3-25a2-4169-81f0-7160ec578495"},"vehicle_type_id":"4","last_reported":1727878088,"current_range_meters":38400,"station_id":"ce4bhbh2rcd13ifvqeo0","pricing_plan_id":"cebpf4jnsgd1na2vs0mg"},{"bike_id":"30077ecd-1d3c-4ffe-bf30-a1a2991e1aca","system_id":"levelo_inurba_marseille","lat":43.23057,"lon":5.35485,"is_reserved":false,"is_disabled":false,"rental_uris":{"android":"levelo://app?vid=30077ecd-1d3c-4ffe-bf30-a1a2991e1aca","ios":"levelo://app?vid=30077ecd-1d3c-4ffe-bf30-a1a2991e1aca"},"vehicle_type_id":"4","last_reported":1727878088,"current_range_meters":37600,"station_id":"cpo3342slgdg3j2ifvpg","pricing_plan_id":"cebpf4jnsgd1na2vs0mg"},{"bike_id":"fec1c4e0-ecc5-4650-bb2c-a7b963c3d8fe","system_id":"levelo_inurba_marseille","lat":43.27819,"lon":5.40716,"is_reserved":false,"is_disabled":false,"rental_uris":{"android":"levelo://app?vid=fec1c4e0-ecc5-4650-bb2c-a7b963c3d8fe","ios":"levelo://app?vid=fec1c4e0-ecc5-4650-bb2c-a7b963c3d8fe"},"vehicle_type_id":"4","last_reported":1727878088,"current_range_meters":24800,"station_id":"ce4bhnh2rcd13ifvqgtg","pricing_plan_id":"cebpf4jnsgd1na2vs0mg"},{"bike_id":"ec91f723-319e-4ca0-b0be-dcc9fd580c90","system_id":"levelo_inurba_marseille","lat":43.32537,"lon":5.41446,"is_reserved":false,"is_disabled":false,"rental_uris":{"android":"levelo://app?vid=ec91f723-319e-4ca0-b0be-dcc9fd580c90","ios":"levelo://app?vid=ec91f723-319e-4ca0-b0be-dcc9fd580c90"},"vehicle_type_id":"4","last_reported":1727878088,"current_range_meters":38800,"station_id":"ce4bhq12rcd13ifvqhhg","pricing_plan_id":"cebpf4jnsgd1na2vs0mg"},{"bike_id":"123ff6ed-4385-4a10-999b-eb298bcab43c","system_id":"levelo_inurba_marseille","lat":43.33025,"lon":5.39038,"is_reserved":false,"is_disabled":false,"rental_uris":{"android":"levelo://app?vid=123ff6ed-4385-4a10-999b-eb298bcab43c","ios":"levelo://app?vid=123ff6ed-4385-4a10-999b-eb298bcab43c"},"vehicle_type_id":"4","last_reported":1727878088,"current_range_meters":39200,"station_id":"ce4bhr92rcd13ifvqhrg","pricing_plan_id":"cebpf4jnsgd1na2vs0mg"},{"bike_id":"789e3afd-a921-4dce-9615-939a2591cb8d","system_id":"levelo_inurba_marseille","lat":43.31044,"lon":5.40102,"is_reserved":false,"is_disabled":false,"rental_uris":{"android":"levelo://app?vid=789e3afd-a921-4dce-9615-939a2591cb8d","ios":"levelo://app?vid=789e3afd-a921-4dce-9615-939a2591cb8d"},"vehicle_type_id":"4","last_reported":1727878088,"current_range_meters":33200,"station_id":"ce4bh092rcd13ifvqd30","pricing_plan_id":"cebpf4jnsgd1na2vs0mg"},{"bike_id":"a97539dc-f9ab-4b5e-8ef6-b039e51ad0be","system_id":"levelo_inurba_marseille","lat":43.27905,"lon":5.38007,"is_reserved":false,"is_disabled":false,"rental_uris":{"android":"levelo://app?vid=a97539dc-f9ab-4b5e-8ef6-b039e51ad0be","ios":"levelo://app?vid=a97539dc-f9ab-4b5e-8ef6-b039e51ad0be"},"vehicle_type_id":"4","last_reported":1727878088,"current_range_meters":10800,"station_id":"ce4bhf92rcd13ifvqf50","pricing_plan_id":"cebpf4jnsgd1na2vs0mg"},{"bike_id":"72d0e6ff-97bb-43e3-a4f5-d93db6c04f3a","system_id":"levelo_inurba_marseille","lat":43.24652,"lon":5.38895,"is_reserved":false,"is_disabled":false,"rental_uris":{"android":"levelo://app?vid=72d0e6ff-97bb-43e3-a4f5-d93db6c04f3a","ios":"levelo://app?vid=72d0e6ff-97bb-43e3-a4f5-d93db6c04f3a"},"vehicle_type_id":"4","last_reported":1727878088,"current_range_meters":9200,"station_id":"ce4bhg12rcd13ifvqf60","pricing_plan_id":"cebpf4jnsgd1na2vs0mg"},{"bike_id":"81c8f3eb-4f47-48de-b362-cac094d7e803","system_id":"levelo_inurba_marseille","lat":43.25934,"lon":5.4091,"is_reserved":false,"is_disabled":false,"rental_uris":{"android":"levelo://app?vid=81c8f3eb-4f47-48de-b362-cac094d7e803","ios":"levelo://app?vid=81c8f3eb-4f47-48de-b362-cac094d7e803"},"vehicle_type_id":"4","last_reported":1727878088,"current_range_meters":6800,"station_id":"ce4bhm92rcd13ifvqglg","pricing_plan_id":"cebpf4jnsgd1na2vs0mg"},{"bike_id":"7b43a16e-ca67-427f-9af3-11bcb0747823","system_id":"levelo_inurba_marseille","lat":43.30298,"lon":5.39198,"is_reserved":false,"is_disabled":false,"rental_uris":{"android":"levelo://app?vid=7b43a16e-ca67-427f-9af3-11bcb0747823","ios":"levelo://app?vid=7b43a16e-ca67-427f-9af3-11bcb0747823"},"vehicle_type_id":"4","last_reported":1727878088,"current_range_meters":4000,"station_id":"ce4bgkh2rcd13ifvqbk0","pricing_plan_id":"cebpf4jnsgd1na2vs0mg"},{"bike_id":"49f70484-8757-4395-998e-fc3633fa05de","system_id":"levelo_inurba_marseille","lat":43.32554,"lon":5.41449,"is_reserved":false,"is_disabled":false,"rental_uris":{"android":"levelo://app?vid=49f70484-8757-4395-998e-fc3633fa05de","ios":"levelo://app?vid=49f70484-8757-4395-998e-fc3633fa05de"},"vehicle_type_id":"4","last_reported":1727878088,"current_range_meters":25200,"station_id":"ce4bhq12rcd13ifvqhhg","pricing_plan_id":"cebpf4jnsgd1na2vs0mg"},{"bike_id":"56553f0e-6d7a-4124-8d89-09b19a5113d1","system_id":"levelo_inurba_marseille","lat":43.30648,"lon":5.40098,"is_reserved":false,"is_disabled":false,"rental_uris":{"android":"levelo://app?vid=56553f0e-6d7a-4124-8d89-09b19a5113d1","ios":"levelo://app?vid=56553f0e-6d7a-4124-8d89-09b19a5113d1"},"vehicle_type_id":"4","last_reported":1727878088,"current_range_meters":10000,"station_id":"ce4bh112rcd13ifvqda0","pricing_plan_id":"cebpf4jnsgd1na2vs0mg"},{"bike_id":"439cf77a-866a-4a51-948e-bf6d89754836","system_id":"levelo_inurba_marseille","lat":43.28613,"lon":5.35106,"is_reserved":false,"is_disabled":false,"rental_uris":{"android":"levelo://app?vid=439cf77a-866a-4a51-948e-bf6d89754836","ios":"levelo://app?vid=439cf77a-866a-4a51-948e-bf6d89754836"},"vehicle_type_id":"4","last_reported":1727878088,"current_range_meters":36400,"station_id":"ce4bhch2rcd13ifvqeug","pricing_plan_id":"cebpf4jnsgd1na2vs0mg"},{"bike_id":"f8f518e3-bd48-40f5-801a-4ead88758ee2","system_id":"levelo_inurba_marseille","lat":43.32112,"lon":5.36785,"is_reserved":false,"is_disabled":false,"rental_uris":{"android":"levelo://app?vid=f8f518e3-bd48-40f5-801a-4ead88758ee2","ios":"levelo://app?vid=f8f518e3-bd48-40f5-801a-4ead88758ee2"},"vehicle_type_id":"4","last_reported":1727878088,"current_range_meters":9200,"station_id":"ce4bhrh2rcd13ifvqhug","pricing_plan_id":"cebpf4jnsgd1na2vs0mg"},{"bike_id":"af7fa341-96db-4b85-b82f-60a1a513fb0a","system_id":"levelo_inurba_marseille","lat":43.303105,"lon":5.368995,"is_reserved":false,"is_disabled":false,"rental_uris":{"android":"levelo://app?vid=af7fa341-96db-4b85-b82f-60a1a513fb0a","ios":"levelo://app?vid=af7fa341-96db-4b85-b82f-60a1a513fb0a"},"vehicle_type_id":"4","last_reported":1727878088,"current_range_meters":2000,"station_id":"ce4bgqh2rcd13ifvqc5g","pricing_plan_id":"cebpf4jnsgd1na2vs0mg"},{"bike_id":"b8d0f0fe-9829-4e25-b3fc-9da75c2774f3","system_id":"levelo_inurba_marseille","lat":43.25932,"lon":5.40902,"is_reserved":false,"is_disabled":false,"rental_uris":{"android":"levelo://app?vid=b8d0f0fe-9829-4e25-b3fc-9da75c2774f3","ios":"levelo://app?vid=b8d0f0fe-9829-4e25-b3fc-9da75c2774f3"},"vehicle_type_id":"4","last_reported":1727878088,"current_range_meters":16000,"station_id":"ce4bhm92rcd13ifvqglg","pricing_plan_id":"cebpf4jnsgd1na2vs0mg"},{"bike_id":"eeddf935-9c21-4471-9e36-d8397c7b2ce1","system_id":"levelo_inurba_marseille","lat":43.24806,"lon":5.37452,"is_reserved":false,"is_disabled":false,"rental_uris":{"android":"levelo://app?vid=eeddf935-9c21-4471-9e36-d8397c7b2ce1","ios":"levelo://app?vid=eeddf935-9c21-4471-9e36-d8397c7b2ce1"},"vehicle_type_id":"4","last_reported":1727878088,"current_range_meters":27600,"station_id":"ce4bhgh2rcd13ifvqfb0","pricing_plan_id":"cebpf4jnsgd1na2vs0mg"},{"bike_id":"add29882-e415-4ee9-8de1-1553af38535a","system_id":"levelo_inurba_marseille","lat":43.25116,"lon":5.40322,"is_reserved":false,"is_disabled":false,"rental_uris":{"android":"levelo://app?vid=add29882-e415-4ee9-8de1-1553af38535a","ios":"levelo://app?vid=add29882-e415-4ee9-8de1-1553af38535a"},"vehicle_type_id":"4","last_reported":1727878088,"current_range_meters":39200,"station_id":"ce4bhlh2rcd13ifvqgig","pricing_plan_id":"cebpf4jnsgd1na2vs0mg"},{"bike_id":"91b10d81-ee63-4d4b-b9ba-21e9744b0964","system_id":"levelo_inurba_marseille","lat":43.27813,"lon":5.40708,"is_reserved":false,"is_disabled":false,"rental_uris":{"android":"levelo://app?vid=91b10d81-ee63-4d4b-b9ba-21e9744b0964","ios":"levelo://app?vid=91b10d81-ee63-4d4b-b9ba-21e9744b0964"},"vehicle_type_id":"4","last_reported":1727878088,"current_range_meters":36800,"station_id":"ce4bhnh2rcd13ifvqgtg","pricing_plan_id":"cebpf4jnsgd1na2vs0mg"},{"bike_id":"4d0bf592-faa0-46bd-adc8-99f808f11b3a","system_id":"levelo_inurba_marseille","lat":43.31272,"lon":5.40166,"is_reserved":false,"is_disabled":false,"rental_uris":{"android":"levelo://app?vid=4d0bf592-faa0-46bd-adc8-99f808f11b3a","ios":"levelo://app?vid=4d0bf592-faa0-46bd-adc8-99f808f11b3a"},"vehicle_type_id":"4","last_reported":1727878088,"current_range_meters":38800,"station_id":"ce4bh092rcd13ifvqd30","pricing_plan_id":"cebpf4jnsgd1na2vs0mg"},{"bike_id":"28f0288d-1186-425d-8820-e66411ffe43a","system_id":"levelo_inurba_marseille","lat":43.29551,"lon":5.42294,"is_reserved":false,"is_disabled":false,"rental_uris":{"android":"levelo://app?vid=28f0288d-1186-425d-8820-e66411ffe43a","ios":"levelo://app?vid=28f0288d-1186-425d-8820-e66411ffe43a"},"vehicle_type_id":"4","last_reported":1727878088,"current_range_meters":38800,"station_id":"ce4bhph2rcd13ifvqhdg","pricing_plan_id":"cebpf4jnsgd1na2vs0mg"},{"bike_id":"d871a647-44ab-4e6a-a9f8-68c97c570642","system_id":"levelo_inurba_marseille","lat":43.29898,"lon":5.43659,"is_reserved":false,"is_disabled":false,"rental_uris":{"android":"levelo://app?vid=d871a647-44ab-4e6a-a9f8-68c97c570642","ios":"levelo://app?vid=d871a647-44ab-4e6a-a9f8-68c97c570642"},"vehicle_type_id":"4","last_reported":1727878088,"current_range_meters":16000,"station_id":"ce4bhpp2rcd13ifvqhfg","pricing_plan_id":"cebpf4jnsgd1na2vs0mg"},{"bike_id":"1b3d4f52-3e4a-498a-85f4-c8c4d0e17fea","system_id":"levelo_inurba_marseille","lat":43.30885,"lon":5.39646,"is_reserved":false,"is_disabled":false,"rental_uris":{"android":"levelo://app?vid=1b3d4f52-3e4a-498a-85f4-c8c4d0e17fea","ios":"levelo://app?vid=1b3d4f52-3e4a-498a-85f4-c8c4d0e17fea"},"vehicle_type_id":"4","last_reported":1727878088,"current_range_meters":19200,"station_id":"ce4bh012rcd13ifvqcv0","pricing_plan_id":"cebpf4jnsgd1na2vs0mg"},{"bike_id":"166ae57c-e486-4033-9425-b6fc9d88cfc8","system_id":"levelo_inurba_marseille","lat":43.29556,"lon":5.42283,"is_reserved":false,"is_disabled":false,"rental_uris":{"android":"levelo://app?vid=166ae57c-e486-4033-9425-b6fc9d88cfc8","ios":"levelo://app?vid=166ae57c-e486-4033-9425-b6fc9d88cfc8"},"vehicle_type_id":"4","last_reported":1727878088,"current_range_meters":29600,"station_id":"ce4bhph2rcd13ifvqhdg","pricing_plan_id":"cebpf4jnsgd1na2vs0mg"},{"bike_id":"a5ad5518-344a-4531-b257-a4001607da13","system_id":"levelo_inurba_marseille","lat":43.29712,"lon":5.36605,"is_reserved":false,"is_disabled":false,"rental_uris":{"android":"levelo://app?vid=a5ad5518-344a-4531-b257-a4001607da13","ios":"levelo://app?vid=a5ad5518-344a-4531-b257-a4001607da13"},"vehicle_type_id":"4","last_reported":1727878088,"current_range_meters":37600,"station_id":"ce4bgn12rcd13ifvqbt0","pricing_plan_id":"cebpf4jnsgd1na2vs0mg"},{"bike_id":"d181cb86-4534-4818-82a3-4eed3ce41e8d","system_id":"levelo_inurba_marseille","lat":43.29004,"lon":5.35604,"is_reserved":false,"is_disabled":false,"rental_uris":{"android":"levelo://app?vid=d181cb86-4534-4818-82a3-4eed3ce41e8d","ios":"levelo://app?vid=d181cb86-4534-4818-82a3-4eed3ce41e8d"},"vehicle_type_id":"4","last_reported":1727878088,"current_range_meters":29600,"station_id":"ce4bhb92rcd13ifvqen0","pricing_plan_id":"cebpf4jnsgd1na2vs0mg"},{"bike_id":"b7ba9427-afca-4765-bd90-067a166c9012","system_id":"levelo_inurba_marseille","lat":43.288269,"lon":5.400182,"is_reserved":false,"is_disabled":false,"rental_uris":{"android":"levelo://app?vid=b7ba9427-afca-4765-bd90-067a166c9012","ios":"levelo://app?vid=b7ba9427-afca-4765-bd90-067a166c9012"},"vehicle_type_id":"4","last_reported":1727878088,"current_range_meters":27200,"station_id":"ce4bho92rcd13ifvqh3g","pricing_plan_id":"cebpf4jnsgd1na2vs0mg"},{"bike_id":"04c16949-8595-4525-b669-063513b63c40","system_id":"levelo_inurba_marseille","lat":43.24806,"lon":5.37453,"is_reserved":false,"is_disabled":false,"rental_uris":{"android":"levelo://app?vid=04c16949-8595-4525-b669-063513b63c40","ios":"levelo://app?vid=04c16949-8595-4525-b669-063513b63c40"},"vehicle_type_id":"4","last_reported":1727878088,"current_range_meters":12800,"station_id":"ce4bhgh2rcd13ifvqfb0","pricing_plan_id":"cebpf4jnsgd1na2vs0mg"},{"bike_id":"2729436a-18c3-42ca-b3ef-918b706f8874","system_id":"levelo_inurba_marseille","lat":43.26689,"lon":5.3827,"is_reserved":false,"is_disabled":false,"rental_uris":{"android":"levelo://app?vid=2729436a-18c3-42ca-b3ef-918b706f8874","ios":"levelo://app?vid=2729436a-18c3-42ca-b3ef-918b706f8874"},"vehicle_type_id":"4","last_reported":1727878088,"current_range_meters":32000,"station_id":"ce4bhg92rcd13ifvqf90","pricing_plan_id":"cebpf4jnsgd1na2vs0mg"},{"bike_id":"c03a7cd2-b0dd-43c7-ac6d-23529bcf0915","system_id":"levelo_inurba_marseille","lat":43.31496,"lon":5.37306,"is_reserved":false,"is_disabled":false,"rental_uris":{"android":"levelo://app?vid=c03a7cd2-b0dd-43c7-ac6d-23529bcf0915","ios":"levelo://app?vid=c03a7cd2-b0dd-43c7-ac6d-23529bcf0915"},"vehicle_type_id":"4","last_reported":1727878088,"current_range_meters":4400,"station_id":"ce4bgt12rcd13ifvqcd0","pricing_plan_id":"cebpf4jnsgd1na2vs0mg"},{"bike_id":"770c33ad-50ce-40cb-8a94-62cdebfaf4b6","system_id":"levelo_inurba_marseille","lat":43.30096,"lon":5.39086,"is_reserved":false,"is_disabled":false,"rental_uris":{"android":"levelo://app?vid=770c33ad-50ce-40cb-8a94-62cdebfaf4b6","ios":"levelo://app?vid=770c33ad-50ce-40cb-8a94-62cdebfaf4b6"},"vehicle_type_id":"4","last_reported":1727878088,"current_range_meters":38400,"station_id":"ce4bh192rcd13ifvqdb0","pricing_plan_id":"cebpf4jnsgd1na2vs0mg"},{"bike_id":"9e0f8531-ac87-4939-876c-6806e8dfeda9","system_id":"levelo_inurba_marseille","lat":43.23151,"lon":5.43709,"is_reserved":false,"is_disabled":false,"rental_uris":{"android":"levelo://app?vid=9e0f8531-ac87-4939-876c-6806e8dfeda9","ios":"levelo://app?vid=9e0f8531-ac87-4939-876c-6806e8dfeda9"},"vehicle_type_id":"4","last_reported":1727878088,"current_range_meters":7200,"station_id":"ce4bhmp2rcd13ifvqgog","pricing_plan_id":"cebpf4jnsgd1na2vs0mg"},{"bike_id":"53c6fe7a-c5f0-4c29-bdb6-08c6c7db5c71","system_id":"levelo_inurba_marseille","lat":43.32082,"lon":5.36758,"is_reserved":false,"is_disabled":false,"rental_uris":{"android":"levelo://app?vid=53c6fe7a-c5f0-4c29-bdb6-08c6c7db5c71","ios":"levelo://app?vid=53c6fe7a-c5f0-4c29-bdb6-08c6c7db5c71"},"vehicle_type_id":"4","last_reported":1727878088,"current_range_meters":16000,"station_id":"ce4bhrh2rcd13ifvqhug","pricing_plan_id":"cebpf4jnsgd1na2vs0mg"},{"bike_id":"6ce60676-3f86-4aaa-a5df-572436c32ad4","system_id":"levelo_inurba_marseille","lat":43.23192,"lon":5.35551,"is_reserved":false,"is_disabled":false,"rental_uris":{"android":"levelo://app?vid=6ce60676-3f86-4aaa-a5df-572436c32ad4","ios":"levelo://app?vid=6ce60676-3f86-4aaa-a5df-572436c32ad4"},"vehicle_type_id":"4","last_reported":1727878088,"current_range_meters":24800,"station_id":"ce4bhu92rcd13ifvqi70","pricing_plan_id":"cebpf4jnsgd1na2vs0mg"},{"bike_id":"4468b5d4-1685-4490-93ec-e9e63be7cd0e","system_id":"levelo_inurba_marseille","lat":43.31075,"lon":5.4009,"is_reserved":false,"is_disabled":false,"rental_uris":{"android":"levelo://app?vid=4468b5d4-1685-4490-93ec-e9e63be7cd0e","ios":"levelo://app?vid=4468b5d4-1685-4490-93ec-e9e63be7cd0e"},"vehicle_type_id":"4","last_reported":1727878088,"current_range_meters":3200,"station_id":"","pricing_plan_id":"cebpf4jnsgd1na2vs0mg"},{"bike_id":"3ea720e0-4b3f-4929-8dc2-e35b5681af5c","system_id":"levelo_inurba_marseille","lat":43.29859,"lon":5.36286,"is_reserved":false,"is_disabled":false,"rental_uris":{"android":"levelo://app?vid=3ea720e0-4b3f-4929-8dc2-e35b5681af5c","ios":"levelo://app?vid=3ea720e0-4b3f-4929-8dc2-e35b5681af5c"},"vehicle_type_id":"4","last_reported":1727878088,"current_range_meters":33600,"station_id":"ce4bgpp2rcd13ifvqc3g","pricing_plan_id":"cebpf4jnsgd1na2vs0mg"},{"bike_id":"24e3fd63-8e93-4cb9-b4fb-7af2924abaca","system_id":"levelo_inurba_marseille","lat":43.31084,"lon":5.4243,"is_reserved":false,"is_disabled":false,"rental_uris":{"android":"levelo://app?vid=24e3fd63-8e93-4cb9-b4fb-7af2924abaca","ios":"levelo://app?vid=24e3fd63-8e93-4cb9-b4fb-7af2924abaca"},"vehicle_type_id":"4","last_reported":1727878088,"current_range_meters":8000,"station_id":"ce4bhp92rcd13ifvqhag","pricing_plan_id":"cebpf4jnsgd1na2vs0mg"},{"bike_id":"6a4180fa-3ba4-4d35-979d-ccdd7eb2bebe","system_id":"levelo_inurba_marseille","lat":43.33024,"lon":5.39039,"is_reserved":false,"is_disabled":false,"rental_uris":{"android":"levelo://app?vid=6a4180fa-3ba4-4d35-979d-ccdd7eb2bebe","ios":"levelo://app?vid=6a4180fa-3ba4-4d35-979d-ccdd7eb2bebe"},"vehicle_type_id":"4","last_reported":1727878088,"current_range_meters":20000,"station_id":"ce4bhr92rcd13ifvqhrg","pricing_plan_id":"cebpf4jnsgd1na2vs0mg"},{"bike_id":"eea6d4e8-2d15-4d83-8510-aa30167018b9","system_id":"levelo_inurba_marseille","lat":43.2904,"lon":5.37553,"is_reserved":false,"is_disabled":false,"rental_uris":{"android":"levelo://app?vid=eea6d4e8-2d15-4d83-8510-aa30167018b9","ios":"levelo://app?vid=eea6d4e8-2d15-4d83-8510-aa30167018b9"},"vehicle_type_id":"4","last_reported":1727878088,"current_range_meters":19200,"station_id":"ce4bh692rcd13ifvqe90","pricing_plan_id":"cebpf4jnsgd1na2vs0mg"},{"bike_id":"7bb41cee-bbf2-4cb9-b053-b4b65ed6d515","system_id":"levelo_inurba_marseille","lat":43.28,"lon":5.40016,"is_reserved":false,"is_disabled":false,"rental_uris":{"android":"levelo://app?vid=7bb41cee-bbf2-4cb9-b053-b4b65ed6d515","ios":"levelo://app?vid=7bb41cee-bbf2-4cb9-b053-b4b65ed6d515"},"vehicle_type_id":"4","last_reported":1727878088,"current_range_meters":12400,"station_id":"ce4bho92rcd13ifvqh4g","pricing_plan_id":"cebpf4jnsgd1na2vs0mg"},{"bike_id":"da0ee57a-53f3-4ce7-8e84-0d6c48503717","system_id":"levelo_inurba_marseille","lat":43.33744,"lon":5.3747,"is_reserved":false,"is_disabled":false,"rental_uris":{"android":"levelo://app?vid=da0ee57a-53f3-4ce7-8e84-0d6c48503717","ios":"levelo://app?vid=da0ee57a-53f3-4ce7-8e84-0d6c48503717"},"vehicle_type_id":"4","last_reported":1727878088,"current_range_meters":29600,"station_id":"","pricing_plan_id":"cebpf4jnsgd1na2vs0mg"},{"bike_id":"f9104789-07dd-4d3c-94f3-a1c602d8a7ca","system_id":"levelo_inurba_marseille","lat":43.24805,"lon":5.37451,"is_reserved":false,"is_disabled":false,"rental_uris":{"android":"levelo://app?vid=f9104789-07dd-4d3c-94f3-a1c602d8a7ca","ios":"levelo://app?vid=f9104789-07dd-4d3c-94f3-a1c602d8a7ca"},"vehicle_type_id":"4","last_reported":1727878088,"current_range_meters":38800,"station_id":"ce4bhgh2rcd13ifvqfb0","pricing_plan_id":"cebpf4jnsgd1na2vs0mg"},{"bike_id":"d882c178-db66-4976-adc4-d612f68051db","system_id":"levelo_inurba_marseille","lat":43.25869,"lon":5.39901,"is_reserved":false,"is_disabled":false,"rental_uris":{"android":"levelo://app?vid=d882c178-db66-4976-adc4-d612f68051db","ios":"levelo://app?vid=d882c178-db66-4976-adc4-d612f68051db"},"vehicle_type_id":"4","last_reported":1727878088,"current_range_meters":38800,"station_id":"ce4bhl92rcd13ifvqghg","pricing_plan_id":"cebpf4jnsgd1na2vs0mg"},{"bike_id":"606a50ef-9629-4b8c-8c90-6e8ce1046867","system_id":"levelo_inurba_marseille","lat":43.25584,"lon":5.38229,"is_reserved":false,"is_disabled":false,"rental_uris":{"android":"levelo://app?vid=606a50ef-9629-4b8c-8c90-6e8ce1046867","ios":"levelo://app?vid=606a50ef-9629-4b8c-8c90-6e8ce1046867"},"vehicle_type_id":"4","last_reported":1727878088,"current_range_meters":36800,"station_id":"ce4bhih2rcd13ifvqfs0","pricing_plan_id":"cebpf4jnsgd1na2vs0mg"},{"bike_id":"fdb0c37c-dc8d-4747-baa9-2f25f6c85992","system_id":"levelo_inurba_marseille","lat":43.29848,"lon":5.36286,"is_reserved":false,"is_disabled":false,"rental_uris":{"android":"levelo://app?vid=fdb0c37c-dc8d-4747-baa9-2f25f6c85992","ios":"levelo://app?vid=fdb0c37c-dc8d-4747-baa9-2f25f6c85992"},"vehicle_type_id":"4","last_reported":1727878088,"current_range_meters":35600,"station_id":"ce4bgpp2rcd13ifvqc3g","pricing_plan_id":"cebpf4jnsgd1na2vs0mg"},{"bike_id":"389dbe3b-4b02-4d49-9def-1a6fa2f84c9b","system_id":"levelo_inurba_marseille","lat":43.30562,"lon":5.36527,"is_reserved":false,"is_disabled":false,"rental_uris":{"android":"levelo://app?vid=389dbe3b-4b02-4d49-9def-1a6fa2f84c9b","ios":"levelo://app?vid=389dbe3b-4b02-4d49-9def-1a6fa2f84c9b"},"vehicle_type_id":"4","last_reported":1727878088,"current_range_meters":30000,"station_id":"ce4bgs12rcd13ifvqcag","pricing_plan_id":"cebpf4jnsgd1na2vs0mg"},{"bike_id":"1d3701a6-6a4f-416c-85dc-d011a8602e4e","system_id":"levelo_inurba_marseille","lat":43.26195,"lon":5.37446,"is_reserved":false,"is_disabled":false,"rental_uris":{"android":"levelo://app?vid=1d3701a6-6a4f-416c-85dc-d011a8602e4e","ios":"levelo://app?vid=1d3701a6-6a4f-416c-85dc-d011a8602e4e"},"vehicle_type_id":"4","last_reported":1727878088,"current_range_meters":7200,"station_id":"ce4bhgp2rcd13ifvqfc0","pricing_plan_id":"cebpf4jnsgd1na2vs0mg"},{"bike_id":"33efb312-7ac0-443f-af7e-d1b49299b3f0","system_id":"levelo_inurba_marseille","lat":43.28,"lon":5.40009,"is_reserved":false,"is_disabled":false,"rental_uris":{"android":"levelo://app?vid=33efb312-7ac0-443f-af7e-d1b49299b3f0","ios":"levelo://app?vid=33efb312-7ac0-443f-af7e-d1b49299b3f0"},"vehicle_type_id":"4","last_reported":1727878088,"current_range_meters":30400,"station_id":"ce4bho92rcd13ifvqh4g","pricing_plan_id":"cebpf4jnsgd1na2vs0mg"},{"bike_id":"e87b5406-bfc3-450b-90be-ea33674025e0","system_id":"levelo_inurba_marseille","lat":43.31364,"lon":5.36711,"is_reserved":false,"is_disabled":false,"rental_uris":{"android":"levelo://app?vid=e87b5406-bfc3-450b-90be-ea33674025e0","ios":"levelo://app?vid=e87b5406-bfc3-450b-90be-ea33674025e0"},"vehicle_type_id":"4","last_reported":1727878088,"current_range_meters":36800,"station_id":"ce4bgr92rcd13ifvqc6g","pricing_plan_id":"cebpf4jnsgd1na2vs0mg"},{"bike_id":"6f1d957b-8297-40fa-a942-e2792002a275","system_id":"levelo_inurba_marseille","lat":43.30799,"lon":5.43518,"is_reserved":false,"is_disabled":false,"rental_uris":{"android":"levelo://app?vid=6f1d957b-8297-40fa-a942-e2792002a275","ios":"levelo://app?vid=6f1d957b-8297-40fa-a942-e2792002a275"},"vehicle_type_id":"4","last_reported":1727878088,"current_range_meters":9200,"station_id":"ce4bhph2rcd13ifvqheg","pricing_plan_id":"cebpf4jnsgd1na2vs0mg"},{"bike_id":"020cc63e-a76e-4683-9146-ae8f92152aa5","system_id":"levelo_inurba_marseille","lat":43.30276,"lon":5.37691,"is_reserved":false,"is_disabled":false,"rental_uris":{"android":"levelo://app?vid=020cc63e-a76e-4683-9146-ae8f92152aa5","ios":"levelo://app?vid=020cc63e-a76e-4683-9146-ae8f92152aa5"},"vehicle_type_id":"4","last_reported":1727878088,"current_range_meters":18000,"station_id":"ce4bguh2rcd13ifvqcj0","pricing_plan_id":"cebpf4jnsgd1na2vs0mg"},{"bike_id":"c8e4ff73-620c-4248-92f7-758d5098242c","system_id":"levelo_inurba_marseille","lat":43.22934,"lon":5.3538,"is_reserved":false,"is_disabled":false,"rental_uris":{"android":"levelo://app?vid=c8e4ff73-620c-4248-92f7-758d5098242c","ios":"levelo://app?vid=c8e4ff73-620c-4248-92f7-758d5098242c"},"vehicle_type_id":"4","last_reported":1727878088,"current_range_meters":32400,"station_id":"cpo3532slgdg3j2ikp40","pricing_plan_id":"cebpf4jnsgd1na2vs0mg"},{"bike_id":"dc802187-7a6d-4f65-9ab4-6c98534761de","system_id":"levelo_inurba_marseille","lat":43.28469,"lon":5.35877,"is_reserved":false,"is_disabled":false,"rental_uris":{"android":"levelo://app?vid=dc802187-7a6d-4f65-9ab4-6c98534761de","ios":"levelo://app?vid=dc802187-7a6d-4f65-9ab4-6c98534761de"},"vehicle_type_id":"4","last_reported":1727878088,"current_range_meters":8800,"station_id":"ce4bhah2rcd13ifvqei0","pricing_plan_id":"cebpf4jnsgd1na2vs0mg"},{"bike_id":"0fc3137f-ea0f-44cc-9da4-8076e542a80e","system_id":"levelo_inurba_marseille","lat":43.25586,"lon":5.38233,"is_reserved":false,"is_disabled":false,"rental_uris":{"android":"levelo://app?vid=0fc3137f-ea0f-44cc-9da4-8076e542a80e","ios":"levelo://app?vid=0fc3137f-ea0f-44cc-9da4-8076e542a80e"},"vehicle_type_id":"4","last_reported":1727878088,"current_range_meters":30400,"station_id":"ce4bhih2rcd13ifvqfs0","pricing_plan_id":"cebpf4jnsgd1na2vs0mg"},{"bike_id":"75ac88d0-5189-42ca-99c3-b6285c6d64e0","system_id":"levelo_inurba_marseille","lat":43.29073,"lon":5.37172,"is_reserved":false,"is_disabled":false,"rental_uris":{"android":"levelo://app?vid=75ac88d0-5189-42ca-99c3-b6285c6d64e0","ios":"levelo://app?vid=75ac88d0-5189-42ca-99c3-b6285c6d64e0"},"vehicle_type_id":"4","last_reported":1727878088,"current_range_meters":35200,"station_id":"ce4bh5p2rcd13ifvqe4g","pricing_plan_id":"cebpf4jnsgd1na2vs0mg"},{"bike_id":"8d160645-37a6-41b0-91eb-5e9885ebf3c3","system_id":"levelo_inurba_marseille","lat":43.29621,"lon":5.37165,"is_reserved":false,"is_disabled":false,"rental_uris":{"android":"levelo://app?vid=8d160645-37a6-41b0-91eb-5e9885ebf3c3","ios":"levelo://app?vid=8d160645-37a6-41b0-91eb-5e9885ebf3c3"},"vehicle_type_id":"4","last_reported":1727878088,"current_range_meters":23200,"station_id":"ce4bgnh2rcd13ifvqc0g","pricing_plan_id":"cebpf4jnsgd1na2vs0mg"},{"bike_id":"598f0eb6-a06e-49cd-9094-a5247cfde625","system_id":"levelo_inurba_marseille","lat":43.29588,"lon":5.400122,"is_reserved":false,"is_disabled":false,"rental_uris":{"android":"levelo://app?vid=598f0eb6-a06e-49cd-9094-a5247cfde625","ios":"levelo://app?vid=598f0eb6-a06e-49cd-9094-a5247cfde625"},"vehicle_type_id":"4","last_reported":1727878088,"current_range_meters":38000,"station_id":"ce4bh312rcd13ifvqdj0","pricing_plan_id":"cebpf4jnsgd1na2vs0mg"},{"bike_id":"a6dee003-1feb-474f-90ab-955ae11dce3f","system_id":"levelo_inurba_marseille","lat":43.29781,"lon":5.37118,"is_reserved":false,"is_disabled":false,"rental_uris":{"android":"levelo://app?vid=a6dee003-1feb-474f-90ab-955ae11dce3f","ios":"levelo://app?vid=a6dee003-1feb-474f-90ab-955ae11dce3f"},"vehicle_type_id":"4","last_reported":1727878088,"current_range_meters":17200,"station_id":"ce4bgop2rcd13ifvqc1g","pricing_plan_id":"cebpf4jnsgd1na2vs0mg"},{"bike_id":"84563bb2-d51c-4ee3-b372-8c623b348c3c","system_id":"levelo_inurba_marseille","lat":43.25715,"lon":5.41104,"is_reserved":false,"is_disabled":false,"rental_uris":{"android":"levelo://app?vid=84563bb2-d51c-4ee3-b372-8c623b348c3c","ios":"levelo://app?vid=84563bb2-d51c-4ee3-b372-8c623b348c3c"},"vehicle_type_id":"4","last_reported":1727878088,"current_range_meters":37600,"station_id":"ce4bhkp2rcd13ifvqgd0","pricing_plan_id":"cebpf4jnsgd1na2vs0mg"},{"bike_id":"ba413f1b-5d98-4be2-9974-11e83f898225","system_id":"levelo_inurba_marseille","lat":43.30597,"lon":5.37219,"is_reserved":false,"is_disabled":false,"rental_uris":{"android":"levelo://app?vid=ba413f1b-5d98-4be2-9974-11e83f898225","ios":"levelo://app?vid=ba413f1b-5d98-4be2-9974-11e83f898225"},"vehicle_type_id":"4","last_reported":1727878088,"current_range_meters":31200,"station_id":"ce4bgqh2rcd13ifvqc4g","pricing_plan_id":"cebpf4jnsgd1na2vs0mg"},{"bike_id":"c6aefcac-9b59-4be9-ba9c-464572888e5a","system_id":"levelo_inurba_marseille","lat":43.30544,"lon":5.36703,"is_reserved":false,"is_disabled":false,"rental_uris":{"android":"levelo://app?vid=c6aefcac-9b59-4be9-ba9c-464572888e5a","ios":"levelo://app?vid=c6aefcac-9b59-4be9-ba9c-464572888e5a"},"vehicle_type_id":"4","last_reported":1727878088,"current_range_meters":39200,"station_id":"ce4bgrp2rcd13ifvqc9g","pricing_plan_id":"cebpf4jnsgd1na2vs0mg"},{"bike_id":"e327d4c5-e7de-478d-89b6-da24369c6f53","system_id":"levelo_inurba_marseille","lat":43.29851,"lon":5.36274,"is_reserved":false,"is_disabled":false,"rental_uris":{"android":"levelo://app?vid=e327d4c5-e7de-478d-89b6-da24369c6f53","ios":"levelo://app?vid=e327d4c5-e7de-478d-89b6-da24369c6f53"},"vehicle_type_id":"4","last_reported":1727878088,"current_range_meters":38000,"station_id":"ce4bgpp2rcd13ifvqc3g","pricing_plan_id":"cebpf4jnsgd1na2vs0mg"},{"bike_id":"46928ea4-813f-4cac-a9b4-21b92fcc659f","system_id":"levelo_inurba_marseille","lat":43.23066,"lon":5.35493,"is_reserved":false,"is_disabled":false,"rental_uris":{"android":"levelo://app?vid=46928ea4-813f-4cac-a9b4-21b92fcc659f","ios":"levelo://app?vid=46928ea4-813f-4cac-a9b4-21b92fcc659f"},"vehicle_type_id":"4","last_reported":1727878088,"current_range_meters":36400,"station_id":"cpo3342slgdg3j2ifvpg","pricing_plan_id":"cebpf4jnsgd1na2vs0mg"},{"bike_id":"86686436-da3d-45a4-8da2-59abc51e529f","system_id":"levelo_inurba_marseille","lat":43.29614,"lon":5.37724,"is_reserved":false,"is_disabled":false,"rental_uris":{"android":"levelo://app?vid=86686436-da3d-45a4-8da2-59abc51e529f","ios":"levelo://app?vid=86686436-da3d-45a4-8da2-59abc51e529f"},"vehicle_type_id":"4","last_reported":1727878088,"current_range_meters":6400,"station_id":"ce4bgi92rcd13ifvqb90","pricing_plan_id":"cebpf4jnsgd1na2vs0mg"},{"bike_id":"c7b9d95c-e0a1-459d-b666-50e7dd71d420","system_id":"levelo_inurba_marseille","lat":43.25728,"lon":5.41105,"is_reserved":false,"is_disabled":false,"rental_uris":{"android":"levelo://app?vid=c7b9d95c-e0a1-459d-b666-50e7dd71d420","ios":"levelo://app?vid=c7b9d95c-e0a1-459d-b666-50e7dd71d420"},"vehicle_type_id":"4","last_reported":1727878088,"current_range_meters":6000,"station_id":"ce4bhkp2rcd13ifvqgd0","pricing_plan_id":"cebpf4jnsgd1na2vs0mg"},{"bike_id":"fe62b683-35e2-419f-90c4-1479ccd83c24","system_id":"levelo_inurba_marseille","lat":43.25864,"lon":5.39905,"is_reserved":false,"is_disabled":false,"rental_uris":{"android":"levelo://app?vid=fe62b683-35e2-419f-90c4-1479ccd83c24","ios":"levelo://app?vid=fe62b683-35e2-419f-90c4-1479ccd83c24"},"vehicle_type_id":"4","last_reported":1727878088,"current_range_meters":3600,"station_id":"ce4bhl92rcd13ifvqghg","pricing_plan_id":"cebpf4jnsgd1na2vs0mg"},{"bike_id":"2ce7a7bd-fa8f-4be8-bf66-3a6cd0df14c3","system_id":"levelo_inurba_marseille","lat":43.25584,"lon":5.38227,"is_reserved":false,"is_disabled":false,"rental_uris":{"android":"levelo://app?vid=2ce7a7bd-fa8f-4be8-bf66-3a6cd0df14c3","ios":"levelo://app?vid=2ce7a7bd-fa8f-4be8-bf66-3a6cd0df14c3"},"vehicle_type_id":"4","last_reported":1727878088,"current_range_meters":17600,"station_id":"ce4bhih2rcd13ifvqfs0","pricing_plan_id":"cebpf4jnsgd1na2vs0mg"},{"bike_id":"fb01ccf4-8bb6-44f9-ae31-9c77d5aaff84","system_id":"levelo_inurba_marseille","lat":43.28076,"lon":5.39638,"is_reserved":false,"is_disabled":false,"rental_uris":{"android":"levelo://app?vid=fb01ccf4-8bb6-44f9-ae31-9c77d5aaff84","ios":"levelo://app?vid=fb01ccf4-8bb6-44f9-ae31-9c77d5aaff84"},"vehicle_type_id":"4","last_reported":1727878088,"current_range_meters":5600,"station_id":"ce4bho12rcd13ifvqh2g","pricing_plan_id":"cebpf4jnsgd1na2vs0mg"},{"bike_id":"cac1ccf9-a99f-4502-adb0-e77ea291a664","system_id":"levelo_inurba_marseille","lat":43.2846,"lon":5.35888,"is_reserved":false,"is_disabled":false,"rental_uris":{"android":"levelo://app?vid=cac1ccf9-a99f-4502-adb0-e77ea291a664","ios":"levelo://app?vid=cac1ccf9-a99f-4502-adb0-e77ea291a664"},"vehicle_type_id":"4","last_reported":1727878088,"current_range_meters":16400,"station_id":"ce4bhah2rcd13ifvqei0","pricing_plan_id":"cebpf4jnsgd1na2vs0mg"},{"bike_id":"04d6b2f4-c422-474f-8b08-b0bbfbba1a35","system_id":"levelo_inurba_marseille","lat":43.29557,"lon":5.42288,"is_reserved":false,"is_disabled":false,"rental_uris":{"android":"levelo://app?vid=04d6b2f4-c422-474f-8b08-b0bbfbba1a35","ios":"levelo://app?vid=04d6b2f4-c422-474f-8b08-b0bbfbba1a35"},"vehicle_type_id":"4","last_reported":1727878088,"current_range_meters":9200,"station_id":"ce4bhph2rcd13ifvqhdg","pricing_plan_id":"cebpf4jnsgd1na2vs0mg"},{"bike_id":"99cc5491-5585-484e-8413-03c27bc5eb7c","system_id":"levelo_inurba_marseille","lat":43.31484,"lon":5.37305,"is_reserved":false,"is_disabled":false,"rental_uris":{"android":"levelo://app?vid=99cc5491-5585-484e-8413-03c27bc5eb7c","ios":"levelo://app?vid=99cc5491-5585-484e-8413-03c27bc5eb7c"},"vehicle_type_id":"4","last_reported":1727878088,"current_range_meters":6800,"station_id":"ce4bgt12rcd13ifvqcd0","pricing_plan_id":"cebpf4jnsgd1na2vs0mg"},{"bike_id":"86a9d355-6ad5-411b-b440-34e606e36e59","system_id":"levelo_inurba_marseille","lat":43.31078,"lon":5.38355,"is_reserved":false,"is_disabled":false,"rental_uris":{"android":"levelo://app?vid=86a9d355-6ad5-411b-b440-34e606e36e59","ios":"levelo://app?vid=86a9d355-6ad5-411b-b440-34e606e36e59"},"vehicle_type_id":"4","last_reported":1727878088,"current_range_meters":13600,"station_id":"ce4bgv92rcd13ifvqcr0","pricing_plan_id":"cebpf4jnsgd1na2vs0mg"},{"bike_id":"5232706d-f6ed-49c5-82b0-3d08f9db9c69","system_id":"levelo_inurba_marseille","lat":43.29837,"lon":5.36263,"is_reserved":false,"is_disabled":false,"rental_uris":{"android":"levelo://app?vid=5232706d-f6ed-49c5-82b0-3d08f9db9c69","ios":"levelo://app?vid=5232706d-f6ed-49c5-82b0-3d08f9db9c69"},"vehicle_type_id":"4","last_reported":1727878088,"current_range_meters":38800,"station_id":"ce4bgpp2rcd13ifvqc3g","pricing_plan_id":"cebpf4jnsgd1na2vs0mg"},{"bike_id":"23fcd5dc-52e3-40b6-b601-8da82c35b64a","system_id":"levelo_inurba_marseille","lat":43.23199,"lon":5.35548,"is_reserved":false,"is_disabled":false,"rental_uris":{"android":"levelo://app?vid=23fcd5dc-52e3-40b6-b601-8da82c35b64a","ios":"levelo://app?vid=23fcd5dc-52e3-40b6-b601-8da82c35b64a"},"vehicle_type_id":"4","last_reported":1727878088,"current_range_meters":6800,"station_id":"ce4bhu92rcd13ifvqi70","pricing_plan_id":"cebpf4jnsgd1na2vs0mg"},{"bike_id":"8eebbf9b-09d5-41f7-9fcb-1a511b9e8ee3","system_id":"levelo_inurba_marseille","lat":43.23149,"lon":5.43714,"is_reserved":false,"is_disabled":false,"rental_uris":{"android":"levelo://app?vid=8eebbf9b-09d5-41f7-9fcb-1a511b9e8ee3","ios":"levelo://app?vid=8eebbf9b-09d5-41f7-9fcb-1a511b9e8ee3"},"vehicle_type_id":"4","last_reported":1727878088,"current_range_meters":38800,"station_id":"ce4bhmp2rcd13ifvqgog","pricing_plan_id":"cebpf4jnsgd1na2vs0mg"},{"bike_id":"f7f67c1c-5221-4481-89e3-f5efd66533a8","system_id":"levelo_inurba_marseille","lat":43.33025,"lon":5.39037,"is_reserved":false,"is_disabled":false,"rental_uris":{"android":"levelo://app?vid=f7f67c1c-5221-4481-89e3-f5efd66533a8","ios":"levelo://app?vid=f7f67c1c-5221-4481-89e3-f5efd66533a8"},"vehicle_type_id":"4","last_reported":1727878088,"current_range_meters":10800,"station_id":"ce4bhr92rcd13ifvqhrg","pricing_plan_id":"cebpf4jnsgd1na2vs0mg"},{"bike_id":"50595bee-1ffb-4755-b1e4-cfdf7155cd8f","system_id":"levelo_inurba_marseille","lat":43.23189,"lon":5.39977,"is_reserved":false,"is_disabled":false,"rental_uris":{"android":"levelo://app?vid=50595bee-1ffb-4755-b1e4-cfdf7155cd8f","ios":"levelo://app?vid=50595bee-1ffb-4755-b1e4-cfdf7155cd8f"},"vehicle_type_id":"4","last_reported":1727878088,"current_range_meters":8800,"station_id":"ce4bhn12rcd13ifvqgqg","pricing_plan_id":"cebpf4jnsgd1na2vs0mg"},{"bike_id":"d9513a24-3235-43a7-b9a5-1c5cfe37603f","system_id":"levelo_inurba_marseille","lat":43.2306,"lon":5.35489,"is_reserved":false,"is_disabled":false,"rental_uris":{"android":"levelo://app?vid=d9513a24-3235-43a7-b9a5-1c5cfe37603f","ios":"levelo://app?vid=d9513a24-3235-43a7-b9a5-1c5cfe37603f"},"vehicle_type_id":"4","last_reported":1727878088,"current_range_meters":35200,"station_id":"cpo3342slgdg3j2ifvpg","pricing_plan_id":"cebpf4jnsgd1na2vs0mg"},{"bike_id":"772088a0-7828-4f69-ba5d-0f6cdb83dec2","system_id":"levelo_inurba_marseille","lat":43.337444,"lon":5.374475,"is_reserved":false,"is_disabled":false,"rental_uris":{"android":"levelo://app?vid=772088a0-7828-4f69-ba5d-0f6cdb83dec2","ios":"levelo://app?vid=772088a0-7828-4f69-ba5d-0f6cdb83dec2"},"vehicle_type_id":"4","last_reported":1727878088,"current_range_meters":6000,"station_id":"","pricing_plan_id":"cebpf4jnsgd1na2vs0mg"},{"bike_id":"b989cae8-1886-46fd-9e84-5eecca5be798","system_id":"levelo_inurba_marseille","lat":43.31324,"lon":5.39694,"is_reserved":false,"is_disabled":false,"rental_uris":{"android":"levelo://app?vid=b989cae8-1886-46fd-9e84-5eecca5be798","ios":"levelo://app?vid=b989cae8-1886-46fd-9e84-5eecca5be798"},"vehicle_type_id":"4","last_reported":1727878088,"current_range_meters":2000,"station_id":"ce4bgvp2rcd13ifvqcu0","pricing_plan_id":"cebpf4jnsgd1na2vs0mg"},{"bike_id":"ad2a96ee-92fc-4960-b614-5decfd6f98f1","system_id":"levelo_inurba_marseille","lat":43.288537,"lon":5.39314,"is_reserved":false,"is_disabled":false,"rental_uris":{"android":"levelo://app?vid=ad2a96ee-92fc-4960-b614-5decfd6f98f1","ios":"levelo://app?vid=ad2a96ee-92fc-4960-b614-5decfd6f98f1"},"vehicle_type_id":"4","last_reported":1727878088,"current_range_meters":4800,"station_id":"ce4bh2p2rcd13ifvqdi0","pricing_plan_id":"cebpf4jnsgd1na2vs0mg"},{"bike_id":"89f79560-9417-4d80-afea-9f3796d9baaf","system_id":"levelo_inurba_marseille","lat":43.337444,"lon":5.374475,"is_reserved":false,"is_disabled":false,"rental_uris":{"android":"levelo://app?vid=89f79560-9417-4d80-afea-9f3796d9baaf","ios":"levelo://app?vid=89f79560-9417-4d80-afea-9f3796d9baaf"},"vehicle_type_id":"4","last_reported":1727878088,"current_range_meters":14400,"station_id":"","pricing_plan_id":"cebpf4jnsgd1na2vs0mg"},{"bike_id":"cfbd390b-df2e-43bb-a283-d6f65c082b68","system_id":"levelo_inurba_marseille","lat":43.28075,"lon":5.3966,"is_reserved":false,"is_disabled":false,"rental_uris":{"android":"levelo://app?vid=cfbd390b-df2e-43bb-a283-d6f65c082b68","ios":"levelo://app?vid=cfbd390b-df2e-43bb-a283-d6f65c082b68"},"vehicle_type_id":"4","last_reported":1727878088,"current_range_meters":32400,"station_id":"ce4bho12rcd13ifvqh2g","pricing_plan_id":"cebpf4jnsgd1na2vs0mg"},{"bike_id":"0d083c33-7b8d-4f7a-92d8-cb94855d91d0","system_id":"levelo_inurba_marseille","lat":43.243961,"lon":5.370671,"is_reserved":false,"is_disabled":false,"rental_uris":{"android":"levelo://app?vid=0d083c33-7b8d-4f7a-92d8-cb94855d91d0","ios":"levelo://app?vid=0d083c33-7b8d-4f7a-92d8-cb94855d91d0"},"vehicle_type_id":"4","last_reported":1727878088,"current_range_meters":22800,"station_id":"ce4bhhh2rcd13ifvqfk0","pricing_plan_id":"cebpf4jnsgd1na2vs0mg"},{"bike_id":"941f18f5-b450-4afe-a1d1-14b0d8d0142e","system_id":"levelo_inurba_marseille","lat":43.3149,"lon":5.37293,"is_reserved":false,"is_disabled":false,"rental_uris":{"android":"levelo://app?vid=941f18f5-b450-4afe-a1d1-14b0d8d0142e","ios":"levelo://app?vid=941f18f5-b450-4afe-a1d1-14b0d8d0142e"},"vehicle_type_id":"4","last_reported":1727878088,"current_range_meters":22800,"station_id":"ce4bgt12rcd13ifvqcd0","pricing_plan_id":"cebpf4jnsgd1na2vs0mg"},{"bike_id":"b3e24112-d030-40a0-a3ce-a041f042f7fe","system_id":"levelo_inurba_marseille","lat":43.23067,"lon":5.3549,"is_reserved":false,"is_disabled":false,"rental_uris":{"android":"levelo://app?vid=b3e24112-d030-40a0-a3ce-a041f042f7fe","ios":"levelo://app?vid=b3e24112-d030-40a0-a3ce-a041f042f7fe"},"vehicle_type_id":"4","last_reported":1727878088,"current_range_meters":38400,"station_id":"cpo3342slgdg3j2ifvpg","pricing_plan_id":"cebpf4jnsgd1na2vs0mg"},{"bike_id":"ee6b95e9-4758-4cd6-bf63-6e38a83d2c29","system_id":"levelo_inurba_marseille","lat":43.25873,"lon":5.399,"is_reserved":false,"is_disabled":false,"rental_uris":{"android":"levelo://app?vid=ee6b95e9-4758-4cd6-bf63-6e38a83d2c29","ios":"levelo://app?vid=ee6b95e9-4758-4cd6-bf63-6e38a83d2c29"},"vehicle_type_id":"4","last_reported":1727878088,"current_range_meters":9600,"station_id":"ce4bhl92rcd13ifvqghg","pricing_plan_id":"cebpf4jnsgd1na2vs0mg"},{"bike_id":"83417309-1905-40ac-b36b-c75733043c3a","system_id":"levelo_inurba_marseille","lat":43.24182,"lon":5.397248,"is_reserved":false,"is_disabled":false,"rental_uris":{"android":"levelo://app?vid=83417309-1905-40ac-b36b-c75733043c3a","ios":"levelo://app?vid=83417309-1905-40ac-b36b-c75733043c3a"},"vehicle_type_id":"4","last_reported":1727878088,"current_range_meters":18800,"station_id":"ce4bhn12rcd13ifvqgpg","pricing_plan_id":"cebpf4jnsgd1na2vs0mg"},{"bike_id":"2c64ac25-709c-4b27-a076-bb391103530c","system_id":"levelo_inurba_marseille","lat":43.32547,"lon":5.41443,"is_reserved":false,"is_disabled":false,"rental_uris":{"android":"levelo://app?vid=2c64ac25-709c-4b27-a076-bb391103530c","ios":"levelo://app?vid=2c64ac25-709c-4b27-a076-bb391103530c"},"vehicle_type_id":"4","last_reported":1727878088,"current_range_meters":38800,"station_id":"ce4bhq12rcd13ifvqhhg","pricing_plan_id":"cebpf4jnsgd1na2vs0mg"},{"bike_id":"a69e7372-0e73-4b9b-9ce3-2edaf8d32c61","system_id":"levelo_inurba_marseille","lat":43.24655,"lon":5.3889,"is_reserved":false,"is_disabled":false,"rental_uris":{"android":"levelo://app?vid=a69e7372-0e73-4b9b-9ce3-2edaf8d32c61","ios":"levelo://app?vid=a69e7372-0e73-4b9b-9ce3-2edaf8d32c61"},"vehicle_type_id":"4","last_reported":1727878088,"current_range_meters":12400,"station_id":"ce4bhg12rcd13ifvqf60","pricing_plan_id":"cebpf4jnsgd1na2vs0mg"},{"bike_id":"dff7259e-316b-49b1-8fd9-75be46bd860d","system_id":"levelo_inurba_marseille","lat":43.24647,"lon":5.39401,"is_reserved":false,"is_disabled":false,"rental_uris":{"android":"levelo://app?vid=dff7259e-316b-49b1-8fd9-75be46bd860d","ios":"levelo://app?vid=dff7259e-316b-49b1-8fd9-75be46bd860d"},"vehicle_type_id":"4","last_reported":1727878088,"current_range_meters":6000,"station_id":"ce4bhlp2rcd13ifvqgjg","pricing_plan_id":"cebpf4jnsgd1na2vs0mg"},{"bike_id":"a331b5a1-9fe3-4fe0-a44e-cf5f1c2ac1a5","system_id":"levelo_inurba_marseille","lat":43.29634,"lon":5.40594,"is_reserved":false,"is_disabled":false,"rental_uris":{"android":"levelo://app?vid=a331b5a1-9fe3-4fe0-a44e-cf5f1c2ac1a5","ios":"levelo://app?vid=a331b5a1-9fe3-4fe0-a44e-cf5f1c2ac1a5"},"vehicle_type_id":"4","last_reported":1727878088,"current_range_meters":7200,"station_id":"ce4bh0h2rcd13ifvqd60","pricing_plan_id":"cebpf4jnsgd1na2vs0mg"},{"bike_id":"c25de785-c711-47fd-b2ae-8a15f6d2fc82","system_id":"levelo_inurba_marseille","lat":43.25585,"lon":5.38235,"is_reserved":false,"is_disabled":false,"rental_uris":{"android":"levelo://app?vid=c25de785-c711-47fd-b2ae-8a15f6d2fc82","ios":"levelo://app?vid=c25de785-c711-47fd-b2ae-8a15f6d2fc82"},"vehicle_type_id":"4","last_reported":1727878088,"current_range_meters":20400,"station_id":"ce4bhih2rcd13ifvqfs0","pricing_plan_id":"cebpf4jnsgd1na2vs0mg"},{"bike_id":"eb984b50-5593-496a-8c71-b7c3dc650819","system_id":"levelo_inurba_marseille","lat":43.30355,"lon":5.41878,"is_reserved":false,"is_disabled":false,"rental_uris":{"android":"levelo://app?vid=eb984b50-5593-496a-8c71-b7c3dc650819","ios":"levelo://app?vid=eb984b50-5593-496a-8c71-b7c3dc650819"},"vehicle_type_id":"4","last_reported":1727878088,"current_range_meters":33600,"station_id":"ce4bhop2rcd13ifvqh7g","pricing_plan_id":"cebpf4jnsgd1na2vs0mg"},{"bike_id":"273457b4-ad44-406f-a105-dd642f471402","system_id":"levelo_inurba_marseille","lat":43.29606,"lon":5.3772,"is_reserved":false,"is_disabled":false,"rental_uris":{"android":"levelo://app?vid=273457b4-ad44-406f-a105-dd642f471402","ios":"levelo://app?vid=273457b4-ad44-406f-a105-dd642f471402"},"vehicle_type_id":"4","last_reported":1727878088,"current_range_meters":39200,"station_id":"ce4bgi92rcd13ifvqb90","pricing_plan_id":"cebpf4jnsgd1na2vs0mg"},{"bike_id":"0927edc0-a2c0-428a-a1e9-31ec3c4f6f54","system_id":"levelo_inurba_marseille","lat":43.3056,"lon":5.39208,"is_reserved":false,"is_disabled":false,"rental_uris":{"android":"levelo://app?vid=0927edc0-a2c0-428a-a1e9-31ec3c4f6f54","ios":"levelo://app?vid=0927edc0-a2c0-428a-a1e9-31ec3c4f6f54"},"vehicle_type_id":"4","last_reported":1727878088,"current_range_meters":14400,"station_id":"","pricing_plan_id":"cebpf4jnsgd1na2vs0mg"},{"bike_id":"f65de65f-2473-4769-a5ec-dfa3d011c71e","system_id":"levelo_inurba_marseille","lat":43.290073,"lon":5.356153,"is_reserved":false,"is_disabled":false,"rental_uris":{"android":"levelo://app?vid=f65de65f-2473-4769-a5ec-dfa3d011c71e","ios":"levelo://app?vid=f65de65f-2473-4769-a5ec-dfa3d011c71e"},"vehicle_type_id":"4","last_reported":1727878088,"current_range_meters":38000,"station_id":"ce4bhb92rcd13ifvqen0","pricing_plan_id":"cebpf4jnsgd1na2vs0mg"},{"bike_id":"16d0b1bd-77be-44f3-8829-9c3f4674a608","system_id":"levelo_inurba_marseille","lat":43.3123,"lon":5.36853,"is_reserved":false,"is_disabled":false,"rental_uris":{"android":"levelo://app?vid=16d0b1bd-77be-44f3-8829-9c3f4674a608","ios":"levelo://app?vid=16d0b1bd-77be-44f3-8829-9c3f4674a608"},"vehicle_type_id":"4","last_reported":1727878088,"current_range_meters":38800,"station_id":"ce4bgl92rcd13ifvqbq0","pricing_plan_id":"cebpf4jnsgd1na2vs0mg"},{"bike_id":"d8525b26-8e00-4a59-8cc7-4eed02c1a51f","system_id":"levelo_inurba_marseille","lat":43.27314,"lon":5.39079,"is_reserved":false,"is_disabled":false,"rental_uris":{"android":"levelo://app?vid=d8525b26-8e00-4a59-8cc7-4eed02c1a51f","ios":"levelo://app?vid=d8525b26-8e00-4a59-8cc7-4eed02c1a51f"},"vehicle_type_id":"4","last_reported":1727878088,"current_range_meters":9600,"station_id":"ce4bhgp2rcd13ifvqfe0","pricing_plan_id":"cebpf4jnsgd1na2vs0mg"},{"bike_id":"b9405a4b-c4bf-4186-b0a3-668accb2060c","system_id":"levelo_inurba_marseille","lat":43.33764,"lon":5.37437,"is_reserved":false,"is_disabled":false,"rental_uris":{"android":"levelo://app?vid=b9405a4b-c4bf-4186-b0a3-668accb2060c","ios":"levelo://app?vid=b9405a4b-c4bf-4186-b0a3-668accb2060c"},"vehicle_type_id":"4","last_reported":1727878088,"current_range_meters":38800,"station_id":"","pricing_plan_id":"cebpf4jnsgd1na2vs0mg"},{"bike_id":"cadc4ffa-238b-4d4d-ab23-0e0ae2d87b39","system_id":"levelo_inurba_marseille","lat":43.330232,"lon":5.390479,"is_reserved":false,"is_disabled":false,"rental_uris":{"android":"levelo://app?vid=cadc4ffa-238b-4d4d-ab23-0e0ae2d87b39","ios":"levelo://app?vid=cadc4ffa-238b-4d4d-ab23-0e0ae2d87b39"},"vehicle_type_id":"4","last_reported":1727878088,"current_range_meters":6800,"station_id":"","pricing_plan_id":"cebpf4jnsgd1na2vs0mg"},{"bike_id":"d2436f35-ebfe-410a-a911-1befc14907fb","system_id":"levelo_inurba_marseille","lat":43.28987,"lon":5.37825,"is_reserved":false,"is_disabled":false,"rental_uris":{"android":"levelo://app?vid=d2436f35-ebfe-410a-a911-1befc14907fb","ios":"levelo://app?vid=d2436f35-ebfe-410a-a911-1befc14907fb"},"vehicle_type_id":"4","last_reported":1727878088,"current_range_meters":38800,"station_id":"ce4bh9p2rcd13ifvqed0","pricing_plan_id":"cebpf4jnsgd1na2vs0mg"},{"bike_id":"05468d1d-6604-45dd-8027-4dc254ef32b6","system_id":"levelo_inurba_marseille","lat":43.3064,"lon":5.40094,"is_reserved":false,"is_disabled":false,"rental_uris":{"android":"levelo://app?vid=05468d1d-6604-45dd-8027-4dc254ef32b6","ios":"levelo://app?vid=05468d1d-6604-45dd-8027-4dc254ef32b6"},"vehicle_type_id":"4","last_reported":1727878088,"current_range_meters":20400,"station_id":"ce4bh112rcd13ifvqda0","pricing_plan_id":"cebpf4jnsgd1na2vs0mg"},{"bike_id":"62ff0252-2c5b-4937-84cd-08f2f622c768","system_id":"levelo_inurba_marseille","lat":43.296,"lon":5.38076,"is_reserved":false,"is_disabled":false,"rental_uris":{"android":"levelo://app?vid=62ff0252-2c5b-4937-84cd-08f2f622c768","ios":"levelo://app?vid=62ff0252-2c5b-4937-84cd-08f2f622c768"},"vehicle_type_id":"4","last_reported":1727878088,"current_range_meters":31200,"station_id":"ce4bgl12rcd13ifvqbo0","pricing_plan_id":"cebpf4jnsgd1na2vs0mg"},{"bike_id":"826b8b79-9913-4f94-836f-9df098fd385f","system_id":"levelo_inurba_marseille","lat":43.29628,"lon":5.3716,"is_reserved":false,"is_disabled":false,"rental_uris":{"android":"levelo://app?vid=826b8b79-9913-4f94-836f-9df098fd385f","ios":"levelo://app?vid=826b8b79-9913-4f94-836f-9df098fd385f"},"vehicle_type_id":"4","last_reported":1727878088,"current_range_meters":39200,"station_id":"ce4bgnh2rcd13ifvqc0g","pricing_plan_id":"cebpf4jnsgd1na2vs0mg"},{"bike_id":"7c7831b8-5083-4675-8d1a-f60c9fd82b32","system_id":"levelo_inurba_marseille","lat":43.25739,"lon":5.41109,"is_reserved":false,"is_disabled":false,"rental_uris":{"android":"levelo://app?vid=7c7831b8-5083-4675-8d1a-f60c9fd82b32","ios":"levelo://app?vid=7c7831b8-5083-4675-8d1a-f60c9fd82b32"},"vehicle_type_id":"4","last_reported":1727878088,"current_range_meters":34000,"station_id":"ce4bhkp2rcd13ifvqgd0","pricing_plan_id":"cebpf4jnsgd1na2vs0mg"},{"bike_id":"f0bd04fc-30e5-4237-b4ae-6f2590b22dde","system_id":"levelo_inurba_marseille","lat":43.33604,"lon":5.41026,"is_reserved":false,"is_disabled":false,"rental_uris":{"android":"levelo://app?vid=f0bd04fc-30e5-4237-b4ae-6f2590b22dde","ios":"levelo://app?vid=f0bd04fc-30e5-4237-b4ae-6f2590b22dde"},"vehicle_type_id":"4","last_reported":1727878088,"current_range_meters":38800,"station_id":"ce4bhqh2rcd13ifvqhmg","pricing_plan_id":"cebpf4jnsgd1na2vs0mg"},{"bike_id":"5084d4e8-22d7-4248-aec8-4997331ff1e0","system_id":"levelo_inurba_marseille","lat":43.22924,"lon":5.35375,"is_reserved":false,"is_disabled":false,"rental_uris":{"android":"levelo://app?vid=5084d4e8-22d7-4248-aec8-4997331ff1e0","ios":"levelo://app?vid=5084d4e8-22d7-4248-aec8-4997331ff1e0"},"vehicle_type_id":"4","last_reported":1727878088,"current_range_meters":38400,"station_id":"cpo3532slgdg3j2ikp40","pricing_plan_id":"cebpf4jnsgd1na2vs0mg"},{"bike_id":"839c9596-f91c-43e7-b990-8d1e0e90ea7a","system_id":"levelo_inurba_marseille","lat":43.28422,"lon":5.34974,"is_reserved":false,"is_disabled":false,"rental_uris":{"android":"levelo://app?vid=839c9596-f91c-43e7-b990-8d1e0e90ea7a","ios":"levelo://app?vid=839c9596-f91c-43e7-b990-8d1e0e90ea7a"},"vehicle_type_id":"4","last_reported":1727878088,"current_range_meters":6800,"station_id":"ce4bhbh2rcd13ifvqepg","pricing_plan_id":"cebpf4jnsgd1na2vs0mg"},{"bike_id":"6153543f-5e3f-48f0-9614-a51a9c3ce506","system_id":"levelo_inurba_marseille","lat":43.33022,"lon":5.39036,"is_reserved":false,"is_disabled":false,"rental_uris":{"android":"levelo://app?vid=6153543f-5e3f-48f0-9614-a51a9c3ce506","ios":"levelo://app?vid=6153543f-5e3f-48f0-9614-a51a9c3ce506"},"vehicle_type_id":"4","last_reported":1727878088,"current_range_meters":30400,"station_id":"ce4bhr92rcd13ifvqhrg","pricing_plan_id":"cebpf4jnsgd1na2vs0mg"},{"bike_id":"2374c379-08d8-4f68-9a86-62245fa37a46","system_id":"levelo_inurba_marseille","lat":43.297821,"lon":5.371099,"is_reserved":false,"is_disabled":false,"rental_uris":{"android":"levelo://app?vid=2374c379-08d8-4f68-9a86-62245fa37a46","ios":"levelo://app?vid=2374c379-08d8-4f68-9a86-62245fa37a46"},"vehicle_type_id":"4","last_reported":1727878088,"current_range_meters":38400,"station_id":"ce4bgjh2rcd13ifvqbf0","pricing_plan_id":"cebpf4jnsgd1na2vs0mg"},{"bike_id":"d8366149-ec40-4652-a491-417ff42d6a78","system_id":"levelo_inurba_marseille","lat":43.25084,"lon":5.39514,"is_reserved":false,"is_disabled":false,"rental_uris":{"android":"levelo://app?vid=d8366149-ec40-4652-a491-417ff42d6a78","ios":"levelo://app?vid=d8366149-ec40-4652-a491-417ff42d6a78"},"vehicle_type_id":"4","last_reported":1727878088,"current_range_meters":34000,"station_id":"ce4bhm12rcd13ifvqgkg","pricing_plan_id":"cebpf4jnsgd1na2vs0mg"},{"bike_id":"b90091da-30b0-4c44-bbd4-ba8868c240ad","system_id":"levelo_inurba_marseille","lat":43.30536,"lon":5.36555,"is_reserved":false,"is_disabled":false,"rental_uris":{"android":"levelo://app?vid=b90091da-30b0-4c44-bbd4-ba8868c240ad","ios":"levelo://app?vid=b90091da-30b0-4c44-bbd4-ba8868c240ad"},"vehicle_type_id":"4","last_reported":1727878088,"current_range_meters":5600,"station_id":"ce4bgs12rcd13ifvqcag","pricing_plan_id":"cebpf4jnsgd1na2vs0mg"},{"bike_id":"7ed0465c-2afa-4d13-be09-7e5831f2ee1a","system_id":"levelo_inurba_marseille","lat":43.31229,"lon":5.36863,"is_reserved":false,"is_disabled":false,"rental_uris":{"android":"levelo://app?vid=7ed0465c-2afa-4d13-be09-7e5831f2ee1a","ios":"levelo://app?vid=7ed0465c-2afa-4d13-be09-7e5831f2ee1a"},"vehicle_type_id":"4","last_reported":1727878088,"current_range_meters":6000,"station_id":"ce4bgl92rcd13ifvqbq0","pricing_plan_id":"cebpf4jnsgd1na2vs0mg"},{"bike_id":"7e265af9-8b4a-42fb-9eb8-9b1b9ac3c14b","system_id":"levelo_inurba_marseille","lat":43.3149,"lon":5.37304,"is_reserved":false,"is_disabled":false,"rental_uris":{"android":"levelo://app?vid=7e265af9-8b4a-42fb-9eb8-9b1b9ac3c14b","ios":"levelo://app?vid=7e265af9-8b4a-42fb-9eb8-9b1b9ac3c14b"},"vehicle_type_id":"4","last_reported":1727878088,"current_range_meters":7200,"station_id":"ce4bgt12rcd13ifvqcd0","pricing_plan_id":"cebpf4jnsgd1na2vs0mg"},{"bike_id":"3fa48300-4d21-4d3c-96b2-db92ba4e771e","system_id":"levelo_inurba_marseille","lat":43.26682,"lon":5.38266,"is_reserved":false,"is_disabled":false,"rental_uris":{"android":"levelo://app?vid=3fa48300-4d21-4d3c-96b2-db92ba4e771e","ios":"levelo://app?vid=3fa48300-4d21-4d3c-96b2-db92ba4e771e"},"vehicle_type_id":"4","last_reported":1727878088,"current_range_meters":38800,"station_id":"ce4bhg92rcd13ifvqf90","pricing_plan_id":"cebpf4jnsgd1na2vs0mg"},{"bike_id":"2ada7626-a86b-46c0-865c-0af89afb9e3f","system_id":"levelo_inurba_marseille","lat":43.29686,"lon":5.37293,"is_reserved":false,"is_disabled":false,"rental_uris":{"android":"levelo://app?vid=2ada7626-a86b-46c0-865c-0af89afb9e3f","ios":"levelo://app?vid=2ada7626-a86b-46c0-865c-0af89afb9e3f"},"vehicle_type_id":"4","last_reported":1727878088,"current_range_meters":27600,"station_id":"ce4bgk12rcd13ifvqbj0","pricing_plan_id":"cebpf4jnsgd1na2vs0mg"},{"bike_id":"831c30ef-4a1d-4e7d-83a1-de8b691d82b4","system_id":"levelo_inurba_marseille","lat":43.29716,"lon":5.36605,"is_reserved":false,"is_disabled":false,"rental_uris":{"android":"levelo://app?vid=831c30ef-4a1d-4e7d-83a1-de8b691d82b4","ios":"levelo://app?vid=831c30ef-4a1d-4e7d-83a1-de8b691d82b4"},"vehicle_type_id":"4","last_reported":1727878088,"current_range_meters":38800,"station_id":"ce4bgn12rcd13ifvqbt0","pricing_plan_id":"cebpf4jnsgd1na2vs0mg"},{"bike_id":"73ed0a3e-aebc-4585-931e-60e59d72df0e","system_id":"levelo_inurba_marseille","lat":43.28153,"lon":5.42644,"is_reserved":false,"is_disabled":false,"rental_uris":{"android":"levelo://app?vid=73ed0a3e-aebc-4585-931e-60e59d72df0e","ios":"levelo://app?vid=73ed0a3e-aebc-4585-931e-60e59d72df0e"},"vehicle_type_id":"4","last_reported":1727878088,"current_range_meters":33200,"station_id":"ce4bhnh2rcd13ifvqgug","pricing_plan_id":"cebpf4jnsgd1na2vs0mg"},{"bike_id":"6a30856e-6895-4a8e-b3b4-163780f15ecf","system_id":"levelo_inurba_marseille","lat":43.286163,"lon":5.361106,"is_reserved":false,"is_disabled":false,"rental_uris":{"android":"levelo://app?vid=6a30856e-6895-4a8e-b3b4-163780f15ecf","ios":"levelo://app?vid=6a30856e-6895-4a8e-b3b4-163780f15ecf"},"vehicle_type_id":"4","last_reported":1727878088,"current_range_meters":25600,"station_id":"ce4bhah2rcd13ifvqej0","pricing_plan_id":"cebpf4jnsgd1na2vs0mg"},{"bike_id":"7b82bf81-a1e6-4a65-b022-187a63ed4f45","system_id":"levelo_inurba_marseille","lat":43.27944,"lon":5.41031,"is_reserved":false,"is_disabled":false,"rental_uris":{"android":"levelo://app?vid=7b82bf81-a1e6-4a65-b022-187a63ed4f45","ios":"levelo://app?vid=7b82bf81-a1e6-4a65-b022-187a63ed4f45"},"vehicle_type_id":"4","last_reported":1727878088,"current_range_meters":12400,"station_id":"ce4bhnp2rcd13ifvqh0g","pricing_plan_id":"cebpf4jnsgd1na2vs0mg"},{"bike_id":"25a1329b-8749-49df-8cad-5a16cf56db9c","system_id":"levelo_inurba_marseille","lat":43.28851,"lon":5.35838,"is_reserved":false,"is_disabled":false,"rental_uris":{"android":"levelo://app?vid=25a1329b-8749-49df-8cad-5a16cf56db9c","ios":"levelo://app?vid=25a1329b-8749-49df-8cad-5a16cf56db9c"},"vehicle_type_id":"4","last_reported":1727878088,"current_range_meters":14400,"station_id":"ce4bhb12rcd13ifvqem0","pricing_plan_id":"cebpf4jnsgd1na2vs0mg"},{"bike_id":"56c14d9d-5582-4a6f-a605-7472166419a2","system_id":"levelo_inurba_marseille","lat":43.33753,"lon":5.37449,"is_reserved":false,"is_disabled":false,"rental_uris":{"android":"levelo://app?vid=56c14d9d-5582-4a6f-a605-7472166419a2","ios":"levelo://app?vid=56c14d9d-5582-4a6f-a605-7472166419a2"},"vehicle_type_id":"4","last_reported":1727878088,"current_range_meters":38000,"station_id":"","pricing_plan_id":"cebpf4jnsgd1na2vs0mg"},{"bike_id":"d9c77a5d-cbe7-4637-b5ad-0117b9026ef9","system_id":"levelo_inurba_marseille","lat":43.24654,"lon":5.38894,"is_reserved":false,"is_disabled":false,"rental_uris":{"android":"levelo://app?vid=d9c77a5d-cbe7-4637-b5ad-0117b9026ef9","ios":"levelo://app?vid=d9c77a5d-cbe7-4637-b5ad-0117b9026ef9"},"vehicle_type_id":"4","last_reported":1727878088,"current_range_meters":19200,"station_id":"ce4bhg12rcd13ifvqf60","pricing_plan_id":"cebpf4jnsgd1na2vs0mg"},{"bike_id":"9aceea1e-2e9f-45dd-b934-8459a3f9e674","system_id":"levelo_inurba_marseille","lat":43.27374,"lon":5.36258,"is_reserved":false,"is_disabled":false,"rental_uris":{"android":"levelo://app?vid=9aceea1e-2e9f-45dd-b934-8459a3f9e674","ios":"levelo://app?vid=9aceea1e-2e9f-45dd-b934-8459a3f9e674"},"vehicle_type_id":"4","last_reported":1727878088,"current_range_meters":33600,"station_id":"ce4bhbh2rcd13ifvqeo0","pricing_plan_id":"cebpf4jnsgd1na2vs0mg"},{"bike_id":"3377a178-4716-46df-a33e-6753c16501c1","system_id":"levelo_inurba_marseille","lat":43.25724,"lon":5.41106,"is_reserved":false,"is_disabled":false,"rental_uris":{"android":"levelo://app?vid=3377a178-4716-46df-a33e-6753c16501c1","ios":"levelo://app?vid=3377a178-4716-46df-a33e-6753c16501c1"},"vehicle_type_id":"4","last_reported":1727878088,"current_range_meters":30400,"station_id":"ce4bhkp2rcd13ifvqgd0","pricing_plan_id":"cebpf4jnsgd1na2vs0mg"},{"bike_id":"7d309556-ea43-4e23-ab64-77a7f666ab27","system_id":"levelo_inurba_marseille","lat":43.30462,"lon":5.39871,"is_reserved":false,"is_disabled":false,"rental_uris":{"android":"levelo://app?vid=7d309556-ea43-4e23-ab64-77a7f666ab27","ios":"levelo://app?vid=7d309556-ea43-4e23-ab64-77a7f666ab27"},"vehicle_type_id":"4","last_reported":1727878088,"current_range_meters":22000,"station_id":"ce4bh3p2rcd13ifvqdq0","pricing_plan_id":"cebpf4jnsgd1na2vs0mg"},{"bike_id":"db215235-46fd-4e94-b4a2-8d3ec4e5a140","system_id":"levelo_inurba_marseille","lat":43.32479,"lon":5.36546,"is_reserved":false,"is_disabled":false,"rental_uris":{"android":"levelo://app?vid=db215235-46fd-4e94-b4a2-8d3ec4e5a140","ios":"levelo://app?vid=db215235-46fd-4e94-b4a2-8d3ec4e5a140"},"vehicle_type_id":"4","last_reported":1727878088,"current_range_meters":19200,"station_id":"ce4bhs12rcd13ifvqhvg","pricing_plan_id":"cebpf4jnsgd1na2vs0mg"},{"bike_id":"4ac5b21d-f552-4c0b-a28d-986f107a6b95","system_id":"levelo_inurba_marseille","lat":43.32406,"lon":5.39005,"is_reserved":false,"is_disabled":false,"rental_uris":{"android":"levelo://app?vid=4ac5b21d-f552-4c0b-a28d-986f107a6b95","ios":"levelo://app?vid=4ac5b21d-f552-4c0b-a28d-986f107a6b95"},"vehicle_type_id":"4","last_reported":1727878088,"current_range_meters":11600,"station_id":"","pricing_plan_id":"cebpf4jnsgd1na2vs0mg"},{"bike_id":"058ae22a-93a9-4f5f-acce-3050e2055327","system_id":"levelo_inurba_marseille","lat":43.30297,"lon":5.39194,"is_reserved":false,"is_disabled":false,"rental_uris":{"android":"levelo://app?vid=058ae22a-93a9-4f5f-acce-3050e2055327","ios":"levelo://app?vid=058ae22a-93a9-4f5f-acce-3050e2055327"},"vehicle_type_id":"4","last_reported":1727878088,"current_range_meters":38800,"station_id":"ce4bgkh2rcd13ifvqbk0","pricing_plan_id":"cebpf4jnsgd1na2vs0mg"},{"bike_id":"41c29162-03a0-4965-985d-6071a13e79e8","system_id":"levelo_inurba_marseille","lat":43.29627,"lon":5.37158,"is_reserved":false,"is_disabled":false,"rental_uris":{"android":"levelo://app?vid=41c29162-03a0-4965-985d-6071a13e79e8","ios":"levelo://app?vid=41c29162-03a0-4965-985d-6071a13e79e8"},"vehicle_type_id":"4","last_reported":1727878088,"current_range_meters":19200,"station_id":"ce4bgnh2rcd13ifvqc0g","pricing_plan_id":"cebpf4jnsgd1na2vs0mg"},{"bike_id":"6e92e353-6319-4b3d-b60b-acae9e42c6ad","system_id":"levelo_inurba_marseille","lat":43.26564,"lon":5.39011,"is_reserved":false,"is_disabled":false,"rental_uris":{"android":"levelo://app?vid=6e92e353-6319-4b3d-b60b-acae9e42c6ad","ios":"levelo://app?vid=6e92e353-6319-4b3d-b60b-acae9e42c6ad"},"vehicle_type_id":"4","last_reported":1727878088,"current_range_meters":6800,"station_id":"ce4bhe12rcd13ifvqf30","pricing_plan_id":"cebpf4jnsgd1na2vs0mg"},{"bike_id":"af73b995-6c55-4096-8776-a462be9b879a","system_id":"levelo_inurba_marseille","lat":43.30578,"lon":5.37109,"is_reserved":false,"is_disabled":false,"rental_uris":{"android":"levelo://app?vid=af73b995-6c55-4096-8776-a462be9b879a","ios":"levelo://app?vid=af73b995-6c55-4096-8776-a462be9b879a"},"vehicle_type_id":"4","last_reported":1727878088,"current_range_meters":36400,"station_id":"","pricing_plan_id":"cebpf4jnsgd1na2vs0mg"},{"bike_id":"2cd62159-cdb3-4ab1-afe4-be11b2a67d0e","system_id":"levelo_inurba_marseille","lat":43.23193,"lon":5.39977,"is_reserved":false,"is_disabled":false,"rental_uris":{"android":"levelo://app?vid=2cd62159-cdb3-4ab1-afe4-be11b2a67d0e","ios":"levelo://app?vid=2cd62159-cdb3-4ab1-afe4-be11b2a67d0e"},"vehicle_type_id":"4","last_reported":1727878088,"current_range_meters":4400,"station_id":"ce4bhn12rcd13ifvqgqg","pricing_plan_id":"cebpf4jnsgd1na2vs0mg"},{"bike_id":"70eac031-a735-4b72-898d-b5cf23f4e6a6","system_id":"levelo_inurba_marseille","lat":43.28454,"lon":5.39542,"is_reserved":false,"is_disabled":false,"rental_uris":{"android":"levelo://app?vid=70eac031-a735-4b72-898d-b5cf23f4e6a6","ios":"levelo://app?vid=70eac031-a735-4b72-898d-b5cf23f4e6a6"},"vehicle_type_id":"4","last_reported":1727878088,"current_range_meters":34000,"station_id":"ce4bho92rcd13ifvqh4g","pricing_plan_id":"cebpf4jnsgd1na2vs0mg"},{"bike_id":"f8ca8d48-70a5-4630-a8a7-972777e4b6e4","system_id":"levelo_inurba_marseille","lat":43.28668,"lon":5.3635,"is_reserved":false,"is_disabled":false,"rental_uris":{"android":"levelo://app?vid=f8ca8d48-70a5-4630-a8a7-972777e4b6e4","ios":"levelo://app?vid=f8ca8d48-70a5-4630-a8a7-972777e4b6e4"},"vehicle_type_id":"4","last_reported":1727878088,"current_range_meters":33600,"station_id":"ce4bhah2rcd13ifvqej0","pricing_plan_id":"cebpf4jnsgd1na2vs0mg"},{"bike_id":"ffe0f8e7-b8ff-4644-90c3-ef056ccf153f","system_id":"levelo_inurba_marseille","lat":43.25006,"lon":5.38908,"is_reserved":false,"is_disabled":false,"rental_uris":{"android":"levelo://app?vid=ffe0f8e7-b8ff-4644-90c3-ef056ccf153f","ios":"levelo://app?vid=ffe0f8e7-b8ff-4644-90c3-ef056ccf153f"},"vehicle_type_id":"4","last_reported":1727878088,"current_range_meters":9200,"station_id":"ce4bhgp2rcd13ifvqfd0","pricing_plan_id":"cebpf4jnsgd1na2vs0mg"},{"bike_id":"96b1adcd-48f2-486c-aec4-240c6db8217e","system_id":"levelo_inurba_marseille","lat":43.30646,"lon":5.40069,"is_reserved":false,"is_disabled":false,"rental_uris":{"android":"levelo://app?vid=96b1adcd-48f2-486c-aec4-240c6db8217e","ios":"levelo://app?vid=96b1adcd-48f2-486c-aec4-240c6db8217e"},"vehicle_type_id":"4","last_reported":1727878088,"current_range_meters":11200,"station_id":"ce4bh112rcd13ifvqda0","pricing_plan_id":"cebpf4jnsgd1na2vs0mg"},{"bike_id":"01e77b0f-7cc2-4f21-bca1-292aaef4dbf5","system_id":"levelo_inurba_marseille","lat":43.23062,"lon":5.35491,"is_reserved":false,"is_disabled":false,"rental_uris":{"android":"levelo://app?vid=01e77b0f-7cc2-4f21-bca1-292aaef4dbf5","ios":"levelo://app?vid=01e77b0f-7cc2-4f21-bca1-292aaef4dbf5"},"vehicle_type_id":"4","last_reported":1727878088,"current_range_meters":26000,"station_id":"cpo3342slgdg3j2ifvpg","pricing_plan_id":"cebpf4jnsgd1na2vs0mg"},{"bike_id":"068b66f4-7ef6-4575-9402-dc5aa1ccbbf4","system_id":"levelo_inurba_marseille","lat":43.23154,"lon":5.43704,"is_reserved":false,"is_disabled":false,"rental_uris":{"android":"levelo://app?vid=068b66f4-7ef6-4575-9402-dc5aa1ccbbf4","ios":"levelo://app?vid=068b66f4-7ef6-4575-9402-dc5aa1ccbbf4"},"vehicle_type_id":"4","last_reported":1727878088,"current_range_meters":36400,"station_id":"ce4bhmp2rcd13ifvqgog","pricing_plan_id":"cebpf4jnsgd1na2vs0mg"},{"bike_id":"5dac9f59-99d8-47f9-b99a-06c3eeec022f","system_id":"levelo_inurba_marseille","lat":43.23062,"lon":5.35493,"is_reserved":false,"is_disabled":false,"rental_uris":{"android":"levelo://app?vid=5dac9f59-99d8-47f9-b99a-06c3eeec022f","ios":"levelo://app?vid=5dac9f59-99d8-47f9-b99a-06c3eeec022f"},"vehicle_type_id":"4","last_reported":1727878088,"current_range_meters":36000,"station_id":"cpo3342slgdg3j2ifvpg","pricing_plan_id":"cebpf4jnsgd1na2vs0mg"},{"bike_id":"c8aba292-b2e5-4973-9fd7-78fcaee0c7aa","system_id":"levelo_inurba_marseille","lat":43.24999,"lon":5.38921,"is_reserved":false,"is_disabled":false,"rental_uris":{"android":"levelo://app?vid=c8aba292-b2e5-4973-9fd7-78fcaee0c7aa","ios":"levelo://app?vid=c8aba292-b2e5-4973-9fd7-78fcaee0c7aa"},"vehicle_type_id":"4","last_reported":1727878088,"current_range_meters":5600,"station_id":"ce4bhgp2rcd13ifvqfd0","pricing_plan_id":"cebpf4jnsgd1na2vs0mg"},{"bike_id":"56cd6e86-deb4-44e9-a047-66a31813f55f","system_id":"levelo_inurba_marseille","lat":43.289795,"lon":5.356477,"is_reserved":false,"is_disabled":false,"rental_uris":{"android":"levelo://app?vid=56cd6e86-deb4-44e9-a047-66a31813f55f","ios":"levelo://app?vid=56cd6e86-deb4-44e9-a047-66a31813f55f"},"vehicle_type_id":"4","last_reported":1727878088,"current_range_meters":8800,"station_id":"ce4bhb92rcd13ifvqen0","pricing_plan_id":"cebpf4jnsgd1na2vs0mg"},{"bike_id":"4dafd9dd-1677-4239-a4d3-ea683d48fd8b","system_id":"levelo_inurba_marseille","lat":43.2831,"lon":5.381,"is_reserved":false,"is_disabled":false,"rental_uris":{"android":"levelo://app?vid=4dafd9dd-1677-4239-a4d3-ea683d48fd8b","ios":"levelo://app?vid=4dafd9dd-1677-4239-a4d3-ea683d48fd8b"},"vehicle_type_id":"4","last_reported":1727878088,"current_range_meters":36000,"station_id":"ce4bh412rcd13ifvqdr0","pricing_plan_id":"cebpf4jnsgd1na2vs0mg"},{"bike_id":"0aa67772-2acf-4638-9603-668627a7f382","system_id":"levelo_inurba_marseille","lat":43.26062,"lon":5.39396,"is_reserved":false,"is_disabled":false,"rental_uris":{"android":"levelo://app?vid=0aa67772-2acf-4638-9603-668627a7f382","ios":"levelo://app?vid=0aa67772-2acf-4638-9603-668627a7f382"},"vehicle_type_id":"4","last_reported":1727878088,"current_range_meters":10800,"station_id":"ce4bhh92rcd13ifvqfj0","pricing_plan_id":"cebpf4jnsgd1na2vs0mg"},{"bike_id":"418fb012-6512-437c-891b-809f7e6550e8","system_id":"levelo_inurba_marseille","lat":43.3254,"lon":5.41425,"is_reserved":false,"is_disabled":false,"rental_uris":{"android":"levelo://app?vid=418fb012-6512-437c-891b-809f7e6550e8","ios":"levelo://app?vid=418fb012-6512-437c-891b-809f7e6550e8"},"vehicle_type_id":"4","last_reported":1727878088,"current_range_meters":16000,"station_id":"ce4bhq12rcd13ifvqhhg","pricing_plan_id":"cebpf4jnsgd1na2vs0mg"},{"bike_id":"b47e46a7-cf70-49e2-8691-333db49ee35f","system_id":"levelo_inurba_marseille","lat":43.26316,"lon":5.39292,"is_reserved":false,"is_disabled":false,"rental_uris":{"android":"levelo://app?vid=b47e46a7-cf70-49e2-8691-333db49ee35f","ios":"levelo://app?vid=b47e46a7-cf70-49e2-8691-333db49ee35f"},"vehicle_type_id":"4","last_reported":1727878088,"current_range_meters":2800,"station_id":"ce4bhh12rcd13ifvqfg0","pricing_plan_id":"cebpf4jnsgd1na2vs0mg"},{"bike_id":"627eec60-5f4a-4bd0-9b6f-822bf8e954d5","system_id":"levelo_inurba_marseille","lat":43.31723,"lon":5.42392,"is_reserved":false,"is_disabled":false,"rental_uris":{"android":"levelo://app?vid=627eec60-5f4a-4bd0-9b6f-822bf8e954d5","ios":"levelo://app?vid=627eec60-5f4a-4bd0-9b6f-822bf8e954d5"},"vehicle_type_id":"4","last_reported":1727878088,"current_range_meters":20000,"station_id":"ce4bhp92rcd13ifvqhbg","pricing_plan_id":"cebpf4jnsgd1na2vs0mg"},{"bike_id":"14614ebe-2b43-4845-b5fe-2eabcfc97ea3","system_id":"levelo_inurba_marseille","lat":43.30529,"lon":5.367,"is_reserved":false,"is_disabled":false,"rental_uris":{"android":"levelo://app?vid=14614ebe-2b43-4845-b5fe-2eabcfc97ea3","ios":"levelo://app?vid=14614ebe-2b43-4845-b5fe-2eabcfc97ea3"},"vehicle_type_id":"4","last_reported":1727878088,"current_range_meters":36000,"station_id":"ce4bgrp2rcd13ifvqc9g","pricing_plan_id":"cebpf4jnsgd1na2vs0mg"},{"bike_id":"d0ee591a-bfbd-4a95-81b3-4f0dfa858751","system_id":"levelo_inurba_marseille","lat":43.28613,"lon":5.351,"is_reserved":false,"is_disabled":false,"rental_uris":{"android":"levelo://app?vid=d0ee591a-bfbd-4a95-81b3-4f0dfa858751","ios":"levelo://app?vid=d0ee591a-bfbd-4a95-81b3-4f0dfa858751"},"vehicle_type_id":"4","last_reported":1727878088,"current_range_meters":6400,"station_id":"ce4bhch2rcd13ifvqeug","pricing_plan_id":"cebpf4jnsgd1na2vs0mg"},{"bike_id":"1a855352-86f2-4d19-9361-cae95d56f46c","system_id":"levelo_inurba_marseille","lat":43.28414,"lon":5.34984,"is_reserved":false,"is_disabled":false,"rental_uris":{"android":"levelo://app?vid=1a855352-86f2-4d19-9361-cae95d56f46c","ios":"levelo://app?vid=1a855352-86f2-4d19-9361-cae95d56f46c"},"vehicle_type_id":"4","last_reported":1727878088,"current_range_meters":15200,"station_id":"ce4bhbh2rcd13ifvqepg","pricing_plan_id":"cebpf4jnsgd1na2vs0mg"},{"bike_id":"58a14ce1-2014-4595-b2e8-3b1fc49aaeb1","system_id":"levelo_inurba_marseille","lat":43.26491,"lon":5.39547,"is_reserved":false,"is_disabled":false,"rental_uris":{"android":"levelo://app?vid=58a14ce1-2014-4595-b2e8-3b1fc49aaeb1","ios":"levelo://app?vid=58a14ce1-2014-4595-b2e8-3b1fc49aaeb1"},"vehicle_type_id":"4","last_reported":1727878088,"current_range_meters":33200,"station_id":"ce4bhi12rcd13ifvqfq0","pricing_plan_id":"cebpf4jnsgd1na2vs0mg"},