{"last_updated":1721077718,"ttl":30,"version":"2.2","data":{"bikes":[{"bike_id":"34043a10-6c62-4534-a0fb-dfc073283404","system_id":"levelo_inurba_marseille","lat":43.309039,"lon":5.371797,"is_reserved":false,"is_disabled":false,"rental_uris":{"android":"levelo://app?vid=34043a10-6c62-4534-a0fb-dfc073283404","ios":"levelo://app?vid=34043a10-6c62-4534-a0fb-dfc073283404"},"vehicle_type_id":"4","last_reported":1721077718,"current_range_meters":7600,"station_id":"ce4bguh2rcd13ifvqckg","pricing_plan_id":"cebpf4jnsgd1na2vs0mg"},{"bike_id":"f42a502c-933b-458f-839f-349c35b01b40","system_id":"levelo_inurba_marseille","lat":43.314811,"lon":5.373104,"is_reserved":false,"is_disabled":false,"rental_uris":{"android":"levelo://app?vid=f42a502c-933b-458f-839f-349c35b01b40","ios":"levelo://app?vid=f42a502c-933b-458f-839f-349c35b01b40"},"vehicle_type_id":"4","last_reported":1721077718,"current_range_meters":1600,"station_id":"ce4bgt12rcd13ifvqcd0","pricing_plan_id":"cebpf4jnsgd1na2vs0mg"},{"bike_id":"efea5e6e-6daa-47ec-aab3-4132d534f5ae","system_id":"levelo_inurba_marseille","lat":43.314811,"lon":5.373103,"is_reserved":false,"is_disabled":false,"rental_uris":{"android":"levelo://app?vid=efea5e6e-6daa-47ec-aab3-4132d534f5ae","ios":"levelo://app?vid=efea5e6e-6daa-47ec-aab3-4132d534f5ae"},"vehicle_type_id":"4","last_reported":1721077718,"current_range_meters":21200,"station_id":"ce4bgt12rcd13ifvqcd0","pricing_plan_id":"cebpf4jnsgd1na2vs0mg"},{"bike_id":"ca0f03a3-d6bc-4874-8928-07ab3823711b","system_id":"levelo_inurba_marseille","lat":43.314811,"lon":5.373103,"is_reserved":false,"is_disabled":false,"rental_uris":{"android":"levelo://app?vid=ca0f03a3-d6bc-4874-8928-07ab3823711b","ios":"levelo://app?vid=ca0f03a3-d6bc-4874-8928-07ab3823711b"},"vehicle_type_id":"4","last_reported":1721077718,"current_range_meters":10400,"station_id":"ce4bgt12rcd13ifvqcd0","pricing_plan_id":"cebpf4jnsgd1na2vs0mg"},{"bike_id":"3f3b8307-fd36-43f2-b7c3-e1a23474a523","system_id":"levelo_inurba_marseille","lat":43.309039,"lon":5.371797,"is_reserved":false,"is_disabled":false,"rental_uris":{"android":"levelo://app?vid=3f3b8307-fd36-43f2-b7c3-e1a23474a523","ios":"levelo://app?vid=3f3b8307-fd36-43f2-b7c3-e1a23474a523"},"vehicle_type_id":"4","last_reported":1721077718,"current_range_meters":6000,"station_id":"ce4bguh2rcd13ifvqckg","pricing_plan_id":"cebpf4jnsgd1na2vs0mg"},{"bike_id":"64e88547-7a57-4d59-ba0e-4e6e7887cad0","system_id":"levelo_inurba_marseille","lat":43.30542,"lon":5.36526,"is_reserved":false,"is_disabled":false,"rental_uris":{"android":"levelo://app?vid=64e88547-7a57-4d59-ba0e-4e6e7887cad0","ios":"levelo://app?vid=64e88547-7a57-4d59-ba0e-4e6e7887cad0"},"vehicle_type_id":"4","last_reported":1721077718,"current_range_meters":0,"station_id":"ce4bgs12rcd13ifvqcag","pricing_plan_id":"cebpf4jnsgd1na2vs0mg"},{"bike_id":"c4643fe1-2a83-4cad-985c-46ac65faacb1","system_id":"levelo_inurba_marseille","lat":43.31113,"lon":5.37751,"is_reserved":false,"is_disabled":false,"rental_uris":{"android":"levelo://app?vid=c4643fe1-2a83-4cad-985c-46ac65faacb1","ios":"levelo://app?vid=c4643fe1-2a83-4cad-985c-46ac65faacb1"},"vehicle_type_id":"4","last_reported":1721077718,"current_range_meters":5200,"station_id":"ce4bgt92rcd13ifvqcg0","pricing_plan_id":"cebpf4jnsgd1na2vs0mg"},{"bike_id":"79db0950-1107-4c61-a12c-bf46fe13687e","system_id":"levelo_inurba_marseille","lat":43.31112,"lon":5.37753,"is_reserved":false,"is_disabled":false,"rental_uris":{"android":"levelo://app?vid=79db0950-1107-4c61-a12c-bf46fe13687e","ios":"levelo://app?vid=79db0950-1107-4c61-a12c-bf46fe13687e"},"vehicle_type_id":"4","last_reported":1721077718,"current_range_meters":12000,"station_id":"ce4bgt92rcd13ifvqcg0","pricing_plan_id":"cebpf4jnsgd1na2vs0mg"},{"bike_id":"8c111b8b-8891-4e6e-96be-15cf74d016c3","system_id":"levelo_inurba_marseille","lat":43.31115,"lon":5.37765,"is_reserved":false,"is_disabled":false,"rental_uris":{"android":"levelo://app?vid=8c111b8b-8891-4e6e-96be-15cf74d016c3","ios":"levelo://app?vid=8c111b8b-8891-4e6e-96be-15cf74d016c3"},"vehicle_type_id":"4","last_reported":1721077718,"current_range_meters":14400,"station_id":"ce4bgt92rcd13ifvqcg0","pricing_plan_id":"cebpf4jnsgd1na2vs0mg"},{"bike_id":"41013f57-84c1-417b-bede-eb9ed22c2ffe","system_id":"levelo_inurba_marseille","lat":43.311125,"lon":5.377624,"is_reserved":false,"is_disabled":false,"rental_uris":{"android":"levelo://app?vid=41013f57-84c1-417b-bede-eb9ed22c2ffe","ios":"levelo://app?vid=41013f57-84c1-417b-bede-eb9ed22c2ffe"},"vehicle_type_id":"4","last_reported":1721077718,"current_range_meters":0,"station_id":"ce4bgt92rcd13ifvqcg0","pricing_plan_id":"cebpf4jnsgd1na2vs0mg"},{"bike_id":"81bc0bf1-46ef-47ba-9b31-e9fbcdcd3481","system_id":"levelo_inurba_marseille","lat":43.31123,"lon":5.37776,"is_reserved":false,"is_disabled":false,"rental_uris":{"android":"levelo://app?vid=81bc0bf1-46ef-47ba-9b31-e9fbcdcd3481","ios":"levelo://app?vid=81bc0bf1-46ef-47ba-9b31-e9fbcdcd3481"},"vehicle_type_id":"4","last_reported":1721077718,"current_range_meters":31200,"station_id":"ce4bgt92rcd13ifvqcg0","pricing_plan_id":"cebpf4jnsgd1na2vs0mg"},{"bike_id":"125810a2-b2f9-4f89-8a8f-65304d5b63aa","system_id":"levelo_inurba_marseille","lat":43.311125,"lon":5.377624,"is_reserved":false,"is_disabled":false,"rental_uris":{"android":"levelo://app?vid=125810a2-b2f9-4f89-8a8f-65304d5b63aa","ios":"levelo://app?vid=125810a2-b2f9-4f89-8a8f-65304d5b63aa"},"vehicle_type_id":"4","last_reported":1721077718,"current_range_meters":12000,"station_id":"ce4bgt92rcd13ifvqcg0","pricing_plan_id":"cebpf4jnsgd1na2vs0mg"},{"bike_id":"25e5d9ec-7701-444c-9fdb-9dd66fd354e3","system_id":"levelo_inurba_marseille","lat":43.31107,"lon":5.37777,"is_reserved":false,"is_disabled":false,"rental_uris":{"android":"levelo://app?vid=25e5d9ec-7701-444c-9fdb-9dd66fd354e3","ios":"levelo://app?vid=25e5d9ec-7701-444c-9fdb-9dd66fd354e3"},"vehicle_type_id":"4","last_reported":1721077718,"current_range_meters":31200,"station_id":"ce4bgt92rcd13ifvqcg0","pricing_plan_id":"cebpf4jnsgd1na2vs0mg"},{"bike_id":"f183f734-c4fa-4b7c-9005-dc7d9af3e8a5","system_id":"levelo_inurba_marseille","lat":43.311059,"lon":5.378285,"is_reserved":false,"is_disabled":false,"rental_uris":{"android":"levelo://app?vid=f183f734-c4fa-4b7c-9005-dc7d9af3e8a5","ios":"levelo://app?vid=f183f734-c4fa-4b7c-9005-dc7d9af3e8a5"},"vehicle_type_id":"4","last_reported":1721077718,"current_range_meters":0,"station_id":"","pricing_plan_id":"cebpf4jnsgd1na2vs0mg"},{"bike_id":"5792647f-223e-4f90-b259-c0690b73e8b3","system_id":"levelo_inurba_marseille","lat":43.307945,"lon":5.376487,"is_reserved":false,"is_disabled":false,"rental_uris":{"android":"levelo://app?vid=5792647f-223e-4f90-b259-c0690b73e8b3","ios":"levelo://app?vid=5792647f-223e-4f90-b259-c0690b73e8b3"},"vehicle_type_id":"4","last_reported":1721077718,"current_range_meters":20400,"station_id":"ce4bgv92rcd13ifvqcq0","pricing_plan_id":"cebpf4jnsgd1na2vs0mg"},{"bike_id":"0b8ae3dc-b92c-4173-a256-b690872c3646","system_id":"levelo_inurba_marseille","lat":43.307945,"lon":5.376487,"is_reserved":false,"is_disabled":false,"rental_uris":{"android":"levelo://app?vid=0b8ae3dc-b92c-4173-a256-b690872c3646","ios":"levelo://app?vid=0b8ae3dc-b92c-4173-a256-b690872c3646"},"vehicle_type_id":"4","last_reported":1721077718,"current_range_meters":8800,"station_id":"ce4bgv92rcd13ifvqcq0","pricing_plan_id":"cebpf4jnsgd1na2vs0mg"},{"bike_id":"6a1479b7-9b65-4689-94dc-7ccad924ca8c","system_id":"levelo_inurba_marseille","lat":43.307945,"lon":5.376487,"is_reserved":false,"is_disabled":false,"rental_uris":{"android":"levelo://app?vid=6a1479b7-9b65-4689-94dc-7ccad924ca8c","ios":"levelo://app?vid=6a1479b7-9b65-4689-94dc-7ccad924ca8c"},"vehicle_type_id":"4","last_reported":1721077718,"current_range_meters":14000,"station_id":"ce4bgv92rcd13ifvqcq0","pricing_plan_id":"cebpf4jnsgd1na2vs0mg"},{"bike_id":"82f127cf-4634-4bb2-a04a-a6c01bc969b1","system_id":"levelo_inurba_marseille","lat":43.307945,"lon":5.376487,"is_reserved":false,"is_disabled":false,"rental_uris":{"android":"levelo://app?vid=82f127cf-4634-4bb2-a04a-a6c01bc969b1","ios":"levelo://app?vid=82f127cf-4634-4bb2-a04a-a6c01bc969b1"},"vehicle_type_id":"4","last_reported":1721077718,"current_range_meters":26000,"station_id":"ce4bgv92rcd13ifvqcq0","pricing_plan_id":"cebpf4jnsgd1na2vs0mg"},{"bike_id":"d9cf28cf-e51a-41df-8e1c-3e4b3fdbc366","system_id":"levelo_inurba_marseille","lat":43.307945,"lon":5.376487,"is_reserved":false,"is_disabled":false,"rental_uris":{"android":"levelo://app?vid=d9cf28cf-e51a-41df-8e1c-3e4b3fdbc366","ios":"levelo://app?vid=d9cf28cf-e51a-41df-8e1c-3e4b3fdbc366"},"vehicle_type_id":"4","last_reported":1721077718,"current_range_meters":10800,"station_id":"ce4bgv92rcd13ifvqcq0","pricing_plan_id":"cebpf4jnsgd1na2vs0mg"},{"bike_id":"9d01927c-047f-48cb-bd48-be7bc745d49b","system_id":"levelo_inurba_marseille","lat":43.307945,"lon":5.376487,"is_reserved":false,"is_disabled":false,"rental_uris":{"android":"levelo://app?vid=9d01927c-047f-48cb-bd48-be7bc745d49b","ios":"levelo://app?vid=9d01927c-047f-48cb-bd48-be7bc745d49b"},"vehicle_type_id":"4","last_reported":1721077718,"current_range_meters":25600,"station_id":"ce4bgv92rcd13ifvqcq0","pricing_plan_id":"cebpf4jnsgd1na2vs0mg"},{"bike_id":"8b2d5d30-b20b-46b9-b8da-9d6e270c823d","system_id":"levelo_inurba_marseille","lat":43.307945,"lon":5.376487,"is_reserved":false,"is_disabled":false,"rental_uris":{"android":"levelo://app?vid=8b2d5d30-b20b-46b9-b8da-9d6e270c823d","ios":"levelo://app?vid=8b2d5d30-b20b-46b9-b8da-9d6e270c823d"},"vehicle_type_id":"4","last_reported":1721077718,"current_range_meters":11200,"station_id":"ce4bgv92rcd13ifvqcq0","pricing_plan_id":"cebpf4jnsgd1na2vs0mg"},{"bike_id":"7025c5ff-af0c-4f71-bd6f-75efcd8dcbce","system_id":"levelo_inurba_marseille","lat":43.307945,"lon":5.376487,"is_reserved":false,"is_disabled":false,"rental_uris":{"android":"levelo://app?vid=7025c5ff-af0c-4f71-bd6f-75efcd8dcbce","ios":"levelo://app?vid=7025c5ff-af0c-4f71-bd6f-75efcd8dcbce"},"vehicle_type_id":"4","last_reported":1721077718,"current_range_meters":24800,"station_id":"ce4bgv92rcd13ifvqcq0","pricing_plan_id":"cebpf4jnsgd1na2vs0mg"},{"bike_id":"b452d273-b6cc-4d42-8716-7997002e87eb","system_id":"levelo_inurba_marseille","lat":43.317075,"lon":5.377367,"is_reserved":false,"is_disabled":false,"rental_uris":{"android":"levelo://app?vid=b452d273-b6cc-4d42-8716-7997002e87eb","ios":"levelo://app?vid=b452d273-b6cc-4d42-8716-7997002e87eb"},"vehicle_type_id":"4","last_reported":1721077718,"current_range_meters":20800,"station_id":"ce4bgth2rcd13ifvqch0","pricing_plan_id":"cebpf4jnsgd1na2vs0mg"},{"bike_id":"418e82b2-b3b4-4a92-a087-b0ed70ccd482","system_id":"levelo_inurba_marseille","lat":43.31525,"lon":5.380244,"is_reserved":false,"is_disabled":false,"rental_uris":{"android":"levelo://app?vid=418e82b2-b3b4-4a92-a087-b0ed70ccd482","ios":"levelo://app?vid=418e82b2-b3b4-4a92-a087-b0ed70ccd482"},"vehicle_type_id":"4","last_reported":1721077718,"current_range_meters":17200,"station_id":"ce4bhsp2rcd13ifvqi50","pricing_plan_id":"cebpf4jnsgd1na2vs0mg"},{"bike_id":"6bdb53c8-e94c-43d8-a135-ae62ec296e92","system_id":"levelo_inurba_marseille","lat":43.31529,"lon":5.380251,"is_reserved":false,"is_disabled":false,"rental_uris":{"android":"levelo://app?vid=6bdb53c8-e94c-43d8-a135-ae62ec296e92","ios":"levelo://app?vid=6bdb53c8-e94c-43d8-a135-ae62ec296e92"},"vehicle_type_id":"4","last_reported":1721077718,"current_range_meters":6400,"station_id":"ce4bhsp2rcd13ifvqi50","pricing_plan_id":"cebpf4jnsgd1na2vs0mg"},{"bike_id":"4cf66bbe-286e-4b6a-ab1d-990eac9587f7","system_id":"levelo_inurba_marseille","lat":43.31528,"lon":5.38035,"is_reserved":false,"is_disabled":false,"rental_uris":{"android":"levelo://app?vid=4cf66bbe-286e-4b6a-ab1d-990eac9587f7","ios":"levelo://app?vid=4cf66bbe-286e-4b6a-ab1d-990eac9587f7"},"vehicle_type_id":"4","last_reported":1721077718,"current_range_meters":7600,"station_id":"ce4bhsp2rcd13ifvqi50","pricing_plan_id":"cebpf4jnsgd1na2vs0mg"},{"bike_id":"cac7336c-ab1e-4289-bdd4-e9476c1730f9","system_id":"levelo_inurba_marseille","lat":43.308012,"lon":5.381511,"is_reserved":false,"is_disabled":false,"rental_uris":{"android":"levelo://app?vid=cac7336c-ab1e-4289-bdd4-e9476c1730f9","ios":"levelo://app?vid=cac7336c-ab1e-4289-bdd4-e9476c1730f9"},"vehicle_type_id":"4","last_reported":1721077718,"current_range_meters":30000,"station_id":"ce4bgt12rcd13ifvqce0","pricing_plan_id":"cebpf4jnsgd1na2vs0mg"},{"bike_id":"a1fc0e0e-21c1-454e-bf38-9c34ac26d467","system_id":"levelo_inurba_marseille","lat":43.308012,"lon":5.381511,"is_reserved":false,"is_disabled":false,"rental_uris":{"android":"levelo://app?vid=a1fc0e0e-21c1-454e-bf38-9c34ac26d467","ios":"levelo://app?vid=a1fc0e0e-21c1-454e-bf38-9c34ac26d467"},"vehicle_type_id":"4","last_reported":1721077718,"current_range_meters":22800,"station_id":"ce4bgt12rcd13ifvqce0","pricing_plan_id":"cebpf4jnsgd1na2vs0mg"},{"bike_id":"78763668-9861-4f99-90da-c985e69c86e5","system_id":"levelo_inurba_marseille","lat":43.308012,"lon":5.381511,"is_reserved":false,"is_disabled":false,"rental_uris":{"android":"levelo://app?vid=78763668-9861-4f99-90da-c985e69c86e5","ios":"levelo://app?vid=78763668-9861-4f99-90da-c985e69c86e5"},"vehicle_type_id":"4","last_reported":1721077718,"current_range_meters":18400,"station_id":"ce4bgt12rcd13ifvqce0","pricing_plan_id":"cebpf4jnsgd1na2vs0mg"},{"bike_id":"9ad96c4e-bae5-4d0d-8a08-e04898f7d5ce","system_id":"levelo_inurba_marseille","lat":43.308012,"lon":5.381511,"is_reserved":false,"is_disabled":false,"rental_uris":{"android":"levelo://app?vid=9ad96c4e-bae5-4d0d-8a08-e04898f7d5ce","ios":"levelo://app?vid=9ad96c4e-bae5-4d0d-8a08-e04898f7d5ce"},"vehicle_type_id":"4","last_reported":1721077718,"current_range_meters":19600,"station_id":"ce4bgt12rcd13ifvqce0","pricing_plan_id":"cebpf4jnsgd1na2vs0mg"},{"bike_id":"b4b2583b-fe96-4992-b151-9c65df8a0f22","system_id":"levelo_inurba_marseille","lat":43.30802,"lon":5.38157,"is_reserved":false,"is_disabled":false,"rental_uris":{"android":"levelo://app?vid=b4b2583b-fe96-4992-b151-9c65df8a0f22","ios":"levelo://app?vid=b4b2583b-fe96-4992-b151-9c65df8a0f22"},"vehicle_type_id":"4","last_reported":1721077718,"current_range_meters":30400,"station_id":"ce4bgt12rcd13ifvqce0","pricing_plan_id":"cebpf4jnsgd1na2vs0mg"},{"bike_id":"f31b19bc-23ae-413f-8df5-95aa1d48ec26","system_id":"levelo_inurba_marseille","lat":43.308012,"lon":5.381511,"is_reserved":false,"is_disabled":false,"rental_uris":{"android":"levelo://app?vid=f31b19bc-23ae-413f-8df5-95aa1d48ec26","ios":"levelo://app?vid=f31b19bc-23ae-413f-8df5-95aa1d48ec26"},"vehicle_type_id":"4","last_reported":1721077718,"current_range_meters":27600,"station_id":"ce4bgt12rcd13ifvqce0","pricing_plan_id":"cebpf4jnsgd1na2vs0mg"},{"bike_id":"c41c7e5a-ada4-48f8-98cb-a98b01b84135","system_id":"levelo_inurba_marseille","lat":43.308012,"lon":5.381511,"is_reserved":false,"is_disabled":false,"rental_uris":{"android":"levelo://app?vid=c41c7e5a-ada4-48f8-98cb-a98b01b84135","ios":"levelo://app?vid=c41c7e5a-ada4-48f8-98cb-a98b01b84135"},"vehicle_type_id":"4","last_reported":1721077718,"current_range_meters":12400,"station_id":"ce4bgt12rcd13ifvqce0","pricing_plan_id":"cebpf4jnsgd1na2vs0mg"},{"bike_id":"0c231e2e-81c6-4321-bb14-12915551a1c3","system_id":"levelo_inurba_marseille","lat":43.308012,"lon":5.381511,"is_reserved":false,"is_disabled":false,"rental_uris":{"android":"levelo://app?vid=0c231e2e-81c6-4321-bb14-12915551a1c3","ios":"levelo://app?vid=0c231e2e-81c6-4321-bb14-12915551a1c3"},"vehicle_type_id":"4","last_reported":1721077718,"current_range_meters":22400,"station_id":"ce4bgt12rcd13ifvqce0","pricing_plan_id":"cebpf4jnsgd1na2vs0mg"},{"bike_id":"88c493e8-6d91-4c76-806e-ea0d5298f638","system_id":"levelo_inurba_marseille","lat":43.32478,"lon":5.36555,"is_reserved":false,"is_disabled":false,"rental_uris":{"android":"levelo://app?vid=88c493e8-6d91-4c76-806e-ea0d5298f638","ios":"levelo://app?vid=88c493e8-6d91-4c76-806e-ea0d5298f638"},"vehicle_type_id":"4","last_reported":1721077718,"current_range_meters":26400,"station_id":"ce4bhs12rcd13ifvqhvg","pricing_plan_id":"cebpf4jnsgd1na2vs0mg"},{"bike_id":"5d635596-97ac-42e0-99d4-5cc2c06bf0ba","system_id":"levelo_inurba_marseille","lat":43.324771,"lon":5.36557,"is_reserved":false,"is_disabled":false,"rental_uris":{"android":"levelo://app?vid=5d635596-97ac-42e0-99d4-5cc2c06bf0ba","ios":"levelo://app?vid=5d635596-97ac-42e0-99d4-5cc2c06bf0ba"},"vehicle_type_id":"4","last_reported":1721077718,"current_range_meters":30000,"station_id":"ce4bhs12rcd13ifvqhvg","pricing_plan_id":"cebpf4jnsgd1na2vs0mg"},{"bike_id":"0b033a9a-ba65-4abc-b007-594a854ee66f","system_id":"levelo_inurba_marseille","lat":43.32482,"lon":5.3656,"is_reserved":false,"is_disabled":false,"rental_uris":{"android":"levelo://app?vid=0b033a9a-ba65-4abc-b007-594a854ee66f","ios":"levelo://app?vid=0b033a9a-ba65-4abc-b007-594a854ee66f"},"vehicle_type_id":"4","last_reported":1721077718,"current_range_meters":31200,"station_id":"ce4bhs12rcd13ifvqhvg","pricing_plan_id":"cebpf4jnsgd1na2vs0mg"},{"bike_id":"c87a68c8-dd62-4efe-93bc-2a16693d2aa4","system_id":"levelo_inurba_marseille","lat":43.30143,"lon":5.37413,"is_reserved":false,"is_disabled":false,"rental_uris":{"android":"levelo://app?vid=c87a68c8-dd62-4efe-93bc-2a16693d2aa4","ios":"levelo://app?vid=c87a68c8-dd62-4efe-93bc-2a16693d2aa4"},"vehicle_type_id":"4","last_reported":1721077718,"current_range_meters":0,"station_id":"ce4bgs92rcd13ifvqcc0","pricing_plan_id":"cebpf4jnsgd1na2vs0mg"},{"bike_id":"c064cd0b-ff1c-40de-8b9d-eefd3435dcf1","system_id":"levelo_inurba_marseille","lat":43.305911,"lon":5.381796,"is_reserved":false,"is_disabled":false,"rental_uris":{"android":"levelo://app?vid=c064cd0b-ff1c-40de-8b9d-eefd3435dcf1","ios":"levelo://app?vid=c064cd0b-ff1c-40de-8b9d-eefd3435dcf1"},"vehicle_type_id":"4","last_reported":1721077718,"current_range_meters":18800,"station_id":"","pricing_plan_id":"cebpf4jnsgd1na2vs0mg"},{"bike_id":"4db63350-4e4b-413d-9a50-5fc3a0f837bb","system_id":"levelo_inurba_marseille","lat":43.31352,"lon":5.38489,"is_reserved":false,"is_disabled":false,"rental_uris":{"android":"levelo://app?vid=4db63350-4e4b-413d-9a50-5fc3a0f837bb","ios":"levelo://app?vid=4db63350-4e4b-413d-9a50-5fc3a0f837bb"},"vehicle_type_id":"4","last_reported":1721077718,"current_range_meters":31200,"station_id":"ce4bgt92rcd13ifvqcf0","pricing_plan_id":"cebpf4jnsgd1na2vs0mg"},{"bike_id":"42481903-b071-425f-84b6-931f78ac2128","system_id":"levelo_inurba_marseille","lat":43.313571,"lon":5.384829,"is_reserved":false,"is_disabled":false,"rental_uris":{"android":"levelo://app?vid=42481903-b071-425f-84b6-931f78ac2128","ios":"levelo://app?vid=42481903-b071-425f-84b6-931f78ac2128"},"vehicle_type_id":"4","last_reported":1721077718,"current_range_meters":17600,"station_id":"ce4bgt92rcd13ifvqcf0","pricing_plan_id":"cebpf4jnsgd1na2vs0mg"},{"bike_id":"891a3d81-9ca9-4fc9-9cfd-ba133cf5bd8c","system_id":"levelo_inurba_marseille","lat":43.313604,"lon":5.384904,"is_reserved":false,"is_disabled":false,"rental_uris":{"android":"levelo://app?vid=891a3d81-9ca9-4fc9-9cfd-ba133cf5bd8c","ios":"levelo://app?vid=891a3d81-9ca9-4fc9-9cfd-ba133cf5bd8c"},"vehicle_type_id":"4","last_reported":1721077718,"current_range_meters":6000,"station_id":"ce4bgt92rcd13ifvqcf0","pricing_plan_id":"cebpf4jnsgd1na2vs0mg"},{"bike_id":"7d711246-a3af-4bd2-a7b6-66029da08fbc","system_id":"levelo_inurba_marseille","lat":43.313571,"lon":5.384829,"is_reserved":false,"is_disabled":false,"rental_uris":{"android":"levelo://app?vid=7d711246-a3af-4bd2-a7b6-66029da08fbc","ios":"levelo://app?vid=7d711246-a3af-4bd2-a7b6-66029da08fbc"},"vehicle_type_id":"4","last_reported":1721077718,"current_range_meters":30400,"station_id":"ce4bgt92rcd13ifvqcf0","pricing_plan_id":"cebpf4jnsgd1na2vs0mg"},{"bike_id":"4866e497-29f9-4c6e-9aa9-e67cb4186079","system_id":"levelo_inurba_marseille","lat":43.31354,"lon":5.38494,"is_reserved":false,"is_disabled":false,"rental_uris":{"android":"levelo://app?vid=4866e497-29f9-4c6e-9aa9-e67cb4186079","ios":"levelo://app?vid=4866e497-29f9-4c6e-9aa9-e67cb4186079"},"vehicle_type_id":"4","last_reported":1721077718,"current_range_meters":8000,"station_id":"ce4bgt92rcd13ifvqcf0","pricing_plan_id":"cebpf4jnsgd1na2vs0mg"},{"bike_id":"4f0a0056-bd49-420a-b9df-f419d93a1707","system_id":"levelo_inurba_marseille","lat":43.31358,"lon":5.38506,"is_reserved":false,"is_disabled":false,"rental_uris":{"android":"levelo://app?vid=4f0a0056-bd49-420a-b9df-f419d93a1707","ios":"levelo://app?vid=4f0a0056-bd49-420a-b9df-f419d93a1707"},"vehicle_type_id":"4","last_reported":1721077718,"current_range_meters":30800,"station_id":"ce4bgt92rcd13ifvqcf0","pricing_plan_id":"cebpf4jnsgd1na2vs0mg"},{"bike_id":"9c73eeb7-07ab-4f7f-90b6-16a8780a0b09","system_id":"levelo_inurba_marseille","lat":43.31359,"lon":5.38513,"is_reserved":false,"is_disabled":false,"rental_uris":{"android":"levelo://app?vid=9c73eeb7-07ab-4f7f-90b6-16a8780a0b09","ios":"levelo://app?vid=9c73eeb7-07ab-4f7f-90b6-16a8780a0b09"},"vehicle_type_id":"4","last_reported":1721077718,"current_range_meters":22800,"station_id":"ce4bgj92rcd13ifvqbd0","pricing_plan_id":"cebpf4jnsgd1na2vs0mg"},{"bike_id":"d9662dba-cff5-453f-bd92-305132ae2ac2","system_id":"levelo_inurba_marseille","lat":43.299222,"lon":5.365554,"is_reserved":false,"is_disabled":false,"rental_uris":{"android":"levelo://app?vid=d9662dba-cff5-453f-bd92-305132ae2ac2","ios":"levelo://app?vid=d9662dba-cff5-453f-bd92-305132ae2ac2"},"vehicle_type_id":"4","last_reported":1721077718,"current_range_meters":4800,"station_id":"ce4bgm92rcd13ifvqbr0","pricing_plan_id":"cebpf4jnsgd1na2vs0mg"},{"bike_id":"c20e3482-27e1-4b1f-96ae-f5c3da6a6e15","system_id":"levelo_inurba_marseille","lat":43.299724,"lon":5.371829,"is_reserved":false,"is_disabled":false,"rental_uris":{"android":"levelo://app?vid=c20e3482-27e1-4b1f-96ae-f5c3da6a6e15","ios":"levelo://app?vid=c20e3482-27e1-4b1f-96ae-f5c3da6a6e15"},"vehicle_type_id":"4","last_reported":1721077718,"current_range_meters":2800,"station_id":"ce4bgr92rcd13ifvqc7g","pricing_plan_id":"cebpf4jnsgd1na2vs0mg"},{"bike_id":"b1134af3-9322-44b2-8bf3-d4bd59ef2f4c","system_id":"levelo_inurba_marseille","lat":43.302713,"lon":5.380057,"is_reserved":false,"is_disabled":false,"rental_uris":{"android":"levelo://app?vid=b1134af3-9322-44b2-8bf3-d4bd59ef2f4c","ios":"levelo://app?vid=b1134af3-9322-44b2-8bf3-d4bd59ef2f4c"},"vehicle_type_id":"4","last_reported":1721077718,"current_range_meters":23600,"station_id":"ce4bhqp2rcd13ifvqhng","pricing_plan_id":"cebpf4jnsgd1na2vs0mg"},{"bike_id":"64a0c12f-f677-4af1-96ce-734087081cc4","system_id":"levelo_inurba_marseille","lat":43.298433,"lon":5.362774,"is_reserved":false,"is_disabled":false,"rental_uris":{"android":"levelo://app?vid=64a0c12f-f677-4af1-96ce-734087081cc4","ios":"levelo://app?vid=64a0c12f-f677-4af1-96ce-734087081cc4"},"vehicle_type_id":"4","last_reported":1721077718,"current_range_meters":21600,"station_id":"ce4bgpp2rcd13ifvqc3g","pricing_plan_id":"cebpf4jnsgd1na2vs0mg"},{"bike_id":"9098d1c7-0f3a-4726-b50a-2a5fef9d56a7","system_id":"levelo_inurba_marseille","lat":43.29846,"lon":5.36275,"is_reserved":false,"is_disabled":false,"rental_uris":{"android":"levelo://app?vid=9098d1c7-0f3a-4726-b50a-2a5fef9d56a7","ios":"levelo://app?vid=9098d1c7-0f3a-4726-b50a-2a5fef9d56a7"},"vehicle_type_id":"4","last_reported":1721077718,"current_range_meters":22800,"station_id":"ce4bgpp2rcd13ifvqc3g","pricing_plan_id":"cebpf4jnsgd1na2vs0mg"},{"bike_id":"0f1604c1-3334-4e59-84d6-ff3de2f4f96d","system_id":"levelo_inurba_marseille","lat":43.305364,"lon":5.384119,"is_reserved":false,"is_disabled":false,"rental_uris":{"android":"levelo://app?vid=0f1604c1-3334-4e59-84d6-ff3de2f4f96d","ios":"levelo://app?vid=0f1604c1-3334-4e59-84d6-ff3de2f4f96d"},"vehicle_type_id":"4","last_reported":1721077718,"current_range_meters":17600,"station_id":"ce4bgg92rcd13ifvqb30","pricing_plan_id":"cebpf4jnsgd1na2vs0mg"},{"bike_id":"ada11564-c39f-4250-8168-c3648f38112d","system_id":"levelo_inurba_marseille","lat":43.305364,"lon":5.384119,"is_reserved":false,"is_disabled":false,"rental_uris":{"android":"levelo://app?vid=ada11564-c39f-4250-8168-c3648f38112d","ios":"levelo://app?vid=ada11564-c39f-4250-8168-c3648f38112d"},"vehicle_type_id":"4","last_reported":1721077718,"current_range_meters":26400,"station_id":"ce4bgg92rcd13ifvqb30","pricing_plan_id":"cebpf4jnsgd1na2vs0mg"},{"bike_id":"7daf475d-94c2-4053-b62e-ce302fb66bc1","system_id":"levelo_inurba_marseille","lat":43.305364,"lon":5.384119,"is_reserved":false,"is_disabled":false,"rental_uris":{"android":"levelo://app?vid=7daf475d-94c2-4053-b62e-ce302fb66bc1","ios":"levelo://app?vid=7daf475d-94c2-4053-b62e-ce302fb66bc1"},"vehicle_type_id":"4","last_reported":1721077718,"current_range_meters":26400,"station_id":"ce4bgg92rcd13ifvqb30","pricing_plan_id":"cebpf4jnsgd1na2vs0mg"},{"bike_id":"5df2c5f5-e412-4e17-b96e-7fd5b82087f2","system_id":"levelo_inurba_marseille","lat":43.311722,"lon":5.387247,"is_reserved":false,"is_disabled":false,"rental_uris":{"android":"levelo://app?vid=5df2c5f5-e412-4e17-b96e-7fd5b82087f2","ios":"levelo://app?vid=5df2c5f5-e412-4e17-b96e-7fd5b82087f2"},"vehicle_type_id":"4","last_reported":1721077718,"current_range_meters":5600,"station_id":"ce4bgv12rcd13ifvqcp0","pricing_plan_id":"cebpf4jnsgd1na2vs0mg"},{"bike_id":"47c7f754-73c3-4ca4-8ed5-119d0be674d4","system_id":"levelo_inurba_marseille","lat":43.297774,"lon":5.370875,"is_reserved":false,"is_disabled":false,"rental_uris":{"android":"levelo://app?vid=47c7f754-73c3-4ca4-8ed5-119d0be674d4","ios":"levelo://app?vid=47c7f754-73c3-4ca4-8ed5-119d0be674d4"},"vehicle_type_id":"4","last_reported":1721077718,"current_range_meters":25200,"station_id":"ce4bgop2rcd13ifvqc1g","pricing_plan_id":"cebpf4jnsgd1na2vs0mg"},{"bike_id":"d270f9a5-07f1-4b2c-baf6-6fb04a081afc","system_id":"levelo_inurba_marseille","lat":43.322872,"lon":5.382756,"is_reserved":false,"is_disabled":false,"rental_uris":{"android":"levelo://app?vid=d270f9a5-07f1-4b2c-baf6-6fb04a081afc","ios":"levelo://app?vid=d270f9a5-07f1-4b2c-baf6-6fb04a081afc"},"vehicle_type_id":"4","last_reported":1721077718,"current_range_meters":31600,"station_id":"ce4bhr12rcd13ifvqhqg","pricing_plan_id":"cebpf4jnsgd1na2vs0mg"},{"bike_id":"5fe18430-f94a-4d0a-8899-cd884db5c80f","system_id":"levelo_inurba_marseille","lat":43.322872,"lon":5.382756,"is_reserved":false,"is_disabled":false,"rental_uris":{"android":"levelo://app?vid=5fe18430-f94a-4d0a-8899-cd884db5c80f","ios":"levelo://app?vid=5fe18430-f94a-4d0a-8899-cd884db5c80f"},"vehicle_type_id":"4","last_reported":1721077718,"current_range_meters":16800,"station_id":"ce4bhr12rcd13ifvqhqg","pricing_plan_id":"cebpf4jnsgd1na2vs0mg"},{"bike_id":"08043eee-77e4-465d-b2ed-487cefc1eed8","system_id":"levelo_inurba_marseille","lat":43.297163,"lon":5.365866,"is_reserved":false,"is_disabled":false,"rental_uris":{"android":"levelo://app?vid=08043eee-77e4-465d-b2ed-487cefc1eed8","ios":"levelo://app?vid=08043eee-77e4-465d-b2ed-487cefc1eed8"},"vehicle_type_id":"4","last_reported":1721077718,"current_range_meters":1200,"station_id":"ce4bgn12rcd13ifvqbt0","pricing_plan_id":"cebpf4jnsgd1na2vs0mg"},{"bike_id":"54c4b692-fbdc-4fbc-99de-cd8ac985955f","system_id":"levelo_inurba_marseille","lat":43.309589,"lon":5.390258,"is_reserved":false,"is_disabled":false,"rental_uris":{"android":"levelo://app?vid=54c4b692-fbdc-4fbc-99de-cd8ac985955f","ios":"levelo://app?vid=54c4b692-fbdc-4fbc-99de-cd8ac985955f"},"vehicle_type_id":"4","last_reported":1721077718,"current_range_meters":15200,"station_id":"ce4bgup2rcd13ifvqco0","pricing_plan_id":"cebpf4jnsgd1na2vs0mg"},{"bike_id":"3829e722-981d-4be5-9eba-ad76adb6eca0","system_id":"levelo_inurba_marseille","lat":43.317557,"lon":5.390173,"is_reserved":false,"is_disabled":false,"rental_uris":{"android":"levelo://app?vid=3829e722-981d-4be5-9eba-ad76adb6eca0","ios":"levelo://app?vid=3829e722-981d-4be5-9eba-ad76adb6eca0"},"vehicle_type_id":"4","last_reported":1721077718,"current_range_meters":25600,"station_id":"ce4bhqp2rcd13ifvqhng","pricing_plan_id":"cebpf4jnsgd1na2vs0mg"},{"bike_id":"4663f8c1-5898-4a2e-a0e4-ab131bcc2440","system_id":"levelo_inurba_marseille","lat":43.317593,"lon":5.390267,"is_reserved":false,"is_disabled":false,"rental_uris":{"android":"levelo://app?vid=4663f8c1-5898-4a2e-a0e4-ab131bcc2440","ios":"levelo://app?vid=4663f8c1-5898-4a2e-a0e4-ab131bcc2440"},"vehicle_type_id":"4","last_reported":1721077718,"current_range_meters":30800,"station_id":"ce4bhqp2rcd13ifvqhng","pricing_plan_id":"cebpf4jnsgd1na2vs0mg"},{"bike_id":"074e29b7-d0eb-4f79-83a1-ccfc45016f47","system_id":"levelo_inurba_marseille","lat":43.29798,"lon":5.3808,"is_reserved":false,"is_disabled":false,"rental_uris":{"android":"levelo://app?vid=074e29b7-d0eb-4f79-83a1-ccfc45016f47","ios":"levelo://app?vid=074e29b7-d0eb-4f79-83a1-ccfc45016f47"},"vehicle_type_id":"4","last_reported":1721077718,"current_range_meters":0,"station_id":"ce4bgip2rcd13ifvqbb0","pricing_plan_id":"cebpf4jnsgd1na2vs0mg"},{"bike_id":"8d958db8-172e-4471-b04b-74cd121b2b4d","system_id":"levelo_inurba_marseille","lat":43.304274,"lon":5.388873,"is_reserved":false,"is_disabled":false,"rental_uris":{"android":"levelo://app?vid=8d958db8-172e-4471-b04b-74cd121b2b4d","ios":"levelo://app?vid=8d958db8-172e-4471-b04b-74cd121b2b4d"},"vehicle_type_id":"4","last_reported":1721077718,"current_range_meters":8400,"station_id":"ce4bgk12rcd13ifvqbi0","pricing_plan_id":"cebpf4jnsgd1na2vs0mg"},{"bike_id":"285a4959-2787-424e-9db1-fe24277cb41a","system_id":"levelo_inurba_marseille","lat":43.304274,"lon":5.388873,"is_reserved":false,"is_disabled":false,"rental_uris":{"android":"levelo://app?vid=285a4959-2787-424e-9db1-fe24277cb41a","ios":"levelo://app?vid=285a4959-2787-424e-9db1-fe24277cb41a"},"vehicle_type_id":"4","last_reported":1721077718,"current_range_meters":13600,"station_id":"ce4bgk12rcd13ifvqbi0","pricing_plan_id":"cebpf4jnsgd1na2vs0mg"},{"bike_id":"a835277f-9542-44d8-b3eb-b3d46f35a0c9","system_id":"levelo_inurba_marseille","lat":43.29788,"lon":5.38108,"is_reserved":false,"is_disabled":false,"rental_uris":{"android":"levelo://app?vid=a835277f-9542-44d8-b3eb-b3d46f35a0c9","ios":"levelo://app?vid=a835277f-9542-44d8-b3eb-b3d46f35a0c9"},"vehicle_type_id":"4","last_reported":1721077718,"current_range_meters":18000,"station_id":"ce4bgip2rcd13ifvqbb0","pricing_plan_id":"cebpf4jnsgd1na2vs0mg"},{"bike_id":"761f7303-259c-432d-beb3-ecd8ee51ed9d","system_id":"levelo_inurba_marseille","lat":43.304274,"lon":5.388873,"is_reserved":false,"is_disabled":false,"rental_uris":{"android":"levelo://app?vid=761f7303-259c-432d-beb3-ecd8ee51ed9d","ios":"levelo://app?vid=761f7303-259c-432d-beb3-ecd8ee51ed9d"},"vehicle_type_id":"4","last_reported":1721077718,"current_range_meters":6800,"station_id":"ce4bgk12rcd13ifvqbi0","pricing_plan_id":"cebpf4jnsgd1na2vs0mg"},{"bike_id":"cc856544-63d2-456d-8d04-7216effc2ce8","system_id":"levelo_inurba_marseille","lat":43.304278,"lon":5.388868,"is_reserved":false,"is_disabled":false,"rental_uris":{"android":"levelo://app?vid=cc856544-63d2-456d-8d04-7216effc2ce8","ios":"levelo://app?vid=cc856544-63d2-456d-8d04-7216effc2ce8"},"vehicle_type_id":"4","last_reported":1721077718,"current_range_meters":16000,"station_id":"ce4bgk12rcd13ifvqbi0","pricing_plan_id":"cebpf4jnsgd1na2vs0mg"},{"bike_id":"d600f613-c810-4a82-b767-832934c0fe4a","system_id":"levelo_inurba_marseille","lat":43.304274,"lon":5.388873,"is_reserved":false,"is_disabled":false,"rental_uris":{"android":"levelo://app?vid=d600f613-c810-4a82-b767-832934c0fe4a","ios":"levelo://app?vid=d600f613-c810-4a82-b767-832934c0fe4a"},"vehicle_type_id":"4","last_reported":1721077718,"current_range_meters":0,"station_id":"ce4bgk12rcd13ifvqbi0","pricing_plan_id":"cebpf4jnsgd1na2vs0mg"},{"bike_id":"30638d50-f85b-4fc3-a676-a9b16a7a27e4","system_id":"levelo_inurba_marseille","lat":43.295279,"lon":5.375048,"is_reserved":false,"is_disabled":false,"rental_uris":{"android":"levelo://app?vid=30638d50-f85b-4fc3-a676-a9b16a7a27e4","ios":"levelo://app?vid=30638d50-f85b-4fc3-a676-a9b16a7a27e4"},"vehicle_type_id":"4","last_reported":1721077718,"current_range_meters":0,"station_id":"ce4bgkp2rcd13ifvqbmg","pricing_plan_id":"cebpf4jnsgd1na2vs0mg"},{"bike_id":"33735a37-1ba4-43c7-adc8-c0eded65b9e9","system_id":"levelo_inurba_marseille","lat":43.299707,"lon":5.384859,"is_reserved":false,"is_disabled":false,"rental_uris":{"android":"levelo://app?vid=33735a37-1ba4-43c7-adc8-c0eded65b9e9","ios":"levelo://app?vid=33735a37-1ba4-43c7-adc8-c0eded65b9e9"},"vehicle_type_id":"4","last_reported":1721077718,"current_range_meters":23200,"station_id":"ce4bgj92rcd13ifvqbd0","pricing_plan_id":"cebpf4jnsgd1na2vs0mg"},{"bike_id":"1aac667d-3cec-46ce-95b5-fb55a1d09b68","system_id":"levelo_inurba_marseille","lat":43.299724,"lon":5.384848,"is_reserved":false,"is_disabled":false,"rental_uris":{"android":"levelo://app?vid=1aac667d-3cec-46ce-95b5-fb55a1d09b68","ios":"levelo://app?vid=1aac667d-3cec-46ce-95b5-fb55a1d09b68"},"vehicle_type_id":"4","last_reported":1721077718,"current_range_meters":12000,"station_id":"ce4bgj92rcd13ifvqbd0","pricing_plan_id":"cebpf4jnsgd1na2vs0mg"},{"bike_id":"239e0100-b84f-4d5b-85c7-945abfb4d8fa","system_id":"levelo_inurba_marseille","lat":43.29553,"lon":5.37723,"is_reserved":false,"is_disabled":false,"rental_uris":{"android":"levelo://app?vid=239e0100-b84f-4d5b-85c7-945abfb4d8fa","ios":"levelo://app?vid=239e0100-b84f-4d5b-85c7-945abfb4d8fa"},"vehicle_type_id":"4","last_reported":1721077718,"current_range_meters":8800,"station_id":"","pricing_plan_id":"cebpf4jnsgd1na2vs0mg"},{"bike_id":"7df6c00c-a701-40b1-9d28-fcdf635a8ac3","system_id":"levelo_inurba_marseille","lat":43.32367,"lon":5.388836,"is_reserved":false,"is_disabled":false,"rental_uris":{"android":"levelo://app?vid=7df6c00c-a701-40b1-9d28-fcdf635a8ac3","ios":"levelo://app?vid=7df6c00c-a701-40b1-9d28-fcdf635a8ac3"},"vehicle_type_id":"4","last_reported":1721077718,"current_range_meters":0,"station_id":"ce4bhqp2rcd13ifvqhog","pricing_plan_id":"cebpf4jnsgd1na2vs0mg"},{"bike_id":"9de1bfb7-c940-4764-bc97-41db75b3bc1c","system_id":"levelo_inurba_marseille","lat":43.32367,"lon":5.388836,"is_reserved":false,"is_disabled":false,"rental_uris":{"android":"levelo://app?vid=9de1bfb7-c940-4764-bc97-41db75b3bc1c","ios":"levelo://app?vid=9de1bfb7-c940-4764-bc97-41db75b3bc1c"},"vehicle_type_id":"4","last_reported":1721077718,"current_range_meters":25200,"station_id":"ce4bhqp2rcd13ifvqhog","pricing_plan_id":"cebpf4jnsgd1na2vs0mg"},{"bike_id":"550af3a8-d87c-4a30-83c8-7de2b6ceb888","system_id":"levelo_inurba_marseille","lat":43.32367,"lon":5.388836,"is_reserved":false,"is_disabled":false,"rental_uris":{"android":"levelo://app?vid=550af3a8-d87c-4a30-83c8-7de2b6ceb888","ios":"levelo://app?vid=550af3a8-d87c-4a30-83c8-7de2b6ceb888"},"vehicle_type_id":"4","last_reported":1721077718,"current_range_meters":0,"station_id":"ce4bhqp2rcd13ifvqhog","pricing_plan_id":"cebpf4jnsgd1na2vs0mg"},{"bike_id":"654a3a66-610a-4f33-a08a-4fd2f3816206","system_id":"levelo_inurba_marseille","lat":43.32367,"lon":5.388836,"is_reserved":false,"is_disabled":false,"rental_uris":{"android":"levelo://app?vid=654a3a66-610a-4f33-a08a-4fd2f3816206","ios":"levelo://app?vid=654a3a66-610a-4f33-a08a-4fd2f3816206"},"vehicle_type_id":"4","last_reported":1721077718,"current_range_meters":1200,"station_id":"ce4bhqp2rcd13ifvqhog","pricing_plan_id":"cebpf4jnsgd1na2vs0mg"},{"bike_id":"21ecddad-0450-4a0e-80ac-25ed861c4545","system_id":"levelo_inurba_marseille","lat":43.293259,"lon":5.371586,"is_reserved":false,"is_disabled":false,"rental_uris":{"android":"levelo://app?vid=21ecddad-0450-4a0e-80ac-25ed861c4545","ios":"levelo://app?vid=21ecddad-0450-4a0e-80ac-25ed861c4545"},"vehicle_type_id":"4","last_reported":1721077718,"current_range_meters":26400,"station_id":"ce4bgh92rcd13ifvqb40","pricing_plan_id":"cebpf4jnsgd1na2vs0mg"},{"bike_id":"f25a7347-a122-4a17-9a9b-00bad31d4125","system_id":"levelo_inurba_marseille","lat":43.293249,"lon":5.371578,"is_reserved":false,"is_disabled":false,"rental_uris":{"android":"levelo://app?vid=f25a7347-a122-4a17-9a9b-00bad31d4125","ios":"levelo://app?vid=f25a7347-a122-4a17-9a9b-00bad31d4125"},"vehicle_type_id":"4","last_reported":1721077718,"current_range_meters":28000,"station_id":"ce4bgh92rcd13ifvqb40","pricing_plan_id":"cebpf4jnsgd1na2vs0mg"},{"bike_id":"d451669e-8cf6-410f-9b4a-1ac8ac4abc04","system_id":"levelo_inurba_marseille","lat":43.29267,"lon":5.36849,"is_reserved":false,"is_disabled":false,"rental_uris":{"android":"levelo://app?vid=d451669e-8cf6-410f-9b4a-1ac8ac4abc04","ios":"levelo://app?vid=d451669e-8cf6-410f-9b4a-1ac8ac4abc04"},"vehicle_type_id":"4","last_reported":1721077718,"current_range_meters":0,"station_id":"ce4bhbp2rcd13ifvqesg","pricing_plan_id":"cebpf4jnsgd1na2vs0mg"},{"bike_id":"1fabb534-9373-4ebf-b68b-101a5f4b65d8","system_id":"levelo_inurba_marseille","lat":43.293009,"lon":5.374584,"is_reserved":false,"is_disabled":false,"rental_uris":{"android":"levelo://app?vid=1fabb534-9373-4ebf-b68b-101a5f4b65d8","ios":"levelo://app?vid=1fabb534-9373-4ebf-b68b-101a5f4b65d8"},"vehicle_type_id":"4","last_reported":1721077718,"current_range_meters":1200,"station_id":"ce4bgi12rcd13ifvqb70","pricing_plan_id":"cebpf4jnsgd1na2vs0mg"},{"bike_id":"d28b1918-e34b-4ff9-bae8-77ffd4af424d","system_id":"levelo_inurba_marseille","lat":43.305994,"lon":5.393687,"is_reserved":false,"is_disabled":false,"rental_uris":{"android":"levelo://app?vid=d28b1918-e34b-4ff9-bae8-77ffd4af424d","ios":"levelo://app?vid=d28b1918-e34b-4ff9-bae8-77ffd4af424d"},"vehicle_type_id":"4","last_reported":1721077718,"current_range_meters":12000,"station_id":"ce4bh0p2rcd13ifvqd80","pricing_plan_id":"cebpf4jnsgd1na2vs0mg"},{"bike_id":"8264099d-ebb6-49e9-a3dc-960c6c0bf0fe","system_id":"levelo_inurba_marseille","lat":43.305994,"lon":5.393687,"is_reserved":false,"is_disabled":false,"rental_uris":{"android":"levelo://app?vid=8264099d-ebb6-49e9-a3dc-960c6c0bf0fe","ios":"levelo://app?vid=8264099d-ebb6-49e9-a3dc-960c6c0bf0fe"},"vehicle_type_id":"4","last_reported":1721077718,"current_range_meters":31200,"station_id":"ce4bh0p2rcd13ifvqd80","pricing_plan_id":"cebpf4jnsgd1na2vs0mg"},{"bike_id":"9eabf02d-8d07-42f5-9669-6c5b7226bf37","system_id":"levelo_inurba_marseille","lat":43.305994,"lon":5.393687,"is_reserved":false,"is_disabled":false,"rental_uris":{"android":"levelo://app?vid=9eabf02d-8d07-42f5-9669-6c5b7226bf37","ios":"levelo://app?vid=9eabf02d-8d07-42f5-9669-6c5b7226bf37"},"vehicle_type_id":"4","last_reported":1721077718,"current_range_meters":19200,"station_id":"ce4bh0p2rcd13ifvqd80","pricing_plan_id":"cebpf4jnsgd1na2vs0mg"},{"bike_id":"db0a06ce-dc9f-4e7e-ad40-a80e710deea2","system_id":"levelo_inurba_marseille","lat":43.30595,"lon":5.3936,"is_reserved":false,"is_disabled":false,"rental_uris":{"android":"levelo://app?vid=db0a06ce-dc9f-4e7e-ad40-a80e710deea2","ios":"levelo://app?vid=db0a06ce-dc9f-4e7e-ad40-a80e710deea2"},"vehicle_type_id":"4","last_reported":1721077718,"current_range_meters":5200,"station_id":"","pricing_plan_id":"cebpf4jnsgd1na2vs0mg"},{"bike_id":"aebcce7b-99c2-45eb-af9a-eb98d6411af0","system_id":"levelo_inurba_marseille","lat":43.305994,"lon":5.393687,"is_reserved":false,"is_disabled":false,"rental_uris":{"android":"levelo://app?vid=aebcce7b-99c2-45eb-af9a-eb98d6411af0","ios":"levelo://app?vid=aebcce7b-99c2-45eb-af9a-eb98d6411af0"},"vehicle_type_id":"4","last_reported":1721077718,"current_range_meters":22000,"station_id":"ce4bh0p2rcd13ifvqd80","pricing_plan_id":"cebpf4jnsgd1na2vs0mg"},{"bike_id":"c0069f25-cd2f-4c75-be17-08dfb12673fb","system_id":"levelo_inurba_marseille","lat":43.303002,"lon":5.392142,"is_reserved":false,"is_disabled":false,"rental_uris":{"android":"levelo://app?vid=c0069f25-cd2f-4c75-be17-08dfb12673fb","ios":"levelo://app?vid=c0069f25-cd2f-4c75-be17-08dfb12673fb"},"vehicle_type_id":"4","last_reported":1721077718,"current_range_meters":10400,"station_id":"ce4bgkh2rcd13ifvqbk0","pricing_plan_id":"cebpf4jnsgd1na2vs0mg"},{"bike_id":"118dc807-f9bc-4649-b9a1-6beb7cbdab29","system_id":"levelo_inurba_marseille","lat":43.303002,"lon":5.392142,"is_reserved":false,"is_disabled":false,"rental_uris":{"android":"levelo://app?vid=118dc807-f9bc-4649-b9a1-6beb7cbdab29","ios":"levelo://app?vid=118dc807-f9bc-4649-b9a1-6beb7cbdab29"},"vehicle_type_id":"4","last_reported":1721077718,"current_range_meters":29200,"station_id":"ce4bgkh2rcd13ifvqbk0","pricing_plan_id":"cebpf4jnsgd1na2vs0mg"},{"bike_id":"2933a429-cd28-466c-a9e9-50bf56e12169","system_id":"levelo_inurba_marseille","lat":43.302992,"lon":5.392136,"is_reserved":false,"is_disabled":false,"rental_uris":{"android":"levelo://app?vid=2933a429-cd28-466c-a9e9-50bf56e12169","ios":"levelo://app?vid=2933a429-cd28-466c-a9e9-50bf56e12169"},"vehicle_type_id":"4","last_reported":1721077718,"current_range_meters":27200,"station_id":"ce4bgkh2rcd13ifvqbk0","pricing_plan_id":"cebpf4jnsgd1na2vs0mg"},{"bike_id":"139fc65c-16aa-4fac-ab4a-fb6d753edae1","system_id":"levelo_inurba_marseille","lat":43.2936,"lon":5.37835,"is_reserved":false,"is_disabled":false,"rental_uris":{"android":"levelo://app?vid=139fc65c-16aa-4fac-ab4a-fb6d753edae1","ios":"levelo://app?vid=139fc65c-16aa-4fac-ab4a-fb6d753edae1"},"vehicle_type_id":"4","last_reported":1721077718,"current_range_meters":26400,"station_id":"ce4bgjh2rcd13ifvqbf0","pricing_plan_id":"cebpf4jnsgd1na2vs0mg"},{"bike_id":"1f580630-281f-4934-88e6-2a0d48fa364f","system_id":"levelo_inurba_marseille","lat":43.30085,"lon":5.390856,"is_reserved":false,"is_disabled":false,"rental_uris":{"android":"levelo://app?vid=1f580630-281f-4934-88e6-2a0d48fa364f","ios":"levelo://app?vid=1f580630-281f-4934-88e6-2a0d48fa364f"},"vehicle_type_id":"4","last_reported":1721077718,"current_range_meters":12000,"station_id":"ce4bh192rcd13ifvqdb0","pricing_plan_id":"cebpf4jnsgd1na2vs0mg"},{"bike_id":"61165eb7-e6a1-49e8-8238-85691aa3b791","system_id":"levelo_inurba_marseille","lat":43.30085,"lon":5.390856,"is_reserved":false,"is_disabled":false,"rental_uris":{"android":"levelo://app?vid=61165eb7-e6a1-49e8-8238-85691aa3b791","ios":"levelo://app?vid=61165eb7-e6a1-49e8-8238-85691aa3b791"},"vehicle_type_id":"4","last_reported":1721077718,"current_range_meters":20400,"station_id":"ce4bh192rcd13ifvqdb0","pricing_plan_id":"cebpf4jnsgd1na2vs0mg"},{"bike_id":"2274ce3d-5383-482a-a76e-da9b3663b7d2","system_id":"levelo_inurba_marseille","lat":43.30085,"lon":5.390856,"is_reserved":false,"is_disabled":false,"rental_uris":{"android":"levelo://app?vid=2274ce3d-5383-482a-a76e-da9b3663b7d2","ios":"levelo://app?vid=2274ce3d-5383-482a-a76e-da9b3663b7d2"},"vehicle_type_id":"4","last_reported":1721077718,"current_range_meters":5600,"station_id":"ce4bh192rcd13ifvqdb0","pricing_plan_id":"cebpf4jnsgd1na2vs0mg"},{"bike_id":"085f9c36-1ac9-4a06-affb-d65bc38a8659","system_id":"levelo_inurba_marseille","lat":43.30085,"lon":5.390856,"is_reserved":false,"is_disabled":false,"rental_uris":{"android":"levelo://app?vid=085f9c36-1ac9-4a06-affb-d65bc38a8659","ios":"levelo://app?vid=085f9c36-1ac9-4a06-affb-d65bc38a8659"},"vehicle_type_id":"4","last_reported":1721077718,"current_range_meters":0,"station_id":"ce4bh192rcd13ifvqdb0","pricing_plan_id":"cebpf4jnsgd1na2vs0mg"},{"bike_id":"171ce34d-d21a-4c5a-8003-a90a6d1dbdb9","system_id":"levelo_inurba_marseille","lat":43.30087,"lon":5.39084,"is_reserved":false,"is_disabled":false,"rental_uris":{"android":"levelo://app?vid=171ce34d-d21a-4c5a-8003-a90a6d1dbdb9","ios":"levelo://app?vid=171ce34d-d21a-4c5a-8003-a90a6d1dbdb9"},"vehicle_type_id":"4","last_reported":1721077718,"current_range_meters":17600,"station_id":"ce4bh192rcd13ifvqdb0","pricing_plan_id":"cebpf4jnsgd1na2vs0mg"},{"bike_id":"17a4f4ee-db5c-48f4-88ac-a955f042e3ed","system_id":"levelo_inurba_marseille","lat":43.302759,"lon":5.400793,"is_reserved":false,"is_disabled":false,"rental_uris":{"android":"levelo://app?vid=17a4f4ee-db5c-48f4-88ac-a955f042e3ed","ios":"levelo://app?vid=17a4f4ee-db5c-48f4-88ac-a955f042e3ed"},"vehicle_type_id":"4","last_reported":1721077718,"current_range_meters":17200,"station_id":"ce4bgvh2rcd13ifvqcs0","pricing_plan_id":"cebpf4jnsgd1na2vs0mg"},{"bike_id":"ee80424d-b40c-41ee-a8f5-f1ffdcdc04ae","system_id":"levelo_inurba_marseille","lat":43.298764,"lon":5.388973,"is_reserved":false,"is_disabled":false,"rental_uris":{"android":"levelo://app?vid=ee80424d-b40c-41ee-a8f5-f1ffdcdc04ae","ios":"levelo://app?vid=ee80424d-b40c-41ee-a8f5-f1ffdcdc04ae"},"vehicle_type_id":"4","last_reported":1721077718,"current_range_meters":31600,"station_id":"ce4bh392rcd13ifvqdl0","pricing_plan_id":"cebpf4jnsgd1na2vs0mg"},{"bike_id":"004462bb-f5fb-442b-9b82-26f6093c53fd","system_id":"levelo_inurba_marseille","lat":43.29248,"lon":5.37613,"is_reserved":false,"is_disabled":false,"rental_uris":{"android":"levelo://app?vid=004462bb-f5fb-442b-9b82-26f6093c53fd","ios":"levelo://app?vid=004462bb-f5fb-442b-9b82-26f6093c53fd"},"vehicle_type_id":"4","last_reported":1721077718,"current_range_meters":1200,"station_id":"ce4bgi12rcd13ifvqb80","pricing_plan_id":"cebpf4jnsgd1na2vs0mg"},{"bike_id":"82ea9f53-f26a-454f-b3ce-17de07e73321","system_id":"levelo_inurba_marseille","lat":43.298764,"lon":5.388973,"is_reserved":false,"is_disabled":false,"rental_uris":{"android":"levelo://app?vid=82ea9f53-f26a-454f-b3ce-17de07e73321","ios":"levelo://app?vid=82ea9f53-f26a-454f-b3ce-17de07e73321"},"vehicle_type_id":"4","last_reported":1721077718,"current_range_meters":24800,"station_id":"ce4bh392rcd13ifvqdl0","pricing_plan_id":"cebpf4jnsgd1na2vs0mg"},{"bike_id":"76ea6fa6-fb7c-49f0-8b4a-78cbf519ffa5","system_id":"levelo_inurba_marseille","lat":43.2987,"lon":5.38905,"is_reserved":false,"is_disabled":false,"rental_uris":{"android":"levelo://app?vid=76ea6fa6-fb7c-49f0-8b4a-78cbf519ffa5","ios":"levelo://app?vid=76ea6fa6-fb7c-49f0-8b4a-78cbf519ffa5"},"vehicle_type_id":"4","last_reported":1721077718,"current_range_meters":20400,"station_id":"ce4bh392rcd13ifvqdl0","pricing_plan_id":"cebpf4jnsgd1na2vs0mg"},{"bike_id":"a0b488c2-f971-4005-a530-89995babc176","system_id":"levelo_inurba_marseille","lat":43.298764,"lon":5.388973,"is_reserved":false,"is_disabled":false,"rental_uris":{"android":"levelo://app?vid=a0b488c2-f971-4005-a530-89995babc176","ios":"levelo://app?vid=a0b488c2-f971-4005-a530-89995babc176"},"vehicle_type_id":"4","last_reported":1721077718,"current_range_meters":16400,"station_id":"ce4bh392rcd13ifvqdl0","pricing_plan_id":"cebpf4jnsgd1na2vs0mg"},{"bike_id":"6a43d500-5805-4c4d-a71a-aba69d423610","system_id":"levelo_inurba_marseille","lat":43.298676,"lon":5.389045,"is_reserved":false,"is_disabled":false,"rental_uris":{"android":"levelo://app?vid=6a43d500-5805-4c4d-a71a-aba69d423610","ios":"levelo://app?vid=6a43d500-5805-4c4d-a71a-aba69d423610"},"vehicle_type_id":"4","last_reported":1721077718,"current_range_meters":29200,"station_id":"ce4bh392rcd13ifvqdl0","pricing_plan_id":"cebpf4jnsgd1na2vs0mg"},{"bike_id":"46c519c9-2059-40c6-a6ad-183b0ab60fba","system_id":"levelo_inurba_marseille","lat":43.298764,"lon":5.388973,"is_reserved":false,"is_disabled":false,"rental_uris":{"android":"levelo://app?vid=46c519c9-2059-40c6-a6ad-183b0ab60fba","ios":"levelo://app?vid=46c519c9-2059-40c6-a6ad-183b0ab60fba"},"vehicle_type_id":"4","last_reported":1721077718,"current_range_meters":27200,"station_id":"ce4bh392rcd13ifvqdl0","pricing_plan_id":"cebpf4jnsgd1na2vs0mg"},{"bike_id":"bccef985-28e6-4ca3-ab2b-1446deea4b78","system_id":"levelo_inurba_marseille","lat":43.309047,"lon":5.396551,"is_reserved":false,"is_disabled":false,"rental_uris":{"android":"levelo://app?vid=bccef985-28e6-4ca3-ab2b-1446deea4b78","ios":"levelo://app?vid=bccef985-28e6-4ca3-ab2b-1446deea4b78"},"vehicle_type_id":"4","last_reported":1721077718,"current_range_meters":23200,"station_id":"ce4bh012rcd13ifvqcv0","pricing_plan_id":"cebpf4jnsgd1na2vs0mg"},{"bike_id":"f4cb58ef-b92c-4b77-9265-d854d1ac1c15","system_id":"levelo_inurba_marseille","lat":43.309047,"lon":5.396551,"is_reserved":false,"is_disabled":false,"rental_uris":{"android":"levelo://app?vid=f4cb58ef-b92c-4b77-9265-d854d1ac1c15","ios":"levelo://app?vid=f4cb58ef-b92c-4b77-9265-d854d1ac1c15"},"vehicle_type_id":"4","last_reported":1721077718,"current_range_meters":31600,"station_id":"ce4bh012rcd13ifvqcv0","pricing_plan_id":"cebpf4jnsgd1na2vs0mg"},{"bike_id":"cedf6c75-92c5-4e29-add3-f4f1f6faa02c","system_id":"levelo_inurba_marseille","lat":43.313291,"lon":5.396838,"is_reserved":false,"is_disabled":false,"rental_uris":{"android":"levelo://app?vid=cedf6c75-92c5-4e29-add3-f4f1f6faa02c","ios":"levelo://app?vid=cedf6c75-92c5-4e29-add3-f4f1f6faa02c"},"vehicle_type_id":"4","last_reported":1721077718,"current_range_meters":16800,"station_id":"ce4bgvp2rcd13ifvqcu0","pricing_plan_id":"cebpf4jnsgd1na2vs0mg"},{"bike_id":"eba20e44-b661-4b00-a7b8-0fb254cfda8e","system_id":"levelo_inurba_marseille","lat":43.313291,"lon":5.396838,"is_reserved":false,"is_disabled":false,"rental_uris":{"android":"levelo://app?vid=eba20e44-b661-4b00-a7b8-0fb254cfda8e","ios":"levelo://app?vid=eba20e44-b661-4b00-a7b8-0fb254cfda8e"},"vehicle_type_id":"4","last_reported":1721077718,"current_range_meters":17600,"station_id":"ce4bgvp2rcd13ifvqcu0","pricing_plan_id":"cebpf4jnsgd1na2vs0mg"},{"bike_id":"467d94d7-bf16-4116-b490-1240d0351935","system_id":"levelo_inurba_marseille","lat":43.313291,"lon":5.396838,"is_reserved":false,"is_disabled":false,"rental_uris":{"android":"levelo://app?vid=467d94d7-bf16-4116-b490-1240d0351935","ios":"levelo://app?vid=467d94d7-bf16-4116-b490-1240d0351935"},"vehicle_type_id":"4","last_reported":1721077718,"current_range_meters":8000,"station_id":"ce4bgvp2rcd13ifvqcu0","pricing_plan_id":"cebpf4jnsgd1na2vs0mg"},{"bike_id":"97608309-b225-4239-b711-401e3304d8d3","system_id":"levelo_inurba_marseille","lat":43.313291,"lon":5.396838,"is_reserved":false,"is_disabled":false,"rental_uris":{"android":"levelo://app?vid=97608309-b225-4239-b711-401e3304d8d3","ios":"levelo://app?vid=97608309-b225-4239-b711-401e3304d8d3"},"vehicle_type_id":"4","last_reported":1721077718,"current_range_meters":22400,"station_id":"ce4bgvp2rcd13ifvqcu0","pricing_plan_id":"cebpf4jnsgd1na2vs0mg"},{"bike_id":"4ede3fd9-0f8c-4d92-a65d-a0102a05398c","system_id":"levelo_inurba_marseille","lat":43.313291,"lon":5.396838,"is_reserved":false,"is_disabled":false,"rental_uris":{"android":"levelo://app?vid=4ede3fd9-0f8c-4d92-a65d-a0102a05398c","ios":"levelo://app?vid=4ede3fd9-0f8c-4d92-a65d-a0102a05398c"},"vehicle_type_id":"4","last_reported":1721077718,"current_range_meters":24800,"station_id":"ce4bgvp2rcd13ifvqcu0","pricing_plan_id":"cebpf4jnsgd1na2vs0mg"},{"bike_id":"57b7f5e7-7c2d-40ba-a688-4624d77c7bed","system_id":"levelo_inurba_marseille","lat":43.313291,"lon":5.396838,"is_reserved":false,"is_disabled":false,"rental_uris":{"android":"levelo://app?vid=57b7f5e7-7c2d-40ba-a688-4624d77c7bed","ios":"levelo://app?vid=57b7f5e7-7c2d-40ba-a688-4624d77c7bed"},"vehicle_type_id":"4","last_reported":1721077718,"current_range_meters":0,"station_id":"ce4bgvp2rcd13ifvqcu0","pricing_plan_id":"cebpf4jnsgd1na2vs0mg"},{"bike_id":"fd7e9e54-86d1-4c0e-9eb6-37c6edb6045f","system_id":"levelo_inurba_marseille","lat":43.313291,"lon":5.396838,"is_reserved":false,"is_disabled":false,"rental_uris":{"android":"levelo://app?vid=fd7e9e54-86d1-4c0e-9eb6-37c6edb6045f","ios":"levelo://app?vid=fd7e9e54-86d1-4c0e-9eb6-37c6edb6045f"},"vehicle_type_id":"4","last_reported":1721077718,"current_range_meters":6400,"station_id":"ce4bgvp2rcd13ifvqcu0","pricing_plan_id":"cebpf4jnsgd1na2vs0mg"},{"bike_id":"1b991b1a-888c-4fcf-bb18-ddca30d642e7","system_id":"levelo_inurba_marseille","lat":43.313291,"lon":5.396838,"is_reserved":false,"is_disabled":false,"rental_uris":{"android":"levelo://app?vid=1b991b1a-888c-4fcf-bb18-ddca30d642e7","ios":"levelo://app?vid=1b991b1a-888c-4fcf-bb18-ddca30d642e7"},"vehicle_type_id":"4","last_reported":1721077718,"current_range_meters":3200,"station_id":"ce4bgvp2rcd13ifvqcu0","pricing_plan_id":"cebpf4jnsgd1na2vs0mg"},{"bike_id":"d33af72b-54cf-41f7-a26c-1977ef9e41e4","system_id":"levelo_inurba_marseille","lat":43.313291,"lon":5.396838,"is_reserved":false,"is_disabled":false,"rental_uris":{"android":"levelo://app?vid=d33af72b-54cf-41f7-a26c-1977ef9e41e4","ios":"levelo://app?vid=d33af72b-54cf-41f7-a26c-1977ef9e41e4"},"vehicle_type_id":"4","last_reported":1721077718,"current_range_meters":13600,"station_id":"ce4bgvp2rcd13ifvqcu0","pricing_plan_id":"cebpf4jnsgd1na2vs0mg"},{"bike_id":"23a5c049-faf7-41a3-a1b2-cf0773576bbb","system_id":"levelo_inurba_marseille","lat":43.30889,"lon":5.39645,"is_reserved":false,"is_disabled":false,"rental_uris":{"android":"levelo://app?vid=23a5c049-faf7-41a3-a1b2-cf0773576bbb","ios":"levelo://app?vid=23a5c049-faf7-41a3-a1b2-cf0773576bbb"},"vehicle_type_id":"4","last_reported":1721077718,"current_range_meters":2800,"station_id":"ce4bh012rcd13ifvqcv0","pricing_plan_id":"cebpf4jnsgd1na2vs0mg"},{"bike_id":"7d58c90f-18e8-431e-a20b-2c0fa203c41a","system_id":"levelo_inurba_marseille","lat":43.313291,"lon":5.396838,"is_reserved":false,"is_disabled":false,"rental_uris":{"android":"levelo://app?vid=7d58c90f-18e8-431e-a20b-2c0fa203c41a","ios":"levelo://app?vid=7d58c90f-18e8-431e-a20b-2c0fa203c41a"},"vehicle_type_id":"4","last_reported":1721077718,"current_range_meters":7200,"station_id":"ce4bgvp2rcd13ifvqcu0","pricing_plan_id":"cebpf4jnsgd1na2vs0mg"},{"bike_id":"c72cecce-c1bc-4a37-ab5d-57911cde1d07","system_id":"levelo_inurba_marseille","lat":43.313291,"lon":5.396838,"is_reserved":false,"is_disabled":false,"rental_uris":{"android":"levelo://app?vid=c72cecce-c1bc-4a37-ab5d-57911cde1d07","ios":"levelo://app?vid=c72cecce-c1bc-4a37-ab5d-57911cde1d07"},"vehicle_type_id":"4","last_reported":1721077718,"current_range_meters":10400,"station_id":"ce4bgvp2rcd13ifvqcu0","pricing_plan_id":"cebpf4jnsgd1na2vs0mg"},{"bike_id":"8c1f648c-b7e4-485c-8dc4-a6a969bd0951","system_id":"levelo_inurba_marseille","lat":43.309038,"lon":5.396546,"is_reserved":false,"is_disabled":false,"rental_uris":{"android":"levelo://app?vid=8c1f648c-b7e4-485c-8dc4-a6a969bd0951","ios":"levelo://app?vid=8c1f648c-b7e4-485c-8dc4-a6a969bd0951"},"vehicle_type_id":"4","last_reported":1721077718,"current_range_meters":29200,"station_id":"ce4bh012rcd13ifvqcv0","pricing_plan_id":"cebpf4jnsgd1na2vs0mg"},{"bike_id":"bfabd9d4-9dbf-49f1-b31d-143a21fd61d7","system_id":"levelo_inurba_marseille","lat":43.30882,"lon":5.39655,"is_reserved":false,"is_disabled":false,"rental_uris":{"android":"levelo://app?vid=bfabd9d4-9dbf-49f1-b31d-143a21fd61d7","ios":"levelo://app?vid=bfabd9d4-9dbf-49f1-b31d-143a21fd61d7"},"vehicle_type_id":"4","last_reported":1721077718,"current_range_meters":400,"station_id":"ce4bh012rcd13ifvqcv0","pricing_plan_id":"cebpf4jnsgd1na2vs0mg"},{"bike_id":"2154a989-cc0d-4d85-80a5-b9bb25934103","system_id":"levelo_inurba_marseille","lat":43.309038,"lon":5.396546,"is_reserved":false,"is_disabled":false,"rental_uris":{"android":"levelo://app?vid=2154a989-cc0d-4d85-80a5-b9bb25934103","ios":"levelo://app?vid=2154a989-cc0d-4d85-80a5-b9bb25934103"},"vehicle_type_id":"4","last_reported":1721077718,"current_range_meters":30000,"station_id":"ce4bh012rcd13ifvqcv0","pricing_plan_id":"cebpf4jnsgd1na2vs0mg"},{"bike_id":"a4a2aad7-942e-4e81-b5d0-685b4014624c","system_id":"levelo_inurba_marseille","lat":43.30888,"lon":5.39658,"is_reserved":false,"is_disabled":false,"rental_uris":{"android":"levelo://app?vid=a4a2aad7-942e-4e81-b5d0-685b4014624c","ios":"levelo://app?vid=a4a2aad7-942e-4e81-b5d0-685b4014624c"},"vehicle_type_id":"4","last_reported":1721077718,"current_range_meters":2800,"station_id":"ce4bh012rcd13ifvqcv0","pricing_plan_id":"cebpf4jnsgd1na2vs0mg"},{"bike_id":"698cb30f-9942-48cc-b19b-90bf2537b4e6","system_id":"levelo_inurba_marseille","lat":43.30891,"lon":5.39661,"is_reserved":false,"is_disabled":false,"rental_uris":{"android":"levelo://app?vid=698cb30f-9942-48cc-b19b-90bf2537b4e6","ios":"levelo://app?vid=698cb30f-9942-48cc-b19b-90bf2537b4e6"},"vehicle_type_id":"4","last_reported":1721077718,"current_range_meters":10000,"station_id":"ce4bh012rcd13ifvqcv0","pricing_plan_id":"cebpf4jnsgd1na2vs0mg"},{"bike_id":"104a4ac4-6c08-4caf-816d-3c4e1693364b","system_id":"levelo_inurba_marseille","lat":43.309047,"lon":5.396551,"is_reserved":false,"is_disabled":false,"rental_uris":{"android":"levelo://app?vid=104a4ac4-6c08-4caf-816d-3c4e1693364b","ios":"levelo://app?vid=104a4ac4-6c08-4caf-816d-3c4e1693364b"},"vehicle_type_id":"4","last_reported":1721077718,"current_range_meters":3200,"station_id":"ce4bh012rcd13ifvqcv0","pricing_plan_id":"cebpf4jnsgd1na2vs0mg"},{"bike_id":"7fe6df6b-45c7-492d-a9ce-534a27c23c0f","system_id":"levelo_inurba_marseille","lat":43.29531,"lon":5.38537,"is_reserved":false,"is_disabled":false,"rental_uris":{"android":"levelo://app?vid=7fe6df6b-45c7-492d-a9ce-534a27c23c0f","ios":"levelo://app?vid=7fe6df6b-45c7-492d-a9ce-534a27c23c0f"},"vehicle_type_id":"4","last_reported":1721077718,"current_range_meters":24000,"station_id":"ce4bgih2rcd13ifvqba0","pricing_plan_id":"cebpf4jnsgd1na2vs0mg"},{"bike_id":"192f1001-cab0-4e82-998e-bb85d687d03e","system_id":"levelo_inurba_marseille","lat":43.29529,"lon":5.385581,"is_reserved":false,"is_disabled":false,"rental_uris":{"android":"levelo://app?vid=192f1001-cab0-4e82-998e-bb85d687d03e","ios":"levelo://app?vid=192f1001-cab0-4e82-998e-bb85d687d03e"},"vehicle_type_id":"4","last_reported":1721077718,"current_range_meters":24000,"station_id":"ce4bgih2rcd13ifvqba0","pricing_plan_id":"cebpf4jnsgd1na2vs0mg"},{"bike_id":"ef321898-352e-4b38-ada5-38bc7ec5ec16","system_id":"levelo_inurba_marseille","lat":43.29529,"lon":5.385581,"is_reserved":false,"is_disabled":false,"rental_uris":{"android":"levelo://app?vid=ef321898-352e-4b38-ada5-38bc7ec5ec16","ios":"levelo://app?vid=ef321898-352e-4b38-ada5-38bc7ec5ec16"},"vehicle_type_id":"4","last_reported":1721077718,"current_range_meters":22400,"station_id":"ce4bgih2rcd13ifvqba0","pricing_plan_id":"cebpf4jnsgd1na2vs0mg"},{"bike_id":"315814a1-6bb2-494d-befe-814b9cd93406","system_id":"levelo_inurba_marseille","lat":43.29528,"lon":5.38539,"is_reserved":false,"is_disabled":false,"rental_uris":{"android":"levelo://app?vid=315814a1-6bb2-494d-befe-814b9cd93406","ios":"levelo://app?vid=315814a1-6bb2-494d-befe-814b9cd93406"},"vehicle_type_id":"4","last_reported":1721077718,"current_range_meters":22000,"station_id":"ce4bgih2rcd13ifvqba0","pricing_plan_id":"cebpf4jnsgd1na2vs0mg"},{"bike_id":"5bf12592-adba-4840-86cb-41205857a36e","system_id":"levelo_inurba_marseille","lat":43.29529,"lon":5.38541,"is_reserved":false,"is_disabled":false,"rental_uris":{"android":"levelo://app?vid=5bf12592-adba-4840-86cb-41205857a36e","ios":"levelo://app?vid=5bf12592-adba-4840-86cb-41205857a36e"},"vehicle_type_id":"4","last_reported":1721077718,"current_range_meters":14800,"station_id":"ce4bgih2rcd13ifvqba0","pricing_plan_id":"cebpf4jnsgd1na2vs0mg"},{"bike_id":"4cfb4735-43ef-4e87-8d2a-c0e858b4802b","system_id":"levelo_inurba_marseille","lat":43.29526,"lon":5.38536,"is_reserved":false,"is_disabled":false,"rental_uris":{"android":"levelo://app?vid=4cfb4735-43ef-4e87-8d2a-c0e858b4802b","ios":"levelo://app?vid=4cfb4735-43ef-4e87-8d2a-c0e858b4802b"},"vehicle_type_id":"4","last_reported":1721077718,"current_range_meters":18800,"station_id":"ce4bgih2rcd13ifvqba0","pricing_plan_id":"cebpf4jnsgd1na2vs0mg"},{"bike_id":"f1bf2e2e-7a02-410d-bece-2c81f74959c6","system_id":"levelo_inurba_marseille","lat":43.295285,"lon":5.385415,"is_reserved":false,"is_disabled":false,"rental_uris":{"android":"levelo://app?vid=f1bf2e2e-7a02-410d-bece-2c81f74959c6","ios":"levelo://app?vid=f1bf2e2e-7a02-410d-bece-2c81f74959c6"},"vehicle_type_id":"4","last_reported":1721077718,"current_range_meters":31200,"station_id":"ce4bgih2rcd13ifvqba0","pricing_plan_id":"cebpf4jnsgd1na2vs0mg"},{"bike_id":"148c33d6-3524-4bf4-a96f-d49bf84763cc","system_id":"levelo_inurba_marseille","lat":43.29533,"lon":5.3855,"is_reserved":false,"is_disabled":false,"rental_uris":{"android":"levelo://app?vid=148c33d6-3524-4bf4-a96f-d49bf84763cc","ios":"levelo://app?vid=148c33d6-3524-4bf4-a96f-d49bf84763cc"},"vehicle_type_id":"4","last_reported":1721077718,"current_range_meters":25600,"station_id":"ce4bgih2rcd13ifvqba0","pricing_plan_id":"cebpf4jnsgd1na2vs0mg"},{"bike_id":"0a9b9a2c-2a8f-46ed-8cd0-14dae54a4934","system_id":"levelo_inurba_marseille","lat":43.295295,"lon":5.38544,"is_reserved":false,"is_disabled":false,"rental_uris":{"android":"levelo://app?vid=0a9b9a2c-2a8f-46ed-8cd0-14dae54a4934","ios":"levelo://app?vid=0a9b9a2c-2a8f-46ed-8cd0-14dae54a4934"},"vehicle_type_id":"4","last_reported":1721077718,"current_range_meters":11600,"station_id":"ce4bgih2rcd13ifvqba0","pricing_plan_id":"cebpf4jnsgd1na2vs0mg"},{"bike_id":"479865fc-71e3-4e2a-8ee6-1c0039f6aa77","system_id":"levelo_inurba_marseille","lat":43.29531,"lon":5.38547,"is_reserved":false,"is_disabled":false,"rental_uris":{"android":"levelo://app?vid=479865fc-71e3-4e2a-8ee6-1c0039f6aa77","ios":"levelo://app?vid=479865fc-71e3-4e2a-8ee6-1c0039f6aa77"},"vehicle_type_id":"4","last_reported":1721077718,"current_range_meters":0,"station_id":"ce4bgih2rcd13ifvqba0","pricing_plan_id":"cebpf4jnsgd1na2vs0mg"},{"bike_id":"2eb75c92-c566-44d9-9416-08cc4779a2da","system_id":"levelo_inurba_marseille","lat":43.29527,"lon":5.38542,"is_reserved":false,"is_disabled":false,"rental_uris":{"android":"levelo://app?vid=2eb75c92-c566-44d9-9416-08cc4779a2da","ios":"levelo://app?vid=2eb75c92-c566-44d9-9416-08cc4779a2da"},"vehicle_type_id":"4","last_reported":1721077718,"current_range_meters":25200,"station_id":"ce4bgih2rcd13ifvqba0","pricing_plan_id":"cebpf4jnsgd1na2vs0mg"},{"bike_id":"6c4274a9-a78f-4ab4-b82d-612495c1a606","system_id":"levelo_inurba_marseille","lat":43.29528,"lon":5.38544,"is_reserved":false,"is_disabled":false,"rental_uris":{"android":"levelo://app?vid=6c4274a9-a78f-4ab4-b82d-612495c1a606","ios":"levelo://app?vid=6c4274a9-a78f-4ab4-b82d-612495c1a606"},"vehicle_type_id":"4","last_reported":1721077718,"current_range_meters":2800,"station_id":"ce4bgih2rcd13ifvqba0","pricing_plan_id":"cebpf4jnsgd1na2vs0mg"},{"bike_id":"41251a61-0a32-4fb1-9713-2250a2be0b3e","system_id":"levelo_inurba_marseille","lat":43.29523,"lon":5.38543,"is_reserved":false,"is_disabled":false,"rental_uris":{"android":"levelo://app?vid=41251a61-0a32-4fb1-9713-2250a2be0b3e","ios":"levelo://app?vid=41251a61-0a32-4fb1-9713-2250a2be0b3e"},"vehicle_type_id":"4","last_reported":1721077718,"current_range_meters":30000,"station_id":"ce4bgih2rcd13ifvqba0","pricing_plan_id":"cebpf4jnsgd1na2vs0mg"},{"bike_id":"7217281f-4138-409f-9dd8-a7823ff118be","system_id":"levelo_inurba_marseille","lat":43.29082,"lon":5.37164,"is_reserved":false,"is_disabled":false,"rental_uris":{"android":"levelo://app?vid=7217281f-4138-409f-9dd8-a7823ff118be","ios":"levelo://app?vid=7217281f-4138-409f-9dd8-a7823ff118be"},"vehicle_type_id":"4","last_reported":1721077718,"current_range_meters":31200,"station_id":"ce4bh5p2rcd13ifvqe4g","pricing_plan_id":"cebpf4jnsgd1na2vs0mg"},{"bike_id":"feeed9a0-810e-4903-8537-c069eb064158","system_id":"levelo_inurba_marseille","lat":43.31677,"lon":5.39694,"is_reserved":false,"is_disabled":false,"rental_uris":{"android":"levelo://app?vid=feeed9a0-810e-4903-8537-c069eb064158","ios":"levelo://app?vid=feeed9a0-810e-4903-8537-c069eb064158"},"vehicle_type_id":"4","last_reported":1721077718,"current_range_meters":2400,"station_id":"","pricing_plan_id":"cebpf4jnsgd1na2vs0mg"},{"bike_id":"dd9585df-a533-4457-9c30-46954e2ab6a1","system_id":"levelo_inurba_marseille","lat":43.290779,"lon":5.371482,"is_reserved":false,"is_disabled":false,"rental_uris":{"android":"levelo://app?vid=dd9585df-a533-4457-9c30-46954e2ab6a1","ios":"levelo://app?vid=dd9585df-a533-4457-9c30-46954e2ab6a1"},"vehicle_type_id":"4","last_reported":1721077718,"current_range_meters":30800,"station_id":"ce4bh5p2rcd13ifvqe4g","pricing_plan_id":"cebpf4jnsgd1na2vs0mg"},{"bike_id":"5d53eb42-bddf-4f46-b4df-b25f713752ac","system_id":"levelo_inurba_marseille","lat":43.29063,"lon":5.3716,"is_reserved":false,"is_disabled":false,"rental_uris":{"android":"levelo://app?vid=5d53eb42-bddf-4f46-b4df-b25f713752ac","ios":"levelo://app?vid=5d53eb42-bddf-4f46-b4df-b25f713752ac"},"vehicle_type_id":"4","last_reported":1721077718,"current_range_meters":30000,"station_id":"ce4bh5p2rcd13ifvqe4g","pricing_plan_id":"cebpf4jnsgd1na2vs0mg"},{"bike_id":"30c450fa-3a7a-43de-8814-24d9e4c4188c","system_id":"levelo_inurba_marseille","lat":43.302008,"lon":5.394694,"is_reserved":false,"is_disabled":false,"rental_uris":{"android":"levelo://app?vid=30c450fa-3a7a-43de-8814-24d9e4c4188c","ios":"levelo://app?vid=30c450fa-3a7a-43de-8814-24d9e4c4188c"},"vehicle_type_id":"4","last_reported":1721077718,"current_range_meters":24000,"station_id":"ce4bh0p2rcd13ifvqd70","pricing_plan_id":"cebpf4jnsgd1na2vs0mg"},{"bike_id":"d1834e08-a01a-404e-8d3a-05f5c48c1598","system_id":"levelo_inurba_marseille","lat":43.309038,"lon":5.396546,"is_reserved":false,"is_disabled":false,"rental_uris":{"android":"levelo://app?vid=d1834e08-a01a-404e-8d3a-05f5c48c1598","ios":"levelo://app?vid=d1834e08-a01a-404e-8d3a-05f5c48c1598"},"vehicle_type_id":"4","last_reported":1721077718,"current_range_meters":2800,"station_id":"ce4bh012rcd13ifvqcv0","pricing_plan_id":"cebpf4jnsgd1na2vs0mg"},{"bike_id":"1e172c8a-6c2c-4cd0-9dbd-42fa4e45be33","system_id":"levelo_inurba_marseille","lat":43.302008,"lon":5.394694,"is_reserved":false,"is_disabled":false,"rental_uris":{"android":"levelo://app?vid=1e172c8a-6c2c-4cd0-9dbd-42fa4e45be33","ios":"levelo://app?vid=1e172c8a-6c2c-4cd0-9dbd-42fa4e45be33"},"vehicle_type_id":"4","last_reported":1721077718,"current_range_meters":12800,"station_id":"ce4bh0p2rcd13ifvqd70","pricing_plan_id":"cebpf4jnsgd1na2vs0mg"},{"bike_id":"a2c4940c-894e-486d-bfa0-77d4c4482e23","system_id":"levelo_inurba_marseille","lat":43.290327,"lon":5.375711,"is_reserved":false,"is_disabled":false,"rental_uris":{"android":"levelo://app?vid=a2c4940c-894e-486d-bfa0-77d4c4482e23","ios":"levelo://app?vid=a2c4940c-894e-486d-bfa0-77d4c4482e23"},"vehicle_type_id":"4","last_reported":1721077718,"current_range_meters":20000,"station_id":"ce4bh692rcd13ifvqe90","pricing_plan_id":"cebpf4jnsgd1na2vs0mg"},{"bike_id":"e6fe5880-c4b4-4933-b050-fc831b3e73c9","system_id":"levelo_inurba_marseille","lat":43.29414,"lon":5.38615,"is_reserved":false,"is_disabled":false,"rental_uris":{"android":"levelo://app?vid=e6fe5880-c4b4-4933-b050-fc831b3e73c9","ios":"levelo://app?vid=e6fe5880-c4b4-4933-b050-fc831b3e73c9"},"vehicle_type_id":"4","last_reported":1721077718,"current_range_meters":14000,"station_id":"ce4bh2h2rcd13ifvqdh0","pricing_plan_id":"cebpf4jnsgd1na2vs0mg"},{"bike_id":"3a7daf3e-55c4-408e-bef2-f24bf6e1679c","system_id":"levelo_inurba_marseille","lat":43.2942,"lon":5.38627,"is_reserved":false,"is_disabled":false,"rental_uris":{"android":"levelo://app?vid=3a7daf3e-55c4-408e-bef2-f24bf6e1679c","ios":"levelo://app?vid=3a7daf3e-55c4-408e-bef2-f24bf6e1679c"},"vehicle_type_id":"4","last_reported":1721077718,"current_range_meters":24400,"station_id":"ce4bh2h2rcd13ifvqdh0","pricing_plan_id":"cebpf4jnsgd1na2vs0mg"},{"bike_id":"89a77794-5826-492c-ac6d-ab7bf78abf84","system_id":"levelo_inurba_marseille","lat":43.29417,"lon":5.38622,"is_reserved":false,"is_disabled":false,"rental_uris":{"android":"levelo://app?vid=89a77794-5826-492c-ac6d-ab7bf78abf84","ios":"levelo://app?vid=89a77794-5826-492c-ac6d-ab7bf78abf84"},"vehicle_type_id":"4","last_reported":1721077718,"current_range_meters":18400,"station_id":"ce4bh2h2rcd13ifvqdh0","pricing_plan_id":"cebpf4jnsgd1na2vs0mg"},{"bike_id":"225d43dc-a740-4a83-9468-48aa32eabfb0","system_id":"levelo_inurba_marseille","lat":43.294162,"lon":5.386292,"is_reserved":false,"is_disabled":false,"rental_uris":{"android":"levelo://app?vid=225d43dc-a740-4a83-9468-48aa32eabfb0","ios":"levelo://app?vid=225d43dc-a740-4a83-9468-48aa32eabfb0"},"vehicle_type_id":"4","last_reported":1721077718,"current_range_meters":31600,"station_id":"ce4bh2h2rcd13ifvqdh0","pricing_plan_id":"cebpf4jnsgd1na2vs0mg"},{"bike_id":"f4072de1-84e4-4dd1-902d-563338d11b06","system_id":"levelo_inurba_marseille","lat":43.29417,"lon":5.38625,"is_reserved":false,"is_disabled":false,"rental_uris":{"android":"levelo://app?vid=f4072de1-84e4-4dd1-902d-563338d11b06","ios":"levelo://app?vid=f4072de1-84e4-4dd1-902d-563338d11b06"},"vehicle_type_id":"4","last_reported":1721077718,"current_range_meters":28400,"station_id":"ce4bh2h2rcd13ifvqdh0","pricing_plan_id":"cebpf4jnsgd1na2vs0mg"},{"bike_id":"6862552c-b4bf-4d64-b676-a4e338e05b13","system_id":"levelo_inurba_marseille","lat":43.294162,"lon":5.386292,"is_reserved":false,"is_disabled":false,"rental_uris":{"android":"levelo://app?vid=6862552c-b4bf-4d64-b676-a4e338e05b13","ios":"levelo://app?vid=6862552c-b4bf-4d64-b676-a4e338e05b13"},"vehicle_type_id":"4","last_reported":1721077718,"current_range_meters":1200,"station_id":"ce4bh2h2rcd13ifvqdh0","pricing_plan_id":"cebpf4jnsgd1na2vs0mg"},{"bike_id":"d4bc6245-9b21-4091-8463-b2b26cc895a9","system_id":"levelo_inurba_marseille","lat":43.29416,"lon":5.38626,"is_reserved":false,"is_disabled":false,"rental_uris":{"android":"levelo://app?vid=d4bc6245-9b21-4091-8463-b2b26cc895a9","ios":"levelo://app?vid=d4bc6245-9b21-4091-8463-b2b26cc895a9"},"vehicle_type_id":"4","last_reported":1721077718,"current_range_meters":19600,"station_id":"ce4bh2h2rcd13ifvqdh0","pricing_plan_id":"cebpf4jnsgd1na2vs0mg"},{"bike_id":"4b2e713a-1df6-429b-b16c-153eb2d9a9f0","system_id":"levelo_inurba_marseille","lat":43.294162,"lon":5.386292,"is_reserved":false,"is_disabled":false,"rental_uris":{"android":"levelo://app?vid=4b2e713a-1df6-429b-b16c-153eb2d9a9f0","ios":"levelo://app?vid=4b2e713a-1df6-429b-b16c-153eb2d9a9f0"},"vehicle_type_id":"4","last_reported":1721077718,"current_range_meters":31600,"station_id":"ce4bh2h2rcd13ifvqdh0","pricing_plan_id":"cebpf4jnsgd1na2vs0mg"},{"bike_id":"58ea41af-4106-45f7-8d00-f9cccd4f2be6","system_id":"levelo_inurba_marseille","lat":43.29412,"lon":5.3862,"is_reserved":false,"is_disabled":false,"rental_uris":{"android":"levelo://app?vid=58ea41af-4106-45f7-8d00-f9cccd4f2be6","ios":"levelo://app?vid=58ea41af-4106-45f7-8d00-f9cccd4f2be6"},"vehicle_type_id":"4","last_reported":1721077718,"current_range_meters":10800,"station_id":"ce4bh2h2rcd13ifvqdh0","pricing_plan_id":"cebpf4jnsgd1na2vs0mg"},{"bike_id":"e52b70f7-aec2-4044-bdfa-4ceb6a66b96a","system_id":"levelo_inurba_marseille","lat":43.294162,"lon":5.386292,"is_reserved":false,"is_disabled":false,"rental_uris":{"android":"levelo://app?vid=e52b70f7-aec2-4044-bdfa-4ceb6a66b96a","ios":"levelo://app?vid=e52b70f7-aec2-4044-bdfa-4ceb6a66b96a"},"vehicle_type_id":"4","last_reported":1721077718,"current_range_meters":11200,"station_id":"ce4bh2h2rcd13ifvqdh0","pricing_plan_id":"cebpf4jnsgd1na2vs0mg"},{"bike_id":"e575d545-dfc7-4ea0-9272-e92d6b6fd6f1","system_id":"levelo_inurba_marseille","lat":43.294162,"lon":5.386292,"is_reserved":false,"is_disabled":false,"rental_uris":{"android":"levelo://app?vid=e575d545-dfc7-4ea0-9272-e92d6b6fd6f1","ios":"levelo://app?vid=e575d545-dfc7-4ea0-9272-e92d6b6fd6f1"},"vehicle_type_id":"4","last_reported":1721077718,"current_range_meters":26800,"station_id":"ce4bh2h2rcd13ifvqdh0","pricing_plan_id":"cebpf4jnsgd1na2vs0mg"},{"bike_id":"03e0faa7-4f35-4abd-978b-5917242638a7","system_id":"levelo_inurba_marseille","lat":43.294162,"lon":5.386292,"is_reserved":false,"is_disabled":false,"rental_uris":{"android":"levelo://app?vid=03e0faa7-4f35-4abd-978b-5917242638a7","ios":"levelo://app?vid=03e0faa7-4f35-4abd-978b-5917242638a7"},"vehicle_type_id":"4","last_reported":1721077718,"current_range_meters":31200,"station_id":"ce4bh2h2rcd13ifvqdh0","pricing_plan_id":"cebpf4jnsgd1na2vs0mg"},{"bike_id":"787d103a-ac2d-41f5-b92b-7996e1fd3cf0","system_id":"levelo_inurba_marseille","lat":43.294162,"lon":5.386292,"is_reserved":false,"is_disabled":false,"rental_uris":{"android":"levelo://app?vid=787d103a-ac2d-41f5-b92b-7996e1fd3cf0","ios":"levelo://app?vid=787d103a-ac2d-41f5-b92b-7996e1fd3cf0"},"vehicle_type_id":"4","last_reported":1721077718,"current_range_meters":30400,"station_id":"ce4bh2h2rcd13ifvqdh0","pricing_plan_id":"cebpf4jnsgd1na2vs0mg"},{"bike_id":"f294cede-1903-463d-bb4e-1d0f1336e15f","system_id":"levelo_inurba_marseille","lat":43.28938,"lon":5.36634,"is_reserved":false,"is_disabled":false,"rental_uris":{"android":"levelo://app?vid=f294cede-1903-463d-bb4e-1d0f1336e15f","ios":"levelo://app?vid=f294cede-1903-463d-bb4e-1d0f1336e15f"},"vehicle_type_id":"4","last_reported":1721077718,"current_range_meters":27600,"station_id":"ce4bhap2rcd13ifvqek0","pricing_plan_id":"cebpf4jnsgd1na2vs0mg"},{"bike_id":"b96c0846-13f8-447c-8daa-da0fe1f32ef4","system_id":"levelo_inurba_marseille","lat":43.29413,"lon":5.38638,"is_reserved":false,"is_disabled":false,"rental_uris":{"android":"levelo://app?vid=b96c0846-13f8-447c-8daa-da0fe1f32ef4","ios":"levelo://app?vid=b96c0846-13f8-447c-8daa-da0fe1f32ef4"},"vehicle_type_id":"4","last_reported":1721077718,"current_range_meters":5600,"station_id":"ce4bh2h2rcd13ifvqdh0","pricing_plan_id":"cebpf4jnsgd1na2vs0mg"},{"bike_id":"cf102a42-98c4-4d53-b591-6c7a0f470d63","system_id":"levelo_inurba_marseille","lat":43.29409,"lon":5.38636,"is_reserved":false,"is_disabled":false,"rental_uris":{"android":"levelo://app?vid=cf102a42-98c4-4d53-b591-6c7a0f470d63","ios":"levelo://app?vid=cf102a42-98c4-4d53-b591-6c7a0f470d63"},"vehicle_type_id":"4","last_reported":1721077718,"current_range_meters":13600,"station_id":"ce4bh2h2rcd13ifvqdh0","pricing_plan_id":"cebpf4jnsgd1na2vs0mg"},{"bike_id":"85aecc78-4150-445a-be4b-0ba22eaa04cd","system_id":"levelo_inurba_marseille","lat":43.305994,"lon":5.393687,"is_reserved":false,"is_disabled":false,"rental_uris":{"android":"levelo://app?vid=85aecc78-4150-445a-be4b-0ba22eaa04cd","ios":"levelo://app?vid=85aecc78-4150-445a-be4b-0ba22eaa04cd"},"vehicle_type_id":"4","last_reported":1721077718,"current_range_meters":17600,"station_id":"ce4bh0p2rcd13ifvqd80","pricing_plan_id":"cebpf4jnsgd1na2vs0mg"},{"bike_id":"6aea7073-2d91-4e8b-b2a9-f5a9dc7f9776","system_id":"levelo_inurba_marseille","lat":43.290995,"lon":5.381361,"is_reserved":false,"is_disabled":false,"rental_uris":{"android":"levelo://app?vid=6aea7073-2d91-4e8b-b2a9-f5a9dc7f9776","ios":"levelo://app?vid=6aea7073-2d91-4e8b-b2a9-f5a9dc7f9776"},"vehicle_type_id":"4","last_reported":1721077718,"current_range_meters":27200,"station_id":"ce4bh512rcd13ifvqe2g","pricing_plan_id":"cebpf4jnsgd1na2vs0mg"},{"bike_id":"8b4770b7-d05f-47e0-a738-229847dbd22d","system_id":"levelo_inurba_marseille","lat":43.304274,"lon":5.397513,"is_reserved":false,"is_disabled":false,"rental_uris":{"android":"levelo://app?vid=8b4770b7-d05f-47e0-a738-229847dbd22d","ios":"levelo://app?vid=8b4770b7-d05f-47e0-a738-229847dbd22d"},"vehicle_type_id":"4","last_reported":1721077718,"current_range_meters":27600,"station_id":"ce4bh092rcd13ifvqd20","pricing_plan_id":"cebpf4jnsgd1na2vs0mg"},{"bike_id":"7194ade8-7ad6-40b7-8506-a50d1f1a0545","system_id":"levelo_inurba_marseille","lat":43.29267,"lon":5.38443,"is_reserved":false,"is_disabled":false,"rental_uris":{"android":"levelo://app?vid=7194ade8-7ad6-40b7-8506-a50d1f1a0545","ios":"levelo://app?vid=7194ade8-7ad6-40b7-8506-a50d1f1a0545"},"vehicle_type_id":"4","last_reported":1721077718,"current_range_meters":0,"station_id":"ce4bh692rcd13ifvqea0","pricing_plan_id":"cebpf4jnsgd1na2vs0mg"},{"bike_id":"df900cae-5033-4dd6-90cd-1914658ee34e","system_id":"levelo_inurba_marseille","lat":43.292644,"lon":5.384257,"is_reserved":false,"is_disabled":false,"rental_uris":{"android":"levelo://app?vid=df900cae-5033-4dd6-90cd-1914658ee34e","ios":"levelo://app?vid=df900cae-5033-4dd6-90cd-1914658ee34e"},"vehicle_type_id":"4","last_reported":1721077718,"current_range_meters":0,"station_id":"ce4bh692rcd13ifvqea0","pricing_plan_id":"cebpf4jnsgd1na2vs0mg"},{"bike_id":"ca66b38b-8da9-43cb-8314-3dcb88626c16","system_id":"levelo_inurba_marseille","lat":43.290103,"lon":5.356114,"is_reserved":false,"is_disabled":false,"rental_uris":{"android":"levelo://app?vid=ca66b38b-8da9-43cb-8314-3dcb88626c16","ios":"levelo://app?vid=ca66b38b-8da9-43cb-8314-3dcb88626c16"},"vehicle_type_id":"4","last_reported":1721077718,"current_range_meters":400,"station_id":"ce4bhb92rcd13ifvqen0","pricing_plan_id":"cebpf4jnsgd1na2vs0mg"},{"bike_id":"ccdf1162-c19c-474a-98a2-05bbc5980572","system_id":"levelo_inurba_marseille","lat":43.28998,"lon":5.35612,"is_reserved":false,"is_disabled":false,"rental_uris":{"android":"levelo://app?vid=ccdf1162-c19c-474a-98a2-05bbc5980572","ios":"levelo://app?vid=ccdf1162-c19c-474a-98a2-05bbc5980572"},"vehicle_type_id":"4","last_reported":1721077718,"current_range_meters":0,"station_id":"ce4bhb92rcd13ifvqen0","pricing_plan_id":"cebpf4jnsgd1na2vs0mg"},{"bike_id":"d114279d-2ebc-42bf-8546-844c2e4138c0","system_id":"levelo_inurba_marseille","lat":43.295169,"lon":5.390426,"is_reserved":false,"is_disabled":false,"rental_uris":{"android":"levelo://app?vid=d114279d-2ebc-42bf-8546-844c2e4138c0","ios":"levelo://app?vid=d114279d-2ebc-42bf-8546-844c2e4138c0"},"vehicle_type_id":"4","last_reported":1721077718,"current_range_meters":26000,"station_id":"ce4bh3p2rcd13ifvqdp0","pricing_plan_id":"cebpf4jnsgd1na2vs0mg"},{"bike_id":"6034d009-9959-43a1-b355-747b7ea23837","system_id":"levelo_inurba_marseille","lat":43.29783,"lon":5.39334,"is_reserved":false,"is_disabled":false,"rental_uris":{"android":"levelo://app?vid=6034d009-9959-43a1-b355-747b7ea23837","ios":"levelo://app?vid=6034d009-9959-43a1-b355-747b7ea23837"},"vehicle_type_id":"4","last_reported":1721077718,"current_range_meters":0,"station_id":"chh1huq6cuj3fo74tm60","pricing_plan_id":"cebpf4jnsgd1na2vs0mg"},{"bike_id":"012b96f7-cfc4-4f5e-a45c-1bd0060450a6","system_id":"levelo_inurba_marseille","lat":43.29787,"lon":5.39343,"is_reserved":false,"is_disabled":false,"rental_uris":{"android":"levelo://app?vid=012b96f7-cfc4-4f5e-a45c-1bd0060450a6","ios":"levelo://app?vid=012b96f7-cfc4-4f5e-a45c-1bd0060450a6"},"vehicle_type_id":"4","last_reported":1721077718,"current_range_meters":0,"station_id":"chh1huq6cuj3fo74tm60","pricing_plan_id":"cebpf4jnsgd1na2vs0mg"},{"bike_id":"fda1bbf4-e488-42c8-81ee-758c03f2d178","system_id":"levelo_inurba_marseille","lat":43.29775,"lon":5.39337,"is_reserved":false,"is_disabled":false,"rental_uris":{"android":"levelo://app?vid=fda1bbf4-e488-42c8-81ee-758c03f2d178","ios":"levelo://app?vid=fda1bbf4-e488-42c8-81ee-758c03f2d178"},"vehicle_type_id":"4","last_reported":1721077718,"current_range_meters":11200,"station_id":"chh1huq6cuj3fo74tm60","pricing_plan_id":"cebpf4jnsgd1na2vs0mg"},{"bike_id":"7c87dbcf-b92e-41c5-ad5e-ee449606e970","system_id":"levelo_inurba_marseille","lat":43.330442,"lon":5.389148,"is_reserved":false,"is_disabled":false,"rental_uris":{"android":"levelo://app?vid=7c87dbcf-b92e-41c5-ad5e-ee449606e970","ios":"levelo://app?vid=7c87dbcf-b92e-41c5-ad5e-ee449606e970"},"vehicle_type_id":"4","last_reported":1721077718,"current_range_meters":25600,"station_id":"ce4bhr92rcd13ifvqhrg","pricing_plan_id":"cebpf4jnsgd1na2vs0mg"},{"bike_id":"760c1abd-c5b9-4ae2-983a-d42546fe985a","system_id":"levelo_inurba_marseille","lat":43.29784,"lon":5.3935,"is_reserved":false,"is_disabled":false,"rental_uris":{"android":"levelo://app?vid=760c1abd-c5b9-4ae2-983a-d42546fe985a","ios":"levelo://app?vid=760c1abd-c5b9-4ae2-983a-d42546fe985a"},"vehicle_type_id":"4","last_reported":1721077718,"current_range_meters":27200,"station_id":"chh1huq6cuj3fo74tm60","pricing_plan_id":"cebpf4jnsgd1na2vs0mg"},{"bike_id":"8a51abed-89e8-4f7c-9f5d-fa32b31ff087","system_id":"levelo_inurba_marseille","lat":43.330442,"lon":5.389148,"is_reserved":false,"is_disabled":false,"rental_uris":{"android":"levelo://app?vid=8a51abed-89e8-4f7c-9f5d-fa32b31ff087","ios":"levelo://app?vid=8a51abed-89e8-4f7c-9f5d-fa32b31ff087"},"vehicle_type_id":"4","last_reported":1721077718,"current_range_meters":15600,"station_id":"ce4bhr92rcd13ifvqhrg","pricing_plan_id":"cebpf4jnsgd1na2vs0mg"},{"bike_id":"6fbb33f3-f293-41d9-bcdc-96bae87e773c","system_id":"levelo_inurba_marseille","lat":43.33027,"lon":5.39034,"is_reserved":false,"is_disabled":false,"rental_uris":{"android":"levelo://app?vid=6fbb33f3-f293-41d9-bcdc-96bae87e773c","ios":"levelo://app?vid=6fbb33f3-f293-41d9-bcdc-96bae87e773c"},"vehicle_type_id":"4","last_reported":1721077718,"current_range_meters":2400,"station_id":"ce4bhr92rcd13ifvqhrg","pricing_plan_id":"cebpf4jnsgd1na2vs0mg"},{"bike_id":"e6ce4f82-890f-498b-bc5e-6dfd94dd6f5e","system_id":"levelo_inurba_marseille","lat":43.330442,"lon":5.389148,"is_reserved":false,"is_disabled":false,"rental_uris":{"android":"levelo://app?vid=e6ce4f82-890f-498b-bc5e-6dfd94dd6f5e","ios":"levelo://app?vid=e6ce4f82-890f-498b-bc5e-6dfd94dd6f5e"},"vehicle_type_id":"4","last_reported":1721077718,"current_range_meters":17600,"station_id":"ce4bhr92rcd13ifvqhrg","pricing_plan_id":"cebpf4jnsgd1na2vs0mg"},{"bike_id":"06547588-2cb9-465d-8cb2-1fadc86124a5","system_id":"levelo_inurba_marseille","lat":43.330442,"lon":5.389148,"is_reserved":false,"is_disabled":false,"rental_uris":{"android":"levelo://app?vid=06547588-2cb9-465d-8cb2-1fadc86124a5","ios":"levelo://app?vid=06547588-2cb9-465d-8cb2-1fadc86124a5"},"vehicle_type_id":"4","last_reported":1721077718,"current_range_meters":23600,"station_id":"ce4bhr92rcd13ifvqhrg","pricing_plan_id":"cebpf4jnsgd1na2vs0mg"},{"bike_id":"21130598-87a4-41e1-aed4-deeb6f4f8ac0","system_id":"levelo_inurba_marseille","lat":43.28972,"lon":5.35486,"is_reserved":false,"is_disabled":false,"rental_uris":{"android":"levelo://app?vid=21130598-87a4-41e1-aed4-deeb6f4f8ac0","ios":"levelo://app?vid=21130598-87a4-41e1-aed4-deeb6f4f8ac0"},"vehicle_type_id":"4","last_reported":1721077718,"current_range_meters":4800,"station_id":"","pricing_plan_id":"cebpf4jnsgd1na2vs0mg"},{"bike_id":"9ab229c1-b2c1-4ca1-bd15-d32e364d1a86","system_id":"levelo_inurba_marseille","lat":43.290094,"lon":5.381264,"is_reserved":false,"is_disabled":false,"rental_uris":{"android":"levelo://app?vid=9ab229c1-b2c1-4ca1-bd15-d32e364d1a86","ios":"levelo://app?vid=9ab229c1-b2c1-4ca1-bd15-d32e364d1a86"},"vehicle_type_id":"4","last_reported":1721077718,"current_range_meters":12400,"station_id":"ce4bh4p2rcd13ifvqe1g","pricing_plan_id":"cebpf4jnsgd1na2vs0mg"},{"bike_id":"e5f9b488-7ae3-4362-9941-63ecfec68cf1","system_id":"levelo_inurba_marseille","lat":43.2895,"lon":5.35475,"is_reserved":false,"is_disabled":false,"rental_uris":{"android":"levelo://app?vid=e5f9b488-7ae3-4362-9941-63ecfec68cf1","ios":"levelo://app?vid=e5f9b488-7ae3-4362-9941-63ecfec68cf1"},"vehicle_type_id":"4","last_reported":1721077718,"current_range_meters":800,"station_id":"","pricing_plan_id":"cebpf4jnsgd1na2vs0mg"},{"bike_id":"b681a62e-c27d-4ce0-955d-27b3a53dc55c","system_id":"levelo_inurba_marseille","lat":43.290094,"lon":5.381264,"is_reserved":false,"is_disabled":false,"rental_uris":{"android":"levelo://app?vid=b681a62e-c27d-4ce0-955d-27b3a53dc55c","ios":"levelo://app?vid=b681a62e-c27d-4ce0-955d-27b3a53dc55c"},"vehicle_type_id":"4","last_reported":1721077718,"current_range_meters":2800,"station_id":"ce4bh4p2rcd13ifvqe1g","pricing_plan_id":"cebpf4jnsgd1na2vs0mg"},{"bike_id":"808931fc-e489-4d8b-b08e-221eb1cb4602","system_id":"levelo_inurba_marseille","lat":43.28856,"lon":5.358371,"is_reserved":false,"is_disabled":false,"rental_uris":{"android":"levelo://app?vid=808931fc-e489-4d8b-b08e-221eb1cb4602","ios":"levelo://app?vid=808931fc-e489-4d8b-b08e-221eb1cb4602"},"vehicle_type_id":"4","last_reported":1721077718,"current_range_meters":11600,"station_id":"ce4bhb12rcd13ifvqem0","pricing_plan_id":"cebpf4jnsgd1na2vs0mg"},{"bike_id":"74b9b132-5bb6-498b-b596-9037e3e4f13a","system_id":"levelo_inurba_marseille","lat":43.312609,"lon":5.401662,"is_reserved":false,"is_disabled":false,"rental_uris":{"android":"levelo://app?vid=74b9b132-5bb6-498b-b596-9037e3e4f13a","ios":"levelo://app?vid=74b9b132-5bb6-498b-b596-9037e3e4f13a"},"vehicle_type_id":"4","last_reported":1721077718,"current_range_meters":2800,"station_id":"ce4bh092rcd13ifvqd30","pricing_plan_id":"cebpf4jnsgd1na2vs0mg"},{"bike_id":"6b5bfdd0-2360-45d4-a367-c4be7dd8cc0b","system_id":"levelo_inurba_marseille","lat":43.312609,"lon":5.401662,"is_reserved":false,"is_disabled":false,"rental_uris":{"android":"levelo://app?vid=6b5bfdd0-2360-45d4-a367-c4be7dd8cc0b","ios":"levelo://app?vid=6b5bfdd0-2360-45d4-a367-c4be7dd8cc0b"},"vehicle_type_id":"4","last_reported":1721077718,"current_range_meters":15200,"station_id":"ce4bh092rcd13ifvqd30","pricing_plan_id":"cebpf4jnsgd1na2vs0mg"},{"bike_id":"2a308531-1388-41b0-85b9-f47f24abc394","system_id":"levelo_inurba_marseille","lat":43.309371,"lon":5.401449,"is_reserved":false,"is_disabled":false,"rental_uris":{"android":"levelo://app?vid=2a308531-1388-41b0-85b9-f47f24abc394","ios":"levelo://app?vid=2a308531-1388-41b0-85b9-f47f24abc394"},"vehicle_type_id":"4","last_reported":1721077718,"current_range_meters":0,"station_id":"ce4bgvp2rcd13ifvqct0","pricing_plan_id":"cebpf4jnsgd1na2vs0mg"},{"bike_id":"682e0c6d-0bbd-493b-b0b6-e8491d12908f","system_id":"levelo_inurba_marseille","lat":43.309371,"lon":5.401449,"is_reserved":false,"is_disabled":false,"rental_uris":{"android":"levelo://app?vid=682e0c6d-0bbd-493b-b0b6-e8491d12908f","ios":"levelo://app?vid=682e0c6d-0bbd-493b-b0b6-e8491d12908f"},"vehicle_type_id":"4","last_reported":1721077718,"current_range_meters":5200,"station_id":"ce4bgvp2rcd13ifvqct0","pricing_plan_id":"cebpf4jnsgd1na2vs0mg"},{"bike_id":"294f0a2b-cb27-4184-abb5-a08e21ec6184","system_id":"levelo_inurba_marseille","lat":43.309371,"lon":5.401449,"is_reserved":false,"is_disabled":false,"rental_uris":{"android":"levelo://app?vid=294f0a2b-cb27-4184-abb5-a08e21ec6184","ios":"levelo://app?vid=294f0a2b-cb27-4184-abb5-a08e21ec6184"},"vehicle_type_id":"4","last_reported":1721077718,"current_range_meters":6800,"station_id":"ce4bgvp2rcd13ifvqct0","pricing_plan_id":"cebpf4jnsgd1na2vs0mg"},{"bike_id":"14a2ccd3-51a3-44d4-8a38-da66449fe25f","system_id":"levelo_inurba_marseille","lat":43.287887,"lon":5.373733,"is_reserved":false,"is_disabled":false,"rental_uris":{"android":"levelo://app?vid=14a2ccd3-51a3-44d4-8a38-da66449fe25f","ios":"levelo://app?vid=14a2ccd3-51a3-44d4-8a38-da66449fe25f"},"vehicle_type_id":"4","last_reported":1721077718,"current_range_meters":24000,"station_id":"","pricing_plan_id":"cebpf4jnsgd1na2vs0mg"},{"bike_id":"11e2a0c5-dab4-4134-ad65-c03b9bccd0e0","system_id":"levelo_inurba_marseille","lat":43.33749,"lon":5.37445,"is_reserved":false,"is_disabled":false,"rental_uris":{"android":"levelo://app?vid=11e2a0c5-dab4-4134-ad65-c03b9bccd0e0","ios":"levelo://app?vid=11e2a0c5-dab4-4134-ad65-c03b9bccd0e0"},"vehicle_type_id":"4","last_reported":1721077718,"current_range_meters":27600,"station_id":"","pricing_plan_id":"cebpf4jnsgd1na2vs0mg"},{"bike_id":"b8e3a504-91d6-4ecb-9dd7-42e03ebcc6c0","system_id":"levelo_inurba_marseille","lat":43.309371,"lon":5.401449,"is_reserved":false,"is_disabled":false,"rental_uris":{"android":"levelo://app?vid=b8e3a504-91d6-4ecb-9dd7-42e03ebcc6c0","ios":"levelo://app?vid=b8e3a504-91d6-4ecb-9dd7-42e03ebcc6c0"},"vehicle_type_id":"4","last_reported":1721077718,"current_range_meters":800,"station_id":"ce4bgvp2rcd13ifvqct0","pricing_plan_id":"cebpf4jnsgd1na2vs0mg"},{"bike_id":"f5d8e6ac-f588-4466-8c03-aafc9116d5fd","system_id":"levelo_inurba_marseille","lat":43.309371,"lon":5.401449,"is_reserved":false,"is_disabled":false,"rental_uris":{"android":"levelo://app?vid=f5d8e6ac-f588-4466-8c03-aafc9116d5fd","ios":"levelo://app?vid=f5d8e6ac-f588-4466-8c03-aafc9116d5fd"},"vehicle_type_id":"4","last_reported":1721077718,"current_range_meters":4800,"station_id":"ce4bgvp2rcd13ifvqct0","pricing_plan_id":"cebpf4jnsgd1na2vs0mg"},{"bike_id":"5e29faa5-737f-4677-875d-f28ec400b2e0","system_id":"levelo_inurba_marseille","lat":43.337481,"lon":5.37466,"is_reserved":false,"is_disabled":false,"rental_uris":{"android":"levelo://app?vid=5e29faa5-737f-4677-875d-f28ec400b2e0","ios":"levelo://app?vid=5e29faa5-737f-4677-875d-f28ec400b2e0"},"vehicle_type_id":"4","last_reported":1721077718,"current_range_meters":18400,"station_id":"","pricing_plan_id":"cebpf4jnsgd1na2vs0mg"},{"bike_id":"6c77b165-1ba8-4998-ac16-3bc7825d3340","system_id":"levelo_inurba_marseille","lat":43.30922,"lon":5.40151,"is_reserved":false,"is_disabled":false,"rental_uris":{"android":"levelo://app?vid=6c77b165-1ba8-4998-ac16-3bc7825d3340","ios":"levelo://app?vid=6c77b165-1ba8-4998-ac16-3bc7825d3340"},"vehicle_type_id":"4","last_reported":1721077718,"current_range_meters":23200,"station_id":"ce4bgvp2rcd13ifvqct0","pricing_plan_id":"cebpf4jnsgd1na2vs0mg"},{"bike_id":"29f3be72-4b71-44e7-955f-08218a11160b","system_id":"levelo_inurba_marseille","lat":43.306412,"lon":5.401035,"is_reserved":false,"is_disabled":false,"rental_uris":{"android":"levelo://app?vid=29f3be72-4b71-44e7-955f-08218a11160b","ios":"levelo://app?vid=29f3be72-4b71-44e7-955f-08218a11160b"},"vehicle_type_id":"4","last_reported":1721077718,"current_range_meters":8800,"station_id":"ce4bh112rcd13ifvqda0","pricing_plan_id":"cebpf4jnsgd1na2vs0mg"},{"bike_id":"2a22f557-eda9-4fdc-a7af-d8584b994b8d","system_id":"levelo_inurba_marseille","lat":43.298681,"lon":5.397225,"is_reserved":false,"is_disabled":false,"rental_uris":{"android":"levelo://app?vid=2a22f557-eda9-4fdc-a7af-d8584b994b8d","ios":"levelo://app?vid=2a22f557-eda9-4fdc-a7af-d8584b994b8d"},"vehicle_type_id":"4","last_reported":1721077718,"current_range_meters":18000,"station_id":"ce4bh0h2rcd13ifvqd50","pricing_plan_id":"cebpf4jnsgd1na2vs0mg"},{"bike_id":"6302ef6e-3c65-4d04-b9bb-6a1b2cf0c741","system_id":"levelo_inurba_marseille","lat":43.30642,"lon":5.401031,"is_reserved":false,"is_disabled":false,"rental_uris":{"android":"levelo://app?vid=6302ef6e-3c65-4d04-b9bb-6a1b2cf0c741","ios":"levelo://app?vid=6302ef6e-3c65-4d04-b9bb-6a1b2cf0c741"},"vehicle_type_id":"4","last_reported":1721077718,"current_range_meters":12800,"station_id":"ce4bh112rcd13ifvqda0","pricing_plan_id":"cebpf4jnsgd1na2vs0mg"},{"bike_id":"bc181a61-1a7b-4496-ba49-e2799bac86fb","system_id":"levelo_inurba_marseille","lat":43.33766,"lon":5.37479,"is_reserved":false,"is_disabled":false,"rental_uris":{"android":"levelo://app?vid=bc181a61-1a7b-4496-ba49-e2799bac86fb","ios":"levelo://app?vid=bc181a61-1a7b-4496-ba49-e2799bac86fb"},"vehicle_type_id":"4","last_reported":1721077718,"current_range_meters":17200,"station_id":"","pricing_plan_id":"cebpf4jnsgd1na2vs0mg"},{"bike_id":"f2eb93d1-335c-468a-82b8-f48fad00c64d","system_id":"levelo_inurba_marseille","lat":43.30642,"lon":5.401031,"is_reserved":false,"is_disabled":false,"rental_uris":{"android":"levelo://app?vid=f2eb93d1-335c-468a-82b8-f48fad00c64d","ios":"levelo://app?vid=f2eb93d1-335c-468a-82b8-f48fad00c64d"},"vehicle_type_id":"4","last_reported":1721077718,"current_range_meters":16400,"station_id":"ce4bh112rcd13ifvqda0","pricing_plan_id":"cebpf4jnsgd1na2vs0mg"},{"bike_id":"db83bed4-c24c-40f1-b70c-56a676fade43","system_id":"levelo_inurba_marseille","lat":43.30135,"lon":5.39866,"is_reserved":false,"is_disabled":false,"rental_uris":{"android":"levelo://app?vid=db83bed4-c24c-40f1-b70c-56a676fade43","ios":"levelo://app?vid=db83bed4-c24c-40f1-b70c-56a676fade43"},"vehicle_type_id":"4","last_reported":1721077718,"current_range_meters":26800,"station_id":"ce4bh0h2rcd13ifvqd40","pricing_plan_id":"cebpf4jnsgd1na2vs0mg"},{"bike_id":"e71005c4-b193-4c68-a08a-43391ded7766","system_id":"levelo_inurba_marseille","lat":43.301117,"lon":5.398795,"is_reserved":false,"is_disabled":false,"rental_uris":{"android":"levelo://app?vid=e71005c4-b193-4c68-a08a-43391ded7766","ios":"levelo://app?vid=e71005c4-b193-4c68-a08a-43391ded7766"},"vehicle_type_id":"4","last_reported":1721077718,"current_range_meters":26400,"station_id":"ce4bh0h2rcd13ifvqd40","pricing_plan_id":"cebpf4jnsgd1na2vs0mg"},{"bike_id":"ab42dae2-d98d-4b4c-bfe5-b0f4e6ab26b8","system_id":"levelo_inurba_marseille","lat":43.301117,"lon":5.398795,"is_reserved":false,"is_disabled":false,"rental_uris":{"android":"levelo://app?vid=ab42dae2-d98d-4b4c-bfe5-b0f4e6ab26b8","ios":"levelo://app?vid=ab42dae2-d98d-4b4c-bfe5-b0f4e6ab26b8"},"vehicle_type_id":"4","last_reported":1721077718,"current_range_meters":16000,"station_id":"ce4bh0h2rcd13ifvqd40","pricing_plan_id":"cebpf4jnsgd1na2vs0mg"},{"bike_id":"c80f7cff-441c-4ba2-b400-ece44c5c2fd2","system_id":"levelo_inurba_marseille","lat":43.28727,"lon":5.36078,"is_reserved":false,"is_disabled":false,"rental_uris":{"android":"levelo://app?vid=c80f7cff-441c-4ba2-b400-ece44c5c2fd2","ios":"levelo://app?vid=c80f7cff-441c-4ba2-b400-ece44c5c2fd2"},"vehicle_type_id":"4","last_reported":1721077718,"current_range_meters":0,"station_id":"cki0cbj6b192h4jlfktg","pricing_plan_id":"cebpf4jnsgd1na2vs0mg"},{"bike_id":"d59ee833-9b67-4806-aa72-bf59e39ee03f","system_id":"levelo_inurba_marseille","lat":43.28727,"lon":5.36078,"is_reserved":false,"is_disabled":false,"rental_uris":{"android":"levelo://app?vid=d59ee833-9b67-4806-aa72-bf59e39ee03f","ios":"levelo://app?vid=d59ee833-9b67-4806-aa72-bf59e39ee03f"},"vehicle_type_id":"4","last_reported":1721077718,"current_range_meters":8400,"station_id":"cki0cbj6b192h4jlfktg","pricing_plan_id":"cebpf4jnsgd1na2vs0mg"},{"bike_id":"b7ab4045-6aab-4371-82f6-38388950d5a6","system_id":"levelo_inurba_marseille","lat":43.286961,"lon":5.373785,"is_reserved":false,"is_disabled":false,"rental_uris":{"android":"levelo://app?vid=b7ab4045-6aab-4371-82f6-38388950d5a6","ios":"levelo://app?vid=b7ab4045-6aab-4371-82f6-38388950d5a6"},"vehicle_type_id":"4","last_reported":1721077718,"current_range_meters":10000,"station_id":"ce4bh3p2rcd13ifvqdq0","pricing_plan_id":"cebpf4jnsgd1na2vs0mg"},{"bike_id":"fc5e4253-ea7c-40a9-912d-18d5062868fb","system_id":"levelo_inurba_marseille","lat":43.298681,"lon":5.397225,"is_reserved":false,"is_disabled":false,"rental_uris":{"android":"levelo://app?vid=fc5e4253-ea7c-40a9-912d-18d5062868fb","ios":"levelo://app?vid=fc5e4253-ea7c-40a9-912d-18d5062868fb"},"vehicle_type_id":"4","last_reported":1721077718,"current_range_meters":11200,"station_id":"ce4bh0h2rcd13ifvqd50","pricing_plan_id":"cebpf4jnsgd1na2vs0mg"},{"bike_id":"23efe649-86f6-4ca1-b684-52315ec4cf26","system_id":"levelo_inurba_marseille","lat":43.28705,"lon":5.37379,"is_reserved":false,"is_disabled":false,"rental_uris":{"android":"levelo://app?vid=23efe649-86f6-4ca1-b684-52315ec4cf26","ios":"levelo://app?vid=23efe649-86f6-4ca1-b684-52315ec4cf26"},"vehicle_type_id":"4","last_reported":1721077718,"current_range_meters":25600,"station_id":"ce4bh3p2rcd13ifvqdq0","pricing_plan_id":"cebpf4jnsgd1na2vs0mg"},{"bike_id":"848d4244-9224-4ae4-ac93-1f29d2d73cdb","system_id":"levelo_inurba_marseille","lat":43.286961,"lon":5.373785,"is_reserved":false,"is_disabled":false,"rental_uris":{"android":"levelo://app?vid=848d4244-9224-4ae4-ac93-1f29d2d73cdb","ios":"levelo://app?vid=848d4244-9224-4ae4-ac93-1f29d2d73cdb"},"vehicle_type_id":"4","last_reported":1721077718,"current_range_meters":12800,"station_id":"ce4bh3p2rcd13ifvqdq0","pricing_plan_id":"cebpf4jnsgd1na2vs0mg"},{"bike_id":"5382eb92-a5b3-4b74-8d0a-da432e65a4e9","system_id":"levelo_inurba_marseille","lat":43.298681,"lon":5.397225,"is_reserved":false,"is_disabled":false,"rental_uris":{"android":"levelo://app?vid=5382eb92-a5b3-4b74-8d0a-da432e65a4e9","ios":"levelo://app?vid=5382eb92-a5b3-4b74-8d0a-da432e65a4e9"},"vehicle_type_id":"4","last_reported":1721077718,"current_range_meters":8000,"station_id":"ce4bh0h2rcd13ifvqd50","pricing_plan_id":"cebpf4jnsgd1na2vs0mg"},{"bike_id":"b8ad5e29-1f40-4266-b1f9-2af5f3ff7f91","system_id":"levelo_inurba_marseille","lat":43.298681,"lon":5.397225,"is_reserved":false,"is_disabled":false,"rental_uris":{"android":"levelo://app?vid=b8ad5e29-1f40-4266-b1f9-2af5f3ff7f91","ios":"levelo://app?vid=b8ad5e29-1f40-4266-b1f9-2af5f3ff7f91"},"vehicle_type_id":"4","last_reported":1721077718,"current_range_meters":18800,"station_id":"ce4bh0h2rcd13ifvqd50","pricing_plan_id":"cebpf4jnsgd1na2vs0mg"},{"bike_id":"d60c7ad8-801d-469b-8d2e-f013230bb958","system_id":"levelo_inurba_marseille","lat":43.28703,"lon":5.37382,"is_reserved":false,"is_disabled":false,"rental_uris":{"android":"levelo://app?vid=d60c7ad8-801d-469b-8d2e-f013230bb958","ios":"levelo://app?vid=d60c7ad8-801d-469b-8d2e-f013230bb958"},"vehicle_type_id":"4","last_reported":1721077718,"current_range_meters":12400,"station_id":"ce4bh3p2rcd13ifvqdq0","pricing_plan_id":"cebpf4jnsgd1na2vs0mg"},{"bike_id":"fcce2fc2-61b3-4412-b346-6b96f713a4a4","system_id":"levelo_inurba_marseille","lat":43.298681,"lon":5.397225,"is_reserved":false,"is_disabled":false,"rental_uris":{"android":"levelo://app?vid=fcce2fc2-61b3-4412-b346-6b96f713a4a4","ios":"levelo://app?vid=fcce2fc2-61b3-4412-b346-6b96f713a4a4"},"vehicle_type_id":"4","last_reported":1721077718,"current_range_meters":24800,"station_id":"ce4bh0h2rcd13ifvqd50","pricing_plan_id":"cebpf4jnsgd1na2vs0mg"},{"bike_id":"1513d2ad-a4e6-4cf3-9912-728555a0fa9d","system_id":"levelo_inurba_marseille","lat":43.298681,"lon":5.397225,"is_reserved":false,"is_disabled":false,"rental_uris":{"android":"levelo://app?vid=1513d2ad-a4e6-4cf3-9912-728555a0fa9d","ios":"levelo://app?vid=1513d2ad-a4e6-4cf3-9912-728555a0fa9d"},"vehicle_type_id":"4","last_reported":1721077718,"current_range_meters":31600,"station_id":"ce4bh0h2rcd13ifvqd50","pricing_plan_id":"cebpf4jnsgd1na2vs0mg"},{"bike_id":"e0c96e6c-5053-4a02-b7cb-8683990698ab","system_id":"levelo_inurba_marseille","lat":43.298681,"lon":5.397225,"is_reserved":false,"is_disabled":false,"rental_uris":{"android":"levelo://app?vid=e0c96e6c-5053-4a02-b7cb-8683990698ab","ios":"levelo://app?vid=e0c96e6c-5053-4a02-b7cb-8683990698ab"},"vehicle_type_id":"4","last_reported":1721077718,"current_range_meters":24800,"station_id":"ce4bh0h2rcd13ifvqd50","pricing_plan_id":"cebpf4jnsgd1na2vs0mg"},{"bike_id":"fc9e50e9-7207-4071-a467-94f18badf9fd","system_id":"levelo_inurba_marseille","lat":43.286961,"lon":5.373785,"is_reserved":false,"is_disabled":false,"rental_uris":{"android":"levelo://app?vid=fc9e50e9-7207-4071-a467-94f18badf9fd","ios":"levelo://app?vid=fc9e50e9-7207-4071-a467-94f18badf9fd"},"vehicle_type_id":"4","last_reported":1721077718,"current_range_meters":18400,"station_id":"ce4bh3p2rcd13ifvqdq0","pricing_plan_id":"cebpf4jnsgd1na2vs0mg"},{"bike_id":"589d8621-f770-4f74-9f12-110f034f4898","system_id":"levelo_inurba_marseille","lat":43.302759,"lon":5.400793,"is_reserved":false,"is_disabled":false,"rental_uris":{"android":"levelo://app?vid=589d8621-f770-4f74-9f12-110f034f4898","ios":"levelo://app?vid=589d8621-f770-4f74-9f12-110f034f4898"},"vehicle_type_id":"4","last_reported":1721077718,"current_range_meters":30800,"station_id":"ce4bgvh2rcd13ifvqcs0","pricing_plan_id":"cebpf4jnsgd1na2vs0mg"},{"bike_id":"566336aa-e298-47ca-a04a-601bb8a59114","system_id":"levelo_inurba_marseille","lat":43.289307,"lon":5.38406,"is_reserved":false,"is_disabled":false,"rental_uris":{"android":"levelo://app?vid=566336aa-e298-47ca-a04a-601bb8a59114","ios":"levelo://app?vid=566336aa-e298-47ca-a04a-601bb8a59114"},"vehicle_type_id":"4","last_reported":1721077718,"current_range_meters":4800,"station_id":"ce4bh612rcd13ifvqe6g","pricing_plan_id":"cebpf4jnsgd1na2vs0mg"},{"bike_id":"61f24aaf-91dd-4215-9461-07eebd421d71","system_id":"levelo_inurba_marseille","lat":43.289307,"lon":5.38406,"is_reserved":false,"is_disabled":false,"rental_uris":{"android":"levelo://app?vid=61f24aaf-91dd-4215-9461-07eebd421d71","ios":"levelo://app?vid=61f24aaf-91dd-4215-9461-07eebd421d71"},"vehicle_type_id":"4","last_reported":1721077718,"current_range_meters":29200,"station_id":"ce4bh612rcd13ifvqe6g","pricing_plan_id":"cebpf4jnsgd1na2vs0mg"},{"bike_id":"a43fa2ab-5381-4737-91b6-4b69f0c63f88","system_id":"levelo_inurba_marseille","lat":43.28926,"lon":5.38384,"is_reserved":false,"is_disabled":false,"rental_uris":{"android":"levelo://app?vid=a43fa2ab-5381-4737-91b6-4b69f0c63f88","ios":"levelo://app?vid=a43fa2ab-5381-4737-91b6-4b69f0c63f88"},"vehicle_type_id":"4","last_reported":1721077718,"current_range_meters":31600,"station_id":"ce4bh612rcd13ifvqe6g","pricing_plan_id":"cebpf4jnsgd1na2vs0mg"},{"bike_id":"3a4dc646-97c0-4b74-8da3-b011968239aa","system_id":"levelo_inurba_marseille","lat":43.28926,"lon":5.38386,"is_reserved":false,"is_disabled":false,"rental_uris":{"android":"levelo://app?vid=3a4dc646-97c0-4b74-8da3-b011968239aa","ios":"levelo://app?vid=3a4dc646-97c0-4b74-8da3-b011968239aa"},