{"last_updated":1740669014,"ttl":60,"version":"2.2","data":{"bikes":[{"bike_id":"bdcf166e-1b46-4410-85f0-48843386e50b","system_id":"levelo_inurba_marseille","lat":43.30954,"lon":5.39024,"is_reserved":false,"is_disabled":false,"rental_uris":{"android":"levelo://app?vid=bdcf166e-1b46-4410-85f0-48843386e50b","ios":"levelo://app?vid=bdcf166e-1b46-4410-85f0-48843386e50b"},"vehicle_type_id":"4","last_reported":1740669014,"current_range_meters":2000,"station_id":"ce4bgup2rcd13ifvqco0","pricing_plan_id":"cebpf4jnsgd1na2vs0mg"},{"bike_id":"b5368874-e19e-4e33-8e44-b3ac25e43af6","system_id":"levelo_inurba_marseille","lat":43.31314,"lon":5.37082,"is_reserved":false,"is_disabled":false,"rental_uris":{"android":"levelo://app?vid=b5368874-e19e-4e33-8e44-b3ac25e43af6","ios":"levelo://app?vid=b5368874-e19e-4e33-8e44-b3ac25e43af6"},"vehicle_type_id":"4","last_reported":1740669014,"current_range_meters":3600,"station_id":"","pricing_plan_id":"cebpf4jnsgd1na2vs0mg"},{"bike_id":"61d86703-bd65-41fe-9f2c-dd96be07c22d","system_id":"levelo_inurba_marseille","lat":43.30222,"lon":5.39475,"is_reserved":false,"is_disabled":false,"rental_uris":{"android":"levelo://app?vid=61d86703-bd65-41fe-9f2c-dd96be07c22d","ios":"levelo://app?vid=61d86703-bd65-41fe-9f2c-dd96be07c22d"},"vehicle_type_id":"4","last_reported":1740669014,"current_range_meters":1200,"station_id":"ce4bh0p2rcd13ifvqd70","pricing_plan_id":"cebpf4jnsgd1na2vs0mg"},{"bike_id":"8dc9e8af-e2b6-45cc-90a3-34fd145b19e9","system_id":"levelo_inurba_marseille","lat":43.31716,"lon":5.37762,"is_reserved":false,"is_disabled":false,"rental_uris":{"android":"levelo://app?vid=8dc9e8af-e2b6-45cc-90a3-34fd145b19e9","ios":"levelo://app?vid=8dc9e8af-e2b6-45cc-90a3-34fd145b19e9"},"vehicle_type_id":"4","last_reported":1740669014,"current_range_meters":3600,"station_id":"ce4bgth2rcd13ifvqch0","pricing_plan_id":"cebpf4jnsgd1na2vs0mg"},{"bike_id":"78adc355-eb70-449b-9a4c-aa7f815399f6","system_id":"levelo_inurba_marseille","lat":43.289303,"lon":5.362419,"is_reserved":false,"is_disabled":false,"rental_uris":{"android":"levelo://app?vid=78adc355-eb70-449b-9a4c-aa7f815399f6","ios":"levelo://app?vid=78adc355-eb70-449b-9a4c-aa7f815399f6"},"vehicle_type_id":"4","last_reported":1740669014,"current_range_meters":3600,"station_id":"ce4bha12rcd13ifvqef0","pricing_plan_id":"cebpf4jnsgd1na2vs0mg"},{"bike_id":"ea8cb564-d405-42e3-911c-0afdd772ee76","system_id":"levelo_inurba_marseille","lat":43.32935,"lon":5.38807,"is_reserved":false,"is_disabled":false,"rental_uris":{"android":"levelo://app?vid=ea8cb564-d405-42e3-911c-0afdd772ee76","ios":"levelo://app?vid=ea8cb564-d405-42e3-911c-0afdd772ee76"},"vehicle_type_id":"4","last_reported":1740669014,"current_range_meters":4000,"station_id":"","pricing_plan_id":"cebpf4jnsgd1na2vs0mg"},{"bike_id":"5287aee1-e6e4-4832-bdec-ce3228230c00","system_id":"levelo_inurba_marseille","lat":43.28564,"lon":5.37163,"is_reserved":false,"is_disabled":false,"rental_uris":{"android":"levelo://app?vid=5287aee1-e6e4-4832-bdec-ce3228230c00","ios":"levelo://app?vid=5287aee1-e6e4-4832-bdec-ce3228230c00"},"vehicle_type_id":"4","last_reported":1740669014,"current_range_meters":4000,"station_id":"ce4bht12rcd13ifvqi60","pricing_plan_id":"cebpf4jnsgd1na2vs0mg"},{"bike_id":"8a61767a-59f4-4a2a-b0b6-b5cc0e6f6872","system_id":"levelo_inurba_marseille","lat":43.29565,"lon":5.3751,"is_reserved":false,"is_disabled":false,"rental_uris":{"android":"levelo://app?vid=8a61767a-59f4-4a2a-b0b6-b5cc0e6f6872","ios":"levelo://app?vid=8a61767a-59f4-4a2a-b0b6-b5cc0e6f6872"},"vehicle_type_id":"4","last_reported":1740669014,"current_range_meters":4400,"station_id":"ce4bgh92rcd13ifvqb50","pricing_plan_id":"cebpf4jnsgd1na2vs0mg"},{"bike_id":"336f2669-2453-4dbb-81ad-21fedafcc52d","system_id":"levelo_inurba_marseille","lat":43.28272,"lon":5.35062,"is_reserved":false,"is_disabled":false,"rental_uris":{"android":"levelo://app?vid=336f2669-2453-4dbb-81ad-21fedafcc52d","ios":"levelo://app?vid=336f2669-2453-4dbb-81ad-21fedafcc52d"},"vehicle_type_id":"4","last_reported":1740669014,"current_range_meters":3600,"station_id":"ce4bhbp2rcd13ifvqerg","pricing_plan_id":"cebpf4jnsgd1na2vs0mg"},{"bike_id":"8c4c2cc2-9998-4fb6-b284-c7960ceba7a0","system_id":"levelo_inurba_marseille","lat":43.30805,"lon":5.43523,"is_reserved":false,"is_disabled":false,"rental_uris":{"android":"levelo://app?vid=8c4c2cc2-9998-4fb6-b284-c7960ceba7a0","ios":"levelo://app?vid=8c4c2cc2-9998-4fb6-b284-c7960ceba7a0"},"vehicle_type_id":"4","last_reported":1740669014,"current_range_meters":4400,"station_id":"ce4bhph2rcd13ifvqheg","pricing_plan_id":"cebpf4jnsgd1na2vs0mg"},{"bike_id":"2cb83a06-674b-4da8-91f3-5a024c3c9af9","system_id":"levelo_inurba_marseille","lat":43.281544,"lon":5.426346,"is_reserved":false,"is_disabled":false,"rental_uris":{"android":"levelo://app?vid=2cb83a06-674b-4da8-91f3-5a024c3c9af9","ios":"levelo://app?vid=2cb83a06-674b-4da8-91f3-5a024c3c9af9"},"vehicle_type_id":"4","last_reported":1740669014,"current_range_meters":4800,"station_id":"ce4bhnh2rcd13ifvqgug","pricing_plan_id":"cebpf4jnsgd1na2vs0mg"},{"bike_id":"e38e37a8-8073-4f85-b996-02ef79b2b364","system_id":"levelo_inurba_marseille","lat":43.28574,"lon":5.39491,"is_reserved":false,"is_disabled":false,"rental_uris":{"android":"levelo://app?vid=e38e37a8-8073-4f85-b996-02ef79b2b364","ios":"levelo://app?vid=e38e37a8-8073-4f85-b996-02ef79b2b364"},"vehicle_type_id":"4","last_reported":1740669014,"current_range_meters":4400,"station_id":"ce4bh292rcd13ifvqdg0","pricing_plan_id":"cebpf4jnsgd1na2vs0mg"},{"bike_id":"6ee165f8-0e76-45b7-8f6e-aa09503f239a","system_id":"levelo_inurba_marseille","lat":43.24078,"lon":5.37754,"is_reserved":false,"is_disabled":false,"rental_uris":{"android":"levelo://app?vid=6ee165f8-0e76-45b7-8f6e-aa09503f239a","ios":"levelo://app?vid=6ee165f8-0e76-45b7-8f6e-aa09503f239a"},"vehicle_type_id":"4","last_reported":1740669014,"current_range_meters":4800,"station_id":"ce4bhnp2rcd13ifvqgvg","pricing_plan_id":"cebpf4jnsgd1na2vs0mg"},{"bike_id":"7272ebbd-7aa7-40f0-b2e2-7f78c3b7bbd5","system_id":"levelo_inurba_marseille","lat":43.2992,"lon":5.37469,"is_reserved":false,"is_disabled":false,"rental_uris":{"android":"levelo://app?vid=7272ebbd-7aa7-40f0-b2e2-7f78c3b7bbd5","ios":"levelo://app?vid=7272ebbd-7aa7-40f0-b2e2-7f78c3b7bbd5"},"vehicle_type_id":"4","last_reported":1740669014,"current_range_meters":4800,"station_id":"ce4bgjh2rcd13ifvqbg0","pricing_plan_id":"cebpf4jnsgd1na2vs0mg"},{"bike_id":"9c551860-8edd-442c-83bb-3ae954f80aaf","system_id":"levelo_inurba_marseille","lat":43.28444,"lon":5.35001,"is_reserved":false,"is_disabled":false,"rental_uris":{"android":"levelo://app?vid=9c551860-8edd-442c-83bb-3ae954f80aaf","ios":"levelo://app?vid=9c551860-8edd-442c-83bb-3ae954f80aaf"},"vehicle_type_id":"4","last_reported":1740669014,"current_range_meters":5600,"station_id":"ce4bhbh2rcd13ifvqepg","pricing_plan_id":"cebpf4jnsgd1na2vs0mg"},{"bike_id":"7eceb5bb-ec36-4afa-b8fe-a0b3dc04ab77","system_id":"levelo_inurba_marseille","lat":43.29904,"lon":5.38146,"is_reserved":false,"is_disabled":false,"rental_uris":{"android":"levelo://app?vid=7eceb5bb-ec36-4afa-b8fe-a0b3dc04ab77","ios":"levelo://app?vid=7eceb5bb-ec36-4afa-b8fe-a0b3dc04ab77"},"vehicle_type_id":"4","last_reported":1740669014,"current_range_meters":4400,"station_id":"ce4bgj12rcd13ifvqbc0","pricing_plan_id":"cebpf4jnsgd1na2vs0mg"},{"bike_id":"a2c85ab7-1e06-4246-89e2-5126635f3241","system_id":"levelo_inurba_marseille","lat":43.25582,"lon":5.38227,"is_reserved":false,"is_disabled":false,"rental_uris":{"android":"levelo://app?vid=a2c85ab7-1e06-4246-89e2-5126635f3241","ios":"levelo://app?vid=a2c85ab7-1e06-4246-89e2-5126635f3241"},"vehicle_type_id":"4","last_reported":1740669014,"current_range_meters":5600,"station_id":"ce4bhih2rcd13ifvqfs0","pricing_plan_id":"cebpf4jnsgd1na2vs0mg"},{"bike_id":"973b1edd-75cd-4272-ab28-7c1482b254bb","system_id":"levelo_inurba_marseille","lat":43.26207,"lon":5.37931,"is_reserved":false,"is_disabled":false,"rental_uris":{"android":"levelo://app?vid=973b1edd-75cd-4272-ab28-7c1482b254bb","ios":"levelo://app?vid=973b1edd-75cd-4272-ab28-7c1482b254bb"},"vehicle_type_id":"4","last_reported":1740669014,"current_range_meters":6000,"station_id":"ce4bhjp2rcd13ifvqg90","pricing_plan_id":"cebpf4jnsgd1na2vs0mg"},{"bike_id":"2daaa6ad-ce14-4f65-8a60-5e58d700922f","system_id":"levelo_inurba_marseille","lat":43.27177,"lon":5.40984,"is_reserved":false,"is_disabled":false,"rental_uris":{"android":"levelo://app?vid=2daaa6ad-ce14-4f65-8a60-5e58d700922f","ios":"levelo://app?vid=2daaa6ad-ce14-4f65-8a60-5e58d700922f"},"vehicle_type_id":"4","last_reported":1740669014,"current_range_meters":6000,"station_id":"ce4bhl12rcd13ifvqgf0","pricing_plan_id":"cebpf4jnsgd1na2vs0mg"},{"bike_id":"5e0e22b0-e973-48d0-8bed-a771273f721a","system_id":"levelo_inurba_marseille","lat":43.2738,"lon":5.3626,"is_reserved":false,"is_disabled":false,"rental_uris":{"android":"levelo://app?vid=5e0e22b0-e973-48d0-8bed-a771273f721a","ios":"levelo://app?vid=5e0e22b0-e973-48d0-8bed-a771273f721a"},"vehicle_type_id":"4","last_reported":1740669014,"current_range_meters":6400,"station_id":"ce4bhbh2rcd13ifvqeo0","pricing_plan_id":"cebpf4jnsgd1na2vs0mg"},{"bike_id":"e3c15cd4-9fdc-4708-b345-8bff02fd5763","system_id":"levelo_inurba_marseille","lat":43.284186,"lon":5.349938,"is_reserved":false,"is_disabled":false,"rental_uris":{"android":"levelo://app?vid=e3c15cd4-9fdc-4708-b345-8bff02fd5763","ios":"levelo://app?vid=e3c15cd4-9fdc-4708-b345-8bff02fd5763"},"vehicle_type_id":"4","last_reported":1740669014,"current_range_meters":6800,"station_id":"ce4bhbh2rcd13ifvqepg","pricing_plan_id":"cebpf4jnsgd1na2vs0mg"},{"bike_id":"2a7b2c8a-2634-4ccd-8aa9-8d3c3a9f1bc7","system_id":"levelo_inurba_marseille","lat":43.30281,"lon":5.37699,"is_reserved":false,"is_disabled":false,"rental_uris":{"android":"levelo://app?vid=2a7b2c8a-2634-4ccd-8aa9-8d3c3a9f1bc7","ios":"levelo://app?vid=2a7b2c8a-2634-4ccd-8aa9-8d3c3a9f1bc7"},"vehicle_type_id":"4","last_reported":1740669014,"current_range_meters":6400,"station_id":"ce4bguh2rcd13ifvqcj0","pricing_plan_id":"cebpf4jnsgd1na2vs0mg"},{"bike_id":"e062645d-6eeb-4966-bdaf-170e87ba9429","system_id":"levelo_inurba_marseille","lat":43.2718,"lon":5.40991,"is_reserved":false,"is_disabled":false,"rental_uris":{"android":"levelo://app?vid=e062645d-6eeb-4966-bdaf-170e87ba9429","ios":"levelo://app?vid=e062645d-6eeb-4966-bdaf-170e87ba9429"},"vehicle_type_id":"4","last_reported":1740669014,"current_range_meters":6400,"station_id":"ce4bhl12rcd13ifvqgf0","pricing_plan_id":"cebpf4jnsgd1na2vs0mg"},{"bike_id":"9fa81dbc-ac93-435a-a8af-b57bf15f8b88","system_id":"levelo_inurba_marseille","lat":43.23199,"lon":5.35549,"is_reserved":false,"is_disabled":false,"rental_uris":{"android":"levelo://app?vid=9fa81dbc-ac93-435a-a8af-b57bf15f8b88","ios":"levelo://app?vid=9fa81dbc-ac93-435a-a8af-b57bf15f8b88"},"vehicle_type_id":"4","last_reported":1740669014,"current_range_meters":6800,"station_id":"ce4bhu92rcd13ifvqi70","pricing_plan_id":"cebpf4jnsgd1na2vs0mg"},{"bike_id":"da3c4fb5-c137-4b78-a6d7-9e67786b17b0","system_id":"levelo_inurba_marseille","lat":43.31329,"lon":5.36719,"is_reserved":false,"is_disabled":false,"rental_uris":{"android":"levelo://app?vid=da3c4fb5-c137-4b78-a6d7-9e67786b17b0","ios":"levelo://app?vid=da3c4fb5-c137-4b78-a6d7-9e67786b17b0"},"vehicle_type_id":"4","last_reported":1740669014,"current_range_meters":7200,"station_id":"ce4bgr92rcd13ifvqc6g","pricing_plan_id":"cebpf4jnsgd1na2vs0mg"},{"bike_id":"e5275e73-bd00-4d77-97d6-4b66db770696","system_id":"levelo_inurba_marseille","lat":43.31364,"lon":5.38487,"is_reserved":false,"is_disabled":false,"rental_uris":{"android":"levelo://app?vid=e5275e73-bd00-4d77-97d6-4b66db770696","ios":"levelo://app?vid=e5275e73-bd00-4d77-97d6-4b66db770696"},"vehicle_type_id":"4","last_reported":1740669014,"current_range_meters":8000,"station_id":"ce4bgt92rcd13ifvqcf0","pricing_plan_id":"cebpf4jnsgd1na2vs0mg"},{"bike_id":"63e851c0-635f-4ca6-b3e9-d0d430d4bea8","system_id":"levelo_inurba_marseille","lat":43.30548,"lon":5.36538,"is_reserved":false,"is_disabled":false,"rental_uris":{"android":"levelo://app?vid=63e851c0-635f-4ca6-b3e9-d0d430d4bea8","ios":"levelo://app?vid=63e851c0-635f-4ca6-b3e9-d0d430d4bea8"},"vehicle_type_id":"4","last_reported":1740669014,"current_range_meters":6800,"station_id":"ce4bgs12rcd13ifvqcag","pricing_plan_id":"cebpf4jnsgd1na2vs0mg"},{"bike_id":"25a559b1-d28c-43b7-99a0-8b9664486379","system_id":"levelo_inurba_marseille","lat":43.30929,"lon":5.40146,"is_reserved":false,"is_disabled":false,"rental_uris":{"android":"levelo://app?vid=25a559b1-d28c-43b7-99a0-8b9664486379","ios":"levelo://app?vid=25a559b1-d28c-43b7-99a0-8b9664486379"},"vehicle_type_id":"4","last_reported":1740669014,"current_range_meters":7200,"station_id":"ce4bgvp2rcd13ifvqct0","pricing_plan_id":"cebpf4jnsgd1na2vs0mg"},{"bike_id":"b4fbb264-c97f-45c0-8c14-7da17f98bcbf","system_id":"levelo_inurba_marseille","lat":43.29263,"lon":5.40913,"is_reserved":false,"is_disabled":false,"rental_uris":{"android":"levelo://app?vid=b4fbb264-c97f-45c0-8c14-7da17f98bcbf","ios":"levelo://app?vid=b4fbb264-c97f-45c0-8c14-7da17f98bcbf"},"vehicle_type_id":"4","last_reported":1740669014,"current_range_meters":6800,"station_id":"ce4bh192rcd13ifvqdc0","pricing_plan_id":"cebpf4jnsgd1na2vs0mg"},{"bike_id":"794e45c2-ddfc-4037-a8cf-ac931766c9a8","system_id":"levelo_inurba_marseille","lat":43.2732,"lon":5.39104,"is_reserved":false,"is_disabled":false,"rental_uris":{"android":"levelo://app?vid=794e45c2-ddfc-4037-a8cf-ac931766c9a8","ios":"levelo://app?vid=794e45c2-ddfc-4037-a8cf-ac931766c9a8"},"vehicle_type_id":"4","last_reported":1740669014,"current_range_meters":2000,"station_id":"ce4bhgp2rcd13ifvqfe0","pricing_plan_id":"cebpf4jnsgd1na2vs0mg"},{"bike_id":"bd7dc531-2a30-4ef6-9d03-e0018e37f81d","system_id":"levelo_inurba_marseille","lat":43.24997,"lon":5.38941,"is_reserved":false,"is_disabled":false,"rental_uris":{"android":"levelo://app?vid=bd7dc531-2a30-4ef6-9d03-e0018e37f81d","ios":"levelo://app?vid=bd7dc531-2a30-4ef6-9d03-e0018e37f81d"},"vehicle_type_id":"4","last_reported":1740669014,"current_range_meters":6800,"station_id":"ce4bhgp2rcd13ifvqfd0","pricing_plan_id":"cebpf4jnsgd1na2vs0mg"},{"bike_id":"fba016d7-b5e0-4d57-b407-55ba2ddedcc9","system_id":"levelo_inurba_marseille","lat":43.29937,"lon":5.36551,"is_reserved":false,"is_disabled":false,"rental_uris":{"android":"levelo://app?vid=fba016d7-b5e0-4d57-b407-55ba2ddedcc9","ios":"levelo://app?vid=fba016d7-b5e0-4d57-b407-55ba2ddedcc9"},"vehicle_type_id":"4","last_reported":1740669014,"current_range_meters":10000,"station_id":"ce4bgm92rcd13ifvqbr0","pricing_plan_id":"cebpf4jnsgd1na2vs0mg"},{"bike_id":"9289bf50-180b-4c99-a2c1-296e6b9ac083","system_id":"levelo_inurba_marseille","lat":43.27967,"lon":5.38727,"is_reserved":false,"is_disabled":false,"rental_uris":{"android":"levelo://app?vid=9289bf50-180b-4c99-a2c1-296e6b9ac083","ios":"levelo://app?vid=9289bf50-180b-4c99-a2c1-296e6b9ac083"},"vehicle_type_id":"4","last_reported":1740669014,"current_range_meters":6800,"station_id":"ce4bhg12rcd13ifvqf80","pricing_plan_id":"cebpf4jnsgd1na2vs0mg"},{"bike_id":"bca35b80-6143-4443-8af9-3a7e639eb32c","system_id":"levelo_inurba_marseille","lat":43.28616,"lon":5.37049,"is_reserved":false,"is_disabled":false,"rental_uris":{"android":"levelo://app?vid=bca35b80-6143-4443-8af9-3a7e639eb32c","ios":"levelo://app?vid=bca35b80-6143-4443-8af9-3a7e639eb32c"},"vehicle_type_id":"4","last_reported":1740669014,"current_range_meters":7200,"station_id":"ce4bht12rcd13ifvqi60","pricing_plan_id":"cebpf4jnsgd1na2vs0mg"},{"bike_id":"c17df134-4bd2-49e5-b62e-0a64d4c942d0","system_id":"levelo_inurba_marseille","lat":43.30309,"lon":5.36882,"is_reserved":false,"is_disabled":false,"rental_uris":{"android":"levelo://app?vid=c17df134-4bd2-49e5-b62e-0a64d4c942d0","ios":"levelo://app?vid=c17df134-4bd2-49e5-b62e-0a64d4c942d0"},"vehicle_type_id":"4","last_reported":1740669014,"current_range_meters":7200,"station_id":"ce4bgqh2rcd13ifvqc5g","pricing_plan_id":"cebpf4jnsgd1na2vs0mg"},{"bike_id":"d6ff503d-f5e7-4d12-9af2-52d8976efe85","system_id":"levelo_inurba_marseille","lat":43.29259,"lon":5.409,"is_reserved":false,"is_disabled":false,"rental_uris":{"android":"levelo://app?vid=d6ff503d-f5e7-4d12-9af2-52d8976efe85","ios":"levelo://app?vid=d6ff503d-f5e7-4d12-9af2-52d8976efe85"},"vehicle_type_id":"4","last_reported":1740669014,"current_range_meters":7200,"station_id":"ce4bh192rcd13ifvqdc0","pricing_plan_id":"cebpf4jnsgd1na2vs0mg"},{"bike_id":"ff34c52f-56f1-4588-9323-32f37bcf554e","system_id":"levelo_inurba_marseille","lat":43.32344,"lon":5.38859,"is_reserved":false,"is_disabled":false,"rental_uris":{"android":"levelo://app?vid=ff34c52f-56f1-4588-9323-32f37bcf554e","ios":"levelo://app?vid=ff34c52f-56f1-4588-9323-32f37bcf554e"},"vehicle_type_id":"4","last_reported":1740669014,"current_range_meters":8000,"station_id":"ce4bhqp2rcd13ifvqhog","pricing_plan_id":"cebpf4jnsgd1na2vs0mg"},{"bike_id":"43229c1e-4bf8-4302-8f63-ab7667c2ea5c","system_id":"levelo_inurba_marseille","lat":43.27964,"lon":5.39545,"is_reserved":false,"is_disabled":false,"rental_uris":{"android":"levelo://app?vid=43229c1e-4bf8-4302-8f63-ab7667c2ea5c","ios":"levelo://app?vid=43229c1e-4bf8-4302-8f63-ab7667c2ea5c"},"vehicle_type_id":"4","last_reported":1740669014,"current_range_meters":8000,"station_id":"","pricing_plan_id":"cebpf4jnsgd1na2vs0mg"},{"bike_id":"776d8e5d-4c8c-4f97-bfe7-c597541e5f3e","system_id":"levelo_inurba_marseille","lat":43.30087,"lon":5.39061,"is_reserved":false,"is_disabled":false,"rental_uris":{"android":"levelo://app?vid=776d8e5d-4c8c-4f97-bfe7-c597541e5f3e","ios":"levelo://app?vid=776d8e5d-4c8c-4f97-bfe7-c597541e5f3e"},"vehicle_type_id":"4","last_reported":1740669014,"current_range_meters":8000,"station_id":"ce4bh192rcd13ifvqdb0","pricing_plan_id":"cebpf4jnsgd1na2vs0mg"},{"bike_id":"df60e2c1-34de-46d2-b406-ec157fe3436b","system_id":"levelo_inurba_marseille","lat":43.2558,"lon":5.38241,"is_reserved":false,"is_disabled":false,"rental_uris":{"android":"levelo://app?vid=df60e2c1-34de-46d2-b406-ec157fe3436b","ios":"levelo://app?vid=df60e2c1-34de-46d2-b406-ec157fe3436b"},"vehicle_type_id":"4","last_reported":1740669014,"current_range_meters":7200,"station_id":"ce4bhih2rcd13ifvqfs0","pricing_plan_id":"cebpf4jnsgd1na2vs0mg"},{"bike_id":"112c1a00-6aac-4e2f-86bc-844dc36c4f5c","system_id":"levelo_inurba_marseille","lat":43.3134,"lon":5.36718,"is_reserved":false,"is_disabled":false,"rental_uris":{"android":"levelo://app?vid=112c1a00-6aac-4e2f-86bc-844dc36c4f5c","ios":"levelo://app?vid=112c1a00-6aac-4e2f-86bc-844dc36c4f5c"},"vehicle_type_id":"4","last_reported":1740669014,"current_range_meters":8000,"station_id":"ce4bgr92rcd13ifvqc6g","pricing_plan_id":"cebpf4jnsgd1na2vs0mg"},{"bike_id":"154f4ed9-e9ac-4a11-adf3-511abdeffdda","system_id":"levelo_inurba_marseille","lat":43.3096,"lon":5.3904,"is_reserved":false,"is_disabled":false,"rental_uris":{"android":"levelo://app?vid=154f4ed9-e9ac-4a11-adf3-511abdeffdda","ios":"levelo://app?vid=154f4ed9-e9ac-4a11-adf3-511abdeffdda"},"vehicle_type_id":"4","last_reported":1740669014,"current_range_meters":8000,"station_id":"ce4bgup2rcd13ifvqco0","pricing_plan_id":"cebpf4jnsgd1na2vs0mg"},{"bike_id":"850b8d5f-d5cc-4381-b0d6-3342cbf38286","system_id":"levelo_inurba_marseille","lat":43.29607,"lon":5.38084,"is_reserved":false,"is_disabled":false,"rental_uris":{"android":"levelo://app?vid=850b8d5f-d5cc-4381-b0d6-3342cbf38286","ios":"levelo://app?vid=850b8d5f-d5cc-4381-b0d6-3342cbf38286"},"vehicle_type_id":"4","last_reported":1740669014,"current_range_meters":8000,"station_id":"ce4bgl12rcd13ifvqbo0","pricing_plan_id":"cebpf4jnsgd1na2vs0mg"},{"bike_id":"f10f9796-7541-497b-b6e6-805f6c2689ac","system_id":"levelo_inurba_marseille","lat":43.24667,"lon":5.38161,"is_reserved":false,"is_disabled":false,"rental_uris":{"android":"levelo://app?vid=f10f9796-7541-497b-b6e6-805f6c2689ac","ios":"levelo://app?vid=f10f9796-7541-497b-b6e6-805f6c2689ac"},"vehicle_type_id":"4","last_reported":1740669014,"current_range_meters":8400,"station_id":"ce4bhih2rcd13ifvqfr0","pricing_plan_id":"cebpf4jnsgd1na2vs0mg"},{"bike_id":"dfc0caa1-6215-4787-99c9-04097bd6985f","system_id":"levelo_inurba_marseille","lat":43.29607,"lon":5.3811,"is_reserved":false,"is_disabled":false,"rental_uris":{"android":"levelo://app?vid=dfc0caa1-6215-4787-99c9-04097bd6985f","ios":"levelo://app?vid=dfc0caa1-6215-4787-99c9-04097bd6985f"},"vehicle_type_id":"4","last_reported":1740669014,"current_range_meters":8400,"station_id":"ce4bgl12rcd13ifvqbo0","pricing_plan_id":"cebpf4jnsgd1na2vs0mg"},{"bike_id":"5740d0f0-e033-43c2-805a-09ab6675288f","system_id":"levelo_inurba_marseille","lat":43.31234,"lon":5.36849,"is_reserved":false,"is_disabled":false,"rental_uris":{"android":"levelo://app?vid=5740d0f0-e033-43c2-805a-09ab6675288f","ios":"levelo://app?vid=5740d0f0-e033-43c2-805a-09ab6675288f"},"vehicle_type_id":"4","last_reported":1740669014,"current_range_meters":8400,"station_id":"ce4bgl92rcd13ifvqbq0","pricing_plan_id":"cebpf4jnsgd1na2vs0mg"},{"bike_id":"c8a689b8-65ff-49cf-92bf-fdd5667b19d3","system_id":"levelo_inurba_marseille","lat":43.23203,"lon":5.35552,"is_reserved":false,"is_disabled":false,"rental_uris":{"android":"levelo://app?vid=c8a689b8-65ff-49cf-92bf-fdd5667b19d3","ios":"levelo://app?vid=c8a689b8-65ff-49cf-92bf-fdd5667b19d3"},"vehicle_type_id":"4","last_reported":1740669014,"current_range_meters":8800,"station_id":"ce4bhu92rcd13ifvqi70","pricing_plan_id":"cebpf4jnsgd1na2vs0mg"},{"bike_id":"832c7aa0-66bb-4e99-9f1f-f5f45bdd6361","system_id":"levelo_inurba_marseille","lat":43.32359,"lon":5.38874,"is_reserved":false,"is_disabled":false,"rental_uris":{"android":"levelo://app?vid=832c7aa0-66bb-4e99-9f1f-f5f45bdd6361","ios":"levelo://app?vid=832c7aa0-66bb-4e99-9f1f-f5f45bdd6361"},"vehicle_type_id":"4","last_reported":1740669014,"current_range_meters":8800,"station_id":"ce4bhqp2rcd13ifvqhog","pricing_plan_id":"cebpf4jnsgd1na2vs0mg"},{"bike_id":"e92449eb-5b73-4c06-9092-65f4e457da0f","system_id":"levelo_inurba_marseille","lat":43.29302,"lon":5.37464,"is_reserved":false,"is_disabled":false,"rental_uris":{"android":"levelo://app?vid=e92449eb-5b73-4c06-9092-65f4e457da0f","ios":"levelo://app?vid=e92449eb-5b73-4c06-9092-65f4e457da0f"},"vehicle_type_id":"4","last_reported":1740669014,"current_range_meters":6800,"station_id":"ce4bgi12rcd13ifvqb70","pricing_plan_id":"cebpf4jnsgd1na2vs0mg"},{"bike_id":"b11c0d62-51bf-4199-a640-4981d8fa23aa","system_id":"levelo_inurba_marseille","lat":43.25111,"lon":5.40323,"is_reserved":false,"is_disabled":false,"rental_uris":{"android":"levelo://app?vid=b11c0d62-51bf-4199-a640-4981d8fa23aa","ios":"levelo://app?vid=b11c0d62-51bf-4199-a640-4981d8fa23aa"},"vehicle_type_id":"4","last_reported":1740669014,"current_range_meters":8400,"station_id":"ce4bhlh2rcd13ifvqgig","pricing_plan_id":"cebpf4jnsgd1na2vs0mg"},{"bike_id":"c9a9637e-a260-48ee-81c6-0a2c4db5ba1d","system_id":"levelo_inurba_marseille","lat":43.27078,"lon":5.4228,"is_reserved":false,"is_disabled":false,"rental_uris":{"android":"levelo://app?vid=c9a9637e-a260-48ee-81c6-0a2c4db5ba1d","ios":"levelo://app?vid=c9a9637e-a260-48ee-81c6-0a2c4db5ba1d"},"vehicle_type_id":"4","last_reported":1740669014,"current_range_meters":9200,"station_id":"ce4bhk92rcd13ifvqgb0","pricing_plan_id":"cebpf4jnsgd1na2vs0mg"},{"bike_id":"213987f4-bca9-4889-be01-a02078a17f1f","system_id":"levelo_inurba_marseille","lat":43.31112,"lon":5.37781,"is_reserved":false,"is_disabled":false,"rental_uris":{"android":"levelo://app?vid=213987f4-bca9-4889-be01-a02078a17f1f","ios":"levelo://app?vid=213987f4-bca9-4889-be01-a02078a17f1f"},"vehicle_type_id":"4","last_reported":1740669014,"current_range_meters":9200,"station_id":"ce4bgt92rcd13ifvqcg0","pricing_plan_id":"cebpf4jnsgd1na2vs0mg"},{"bike_id":"8aeabf39-270a-490b-a78f-7285046f1db1","system_id":"levelo_inurba_marseille","lat":43.30529,"lon":5.3671,"is_reserved":false,"is_disabled":false,"rental_uris":{"android":"levelo://app?vid=8aeabf39-270a-490b-a78f-7285046f1db1","ios":"levelo://app?vid=8aeabf39-270a-490b-a78f-7285046f1db1"},"vehicle_type_id":"4","last_reported":1740669014,"current_range_meters":9200,"station_id":"ce4bgrp2rcd13ifvqc9g","pricing_plan_id":"cebpf4jnsgd1na2vs0mg"},{"bike_id":"afd98e29-9e65-49b1-96e9-da6c0e62de76","system_id":"levelo_inurba_marseille","lat":43.29241,"lon":5.38198,"is_reserved":false,"is_disabled":false,"rental_uris":{"android":"levelo://app?vid=afd98e29-9e65-49b1-96e9-da6c0e62de76","ios":"levelo://app?vid=afd98e29-9e65-49b1-96e9-da6c0e62de76"},"vehicle_type_id":"4","last_reported":1740669014,"current_range_meters":9600,"station_id":"","pricing_plan_id":"cebpf4jnsgd1na2vs0mg"},{"bike_id":"45807ece-0c75-4005-9d3b-5c0f56616e67","system_id":"levelo_inurba_marseille","lat":43.25587,"lon":5.38223,"is_reserved":false,"is_disabled":false,"rental_uris":{"android":"levelo://app?vid=45807ece-0c75-4005-9d3b-5c0f56616e67","ios":"levelo://app?vid=45807ece-0c75-4005-9d3b-5c0f56616e67"},"vehicle_type_id":"4","last_reported":1740669014,"current_range_meters":14000,"station_id":"ce4bhih2rcd13ifvqfs0","pricing_plan_id":"cebpf4jnsgd1na2vs0mg"},{"bike_id":"82d64e81-8d40-4c80-b5b5-a958f80dbced","system_id":"levelo_inurba_marseille","lat":43.28406,"lon":5.35019,"is_reserved":false,"is_disabled":false,"rental_uris":{"android":"levelo://app?vid=82d64e81-8d40-4c80-b5b5-a958f80dbced","ios":"levelo://app?vid=82d64e81-8d40-4c80-b5b5-a958f80dbced"},"vehicle_type_id":"4","last_reported":1740669014,"current_range_meters":9600,"station_id":"ce4bhbh2rcd13ifvqepg","pricing_plan_id":"cebpf4jnsgd1na2vs0mg"},{"bike_id":"522bf755-23ed-4894-8d44-591899ea74d7","system_id":"levelo_inurba_marseille","lat":43.25946,"lon":5.40901,"is_reserved":false,"is_disabled":false,"rental_uris":{"android":"levelo://app?vid=522bf755-23ed-4894-8d44-591899ea74d7","ios":"levelo://app?vid=522bf755-23ed-4894-8d44-591899ea74d7"},"vehicle_type_id":"4","last_reported":1740669014,"current_range_meters":9600,"station_id":"ce4bhm92rcd13ifvqglg","pricing_plan_id":"cebpf4jnsgd1na2vs0mg"},{"bike_id":"5e9729c5-811c-48e9-8ddc-c687cdfdb92d","system_id":"levelo_inurba_marseille","lat":43.28944,"lon":5.36402,"is_reserved":false,"is_disabled":false,"rental_uris":{"android":"levelo://app?vid=5e9729c5-811c-48e9-8ddc-c687cdfdb92d","ios":"levelo://app?vid=5e9729c5-811c-48e9-8ddc-c687cdfdb92d"},"vehicle_type_id":"4","last_reported":1740669014,"current_range_meters":9200,"station_id":"ce4bhc92rcd13ifvqetg","pricing_plan_id":"cebpf4jnsgd1na2vs0mg"},{"bike_id":"a364160a-4c3d-422d-a1ae-fb03fe4f60b7","system_id":"levelo_inurba_marseille","lat":43.29802,"lon":5.37114,"is_reserved":false,"is_disabled":false,"rental_uris":{"android":"levelo://app?vid=a364160a-4c3d-422d-a1ae-fb03fe4f60b7","ios":"levelo://app?vid=a364160a-4c3d-422d-a1ae-fb03fe4f60b7"},"vehicle_type_id":"4","last_reported":1740669014,"current_range_meters":9600,"station_id":"ce4bgop2rcd13ifvqc1g","pricing_plan_id":"cebpf4jnsgd1na2vs0mg"},{"bike_id":"e65c0076-93f5-4c37-b281-dbdaf0440c85","system_id":"levelo_inurba_marseille","lat":43.26227,"lon":5.40447,"is_reserved":false,"is_disabled":false,"rental_uris":{"android":"levelo://app?vid=e65c0076-93f5-4c37-b281-dbdaf0440c85","ios":"levelo://app?vid=e65c0076-93f5-4c37-b281-dbdaf0440c85"},"vehicle_type_id":"4","last_reported":1740669014,"current_range_meters":9600,"station_id":"ce4bhmh2rcd13ifvqgmg","pricing_plan_id":"cebpf4jnsgd1na2vs0mg"},{"bike_id":"ac46a519-e819-409c-a9a3-bac51afdb0eb","system_id":"levelo_inurba_marseille","lat":43.2757,"lon":5.38423,"is_reserved":false,"is_disabled":false,"rental_uris":{"android":"levelo://app?vid=ac46a519-e819-409c-a9a3-bac51afdb0eb","ios":"levelo://app?vid=ac46a519-e819-409c-a9a3-bac51afdb0eb"},"vehicle_type_id":"4","last_reported":1740669014,"current_range_meters":9600,"station_id":"ce4bhh92rcd13ifvqfi0","pricing_plan_id":"cebpf4jnsgd1na2vs0mg"},{"bike_id":"19e4983d-b74d-4524-9c14-80fb6905f947","system_id":"levelo_inurba_marseille","lat":43.32106,"lon":5.36795,"is_reserved":false,"is_disabled":false,"rental_uris":{"android":"levelo://app?vid=19e4983d-b74d-4524-9c14-80fb6905f947","ios":"levelo://app?vid=19e4983d-b74d-4524-9c14-80fb6905f947"},"vehicle_type_id":"4","last_reported":1740669014,"current_range_meters":9600,"station_id":"ce4bhrh2rcd13ifvqhug","pricing_plan_id":"cebpf4jnsgd1na2vs0mg"},{"bike_id":"05ce6b9e-9996-42ae-ba0d-4e477fb8c682","system_id":"levelo_inurba_marseille","lat":43.29004,"lon":5.35618,"is_reserved":false,"is_disabled":false,"rental_uris":{"android":"levelo://app?vid=05ce6b9e-9996-42ae-ba0d-4e477fb8c682","ios":"levelo://app?vid=05ce6b9e-9996-42ae-ba0d-4e477fb8c682"},"vehicle_type_id":"4","last_reported":1740669014,"current_range_meters":9600,"station_id":"ce4bhb92rcd13ifvqen0","pricing_plan_id":"cebpf4jnsgd1na2vs0mg"},{"bike_id":"02cc2372-404c-4579-ad86-798421fb7c0d","system_id":"levelo_inurba_marseille","lat":43.24088,"lon":5.37744,"is_reserved":false,"is_disabled":false,"rental_uris":{"android":"levelo://app?vid=02cc2372-404c-4579-ad86-798421fb7c0d","ios":"levelo://app?vid=02cc2372-404c-4579-ad86-798421fb7c0d"},"vehicle_type_id":"4","last_reported":1740669014,"current_range_meters":9600,"station_id":"ce4bhnp2rcd13ifvqgvg","pricing_plan_id":"cebpf4jnsgd1na2vs0mg"},{"bike_id":"10c577bf-aad3-4d82-908c-06f52745f7ee","system_id":"levelo_inurba_marseille","lat":43.30542,"lon":5.38412,"is_reserved":false,"is_disabled":false,"rental_uris":{"android":"levelo://app?vid=10c577bf-aad3-4d82-908c-06f52745f7ee","ios":"levelo://app?vid=10c577bf-aad3-4d82-908c-06f52745f7ee"},"vehicle_type_id":"4","last_reported":1740669014,"current_range_meters":10000,"station_id":"ce4bgg92rcd13ifvqb30","pricing_plan_id":"cebpf4jnsgd1na2vs0mg"},{"bike_id":"885a3502-c93e-4848-9cd9-d22e94b7b93d","system_id":"levelo_inurba_marseille","lat":43.28421,"lon":5.34989,"is_reserved":false,"is_disabled":false,"rental_uris":{"android":"levelo://app?vid=885a3502-c93e-4848-9cd9-d22e94b7b93d","ios":"levelo://app?vid=885a3502-c93e-4848-9cd9-d22e94b7b93d"},"vehicle_type_id":"4","last_reported":1740669014,"current_range_meters":4800,"station_id":"ce4bhbh2rcd13ifvqepg","pricing_plan_id":"cebpf4jnsgd1na2vs0mg"},{"bike_id":"91f909e9-358e-43ed-a45f-822af931a978","system_id":"levelo_inurba_marseille","lat":43.23217,"lon":5.40359,"is_reserved":false,"is_disabled":false,"rental_uris":{"android":"levelo://app?vid=91f909e9-358e-43ed-a45f-822af931a978","ios":"levelo://app?vid=91f909e9-358e-43ed-a45f-822af931a978"},"vehicle_type_id":"4","last_reported":1740669014,"current_range_meters":9600,"station_id":"","pricing_plan_id":"cebpf4jnsgd1na2vs0mg"},{"bike_id":"770ae70b-22c8-4878-9559-54f37da87f6d","system_id":"levelo_inurba_marseille","lat":43.23203,"lon":5.35545,"is_reserved":false,"is_disabled":false,"rental_uris":{"android":"levelo://app?vid=770ae70b-22c8-4878-9559-54f37da87f6d","ios":"levelo://app?vid=770ae70b-22c8-4878-9559-54f37da87f6d"},"vehicle_type_id":"4","last_reported":1740669014,"current_range_meters":10000,"station_id":"ce4bhu92rcd13ifvqi70","pricing_plan_id":"cebpf4jnsgd1na2vs0mg"},{"bike_id":"fcaf2a33-a63b-447f-85e9-4ff37fb581b6","system_id":"levelo_inurba_marseille","lat":43.29534,"lon":5.39054,"is_reserved":false,"is_disabled":false,"rental_uris":{"android":"levelo://app?vid=fcaf2a33-a63b-447f-85e9-4ff37fb581b6","ios":"levelo://app?vid=fcaf2a33-a63b-447f-85e9-4ff37fb581b6"},"vehicle_type_id":"4","last_reported":1740669014,"current_range_meters":10000,"station_id":"ce4bh3p2rcd13ifvqdp0","pricing_plan_id":"cebpf4jnsgd1na2vs0mg"},{"bike_id":"38ce25e9-ea72-4ac7-8b71-aca8710e5553","system_id":"levelo_inurba_marseille","lat":43.30963,"lon":5.39047,"is_reserved":false,"is_disabled":false,"rental_uris":{"android":"levelo://app?vid=38ce25e9-ea72-4ac7-8b71-aca8710e5553","ios":"levelo://app?vid=38ce25e9-ea72-4ac7-8b71-aca8710e5553"},"vehicle_type_id":"4","last_reported":1740669014,"current_range_meters":10000,"station_id":"ce4bgup2rcd13ifvqco0","pricing_plan_id":"cebpf4jnsgd1na2vs0mg"},{"bike_id":"c3e344a1-e3b9-472a-a9ad-266ee88ed38f","system_id":"levelo_inurba_marseille","lat":43.29263,"lon":5.37608,"is_reserved":false,"is_disabled":false,"rental_uris":{"android":"levelo://app?vid=c3e344a1-e3b9-472a-a9ad-266ee88ed38f","ios":"levelo://app?vid=c3e344a1-e3b9-472a-a9ad-266ee88ed38f"},"vehicle_type_id":"4","last_reported":1740669014,"current_range_meters":10000,"station_id":"ce4bgi12rcd13ifvqb80","pricing_plan_id":"cebpf4jnsgd1na2vs0mg"},{"bike_id":"03ecd382-3850-4874-86ef-0467a1a8c988","system_id":"levelo_inurba_marseille","lat":43.24146,"lon":5.39748,"is_reserved":false,"is_disabled":true,"rental_uris":{"android":"levelo://app?vid=03ecd382-3850-4874-86ef-0467a1a8c988","ios":"levelo://app?vid=03ecd382-3850-4874-86ef-0467a1a8c988"},"vehicle_type_id":"4","last_reported":1740669014,"current_range_meters":10000,"station_id":"ce4bhn12rcd13ifvqgpg","pricing_plan_id":"cebpf4jnsgd1na2vs0mg"},{"bike_id":"cca746aa-dc8e-4488-be2e-f08f5457a279","system_id":"levelo_inurba_marseille","lat":43.30533,"lon":5.36517,"is_reserved":false,"is_disabled":false,"rental_uris":{"android":"levelo://app?vid=cca746aa-dc8e-4488-be2e-f08f5457a279","ios":"levelo://app?vid=cca746aa-dc8e-4488-be2e-f08f5457a279"},"vehicle_type_id":"4","last_reported":1740669014,"current_range_meters":10000,"station_id":"ce4bgs12rcd13ifvqcag","pricing_plan_id":"cebpf4jnsgd1na2vs0mg"},{"bike_id":"fe8c1ba7-9832-4119-b051-0666926070d7","system_id":"levelo_inurba_marseille","lat":43.26789,"lon":5.39418,"is_reserved":false,"is_disabled":false,"rental_uris":{"android":"levelo://app?vid=fe8c1ba7-9832-4119-b051-0666926070d7","ios":"levelo://app?vid=fe8c1ba7-9832-4119-b051-0666926070d7"},"vehicle_type_id":"4","last_reported":1740669014,"current_range_meters":9600,"station_id":"ce4bhh12rcd13ifvqfg0","pricing_plan_id":"cebpf4jnsgd1na2vs0mg"},{"bike_id":"483386df-03c4-4f33-aa0e-7e8dcecfc9ee","system_id":"levelo_inurba_marseille","lat":43.29518,"lon":5.37503,"is_reserved":false,"is_disabled":false,"rental_uris":{"android":"levelo://app?vid=483386df-03c4-4f33-aa0e-7e8dcecfc9ee","ios":"levelo://app?vid=483386df-03c4-4f33-aa0e-7e8dcecfc9ee"},"vehicle_type_id":"4","last_reported":1740669014,"current_range_meters":9200,"station_id":"ce4bgkp2rcd13ifvqbmg","pricing_plan_id":"cebpf4jnsgd1na2vs0mg"},{"bike_id":"577c9987-3613-457b-80a8-586667059604","system_id":"levelo_inurba_marseille","lat":43.24996,"lon":5.38935,"is_reserved":false,"is_disabled":false,"rental_uris":{"android":"levelo://app?vid=577c9987-3613-457b-80a8-586667059604","ios":"levelo://app?vid=577c9987-3613-457b-80a8-586667059604"},"vehicle_type_id":"4","last_reported":1740669014,"current_range_meters":7200,"station_id":"ce4bhgp2rcd13ifvqfd0","pricing_plan_id":"cebpf4jnsgd1na2vs0mg"},{"bike_id":"57b98871-9fca-4364-9033-b7904a556b4b","system_id":"levelo_inurba_marseille","lat":43.31076,"lon":5.38359,"is_reserved":false,"is_disabled":false,"rental_uris":{"android":"levelo://app?vid=57b98871-9fca-4364-9033-b7904a556b4b","ios":"levelo://app?vid=57b98871-9fca-4364-9033-b7904a556b4b"},"vehicle_type_id":"4","last_reported":1740669014,"current_range_meters":8000,"station_id":"ce4bgv92rcd13ifvqcr0","pricing_plan_id":"cebpf4jnsgd1na2vs0mg"},{"bike_id":"e5c4159e-1b69-403c-900c-f56cee27c4b9","system_id":"levelo_inurba_marseille","lat":43.29009,"lon":5.35606,"is_reserved":false,"is_disabled":false,"rental_uris":{"android":"levelo://app?vid=e5c4159e-1b69-403c-900c-f56cee27c4b9","ios":"levelo://app?vid=e5c4159e-1b69-403c-900c-f56cee27c4b9"},"vehicle_type_id":"4","last_reported":1740669014,"current_range_meters":10800,"station_id":"ce4bhb92rcd13ifvqen0","pricing_plan_id":"cebpf4jnsgd1na2vs0mg"},{"bike_id":"7ba82cbd-178b-4ad4-9481-0e02bc10a95f","system_id":"levelo_inurba_marseille","lat":43.26805,"lon":5.40276,"is_reserved":false,"is_disabled":false,"rental_uris":{"android":"levelo://app?vid=7ba82cbd-178b-4ad4-9481-0e02bc10a95f","ios":"levelo://app?vid=7ba82cbd-178b-4ad4-9481-0e02bc10a95f"},"vehicle_type_id":"4","last_reported":1740669014,"current_range_meters":10800,"station_id":"ce501612rcd8frsf0b60","pricing_plan_id":"cebpf4jnsgd1na2vs0mg"},{"bike_id":"ceada319-f43c-489f-8514-905ab74c8e1c","system_id":"levelo_inurba_marseille","lat":43.29919,"lon":5.37488,"is_reserved":false,"is_disabled":false,"rental_uris":{"android":"levelo://app?vid=ceada319-f43c-489f-8514-905ab74c8e1c","ios":"levelo://app?vid=ceada319-f43c-489f-8514-905ab74c8e1c"},"vehicle_type_id":"4","last_reported":1740669014,"current_range_meters":11200,"station_id":"ce4bgjh2rcd13ifvqbg0","pricing_plan_id":"cebpf4jnsgd1na2vs0mg"},{"bike_id":"cd4d9049-abcc-431c-b86e-60bcc7e02934","system_id":"levelo_inurba_marseille","lat":43.29851,"lon":5.36284,"is_reserved":false,"is_disabled":false,"rental_uris":{"android":"levelo://app?vid=cd4d9049-abcc-431c-b86e-60bcc7e02934","ios":"levelo://app?vid=cd4d9049-abcc-431c-b86e-60bcc7e02934"},"vehicle_type_id":"4","last_reported":1740669014,"current_range_meters":12000,"station_id":"ce4bgpp2rcd13ifvqc3g","pricing_plan_id":"cebpf4jnsgd1na2vs0mg"},{"bike_id":"1c31eeb1-2cae-4401-a64f-f600aef3761c","system_id":"levelo_inurba_marseille","lat":43.31112,"lon":5.37773,"is_reserved":false,"is_disabled":false,"rental_uris":{"android":"levelo://app?vid=1c31eeb1-2cae-4401-a64f-f600aef3761c","ios":"levelo://app?vid=1c31eeb1-2cae-4401-a64f-f600aef3761c"},"vehicle_type_id":"4","last_reported":1740669014,"current_range_meters":10000,"station_id":"ce4bgt92rcd13ifvqcg0","pricing_plan_id":"cebpf4jnsgd1na2vs0mg"},{"bike_id":"a0248e67-d308-4e62-93f0-ca18afaf6053","system_id":"levelo_inurba_marseille","lat":43.3108,"lon":5.38368,"is_reserved":false,"is_disabled":false,"rental_uris":{"android":"levelo://app?vid=a0248e67-d308-4e62-93f0-ca18afaf6053","ios":"levelo://app?vid=a0248e67-d308-4e62-93f0-ca18afaf6053"},"vehicle_type_id":"4","last_reported":1740669014,"current_range_meters":11600,"station_id":"ce4bgv92rcd13ifvqcr0","pricing_plan_id":"cebpf4jnsgd1na2vs0mg"},{"bike_id":"7843fef8-fa6b-4b02-9a30-0d426bde2243","system_id":"levelo_inurba_marseille","lat":43.250063,"lon":5.389409,"is_reserved":false,"is_disabled":false,"rental_uris":{"android":"levelo://app?vid=7843fef8-fa6b-4b02-9a30-0d426bde2243","ios":"levelo://app?vid=7843fef8-fa6b-4b02-9a30-0d426bde2243"},"vehicle_type_id":"4","last_reported":1740669014,"current_range_meters":12000,"station_id":"ce4bhgp2rcd13ifvqfd0","pricing_plan_id":"cebpf4jnsgd1na2vs0mg"},{"bike_id":"7ba56adb-fef1-4fb4-94ed-3de8114f6441","system_id":"levelo_inurba_marseille","lat":43.3132,"lon":5.36665,"is_reserved":false,"is_disabled":false,"rental_uris":{"android":"levelo://app?vid=7ba56adb-fef1-4fb4-94ed-3de8114f6441","ios":"levelo://app?vid=7ba56adb-fef1-4fb4-94ed-3de8114f6441"},"vehicle_type_id":"4","last_reported":1740669014,"current_range_meters":11200,"station_id":"ce4bgr92rcd13ifvqc6g","pricing_plan_id":"cebpf4jnsgd1na2vs0mg"},{"bike_id":"b9ff1ef2-cb6c-4183-a656-9573e8e7d597","system_id":"levelo_inurba_marseille","lat":43.30279,"lon":5.37698,"is_reserved":false,"is_disabled":false,"rental_uris":{"android":"levelo://app?vid=b9ff1ef2-cb6c-4183-a656-9573e8e7d597","ios":"levelo://app?vid=b9ff1ef2-cb6c-4183-a656-9573e8e7d597"},"vehicle_type_id":"4","last_reported":1740669014,"current_range_meters":11200,"station_id":"ce4bguh2rcd13ifvqcj0","pricing_plan_id":"cebpf4jnsgd1na2vs0mg"},{"bike_id":"2837d85d-02af-49af-900a-3b751e6ef0d6","system_id":"levelo_inurba_marseille","lat":43.32113,"lon":5.36762,"is_reserved":false,"is_disabled":false,"rental_uris":{"android":"levelo://app?vid=2837d85d-02af-49af-900a-3b751e6ef0d6","ios":"levelo://app?vid=2837d85d-02af-49af-900a-3b751e6ef0d6"},"vehicle_type_id":"4","last_reported":1740669014,"current_range_meters":12000,"station_id":"ce4bhrh2rcd13ifvqhug","pricing_plan_id":"cebpf4jnsgd1na2vs0mg"},{"bike_id":"8db16df0-a350-41c7-a4a8-e58de95c1246","system_id":"levelo_inurba_marseille","lat":43.24073,"lon":5.3776,"is_reserved":false,"is_disabled":false,"rental_uris":{"android":"levelo://app?vid=8db16df0-a350-41c7-a4a8-e58de95c1246","ios":"levelo://app?vid=8db16df0-a350-41c7-a4a8-e58de95c1246"},"vehicle_type_id":"4","last_reported":1740669014,"current_range_meters":11600,"station_id":"ce4bhnp2rcd13ifvqgvg","pricing_plan_id":"cebpf4jnsgd1na2vs0mg"},{"bike_id":"d1c19e30-9464-4956-bfd9-8938b93b3166","system_id":"levelo_inurba_marseille","lat":43.24183,"lon":5.39717,"is_reserved":false,"is_disabled":false,"rental_uris":{"android":"levelo://app?vid=d1c19e30-9464-4956-bfd9-8938b93b3166","ios":"levelo://app?vid=d1c19e30-9464-4956-bfd9-8938b93b3166"},"vehicle_type_id":"4","last_reported":1740669014,"current_range_meters":11600,"station_id":"ce4bhn12rcd13ifvqgpg","pricing_plan_id":"cebpf4jnsgd1na2vs0mg"},{"bike_id":"9c05c137-ce73-4888-83ec-51c9674942d3","system_id":"levelo_inurba_marseille","lat":43.31381,"lon":5.36669,"is_reserved":false,"is_disabled":false,"rental_uris":{"android":"levelo://app?vid=9c05c137-ce73-4888-83ec-51c9674942d3","ios":"levelo://app?vid=9c05c137-ce73-4888-83ec-51c9674942d3"},"vehicle_type_id":"4","last_reported":1740669014,"current_range_meters":12000,"station_id":"ce4bgr92rcd13ifvqc6g","pricing_plan_id":"cebpf4jnsgd1na2vs0mg"},{"bike_id":"8fa5859d-e84b-461a-a56e-decdad24d4ae","system_id":"levelo_inurba_marseille","lat":43.28235,"lon":5.38287,"is_reserved":false,"is_disabled":false,"rental_uris":{"android":"levelo://app?vid=8fa5859d-e84b-461a-a56e-decdad24d4ae","ios":"levelo://app?vid=8fa5859d-e84b-461a-a56e-decdad24d4ae"},"vehicle_type_id":"4","last_reported":1740669014,"current_range_meters":12000,"station_id":"ce4bgs92rcd13ifvqcc0","pricing_plan_id":"cebpf4jnsgd1na2vs0mg"},{"bike_id":"bcf80abc-586b-4f7a-a120-37dad502f2d6","system_id":"levelo_inurba_marseille","lat":43.2806,"lon":5.38594,"is_reserved":false,"is_disabled":false,"rental_uris":{"android":"levelo://app?vid=bcf80abc-586b-4f7a-a120-37dad502f2d6","ios":"levelo://app?vid=bcf80abc-586b-4f7a-a120-37dad502f2d6"},"vehicle_type_id":"4","last_reported":1740669014,"current_range_meters":12000,"station_id":"","pricing_plan_id":"cebpf4jnsgd1na2vs0mg"},{"bike_id":"f2e9e121-2f3f-43c3-90ea-22bc845c0a94","system_id":"levelo_inurba_marseille","lat":43.2738,"lon":5.36247,"is_reserved":false,"is_disabled":false,"rental_uris":{"android":"levelo://app?vid=f2e9e121-2f3f-43c3-90ea-22bc845c0a94","ios":"levelo://app?vid=f2e9e121-2f3f-43c3-90ea-22bc845c0a94"},"vehicle_type_id":"4","last_reported":1740669014,"current_range_meters":12400,"station_id":"ce4bhbh2rcd13ifvqeo0","pricing_plan_id":"cebpf4jnsgd1na2vs0mg"},{"bike_id":"0a3a40b9-ef61-4fd7-bbd9-c13123c4cf06","system_id":"levelo_inurba_marseille","lat":43.27614,"lon":5.36111,"is_reserved":false,"is_disabled":false,"rental_uris":{"android":"levelo://app?vid=0a3a40b9-ef61-4fd7-bbd9-c13123c4cf06","ios":"levelo://app?vid=0a3a40b9-ef61-4fd7-bbd9-c13123c4cf06"},"vehicle_type_id":"4","last_reported":1740669014,"current_range_meters":12400,"station_id":"ce4bgj92rcd13ifvqbe0","pricing_plan_id":"cebpf4jnsgd1na2vs0mg"},{"bike_id":"920672ee-e7df-406f-abce-0fc259f75753","system_id":"levelo_inurba_marseille","lat":43.30141,"lon":5.39858,"is_reserved":false,"is_disabled":false,"rental_uris":{"android":"levelo://app?vid=920672ee-e7df-406f-abce-0fc259f75753","ios":"levelo://app?vid=920672ee-e7df-406f-abce-0fc259f75753"},"vehicle_type_id":"4","last_reported":1740669014,"current_range_meters":12400,"station_id":"ce4bh0h2rcd13ifvqd40","pricing_plan_id":"cebpf4jnsgd1na2vs0mg"},{"bike_id":"c9a46336-8808-467e-8593-79b169fe9875","system_id":"levelo_inurba_marseille","lat":43.23158,"lon":5.43685,"is_reserved":false,"is_disabled":false,"rental_uris":{"android":"levelo://app?vid=c9a46336-8808-467e-8593-79b169fe9875","ios":"levelo://app?vid=c9a46336-8808-467e-8593-79b169fe9875"},"vehicle_type_id":"4","last_reported":1740669014,"current_range_meters":13600,"station_id":"ce4bhmp2rcd13ifvqgog","pricing_plan_id":"cebpf4jnsgd1na2vs0mg"},{"bike_id":"8b97f572-6faf-457b-9fc0-b24ecd2c08e3","system_id":"levelo_inurba_marseille","lat":43.25123,"lon":5.40314,"is_reserved":false,"is_disabled":false,"rental_uris":{"android":"levelo://app?vid=8b97f572-6faf-457b-9fc0-b24ecd2c08e3","ios":"levelo://app?vid=8b97f572-6faf-457b-9fc0-b24ecd2c08e3"},"vehicle_type_id":"4","last_reported":1740669014,"current_range_meters":12400,"station_id":"ce4bhlh2rcd13ifvqgig","pricing_plan_id":"cebpf4jnsgd1na2vs0mg"},{"bike_id":"f504f141-12e5-4013-8f54-18baf7244b0c","system_id":"levelo_inurba_marseille","lat":43.29032,"lon":5.3864,"is_reserved":false,"is_disabled":false,"rental_uris":{"android":"levelo://app?vid=f504f141-12e5-4013-8f54-18baf7244b0c","ios":"levelo://app?vid=f504f141-12e5-4013-8f54-18baf7244b0c"},"vehicle_type_id":"4","last_reported":1740669014,"current_range_meters":11200,"station_id":"ce4bh4p2rcd13ifvqe0g","pricing_plan_id":"cebpf4jnsgd1na2vs0mg"},{"bike_id":"1393e48a-5096-48c2-8ef4-ef737b7b43ae","system_id":"levelo_inurba_marseille","lat":43.25089,"lon":5.3951,"is_reserved":false,"is_disabled":false,"rental_uris":{"android":"levelo://app?vid=1393e48a-5096-48c2-8ef4-ef737b7b43ae","ios":"levelo://app?vid=1393e48a-5096-48c2-8ef4-ef737b7b43ae"},"vehicle_type_id":"4","last_reported":1740669014,"current_range_meters":14000,"station_id":"ce4bhm12rcd13ifvqgkg","pricing_plan_id":"cebpf4jnsgd1na2vs0mg"},{"bike_id":"0abbdd9c-d6a9-4a82-8db6-7dae94e8d28b","system_id":"levelo_inurba_marseille","lat":43.27382,"lon":5.3626,"is_reserved":false,"is_disabled":false,"rental_uris":{"android":"levelo://app?vid=0abbdd9c-d6a9-4a82-8db6-7dae94e8d28b","ios":"levelo://app?vid=0abbdd9c-d6a9-4a82-8db6-7dae94e8d28b"},"vehicle_type_id":"4","last_reported":1740669014,"current_range_meters":12800,"station_id":"ce4bhbh2rcd13ifvqeo0","pricing_plan_id":"cebpf4jnsgd1na2vs0mg"},{"bike_id":"b1abd704-283d-4f44-a6f6-c162360f7b32","system_id":"levelo_inurba_marseille","lat":43.31719,"lon":5.43706,"is_reserved":false,"is_disabled":false,"rental_uris":{"android":"levelo://app?vid=b1abd704-283d-4f44-a6f6-c162360f7b32","ios":"levelo://app?vid=b1abd704-283d-4f44-a6f6-c162360f7b32"},"vehicle_type_id":"4","last_reported":1740669014,"current_range_meters":12800,"station_id":"ce4bhp92rcd13ifvqhcg","pricing_plan_id":"cebpf4jnsgd1na2vs0mg"},{"bike_id":"3642d59d-ac6e-45ea-a6b6-2578778ba48c","system_id":"levelo_inurba_marseille","lat":43.31758,"lon":5.3902,"is_reserved":false,"is_disabled":false,"rental_uris":{"android":"levelo://app?vid=3642d59d-ac6e-45ea-a6b6-2578778ba48c","ios":"levelo://app?vid=3642d59d-ac6e-45ea-a6b6-2578778ba48c"},"vehicle_type_id":"4","last_reported":1740669014,"current_range_meters":12800,"station_id":"ce4bhqp2rcd13ifvqhng","pricing_plan_id":"cebpf4jnsgd1na2vs0mg"},{"bike_id":"443370dd-f8b8-457a-b6f8-389b804ff6fc","system_id":"levelo_inurba_marseille","lat":43.32373,"lon":5.38878,"is_reserved":false,"is_disabled":false,"rental_uris":{"android":"levelo://app?vid=443370dd-f8b8-457a-b6f8-389b804ff6fc","ios":"levelo://app?vid=443370dd-f8b8-457a-b6f8-389b804ff6fc"},"vehicle_type_id":"4","last_reported":1740669014,"current_range_meters":12800,"station_id":"ce4bhqp2rcd13ifvqhog","pricing_plan_id":"cebpf4jnsgd1na2vs0mg"},{"bike_id":"0f2abc8e-0846-42bf-87d9-061743ab7b4a","system_id":"levelo_inurba_marseille","lat":43.23195,"lon":5.35544,"is_reserved":false,"is_disabled":false,"rental_uris":{"android":"levelo://app?vid=0f2abc8e-0846-42bf-87d9-061743ab7b4a","ios":"levelo://app?vid=0f2abc8e-0846-42bf-87d9-061743ab7b4a"},"vehicle_type_id":"4","last_reported":1740669014,"current_range_meters":12800,"station_id":"ce4bhu92rcd13ifvqi70","pricing_plan_id":"cebpf4jnsgd1na2vs0mg"},{"bike_id":"d155a60d-e183-4f8b-b4af-d008a652110f","system_id":"levelo_inurba_marseille","lat":43.29856,"lon":5.36282,"is_reserved":false,"is_disabled":false,"rental_uris":{"android":"levelo://app?vid=d155a60d-e183-4f8b-b4af-d008a652110f","ios":"levelo://app?vid=d155a60d-e183-4f8b-b4af-d008a652110f"},"vehicle_type_id":"4","last_reported":1740669014,"current_range_meters":12800,"station_id":"ce4bgpp2rcd13ifvqc3g","pricing_plan_id":"cebpf4jnsgd1na2vs0mg"},{"bike_id":"c1dd7c28-cbba-4832-872d-ace487569fa6","system_id":"levelo_inurba_marseille","lat":43.30951,"lon":5.3903,"is_reserved":false,"is_disabled":false,"rental_uris":{"android":"levelo://app?vid=c1dd7c28-cbba-4832-872d-ace487569fa6","ios":"levelo://app?vid=c1dd7c28-cbba-4832-872d-ace487569fa6"},"vehicle_type_id":"4","last_reported":1740669014,"current_range_meters":13600,"station_id":"ce4bgup2rcd13ifvqco0","pricing_plan_id":"cebpf4jnsgd1na2vs0mg"},{"bike_id":"3de9aeda-1f9a-4bbc-8b90-e02a49e56ca9","system_id":"levelo_inurba_marseille","lat":43.231909,"lon":5.355619,"is_reserved":false,"is_disabled":false,"rental_uris":{"android":"levelo://app?vid=3de9aeda-1f9a-4bbc-8b90-e02a49e56ca9","ios":"levelo://app?vid=3de9aeda-1f9a-4bbc-8b90-e02a49e56ca9"},"vehicle_type_id":"4","last_reported":1740669014,"current_range_meters":13600,"station_id":"ce4bhu92rcd13ifvqi70","pricing_plan_id":"cebpf4jnsgd1na2vs0mg"},{"bike_id":"af204ba1-4164-4887-b622-3048e8be38bb","system_id":"levelo_inurba_marseille","lat":43.31172,"lon":5.38721,"is_reserved":false,"is_disabled":false,"rental_uris":{"android":"levelo://app?vid=af204ba1-4164-4887-b622-3048e8be38bb","ios":"levelo://app?vid=af204ba1-4164-4887-b622-3048e8be38bb"},"vehicle_type_id":"4","last_reported":1740669014,"current_range_meters":14000,"station_id":"ce4bgv12rcd13ifvqcp0","pricing_plan_id":"cebpf4jnsgd1na2vs0mg"},{"bike_id":"4363946c-cd8e-44dc-ba3f-15e3d78351f7","system_id":"levelo_inurba_marseille","lat":43.27383,"lon":5.36253,"is_reserved":false,"is_disabled":false,"rental_uris":{"android":"levelo://app?vid=4363946c-cd8e-44dc-ba3f-15e3d78351f7","ios":"levelo://app?vid=4363946c-cd8e-44dc-ba3f-15e3d78351f7"},"vehicle_type_id":"4","last_reported":1740669014,"current_range_meters":14000,"station_id":"ce4bhbh2rcd13ifvqeo0","pricing_plan_id":"cebpf4jnsgd1na2vs0mg"},{"bike_id":"df94eac8-6731-4a29-b5fb-fa40dcdf9de4","system_id":"levelo_inurba_marseille","lat":43.24064,"lon":5.37769,"is_reserved":false,"is_disabled":false,"rental_uris":{"android":"levelo://app?vid=df94eac8-6731-4a29-b5fb-fa40dcdf9de4","ios":"levelo://app?vid=df94eac8-6731-4a29-b5fb-fa40dcdf9de4"},"vehicle_type_id":"4","last_reported":1740669014,"current_range_meters":14400,"station_id":"ce4bhnp2rcd13ifvqgvg","pricing_plan_id":"cebpf4jnsgd1na2vs0mg"},{"bike_id":"e58a62fc-5d26-467d-98d5-f8547fa439d1","system_id":"levelo_inurba_marseille","lat":43.29635,"lon":5.40604,"is_reserved":false,"is_disabled":false,"rental_uris":{"android":"levelo://app?vid=e58a62fc-5d26-467d-98d5-f8547fa439d1","ios":"levelo://app?vid=e58a62fc-5d26-467d-98d5-f8547fa439d1"},"vehicle_type_id":"4","last_reported":1740669014,"current_range_meters":14000,"station_id":"ce4bh0h2rcd13ifvqd60","pricing_plan_id":"cebpf4jnsgd1na2vs0mg"},{"bike_id":"ad7f994d-dcbb-4b9f-a1d4-48998b8eb7dc","system_id":"levelo_inurba_marseille","lat":43.31072,"lon":5.40086,"is_reserved":false,"is_disabled":false,"rental_uris":{"android":"levelo://app?vid=ad7f994d-dcbb-4b9f-a1d4-48998b8eb7dc","ios":"levelo://app?vid=ad7f994d-dcbb-4b9f-a1d4-48998b8eb7dc"},"vehicle_type_id":"4","last_reported":1740669014,"current_range_meters":14400,"station_id":"","pricing_plan_id":"cebpf4jnsgd1na2vs0mg"},{"bike_id":"5169bf4e-5ac4-4560-9d3b-f48581611c45","system_id":"levelo_inurba_marseille","lat":43.25098,"lon":5.3952,"is_reserved":false,"is_disabled":false,"rental_uris":{"android":"levelo://app?vid=5169bf4e-5ac4-4560-9d3b-f48581611c45","ios":"levelo://app?vid=5169bf4e-5ac4-4560-9d3b-f48581611c45"},"vehicle_type_id":"4","last_reported":1740669014,"current_range_meters":14400,"station_id":"ce4bhm12rcd13ifvqgkg","pricing_plan_id":"cebpf4jnsgd1na2vs0mg"},{"bike_id":"6bf62df5-9f2c-4676-be2e-3425368f3119","system_id":"levelo_inurba_marseille","lat":43.29318,"lon":5.3825,"is_reserved":false,"is_disabled":false,"rental_uris":{"android":"levelo://app?vid=6bf62df5-9f2c-4676-be2e-3425368f3119","ios":"levelo://app?vid=6bf62df5-9f2c-4676-be2e-3425368f3119"},"vehicle_type_id":"4","last_reported":1740669014,"current_range_meters":14000,"station_id":"","pricing_plan_id":"cebpf4jnsgd1na2vs0mg"},{"bike_id":"fb70dea8-fe5e-4f29-a636-7a21a96df401","system_id":"levelo_inurba_marseille","lat":43.25584,"lon":5.38209,"is_reserved":false,"is_disabled":false,"rental_uris":{"android":"levelo://app?vid=fb70dea8-fe5e-4f29-a636-7a21a96df401","ios":"levelo://app?vid=fb70dea8-fe5e-4f29-a636-7a21a96df401"},"vehicle_type_id":"4","last_reported":1740669014,"current_range_meters":14400,"station_id":"ce4bhih2rcd13ifvqfs0","pricing_plan_id":"cebpf4jnsgd1na2vs0mg"},{"bike_id":"991f8b8c-00a2-46a7-8546-6a4776676d59","system_id":"levelo_inurba_marseille","lat":43.29013,"lon":5.35608,"is_reserved":false,"is_disabled":false,"rental_uris":{"android":"levelo://app?vid=991f8b8c-00a2-46a7-8546-6a4776676d59","ios":"levelo://app?vid=991f8b8c-00a2-46a7-8546-6a4776676d59"},"vehicle_type_id":"4","last_reported":1740669014,"current_range_meters":14000,"station_id":"ce4bhb92rcd13ifvqen0","pricing_plan_id":"cebpf4jnsgd1na2vs0mg"},{"bike_id":"58f350d8-ccb4-4d78-8b4e-fff65cafbffa","system_id":"levelo_inurba_marseille","lat":43.29795,"lon":5.37123,"is_reserved":false,"is_disabled":false,"rental_uris":{"android":"levelo://app?vid=58f350d8-ccb4-4d78-8b4e-fff65cafbffa","ios":"levelo://app?vid=58f350d8-ccb4-4d78-8b4e-fff65cafbffa"},"vehicle_type_id":"4","last_reported":1740669014,"current_range_meters":14000,"station_id":"ce4bgop2rcd13ifvqc1g","pricing_plan_id":"cebpf4jnsgd1na2vs0mg"},{"bike_id":"e3d92921-05db-4e9d-bb66-c2ce1e6a7ad4","system_id":"levelo_inurba_marseille","lat":43.26211,"lon":5.37929,"is_reserved":false,"is_disabled":false,"rental_uris":{"android":"levelo://app?vid=e3d92921-05db-4e9d-bb66-c2ce1e6a7ad4","ios":"levelo://app?vid=e3d92921-05db-4e9d-bb66-c2ce1e6a7ad4"},"vehicle_type_id":"4","last_reported":1740669014,"current_range_meters":14000,"station_id":"ce4bhjp2rcd13ifvqg90","pricing_plan_id":"cebpf4jnsgd1na2vs0mg"},{"bike_id":"201b43e1-9166-4b93-9ecb-211bb1985890","system_id":"levelo_inurba_marseille","lat":43.32362,"lon":5.36769,"is_reserved":false,"is_disabled":false,"rental_uris":{"android":"levelo://app?vid=201b43e1-9166-4b93-9ecb-211bb1985890","ios":"levelo://app?vid=201b43e1-9166-4b93-9ecb-211bb1985890"},"vehicle_type_id":"4","last_reported":1740669014,"current_range_meters":14400,"station_id":"ce4bhsh2rcd13ifvqi2g","pricing_plan_id":"cebpf4jnsgd1na2vs0mg"},{"bike_id":"f8eb4b06-09fd-4696-9c4f-3eb7a3c7b0fd","system_id":"levelo_inurba_marseille","lat":43.24652,"lon":5.38897,"is_reserved":false,"is_disabled":false,"rental_uris":{"android":"levelo://app?vid=f8eb4b06-09fd-4696-9c4f-3eb7a3c7b0fd","ios":"levelo://app?vid=f8eb4b06-09fd-4696-9c4f-3eb7a3c7b0fd"},"vehicle_type_id":"4","last_reported":1740669014,"current_range_meters":14400,"station_id":"ce4bhg12rcd13ifvqf60","pricing_plan_id":"cebpf4jnsgd1na2vs0mg"},{"bike_id":"9db71507-f6ef-4a56-a5f0-a60cd2a6bb3b","system_id":"levelo_inurba_marseille","lat":43.2418,"lon":5.39732,"is_reserved":false,"is_disabled":false,"rental_uris":{"android":"levelo://app?vid=9db71507-f6ef-4a56-a5f0-a60cd2a6bb3b","ios":"levelo://app?vid=9db71507-f6ef-4a56-a5f0-a60cd2a6bb3b"},"vehicle_type_id":"4","last_reported":1740669014,"current_range_meters":14400,"station_id":"ce4bhn12rcd13ifvqgpg","pricing_plan_id":"cebpf4jnsgd1na2vs0mg"},{"bike_id":"2bc6b0c1-7127-4e48-b7f5-50a3d89bfd6a","system_id":"levelo_inurba_marseille","lat":43.30933,"lon":5.37299,"is_reserved":false,"is_disabled":false,"rental_uris":{"android":"levelo://app?vid=2bc6b0c1-7127-4e48-b7f5-50a3d89bfd6a","ios":"levelo://app?vid=2bc6b0c1-7127-4e48-b7f5-50a3d89bfd6a"},"vehicle_type_id":"4","last_reported":1740669014,"current_range_meters":14800,"station_id":"","pricing_plan_id":"cebpf4jnsgd1na2vs0mg"},{"bike_id":"7cf7b894-d393-4f1a-903c-6b57f99cdc54","system_id":"levelo_inurba_marseille","lat":43.263985,"lon":5.384358,"is_reserved":false,"is_disabled":false,"rental_uris":{"android":"levelo://app?vid=7cf7b894-d393-4f1a-903c-6b57f99cdc54","ios":"levelo://app?vid=7cf7b894-d393-4f1a-903c-6b57f99cdc54"},"vehicle_type_id":"4","last_reported":1740669014,"current_range_meters":15200,"station_id":"","pricing_plan_id":"cebpf4jnsgd1na2vs0mg"},{"bike_id":"a49e9f80-8f13-48e0-8533-a9a88b5e5801","system_id":"levelo_inurba_marseille","lat":43.25725,"lon":5.41115,"is_reserved":false,"is_disabled":false,"rental_uris":{"android":"levelo://app?vid=a49e9f80-8f13-48e0-8533-a9a88b5e5801","ios":"levelo://app?vid=a49e9f80-8f13-48e0-8533-a9a88b5e5801"},"vehicle_type_id":"4","last_reported":1740669014,"current_range_meters":17600,"station_id":"ce4bhkp2rcd13ifvqgd0","pricing_plan_id":"cebpf4jnsgd1na2vs0mg"},{"bike_id":"3366b738-f65a-40e5-be9c-0cc45967115c","system_id":"levelo_inurba_marseille","lat":43.24665,"lon":5.38167,"is_reserved":false,"is_disabled":false,"rental_uris":{"android":"levelo://app?vid=3366b738-f65a-40e5-be9c-0cc45967115c","ios":"levelo://app?vid=3366b738-f65a-40e5-be9c-0cc45967115c"},"vehicle_type_id":"4","last_reported":1740669014,"current_range_meters":14800,"station_id":"ce4bhih2rcd13ifvqfr0","pricing_plan_id":"cebpf4jnsgd1na2vs0mg"},{"bike_id":"c0d6cd41-8989-4020-9e32-9ca3131d04ec","system_id":"levelo_inurba_marseille","lat":43.23202,"lon":5.35543,"is_reserved":false,"is_disabled":false,"rental_uris":{"android":"levelo://app?vid=c0d6cd41-8989-4020-9e32-9ca3131d04ec","ios":"levelo://app?vid=c0d6cd41-8989-4020-9e32-9ca3131d04ec"},"vehicle_type_id":"4","last_reported":1740669014,"current_range_meters":14000,"station_id":"ce4bhu92rcd13ifvqi70","pricing_plan_id":"cebpf4jnsgd1na2vs0mg"},{"bike_id":"f10c0f07-760c-4cf8-8c7d-ec820c72c4f8","system_id":"levelo_inurba_marseille","lat":43.2871,"lon":5.3741,"is_reserved":false,"is_disabled":false,"rental_uris":{"android":"levelo://app?vid=f10c0f07-760c-4cf8-8c7d-ec820c72c4f8","ios":"levelo://app?vid=f10c0f07-760c-4cf8-8c7d-ec820c72c4f8"},"vehicle_type_id":"4","last_reported":1740669014,"current_range_meters":14800,"station_id":"ce4bh3p2rcd13ifvqdq0","pricing_plan_id":"cebpf4jnsgd1na2vs0mg"},{"bike_id":"5b28cd77-a409-482f-8702-f764eef9151e","system_id":"levelo_inurba_marseille","lat":43.25955,"lon":5.40924,"is_reserved":false,"is_disabled":true,"rental_uris":{"android":"levelo://app?vid=5b28cd77-a409-482f-8702-f764eef9151e","ios":"levelo://app?vid=5b28cd77-a409-482f-8702-f764eef9151e"},"vehicle_type_id":"4","last_reported":1740669014,"current_range_meters":14800,"station_id":"ce4bhm92rcd13ifvqglg","pricing_plan_id":"cebpf4jnsgd1na2vs0mg"},{"bike_id":"ba98457d-c752-4abf-962a-655028ba4d49","system_id":"levelo_inurba_marseille","lat":43.27378,"lon":5.3626,"is_reserved":false,"is_disabled":false,"rental_uris":{"android":"levelo://app?vid=ba98457d-c752-4abf-962a-655028ba4d49","ios":"levelo://app?vid=ba98457d-c752-4abf-962a-655028ba4d49"},"vehicle_type_id":"4","last_reported":1740669014,"current_range_meters":15200,"station_id":"ce4bhbh2rcd13ifvqeo0","pricing_plan_id":"cebpf4jnsgd1na2vs0mg"},{"bike_id":"d4918d6a-5525-4be8-b0c4-7af64b54343d","system_id":"levelo_inurba_marseille","lat":43.24167,"lon":5.36401,"is_reserved":false,"is_disabled":false,"rental_uris":{"android":"levelo://app?vid=d4918d6a-5525-4be8-b0c4-7af64b54343d","ios":"levelo://app?vid=d4918d6a-5525-4be8-b0c4-7af64b54343d"},"vehicle_type_id":"4","last_reported":1740669014,"current_range_meters":16000,"station_id":"cpo36qri1sfpv3e86is0","pricing_plan_id":"cebpf4jnsgd1na2vs0mg"},{"bike_id":"7c587124-8999-4983-b1fc-fb3b0c913e5e","system_id":"levelo_inurba_marseille","lat":43.25113,"lon":5.40327,"is_reserved":false,"is_disabled":false,"rental_uris":{"android":"levelo://app?vid=7c587124-8999-4983-b1fc-fb3b0c913e5e","ios":"levelo://app?vid=7c587124-8999-4983-b1fc-fb3b0c913e5e"},"vehicle_type_id":"4","last_reported":1740669014,"current_range_meters":15200,"station_id":"ce4bhlh2rcd13ifvqgig","pricing_plan_id":"cebpf4jnsgd1na2vs0mg"},{"bike_id":"0f665076-3e0b-47a6-8189-e37583df5925","system_id":"levelo_inurba_marseille","lat":43.29249,"lon":5.37616,"is_reserved":false,"is_disabled":false,"rental_uris":{"android":"levelo://app?vid=0f665076-3e0b-47a6-8189-e37583df5925","ios":"levelo://app?vid=0f665076-3e0b-47a6-8189-e37583df5925"},"vehicle_type_id":"4","last_reported":1740669014,"current_range_meters":15200,"station_id":"ce4bgi12rcd13ifvqb80","pricing_plan_id":"cebpf4jnsgd1na2vs0mg"},{"bike_id":"1710d291-87ed-4dfc-815c-55a1fdcb49d0","system_id":"levelo_inurba_marseille","lat":43.26571,"lon":5.37292,"is_reserved":false,"is_disabled":false,"rental_uris":{"android":"levelo://app?vid=1710d291-87ed-4dfc-815c-55a1fdcb49d0","ios":"levelo://app?vid=1710d291-87ed-4dfc-815c-55a1fdcb49d0"},"vehicle_type_id":"4","last_reported":1740669014,"current_range_meters":15200,"station_id":"ce4bhg12rcd13ifvqf70","pricing_plan_id":"cebpf4jnsgd1na2vs0mg"},{"bike_id":"20d08730-d04f-482a-9ed2-1d3e29b92784","system_id":"levelo_inurba_marseille","lat":43.32352,"lon":5.38874,"is_reserved":false,"is_disabled":false,"rental_uris":{"android":"levelo://app?vid=20d08730-d04f-482a-9ed2-1d3e29b92784","ios":"levelo://app?vid=20d08730-d04f-482a-9ed2-1d3e29b92784"},"vehicle_type_id":"4","last_reported":1740669014,"current_range_meters":15200,"station_id":"ce4bhqp2rcd13ifvqhog","pricing_plan_id":"cebpf4jnsgd1na2vs0mg"},{"bike_id":"ef77bf7f-5b88-41c9-8d3b-c8c9c0447dd9","system_id":"levelo_inurba_marseille","lat":43.28081,"lon":5.35025,"is_reserved":false,"is_disabled":false,"rental_uris":{"android":"levelo://app?vid=ef77bf7f-5b88-41c9-8d3b-c8c9c0447dd9","ios":"levelo://app?vid=ef77bf7f-5b88-41c9-8d3b-c8c9c0447dd9"},"vehicle_type_id":"4","last_reported":1740669014,"current_range_meters":16000,"station_id":"","pricing_plan_id":"cebpf4jnsgd1na2vs0mg"},{"bike_id":"c77d1522-2bc6-4683-99ae-7f9c4de70ebc","system_id":"levelo_inurba_marseille","lat":43.31753,"lon":5.39027,"is_reserved":false,"is_disabled":false,"rental_uris":{"android":"levelo://app?vid=c77d1522-2bc6-4683-99ae-7f9c4de70ebc","ios":"levelo://app?vid=c77d1522-2bc6-4683-99ae-7f9c4de70ebc"},"vehicle_type_id":"4","last_reported":1740669014,"current_range_meters":17600,"station_id":"ce4bhqp2rcd13ifvqhng","pricing_plan_id":"cebpf4jnsgd1na2vs0mg"},{"bike_id":"cadf36d4-8397-4f67-9648-8720310c1392","system_id":"levelo_inurba_marseille","lat":43.274941,"lon":5.424515,"is_reserved":false,"is_disabled":false,"rental_uris":{"android":"levelo://app?vid=cadf36d4-8397-4f67-9648-8720310c1392","ios":"levelo://app?vid=cadf36d4-8397-4f67-9648-8720310c1392"},"vehicle_type_id":"4","last_reported":1740669014,"current_range_meters":16000,"station_id":"ce4bhn92rcd13ifvqgrg","pricing_plan_id":"cebpf4jnsgd1na2vs0mg"},{"bike_id":"4879b155-e335-415f-95cb-d900b4a7f67f","system_id":"levelo_inurba_marseille","lat":43.30544,"lon":5.36546,"is_reserved":false,"is_disabled":false,"rental_uris":{"android":"levelo://app?vid=4879b155-e335-415f-95cb-d900b4a7f67f","ios":"levelo://app?vid=4879b155-e335-415f-95cb-d900b4a7f67f"},"vehicle_type_id":"4","last_reported":1740669014,"current_range_meters":16000,"station_id":"ce4bgs12rcd13ifvqcag","pricing_plan_id":"cebpf4jnsgd1na2vs0mg"},{"bike_id":"fd5e256f-d77d-49f7-b14a-98c2f7ad0ce1","system_id":"levelo_inurba_marseille","lat":43.28924,"lon":5.38399,"is_reserved":false,"is_disabled":false,"rental_uris":{"android":"levelo://app?vid=fd5e256f-d77d-49f7-b14a-98c2f7ad0ce1","ios":"levelo://app?vid=fd5e256f-d77d-49f7-b14a-98c2f7ad0ce1"},"vehicle_type_id":"4","last_reported":1740669014,"current_range_meters":16000,"station_id":"ce4bh612rcd13ifvqe6g","pricing_plan_id":"cebpf4jnsgd1na2vs0mg"},{"bike_id":"d74ff6be-43dd-4996-b21c-d4feb95d239c","system_id":"levelo_inurba_marseille","lat":43.2893,"lon":5.38403,"is_reserved":false,"is_disabled":false,"rental_uris":{"android":"levelo://app?vid=d74ff6be-43dd-4996-b21c-d4feb95d239c","ios":"levelo://app?vid=d74ff6be-43dd-4996-b21c-d4feb95d239c"},"vehicle_type_id":"4","last_reported":1740669014,"current_range_meters":16000,"station_id":"ce4bh612rcd13ifvqe6g","pricing_plan_id":"cebpf4jnsgd1na2vs0mg"},{"bike_id":"a2035f8a-71d6-4907-9d48-9df7f337d1f0","system_id":"levelo_inurba_marseille","lat":43.3143,"lon":5.3669,"is_reserved":false,"is_disabled":false,"rental_uris":{"android":"levelo://app?vid=a2035f8a-71d6-4907-9d48-9df7f337d1f0","ios":"levelo://app?vid=a2035f8a-71d6-4907-9d48-9df7f337d1f0"},"vehicle_type_id":"4","last_reported":1740669014,"current_range_meters":16400,"station_id":"","pricing_plan_id":"cebpf4jnsgd1na2vs0mg"},{"bike_id":"63a3bfc1-6f1a-4c1d-8853-274504a2b789","system_id":"levelo_inurba_marseille","lat":43.26959,"lon":5.38637,"is_reserved":false,"is_disabled":false,"rental_uris":{"android":"levelo://app?vid=63a3bfc1-6f1a-4c1d-8853-274504a2b789","ios":"levelo://app?vid=63a3bfc1-6f1a-4c1d-8853-274504a2b789"},"vehicle_type_id":"4","last_reported":1740669014,"current_range_meters":18800,"station_id":"ce4bhh92rcd13ifvqfh0","pricing_plan_id":"cebpf4jnsgd1na2vs0mg"},{"bike_id":"a25a2d33-1d8e-4fa7-b677-45c8444c8775","system_id":"levelo_inurba_marseille","lat":43.231968,"lon":5.355458,"is_reserved":false,"is_disabled":false,"rental_uris":{"android":"levelo://app?vid=a25a2d33-1d8e-4fa7-b677-45c8444c8775","ios":"levelo://app?vid=a25a2d33-1d8e-4fa7-b677-45c8444c8775"},"vehicle_type_id":"4","last_reported":1740669014,"current_range_meters":16400,"station_id":"ce4bhu92rcd13ifvqi70","pricing_plan_id":"cebpf4jnsgd1na2vs0mg"},{"bike_id":"3f5e4c77-943b-4a46-b257-614bf13afec4","system_id":"levelo_inurba_marseille","lat":43.24176,"lon":5.36392,"is_reserved":false,"is_disabled":false,"rental_uris":{"android":"levelo://app?vid=3f5e4c77-943b-4a46-b257-614bf13afec4","ios":"levelo://app?vid=3f5e4c77-943b-4a46-b257-614bf13afec4"},"vehicle_type_id":"4","last_reported":1740669014,"current_range_meters":16400,"station_id":"cpo36qri1sfpv3e86is0","pricing_plan_id":"cebpf4jnsgd1na2vs0mg"},{"bike_id":"d3ae3e96-f79b-4760-a4a7-9d226d9b4643","system_id":"levelo_inurba_marseille","lat":43.29034,"lon":5.35612,"is_reserved":false,"is_disabled":false,"rental_uris":{"android":"levelo://app?vid=d3ae3e96-f79b-4760-a4a7-9d226d9b4643","ios":"levelo://app?vid=d3ae3e96-f79b-4760-a4a7-9d226d9b4643"},"vehicle_type_id":"4","last_reported":1740669014,"current_range_meters":16400,"station_id":"ce4bhb92rcd13ifvqen0","pricing_plan_id":"cebpf4jnsgd1na2vs0mg"},{"bike_id":"16bb475b-6478-4e0c-9cc7-53dd448dfe58","system_id":"levelo_inurba_marseille","lat":43.25912,"lon":5.40967,"is_reserved":false,"is_disabled":false,"rental_uris":{"android":"levelo://app?vid=16bb475b-6478-4e0c-9cc7-53dd448dfe58","ios":"levelo://app?vid=16bb475b-6478-4e0c-9cc7-53dd448dfe58"},"vehicle_type_id":"4","last_reported":1740669014,"current_range_meters":16800,"station_id":"","pricing_plan_id":"cebpf4jnsgd1na2vs0mg"},{"bike_id":"f04838fb-b28d-484a-b4f1-e616fe995e2f","system_id":"levelo_inurba_marseille","lat":43.2957,"lon":5.37511,"is_reserved":false,"is_disabled":false,"rental_uris":{"android":"levelo://app?vid=f04838fb-b28d-484a-b4f1-e616fe995e2f","ios":"levelo://app?vid=f04838fb-b28d-484a-b4f1-e616fe995e2f"},"vehicle_type_id":"4","last_reported":1740669014,"current_range_meters":16800,"station_id":"ce4bgh92rcd13ifvqb50","pricing_plan_id":"cebpf4jnsgd1na2vs0mg"},{"bike_id":"16657fa1-03c6-49ec-a407-f3061564a488","system_id":"levelo_inurba_marseille","lat":43.26233,"lon":5.40424,"is_reserved":false,"is_disabled":false,"rental_uris":{"android":"levelo://app?vid=16657fa1-03c6-49ec-a407-f3061564a488","ios":"levelo://app?vid=16657fa1-03c6-49ec-a407-f3061564a488"},"vehicle_type_id":"4","last_reported":1740669014,"current_range_meters":16800,"station_id":"ce4bhmh2rcd13ifvqgmg","pricing_plan_id":"cebpf4jnsgd1na2vs0mg"},{"bike_id":"43d6aa6f-20c7-4a1b-bcb8-31b660876567","system_id":"levelo_inurba_marseille","lat":43.265569,"lon":5.372908,"is_reserved":false,"is_disabled":false,"rental_uris":{"android":"levelo://app?vid=43d6aa6f-20c7-4a1b-bcb8-31b660876567","ios":"levelo://app?vid=43d6aa6f-20c7-4a1b-bcb8-31b660876567"},"vehicle_type_id":"4","last_reported":1740669014,"current_range_meters":16800,"station_id":"ce4bhg12rcd13ifvqf70","pricing_plan_id":"cebpf4jnsgd1na2vs0mg"},{"bike_id":"8e100345-e773-4b5f-aa04-a4e55e7b32d1","system_id":"levelo_inurba_marseille","lat":43.31515,"lon":5.37272,"is_reserved":false,"is_disabled":false,"rental_uris":{"android":"levelo://app?vid=8e100345-e773-4b5f-aa04-a4e55e7b32d1","ios":"levelo://app?vid=8e100345-e773-4b5f-aa04-a4e55e7b32d1"},"vehicle_type_id":"4","last_reported":1740669014,"current_range_meters":16800,"station_id":"ce4bgt12rcd13ifvqcd0","pricing_plan_id":"cebpf4jnsgd1na2vs0mg"},{"bike_id":"dd3a19d6-9378-47e0-af83-a224b1054508","system_id":"levelo_inurba_marseille","lat":43.28675,"lon":5.3868,"is_reserved":false,"is_disabled":false,"rental_uris":{"android":"levelo://app?vid=dd3a19d6-9378-47e0-af83-a224b1054508","ios":"levelo://app?vid=dd3a19d6-9378-47e0-af83-a224b1054508"},"vehicle_type_id":"4","last_reported":1740669014,"current_range_meters":16800,"station_id":"ce4bh492rcd13ifvqdug","pricing_plan_id":"cebpf4jnsgd1na2vs0mg"},{"bike_id":"cf8b65b1-cf80-4b06-987a-732907e604b8","system_id":"levelo_inurba_marseille","lat":43.29053,"lon":5.37149,"is_reserved":false,"is_disabled":false,"rental_uris":{"android":"levelo://app?vid=cf8b65b1-cf80-4b06-987a-732907e604b8","ios":"levelo://app?vid=cf8b65b1-cf80-4b06-987a-732907e604b8"},"vehicle_type_id":"4","last_reported":1740669014,"current_range_meters":18000,"station_id":"ce4bh5p2rcd13ifvqe4g","pricing_plan_id":"cebpf4jnsgd1na2vs0mg"},{"bike_id":"347788db-bfcf-4e71-b35c-a65a5eb2a1f0","system_id":"levelo_inurba_marseille","lat":43.24675,"lon":5.38159,"is_reserved":false,"is_disabled":false,"rental_uris":{"android":"levelo://app?vid=347788db-bfcf-4e71-b35c-a65a5eb2a1f0","ios":"levelo://app?vid=347788db-bfcf-4e71-b35c-a65a5eb2a1f0"},"vehicle_type_id":"4","last_reported":1740669014,"current_range_meters":17200,"station_id":"ce4bhih2rcd13ifvqfr0","pricing_plan_id":"cebpf4jnsgd1na2vs0mg"},{"bike_id":"a9757b2e-0188-4e2f-9062-079c74f7d4d4","system_id":"levelo_inurba_marseille","lat":43.25575,"lon":5.38253,"is_reserved":false,"is_disabled":false,"rental_uris":{"android":"levelo://app?vid=a9757b2e-0188-4e2f-9062-079c74f7d4d4","ios":"levelo://app?vid=a9757b2e-0188-4e2f-9062-079c74f7d4d4"},"vehicle_type_id":"4","last_reported":1740669014,"current_range_meters":17200,"station_id":"ce4bhih2rcd13ifvqfs0","pricing_plan_id":"cebpf4jnsgd1na2vs0mg"},{"bike_id":"1ed110e0-02cc-4310-be2c-1a42ea461274","system_id":"levelo_inurba_marseille","lat":43.29559,"lon":5.42288,"is_reserved":false,"is_disabled":false,"rental_uris":{"android":"levelo://app?vid=1ed110e0-02cc-4310-be2c-1a42ea461274","ios":"levelo://app?vid=1ed110e0-02cc-4310-be2c-1a42ea461274"},"vehicle_type_id":"4","last_reported":1740669014,"current_range_meters":16800,"station_id":"ce4bhph2rcd13ifvqhdg","pricing_plan_id":"cebpf4jnsgd1na2vs0mg"},{"bike_id":"6c03af07-43d6-40b5-b0cf-7c33497afc57","system_id":"levelo_inurba_marseille","lat":43.28616,"lon":5.35098,"is_reserved":false,"is_disabled":false,"rental_uris":{"android":"levelo://app?vid=6c03af07-43d6-40b5-b0cf-7c33497afc57","ios":"levelo://app?vid=6c03af07-43d6-40b5-b0cf-7c33497afc57"},"vehicle_type_id":"4","last_reported":1740669014,"current_range_meters":17200,"station_id":"ce4bhch2rcd13ifvqeug","pricing_plan_id":"cebpf4jnsgd1na2vs0mg"},{"bike_id":"39d5d8ff-30a3-4d04-91b5-faf7a6bb6613","system_id":"levelo_inurba_marseille","lat":43.2558,"lon":5.38241,"is_reserved":false,"is_disabled":false,"rental_uris":{"android":"levelo://app?vid=39d5d8ff-30a3-4d04-91b5-faf7a6bb6613","ios":"levelo://app?vid=39d5d8ff-30a3-4d04-91b5-faf7a6bb6613"},"vehicle_type_id":"4","last_reported":1740669014,"current_range_meters":17200,"station_id":"ce4bhih2rcd13ifvqfs0","pricing_plan_id":"cebpf4jnsgd1na2vs0mg"},{"bike_id":"9c8a8d53-71cc-410c-8975-5cc5bfd67f2e","system_id":"levelo_inurba_marseille","lat":43.30282,"lon":5.37688,"is_reserved":false,"is_disabled":false,"rental_uris":{"android":"levelo://app?vid=9c8a8d53-71cc-410c-8975-5cc5bfd67f2e","ios":"levelo://app?vid=9c8a8d53-71cc-410c-8975-5cc5bfd67f2e"},"vehicle_type_id":"4","last_reported":1740669014,"current_range_meters":17200,"station_id":"ce4bguh2rcd13ifvqcj0","pricing_plan_id":"cebpf4jnsgd1na2vs0mg"},{"bike_id":"24476cb6-9c12-4997-ab8d-8cfe9d8b4bb4","system_id":"levelo_inurba_marseille","lat":43.28644,"lon":5.35113,"is_reserved":false,"is_disabled":false,"rental_uris":{"android":"levelo://app?vid=24476cb6-9c12-4997-ab8d-8cfe9d8b4bb4","ios":"levelo://app?vid=24476cb6-9c12-4997-ab8d-8cfe9d8b4bb4"},"vehicle_type_id":"4","last_reported":1740669014,"current_range_meters":17600,"station_id":"ce4bhch2rcd13ifvqeug","pricing_plan_id":"cebpf4jnsgd1na2vs0mg"},{"bike_id":"b660e505-286b-4be3-9e8b-732a9123228c","system_id":"levelo_inurba_marseille","lat":43.29267,"lon":5.3844,"is_reserved":false,"is_disabled":false,"rental_uris":{"android":"levelo://app?vid=b660e505-286b-4be3-9e8b-732a9123228c","ios":"levelo://app?vid=b660e505-286b-4be3-9e8b-732a9123228c"},"vehicle_type_id":"4","last_reported":1740669014,"current_range_meters":17600,"station_id":"ce4bh692rcd13ifvqea0","pricing_plan_id":"cebpf4jnsgd1na2vs0mg"},{"bike_id":"339957bf-e26d-438f-b28d-5d611b9940cf","system_id":"levelo_inurba_marseille","lat":43.29173,"lon":5.3715,"is_reserved":false,"is_disabled":false,"rental_uris":{"android":"levelo://app?vid=339957bf-e26d-438f-b28d-5d611b9940cf","ios":"levelo://app?vid=339957bf-e26d-438f-b28d-5d611b9940cf"},"vehicle_type_id":"4","last_reported":1740669014,"current_range_meters":17600,"station_id":"ce4bha92rcd13ifvqeh0","pricing_plan_id":"cebpf4jnsgd1na2vs0mg"},{"bike_id":"1a3e2f31-fb42-498a-becd-407befc96ac2","system_id":"levelo_inurba_marseille","lat":43.28662,"lon":5.36348,"is_reserved":false,"is_disabled":false,"rental_uris":{"android":"levelo://app?vid=1a3e2f31-fb42-498a-becd-407befc96ac2","ios":"levelo://app?vid=1a3e2f31-fb42-498a-becd-407befc96ac2"},"vehicle_type_id":"4","last_reported":1740669014,"current_range_meters":17600,"station_id":"ce4bhah2rcd13ifvqej0","pricing_plan_id":"cebpf4jnsgd1na2vs0mg"},{"bike_id":"3f445cc2-1ca0-46db-a9ac-1ee74b82a44d","system_id":"levelo_inurba_marseille","lat":43.24816,"lon":5.37448,"is_reserved":false,"is_disabled":false,"rental_uris":{"android":"levelo://app?vid=3f445cc2-1ca0-46db-a9ac-1ee74b82a44d","ios":"levelo://app?vid=3f445cc2-1ca0-46db-a9ac-1ee74b82a44d"},"vehicle_type_id":"4","last_reported":1740669014,"current_range_meters":17600,"station_id":"ce4bhgh2rcd13ifvqfb0","pricing_plan_id":"cebpf4jnsgd1na2vs0mg"},{"bike_id":"e7f709d9-8268-4c5e-a8ac-23f5bb9184e9","system_id":"levelo_inurba_marseille","lat":43.23063,"lon":5.35491,"is_reserved":false,"is_disabled":false,"rental_uris":{"android":"levelo://app?vid=e7f709d9-8268-4c5e-a8ac-23f5bb9184e9","ios":"levelo://app?vid=e7f709d9-8268-4c5e-a8ac-23f5bb9184e9"},"vehicle_type_id":"4","last_reported":1740669014,"current_range_meters":17600,"station_id":"cpo3342slgdg3j2ifvpg","pricing_plan_id":"cebpf4jnsgd1na2vs0mg"},{"bike_id":"394ad06d-cd07-47bf-9d20-d3a92d1d606b","system_id":"levelo_inurba_marseille","lat":43.229331,"lon":5.353698,"is_reserved":false,"is_disabled":false,"rental_uris":{"android":"levelo://app?vid=394ad06d-cd07-47bf-9d20-d3a92d1d606b","ios":"levelo://app?vid=394ad06d-cd07-47bf-9d20-d3a92d1d606b"},"vehicle_type_id":"4","last_reported":1740669014,"current_range_meters":17600,"station_id":"cpo3532slgdg3j2ikp40","pricing_plan_id":"cebpf4jnsgd1na2vs0mg"},{"bike_id":"96aac338-5dc8-4dba-8295-b56fa5f98263","system_id":"levelo_inurba_marseille","lat":43.25095,"lon":5.39535,"is_reserved":false,"is_disabled":false,"rental_uris":{"android":"levelo://app?vid=96aac338-5dc8-4dba-8295-b56fa5f98263","ios":"levelo://app?vid=96aac338-5dc8-4dba-8295-b56fa5f98263"},"vehicle_type_id":"4","last_reported":1740669014,"current_range_meters":17600,"station_id":"ce4bhm12rcd13ifvqgkg","pricing_plan_id":"cebpf4jnsgd1na2vs0mg"},{"bike_id":"1e3a6963-36c6-45d7-b10d-9ab4a1c027ed","system_id":"levelo_inurba_marseille","lat":43.29265,"lon":5.38446,"is_reserved":false,"is_disabled":false,"rental_uris":{"android":"levelo://app?vid=1e3a6963-36c6-45d7-b10d-9ab4a1c027ed","ios":"levelo://app?vid=1e3a6963-36c6-45d7-b10d-9ab4a1c027ed"},"vehicle_type_id":"4","last_reported":1740669014,"current_range_meters":17600,"station_id":"ce4bh692rcd13ifvqea0","pricing_plan_id":"cebpf4jnsgd1na2vs0mg"},{"bike_id":"24481060-5d76-4c45-8516-3e3eaacd3cc9","system_id":"levelo_inurba_marseille","lat":43.30546,"lon":5.36541,"is_reserved":false,"is_disabled":false,"rental_uris":{"android":"levelo://app?vid=24481060-5d76-4c45-8516-3e3eaacd3cc9","ios":"levelo://app?vid=24481060-5d76-4c45-8516-3e3eaacd3cc9"},"vehicle_type_id":"4","last_reported":1740669014,"current_range_meters":18000,"station_id":"ce4bgs12rcd13ifvqcag","pricing_plan_id":"cebpf4jnsgd1na2vs0mg"},{"bike_id":"b6ab9a61-8985-4d83-8f2e-45b4984d4c17","system_id":"levelo_inurba_marseille","lat":43.2925,"lon":5.37604,"is_reserved":false,"is_disabled":false,"rental_uris":{"android":"levelo://app?vid=b6ab9a61-8985-4d83-8f2e-45b4984d4c17","ios":"levelo://app?vid=b6ab9a61-8985-4d83-8f2e-45b4984d4c17"},"vehicle_type_id":"4","last_reported":1740669014,"current_range_meters":18000,"station_id":"ce4bgi12rcd13ifvqb80","pricing_plan_id":"cebpf4jnsgd1na2vs0mg"},{"bike_id":"42613b90-f96e-41c5-8864-90dd1b35a09d","system_id":"levelo_inurba_marseille","lat":43.32368,"lon":5.36753,"is_reserved":false,"is_disabled":false,"rental_uris":{"android":"levelo://app?vid=42613b90-f96e-41c5-8864-90dd1b35a09d","ios":"levelo://app?vid=42613b90-f96e-41c5-8864-90dd1b35a09d"},"vehicle_type_id":"4","last_reported":1740669014,"current_range_meters":18000,"station_id":"ce4bhsh2rcd13ifvqi2g","pricing_plan_id":"cebpf4jnsgd1na2vs0mg"},{"bike_id":"98a598ba-3e00-4d1e-bf0a-249503687bf3","system_id":"levelo_inurba_marseille","lat":43.30563,"lon":5.36547,"is_reserved":false,"is_disabled":false,"rental_uris":{"android":"levelo://app?vid=98a598ba-3e00-4d1e-bf0a-249503687bf3","ios":"levelo://app?vid=98a598ba-3e00-4d1e-bf0a-249503687bf3"},"vehicle_type_id":"4","last_reported":1740669014,"current_range_meters":17200,"station_id":"ce4bgs12rcd13ifvqcag","pricing_plan_id":"cebpf4jnsgd1na2vs0mg"},{"bike_id":"e9bdbae0-8a4d-410d-ad63-99801402b176","system_id":"levelo_inurba_marseille","lat":43.23208,"lon":5.35544,"is_reserved":false,"is_disabled":false,"rental_uris":{"android":"levelo://app?vid=e9bdbae0-8a4d-410d-ad63-99801402b176","ios":"levelo://app?vid=e9bdbae0-8a4d-410d-ad63-99801402b176"},"vehicle_type_id":"4","last_reported":1740669014,"current_range_meters":18000,"station_id":"ce4bhu92rcd13ifvqi70","pricing_plan_id":"cebpf4jnsgd1na2vs0mg"},{"bike_id":"57b2ccf8-672b-471f-97a2-fd6c3ad48e3d","system_id":"levelo_inurba_marseille","lat":43.29789,"lon":5.38105,"is_reserved":false,"is_disabled":false,"rental_uris":{"android":"levelo://app?vid=57b2ccf8-672b-471f-97a2-fd6c3ad48e3d","ios":"levelo://app?vid=57b2ccf8-672b-471f-97a2-fd6c3ad48e3d"},"vehicle_type_id":"4","last_reported":1740669014,"current_range_meters":18000,"station_id":"ce4bgip2rcd13ifvqbb0","pricing_plan_id":"cebpf4jnsgd1na2vs0mg"},{"bike_id":"1ec95ae8-47b1-46be-ab6f-633627e7d180","system_id":"levelo_inurba_marseille","lat":43.2509,"lon":5.39504,"is_reserved":false,"is_disabled":false,"rental_uris":{"android":"levelo://app?vid=1ec95ae8-47b1-46be-ab6f-633627e7d180","ios":"levelo://app?vid=1ec95ae8-47b1-46be-ab6f-633627e7d180"},"vehicle_type_id":"4","last_reported":1740669014,"current_range_meters":18800,"station_id":"ce4bhm12rcd13ifvqgkg","pricing_plan_id":"cebpf4jnsgd1na2vs0mg"},{"bike_id":"7bcb50b9-2864-42f1-8bb1-e4b001469ac6","system_id":"levelo_inurba_marseille","lat":43.25589,"lon":5.38235,"is_reserved":false,"is_disabled":false,"rental_uris":{"android":"levelo://app?vid=7bcb50b9-2864-42f1-8bb1-e4b001469ac6","ios":"levelo://app?vid=7bcb50b9-2864-42f1-8bb1-e4b001469ac6"},"vehicle_type_id":"4","last_reported":1740669014,"current_range_meters":18800,"station_id":"ce4bhih2rcd13ifvqfs0","pricing_plan_id":"cebpf4jnsgd1na2vs0mg"},{"bike_id":"a76ac75d-f111-47b2-b332-55b20bb59711","system_id":"levelo_inurba_marseille","lat":43.29263,"lon":5.4091,"is_reserved":false,"is_disabled":false,"rental_uris":{"android":"levelo://app?vid=a76ac75d-f111-47b2-b332-55b20bb59711","ios":"levelo://app?vid=a76ac75d-f111-47b2-b332-55b20bb59711"},"vehicle_type_id":"4","last_reported":1740669014,"current_range_meters":18800,"station_id":"ce4bh192rcd13ifvqdc0","pricing_plan_id":"cebpf4jnsgd1na2vs0mg"},{"bike_id":"9d897a88-36f3-414d-a245-fa7e5e676f43","system_id":"levelo_inurba_marseille","lat":43.28415,"lon":5.35002,"is_reserved":false,"is_disabled":false,"rental_uris":{"android":"levelo://app?vid=9d897a88-36f3-414d-a245-fa7e5e676f43","ios":"levelo://app?vid=9d897a88-36f3-414d-a245-fa7e5e676f43"},"vehicle_type_id":"4","last_reported":1740669014,"current_range_meters":18800,"station_id":"ce4bhbh2rcd13ifvqepg","pricing_plan_id":"cebpf4jnsgd1na2vs0mg"},{"bike_id":"364b209e-752e-45ea-b26c-06b2552c1833","system_id":"levelo_inurba_marseille","lat":43.23182,"lon":5.35547,"is_reserved":false,"is_disabled":false,"rental_uris":{"android":"levelo://app?vid=364b209e-752e-45ea-b26c-06b2552c1833","ios":"levelo://app?vid=364b209e-752e-45ea-b26c-06b2552c1833"},"vehicle_type_id":"4","last_reported":1740669014,"current_range_meters":19200,"station_id":"ce4bhu92rcd13ifvqi70","pricing_plan_id":"cebpf4jnsgd1na2vs0mg"},{"bike_id":"4219d3a6-08bc-41b8-8017-9df16be62c6c","system_id":"levelo_inurba_marseille","lat":43.30162,"lon":5.3742,"is_reserved":false,"is_disabled":false,"rental_uris":{"android":"levelo://app?vid=4219d3a6-08bc-41b8-8017-9df16be62c6c","ios":"levelo://app?vid=4219d3a6-08bc-41b8-8017-9df16be62c6c"},"vehicle_type_id":"4","last_reported":1740669014,"current_range_meters":18800,"station_id":"ce4bgs92rcd13ifvqcc0","pricing_plan_id":"cebpf4jnsgd1na2vs0mg"},{"bike_id":"2ab9da07-4c50-496e-b30f-9e9c538d1cb3","system_id":"levelo_inurba_marseille","lat":43.29799,"lon":5.38092,"is_reserved":false,"is_disabled":false,"rental_uris":{"android":"levelo://app?vid=2ab9da07-4c50-496e-b30f-9e9c538d1cb3","ios":"levelo://app?vid=2ab9da07-4c50-496e-b30f-9e9c538d1cb3"},"vehicle_type_id":"4","last_reported":1740669014,"current_range_meters":19200,"station_id":"ce4bgip2rcd13ifvqbb0","pricing_plan_id":"cebpf4jnsgd1na2vs0mg"},{"bike_id":"49e9cdc7-76a5-4b66-ae2d-61c73beb73a8","system_id":"levelo_inurba_marseille","lat":43.24172,"lon":5.3641,"is_reserved":false,"is_disabled":false,"rental_uris":{"android":"levelo://app?vid=49e9cdc7-76a5-4b66-ae2d-61c73beb73a8","ios":"levelo://app?vid=49e9cdc7-76a5-4b66-ae2d-61c73beb73a8"},"vehicle_type_id":"4","last_reported":1740669014,"current_range_meters":19200,"station_id":"cpo36qri1sfpv3e86is0","pricing_plan_id":"cebpf4jnsgd1na2vs0mg"},{"bike_id":"461b18fa-ca30-4fe8-988c-31e146e7b9da","system_id":"levelo_inurba_marseille","lat":43.30552,"lon":5.36695,"is_reserved":false,"is_disabled":false,"rental_uris":{"android":"levelo://app?vid=461b18fa-ca30-4fe8-988c-31e146e7b9da","ios":"levelo://app?vid=461b18fa-ca30-4fe8-988c-31e146e7b9da"},"vehicle_type_id":"4","last_reported":1740669014,"current_range_meters":18800,"station_id":"ce4bgrp2rcd13ifvqc9g","pricing_plan_id":"cebpf4jnsgd1na2vs0mg"},{"bike_id":"d932e1d1-9088-4636-94f4-d08781edc5a6","system_id":"levelo_inurba_marseille","lat":43.24082,"lon":5.3774,"is_reserved":false,"is_disabled":false,"rental_uris":{"android":"levelo://app?vid=d932e1d1-9088-4636-94f4-d08781edc5a6","ios":"levelo://app?vid=d932e1d1-9088-4636-94f4-d08781edc5a6"},"vehicle_type_id":"4","last_reported":1740669014,"current_range_meters":18800,"station_id":"ce4bhnp2rcd13ifvqgvg","pricing_plan_id":"cebpf4jnsgd1na2vs0mg"},{"bike_id":"b0abcc0c-b15b-42e6-9990-f47da65cceea","system_id":"levelo_inurba_marseille","lat":43.29075,"lon":5.37161,"is_reserved":false,"is_disabled":false,"rental_uris":{"android":"levelo://app?vid=b0abcc0c-b15b-42e6-9990-f47da65cceea","ios":"levelo://app?vid=b0abcc0c-b15b-42e6-9990-f47da65cceea"},"vehicle_type_id":"4","last_reported":1740669014,"current_range_meters":18800,"station_id":"ce4bh5p2rcd13ifvqe4g","pricing_plan_id":"cebpf4jnsgd1na2vs0mg"},{"bike_id":"480f3a54-f773-4d18-93d1-f8afa7b0f2dc","system_id":"levelo_inurba_marseille","lat":43.23193,"lon":5.35556,"is_reserved":false,"is_disabled":false,"rental_uris":{"android":"levelo://app?vid=480f3a54-f773-4d18-93d1-f8afa7b0f2dc","ios":"levelo://app?vid=480f3a54-f773-4d18-93d1-f8afa7b0f2dc"},"vehicle_type_id":"4","last_reported":1740669014,"current_range_meters":19200,"station_id":"ce4bhu92rcd13ifvqi70","pricing_plan_id":"cebpf4jnsgd1na2vs0mg"},{"bike_id":"09a08648-2d6f-4bd8-8ba2-f195a36f435c","system_id":"levelo_inurba_marseille","lat":43.29997,"lon":5.37409,"is_reserved":false,"is_disabled":false,"rental_uris":{"android":"levelo://app?vid=09a08648-2d6f-4bd8-8ba2-f195a36f435c","ios":"levelo://app?vid=09a08648-2d6f-4bd8-8ba2-f195a36f435c"},"vehicle_type_id":"4","last_reported":1740669014,"current_range_meters":19200,"station_id":"","pricing_plan_id":"cebpf4jnsgd1na2vs0mg"},{"bike_id":"2dd2afcc-124e-4599-8815-5eeabbf57a0d","system_id":"levelo_inurba_marseille","lat":43.29202,"lon":5.3931,"is_reserved":false,"is_disabled":false,"rental_uris":{"android":"levelo://app?vid=2dd2afcc-124e-4599-8815-5eeabbf57a0d","ios":"levelo://app?vid=2dd2afcc-124e-4599-8815-5eeabbf57a0d"},"vehicle_type_id":"4","last_reported":1740669014,"current_range_meters":19200,"station_id":"ce4bh192rcd13ifvqdd0","pricing_plan_id":"cebpf4jnsgd1na2vs0mg"},{"bike_id":"ec6b7105-a2d4-4380-b43f-9a4a410476d1","system_id":"levelo_inurba_marseille","lat":43.30095,"lon":5.39087,"is_reserved":false,"is_disabled":false,"rental_uris":{"android":"levelo://app?vid=ec6b7105-a2d4-4380-b43f-9a4a410476d1","ios":"levelo://app?vid=ec6b7105-a2d4-4380-b43f-9a4a410476d1"},"vehicle_type_id":"4","last_reported":1740669014,"current_range_meters":19200,"station_id":"ce4bh192rcd13ifvqdb0","pricing_plan_id":"cebpf4jnsgd1na2vs0mg"},{"bike_id":"faf14aaf-ce0e-45c2-8657-e0c94290c060","system_id":"levelo_inurba_marseille","lat":43.265,"lon":5.39543,"is_reserved":false,"is_disabled":false,"rental_uris":{"android":"levelo://app?vid=faf14aaf-ce0e-45c2-8657-e0c94290c060","ios":"levelo://app?vid=faf14aaf-ce0e-45c2-8657-e0c94290c060"},"vehicle_type_id":"4","last_reported":1740669014,"current_range_meters":18800,"station_id":"ce4bhi12rcd13ifvqfq0","pricing_plan_id":"cebpf4jnsgd1na2vs0mg"},{"bike_id":"527ef4b3-93d6-4f2e-9fc1-ef36990dcc9b","system_id":"levelo_inurba_marseille","lat":43.24073,"lon":5.37759,"is_reserved":false,"is_disabled":false,"rental_uris":{"android":"levelo://app?vid=527ef4b3-93d6-4f2e-9fc1-ef36990dcc9b","ios":"levelo://app?vid=527ef4b3-93d6-4f2e-9fc1-ef36990dcc9b"},"vehicle_type_id":"4","last_reported":1740669014,"current_range_meters":18800,"station_id":"ce4bhnp2rcd13ifvqgvg","pricing_plan_id":"cebpf4jnsgd1na2vs0mg"},{"bike_id":"d79774a6-7426-41ac-b7c6-85789974d608","system_id":"levelo_inurba_marseille","lat":43.25587,"lon":5.38213,"is_reserved":false,"is_disabled":false,"rental_uris":{"android":"levelo://app?vid=d79774a6-7426-41ac-b7c6-85789974d608","ios":"levelo://app?vid=d79774a6-7426-41ac-b7c6-85789974d608"},"vehicle_type_id":"4","last_reported":1740669014,"current_range_meters":19200,"station_id":"ce4bhih2rcd13ifvqfs0","pricing_plan_id":"cebpf4jnsgd1na2vs0mg"},{"bike_id":"3a70790f-c755-4858-ae51-dcce4024b075","system_id":"levelo_inurba_marseille","lat":43.32362,"lon":5.36759,"is_reserved":false,"is_disabled":false,"rental_uris":{"android":"levelo://app?vid=3a70790f-c755-4858-ae51-dcce4024b075","ios":"levelo://app?vid=3a70790f-c755-4858-ae51-dcce4024b075"},"vehicle_type_id":"4","last_reported":1740669014,"current_range_meters":19200,"station_id":"ce4bhsh2rcd13ifvqi2g","pricing_plan_id":"cebpf4jnsgd1na2vs0mg"},{"bike_id":"97b1a7d0-f094-4fd6-a5cb-df9a446efb52","system_id":"levelo_inurba_marseille","lat":43.26243,"lon":5.37442,"is_reserved":false,"is_disabled":false,"rental_uris":{"android":"levelo://app?vid=97b1a7d0-f094-4fd6-a5cb-df9a446efb52","ios":"levelo://app?vid=97b1a7d0-f094-4fd6-a5cb-df9a446efb52"},"vehicle_type_id":"4","last_reported":1740669014,"current_range_meters":19600,"station_id":"ce4bhgp2rcd13ifvqfc0","pricing_plan_id":"cebpf4jnsgd1na2vs0mg"},{"bike_id":"56d5968e-6996-4163-8ce9-74dcd3703b80","system_id":"levelo_inurba_marseille","lat":43.29007,"lon":5.35618,"is_reserved":false,"is_disabled":false,"rental_uris":{"android":"levelo://app?vid=56d5968e-6996-4163-8ce9-74dcd3703b80","ios":"levelo://app?vid=56d5968e-6996-4163-8ce9-74dcd3703b80"},"vehicle_type_id":"4","last_reported":1740669014,"current_range_meters":19600,"station_id":"ce4bhb92rcd13ifvqen0","pricing_plan_id":"cebpf4jnsgd1na2vs0mg"},{"bike_id":"ff6c62be-b380-4ba3-a643-c81453d71661","system_id":"levelo_inurba_marseille","lat":43.25122,"lon":5.40321,"is_reserved":false,"is_disabled":false,"rental_uris":{"android":"levelo://app?vid=ff6c62be-b380-4ba3-a643-c81453d71661","ios":"levelo://app?vid=ff6c62be-b380-4ba3-a643-c81453d71661"},"vehicle_type_id":"4","last_reported":1740669014,"current_range_meters":18000,"station_id":"ce4bhlh2rcd13ifvqgig","pricing_plan_id":"cebpf4jnsgd1na2vs0mg"},{"bike_id":"7d94683b-b89e-43f9-b64c-38f219b6c2cc","system_id":"levelo_inurba_marseille","lat":43.30486,"lon":5.37902,"is_reserved":false,"is_disabled":false,"rental_uris":{"android":"levelo://app?vid=7d94683b-b89e-43f9-b64c-38f219b6c2cc","ios":"levelo://app?vid=7d94683b-b89e-43f9-b64c-38f219b6c2cc"},"vehicle_type_id":"4","last_reported":1740669014,"current_range_meters":20000,"station_id":"ce4bgup2rcd13ifvqcn0","pricing_plan_id":"cebpf4jnsgd1na2vs0mg"},{"bike_id":"ea88eeff-ab95-483c-984b-a79d3d691bd1","system_id":"levelo_inurba_marseille","lat":43.28427,"lon":5.34992,"is_reserved":false,"is_disabled":false,"rental_uris":{"android":"levelo://app?vid=ea88eeff-ab95-483c-984b-a79d3d691bd1","ios":"levelo://app?vid=ea88eeff-ab95-483c-984b-a79d3d691bd1"},"vehicle_type_id":"4","last_reported":1740669014,"current_range_meters":20400,"station_id":"ce4bhbh2rcd13ifvqepg","pricing_plan_id":"cebpf4jnsgd1na2vs0mg"},{"bike_id":"ed0d7d3c-95cc-4b21-b2f2-0f9fa084cfa0","system_id":"levelo_inurba_marseille","lat":43.29613,"lon":5.38103,"is_reserved":false,"is_disabled":false,"rental_uris":{"android":"levelo://app?vid=ed0d7d3c-95cc-4b21-b2f2-0f9fa084cfa0","ios":"levelo://app?vid=ed0d7d3c-95cc-4b21-b2f2-0f9fa084cfa0"},"vehicle_type_id":"4","last_reported":1740669014,"current_range_meters":20800,"station_id":"ce4bgl12rcd13ifvqbo0","pricing_plan_id":"cebpf4jnsgd1na2vs0mg"},{"bike_id":"ac7f9e64-756a-45aa-9d44-36bb9bab1a84","system_id":"levelo_inurba_marseille","lat":43.29545,"lon":5.42292,"is_reserved":false,"is_disabled":false,"rental_uris":{"android":"levelo://app?vid=ac7f9e64-756a-45aa-9d44-36bb9bab1a84","ios":"levelo://app?vid=ac7f9e64-756a-45aa-9d44-36bb9bab1a84"},"vehicle_type_id":"4","last_reported":1740669014,"current_range_meters":20000,"station_id":"ce4bhph2rcd13ifvqhdg","pricing_plan_id":"cebpf4jnsgd1na2vs0mg"},{"bike_id":"f25970b3-d9be-4de5-8b73-fd10218c1a88","system_id":"levelo_inurba_marseille","lat":43.28151,"lon":5.42635,"is_reserved":false,"is_disabled":false,"rental_uris":{"android":"levelo://app?vid=f25970b3-d9be-4de5-8b73-fd10218c1a88","ios":"levelo://app?vid=f25970b3-d9be-4de5-8b73-fd10218c1a88"},"vehicle_type_id":"4","last_reported":1740669014,"current_range_meters":20000,"station_id":"ce4bhnh2rcd13ifvqgug","pricing_plan_id":"cebpf4jnsgd1na2vs0mg"},{"bike_id":"600724f8-e3b3-4928-baaa-a722b30768cd","system_id":"levelo_inurba_marseille","lat":43.27617,"lon":5.3612,"is_reserved":false,"is_disabled":false,"rental_uris":{"android":"levelo://app?vid=600724f8-e3b3-4928-baaa-a722b30768cd","ios":"levelo://app?vid=600724f8-e3b3-4928-baaa-a722b30768cd"},"vehicle_type_id":"4","last_reported":1740669014,"current_range_meters":19600,"station_id":"ce4bgj92rcd13ifvqbe0","pricing_plan_id":"cebpf4jnsgd1na2vs0mg"},{"bike_id":"56d43a83-ed8a-4764-a474-325a90fec59b","system_id":"levelo_inurba_marseille","lat":43.2842,"lon":5.34997,"is_reserved":false,"is_disabled":false,"rental_uris":{"android":"levelo://app?vid=56d43a83-ed8a-4764-a474-325a90fec59b","ios":"levelo://app?vid=56d43a83-ed8a-4764-a474-325a90fec59b"},"vehicle_type_id":"4","last_reported":1740669014,"current_range_meters":20000,"station_id":"ce4bhbh2rcd13ifvqepg","pricing_plan_id":"cebpf4jnsgd1na2vs0mg"},{"bike_id":"101ebdb4-3d64-4e0d-8415-db2a0b6dbb78","system_id":"levelo_inurba_marseille","lat":43.23189,"lon":5.35556,"is_reserved":false,"is_disabled":false,"rental_uris":{"android":"levelo://app?vid=101ebdb4-3d64-4e0d-8415-db2a0b6dbb78","ios":"levelo://app?vid=101ebdb4-3d64-4e0d-8415-db2a0b6dbb78"},"vehicle_type_id":"4","last_reported":1740669014,"current_range_meters":20000,"station_id":"ce4bhu92rcd13ifvqi70","pricing_plan_id":"cebpf4jnsgd1na2vs0mg"},{"bike_id":"e10a6478-4ba7-4253-9731-863a69acee14","system_id":"levelo_inurba_marseille","lat":43.29534,"lon":5.39038,"is_reserved":false,"is_disabled":false,"rental_uris":{"android":"levelo://app?vid=e10a6478-4ba7-4253-9731-863a69acee14","ios":"levelo://app?vid=e10a6478-4ba7-4253-9731-863a69acee14"},"vehicle_type_id":"4","last_reported":1740669014,"current_range_meters":20000,"station_id":"ce4bh3p2rcd13ifvqdp0","pricing_plan_id":"cebpf4jnsgd1na2vs0mg"},{"bike_id":"3c1011d6-cebd-4594-8333-a35ff73dd637","system_id":"levelo_inurba_marseille","lat":43.27685,"lon":5.38865,"is_reserved":false,"is_disabled":false,"rental_uris":{"android":"levelo://app?vid=3c1011d6-cebd-4594-8333-a35ff73dd637","ios":"levelo://app?vid=3c1011d6-cebd-4594-8333-a35ff73dd637"},"vehicle_type_id":"4","last_reported":1740669014,"current_range_meters":20800,"station_id":"ce4bhi12rcd13ifvqfo0","pricing_plan_id":"cebpf4jnsgd1na2vs0mg"},{"bike_id":"32ee5593-e261-4433-8847-d5837fcef03a","system_id":"levelo_inurba_marseille","lat":43.24385,"lon":5.37066,"is_reserved":false,"is_disabled":false,"rental_uris":{"android":"levelo://app?vid=32ee5593-e261-4433-8847-d5837fcef03a","ios":"levelo://app?vid=32ee5593-e261-4433-8847-d5837fcef03a"},"vehicle_type_id":"4","last_reported":1740669014,"current_range_meters":22800,"station_id":"ce4bhhh2rcd13ifvqfk0","pricing_plan_id":"cebpf4jnsgd1na2vs0mg"},{"bike_id":"6c809b34-8418-4eb7-9e7f-65fdc8fb72bf","system_id":"levelo_inurba_marseille","lat":43.25718,"lon":5.41113,"is_reserved":false,"is_disabled":false,"rental_uris":{"android":"levelo://app?vid=6c809b34-8418-4eb7-9e7f-65fdc8fb72bf","ios":"levelo://app?vid=6c809b34-8418-4eb7-9e7f-65fdc8fb72bf"},"vehicle_type_id":"4","last_reported":1740669014,"current_range_meters":20400,"station_id":"ce4bhkp2rcd13ifvqgd0","pricing_plan_id":"cebpf4jnsgd1na2vs0mg"},{"bike_id":"c1d8a564-c97e-4596-8a7b-62ac4e5f3805","system_id":"levelo_inurba_marseille","lat":43.29806,"lon":5.38094,"is_reserved":false,"is_disabled":false,"rental_uris":{"android":"levelo://app?vid=c1d8a564-c97e-4596-8a7b-62ac4e5f3805","ios":"levelo://app?vid=c1d8a564-c97e-4596-8a7b-62ac4e5f3805"},"vehicle_type_id":"4","last_reported":1740669014,"current_range_meters":20400,"station_id":"ce4bgip2rcd13ifvqbb0","pricing_plan_id":"cebpf4jnsgd1na2vs0mg"},{"bike_id":"14083d4e-a2cf-416b-aa59-497fa95b26af","system_id":"levelo_inurba_marseille","lat":43.31343,"lon":5.36678,"is_reserved":false,"is_disabled":false,"rental_uris":{"android":"levelo://app?vid=14083d4e-a2cf-416b-aa59-497fa95b26af","ios":"levelo://app?vid=14083d4e-a2cf-416b-aa59-497fa95b26af"},"vehicle_type_id":"4","last_reported":1740669014,"current_range_meters":20400,"station_id":"ce4bgr92rcd13ifvqc6g","pricing_plan_id":"cebpf4jnsgd1na2vs0mg"},{"bike_id":"695e9a27-d903-4bbc-b050-bcc463be80aa","system_id":"levelo_inurba_marseille","lat":43.24155,"lon":5.36412,"is_reserved":false,"is_disabled":false,"rental_uris":{"android":"levelo://app?vid=695e9a27-d903-4bbc-b050-bcc463be80aa","ios":"levelo://app?vid=695e9a27-d903-4bbc-b050-bcc463be80aa"},"vehicle_type_id":"4","last_reported":1740669014,"current_range_meters":20400,"station_id":"cpo36qri1sfpv3e86is0","pricing_plan_id":"cebpf4jnsgd1na2vs0mg"},{"bike_id":"597c78d8-1097-48db-b3be-fafc8754eab9","system_id":"levelo_inurba_marseille","lat":43.24169,"lon":5.364,"is_reserved":false,"is_disabled":false,"rental_uris":{"android":"levelo://app?vid=597c78d8-1097-48db-b3be-fafc8754eab9","ios":"levelo://app?vid=597c78d8-1097-48db-b3be-fafc8754eab9"},"vehicle_type_id":"4","last_reported":1740669014,"current_range_meters":20400,"station_id":"cpo36qri1sfpv3e86is0","pricing_plan_id":"cebpf4jnsgd1na2vs0mg"},{"bike_id":"80e3e56f-a04a-48a4-a95c-546c06a133f4","system_id":"levelo_inurba_marseille","lat":43.26556,"lon":5.37285,"is_reserved":false,"is_disabled":false,"rental_uris":{"android":"levelo://app?vid=80e3e56f-a04a-48a4-a95c-546c06a133f4","ios":"levelo://app?vid=80e3e56f-a04a-48a4-a95c-546c06a133f4"},"vehicle_type_id":"4","last_reported":1740669014,"current_range_meters":21600,"station_id":"ce4bhg12rcd13ifvqf70","pricing_plan_id":"cebpf4jnsgd1na2vs0mg"},{"bike_id":"5e07fab9-6d09-42a9-b754-40e4e48c9e90","system_id":"levelo_inurba_marseille","lat":43.31453,"lon":5.37391,"is_reserved":false,"is_disabled":false,"rental_uris":{"android":"levelo://app?vid=5e07fab9-6d09-42a9-b754-40e4e48c9e90","ios":"levelo://app?vid=5e07fab9-6d09-42a9-b754-40e4e48c9e90"},"vehicle_type_id":"4","last_reported":1740669014,"current_range_meters":21600,"station_id":"","pricing_plan_id":"cebpf4jnsgd1na2vs0mg"},{"bike_id":"a36842d0-f818-4700-abb8-add86fd0d29e","system_id":"levelo_inurba_marseille","lat":43.29589,"lon":5.36745,"is_reserved":false,"is_disabled":false,"rental_uris":{"android":"levelo://app?vid=a36842d0-f818-4700-abb8-add86fd0d29e","ios":"levelo://app?vid=a36842d0-f818-4700-abb8-add86fd0d29e"},"vehicle_type_id":"4","last_reported":1740669014,"current_range_meters":20800,"station_id":"ce4bgph2rcd13ifvqc2g","pricing_plan_id":"cebpf4jnsgd1na2vs0mg"},{"bike_id":"84607eaa-b5fd-4130-9706-091d97fbb2f2","system_id":"levelo_inurba_marseille","lat":43.25583,"lon":5.38255,"is_reserved":false,"is_disabled":false,"rental_uris":{"android":"levelo://app?vid=84607eaa-b5fd-4130-9706-091d97fbb2f2","ios":"levelo://app?vid=84607eaa-b5fd-4130-9706-091d97fbb2f2"},"vehicle_type_id":"4","last_reported":1740669014,"current_range_meters":20800,"station_id":"ce4bhih2rcd13ifvqfs0","pricing_plan_id":"cebpf4jnsgd1na2vs0mg"},{"bike_id":"fa43bf7b-849b-493c-98a1-c43a4027b0f5","system_id":"levelo_inurba_marseille","lat":43.2867,"lon":5.38661,"is_reserved":false,"is_disabled":false,"rental_uris":{"android":"levelo://app?vid=fa43bf7b-849b-493c-98a1-c43a4027b0f5","ios":"levelo://app?vid=fa43bf7b-849b-493c-98a1-c43a4027b0f5"},"vehicle_type_id":"4","last_reported":1740669014,"current_range_meters":20800,"station_id":"ce4bh492rcd13ifvqdug","pricing_plan_id":"cebpf4jnsgd1na2vs0mg"},{"bike_id":"9e02bf67-1c3d-4a91-9554-433fc7268ed6","system_id":"levelo_inurba_marseille","lat":43.28385,"lon":5.38647,"is_reserved":false,"is_disabled":false,"rental_uris":{"android":"levelo://app?vid=9e02bf67-1c3d-4a91-9554-433fc7268ed6","ios":"levelo://app?vid=9e02bf67-1c3d-4a91-9554-433fc7268ed6"},"vehicle_type_id":"4","last_reported":1740669014,"current_range_meters":20800,"station_id":"ce4bh492rcd13ifvqdvg","pricing_plan_id":"cebpf4jnsgd1na2vs0mg"},{"bike_id":"b2d6623f-535d-4920-88c1-68a78b0af0cc","system_id":"levelo_inurba_marseille","lat":43.292,"lon":5.35818,"is_reserved":false,"is_disabled":false,"rental_uris":{"android":"levelo://app?vid=b2d6623f-535d-4920-88c1-68a78b0af0cc","ios":"levelo://app?vid=b2d6623f-535d-4920-88c1-68a78b0af0cc"},"vehicle_type_id":"4","last_reported":1740669014,"current_range_meters":20400,"station_id":"ce4bhb12rcd13ifvqel0","pricing_plan_id":"cebpf4jnsgd1na2vs0mg"},{"bike_id":"7e7eeb9d-9091-4c98-9734-7a12e5516a05","system_id":"levelo_inurba_marseille","lat":43.26982,"lon":5.40139,"is_reserved":false,"is_disabled":false,"rental_uris":{"android":"levelo://app?vid=7e7eeb9d-9091-4c98-9734-7a12e5516a05","ios":"levelo://app?vid=7e7eeb9d-9091-4c98-9734-7a12e5516a05"},"vehicle_type_id":"4","last_reported":1740669014,"current_range_meters":20800,"station_id":"","pricing_plan_id":"cebpf4jnsgd1na2vs0mg"},