{"last_updated":1706771226,"ttl":30,"version":"2.2","data":{"bikes":[{"bike_id":"a91651bd-e697-4ac3-944e-835640c9d339","system_id":"levelo_inurba_marseille","lat":43.313391,"lon":5.36706,"is_reserved":false,"is_disabled":false,"rental_uris":{"android":"levelo://app?vid=a91651bd-e697-4ac3-944e-835640c9d339","ios":"levelo://app?vid=a91651bd-e697-4ac3-944e-835640c9d339"},"vehicle_type_id":"4","last_reported":1706771226,"current_range_meters":400,"station_id":"ce4bgr92rcd13ifvqc6g","pricing_plan_id":"free"},{"bike_id":"70966388-f8ea-438f-bf7e-4241c03f355f","system_id":"levelo_inurba_marseille","lat":43.313391,"lon":5.36706,"is_reserved":false,"is_disabled":false,"rental_uris":{"android":"levelo://app?vid=70966388-f8ea-438f-bf7e-4241c03f355f","ios":"levelo://app?vid=70966388-f8ea-438f-bf7e-4241c03f355f"},"vehicle_type_id":"4","last_reported":1706771226,"current_range_meters":13600,"station_id":"ce4bgr92rcd13ifvqc6g","pricing_plan_id":"free"},{"bike_id":"2a9bb2ce-18ef-432e-a513-ce0a4d81ec20","system_id":"levelo_inurba_marseille","lat":43.313391,"lon":5.36706,"is_reserved":false,"is_disabled":false,"rental_uris":{"android":"levelo://app?vid=2a9bb2ce-18ef-432e-a513-ce0a4d81ec20","ios":"levelo://app?vid=2a9bb2ce-18ef-432e-a513-ce0a4d81ec20"},"vehicle_type_id":"4","last_reported":1706771226,"current_range_meters":14400,"station_id":"ce4bgr92rcd13ifvqc6g","pricing_plan_id":"free"},{"bike_id":"121ef14b-863e-417c-a9aa-09f43100c570","system_id":"levelo_inurba_marseille","lat":43.31341,"lon":5.367098,"is_reserved":false,"is_disabled":false,"rental_uris":{"android":"levelo://app?vid=121ef14b-863e-417c-a9aa-09f43100c570","ios":"levelo://app?vid=121ef14b-863e-417c-a9aa-09f43100c570"},"vehicle_type_id":"4","last_reported":1706771226,"current_range_meters":18400,"station_id":"ce4bgr92rcd13ifvqc6g","pricing_plan_id":"free"},{"bike_id":"aa2081ff-9cef-4ef7-b1e2-feb5d80225c4","system_id":"levelo_inurba_marseille","lat":43.313391,"lon":5.36706,"is_reserved":false,"is_disabled":false,"rental_uris":{"android":"levelo://app?vid=aa2081ff-9cef-4ef7-b1e2-feb5d80225c4","ios":"levelo://app?vid=aa2081ff-9cef-4ef7-b1e2-feb5d80225c4"},"vehicle_type_id":"4","last_reported":1706771226,"current_range_meters":16000,"station_id":"ce4bgr92rcd13ifvqc6g","pricing_plan_id":"free"},{"bike_id":"aea78975-eac6-42b3-be5b-68f6c95061f5","system_id":"levelo_inurba_marseille","lat":43.313391,"lon":5.36706,"is_reserved":false,"is_disabled":false,"rental_uris":{"android":"levelo://app?vid=aea78975-eac6-42b3-be5b-68f6c95061f5","ios":"levelo://app?vid=aea78975-eac6-42b3-be5b-68f6c95061f5"},"vehicle_type_id":"4","last_reported":1706771226,"current_range_meters":30000,"station_id":"ce4bgr92rcd13ifvqc6g","pricing_plan_id":"free"},{"bike_id":"d0be94a7-a003-4fd6-8742-8afba342af27","system_id":"levelo_inurba_marseille","lat":43.313391,"lon":5.36706,"is_reserved":false,"is_disabled":false,"rental_uris":{"android":"levelo://app?vid=d0be94a7-a003-4fd6-8742-8afba342af27","ios":"levelo://app?vid=d0be94a7-a003-4fd6-8742-8afba342af27"},"vehicle_type_id":"4","last_reported":1706771226,"current_range_meters":22800,"station_id":"ce4bgr92rcd13ifvqc6g","pricing_plan_id":"free"},{"bike_id":"a4ddc285-85d1-4de1-87cf-9e0277f39ca4","system_id":"levelo_inurba_marseille","lat":43.313391,"lon":5.36706,"is_reserved":false,"is_disabled":false,"rental_uris":{"android":"levelo://app?vid=a4ddc285-85d1-4de1-87cf-9e0277f39ca4","ios":"levelo://app?vid=a4ddc285-85d1-4de1-87cf-9e0277f39ca4"},"vehicle_type_id":"4","last_reported":1706771226,"current_range_meters":20800,"station_id":"ce4bgr92rcd13ifvqc6g","pricing_plan_id":"free"},{"bike_id":"ccfbba6a-874f-4ec9-8d6f-3e5d80f1b4fc","system_id":"levelo_inurba_marseille","lat":43.31341,"lon":5.367098,"is_reserved":false,"is_disabled":false,"rental_uris":{"android":"levelo://app?vid=ccfbba6a-874f-4ec9-8d6f-3e5d80f1b4fc","ios":"levelo://app?vid=ccfbba6a-874f-4ec9-8d6f-3e5d80f1b4fc"},"vehicle_type_id":"4","last_reported":1706771226,"current_range_meters":21200,"station_id":"ce4bgr92rcd13ifvqc6g","pricing_plan_id":"free"},{"bike_id":"025da868-6a6b-46da-83b0-6849eb65318f","system_id":"levelo_inurba_marseille","lat":43.312239,"lon":5.368562,"is_reserved":false,"is_disabled":false,"rental_uris":{"android":"levelo://app?vid=025da868-6a6b-46da-83b0-6849eb65318f","ios":"levelo://app?vid=025da868-6a6b-46da-83b0-6849eb65318f"},"vehicle_type_id":"4","last_reported":1706771226,"current_range_meters":18800,"station_id":"ce4bgl92rcd13ifvqbq0","pricing_plan_id":"free"},{"bike_id":"8a1e2c85-3497-4570-bbf9-2e929dbcdb7f","system_id":"levelo_inurba_marseille","lat":43.312239,"lon":5.368562,"is_reserved":false,"is_disabled":false,"rental_uris":{"android":"levelo://app?vid=8a1e2c85-3497-4570-bbf9-2e929dbcdb7f","ios":"levelo://app?vid=8a1e2c85-3497-4570-bbf9-2e929dbcdb7f"},"vehicle_type_id":"4","last_reported":1706771226,"current_range_meters":30800,"station_id":"ce4bgl92rcd13ifvqbq0","pricing_plan_id":"free"},{"bike_id":"2e23de19-b56c-47cf-b325-1e7dc279d24c","system_id":"levelo_inurba_marseille","lat":43.312239,"lon":5.368562,"is_reserved":false,"is_disabled":false,"rental_uris":{"android":"levelo://app?vid=2e23de19-b56c-47cf-b325-1e7dc279d24c","ios":"levelo://app?vid=2e23de19-b56c-47cf-b325-1e7dc279d24c"},"vehicle_type_id":"4","last_reported":1706771226,"current_range_meters":5200,"station_id":"ce4bgl92rcd13ifvqbq0","pricing_plan_id":"free"},{"bike_id":"4da5aac2-b12f-4e25-877a-f4903dd1d76d","system_id":"levelo_inurba_marseille","lat":43.312239,"lon":5.368562,"is_reserved":false,"is_disabled":false,"rental_uris":{"android":"levelo://app?vid=4da5aac2-b12f-4e25-877a-f4903dd1d76d","ios":"levelo://app?vid=4da5aac2-b12f-4e25-877a-f4903dd1d76d"},"vehicle_type_id":"4","last_reported":1706771226,"current_range_meters":24400,"station_id":"ce4bgl92rcd13ifvqbq0","pricing_plan_id":"free"},{"bike_id":"cccbd0b8-5a17-4f9c-8b57-c0b93c47c1c0","system_id":"levelo_inurba_marseille","lat":43.312239,"lon":5.368562,"is_reserved":false,"is_disabled":false,"rental_uris":{"android":"levelo://app?vid=cccbd0b8-5a17-4f9c-8b57-c0b93c47c1c0","ios":"levelo://app?vid=cccbd0b8-5a17-4f9c-8b57-c0b93c47c1c0"},"vehicle_type_id":"4","last_reported":1706771226,"current_range_meters":24800,"station_id":"ce4bgl92rcd13ifvqbq0","pricing_plan_id":"free"},{"bike_id":"f1a97ecf-0244-4d95-8913-9b865666b9ad","system_id":"levelo_inurba_marseille","lat":43.309076,"lon":5.368465,"is_reserved":false,"is_disabled":false,"rental_uris":{"android":"levelo://app?vid=f1a97ecf-0244-4d95-8913-9b865666b9ad","ios":"levelo://app?vid=f1a97ecf-0244-4d95-8913-9b865666b9ad"},"vehicle_type_id":"4","last_reported":1706771226,"current_range_meters":24800,"station_id":"ce4bgn92rcd13ifvqbvg","pricing_plan_id":"free"},{"bike_id":"b64805aa-a1f1-42d8-a201-806925bfe1ab","system_id":"levelo_inurba_marseille","lat":43.309076,"lon":5.368465,"is_reserved":false,"is_disabled":false,"rental_uris":{"android":"levelo://app?vid=b64805aa-a1f1-42d8-a201-806925bfe1ab","ios":"levelo://app?vid=b64805aa-a1f1-42d8-a201-806925bfe1ab"},"vehicle_type_id":"4","last_reported":1706771226,"current_range_meters":3200,"station_id":"ce4bgn92rcd13ifvqbvg","pricing_plan_id":"free"},{"bike_id":"8a204664-25e0-4c5f-82c8-cda1aec87041","system_id":"levelo_inurba_marseille","lat":43.314811,"lon":5.373103,"is_reserved":false,"is_disabled":false,"rental_uris":{"android":"levelo://app?vid=8a204664-25e0-4c5f-82c8-cda1aec87041","ios":"levelo://app?vid=8a204664-25e0-4c5f-82c8-cda1aec87041"},"vehicle_type_id":"4","last_reported":1706771226,"current_range_meters":31600,"station_id":"ce4bgt12rcd13ifvqcd0","pricing_plan_id":"free"},{"bike_id":"b1ce74e6-9370-4661-bb3a-badb15599f47","system_id":"levelo_inurba_marseille","lat":43.309039,"lon":5.371797,"is_reserved":false,"is_disabled":false,"rental_uris":{"android":"levelo://app?vid=b1ce74e6-9370-4661-bb3a-badb15599f47","ios":"levelo://app?vid=b1ce74e6-9370-4661-bb3a-badb15599f47"},"vehicle_type_id":"4","last_reported":1706771226,"current_range_meters":29200,"station_id":"ce4bguh2rcd13ifvqckg","pricing_plan_id":"free"},{"bike_id":"a3c07ab9-6d38-4834-836d-7cad2425401b","system_id":"levelo_inurba_marseille","lat":43.309039,"lon":5.371797,"is_reserved":false,"is_disabled":false,"rental_uris":{"android":"levelo://app?vid=a3c07ab9-6d38-4834-836d-7cad2425401b","ios":"levelo://app?vid=a3c07ab9-6d38-4834-836d-7cad2425401b"},"vehicle_type_id":"4","last_reported":1706771226,"current_range_meters":5200,"station_id":"ce4bguh2rcd13ifvqckg","pricing_plan_id":"free"},{"bike_id":"0e5cebe9-f98c-4f9d-8dcf-08381f7a7747","system_id":"levelo_inurba_marseille","lat":43.309039,"lon":5.371797,"is_reserved":false,"is_disabled":false,"rental_uris":{"android":"levelo://app?vid=0e5cebe9-f98c-4f9d-8dcf-08381f7a7747","ios":"levelo://app?vid=0e5cebe9-f98c-4f9d-8dcf-08381f7a7747"},"vehicle_type_id":"4","last_reported":1706771226,"current_range_meters":14000,"station_id":"ce4bguh2rcd13ifvqckg","pricing_plan_id":"free"},{"bike_id":"992afe73-edb2-417a-bd83-be5a2de974d7","system_id":"levelo_inurba_marseille","lat":43.309039,"lon":5.371797,"is_reserved":false,"is_disabled":false,"rental_uris":{"android":"levelo://app?vid=992afe73-edb2-417a-bd83-be5a2de974d7","ios":"levelo://app?vid=992afe73-edb2-417a-bd83-be5a2de974d7"},"vehicle_type_id":"4","last_reported":1706771226,"current_range_meters":28400,"station_id":"ce4bguh2rcd13ifvqckg","pricing_plan_id":"free"},{"bike_id":"f9553263-dd39-4091-980f-072fec009ca7","system_id":"levelo_inurba_marseille","lat":43.309039,"lon":5.371797,"is_reserved":false,"is_disabled":false,"rental_uris":{"android":"levelo://app?vid=f9553263-dd39-4091-980f-072fec009ca7","ios":"levelo://app?vid=f9553263-dd39-4091-980f-072fec009ca7"},"vehicle_type_id":"4","last_reported":1706771226,"current_range_meters":26800,"station_id":"ce4bguh2rcd13ifvqckg","pricing_plan_id":"free"},{"bike_id":"e3457f0e-2c28-40aa-8510-b585d622a528","system_id":"levelo_inurba_marseille","lat":43.309039,"lon":5.371797,"is_reserved":false,"is_disabled":false,"rental_uris":{"android":"levelo://app?vid=e3457f0e-2c28-40aa-8510-b585d622a528","ios":"levelo://app?vid=e3457f0e-2c28-40aa-8510-b585d622a528"},"vehicle_type_id":"4","last_reported":1706771226,"current_range_meters":23200,"station_id":"ce4bguh2rcd13ifvqckg","pricing_plan_id":"free"},{"bike_id":"56a40581-a946-4634-90fe-7b1994569868","system_id":"levelo_inurba_marseille","lat":43.305712,"lon":5.365641,"is_reserved":false,"is_disabled":false,"rental_uris":{"android":"levelo://app?vid=56a40581-a946-4634-90fe-7b1994569868","ios":"levelo://app?vid=56a40581-a946-4634-90fe-7b1994569868"},"vehicle_type_id":"4","last_reported":1706771226,"current_range_meters":31600,"station_id":"ce4bgs12rcd13ifvqcag","pricing_plan_id":"free"},{"bike_id":"d84e43df-dea9-49ab-b6c6-504ab931c4e0","system_id":"levelo_inurba_marseille","lat":43.305714,"lon":5.365633,"is_reserved":false,"is_disabled":false,"rental_uris":{"android":"levelo://app?vid=d84e43df-dea9-49ab-b6c6-504ab931c4e0","ios":"levelo://app?vid=d84e43df-dea9-49ab-b6c6-504ab931c4e0"},"vehicle_type_id":"4","last_reported":1706771226,"current_range_meters":5200,"station_id":"ce4bgs12rcd13ifvqcag","pricing_plan_id":"free"},{"bike_id":"4798a8e5-8d13-430d-87ba-2aabedf03c28","system_id":"levelo_inurba_marseille","lat":43.305706,"lon":5.365654,"is_reserved":false,"is_disabled":false,"rental_uris":{"android":"levelo://app?vid=4798a8e5-8d13-430d-87ba-2aabedf03c28","ios":"levelo://app?vid=4798a8e5-8d13-430d-87ba-2aabedf03c28"},"vehicle_type_id":"4","last_reported":1706771226,"current_range_meters":19200,"station_id":"ce4bgs12rcd13ifvqcag","pricing_plan_id":"free"},{"bike_id":"5b040e1d-6c76-466e-a53a-eefe9e62f148","system_id":"levelo_inurba_marseille","lat":43.305706,"lon":5.365654,"is_reserved":false,"is_disabled":false,"rental_uris":{"android":"levelo://app?vid=5b040e1d-6c76-466e-a53a-eefe9e62f148","ios":"levelo://app?vid=5b040e1d-6c76-466e-a53a-eefe9e62f148"},"vehicle_type_id":"4","last_reported":1706771226,"current_range_meters":17600,"station_id":"ce4bgs12rcd13ifvqcag","pricing_plan_id":"free"},{"bike_id":"549325cf-c22d-405f-b550-8278ce14da7e","system_id":"levelo_inurba_marseille","lat":43.305706,"lon":5.365654,"is_reserved":false,"is_disabled":false,"rental_uris":{"android":"levelo://app?vid=549325cf-c22d-405f-b550-8278ce14da7e","ios":"levelo://app?vid=549325cf-c22d-405f-b550-8278ce14da7e"},"vehicle_type_id":"4","last_reported":1706771226,"current_range_meters":10800,"station_id":"ce4bgs12rcd13ifvqcag","pricing_plan_id":"free"},{"bike_id":"780f0ad9-9209-46f2-86f3-87b34fe9b714","system_id":"levelo_inurba_marseille","lat":43.305706,"lon":5.365654,"is_reserved":false,"is_disabled":false,"rental_uris":{"android":"levelo://app?vid=780f0ad9-9209-46f2-86f3-87b34fe9b714","ios":"levelo://app?vid=780f0ad9-9209-46f2-86f3-87b34fe9b714"},"vehicle_type_id":"4","last_reported":1706771226,"current_range_meters":11600,"station_id":"ce4bgs12rcd13ifvqcag","pricing_plan_id":"free"},{"bike_id":"4a7916a4-22aa-47e8-acc2-9c76f41ab2d5","system_id":"levelo_inurba_marseille","lat":43.305989,"lon":5.37225,"is_reserved":false,"is_disabled":false,"rental_uris":{"android":"levelo://app?vid=4a7916a4-22aa-47e8-acc2-9c76f41ab2d5","ios":"levelo://app?vid=4a7916a4-22aa-47e8-acc2-9c76f41ab2d5"},"vehicle_type_id":"4","last_reported":1706771226,"current_range_meters":24400,"station_id":"ce4bgqh2rcd13ifvqc4g","pricing_plan_id":"free"},{"bike_id":"7e6a549c-eb7f-45e3-95b1-967b5f18a31c","system_id":"levelo_inurba_marseille","lat":43.305989,"lon":5.37225,"is_reserved":false,"is_disabled":false,"rental_uris":{"android":"levelo://app?vid=7e6a549c-eb7f-45e3-95b1-967b5f18a31c","ios":"levelo://app?vid=7e6a549c-eb7f-45e3-95b1-967b5f18a31c"},"vehicle_type_id":"4","last_reported":1706771226,"current_range_meters":22800,"station_id":"ce4bgqh2rcd13ifvqc4g","pricing_plan_id":"free"},{"bike_id":"d5e0e471-5569-42a9-ab84-d313ebd90ad0","system_id":"levelo_inurba_marseille","lat":43.305989,"lon":5.37225,"is_reserved":false,"is_disabled":false,"rental_uris":{"android":"levelo://app?vid=d5e0e471-5569-42a9-ab84-d313ebd90ad0","ios":"levelo://app?vid=d5e0e471-5569-42a9-ab84-d313ebd90ad0"},"vehicle_type_id":"4","last_reported":1706771226,"current_range_meters":26000,"station_id":"ce4bgqh2rcd13ifvqc4g","pricing_plan_id":"free"},{"bike_id":"1be6c73d-db61-4437-bf33-bc72323c948a","system_id":"levelo_inurba_marseille","lat":43.311131,"lon":5.377651,"is_reserved":false,"is_disabled":false,"rental_uris":{"android":"levelo://app?vid=1be6c73d-db61-4437-bf33-bc72323c948a","ios":"levelo://app?vid=1be6c73d-db61-4437-bf33-bc72323c948a"},"vehicle_type_id":"4","last_reported":1706771226,"current_range_meters":11600,"station_id":"ce4bgt92rcd13ifvqcg0","pricing_plan_id":"free"},{"bike_id":"b89163d2-f2b5-4b6d-aabd-1475735c5e98","system_id":"levelo_inurba_marseille","lat":43.311131,"lon":5.377651,"is_reserved":false,"is_disabled":false,"rental_uris":{"android":"levelo://app?vid=b89163d2-f2b5-4b6d-aabd-1475735c5e98","ios":"levelo://app?vid=b89163d2-f2b5-4b6d-aabd-1475735c5e98"},"vehicle_type_id":"4","last_reported":1706771226,"current_range_meters":10800,"station_id":"ce4bgt92rcd13ifvqcg0","pricing_plan_id":"free"},{"bike_id":"0a9c7fe5-33fc-4e5f-a1f0-f333f06760ac","system_id":"levelo_inurba_marseille","lat":43.31124,"lon":5.37771,"is_reserved":false,"is_disabled":false,"rental_uris":{"android":"levelo://app?vid=0a9c7fe5-33fc-4e5f-a1f0-f333f06760ac","ios":"levelo://app?vid=0a9c7fe5-33fc-4e5f-a1f0-f333f06760ac"},"vehicle_type_id":"4","last_reported":1706771226,"current_range_meters":4000,"station_id":"ce4bgt92rcd13ifvqcg0","pricing_plan_id":"free"},{"bike_id":"3f957143-06a0-48a3-9ac5-caf0e796f6a7","system_id":"levelo_inurba_marseille","lat":43.311125,"lon":5.377624,"is_reserved":false,"is_disabled":false,"rental_uris":{"android":"levelo://app?vid=3f957143-06a0-48a3-9ac5-caf0e796f6a7","ios":"levelo://app?vid=3f957143-06a0-48a3-9ac5-caf0e796f6a7"},"vehicle_type_id":"4","last_reported":1706771226,"current_range_meters":18400,"station_id":"ce4bgt92rcd13ifvqcg0","pricing_plan_id":"free"},{"bike_id":"9a4db2da-70f6-4b03-8ce0-90eeb4bb8164","system_id":"levelo_inurba_marseille","lat":43.307945,"lon":5.376487,"is_reserved":false,"is_disabled":false,"rental_uris":{"android":"levelo://app?vid=9a4db2da-70f6-4b03-8ce0-90eeb4bb8164","ios":"levelo://app?vid=9a4db2da-70f6-4b03-8ce0-90eeb4bb8164"},"vehicle_type_id":"4","last_reported":1706771226,"current_range_meters":31600,"station_id":"ce4bgv92rcd13ifvqcq0","pricing_plan_id":"free"},{"bike_id":"5694533a-06d3-48eb-a5e7-dbdf286b63e0","system_id":"levelo_inurba_marseille","lat":43.307945,"lon":5.376487,"is_reserved":false,"is_disabled":false,"rental_uris":{"android":"levelo://app?vid=5694533a-06d3-48eb-a5e7-dbdf286b63e0","ios":"levelo://app?vid=5694533a-06d3-48eb-a5e7-dbdf286b63e0"},"vehicle_type_id":"4","last_reported":1706771226,"current_range_meters":18000,"station_id":"ce4bgv92rcd13ifvqcq0","pricing_plan_id":"free"},{"bike_id":"f33f70d5-46c2-4de5-ac55-7370e52b4850","system_id":"levelo_inurba_marseille","lat":43.307945,"lon":5.376487,"is_reserved":false,"is_disabled":false,"rental_uris":{"android":"levelo://app?vid=f33f70d5-46c2-4de5-ac55-7370e52b4850","ios":"levelo://app?vid=f33f70d5-46c2-4de5-ac55-7370e52b4850"},"vehicle_type_id":"4","last_reported":1706771226,"current_range_meters":28800,"station_id":"ce4bgv92rcd13ifvqcq0","pricing_plan_id":"free"},{"bike_id":"ef339a28-d0f2-4c2f-b5a0-6706d5d07f2d","system_id":"levelo_inurba_marseille","lat":43.307945,"lon":5.376487,"is_reserved":false,"is_disabled":false,"rental_uris":{"android":"levelo://app?vid=ef339a28-d0f2-4c2f-b5a0-6706d5d07f2d","ios":"levelo://app?vid=ef339a28-d0f2-4c2f-b5a0-6706d5d07f2d"},"vehicle_type_id":"4","last_reported":1706771226,"current_range_meters":6400,"station_id":"ce4bgv92rcd13ifvqcq0","pricing_plan_id":"free"},{"bike_id":"2d2a6656-6a04-4c39-bb72-1906e926ab8c","system_id":"levelo_inurba_marseille","lat":43.307945,"lon":5.376487,"is_reserved":false,"is_disabled":false,"rental_uris":{"android":"levelo://app?vid=2d2a6656-6a04-4c39-bb72-1906e926ab8c","ios":"levelo://app?vid=2d2a6656-6a04-4c39-bb72-1906e926ab8c"},"vehicle_type_id":"4","last_reported":1706771226,"current_range_meters":31600,"station_id":"ce4bgv92rcd13ifvqcq0","pricing_plan_id":"free"},{"bike_id":"15ea6dcf-d9d1-4738-8f78-7b95632877c6","system_id":"levelo_inurba_marseille","lat":43.307945,"lon":5.376487,"is_reserved":false,"is_disabled":false,"rental_uris":{"android":"levelo://app?vid=15ea6dcf-d9d1-4738-8f78-7b95632877c6","ios":"levelo://app?vid=15ea6dcf-d9d1-4738-8f78-7b95632877c6"},"vehicle_type_id":"4","last_reported":1706771226,"current_range_meters":31200,"station_id":"ce4bgv92rcd13ifvqcq0","pricing_plan_id":"free"},{"bike_id":"a09903b2-4220-4976-8059-2b0efdb666ee","system_id":"levelo_inurba_marseille","lat":43.317075,"lon":5.377367,"is_reserved":false,"is_disabled":false,"rental_uris":{"android":"levelo://app?vid=a09903b2-4220-4976-8059-2b0efdb666ee","ios":"levelo://app?vid=a09903b2-4220-4976-8059-2b0efdb666ee"},"vehicle_type_id":"4","last_reported":1706771226,"current_range_meters":30400,"station_id":"ce4bgth2rcd13ifvqch0","pricing_plan_id":"free"},{"bike_id":"18a7ab6b-e68c-44de-99bd-cd4b624a0994","system_id":"levelo_inurba_marseille","lat":43.317075,"lon":5.377367,"is_reserved":false,"is_disabled":false,"rental_uris":{"android":"levelo://app?vid=18a7ab6b-e68c-44de-99bd-cd4b624a0994","ios":"levelo://app?vid=18a7ab6b-e68c-44de-99bd-cd4b624a0994"},"vehicle_type_id":"4","last_reported":1706771226,"current_range_meters":4000,"station_id":"ce4bgth2rcd13ifvqch0","pricing_plan_id":"free"},{"bike_id":"a978aec5-fe24-42a0-9d87-890d44984132","system_id":"levelo_inurba_marseille","lat":43.30311,"lon":5.369037,"is_reserved":false,"is_disabled":false,"rental_uris":{"android":"levelo://app?vid=a978aec5-fe24-42a0-9d87-890d44984132","ios":"levelo://app?vid=a978aec5-fe24-42a0-9d87-890d44984132"},"vehicle_type_id":"4","last_reported":1706771226,"current_range_meters":27600,"station_id":"ce4bgqh2rcd13ifvqc5g","pricing_plan_id":"free"},{"bike_id":"19e4f2cb-c5e2-4b1b-a435-37acda86b984","system_id":"levelo_inurba_marseille","lat":43.315293,"lon":5.380349,"is_reserved":false,"is_disabled":false,"rental_uris":{"android":"levelo://app?vid=19e4f2cb-c5e2-4b1b-a435-37acda86b984","ios":"levelo://app?vid=19e4f2cb-c5e2-4b1b-a435-37acda86b984"},"vehicle_type_id":"4","last_reported":1706771226,"current_range_meters":30400,"station_id":"ce4bhsp2rcd13ifvqi50","pricing_plan_id":"free"},{"bike_id":"d621c7c6-f8f7-4aff-8255-da4375603046","system_id":"levelo_inurba_marseille","lat":43.301939,"lon":5.366286,"is_reserved":false,"is_disabled":false,"rental_uris":{"android":"levelo://app?vid=d621c7c6-f8f7-4aff-8255-da4375603046","ios":"levelo://app?vid=d621c7c6-f8f7-4aff-8255-da4375603046"},"vehicle_type_id":"4","last_reported":1706771226,"current_range_meters":2400,"station_id":"ce4bgrh2rcd13ifvqc8g","pricing_plan_id":"free"},{"bike_id":"529af7b0-7ea3-4cd5-a570-337530f5c145","system_id":"levelo_inurba_marseille","lat":43.308012,"lon":5.381511,"is_reserved":false,"is_disabled":false,"rental_uris":{"android":"levelo://app?vid=529af7b0-7ea3-4cd5-a570-337530f5c145","ios":"levelo://app?vid=529af7b0-7ea3-4cd5-a570-337530f5c145"},"vehicle_type_id":"4","last_reported":1706771226,"current_range_meters":23600,"station_id":"ce4bgt12rcd13ifvqce0","pricing_plan_id":"free"},{"bike_id":"b06f7a1c-b76d-466a-86ef-5b51c7afb6c9","system_id":"levelo_inurba_marseille","lat":43.308012,"lon":5.381511,"is_reserved":false,"is_disabled":false,"rental_uris":{"android":"levelo://app?vid=b06f7a1c-b76d-466a-86ef-5b51c7afb6c9","ios":"levelo://app?vid=b06f7a1c-b76d-466a-86ef-5b51c7afb6c9"},"vehicle_type_id":"4","last_reported":1706771226,"current_range_meters":31600,"station_id":"ce4bgt12rcd13ifvqce0","pricing_plan_id":"free"},{"bike_id":"73709bbc-8942-459c-8189-858c130b4695","system_id":"levelo_inurba_marseille","lat":43.304606,"lon":5.379026,"is_reserved":false,"is_disabled":false,"rental_uris":{"android":"levelo://app?vid=73709bbc-8942-459c-8189-858c130b4695","ios":"levelo://app?vid=73709bbc-8942-459c-8189-858c130b4695"},"vehicle_type_id":"4","last_reported":1706771226,"current_range_meters":23200,"station_id":"ce4bgup2rcd13ifvqcn0","pricing_plan_id":"free"},{"bike_id":"889b90e8-cc72-4202-9c96-358786b60c4a","system_id":"levelo_inurba_marseille","lat":43.304606,"lon":5.379026,"is_reserved":false,"is_disabled":false,"rental_uris":{"android":"levelo://app?vid=889b90e8-cc72-4202-9c96-358786b60c4a","ios":"levelo://app?vid=889b90e8-cc72-4202-9c96-358786b60c4a"},"vehicle_type_id":"4","last_reported":1706771226,"current_range_meters":26000,"station_id":"ce4bgup2rcd13ifvqcn0","pricing_plan_id":"free"},{"bike_id":"c097e2ff-e6f7-4053-afbb-e2a08678e05c","system_id":"levelo_inurba_marseille","lat":43.304606,"lon":5.379026,"is_reserved":false,"is_disabled":false,"rental_uris":{"android":"levelo://app?vid=c097e2ff-e6f7-4053-afbb-e2a08678e05c","ios":"levelo://app?vid=c097e2ff-e6f7-4053-afbb-e2a08678e05c"},"vehicle_type_id":"4","last_reported":1706771226,"current_range_meters":16400,"station_id":"ce4bgup2rcd13ifvqcn0","pricing_plan_id":"free"},{"bike_id":"8f2c9e37-9754-4421-ab98-284fdba982f7","system_id":"levelo_inurba_marseille","lat":43.304606,"lon":5.379026,"is_reserved":false,"is_disabled":false,"rental_uris":{"android":"levelo://app?vid=8f2c9e37-9754-4421-ab98-284fdba982f7","ios":"levelo://app?vid=8f2c9e37-9754-4421-ab98-284fdba982f7"},"vehicle_type_id":"4","last_reported":1706771226,"current_range_meters":18400,"station_id":"ce4bgup2rcd13ifvqcn0","pricing_plan_id":"free"},{"bike_id":"36d8023a-6745-4565-aabb-3607ba0de627","system_id":"levelo_inurba_marseille","lat":43.304606,"lon":5.379026,"is_reserved":false,"is_disabled":false,"rental_uris":{"android":"levelo://app?vid=36d8023a-6745-4565-aabb-3607ba0de627","ios":"levelo://app?vid=36d8023a-6745-4565-aabb-3607ba0de627"},"vehicle_type_id":"4","last_reported":1706771226,"current_range_meters":29200,"station_id":"ce4bgup2rcd13ifvqcn0","pricing_plan_id":"free"},{"bike_id":"c1efc8ff-864e-4776-9ee7-f7d79e9eeae7","system_id":"levelo_inurba_marseille","lat":43.304606,"lon":5.379026,"is_reserved":false,"is_disabled":false,"rental_uris":{"android":"levelo://app?vid=c1efc8ff-864e-4776-9ee7-f7d79e9eeae7","ios":"levelo://app?vid=c1efc8ff-864e-4776-9ee7-f7d79e9eeae7"},"vehicle_type_id":"4","last_reported":1706771226,"current_range_meters":27200,"station_id":"ce4bgup2rcd13ifvqcn0","pricing_plan_id":"free"},{"bike_id":"a348725e-733f-471b-aabb-a608e94f42f4","system_id":"levelo_inurba_marseille","lat":43.304606,"lon":5.379026,"is_reserved":false,"is_disabled":false,"rental_uris":{"android":"levelo://app?vid=a348725e-733f-471b-aabb-a608e94f42f4","ios":"levelo://app?vid=a348725e-733f-471b-aabb-a608e94f42f4"},"vehicle_type_id":"4","last_reported":1706771226,"current_range_meters":28000,"station_id":"ce4bgup2rcd13ifvqcn0","pricing_plan_id":"free"},{"bike_id":"ce3b65b2-2b13-49ee-9430-c61f8a4414a3","system_id":"levelo_inurba_marseille","lat":43.304606,"lon":5.379026,"is_reserved":false,"is_disabled":false,"rental_uris":{"android":"levelo://app?vid=ce3b65b2-2b13-49ee-9430-c61f8a4414a3","ios":"levelo://app?vid=ce3b65b2-2b13-49ee-9430-c61f8a4414a3"},"vehicle_type_id":"4","last_reported":1706771226,"current_range_meters":4000,"station_id":"ce4bgup2rcd13ifvqcn0","pricing_plan_id":"free"},{"bike_id":"7a760173-b41a-4d22-a675-4b95b11dcc7d","system_id":"levelo_inurba_marseille","lat":43.304606,"lon":5.379026,"is_reserved":false,"is_disabled":false,"rental_uris":{"android":"levelo://app?vid=7a760173-b41a-4d22-a675-4b95b11dcc7d","ios":"levelo://app?vid=7a760173-b41a-4d22-a675-4b95b11dcc7d"},"vehicle_type_id":"4","last_reported":1706771226,"current_range_meters":12400,"station_id":"ce4bgup2rcd13ifvqcn0","pricing_plan_id":"free"},{"bike_id":"8fcec010-b35c-4f9d-83a8-1d725802a0f1","system_id":"levelo_inurba_marseille","lat":43.304606,"lon":5.379026,"is_reserved":false,"is_disabled":false,"rental_uris":{"android":"levelo://app?vid=8fcec010-b35c-4f9d-83a8-1d725802a0f1","ios":"levelo://app?vid=8fcec010-b35c-4f9d-83a8-1d725802a0f1"},"vehicle_type_id":"4","last_reported":1706771226,"current_range_meters":23600,"station_id":"ce4bgup2rcd13ifvqcn0","pricing_plan_id":"free"},{"bike_id":"2b31dfa5-a411-4605-b687-d5d3cf7df764","system_id":"levelo_inurba_marseille","lat":43.304606,"lon":5.379026,"is_reserved":false,"is_disabled":false,"rental_uris":{"android":"levelo://app?vid=2b31dfa5-a411-4605-b687-d5d3cf7df764","ios":"levelo://app?vid=2b31dfa5-a411-4605-b687-d5d3cf7df764"},"vehicle_type_id":"4","last_reported":1706771226,"current_range_meters":31200,"station_id":"ce4bgup2rcd13ifvqcn0","pricing_plan_id":"free"},{"bike_id":"70285f13-160c-411e-818a-c53a74d55411","system_id":"levelo_inurba_marseille","lat":43.304606,"lon":5.379026,"is_reserved":false,"is_disabled":false,"rental_uris":{"android":"levelo://app?vid=70285f13-160c-411e-818a-c53a74d55411","ios":"levelo://app?vid=70285f13-160c-411e-818a-c53a74d55411"},"vehicle_type_id":"4","last_reported":1706771226,"current_range_meters":6800,"station_id":"ce4bgup2rcd13ifvqcn0","pricing_plan_id":"free"},{"bike_id":"4369f417-58f8-40c8-ae97-0547aab57eb3","system_id":"levelo_inurba_marseille","lat":43.304606,"lon":5.379026,"is_reserved":false,"is_disabled":false,"rental_uris":{"android":"levelo://app?vid=4369f417-58f8-40c8-ae97-0547aab57eb3","ios":"levelo://app?vid=4369f417-58f8-40c8-ae97-0547aab57eb3"},"vehicle_type_id":"4","last_reported":1706771226,"current_range_meters":10800,"station_id":"ce4bgup2rcd13ifvqcn0","pricing_plan_id":"free"},{"bike_id":"9a594ed9-f5a5-4b33-b2a0-051e635e575e","system_id":"levelo_inurba_marseille","lat":43.304606,"lon":5.379026,"is_reserved":false,"is_disabled":false,"rental_uris":{"android":"levelo://app?vid=9a594ed9-f5a5-4b33-b2a0-051e635e575e","ios":"levelo://app?vid=9a594ed9-f5a5-4b33-b2a0-051e635e575e"},"vehicle_type_id":"4","last_reported":1706771226,"current_range_meters":25200,"station_id":"ce4bgup2rcd13ifvqcn0","pricing_plan_id":"free"},{"bike_id":"b38b4b0d-145e-4f58-898d-bf434330e210","system_id":"levelo_inurba_marseille","lat":43.304606,"lon":5.379026,"is_reserved":false,"is_disabled":false,"rental_uris":{"android":"levelo://app?vid=b38b4b0d-145e-4f58-898d-bf434330e210","ios":"levelo://app?vid=b38b4b0d-145e-4f58-898d-bf434330e210"},"vehicle_type_id":"4","last_reported":1706771226,"current_range_meters":24800,"station_id":"ce4bgup2rcd13ifvqcn0","pricing_plan_id":"free"},{"bike_id":"e3998606-4986-43ef-94e9-f0da5379867d","system_id":"levelo_inurba_marseille","lat":43.304606,"lon":5.379026,"is_reserved":false,"is_disabled":false,"rental_uris":{"android":"levelo://app?vid=e3998606-4986-43ef-94e9-f0da5379867d","ios":"levelo://app?vid=e3998606-4986-43ef-94e9-f0da5379867d"},"vehicle_type_id":"4","last_reported":1706771226,"current_range_meters":16400,"station_id":"ce4bgup2rcd13ifvqcn0","pricing_plan_id":"free"},{"bike_id":"e946fbd4-f11b-49cd-bdc4-6ac7961c78fd","system_id":"levelo_inurba_marseille","lat":43.304606,"lon":5.379026,"is_reserved":false,"is_disabled":false,"rental_uris":{"android":"levelo://app?vid=e946fbd4-f11b-49cd-bdc4-6ac7961c78fd","ios":"levelo://app?vid=e946fbd4-f11b-49cd-bdc4-6ac7961c78fd"},"vehicle_type_id":"4","last_reported":1706771226,"current_range_meters":18000,"station_id":"ce4bgup2rcd13ifvqcn0","pricing_plan_id":"free"},{"bike_id":"5f6b9209-182f-430d-acd8-b3eb1ee01cb9","system_id":"levelo_inurba_marseille","lat":43.304606,"lon":5.379026,"is_reserved":false,"is_disabled":false,"rental_uris":{"android":"levelo://app?vid=5f6b9209-182f-430d-acd8-b3eb1ee01cb9","ios":"levelo://app?vid=5f6b9209-182f-430d-acd8-b3eb1ee01cb9"},"vehicle_type_id":"4","last_reported":1706771226,"current_range_meters":26400,"station_id":"ce4bgup2rcd13ifvqcn0","pricing_plan_id":"free"},{"bike_id":"f68f3433-87c9-45ed-b556-6ffde488a8ca","system_id":"levelo_inurba_marseille","lat":43.304606,"lon":5.379026,"is_reserved":false,"is_disabled":false,"rental_uris":{"android":"levelo://app?vid=f68f3433-87c9-45ed-b556-6ffde488a8ca","ios":"levelo://app?vid=f68f3433-87c9-45ed-b556-6ffde488a8ca"},"vehicle_type_id":"4","last_reported":1706771226,"current_range_meters":1200,"station_id":"ce4bgup2rcd13ifvqcn0","pricing_plan_id":"free"},{"bike_id":"e0c7c6d2-9158-4bd6-ae19-7cf774c4e050","system_id":"levelo_inurba_marseille","lat":43.304606,"lon":5.379026,"is_reserved":false,"is_disabled":false,"rental_uris":{"android":"levelo://app?vid=e0c7c6d2-9158-4bd6-ae19-7cf774c4e050","ios":"levelo://app?vid=e0c7c6d2-9158-4bd6-ae19-7cf774c4e050"},"vehicle_type_id":"4","last_reported":1706771226,"current_range_meters":26800,"station_id":"ce4bgup2rcd13ifvqcn0","pricing_plan_id":"free"},{"bike_id":"dd022197-ee4a-4d44-ad80-0f445f7ff9e6","system_id":"levelo_inurba_marseille","lat":43.304606,"lon":5.379026,"is_reserved":false,"is_disabled":false,"rental_uris":{"android":"levelo://app?vid=dd022197-ee4a-4d44-ad80-0f445f7ff9e6","ios":"levelo://app?vid=dd022197-ee4a-4d44-ad80-0f445f7ff9e6"},"vehicle_type_id":"4","last_reported":1706771226,"current_range_meters":28400,"station_id":"ce4bgup2rcd13ifvqcn0","pricing_plan_id":"free"},{"bike_id":"8a100988-0597-4ac7-8d11-b50b776e9f4c","system_id":"levelo_inurba_marseille","lat":43.304606,"lon":5.379026,"is_reserved":false,"is_disabled":false,"rental_uris":{"android":"levelo://app?vid=8a100988-0597-4ac7-8d11-b50b776e9f4c","ios":"levelo://app?vid=8a100988-0597-4ac7-8d11-b50b776e9f4c"},"vehicle_type_id":"4","last_reported":1706771226,"current_range_meters":29600,"station_id":"ce4bgup2rcd13ifvqcn0","pricing_plan_id":"free"},{"bike_id":"f9b3aa5a-40af-4040-a917-268c7acc95ae","system_id":"levelo_inurba_marseille","lat":43.324776,"lon":5.365841,"is_reserved":false,"is_disabled":false,"rental_uris":{"android":"levelo://app?vid=f9b3aa5a-40af-4040-a917-268c7acc95ae","ios":"levelo://app?vid=f9b3aa5a-40af-4040-a917-268c7acc95ae"},"vehicle_type_id":"4","last_reported":1706771226,"current_range_meters":13600,"station_id":"ce4bhs12rcd13ifvqhvg","pricing_plan_id":"free"},{"bike_id":"4c1d912b-8425-4b28-bcd4-0691a1724560","system_id":"levelo_inurba_marseille","lat":43.324778,"lon":5.365778,"is_reserved":false,"is_disabled":false,"rental_uris":{"android":"levelo://app?vid=4c1d912b-8425-4b28-bcd4-0691a1724560","ios":"levelo://app?vid=4c1d912b-8425-4b28-bcd4-0691a1724560"},"vehicle_type_id":"4","last_reported":1706771226,"current_range_meters":15200,"station_id":"ce4bhs12rcd13ifvqhvg","pricing_plan_id":"free"},{"bike_id":"72f64bf3-3a8b-40c9-9789-32db1a120b80","system_id":"levelo_inurba_marseille","lat":43.324843,"lon":5.365581,"is_reserved":false,"is_disabled":false,"rental_uris":{"android":"levelo://app?vid=72f64bf3-3a8b-40c9-9789-32db1a120b80","ios":"levelo://app?vid=72f64bf3-3a8b-40c9-9789-32db1a120b80"},"vehicle_type_id":"4","last_reported":1706771226,"current_range_meters":11600,"station_id":"","pricing_plan_id":"free"},{"bike_id":"d9377095-f0a0-4277-bd6a-586593d4bf5f","system_id":"levelo_inurba_marseille","lat":43.31074,"lon":5.38355,"is_reserved":false,"is_disabled":false,"rental_uris":{"android":"levelo://app?vid=d9377095-f0a0-4277-bd6a-586593d4bf5f","ios":"levelo://app?vid=d9377095-f0a0-4277-bd6a-586593d4bf5f"},"vehicle_type_id":"4","last_reported":1706771226,"current_range_meters":26400,"station_id":"ce4bgv92rcd13ifvqcr0","pricing_plan_id":"free"},{"bike_id":"a62e06ae-c8aa-4940-9dfd-8ac2135cc776","system_id":"levelo_inurba_marseille","lat":43.31073,"lon":5.38358,"is_reserved":false,"is_disabled":false,"rental_uris":{"android":"levelo://app?vid=a62e06ae-c8aa-4940-9dfd-8ac2135cc776","ios":"levelo://app?vid=a62e06ae-c8aa-4940-9dfd-8ac2135cc776"},"vehicle_type_id":"4","last_reported":1706771226,"current_range_meters":20800,"station_id":"ce4bgv92rcd13ifvqcr0","pricing_plan_id":"free"},{"bike_id":"41cde0da-303b-4776-ba34-6791908eb1b7","system_id":"levelo_inurba_marseille","lat":43.301429,"lon":5.37413,"is_reserved":false,"is_disabled":false,"rental_uris":{"android":"levelo://app?vid=41cde0da-303b-4776-ba34-6791908eb1b7","ios":"levelo://app?vid=41cde0da-303b-4776-ba34-6791908eb1b7"},"vehicle_type_id":"4","last_reported":1706771226,"current_range_meters":30800,"station_id":"ce4bgs92rcd13ifvqcc0","pricing_plan_id":"free"},{"bike_id":"371eb19f-eeec-492f-a34c-c61ae28a2fed","system_id":"levelo_inurba_marseille","lat":43.301429,"lon":5.37413,"is_reserved":false,"is_disabled":false,"rental_uris":{"android":"levelo://app?vid=371eb19f-eeec-492f-a34c-c61ae28a2fed","ios":"levelo://app?vid=371eb19f-eeec-492f-a34c-c61ae28a2fed"},"vehicle_type_id":"4","last_reported":1706771226,"current_range_meters":26000,"station_id":"ce4bgs92rcd13ifvqcc0","pricing_plan_id":"free"},{"bike_id":"b6a27ef5-c24a-41bb-8660-01c51af87bb9","system_id":"levelo_inurba_marseille","lat":43.319935,"lon":5.381699,"is_reserved":false,"is_disabled":false,"rental_uris":{"android":"levelo://app?vid=b6a27ef5-c24a-41bb-8660-01c51af87bb9","ios":"levelo://app?vid=b6a27ef5-c24a-41bb-8660-01c51af87bb9"},"vehicle_type_id":"4","last_reported":1706771226,"current_range_meters":6400,"station_id":"ce4bhr12rcd13ifvqhpg","pricing_plan_id":"free"},{"bike_id":"e005966e-5cbb-443e-b89f-1c85ed44534f","system_id":"levelo_inurba_marseille","lat":43.3136,"lon":5.38486,"is_reserved":false,"is_disabled":false,"rental_uris":{"android":"levelo://app?vid=e005966e-5cbb-443e-b89f-1c85ed44534f","ios":"levelo://app?vid=e005966e-5cbb-443e-b89f-1c85ed44534f"},"vehicle_type_id":"4","last_reported":1706771226,"current_range_meters":4000,"station_id":"ce4bgt92rcd13ifvqcf0","pricing_plan_id":"free"},{"bike_id":"cb4b67cb-9f6e-451e-803c-1480a7c88031","system_id":"levelo_inurba_marseille","lat":43.313571,"lon":5.384829,"is_reserved":false,"is_disabled":false,"rental_uris":{"android":"levelo://app?vid=cb4b67cb-9f6e-451e-803c-1480a7c88031","ios":"levelo://app?vid=cb4b67cb-9f6e-451e-803c-1480a7c88031"},"vehicle_type_id":"4","last_reported":1706771226,"current_range_meters":22800,"station_id":"ce4bgt92rcd13ifvqcf0","pricing_plan_id":"free"},{"bike_id":"c8b1764a-5737-44fd-b47b-d68b60e83c9a","system_id":"levelo_inurba_marseille","lat":43.313571,"lon":5.384829,"is_reserved":false,"is_disabled":false,"rental_uris":{"android":"levelo://app?vid=c8b1764a-5737-44fd-b47b-d68b60e83c9a","ios":"levelo://app?vid=c8b1764a-5737-44fd-b47b-d68b60e83c9a"},"vehicle_type_id":"4","last_reported":1706771226,"current_range_meters":23200,"station_id":"ce4bgt92rcd13ifvqcf0","pricing_plan_id":"free"},{"bike_id":"4884250b-5fef-4e5e-800f-c584c23a8811","system_id":"levelo_inurba_marseille","lat":43.313571,"lon":5.384829,"is_reserved":false,"is_disabled":false,"rental_uris":{"android":"levelo://app?vid=4884250b-5fef-4e5e-800f-c584c23a8811","ios":"levelo://app?vid=4884250b-5fef-4e5e-800f-c584c23a8811"},"vehicle_type_id":"4","last_reported":1706771226,"current_range_meters":31600,"station_id":"ce4bgt92rcd13ifvqcf0","pricing_plan_id":"free"},{"bike_id":"023c621c-bb86-45d0-acee-069a7de47e2a","system_id":"levelo_inurba_marseille","lat":43.299209,"lon":5.365547,"is_reserved":false,"is_disabled":false,"rental_uris":{"android":"levelo://app?vid=023c621c-bb86-45d0-acee-069a7de47e2a","ios":"levelo://app?vid=023c621c-bb86-45d0-acee-069a7de47e2a"},"vehicle_type_id":"4","last_reported":1706771226,"current_range_meters":11600,"station_id":"ce4bgm92rcd13ifvqbr0","pricing_plan_id":"free"},{"bike_id":"3969ad6b-ce21-4aa5-9219-a862123a1e42","system_id":"levelo_inurba_marseille","lat":43.305364,"lon":5.384119,"is_reserved":false,"is_disabled":false,"rental_uris":{"android":"levelo://app?vid=3969ad6b-ce21-4aa5-9219-a862123a1e42","ios":"levelo://app?vid=3969ad6b-ce21-4aa5-9219-a862123a1e42"},"vehicle_type_id":"4","last_reported":1706771226,"current_range_meters":27200,"station_id":"ce4bgg92rcd13ifvqb30","pricing_plan_id":"free"},{"bike_id":"bb9df012-72e1-43d8-876c-06fbb98d97f4","system_id":"levelo_inurba_marseille","lat":43.311722,"lon":5.387247,"is_reserved":false,"is_disabled":false,"rental_uris":{"android":"levelo://app?vid=bb9df012-72e1-43d8-876c-06fbb98d97f4","ios":"levelo://app?vid=bb9df012-72e1-43d8-876c-06fbb98d97f4"},"vehicle_type_id":"4","last_reported":1706771226,"current_range_meters":6000,"station_id":"ce4bgv12rcd13ifvqcp0","pricing_plan_id":"free"},{"bike_id":"1ea28af2-bc8f-4ee1-b35d-5954dc643e5b","system_id":"levelo_inurba_marseille","lat":43.311722,"lon":5.387247,"is_reserved":false,"is_disabled":false,"rental_uris":{"android":"levelo://app?vid=1ea28af2-bc8f-4ee1-b35d-5954dc643e5b","ios":"levelo://app?vid=1ea28af2-bc8f-4ee1-b35d-5954dc643e5b"},"vehicle_type_id":"4","last_reported":1706771226,"current_range_meters":31200,"station_id":"ce4bgv12rcd13ifvqcp0","pricing_plan_id":"free"},{"bike_id":"54581f70-3f06-43b4-9c13-967ecd30fa44","system_id":"levelo_inurba_marseille","lat":43.311722,"lon":5.387247,"is_reserved":false,"is_disabled":false,"rental_uris":{"android":"levelo://app?vid=54581f70-3f06-43b4-9c13-967ecd30fa44","ios":"levelo://app?vid=54581f70-3f06-43b4-9c13-967ecd30fa44"},"vehicle_type_id":"4","last_reported":1706771226,"current_range_meters":400,"station_id":"ce4bgv12rcd13ifvqcp0","pricing_plan_id":"free"},{"bike_id":"69618add-e15f-40ef-a797-cf23a4e803a3","system_id":"levelo_inurba_marseille","lat":43.311722,"lon":5.387247,"is_reserved":false,"is_disabled":false,"rental_uris":{"android":"levelo://app?vid=69618add-e15f-40ef-a797-cf23a4e803a3","ios":"levelo://app?vid=69618add-e15f-40ef-a797-cf23a4e803a3"},"vehicle_type_id":"4","last_reported":1706771226,"current_range_meters":3200,"station_id":"ce4bgv12rcd13ifvqcp0","pricing_plan_id":"free"},{"bike_id":"34788841-031f-4bde-9a35-9b3480912d23","system_id":"levelo_inurba_marseille","lat":43.311722,"lon":5.387247,"is_reserved":false,"is_disabled":false,"rental_uris":{"android":"levelo://app?vid=34788841-031f-4bde-9a35-9b3480912d23","ios":"levelo://app?vid=34788841-031f-4bde-9a35-9b3480912d23"},"vehicle_type_id":"4","last_reported":1706771226,"current_range_meters":31600,"station_id":"ce4bgv12rcd13ifvqcp0","pricing_plan_id":"free"},{"bike_id":"2e00c260-07d9-4fa4-842b-c9abc039281b","system_id":"levelo_inurba_marseille","lat":43.311722,"lon":5.387247,"is_reserved":false,"is_disabled":false,"rental_uris":{"android":"levelo://app?vid=2e00c260-07d9-4fa4-842b-c9abc039281b","ios":"levelo://app?vid=2e00c260-07d9-4fa4-842b-c9abc039281b"},"vehicle_type_id":"4","last_reported":1706771226,"current_range_meters":31600,"station_id":"ce4bgv12rcd13ifvqcp0","pricing_plan_id":"free"},{"bike_id":"1b31ada3-6ce5-4862-b69b-599c34da3cae","system_id":"levelo_inurba_marseille","lat":43.311722,"lon":5.387247,"is_reserved":false,"is_disabled":false,"rental_uris":{"android":"levelo://app?vid=1b31ada3-6ce5-4862-b69b-599c34da3cae","ios":"levelo://app?vid=1b31ada3-6ce5-4862-b69b-599c34da3cae"},"vehicle_type_id":"4","last_reported":1706771226,"current_range_meters":30800,"station_id":"ce4bgv12rcd13ifvqcp0","pricing_plan_id":"free"},{"bike_id":"8d0aff63-a11e-4658-82c6-0290738cd607","system_id":"levelo_inurba_marseille","lat":43.299243,"lon":5.37481,"is_reserved":false,"is_disabled":false,"rental_uris":{"android":"levelo://app?vid=8d0aff63-a11e-4658-82c6-0290738cd607","ios":"levelo://app?vid=8d0aff63-a11e-4658-82c6-0290738cd607"},"vehicle_type_id":"4","last_reported":1706771226,"current_range_meters":16000,"station_id":"ce4bgjh2rcd13ifvqbg0","pricing_plan_id":"free"},{"bike_id":"c19d1efd-0023-4840-953b-3713fb0b2aed","system_id":"levelo_inurba_marseille","lat":43.299243,"lon":5.37481,"is_reserved":false,"is_disabled":false,"rental_uris":{"android":"levelo://app?vid=c19d1efd-0023-4840-953b-3713fb0b2aed","ios":"levelo://app?vid=c19d1efd-0023-4840-953b-3713fb0b2aed"},"vehicle_type_id":"4","last_reported":1706771226,"current_range_meters":23200,"station_id":"ce4bgjh2rcd13ifvqbg0","pricing_plan_id":"free"},{"bike_id":"f656cef6-eb6e-450e-a436-b9c7d014f6e3","system_id":"levelo_inurba_marseille","lat":43.30268,"lon":5.381955,"is_reserved":false,"is_disabled":false,"rental_uris":{"android":"levelo://app?vid=f656cef6-eb6e-450e-a436-b9c7d014f6e3","ios":"levelo://app?vid=f656cef6-eb6e-450e-a436-b9c7d014f6e3"},"vehicle_type_id":"4","last_reported":1706771226,"current_range_meters":26000,"station_id":"ce4bgt92rcd13ifvqcg0","pricing_plan_id":"free"},{"bike_id":"9777cc6a-26d9-4aad-9d36-f8815c9abd58","system_id":"levelo_inurba_marseille","lat":43.328371,"lon":5.366909,"is_reserved":false,"is_disabled":false,"rental_uris":{"android":"levelo://app?vid=9777cc6a-26d9-4aad-9d36-f8815c9abd58","ios":"levelo://app?vid=9777cc6a-26d9-4aad-9d36-f8815c9abd58"},"vehicle_type_id":"4","last_reported":1706771226,"current_range_meters":3600,"station_id":"ce4bhs92rcd13ifvqi0g","pricing_plan_id":"free"},{"bike_id":"15a97b08-f5cc-4267-8f99-9a3c39cfc79f","system_id":"levelo_inurba_marseille","lat":43.328268,"lon":5.366749,"is_reserved":false,"is_disabled":false,"rental_uris":{"android":"levelo://app?vid=15a97b08-f5cc-4267-8f99-9a3c39cfc79f","ios":"levelo://app?vid=15a97b08-f5cc-4267-8f99-9a3c39cfc79f"},"vehicle_type_id":"4","last_reported":1706771226,"current_range_meters":0,"station_id":"ce4bhs92rcd13ifvqi0g","pricing_plan_id":"free"},{"bike_id":"4c141593-0ecc-4484-8ab4-084b62f25d76","system_id":"levelo_inurba_marseille","lat":43.328371,"lon":5.366909,"is_reserved":false,"is_disabled":false,"rental_uris":{"android":"levelo://app?vid=4c141593-0ecc-4484-8ab4-084b62f25d76","ios":"levelo://app?vid=4c141593-0ecc-4484-8ab4-084b62f25d76"},"vehicle_type_id":"4","last_reported":1706771226,"current_range_meters":19600,"station_id":"ce4bhs92rcd13ifvqi0g","pricing_plan_id":"free"},{"bike_id":"e39e1e8c-dbfb-42b4-a9cb-91b185aea536","system_id":"levelo_inurba_marseille","lat":43.328371,"lon":5.366909,"is_reserved":false,"is_disabled":false,"rental_uris":{"android":"levelo://app?vid=e39e1e8c-dbfb-42b4-a9cb-91b185aea536","ios":"levelo://app?vid=e39e1e8c-dbfb-42b4-a9cb-91b185aea536"},"vehicle_type_id":"4","last_reported":1706771226,"current_range_meters":26800,"station_id":"ce4bhs92rcd13ifvqi0g","pricing_plan_id":"free"},{"bike_id":"a6931080-4e37-4995-8681-3ef568c32cb7","system_id":"levelo_inurba_marseille","lat":43.297163,"lon":5.365866,"is_reserved":false,"is_disabled":false,"rental_uris":{"android":"levelo://app?vid=a6931080-4e37-4995-8681-3ef568c32cb7","ios":"levelo://app?vid=a6931080-4e37-4995-8681-3ef568c32cb7"},"vehicle_type_id":"4","last_reported":1706771226,"current_range_meters":28400,"station_id":"ce4bgn12rcd13ifvqbt0","pricing_plan_id":"free"},{"bike_id":"359edfee-a8b5-4e14-8bc4-a7fa356532b9","system_id":"levelo_inurba_marseille","lat":43.31751,"lon":5.38907,"is_reserved":false,"is_disabled":false,"rental_uris":{"android":"levelo://app?vid=359edfee-a8b5-4e14-8bc4-a7fa356532b9","ios":"levelo://app?vid=359edfee-a8b5-4e14-8bc4-a7fa356532b9"},"vehicle_type_id":"4","last_reported":1706771226,"current_range_meters":24800,"station_id":"","pricing_plan_id":"free"},{"bike_id":"15d42343-688d-4891-9503-221cd9fc84a0","system_id":"levelo_inurba_marseille","lat":43.300011,"lon":5.382803,"is_reserved":false,"is_disabled":false,"rental_uris":{"android":"levelo://app?vid=15d42343-688d-4891-9503-221cd9fc84a0","ios":"levelo://app?vid=15d42343-688d-4891-9503-221cd9fc84a0"},"vehicle_type_id":"4","last_reported":1706771226,"current_range_meters":4800,"station_id":"","pricing_plan_id":"free"},{"bike_id":"3c1b6c11-09a0-418f-9497-6cce6c39fecc","system_id":"levelo_inurba_marseille","lat":43.299028,"lon":5.381509,"is_reserved":false,"is_disabled":false,"rental_uris":{"android":"levelo://app?vid=3c1b6c11-09a0-418f-9497-6cce6c39fecc","ios":"levelo://app?vid=3c1b6c11-09a0-418f-9497-6cce6c39fecc"},"vehicle_type_id":"4","last_reported":1706771226,"current_range_meters":13200,"station_id":"ce4bgj12rcd13ifvqbc0","pricing_plan_id":"free"},{"bike_id":"384103f9-2729-444d-ab50-6f91f931c0e0","system_id":"levelo_inurba_marseille","lat":43.30945,"lon":5.3902,"is_reserved":false,"is_disabled":false,"rental_uris":{"android":"levelo://app?vid=384103f9-2729-444d-ab50-6f91f931c0e0","ios":"levelo://app?vid=384103f9-2729-444d-ab50-6f91f931c0e0"},"vehicle_type_id":"4","last_reported":1706771226,"current_range_meters":3200,"station_id":"ce4bgup2rcd13ifvqco0","pricing_plan_id":"free"},{"bike_id":"5258abba-cf29-4d37-9c54-2d2c04783e2a","system_id":"levelo_inurba_marseille","lat":43.30946,"lon":5.39037,"is_reserved":false,"is_disabled":false,"rental_uris":{"android":"levelo://app?vid=5258abba-cf29-4d37-9c54-2d2c04783e2a","ios":"levelo://app?vid=5258abba-cf29-4d37-9c54-2d2c04783e2a"},"vehicle_type_id":"4","last_reported":1706771226,"current_range_meters":21200,"station_id":"ce4bgup2rcd13ifvqco0","pricing_plan_id":"free"},{"bike_id":"e8689a64-6cc1-482f-bfa5-74a84913c82a","system_id":"levelo_inurba_marseille","lat":43.299803,"lon":5.383883,"is_reserved":false,"is_disabled":false,"rental_uris":{"android":"levelo://app?vid=e8689a64-6cc1-482f-bfa5-74a84913c82a","ios":"levelo://app?vid=e8689a64-6cc1-482f-bfa5-74a84913c82a"},"vehicle_type_id":"4","last_reported":1706771226,"current_range_meters":8800,"station_id":"","pricing_plan_id":"free"},{"bike_id":"9e7bd9a3-6eca-4e82-887c-563adff81b05","system_id":"levelo_inurba_marseille","lat":43.298037,"lon":5.381066,"is_reserved":false,"is_disabled":false,"rental_uris":{"android":"levelo://app?vid=9e7bd9a3-6eca-4e82-887c-563adff81b05","ios":"levelo://app?vid=9e7bd9a3-6eca-4e82-887c-563adff81b05"},"vehicle_type_id":"4","last_reported":1706771226,"current_range_meters":31200,"station_id":"ce4bgip2rcd13ifvqbb0","pricing_plan_id":"free"},{"bike_id":"d68cf46d-1506-4fa0-b69d-dc80da1ff5af","system_id":"levelo_inurba_marseille","lat":43.29797,"lon":5.38094,"is_reserved":false,"is_disabled":false,"rental_uris":{"android":"levelo://app?vid=d68cf46d-1506-4fa0-b69d-dc80da1ff5af","ios":"levelo://app?vid=d68cf46d-1506-4fa0-b69d-dc80da1ff5af"},"vehicle_type_id":"4","last_reported":1706771226,"current_range_meters":21600,"station_id":"ce4bgip2rcd13ifvqbb0","pricing_plan_id":"free"},{"bike_id":"eb7d6981-b327-4e13-93de-157932a9ce8f","system_id":"levelo_inurba_marseille","lat":43.298037,"lon":5.381066,"is_reserved":false,"is_disabled":false,"rental_uris":{"android":"levelo://app?vid=eb7d6981-b327-4e13-93de-157932a9ce8f","ios":"levelo://app?vid=eb7d6981-b327-4e13-93de-157932a9ce8f"},"vehicle_type_id":"4","last_reported":1706771226,"current_range_meters":9600,"station_id":"ce4bgip2rcd13ifvqbb0","pricing_plan_id":"free"},{"bike_id":"b0864d7d-3dd4-45a6-b434-18f08d2a5daa","system_id":"levelo_inurba_marseille","lat":43.298037,"lon":5.381066,"is_reserved":false,"is_disabled":false,"rental_uris":{"android":"levelo://app?vid=b0864d7d-3dd4-45a6-b434-18f08d2a5daa","ios":"levelo://app?vid=b0864d7d-3dd4-45a6-b434-18f08d2a5daa"},"vehicle_type_id":"4","last_reported":1706771226,"current_range_meters":18000,"station_id":"ce4bgip2rcd13ifvqbb0","pricing_plan_id":"free"},{"bike_id":"48062a1e-276c-4641-98f1-7f444b2955aa","system_id":"levelo_inurba_marseille","lat":43.304274,"lon":5.388873,"is_reserved":false,"is_disabled":false,"rental_uris":{"android":"levelo://app?vid=48062a1e-276c-4641-98f1-7f444b2955aa","ios":"levelo://app?vid=48062a1e-276c-4641-98f1-7f444b2955aa"},"vehicle_type_id":"4","last_reported":1706771226,"current_range_meters":22000,"station_id":"ce4bgk12rcd13ifvqbi0","pricing_plan_id":"free"},{"bike_id":"75a89ef1-9360-41fc-8312-d6203aec33c6","system_id":"levelo_inurba_marseille","lat":43.304274,"lon":5.388873,"is_reserved":false,"is_disabled":false,"rental_uris":{"android":"levelo://app?vid=75a89ef1-9360-41fc-8312-d6203aec33c6","ios":"levelo://app?vid=75a89ef1-9360-41fc-8312-d6203aec33c6"},"vehicle_type_id":"4","last_reported":1706771226,"current_range_meters":21600,"station_id":"ce4bgk12rcd13ifvqbi0","pricing_plan_id":"free"},{"bike_id":"7150029c-8642-4033-ab20-222158ba12ef","system_id":"levelo_inurba_marseille","lat":43.298037,"lon":5.381066,"is_reserved":false,"is_disabled":false,"rental_uris":{"android":"levelo://app?vid=7150029c-8642-4033-ab20-222158ba12ef","ios":"levelo://app?vid=7150029c-8642-4033-ab20-222158ba12ef"},"vehicle_type_id":"4","last_reported":1706771226,"current_range_meters":29600,"station_id":"ce4bgip2rcd13ifvqbb0","pricing_plan_id":"free"},{"bike_id":"51bc529a-6d43-4736-a728-aec9aa35c619","system_id":"levelo_inurba_marseille","lat":43.298037,"lon":5.381066,"is_reserved":false,"is_disabled":false,"rental_uris":{"android":"levelo://app?vid=51bc529a-6d43-4736-a728-aec9aa35c619","ios":"levelo://app?vid=51bc529a-6d43-4736-a728-aec9aa35c619"},"vehicle_type_id":"4","last_reported":1706771226,"current_range_meters":3200,"station_id":"ce4bgip2rcd13ifvqbb0","pricing_plan_id":"free"},{"bike_id":"18551a2d-822b-43d9-a0ca-5257d14fac40","system_id":"levelo_inurba_marseille","lat":43.296263,"lon":5.377094,"is_reserved":false,"is_disabled":false,"rental_uris":{"android":"levelo://app?vid=18551a2d-822b-43d9-a0ca-5257d14fac40","ios":"levelo://app?vid=18551a2d-822b-43d9-a0ca-5257d14fac40"},"vehicle_type_id":"4","last_reported":1706771226,"current_range_meters":26000,"station_id":"ce4bgi92rcd13ifvqb90","pricing_plan_id":"free"},{"bike_id":"a2f529b1-38db-45d5-9ce3-9e2a28134ac1","system_id":"levelo_inurba_marseille","lat":43.29622,"lon":5.37749,"is_reserved":false,"is_disabled":false,"rental_uris":{"android":"levelo://app?vid=a2f529b1-38db-45d5-9ce3-9e2a28134ac1","ios":"levelo://app?vid=a2f529b1-38db-45d5-9ce3-9e2a28134ac1"},"vehicle_type_id":"4","last_reported":1706771226,"current_range_meters":28800,"station_id":"ce4bgi92rcd13ifvqb90","pricing_plan_id":"free"},{"bike_id":"6e3c44f4-b462-4069-be73-0920fdec69c9","system_id":"levelo_inurba_marseille","lat":43.295279,"lon":5.375048,"is_reserved":false,"is_disabled":false,"rental_uris":{"android":"levelo://app?vid=6e3c44f4-b462-4069-be73-0920fdec69c9","ios":"levelo://app?vid=6e3c44f4-b462-4069-be73-0920fdec69c9"},"vehicle_type_id":"4","last_reported":1706771226,"current_range_meters":18800,"station_id":"ce4bgkp2rcd13ifvqbmg","pricing_plan_id":"free"},{"bike_id":"9241a7e5-4f1f-4c8c-bad8-129b106f0945","system_id":"levelo_inurba_marseille","lat":43.299717,"lon":5.384845,"is_reserved":false,"is_disabled":false,"rental_uris":{"android":"levelo://app?vid=9241a7e5-4f1f-4c8c-bad8-129b106f0945","ios":"levelo://app?vid=9241a7e5-4f1f-4c8c-bad8-129b106f0945"},"vehicle_type_id":"4","last_reported":1706771226,"current_range_meters":0,"station_id":"ce4bgj92rcd13ifvqbd0","pricing_plan_id":"free"},{"bike_id":"de25d637-84ec-4203-b892-3e1c2d7c4ddb","system_id":"levelo_inurba_marseille","lat":43.33174,"lon":5.36442,"is_reserved":false,"is_disabled":false,"rental_uris":{"android":"levelo://app?vid=de25d637-84ec-4203-b892-3e1c2d7c4ddb","ios":"levelo://app?vid=de25d637-84ec-4203-b892-3e1c2d7c4ddb"},"vehicle_type_id":"4","last_reported":1706771226,"current_range_meters":3600,"station_id":"","pricing_plan_id":"free"},{"bike_id":"202df9dd-3b20-4310-9dde-7a88eca4db2d","system_id":"levelo_inurba_marseille","lat":43.32358,"lon":5.38879,"is_reserved":false,"is_disabled":false,"rental_uris":{"android":"levelo://app?vid=202df9dd-3b20-4310-9dde-7a88eca4db2d","ios":"levelo://app?vid=202df9dd-3b20-4310-9dde-7a88eca4db2d"},"vehicle_type_id":"4","last_reported":1706771226,"current_range_meters":6000,"station_id":"ce4bhqp2rcd13ifvqhog","pricing_plan_id":"free"},{"bike_id":"efa6bd51-c94f-4107-9e97-437d3697b8cb","system_id":"levelo_inurba_marseille","lat":43.32367,"lon":5.388836,"is_reserved":false,"is_disabled":false,"rental_uris":{"android":"levelo://app?vid=efa6bd51-c94f-4107-9e97-437d3697b8cb","ios":"levelo://app?vid=efa6bd51-c94f-4107-9e97-437d3697b8cb"},"vehicle_type_id":"4","last_reported":1706771226,"current_range_meters":7200,"station_id":"ce4bhqp2rcd13ifvqhog","pricing_plan_id":"free"},{"bike_id":"5118de90-c727-4c12-bf98-99f5b63d7830","system_id":"levelo_inurba_marseille","lat":43.32367,"lon":5.388836,"is_reserved":false,"is_disabled":false,"rental_uris":{"android":"levelo://app?vid=5118de90-c727-4c12-bf98-99f5b63d7830","ios":"levelo://app?vid=5118de90-c727-4c12-bf98-99f5b63d7830"},"vehicle_type_id":"4","last_reported":1706771226,"current_range_meters":7200,"station_id":"ce4bhqp2rcd13ifvqhog","pricing_plan_id":"free"},{"bike_id":"548d05bd-1584-44d5-8f6d-81eabfd84344","system_id":"levelo_inurba_marseille","lat":43.29602,"lon":5.381084,"is_reserved":false,"is_disabled":false,"rental_uris":{"android":"levelo://app?vid=548d05bd-1584-44d5-8f6d-81eabfd84344","ios":"levelo://app?vid=548d05bd-1584-44d5-8f6d-81eabfd84344"},"vehicle_type_id":"4","last_reported":1706771226,"current_range_meters":25600,"station_id":"ce4bgl12rcd13ifvqbo0","pricing_plan_id":"free"},{"bike_id":"457c038a-76ba-4206-9659-9e04f3a57ff2","system_id":"levelo_inurba_marseille","lat":43.29602,"lon":5.381084,"is_reserved":false,"is_disabled":false,"rental_uris":{"android":"levelo://app?vid=457c038a-76ba-4206-9659-9e04f3a57ff2","ios":"levelo://app?vid=457c038a-76ba-4206-9659-9e04f3a57ff2"},"vehicle_type_id":"4","last_reported":1706771226,"current_range_meters":26800,"station_id":"ce4bgl12rcd13ifvqbo0","pricing_plan_id":"free"},{"bike_id":"fd61ef3e-240e-45a4-ae10-f5879f8eb7b6","system_id":"levelo_inurba_marseille","lat":43.29602,"lon":5.381084,"is_reserved":false,"is_disabled":false,"rental_uris":{"android":"levelo://app?vid=fd61ef3e-240e-45a4-ae10-f5879f8eb7b6","ios":"levelo://app?vid=fd61ef3e-240e-45a4-ae10-f5879f8eb7b6"},"vehicle_type_id":"4","last_reported":1706771226,"current_range_meters":19600,"station_id":"ce4bgl12rcd13ifvqbo0","pricing_plan_id":"free"},{"bike_id":"90746915-5f49-4786-9203-14d53eca3dfe","system_id":"levelo_inurba_marseille","lat":43.29602,"lon":5.381084,"is_reserved":false,"is_disabled":false,"rental_uris":{"android":"levelo://app?vid=90746915-5f49-4786-9203-14d53eca3dfe","ios":"levelo://app?vid=90746915-5f49-4786-9203-14d53eca3dfe"},"vehicle_type_id":"4","last_reported":1706771226,"current_range_meters":22000,"station_id":"ce4bgl12rcd13ifvqbo0","pricing_plan_id":"free"},{"bike_id":"a71ff2d7-8eca-4f34-99d0-24c0c503a133","system_id":"levelo_inurba_marseille","lat":43.29602,"lon":5.381084,"is_reserved":false,"is_disabled":false,"rental_uris":{"android":"levelo://app?vid=a71ff2d7-8eca-4f34-99d0-24c0c503a133","ios":"levelo://app?vid=a71ff2d7-8eca-4f34-99d0-24c0c503a133"},"vehicle_type_id":"4","last_reported":1706771226,"current_range_meters":16800,"station_id":"ce4bgl12rcd13ifvqbo0","pricing_plan_id":"free"},{"bike_id":"e42a6894-2878-4881-802b-41500ee21ae0","system_id":"levelo_inurba_marseille","lat":43.29601,"lon":5.381084,"is_reserved":false,"is_disabled":false,"rental_uris":{"android":"levelo://app?vid=e42a6894-2878-4881-802b-41500ee21ae0","ios":"levelo://app?vid=e42a6894-2878-4881-802b-41500ee21ae0"},"vehicle_type_id":"4","last_reported":1706771226,"current_range_meters":30000,"station_id":"ce4bgl12rcd13ifvqbo0","pricing_plan_id":"free"},{"bike_id":"0d36c06d-7b8b-4089-ab50-ceeb8466d22d","system_id":"levelo_inurba_marseille","lat":43.29602,"lon":5.381084,"is_reserved":false,"is_disabled":false,"rental_uris":{"android":"levelo://app?vid=0d36c06d-7b8b-4089-ab50-ceeb8466d22d","ios":"levelo://app?vid=0d36c06d-7b8b-4089-ab50-ceeb8466d22d"},"vehicle_type_id":"4","last_reported":1706771226,"current_range_meters":31200,"station_id":"ce4bgl12rcd13ifvqbo0","pricing_plan_id":"free"},{"bike_id":"5c8a8fb9-e5ea-41d6-a97e-48148e4680a3","system_id":"levelo_inurba_marseille","lat":43.29602,"lon":5.381084,"is_reserved":false,"is_disabled":false,"rental_uris":{"android":"levelo://app?vid=5c8a8fb9-e5ea-41d6-a97e-48148e4680a3","ios":"levelo://app?vid=5c8a8fb9-e5ea-41d6-a97e-48148e4680a3"},"vehicle_type_id":"4","last_reported":1706771226,"current_range_meters":20400,"station_id":"ce4bgl12rcd13ifvqbo0","pricing_plan_id":"free"},{"bike_id":"e284e574-5726-4982-a80f-8c585d7a8d30","system_id":"levelo_inurba_marseille","lat":43.29305,"lon":5.371664,"is_reserved":false,"is_disabled":false,"rental_uris":{"android":"levelo://app?vid=e284e574-5726-4982-a80f-8c585d7a8d30","ios":"levelo://app?vid=e284e574-5726-4982-a80f-8c585d7a8d30"},"vehicle_type_id":"4","last_reported":1706771226,"current_range_meters":0,"station_id":"","pricing_plan_id":"free"},{"bike_id":"67b05647-92f6-433a-b45f-604b4448cfa0","system_id":"levelo_inurba_marseille","lat":43.292749,"lon":5.368402,"is_reserved":false,"is_disabled":false,"rental_uris":{"android":"levelo://app?vid=67b05647-92f6-433a-b45f-604b4448cfa0","ios":"levelo://app?vid=67b05647-92f6-433a-b45f-604b4448cfa0"},"vehicle_type_id":"4","last_reported":1706771226,"current_range_meters":8400,"station_id":"ce4bhbp2rcd13ifvqesg","pricing_plan_id":"free"},{"bike_id":"8161d889-b1aa-44f6-b76e-35bc19603c2b","system_id":"levelo_inurba_marseille","lat":43.292749,"lon":5.368402,"is_reserved":false,"is_disabled":false,"rental_uris":{"android":"levelo://app?vid=8161d889-b1aa-44f6-b76e-35bc19603c2b","ios":"levelo://app?vid=8161d889-b1aa-44f6-b76e-35bc19603c2b"},"vehicle_type_id":"4","last_reported":1706771226,"current_range_meters":25600,"station_id":"ce4bhbp2rcd13ifvqesg","pricing_plan_id":"free"},{"bike_id":"66a304be-ed90-4e2e-a8d0-2fc3dad63205","system_id":"levelo_inurba_marseille","lat":43.293009,"lon":5.374584,"is_reserved":false,"is_disabled":false,"rental_uris":{"android":"levelo://app?vid=66a304be-ed90-4e2e-a8d0-2fc3dad63205","ios":"levelo://app?vid=66a304be-ed90-4e2e-a8d0-2fc3dad63205"},"vehicle_type_id":"4","last_reported":1706771226,"current_range_meters":25200,"station_id":"ce4bgi12rcd13ifvqb70","pricing_plan_id":"free"},{"bike_id":"d70b4b49-c6a0-4509-ba92-f00f47a17a72","system_id":"levelo_inurba_marseille","lat":43.305994,"lon":5.393687,"is_reserved":false,"is_disabled":false,"rental_uris":{"android":"levelo://app?vid=d70b4b49-c6a0-4509-ba92-f00f47a17a72","ios":"levelo://app?vid=d70b4b49-c6a0-4509-ba92-f00f47a17a72"},"vehicle_type_id":"4","last_reported":1706771226,"current_range_meters":10800,"station_id":"ce4bh0p2rcd13ifvqd80","pricing_plan_id":"free"},{"bike_id":"72d972fc-60c1-4ce0-9552-f841e0674cdb","system_id":"levelo_inurba_marseille","lat":43.305994,"lon":5.393687,"is_reserved":false,"is_disabled":false,"rental_uris":{"android":"levelo://app?vid=72d972fc-60c1-4ce0-9552-f841e0674cdb","ios":"levelo://app?vid=72d972fc-60c1-4ce0-9552-f841e0674cdb"},"vehicle_type_id":"4","last_reported":1706771226,"current_range_meters":31200,"station_id":"ce4bh0p2rcd13ifvqd80","pricing_plan_id":"free"},{"bike_id":"f9ca6b5c-1970-498f-96fe-7fda65154ef6","system_id":"levelo_inurba_marseille","lat":43.305994,"lon":5.393687,"is_reserved":false,"is_disabled":false,"rental_uris":{"android":"levelo://app?vid=f9ca6b5c-1970-498f-96fe-7fda65154ef6","ios":"levelo://app?vid=f9ca6b5c-1970-498f-96fe-7fda65154ef6"},"vehicle_type_id":"4","last_reported":1706771226,"current_range_meters":5200,"station_id":"ce4bh0p2rcd13ifvqd80","pricing_plan_id":"free"},{"bike_id":"c876b2d9-4e3b-419d-bb40-7c040581d313","system_id":"levelo_inurba_marseille","lat":43.305994,"lon":5.393687,"is_reserved":false,"is_disabled":false,"rental_uris":{"android":"levelo://app?vid=c876b2d9-4e3b-419d-bb40-7c040581d313","ios":"levelo://app?vid=c876b2d9-4e3b-419d-bb40-7c040581d313"},"vehicle_type_id":"4","last_reported":1706771226,"current_range_meters":21200,"station_id":"ce4bh0p2rcd13ifvqd80","pricing_plan_id":"free"},{"bike_id":"97a800ea-4b81-4f76-9a70-fc9de154ad91","system_id":"levelo_inurba_marseille","lat":43.305994,"lon":5.393687,"is_reserved":false,"is_disabled":false,"rental_uris":{"android":"levelo://app?vid=97a800ea-4b81-4f76-9a70-fc9de154ad91","ios":"levelo://app?vid=97a800ea-4b81-4f76-9a70-fc9de154ad91"},"vehicle_type_id":"4","last_reported":1706771226,"current_range_meters":23200,"station_id":"ce4bh0p2rcd13ifvqd80","pricing_plan_id":"free"},{"bike_id":"3f524482-ca78-4177-bc19-e49cd6188511","system_id":"levelo_inurba_marseille","lat":43.302992,"lon":5.392136,"is_reserved":false,"is_disabled":false,"rental_uris":{"android":"levelo://app?vid=3f524482-ca78-4177-bc19-e49cd6188511","ios":"levelo://app?vid=3f524482-ca78-4177-bc19-e49cd6188511"},"vehicle_type_id":"4","last_reported":1706771226,"current_range_meters":5600,"station_id":"ce4bgkh2rcd13ifvqbk0","pricing_plan_id":"free"},{"bike_id":"5c5ed6c3-f111-4467-b13c-81028c0923aa","system_id":"levelo_inurba_marseille","lat":43.303002,"lon":5.392142,"is_reserved":false,"is_disabled":false,"rental_uris":{"android":"levelo://app?vid=5c5ed6c3-f111-4467-b13c-81028c0923aa","ios":"levelo://app?vid=5c5ed6c3-f111-4467-b13c-81028c0923aa"},"vehicle_type_id":"4","last_reported":1706771226,"current_range_meters":9600,"station_id":"ce4bgkh2rcd13ifvqbk0","pricing_plan_id":"free"},{"bike_id":"f3681449-dd7f-4bde-9e57-364fde162717","system_id":"levelo_inurba_marseille","lat":43.2936,"lon":5.37835,"is_reserved":false,"is_disabled":false,"rental_uris":{"android":"levelo://app?vid=f3681449-dd7f-4bde-9e57-364fde162717","ios":"levelo://app?vid=f3681449-dd7f-4bde-9e57-364fde162717"},"vehicle_type_id":"4","last_reported":1706771226,"current_range_meters":14800,"station_id":"ce4bgjh2rcd13ifvqbf0","pricing_plan_id":"free"},{"bike_id":"27f83f73-746a-4950-be2d-474b6e52514d","system_id":"levelo_inurba_marseille","lat":43.292311,"lon":5.360731,"is_reserved":false,"is_disabled":false,"rental_uris":{"android":"levelo://app?vid=27f83f73-746a-4950-be2d-474b6e52514d","ios":"levelo://app?vid=27f83f73-746a-4950-be2d-474b6e52514d"},"vehicle_type_id":"4","last_reported":1706771226,"current_range_meters":25600,"station_id":"ce4bhbh2rcd13ifvqeqg","pricing_plan_id":"free"},{"bike_id":"96f85bdf-9098-4423-a005-07d5d76269ab","system_id":"levelo_inurba_marseille","lat":43.292311,"lon":5.360731,"is_reserved":false,"is_disabled":false,"rental_uris":{"android":"levelo://app?vid=96f85bdf-9098-4423-a005-07d5d76269ab","ios":"levelo://app?vid=96f85bdf-9098-4423-a005-07d5d76269ab"},"vehicle_type_id":"4","last_reported":1706771226,"current_range_meters":29600,"station_id":"ce4bhbh2rcd13ifvqeqg","pricing_plan_id":"free"},{"bike_id":"74cc0a0d-6393-4960-b0ca-23bf0d481a12","system_id":"levelo_inurba_marseille","lat":43.292311,"lon":5.360731,"is_reserved":false,"is_disabled":false,"rental_uris":{"android":"levelo://app?vid=74cc0a0d-6393-4960-b0ca-23bf0d481a12","ios":"levelo://app?vid=74cc0a0d-6393-4960-b0ca-23bf0d481a12"},"vehicle_type_id":"4","last_reported":1706771226,"current_range_meters":25600,"station_id":"ce4bhbh2rcd13ifvqeqg","pricing_plan_id":"free"},{"bike_id":"83841c6f-e557-4170-b3f4-f34707ae6835","system_id":"levelo_inurba_marseille","lat":43.292311,"lon":5.360731,"is_reserved":false,"is_disabled":false,"rental_uris":{"android":"levelo://app?vid=83841c6f-e557-4170-b3f4-f34707ae6835","ios":"levelo://app?vid=83841c6f-e557-4170-b3f4-f34707ae6835"},"vehicle_type_id":"4","last_reported":1706771226,"current_range_meters":26000,"station_id":"ce4bhbh2rcd13ifvqeqg","pricing_plan_id":"free"},{"bike_id":"e0b6edf3-f900-4ca1-800f-4fd94551cde1","system_id":"levelo_inurba_marseille","lat":43.298764,"lon":5.388973,"is_reserved":false,"is_disabled":false,"rental_uris":{"android":"levelo://app?vid=e0b6edf3-f900-4ca1-800f-4fd94551cde1","ios":"levelo://app?vid=e0b6edf3-f900-4ca1-800f-4fd94551cde1"},"vehicle_type_id":"4","last_reported":1706771226,"current_range_meters":30400,"station_id":"ce4bh392rcd13ifvqdl0","pricing_plan_id":"free"},{"bike_id":"ca3d87c3-82bd-4978-b15a-03c5420dc1b0","system_id":"levelo_inurba_marseille","lat":43.30884,"lon":5.396315,"is_reserved":false,"is_disabled":false,"rental_uris":{"android":"levelo://app?vid=ca3d87c3-82bd-4978-b15a-03c5420dc1b0","ios":"levelo://app?vid=ca3d87c3-82bd-4978-b15a-03c5420dc1b0"},"vehicle_type_id":"4","last_reported":1706771226,"current_range_meters":27200,"station_id":"ce4bh012rcd13ifvqcv0","pricing_plan_id":"free"},{"bike_id":"0658b839-2464-491d-ae2d-81d59935b490","system_id":"levelo_inurba_marseille","lat":43.308884,"lon":5.396349,"is_reserved":false,"is_disabled":false,"rental_uris":{"android":"levelo://app?vid=0658b839-2464-491d-ae2d-81d59935b490","ios":"levelo://app?vid=0658b839-2464-491d-ae2d-81d59935b490"},"vehicle_type_id":"4","last_reported":1706771226,"current_range_meters":0,"station_id":"ce4bh012rcd13ifvqcv0","pricing_plan_id":"free"},{"bike_id":"4544aa02-15cb-442f-bf95-dda24b00f359","system_id":"levelo_inurba_marseille","lat":43.30884,"lon":5.39637,"is_reserved":false,"is_disabled":false,"rental_uris":{"android":"levelo://app?vid=4544aa02-15cb-442f-bf95-dda24b00f359","ios":"levelo://app?vid=4544aa02-15cb-442f-bf95-dda24b00f359"},"vehicle_type_id":"4","last_reported":1706771226,"current_range_meters":21600,"station_id":"ce4bh012rcd13ifvqcv0","pricing_plan_id":"free"},{"bike_id":"cd4e9f08-8bad-491a-84ec-e2a431078c70","system_id":"levelo_inurba_marseille","lat":43.30883,"lon":5.396413,"is_reserved":false,"is_disabled":false,"rental_uris":{"android":"levelo://app?vid=cd4e9f08-8bad-491a-84ec-e2a431078c70","ios":"levelo://app?vid=cd4e9f08-8bad-491a-84ec-e2a431078c70"},"vehicle_type_id":"4","last_reported":1706771226,"current_range_meters":6800,"station_id":"ce4bh012rcd13ifvqcv0","pricing_plan_id":"free"},{"bike_id":"9769e390-d5d9-4d9f-a0c9-68210a44462c","system_id":"levelo_inurba_marseille","lat":43.291994,"lon":5.357886,"is_reserved":false,"is_disabled":false,"rental_uris":{"android":"levelo://app?vid=9769e390-d5d9-4d9f-a0c9-68210a44462c","ios":"levelo://app?vid=9769e390-d5d9-4d9f-a0c9-68210a44462c"},"vehicle_type_id":"4","last_reported":1706771226,"current_range_meters":28800,"station_id":"ce4bhb12rcd13ifvqel0","pricing_plan_id":"free"},{"bike_id":"ea719c2b-5bc5-49c2-9cf0-33c445c6a873","system_id":"levelo_inurba_marseille","lat":43.291994,"lon":5.357886,"is_reserved":false,"is_disabled":false,"rental_uris":{"android":"levelo://app?vid=ea719c2b-5bc5-49c2-9cf0-33c445c6a873","ios":"levelo://app?vid=ea719c2b-5bc5-49c2-9cf0-33c445c6a873"},"vehicle_type_id":"4","last_reported":1706771226,"current_range_meters":6800,"station_id":"ce4bhb12rcd13ifvqel0","pricing_plan_id":"free"},{"bike_id":"4319f2a1-1e14-4c2c-b927-fda3dde88f49","system_id":"levelo_inurba_marseille","lat":43.291886,"lon":5.357954,"is_reserved":false,"is_disabled":false,"rental_uris":{"android":"levelo://app?vid=4319f2a1-1e14-4c2c-b927-fda3dde88f49","ios":"levelo://app?vid=4319f2a1-1e14-4c2c-b927-fda3dde88f49"},"vehicle_type_id":"4","last_reported":1706771226,"current_range_meters":29200,"station_id":"ce4bhb12rcd13ifvqel0","pricing_plan_id":"free"},{"bike_id":"81112ae0-d430-49d3-8e57-c0a75da28a40","system_id":"levelo_inurba_marseille","lat":43.29529,"lon":5.385581,"is_reserved":false,"is_disabled":false,"rental_uris":{"android":"levelo://app?vid=81112ae0-d430-49d3-8e57-c0a75da28a40","ios":"levelo://app?vid=81112ae0-d430-49d3-8e57-c0a75da28a40"},"vehicle_type_id":"4","last_reported":1706771226,"current_range_meters":8400,"station_id":"ce4bgih2rcd13ifvqba0","pricing_plan_id":"free"},{"bike_id":"f72bcf21-f0e3-4352-ad42-3eec0e03d002","system_id":"levelo_inurba_marseille","lat":43.290345,"lon":5.38646,"is_reserved":false,"is_disabled":false,"rental_uris":{"android":"levelo://app?vid=f72bcf21-f0e3-4352-ad42-3eec0e03d002","ios":"levelo://app?vid=f72bcf21-f0e3-4352-ad42-3eec0e03d002"},"vehicle_type_id":"4","last_reported":1706771226,"current_range_meters":7200,"station_id":"ce4bh4p2rcd13ifvqe0g","pricing_plan_id":"free"},{"bike_id":"4f61c17b-a835-410a-91b1-91ac468d9520","system_id":"levelo_inurba_marseille","lat":43.302008,"lon":5.394694,"is_reserved":false,"is_disabled":false,"rental_uris":{"android":"levelo://app?vid=4f61c17b-a835-410a-91b1-91ac468d9520","ios":"levelo://app?vid=4f61c17b-a835-410a-91b1-91ac468d9520"},"vehicle_type_id":"4","last_reported":1706771226,"current_range_meters":12800,"station_id":"ce4bh0p2rcd13ifvqd70","pricing_plan_id":"free"},{"bike_id":"2c1e47ad-3478-424c-8c66-23a600b1f0dc","system_id":"levelo_inurba_marseille","lat":43.290441,"lon":5.359123,"is_reserved":false,"is_disabled":false,"rental_uris":{"android":"levelo://app?vid=2c1e47ad-3478-424c-8c66-23a600b1f0dc","ios":"levelo://app?vid=2c1e47ad-3478-424c-8c66-23a600b1f0dc"},"vehicle_type_id":"4","last_reported":1706771226,"current_range_meters":11200,"station_id":"","pricing_plan_id":"free"},{"bike_id":"80849c67-bc9d-443d-a80a-08c5cc9153d4","system_id":"levelo_inurba_marseille","lat":43.290327,"lon":5.375711,"is_reserved":false,"is_disabled":false,"rental_uris":{"android":"levelo://app?vid=80849c67-bc9d-443d-a80a-08c5cc9153d4","ios":"levelo://app?vid=80849c67-bc9d-443d-a80a-08c5cc9153d4"},"vehicle_type_id":"4","last_reported":1706771226,"current_range_meters":17200,"station_id":"ce4bh692rcd13ifvqe90","pricing_plan_id":"free"},{"bike_id":"cb5c3dcb-7cb2-4d96-ba9d-8be471be222e","system_id":"levelo_inurba_marseille","lat":43.290327,"lon":5.375711,"is_reserved":false,"is_disabled":false,"rental_uris":{"android":"levelo://app?vid=cb5c3dcb-7cb2-4d96-ba9d-8be471be222e","ios":"levelo://app?vid=cb5c3dcb-7cb2-4d96-ba9d-8be471be222e"},"vehicle_type_id":"4","last_reported":1706771226,"current_range_meters":23200,"station_id":"ce4bh692rcd13ifvqe90","pricing_plan_id":"free"},{"bike_id":"9eaefdc5-0aa9-4ad7-98be-e1bace31ef9f","system_id":"levelo_inurba_marseille","lat":43.289426,"lon":5.363936,"is_reserved":false,"is_disabled":false,"rental_uris":{"android":"levelo://app?vid=9eaefdc5-0aa9-4ad7-98be-e1bace31ef9f","ios":"levelo://app?vid=9eaefdc5-0aa9-4ad7-98be-e1bace31ef9f"},"vehicle_type_id":"4","last_reported":1706771226,"current_range_meters":28400,"station_id":"ce4bhc92rcd13ifvqetg","pricing_plan_id":"free"},{"bike_id":"87825e94-681a-49b1-abee-b56557baa4dd","system_id":"levelo_inurba_marseille","lat":43.289184,"lon":5.366408,"is_reserved":false,"is_disabled":false,"rental_uris":{"android":"levelo://app?vid=87825e94-681a-49b1-abee-b56557baa4dd","ios":"levelo://app?vid=87825e94-681a-49b1-abee-b56557baa4dd"},"vehicle_type_id":"4","last_reported":1706771226,"current_range_meters":400,"station_id":"ce4bhap2rcd13ifvqek0","pricing_plan_id":"free"},{"bike_id":"b08446d7-2439-4f96-8ace-944b29af1f0b","system_id":"levelo_inurba_marseille","lat":43.289404,"lon":5.363957,"is_reserved":false,"is_disabled":false,"rental_uris":{"android":"levelo://app?vid=b08446d7-2439-4f96-8ace-944b29af1f0b","ios":"levelo://app?vid=b08446d7-2439-4f96-8ace-944b29af1f0b"},"vehicle_type_id":"4","last_reported":1706771226,"current_range_meters":0,"station_id":"ce4bhc92rcd13ifvqetg","pricing_plan_id":"free"},{"bike_id":"179d234d-486f-44e0-a07b-043ea52ef02b","system_id":"levelo_inurba_marseille","lat":43.2894,"lon":5.36394,"is_reserved":false,"is_disabled":false,"rental_uris":{"android":"levelo://app?vid=179d234d-486f-44e0-a07b-043ea52ef02b","ios":"levelo://app?vid=179d234d-486f-44e0-a07b-043ea52ef02b"},"vehicle_type_id":"4","last_reported":1706771226,"current_range_meters":1200,"station_id":"ce4bhc92rcd13ifvqetg","pricing_plan_id":"free"},{"bike_id":"267c4fb6-cce5-4224-9f79-ddf50aacbc65","system_id":"levelo_inurba_marseille","lat":43.289468,"lon":5.363719,"is_reserved":false,"is_disabled":false,"rental_uris":{"android":"levelo://app?vid=267c4fb6-cce5-4224-9f79-ddf50aacbc65","ios":"levelo://app?vid=267c4fb6-cce5-4224-9f79-ddf50aacbc65"},"vehicle_type_id":"4","last_reported":1706771226,"current_range_meters":30000,"station_id":"ce4bhc92rcd13ifvqetg","pricing_plan_id":"free"},{"bike_id":"0f6e418f-9d9b-4ad2-87dc-5ac1dc2361f4","system_id":"levelo_inurba_marseille","lat":43.292644,"lon":5.384257,"is_reserved":false,"is_disabled":false,"rental_uris":{"android":"levelo://app?vid=0f6e418f-9d9b-4ad2-87dc-5ac1dc2361f4","ios":"levelo://app?vid=0f6e418f-9d9b-4ad2-87dc-5ac1dc2361f4"},"vehicle_type_id":"4","last_reported":1706771226,"current_range_meters":29200,"station_id":"ce4bh692rcd13ifvqea0","pricing_plan_id":"free"},{"bike_id":"948345e0-f74b-49cb-89dc-56d131da36c9","system_id":"levelo_inurba_marseille","lat":43.30433,"lon":5.39747,"is_reserved":false,"is_disabled":false,"rental_uris":{"android":"levelo://app?vid=948345e0-f74b-49cb-89dc-56d131da36c9","ios":"levelo://app?vid=948345e0-f74b-49cb-89dc-56d131da36c9"},"vehicle_type_id":"4","last_reported":1706771226,"current_range_meters":19200,"station_id":"ce4bh092rcd13ifvqd20","pricing_plan_id":"free"},{"bike_id":"360ed431-30c4-4489-ab01-0bcd5ff14b17","system_id":"levelo_inurba_marseille","lat":43.304267,"lon":5.397505,"is_reserved":false,"is_disabled":false,"rental_uris":{"android":"levelo://app?vid=360ed431-30c4-4489-ab01-0bcd5ff14b17","ios":"levelo://app?vid=360ed431-30c4-4489-ab01-0bcd5ff14b17"},"vehicle_type_id":"4","last_reported":1706771226,"current_range_meters":29600,"station_id":"ce4bh092rcd13ifvqd20","pricing_plan_id":"free"},{"bike_id":"edf1d5aa-4559-4b08-8f74-b1a08f321e4b","system_id":"levelo_inurba_marseille","lat":43.304232,"lon":5.397522,"is_reserved":false,"is_disabled":false,"rental_uris":{"android":"levelo://app?vid=edf1d5aa-4559-4b08-8f74-b1a08f321e4b","ios":"levelo://app?vid=edf1d5aa-4559-4b08-8f74-b1a08f321e4b"},"vehicle_type_id":"4","last_reported":1706771226,"current_range_meters":6400,"station_id":"ce4bh092rcd13ifvqd20","pricing_plan_id":"free"},{"bike_id":"d6b98879-1ab0-4ce8-af6b-614733082008","system_id":"levelo_inurba_marseille","lat":43.290103,"lon":5.356114,"is_reserved":false,"is_disabled":false,"rental_uris":{"android":"levelo://app?vid=d6b98879-1ab0-4ce8-af6b-614733082008","ios":"levelo://app?vid=d6b98879-1ab0-4ce8-af6b-614733082008"},"vehicle_type_id":"4","last_reported":1706771226,"current_range_meters":28400,"station_id":"ce4bhb92rcd13ifvqen0","pricing_plan_id":"free"},{"bike_id":"cd758980-13e2-4df4-b6fd-f3394b56da3e","system_id":"levelo_inurba_marseille","lat":43.28915,"lon":5.37282,"is_reserved":false,"is_disabled":false,"rental_uris":{"android":"levelo://app?vid=cd758980-13e2-4df4-b6fd-f3394b56da3e","ios":"levelo://app?vid=cd758980-13e2-4df4-b6fd-f3394b56da3e"},"vehicle_type_id":"4","last_reported":1706771226,"current_range_meters":18000,"station_id":"","pricing_plan_id":"free"},{"bike_id":"873e6a69-c6e0-4007-998e-fcc2017ff5f1","system_id":"levelo_inurba_marseille","lat":43.29006,"lon":5.35614,"is_reserved":false,"is_disabled":false,"rental_uris":{"android":"levelo://app?vid=873e6a69-c6e0-4007-998e-fcc2017ff5f1","ios":"levelo://app?vid=873e6a69-c6e0-4007-998e-fcc2017ff5f1"},"vehicle_type_id":"4","last_reported":1706771226,"current_range_meters":28800,"station_id":"ce4bhb92rcd13ifvqen0","pricing_plan_id":"free"},{"bike_id":"9d198ca4-09a5-4de1-904f-24178609dabf","system_id":"levelo_inurba_marseille","lat":43.290995,"lon":5.381361,"is_reserved":false,"is_disabled":false,"rental_uris":{"android":"levelo://app?vid=9d198ca4-09a5-4de1-904f-24178609dabf","ios":"levelo://app?vid=9d198ca4-09a5-4de1-904f-24178609dabf"},"vehicle_type_id":"4","last_reported":1706771226,"current_range_meters":26800,"station_id":"ce4bh512rcd13ifvqe2g","pricing_plan_id":"free"},{"bike_id":"33f5375a-eabe-4cef-b2d5-f792adc13c77","system_id":"levelo_inurba_marseille","lat":43.290995,"lon":5.381361,"is_reserved":false,"is_disabled":false,"rental_uris":{"android":"levelo://app?vid=33f5375a-eabe-4cef-b2d5-f792adc13c77","ios":"levelo://app?vid=33f5375a-eabe-4cef-b2d5-f792adc13c77"},"vehicle_type_id":"4","last_reported":1706771226,"current_range_meters":18000,"station_id":"ce4bh512rcd13ifvqe2g","pricing_plan_id":"free"},{"bike_id":"2f0af02b-765e-4e24-995b-d4ba9b17ceaf","system_id":"levelo_inurba_marseille","lat":43.3302,"lon":5.3904,"is_reserved":false,"is_disabled":false,"rental_uris":{"android":"levelo://app?vid=2f0af02b-765e-4e24-995b-d4ba9b17ceaf","ios":"levelo://app?vid=2f0af02b-765e-4e24-995b-d4ba9b17ceaf"},"vehicle_type_id":"4","last_reported":1706771226,"current_range_meters":0,"station_id":"ce4bhr92rcd13ifvqhrg","pricing_plan_id":"free"},{"bike_id":"1b26e9c4-7fc6-49aa-9499-cf686af3f3aa","system_id":"levelo_inurba_marseille","lat":43.330442,"lon":5.389148,"is_reserved":false,"is_disabled":false,"rental_uris":{"android":"levelo://app?vid=1b26e9c4-7fc6-49aa-9499-cf686af3f3aa","ios":"levelo://app?vid=1b26e9c4-7fc6-49aa-9499-cf686af3f3aa"},"vehicle_type_id":"4","last_reported":1706771226,"current_range_meters":16000,"station_id":"ce4bhr92rcd13ifvqhrg","pricing_plan_id":"free"},{"bike_id":"982581f3-fc22-4e55-a1f1-e90001c1c6f0","system_id":"levelo_inurba_marseille","lat":43.290034,"lon":5.379444,"is_reserved":false,"is_disabled":false,"rental_uris":{"android":"levelo://app?vid=982581f3-fc22-4e55-a1f1-e90001c1c6f0","ios":"levelo://app?vid=982581f3-fc22-4e55-a1f1-e90001c1c6f0"},"vehicle_type_id":"4","last_reported":1706771226,"current_range_meters":9600,"station_id":"","pricing_plan_id":"free"},{"bike_id":"9677f1b6-bfe1-4dd5-b656-15370d316e98","system_id":"levelo_inurba_marseille","lat":43.290392,"lon":5.381131,"is_reserved":false,"is_disabled":false,"rental_uris":{"android":"levelo://app?vid=9677f1b6-bfe1-4dd5-b656-15370d316e98","ios":"levelo://app?vid=9677f1b6-bfe1-4dd5-b656-15370d316e98"},"vehicle_type_id":"4","last_reported":1706771226,"current_range_meters":26400,"station_id":"","pricing_plan_id":"free"},{"bike_id":"3aca7ce3-81a1-4b3f-986f-3a1549c1f430","system_id":"levelo_inurba_marseille","lat":43.2901,"lon":5.381269,"is_reserved":false,"is_disabled":false,"rental_uris":{"android":"levelo://app?vid=3aca7ce3-81a1-4b3f-986f-3a1549c1f430","ios":"levelo://app?vid=3aca7ce3-81a1-4b3f-986f-3a1549c1f430"},"vehicle_type_id":"4","last_reported":1706771226,"current_range_meters":9200,"station_id":"ce4bh4p2rcd13ifvqe1g","pricing_plan_id":"free"},{"bike_id":"1ee58527-a128-4568-9cfb-de18cec2a6b8","system_id":"levelo_inurba_marseille","lat":43.2901,"lon":5.381269,"is_reserved":false,"is_disabled":false,"rental_uris":{"android":"levelo://app?vid=1ee58527-a128-4568-9cfb-de18cec2a6b8","ios":"levelo://app?vid=1ee58527-a128-4568-9cfb-de18cec2a6b8"},"vehicle_type_id":"4","last_reported":1706771226,"current_range_meters":12800,"station_id":"ce4bh4p2rcd13ifvqe1g","pricing_plan_id":"free"},{"bike_id":"f7bcc24b-317a-4f37-a99b-5e688e57824a","system_id":"levelo_inurba_marseille","lat":43.288494,"lon":5.358395,"is_reserved":false,"is_disabled":false,"rental_uris":{"android":"levelo://app?vid=f7bcc24b-317a-4f37-a99b-5e688e57824a","ios":"levelo://app?vid=f7bcc24b-317a-4f37-a99b-5e688e57824a"},"vehicle_type_id":"4","last_reported":1706771226,"current_range_meters":27600,"station_id":"ce4bhb12rcd13ifvqem0","pricing_plan_id":"free"},{"bike_id":"69fc39f7-326e-4127-8377-bfb3e3304975","system_id":"levelo_inurba_marseille","lat":43.33723,"lon":5.37438,"is_reserved":false,"is_disabled":false,"rental_uris":{"android":"levelo://app?vid=69fc39f7-326e-4127-8377-bfb3e3304975","ios":"levelo://app?vid=69fc39f7-326e-4127-8377-bfb3e3304975"},"vehicle_type_id":"4","last_reported":1706771226,"current_range_meters":26400,"station_id":"","pricing_plan_id":"free"},{"bike_id":"084269e4-e406-4984-82aa-3b4fd394bb9a","system_id":"levelo_inurba_marseille","lat":43.33745,"lon":5.37446,"is_reserved":false,"is_disabled":false,"rental_uris":{"android":"levelo://app?vid=084269e4-e406-4984-82aa-3b4fd394bb9a","ios":"levelo://app?vid=084269e4-e406-4984-82aa-3b4fd394bb9a"},"vehicle_type_id":"4","last_reported":1706771226,"current_range_meters":20000,"station_id":"","pricing_plan_id":"free"},{"bike_id":"286f917e-0a5a-4a5d-a8b9-fc4f7abedf84","system_id":"levelo_inurba_marseille","lat":43.33746,"lon":5.37459,"is_reserved":false,"is_disabled":false,"rental_uris":{"android":"levelo://app?vid=286f917e-0a5a-4a5d-a8b9-fc4f7abedf84","ios":"levelo://app?vid=286f917e-0a5a-4a5d-a8b9-fc4f7abedf84"},"vehicle_type_id":"4","last_reported":1706771226,"current_range_meters":18400,"station_id":"","pricing_plan_id":"free"},{"bike_id":"f79fff51-2fc1-47db-bb77-f6ecb6841c15","system_id":"levelo_inurba_marseille","lat":43.306446,"lon":5.400721,"is_reserved":false,"is_disabled":false,"rental_uris":{"android":"levelo://app?vid=f79fff51-2fc1-47db-bb77-f6ecb6841c15","ios":"levelo://app?vid=f79fff51-2fc1-47db-bb77-f6ecb6841c15"},"vehicle_type_id":"4","last_reported":1706771226,"current_range_meters":26800,"station_id":"ce4bh112rcd13ifvqda0","pricing_plan_id":"free"},{"bike_id":"9816c790-e56e-49e3-95e6-d95f99c4fc72","system_id":"levelo_inurba_marseille","lat":43.30643,"lon":5.40075,"is_reserved":false,"is_disabled":false,"rental_uris":{"android":"levelo://app?vid=9816c790-e56e-49e3-95e6-d95f99c4fc72","ios":"levelo://app?vid=9816c790-e56e-49e3-95e6-d95f99c4fc72"},"vehicle_type_id":"4","last_reported":1706771226,"current_range_meters":24400,"station_id":"ce4bh112rcd13ifvqda0","pricing_plan_id":"free"},{"bike_id":"b7d3b81d-d85a-44b5-a0c7-8f9c9f74639e","system_id":"levelo_inurba_marseille","lat":43.337587,"lon":5.374576,"is_reserved":false,"is_disabled":false,"rental_uris":{"android":"levelo://app?vid=b7d3b81d-d85a-44b5-a0c7-8f9c9f74639e","ios":"levelo://app?vid=b7d3b81d-d85a-44b5-a0c7-8f9c9f74639e"},"vehicle_type_id":"4","last_reported":1706771226,"current_range_meters":12800,"station_id":"","pricing_plan_id":"free"},{"bike_id":"3a0dbb8a-c75c-4ad9-b7fd-4d10459765f5","system_id":"levelo_inurba_marseille","lat":43.306412,"lon":5.401035,"is_reserved":false,"is_disabled":false,"rental_uris":{"android":"levelo://app?vid=3a0dbb8a-c75c-4ad9-b7fd-4d10459765f5","ios":"levelo://app?vid=3a0dbb8a-c75c-4ad9-b7fd-4d10459765f5"},"vehicle_type_id":"4","last_reported":1706771226,"current_range_meters":29200,"station_id":"ce4bh112rcd13ifvqda0","pricing_plan_id":"free"},{"bike_id":"12568932-a9a7-4d52-8b2c-668683b75358","system_id":"levelo_inurba_marseille","lat":43.33754,"lon":5.375013,"is_reserved":false,"is_disabled":false,"rental_uris":{"android":"levelo://app?vid=12568932-a9a7-4d52-8b2c-668683b75358","ios":"levelo://app?vid=12568932-a9a7-4d52-8b2c-668683b75358"},"vehicle_type_id":"4","last_reported":1706771226,"current_range_meters":14400,"station_id":"","pricing_plan_id":"free"},{"bike_id":"1facbbf3-baac-42f8-85eb-cb1e36f3e4b9","system_id":"levelo_inurba_marseille","lat":43.337623,"lon":5.374883,"is_reserved":false,"is_disabled":false,"rental_uris":{"android":"levelo://app?vid=1facbbf3-baac-42f8-85eb-cb1e36f3e4b9","ios":"levelo://app?vid=1facbbf3-baac-42f8-85eb-cb1e36f3e4b9"},"vehicle_type_id":"4","last_reported":1706771226,"current_range_meters":1200,"station_id":"","pricing_plan_id":"free"},{"bike_id":"0a9c8c4f-b8ab-4fd4-b079-61a852011143","system_id":"levelo_inurba_marseille","lat":43.33015,"lon":5.39294,"is_reserved":false,"is_disabled":false,"rental_uris":{"android":"levelo://app?vid=0a9c8c4f-b8ab-4fd4-b079-61a852011143","ios":"levelo://app?vid=0a9c8c4f-b8ab-4fd4-b079-61a852011143"},"vehicle_type_id":"4","last_reported":1706771226,"current_range_meters":23600,"station_id":"","pricing_plan_id":"free"},{"bike_id":"649ca6ed-b3f6-422b-a8a7-9ccdd0c16145","system_id":"levelo_inurba_marseille","lat":43.28727,"lon":5.36078,"is_reserved":false,"is_disabled":false,"rental_uris":{"android":"levelo://app?vid=649ca6ed-b3f6-422b-a8a7-9ccdd0c16145","ios":"levelo://app?vid=649ca6ed-b3f6-422b-a8a7-9ccdd0c16145"},"vehicle_type_id":"4","last_reported":1706771226,"current_range_meters":11200,"station_id":"cki0cbj6b192h4jlfktg","pricing_plan_id":"free"},{"bike_id":"3275148a-6e8a-454b-906f-781cf5153544","system_id":"levelo_inurba_marseille","lat":43.28727,"lon":5.36078,"is_reserved":false,"is_disabled":false,"rental_uris":{"android":"levelo://app?vid=3275148a-6e8a-454b-906f-781cf5153544","ios":"levelo://app?vid=3275148a-6e8a-454b-906f-781cf5153544"},"vehicle_type_id":"4","last_reported":1706771226,"current_range_meters":2000,"station_id":"cki0cbj6b192h4jlfktg","pricing_plan_id":"free"},{"bike_id":"465ca944-bb12-4f3b-b4be-8bcde9a2f431","system_id":"levelo_inurba_marseille","lat":43.292953,"lon":5.389905,"is_reserved":false,"is_disabled":false,"rental_uris":{"android":"levelo://app?vid=465ca944-bb12-4f3b-b4be-8bcde9a2f431","ios":"levelo://app?vid=465ca944-bb12-4f3b-b4be-8bcde9a2f431"},"vehicle_type_id":"4","last_reported":1706771226,"current_range_meters":16000,"station_id":"","pricing_plan_id":"free"},{"bike_id":"af6b856c-582c-43d7-812f-c27d9b47bb5d","system_id":"levelo_inurba_marseille","lat":43.286591,"lon":5.363346,"is_reserved":false,"is_disabled":false,"rental_uris":{"android":"levelo://app?vid=af6b856c-582c-43d7-812f-c27d9b47bb5d","ios":"levelo://app?vid=af6b856c-582c-43d7-812f-c27d9b47bb5d"},"vehicle_type_id":"4","last_reported":1706771226,"current_range_meters":1200,"station_id":"ce4bhah2rcd13ifvqej0","pricing_plan_id":"free"},{"bike_id":"d80331c6-edab-482d-ad4c-5120646b7a40","system_id":"levelo_inurba_marseille","lat":43.287185,"lon":5.379373,"is_reserved":false,"is_disabled":false,"rental_uris":{"android":"levelo://app?vid=d80331c6-edab-482d-ad4c-5120646b7a40","ios":"levelo://app?vid=d80331c6-edab-482d-ad4c-5120646b7a40"},"vehicle_type_id":"4","last_reported":1706771226,"current_range_meters":22800,"station_id":"ce4bh9p2rcd13ifvqec0","pricing_plan_id":"free"},{"bike_id":"14d0ef62-1764-41e7-af4c-4664d45255ba","system_id":"levelo_inurba_marseille","lat":43.295748,"lon":5.37522,"is_reserved":false,"is_disabled":false,"rental_uris":{"android":"levelo://app?vid=14d0ef62-1764-41e7-af4c-4664d45255ba","ios":"levelo://app?vid=14d0ef62-1764-41e7-af4c-4664d45255ba"},"vehicle_type_id":"4","last_reported":1706771226,"current_range_meters":18800,"station_id":"ce4bgh92rcd13ifvqb50","pricing_plan_id":"free"},{"bike_id":"e4926e38-19bc-4a55-a993-00a2a02ebeba","system_id":"levelo_inurba_marseille","lat":43.286591,"lon":5.363346,"is_reserved":false,"is_disabled":false,"rental_uris":{"android":"levelo://app?vid=e4926e38-19bc-4a55-a993-00a2a02ebeba","ios":"levelo://app?vid=e4926e38-19bc-4a55-a993-00a2a02ebeba"},"vehicle_type_id":"4","last_reported":1706771226,"current_range_meters":31600,"station_id":"ce4bhah2rcd13ifvqej0","pricing_plan_id":"free"},{"bike_id":"5c4d1973-110e-4792-88c8-5356adf32bff","system_id":"levelo_inurba_marseille","lat":43.286961,"lon":5.373785,"is_reserved":false,"is_disabled":false,"rental_uris":{"android":"levelo://app?vid=5c4d1973-110e-4792-88c8-5356adf32bff","ios":"levelo://app?vid=5c4d1973-110e-4792-88c8-5356adf32bff"},"vehicle_type_id":"4","last_reported":1706771226,"current_range_meters":20000,"station_id":"ce4bh3p2rcd13ifvqdq0","pricing_plan_id":"free"},{"bike_id":"6a9d3d4f-fc4a-4443-8caf-efcf9530ac74","system_id":"levelo_inurba_marseille","lat":43.286961,"lon":5.373785,"is_reserved":false,"is_disabled":false,"rental_uris":{"android":"levelo://app?vid=6a9d3d4f-fc4a-4443-8caf-efcf9530ac74","ios":"levelo://app?vid=6a9d3d4f-fc4a-4443-8caf-efcf9530ac74"},"vehicle_type_id":"4","last_reported":1706771226,"current_range_meters":23600,"station_id":"ce4bh3p2rcd13ifvqdq0","pricing_plan_id":"free"},{"bike_id":"22cf41a7-4386-4a50-8453-0b03967055d6","system_id":"levelo_inurba_marseille","lat":43.286547,"lon":5.363564,"is_reserved":false,"is_disabled":false,"rental_uris":{"android":"levelo://app?vid=22cf41a7-4386-4a50-8453-0b03967055d6","ios":"levelo://app?vid=22cf41a7-4386-4a50-8453-0b03967055d6"},"vehicle_type_id":"4","last_reported":1706771226,"current_range_meters":19600,"station_id":"ce4bhah2rcd13ifvqej0","pricing_plan_id":"free"},{"bike_id":"ce9e77d2-ffa4-400e-a193-59528db8e58a","system_id":"levelo_inurba_marseille","lat":43.286548,"lon":5.363528,"is_reserved":false,"is_disabled":false,"rental_uris":{"android":"levelo://app?vid=ce9e77d2-ffa4-400e-a193-59528db8e58a","ios":"levelo://app?vid=ce9e77d2-ffa4-400e-a193-59528db8e58a"},"vehicle_type_id":"4","last_reported":1706771226,"current_range_meters":2800,"station_id":"ce4bhah2rcd13ifvqej0","pricing_plan_id":"free"},{"bike_id":"ca084928-c4fa-4518-9738-958362b0535c","system_id":"levelo_inurba_marseille","lat":43.290345,"lon":5.38646,"is_reserved":false,"is_disabled":false,"rental_uris":{"android":"levelo://app?vid=ca084928-c4fa-4518-9738-958362b0535c","ios":"levelo://app?vid=ca084928-c4fa-4518-9738-958362b0535c"},"vehicle_type_id":"4","last_reported":1706771226,"current_range_meters":18800,"station_id":"ce4bh4p2rcd13ifvqe0g","pricing_plan_id":"free"},{"bike_id":"6b43ba09-3826-4217-bb1a-82ac20f1b827","system_id":"levelo_inurba_marseille","lat":43.302759,"lon":5.400793,"is_reserved":false,"is_disabled":false,"rental_uris":{"android":"levelo://app?vid=6b43ba09-3826-4217-bb1a-82ac20f1b827","ios":"levelo://app?vid=6b43ba09-3826-4217-bb1a-82ac20f1b827"},"vehicle_type_id":"4","last_reported":1706771226,"current_range_meters":12400,"station_id":"ce4bgvh2rcd13ifvqcs0","pricing_plan_id":"free"},{"bike_id":"a53ea290-4e12-4e9d-91f1-6643cf48d776","system_id":"levelo_inurba_marseille","lat":43.290336,"lon":5.386425,"is_reserved":false,"is_disabled":false,"rental_uris":{"android":"levelo://app?vid=a53ea290-4e12-4e9d-91f1-6643cf48d776","ios":"levelo://app?vid=a53ea290-4e12-4e9d-91f1-6643cf48d776"},"vehicle_type_id":"4","last_reported":1706771226,"current_range_meters":25200,"station_id":"ce4bh4p2rcd13ifvqe0g","pricing_plan_id":"free"},{"bike_id":"1d103124-cc61-42a3-b2f4-790d77c11fea","system_id":"levelo_inurba_marseille","lat":43.286039,"lon":5.370679,"is_reserved":false,"is_disabled":false,"rental_uris":{"android":"levelo://app?vid=1d103124-cc61-42a3-b2f4-790d77c11fea","ios":"levelo://app?vid=1d103124-cc61-42a3-b2f4-790d77c11fea"},"vehicle_type_id":"4","last_reported":1706771226,"current_range_meters":24000,"station_id":"ce4bht12rcd13ifvqi60","pricing_plan_id":"free"},{"bike_id":"3285b43b-c943-4df9-ac6d-5c94fdb9c40c","system_id":"levelo_inurba_marseille","lat":43.286039,"lon":5.370679,"is_reserved":false,"is_disabled":false,"rental_uris":{"android":"levelo://app?vid=3285b43b-c943-4df9-ac6d-5c94fdb9c40c","ios":"levelo://app?vid=3285b43b-c943-4df9-ac6d-5c94fdb9c40c"},"vehicle_type_id":"4","last_reported":1706771226,"current_range_meters":31200,"station_id":"ce4bht12rcd13ifvqi60","pricing_plan_id":"free"},{"bike_id":"f39e81d7-f19e-48a9-abe7-5ebc8393cf66","system_id":"levelo_inurba_marseille","lat":43.286039,"lon":5.370679,"is_reserved":false,"is_disabled":false,"rental_uris":{"android":"levelo://app?vid=f39e81d7-f19e-48a9-abe7-5ebc8393cf66","ios":"levelo://app?vid=f39e81d7-f19e-48a9-abe7-5ebc8393cf66"},"vehicle_type_id":"4","last_reported":1706771226,"current_range_meters":10000,"station_id":"ce4bht12rcd13ifvqi60","pricing_plan_id":"free"},{"bike_id":"a5273acd-bb00-4223-a980-bdf46a4640dc","system_id":"levelo_inurba_marseille","lat":43.287185,"lon":5.379373,"is_reserved":false,"is_disabled":false,"rental_uris":{"android":"levelo://app?vid=a5273acd-bb00-4223-a980-bdf46a4640dc","ios":"levelo://app?vid=a5273acd-bb00-4223-a980-bdf46a4640dc"},"vehicle_type_id":"4","last_reported":1706771226,"current_range_meters":23600,"station_id":"ce4bh9p2rcd13ifvqec0","pricing_plan_id":"free"},{"bike_id":"c8a2223a-636b-435f-b1d8-c49c66e15fe1","system_id":"levelo_inurba_marseille","lat":43.287184,"lon":5.37937,"is_reserved":false,"is_disabled":false,"rental_uris":{"android":"levelo://app?vid=c8a2223a-636b-435f-b1d8-c49c66e15fe1","ios":"levelo://app?vid=c8a2223a-636b-435f-b1d8-c49c66e15fe1"},"vehicle_type_id":"4","last_reported":1706771226,"current_range_meters":16000,"station_id":"ce4bh9p2rcd13ifvqec0","pricing_plan_id":"free"},{"bike_id":"d1fda17e-5265-4377-b4ee-357533542d6f","system_id":"levelo_inurba_marseille","lat":43.316828,"lon":5.404723,"is_reserved":false,"is_disabled":false,"rental_uris":{"android":"levelo://app?vid=d1fda17e-5265-4377-b4ee-357533542d6f","ios":"levelo://app?vid=d1fda17e-5265-4377-b4ee-357533542d6f"},"vehicle_type_id":"4","last_reported":1706771226,"current_range_meters":17600,"station_id":"ce4bh012rcd13ifvqd00","pricing_plan_id":"free"},{"bike_id":"a2d035de-727d-462c-988c-85d61457d466","system_id":"levelo_inurba_marseille","lat":43.316828,"lon":5.404723,"is_reserved":false,"is_disabled":false,"rental_uris":{"android":"levelo://app?vid=a2d035de-727d-462c-988c-85d61457d466","ios":"levelo://app?vid=a2d035de-727d-462c-988c-85d61457d466"},"vehicle_type_id":"4","last_reported":1706771226,"current_range_meters":2400,"station_id":"ce4bh012rcd13ifvqd00","pricing_plan_id":"free"},{"bike_id":"4ca33cb1-cad8-4e05-9849-8eb93dee01ec","system_id":"levelo_inurba_marseille","lat":43.316828,"lon":5.404723,"is_reserved":false,"is_disabled":false,"rental_uris":{"android":"levelo://app?vid=4ca33cb1-cad8-4e05-9849-8eb93dee01ec","ios":"levelo://app?vid=4ca33cb1-cad8-4e05-9849-8eb93dee01ec"},"vehicle_type_id":"4","last_reported":1706771226,"current_range_meters":4800,"station_id":"ce4bh012rcd13ifvqd00","pricing_plan_id":"free"},{"bike_id":"1e5ff340-6f66-4958-a377-0a1cf5d7b7af","system_id":"levelo_inurba_marseille","lat":43.316828,"lon":5.404723,"is_reserved":false,"is_disabled":false,"rental_uris":{"android":"levelo://app?vid=1e5ff340-6f66-4958-a377-0a1cf5d7b7af","ios":"levelo://app?vid=1e5ff340-6f66-4958-a377-0a1cf5d7b7af"},"vehicle_type_id":"4","last_reported":1706771226,"current_range_meters":29200,"station_id":"ce4bh012rcd13ifvqd00","pricing_plan_id":"free"},{"bike_id":"7c242abc-032b-4334-9174-3075cbcb7058","system_id":"levelo_inurba_marseille","lat":43.291994,"lon":5.392907,"is_reserved":false,"is_disabled":false,"rental_uris":{"android":"levelo://app?vid=7c242abc-032b-4334-9174-3075cbcb7058","ios":"levelo://app?vid=7c242abc-032b-4334-9174-3075cbcb7058"},"vehicle_type_id":"4","last_reported":1706771226,"current_range_meters":7200,"station_id":"ce4bh192rcd13ifvqdd0","pricing_plan_id":"free"},{"bike_id":"5b084601-1cf9-452f-83c7-15dcf2253b0e","system_id":"levelo_inurba_marseille","lat":43.28465,"lon":5.35887,"is_reserved":false,"is_disabled":false,"rental_uris":{"android":"levelo://app?vid=5b084601-1cf9-452f-83c7-15dcf2253b0e","ios":"levelo://app?vid=5b084601-1cf9-452f-83c7-15dcf2253b0e"},"vehicle_type_id":"4","last_reported":1706771226,"current_range_meters":11600,"station_id":"ce4bhah2rcd13ifvqei0","pricing_plan_id":"free"},{"bike_id":"33159645-f8c7-43cc-b512-095bc2bf0f57","system_id":"levelo_inurba_marseille","lat":43.284629,"lon":5.358919,"is_reserved":false,"is_disabled":false,"rental_uris":{"android":"levelo://app?vid=33159645-f8c7-43cc-b512-095bc2bf0f57","ios":"levelo://app?vid=33159645-f8c7-43cc-b512-095bc2bf0f57"},"vehicle_type_id":"4","last_reported":1706771226,"current_range_meters":26400,"station_id":"ce4bhah2rcd13ifvqei0","pricing_plan_id":"free"},{"bike_id":"620160d6-fda2-4466-9778-913ab5080656","system_id":"levelo_inurba_marseille","lat":43.284617,"lon":5.358893,"is_reserved":false,"is_disabled":false,"rental_uris":{"android":"levelo://app?vid=620160d6-fda2-4466-9778-913ab5080656","ios":"levelo://app?vid=620160d6-fda2-4466-9778-913ab5080656"},"vehicle_type_id":"4","last_reported":1706771226,"current_range_meters":7200,"station_id":"ce4bhah2rcd13ifvqei0","pricing_plan_id":"free"},{"bike_id":"ef3b4bdc-7c65-4276-a1a8-a16f1cdd35b3","system_id":"levelo_inurba_marseille","lat":43.284616,"lon":5.358901,"is_reserved":false,"is_disabled":false,"rental_uris":{"android":"levelo://app?vid=ef3b4bdc-7c65-4276-a1a8-a16f1cdd35b3","ios":"levelo://app?vid=ef3b4bdc-7c65-4276-a1a8-a16f1cdd35b3"},"vehicle_type_id":"4","last_reported":1706771226,"current_range_meters":28000,"station_id":"ce4bhah2rcd13ifvqei0","pricing_plan_id":"free"},{"bike_id":"129b68ef-2ca6-420c-999d-072e62dba39d","system_id":"levelo_inurba_marseille","lat":43.284587,"lon":5.358923,"is_reserved":false,"is_disabled":false,"rental_uris":{"android":"levelo://app?vid=129b68ef-2ca6-420c-999d-072e62dba39d","ios":"levelo://app?vid=129b68ef-2ca6-420c-999d-072e62dba39d"},"vehicle_type_id":"4","last_reported":1706771226,"current_range_meters":28400,"station_id":"ce4bhah2rcd13ifvqei0","pricing_plan_id":"free"},{"bike_id":"38246f31-f129-41a7-9055-a4d5c840db1f","system_id":"levelo_inurba_marseille","lat":43.28458,"lon":5.35887,"is_reserved":false,"is_disabled":false,"rental_uris":{"android":"levelo://app?vid=38246f31-f129-41a7-9055-a4d5c840db1f","ios":"levelo://app?vid=38246f31-f129-41a7-9055-a4d5c840db1f"},"vehicle_type_id":"4","last_reported":1706771226,"current_range_meters":30400,"station_id":"ce4bhah2rcd13ifvqei0","pricing_plan_id":"free"},{"bike_id":"7dcd5280-73f3-48ea-b5c9-ddcbccb78250","system_id":"levelo_inurba_marseille","lat":43.28457,"lon":5.35888,"is_reserved":false,"is_disabled":false,"rental_uris":{"android":"levelo://app?vid=7dcd5280-73f3-48ea-b5c9-ddcbccb78250","ios":"levelo://app?vid=7dcd5280-73f3-48ea-b5c9-ddcbccb78250"},"vehicle_type_id":"4","last_reported":1706771226,"current_range_meters":0,"station_id":"ce4bhah2rcd13ifvqei0","pricing_plan_id":"free"},{"bike_id":"95614dc5-799b-4dbb-998c-97643c3ccb6c","system_id":"levelo_inurba_marseille","lat":43.28455,"lon":5.359,"is_reserved":false,"is_disabled":false,"rental_uris":{"android":"levelo://app?vid=95614dc5-799b-4dbb-998c-97643c3ccb6c","ios":"levelo://app?vid=95614dc5-799b-4dbb-998c-97643c3ccb6c"},"vehicle_type_id":"4","last_reported":1706771226,"current_range_meters":9200,"station_id":"ce4bhah2rcd13ifvqei0","pricing_plan_id":"free"},{"bike_id":"6fd98775-d87d-46eb-9f7d-32e6bd1ce52e","system_id":"levelo_inurba_marseille","lat":43.284561,"lon":5.358903,"is_reserved":false,"is_disabled":false,"rental_uris":{"android":"levelo://app?vid=6fd98775-d87d-46eb-9f7d-32e6bd1ce52e","ios":"levelo://app?vid=6fd98775-d87d-46eb-9f7d-32e6bd1ce52e"},"vehicle_type_id":"4","last_reported":1706771226,"current_range_meters":9600,"station_id":"ce4bhah2rcd13ifvqei0","pricing_plan_id":"free"},{"bike_id":"2d36f33f-dbf9-4875-8ab9-2cdd8dfc2309","system_id":"levelo_inurba_marseille","lat":43.28456,"lon":5.35891,"is_reserved":false,"is_disabled":false,"rental_uris":{"android":"levelo://app?vid=2d36f33f-dbf9-4875-8ab9-2cdd8dfc2309","ios":"levelo://app?vid=2d36f33f-dbf9-4875-8ab9-2cdd8dfc2309"},"vehicle_type_id":"4","last_reported":1706771226,"current_range_meters":31200,"station_id":"ce4bhah2rcd13ifvqei0","pricing_plan_id":"free"},{"bike_id":"8ace6342-3010-4aad-a715-3c2ebc3fdf71","system_id":"levelo_inurba_marseille","lat":43.284567,"lon":5.358857,"is_reserved":false,"is_disabled":false,"rental_uris":{"android":"levelo://app?vid=8ace6342-3010-4aad-a715-3c2ebc3fdf71","ios":"levelo://app?vid=8ace6342-3010-4aad-a715-3c2ebc3fdf71"},"vehicle_type_id":"4","last_reported":1706771226,"current_range_meters":3600,"station_id":"ce4bhah2rcd13ifvqei0","pricing_plan_id":"free"},{"bike_id":"118e6c34-d12f-499f-8afb-049713e6747a","system_id":"levelo_inurba_marseille","lat":43.284554,"lon":5.358924,"is_reserved":false,"is_disabled":false,"rental_uris":{"android":"levelo://app?vid=118e6c34-d12f-499f-8afb-049713e6747a","ios":"levelo://app?vid=118e6c34-d12f-499f-8afb-049713e6747a"},