{"last_updated":1712952507,"ttl":30,"version":"2.2","data":{"bikes":[{"bike_id":"00c7c0ef-0bee-4a63-ac87-2c4f15e32aff","system_id":"levelo_inurba_marseille","lat":43.312239,"lon":5.368562,"is_reserved":false,"is_disabled":false,"rental_uris":{"android":"levelo://app?vid=00c7c0ef-0bee-4a63-ac87-2c4f15e32aff","ios":"levelo://app?vid=00c7c0ef-0bee-4a63-ac87-2c4f15e32aff"},"vehicle_type_id":"4","last_reported":1712952507,"current_range_meters":800,"station_id":"ce4bgl92rcd13ifvqbq0","pricing_plan_id":"cebpf4jnsgd1na2vs0mg"},{"bike_id":"de1d8e11-fecb-4afc-812c-1044f9fa6984","system_id":"levelo_inurba_marseille","lat":43.312239,"lon":5.368562,"is_reserved":false,"is_disabled":false,"rental_uris":{"android":"levelo://app?vid=de1d8e11-fecb-4afc-812c-1044f9fa6984","ios":"levelo://app?vid=de1d8e11-fecb-4afc-812c-1044f9fa6984"},"vehicle_type_id":"4","last_reported":1712952507,"current_range_meters":7600,"station_id":"ce4bgl92rcd13ifvqbq0","pricing_plan_id":"cebpf4jnsgd1na2vs0mg"},{"bike_id":"91379bab-1df1-4cc1-b25d-7242bd44210b","system_id":"levelo_inurba_marseille","lat":43.30905,"lon":5.36853,"is_reserved":false,"is_disabled":false,"rental_uris":{"android":"levelo://app?vid=91379bab-1df1-4cc1-b25d-7242bd44210b","ios":"levelo://app?vid=91379bab-1df1-4cc1-b25d-7242bd44210b"},"vehicle_type_id":"4","last_reported":1712952507,"current_range_meters":24400,"station_id":"ce4bgn92rcd13ifvqbvg","pricing_plan_id":"cebpf4jnsgd1na2vs0mg"},{"bike_id":"a9a9e9ca-d6c8-44d2-a158-94daf88e1019","system_id":"levelo_inurba_marseille","lat":43.314811,"lon":5.373103,"is_reserved":false,"is_disabled":false,"rental_uris":{"android":"levelo://app?vid=a9a9e9ca-d6c8-44d2-a158-94daf88e1019","ios":"levelo://app?vid=a9a9e9ca-d6c8-44d2-a158-94daf88e1019"},"vehicle_type_id":"4","last_reported":1712952507,"current_range_meters":4400,"station_id":"ce4bgt12rcd13ifvqcd0","pricing_plan_id":"cebpf4jnsgd1na2vs0mg"},{"bike_id":"66cfa085-0b6b-49ba-b129-8052fb01c0a8","system_id":"levelo_inurba_marseille","lat":43.314811,"lon":5.373103,"is_reserved":false,"is_disabled":false,"rental_uris":{"android":"levelo://app?vid=66cfa085-0b6b-49ba-b129-8052fb01c0a8","ios":"levelo://app?vid=66cfa085-0b6b-49ba-b129-8052fb01c0a8"},"vehicle_type_id":"4","last_reported":1712952507,"current_range_meters":7600,"station_id":"ce4bgt12rcd13ifvqcd0","pricing_plan_id":"cebpf4jnsgd1na2vs0mg"},{"bike_id":"e181a133-3990-480a-98e3-8f73b763e094","system_id":"levelo_inurba_marseille","lat":43.309039,"lon":5.371797,"is_reserved":false,"is_disabled":false,"rental_uris":{"android":"levelo://app?vid=e181a133-3990-480a-98e3-8f73b763e094","ios":"levelo://app?vid=e181a133-3990-480a-98e3-8f73b763e094"},"vehicle_type_id":"4","last_reported":1712952507,"current_range_meters":0,"station_id":"ce4bguh2rcd13ifvqckg","pricing_plan_id":"cebpf4jnsgd1na2vs0mg"},{"bike_id":"cb739180-7fe2-4f5f-a937-8c8ae677cc58","system_id":"levelo_inurba_marseille","lat":43.307945,"lon":5.376487,"is_reserved":false,"is_disabled":false,"rental_uris":{"android":"levelo://app?vid=cb739180-7fe2-4f5f-a937-8c8ae677cc58","ios":"levelo://app?vid=cb739180-7fe2-4f5f-a937-8c8ae677cc58"},"vehicle_type_id":"4","last_reported":1712952507,"current_range_meters":12000,"station_id":"ce4bgv92rcd13ifvqcq0","pricing_plan_id":"cebpf4jnsgd1na2vs0mg"},{"bike_id":"4e4b1239-ed21-4436-b930-e7e8fbd417f8","system_id":"levelo_inurba_marseille","lat":43.307945,"lon":5.376487,"is_reserved":false,"is_disabled":false,"rental_uris":{"android":"levelo://app?vid=4e4b1239-ed21-4436-b930-e7e8fbd417f8","ios":"levelo://app?vid=4e4b1239-ed21-4436-b930-e7e8fbd417f8"},"vehicle_type_id":"4","last_reported":1712952507,"current_range_meters":20400,"station_id":"ce4bgv92rcd13ifvqcq0","pricing_plan_id":"cebpf4jnsgd1na2vs0mg"},{"bike_id":"221f626c-c7cb-45e4-82b3-384cffde33bb","system_id":"levelo_inurba_marseille","lat":43.30468,"lon":5.37121,"is_reserved":false,"is_disabled":false,"rental_uris":{"android":"levelo://app?vid=221f626c-c7cb-45e4-82b3-384cffde33bb","ios":"levelo://app?vid=221f626c-c7cb-45e4-82b3-384cffde33bb"},"vehicle_type_id":"4","last_reported":1712952507,"current_range_meters":6400,"station_id":"ce4bgh92rcd13ifvqb50","pricing_plan_id":"cebpf4jnsgd1na2vs0mg"},{"bike_id":"56064c5c-e74c-450c-9677-e55770db837a","system_id":"levelo_inurba_marseille","lat":43.315289,"lon":5.380349,"is_reserved":false,"is_disabled":false,"rental_uris":{"android":"levelo://app?vid=56064c5c-e74c-450c-9677-e55770db837a","ios":"levelo://app?vid=56064c5c-e74c-450c-9677-e55770db837a"},"vehicle_type_id":"4","last_reported":1712952507,"current_range_meters":23600,"station_id":"ce4bhsp2rcd13ifvqi50","pricing_plan_id":"cebpf4jnsgd1na2vs0mg"},{"bike_id":"ee7d43e3-45f1-4b3f-a000-d09ea3d6050d","system_id":"levelo_inurba_marseille","lat":43.315293,"lon":5.380349,"is_reserved":false,"is_disabled":false,"rental_uris":{"android":"levelo://app?vid=ee7d43e3-45f1-4b3f-a000-d09ea3d6050d","ios":"levelo://app?vid=ee7d43e3-45f1-4b3f-a000-d09ea3d6050d"},"vehicle_type_id":"4","last_reported":1712952507,"current_range_meters":18800,"station_id":"ce4bhsp2rcd13ifvqi50","pricing_plan_id":"cebpf4jnsgd1na2vs0mg"},{"bike_id":"c973c696-6cf3-4ef6-9922-20142626237f","system_id":"levelo_inurba_marseille","lat":43.30282,"lon":5.37259,"is_reserved":false,"is_disabled":false,"rental_uris":{"android":"levelo://app?vid=c973c696-6cf3-4ef6-9922-20142626237f","ios":"levelo://app?vid=c973c696-6cf3-4ef6-9922-20142626237f"},"vehicle_type_id":"4","last_reported":1712952507,"current_range_meters":18000,"station_id":"","pricing_plan_id":"cebpf4jnsgd1na2vs0mg"},{"bike_id":"55d280b3-3edf-424d-a072-33a765b43467","system_id":"levelo_inurba_marseille","lat":43.301939,"lon":5.366286,"is_reserved":false,"is_disabled":false,"rental_uris":{"android":"levelo://app?vid=55d280b3-3edf-424d-a072-33a765b43467","ios":"levelo://app?vid=55d280b3-3edf-424d-a072-33a765b43467"},"vehicle_type_id":"4","last_reported":1712952507,"current_range_meters":0,"station_id":"ce4bgrh2rcd13ifvqc8g","pricing_plan_id":"cebpf4jnsgd1na2vs0mg"},{"bike_id":"2946653f-3593-4b73-b058-3e7d37f76f06","system_id":"levelo_inurba_marseille","lat":43.301939,"lon":5.366286,"is_reserved":false,"is_disabled":false,"rental_uris":{"android":"levelo://app?vid=2946653f-3593-4b73-b058-3e7d37f76f06","ios":"levelo://app?vid=2946653f-3593-4b73-b058-3e7d37f76f06"},"vehicle_type_id":"4","last_reported":1712952507,"current_range_meters":0,"station_id":"ce4bgrh2rcd13ifvqc8g","pricing_plan_id":"cebpf4jnsgd1na2vs0mg"},{"bike_id":"e7611b4f-686e-4464-a980-0525baf322a2","system_id":"levelo_inurba_marseille","lat":43.31055,"lon":5.38179,"is_reserved":false,"is_disabled":false,"rental_uris":{"android":"levelo://app?vid=e7611b4f-686e-4464-a980-0525baf322a2","ios":"levelo://app?vid=e7611b4f-686e-4464-a980-0525baf322a2"},"vehicle_type_id":"4","last_reported":1712952507,"current_range_meters":0,"station_id":"","pricing_plan_id":"cebpf4jnsgd1na2vs0mg"},{"bike_id":"6bfd0e51-866a-46e8-8402-1e69d52d3e12","system_id":"levelo_inurba_marseille","lat":43.308004,"lon":5.381516,"is_reserved":false,"is_disabled":false,"rental_uris":{"android":"levelo://app?vid=6bfd0e51-866a-46e8-8402-1e69d52d3e12","ios":"levelo://app?vid=6bfd0e51-866a-46e8-8402-1e69d52d3e12"},"vehicle_type_id":"4","last_reported":1712952507,"current_range_meters":0,"station_id":"ce4bgt12rcd13ifvqce0","pricing_plan_id":"cebpf4jnsgd1na2vs0mg"},{"bike_id":"be3fa3c1-076a-445e-9ae5-e5a5f0816fc3","system_id":"levelo_inurba_marseille","lat":43.308012,"lon":5.381511,"is_reserved":false,"is_disabled":false,"rental_uris":{"android":"levelo://app?vid=be3fa3c1-076a-445e-9ae5-e5a5f0816fc3","ios":"levelo://app?vid=be3fa3c1-076a-445e-9ae5-e5a5f0816fc3"},"vehicle_type_id":"4","last_reported":1712952507,"current_range_meters":6000,"station_id":"ce4bgt12rcd13ifvqce0","pricing_plan_id":"cebpf4jnsgd1na2vs0mg"},{"bike_id":"2205d386-1a11-4846-b95a-c5ea52071d88","system_id":"levelo_inurba_marseille","lat":43.308012,"lon":5.381511,"is_reserved":false,"is_disabled":false,"rental_uris":{"android":"levelo://app?vid=2205d386-1a11-4846-b95a-c5ea52071d88","ios":"levelo://app?vid=2205d386-1a11-4846-b95a-c5ea52071d88"},"vehicle_type_id":"4","last_reported":1712952507,"current_range_meters":8800,"station_id":"ce4bgt12rcd13ifvqce0","pricing_plan_id":"cebpf4jnsgd1na2vs0mg"},{"bike_id":"d24e0b16-8c0e-4246-9630-a8a63f0a0dd6","system_id":"levelo_inurba_marseille","lat":43.304657,"lon":5.378989,"is_reserved":false,"is_disabled":false,"rental_uris":{"android":"levelo://app?vid=d24e0b16-8c0e-4246-9630-a8a63f0a0dd6","ios":"levelo://app?vid=d24e0b16-8c0e-4246-9630-a8a63f0a0dd6"},"vehicle_type_id":"4","last_reported":1712952507,"current_range_meters":0,"station_id":"ce4bgup2rcd13ifvqcn0","pricing_plan_id":"cebpf4jnsgd1na2vs0mg"},{"bike_id":"423e848b-f95b-4173-b8be-feccfdcb2086","system_id":"levelo_inurba_marseille","lat":43.304606,"lon":5.379026,"is_reserved":false,"is_disabled":false,"rental_uris":{"android":"levelo://app?vid=423e848b-f95b-4173-b8be-feccfdcb2086","ios":"levelo://app?vid=423e848b-f95b-4173-b8be-feccfdcb2086"},"vehicle_type_id":"4","last_reported":1712952507,"current_range_meters":6400,"station_id":"ce4bgup2rcd13ifvqcn0","pricing_plan_id":"cebpf4jnsgd1na2vs0mg"},{"bike_id":"059dcd77-b156-4846-a2f6-dcc7ed292848","system_id":"levelo_inurba_marseille","lat":43.304653,"lon":5.37912,"is_reserved":false,"is_disabled":false,"rental_uris":{"android":"levelo://app?vid=059dcd77-b156-4846-a2f6-dcc7ed292848","ios":"levelo://app?vid=059dcd77-b156-4846-a2f6-dcc7ed292848"},"vehicle_type_id":"4","last_reported":1712952507,"current_range_meters":0,"station_id":"ce4bgup2rcd13ifvqcn0","pricing_plan_id":"cebpf4jnsgd1na2vs0mg"},{"bike_id":"a2d05945-0201-4925-9af9-f6239a00d807","system_id":"levelo_inurba_marseille","lat":43.304606,"lon":5.379026,"is_reserved":false,"is_disabled":false,"rental_uris":{"android":"levelo://app?vid=a2d05945-0201-4925-9af9-f6239a00d807","ios":"levelo://app?vid=a2d05945-0201-4925-9af9-f6239a00d807"},"vehicle_type_id":"4","last_reported":1712952507,"current_range_meters":2400,"station_id":"ce4bgup2rcd13ifvqcn0","pricing_plan_id":"cebpf4jnsgd1na2vs0mg"},{"bike_id":"aaeef0fc-c258-40fa-9459-869afd1fa1c2","system_id":"levelo_inurba_marseille","lat":43.324771,"lon":5.36557,"is_reserved":false,"is_disabled":false,"rental_uris":{"android":"levelo://app?vid=aaeef0fc-c258-40fa-9459-869afd1fa1c2","ios":"levelo://app?vid=aaeef0fc-c258-40fa-9459-869afd1fa1c2"},"vehicle_type_id":"4","last_reported":1712952507,"current_range_meters":23200,"station_id":"ce4bhs12rcd13ifvqhvg","pricing_plan_id":"cebpf4jnsgd1na2vs0mg"},{"bike_id":"6fcac34d-4b8b-4ea1-8b39-2196ca6d95b7","system_id":"levelo_inurba_marseille","lat":43.324771,"lon":5.36557,"is_reserved":false,"is_disabled":false,"rental_uris":{"android":"levelo://app?vid=6fcac34d-4b8b-4ea1-8b39-2196ca6d95b7","ios":"levelo://app?vid=6fcac34d-4b8b-4ea1-8b39-2196ca6d95b7"},"vehicle_type_id":"4","last_reported":1712952507,"current_range_meters":5600,"station_id":"ce4bhs12rcd13ifvqhvg","pricing_plan_id":"cebpf4jnsgd1na2vs0mg"},{"bike_id":"7575019c-31af-4ed2-af41-0123e5e3e10e","system_id":"levelo_inurba_marseille","lat":43.324771,"lon":5.36557,"is_reserved":false,"is_disabled":false,"rental_uris":{"android":"levelo://app?vid=7575019c-31af-4ed2-af41-0123e5e3e10e","ios":"levelo://app?vid=7575019c-31af-4ed2-af41-0123e5e3e10e"},"vehicle_type_id":"4","last_reported":1712952507,"current_range_meters":24000,"station_id":"ce4bhs12rcd13ifvqhvg","pricing_plan_id":"cebpf4jnsgd1na2vs0mg"},{"bike_id":"aab8218e-5ae5-4259-8cfc-82eea594431c","system_id":"levelo_inurba_marseille","lat":43.324771,"lon":5.36557,"is_reserved":false,"is_disabled":false,"rental_uris":{"android":"levelo://app?vid=aab8218e-5ae5-4259-8cfc-82eea594431c","ios":"levelo://app?vid=aab8218e-5ae5-4259-8cfc-82eea594431c"},"vehicle_type_id":"4","last_reported":1712952507,"current_range_meters":12000,"station_id":"ce4bhs12rcd13ifvqhvg","pricing_plan_id":"cebpf4jnsgd1na2vs0mg"},{"bike_id":"8233e652-c11d-4da5-8d18-f06b3c5caa11","system_id":"levelo_inurba_marseille","lat":43.324771,"lon":5.36557,"is_reserved":false,"is_disabled":false,"rental_uris":{"android":"levelo://app?vid=8233e652-c11d-4da5-8d18-f06b3c5caa11","ios":"levelo://app?vid=8233e652-c11d-4da5-8d18-f06b3c5caa11"},"vehicle_type_id":"4","last_reported":1712952507,"current_range_meters":10800,"station_id":"ce4bhs12rcd13ifvqhvg","pricing_plan_id":"cebpf4jnsgd1na2vs0mg"},{"bike_id":"3da179fd-ba6d-4ac5-8ae9-a73ee0c6d3ee","system_id":"levelo_inurba_marseille","lat":43.3108,"lon":5.38347,"is_reserved":false,"is_disabled":false,"rental_uris":{"android":"levelo://app?vid=3da179fd-ba6d-4ac5-8ae9-a73ee0c6d3ee","ios":"levelo://app?vid=3da179fd-ba6d-4ac5-8ae9-a73ee0c6d3ee"},"vehicle_type_id":"4","last_reported":1712952507,"current_range_meters":0,"station_id":"ce4bgv92rcd13ifvqcr0","pricing_plan_id":"cebpf4jnsgd1na2vs0mg"},{"bike_id":"15885d66-8294-406d-8563-3366eede4a1c","system_id":"levelo_inurba_marseille","lat":43.310723,"lon":5.38348,"is_reserved":false,"is_disabled":false,"rental_uris":{"android":"levelo://app?vid=15885d66-8294-406d-8563-3366eede4a1c","ios":"levelo://app?vid=15885d66-8294-406d-8563-3366eede4a1c"},"vehicle_type_id":"4","last_reported":1712952507,"current_range_meters":0,"station_id":"ce4bgv92rcd13ifvqcr0","pricing_plan_id":"cebpf4jnsgd1na2vs0mg"},{"bike_id":"31d436d2-22f4-444b-92ad-c36128c84b47","system_id":"levelo_inurba_marseille","lat":43.319935,"lon":5.381699,"is_reserved":false,"is_disabled":false,"rental_uris":{"android":"levelo://app?vid=31d436d2-22f4-444b-92ad-c36128c84b47","ios":"levelo://app?vid=31d436d2-22f4-444b-92ad-c36128c84b47"},"vehicle_type_id":"4","last_reported":1712952507,"current_range_meters":0,"station_id":"ce4bhr12rcd13ifvqhpg","pricing_plan_id":"cebpf4jnsgd1na2vs0mg"},{"bike_id":"387b7c6f-c287-4395-823a-85058889ede8","system_id":"levelo_inurba_marseille","lat":43.319935,"lon":5.381699,"is_reserved":false,"is_disabled":false,"rental_uris":{"android":"levelo://app?vid=387b7c6f-c287-4395-823a-85058889ede8","ios":"levelo://app?vid=387b7c6f-c287-4395-823a-85058889ede8"},"vehicle_type_id":"4","last_reported":1712952507,"current_range_meters":0,"station_id":"ce4bhr12rcd13ifvqhpg","pricing_plan_id":"cebpf4jnsgd1na2vs0mg"},{"bike_id":"4e55ca64-fe78-48a2-9719-7902d95f15e6","system_id":"levelo_inurba_marseille","lat":43.319935,"lon":5.381699,"is_reserved":false,"is_disabled":false,"rental_uris":{"android":"levelo://app?vid=4e55ca64-fe78-48a2-9719-7902d95f15e6","ios":"levelo://app?vid=4e55ca64-fe78-48a2-9719-7902d95f15e6"},"vehicle_type_id":"4","last_reported":1712952507,"current_range_meters":3200,"station_id":"ce4bhr12rcd13ifvqhpg","pricing_plan_id":"cebpf4jnsgd1na2vs0mg"},{"bike_id":"a5c7d92a-31f4-40d7-8720-41d84efe8baf","system_id":"levelo_inurba_marseille","lat":43.319935,"lon":5.381699,"is_reserved":false,"is_disabled":false,"rental_uris":{"android":"levelo://app?vid=a5c7d92a-31f4-40d7-8720-41d84efe8baf","ios":"levelo://app?vid=a5c7d92a-31f4-40d7-8720-41d84efe8baf"},"vehicle_type_id":"4","last_reported":1712952507,"current_range_meters":8000,"station_id":"ce4bhr12rcd13ifvqhpg","pricing_plan_id":"cebpf4jnsgd1na2vs0mg"},{"bike_id":"06e2b00d-8932-4356-9214-2a9e57395088","system_id":"levelo_inurba_marseille","lat":43.319935,"lon":5.381699,"is_reserved":false,"is_disabled":false,"rental_uris":{"android":"levelo://app?vid=06e2b00d-8932-4356-9214-2a9e57395088","ios":"levelo://app?vid=06e2b00d-8932-4356-9214-2a9e57395088"},"vehicle_type_id":"4","last_reported":1712952507,"current_range_meters":18800,"station_id":"ce4bhr12rcd13ifvqhpg","pricing_plan_id":"cebpf4jnsgd1na2vs0mg"},{"bike_id":"9165843a-1710-47f6-acc2-8ac6b465822d","system_id":"levelo_inurba_marseille","lat":43.319935,"lon":5.381699,"is_reserved":false,"is_disabled":false,"rental_uris":{"android":"levelo://app?vid=9165843a-1710-47f6-acc2-8ac6b465822d","ios":"levelo://app?vid=9165843a-1710-47f6-acc2-8ac6b465822d"},"vehicle_type_id":"4","last_reported":1712952507,"current_range_meters":400,"station_id":"ce4bhr12rcd13ifvqhpg","pricing_plan_id":"cebpf4jnsgd1na2vs0mg"},{"bike_id":"afb78cb4-71b4-4594-a1f1-9ba7b02b5aee","system_id":"levelo_inurba_marseille","lat":43.319935,"lon":5.381699,"is_reserved":false,"is_disabled":false,"rental_uris":{"android":"levelo://app?vid=afb78cb4-71b4-4594-a1f1-9ba7b02b5aee","ios":"levelo://app?vid=afb78cb4-71b4-4594-a1f1-9ba7b02b5aee"},"vehicle_type_id":"4","last_reported":1712952507,"current_range_meters":3600,"station_id":"ce4bhr12rcd13ifvqhpg","pricing_plan_id":"cebpf4jnsgd1na2vs0mg"},{"bike_id":"040fe1e7-78d3-4d84-b369-f81c31655017","system_id":"levelo_inurba_marseille","lat":43.319935,"lon":5.381699,"is_reserved":false,"is_disabled":false,"rental_uris":{"android":"levelo://app?vid=040fe1e7-78d3-4d84-b369-f81c31655017","ios":"levelo://app?vid=040fe1e7-78d3-4d84-b369-f81c31655017"},"vehicle_type_id":"4","last_reported":1712952507,"current_range_meters":2400,"station_id":"ce4bhr12rcd13ifvqhpg","pricing_plan_id":"cebpf4jnsgd1na2vs0mg"},{"bike_id":"da81d85b-04d9-4118-b26c-b79713ac28b7","system_id":"levelo_inurba_marseille","lat":43.313571,"lon":5.384829,"is_reserved":false,"is_disabled":false,"rental_uris":{"android":"levelo://app?vid=da81d85b-04d9-4118-b26c-b79713ac28b7","ios":"levelo://app?vid=da81d85b-04d9-4118-b26c-b79713ac28b7"},"vehicle_type_id":"4","last_reported":1712952507,"current_range_meters":2400,"station_id":"ce4bgt92rcd13ifvqcf0","pricing_plan_id":"cebpf4jnsgd1na2vs0mg"},{"bike_id":"b356fd9e-5a47-4c6f-8c55-a7615983751f","system_id":"levelo_inurba_marseille","lat":43.313571,"lon":5.384829,"is_reserved":false,"is_disabled":false,"rental_uris":{"android":"levelo://app?vid=b356fd9e-5a47-4c6f-8c55-a7615983751f","ios":"levelo://app?vid=b356fd9e-5a47-4c6f-8c55-a7615983751f"},"vehicle_type_id":"4","last_reported":1712952507,"current_range_meters":10800,"station_id":"ce4bgt92rcd13ifvqcf0","pricing_plan_id":"cebpf4jnsgd1na2vs0mg"},{"bike_id":"88c0dc9d-894f-429a-afdf-8eac473890d8","system_id":"levelo_inurba_marseille","lat":43.299222,"lon":5.365554,"is_reserved":false,"is_disabled":false,"rental_uris":{"android":"levelo://app?vid=88c0dc9d-894f-429a-afdf-8eac473890d8","ios":"levelo://app?vid=88c0dc9d-894f-429a-afdf-8eac473890d8"},"vehicle_type_id":"4","last_reported":1712952507,"current_range_meters":0,"station_id":"ce4bgm92rcd13ifvqbr0","pricing_plan_id":"cebpf4jnsgd1na2vs0mg"},{"bike_id":"5bebc07e-c9ef-4769-8c6e-883adb0027b1","system_id":"levelo_inurba_marseille","lat":43.294162,"lon":5.386292,"is_reserved":false,"is_disabled":false,"rental_uris":{"android":"levelo://app?vid=5bebc07e-c9ef-4769-8c6e-883adb0027b1","ios":"levelo://app?vid=5bebc07e-c9ef-4769-8c6e-883adb0027b1"},"vehicle_type_id":"4","last_reported":1712952507,"current_range_meters":2000,"station_id":"ce4bh2h2rcd13ifvqdh0","pricing_plan_id":"cebpf4jnsgd1na2vs0mg"},{"bike_id":"4c6c5b22-cd7b-40ea-bcde-11880c88cce5","system_id":"levelo_inurba_marseille","lat":43.299724,"lon":5.371829,"is_reserved":false,"is_disabled":false,"rental_uris":{"android":"levelo://app?vid=4c6c5b22-cd7b-40ea-bcde-11880c88cce5","ios":"levelo://app?vid=4c6c5b22-cd7b-40ea-bcde-11880c88cce5"},"vehicle_type_id":"4","last_reported":1712952507,"current_range_meters":11200,"station_id":"ce4bgr92rcd13ifvqc7g","pricing_plan_id":"cebpf4jnsgd1na2vs0mg"},{"bike_id":"489d47a3-0ab7-41ed-ba7a-12eba9153838","system_id":"levelo_inurba_marseille","lat":43.299724,"lon":5.371829,"is_reserved":false,"is_disabled":false,"rental_uris":{"android":"levelo://app?vid=489d47a3-0ab7-41ed-ba7a-12eba9153838","ios":"levelo://app?vid=489d47a3-0ab7-41ed-ba7a-12eba9153838"},"vehicle_type_id":"4","last_reported":1712952507,"current_range_meters":10000,"station_id":"ce4bgr92rcd13ifvqc7g","pricing_plan_id":"cebpf4jnsgd1na2vs0mg"},{"bike_id":"96eb05fb-9c0f-4c36-8134-80380b333c52","system_id":"levelo_inurba_marseille","lat":43.305364,"lon":5.384119,"is_reserved":false,"is_disabled":false,"rental_uris":{"android":"levelo://app?vid=96eb05fb-9c0f-4c36-8134-80380b333c52","ios":"levelo://app?vid=96eb05fb-9c0f-4c36-8134-80380b333c52"},"vehicle_type_id":"4","last_reported":1712952507,"current_range_meters":22000,"station_id":"ce4bgg92rcd13ifvqb30","pricing_plan_id":"cebpf4jnsgd1na2vs0mg"},{"bike_id":"6c91aeb1-c1ac-4b0b-927a-209ee6aedd6d","system_id":"levelo_inurba_marseille","lat":43.311857,"lon":5.387065,"is_reserved":false,"is_disabled":false,"rental_uris":{"android":"levelo://app?vid=6c91aeb1-c1ac-4b0b-927a-209ee6aedd6d","ios":"levelo://app?vid=6c91aeb1-c1ac-4b0b-927a-209ee6aedd6d"},"vehicle_type_id":"4","last_reported":1712952507,"current_range_meters":0,"station_id":"ce4bgv12rcd13ifvqcp0","pricing_plan_id":"cebpf4jnsgd1na2vs0mg"},{"bike_id":"b5654f55-5117-421f-8d63-62d3fec0450d","system_id":"levelo_inurba_marseille","lat":43.299243,"lon":5.37481,"is_reserved":false,"is_disabled":false,"rental_uris":{"android":"levelo://app?vid=b5654f55-5117-421f-8d63-62d3fec0450d","ios":"levelo://app?vid=b5654f55-5117-421f-8d63-62d3fec0450d"},"vehicle_type_id":"4","last_reported":1712952507,"current_range_meters":4400,"station_id":"ce4bgjh2rcd13ifvqbg0","pricing_plan_id":"cebpf4jnsgd1na2vs0mg"},{"bike_id":"c862d526-24fa-49fc-9d77-b9c71829e0c2","system_id":"levelo_inurba_marseille","lat":43.299243,"lon":5.374807,"is_reserved":false,"is_disabled":false,"rental_uris":{"android":"levelo://app?vid=c862d526-24fa-49fc-9d77-b9c71829e0c2","ios":"levelo://app?vid=c862d526-24fa-49fc-9d77-b9c71829e0c2"},"vehicle_type_id":"4","last_reported":1712952507,"current_range_meters":26800,"station_id":"ce4bgjh2rcd13ifvqbg0","pricing_plan_id":"cebpf4jnsgd1na2vs0mg"},{"bike_id":"4c2ea64f-a106-41f8-a16e-beed6fe8b5c1","system_id":"levelo_inurba_marseille","lat":43.311722,"lon":5.387247,"is_reserved":false,"is_disabled":false,"rental_uris":{"android":"levelo://app?vid=4c2ea64f-a106-41f8-a16e-beed6fe8b5c1","ios":"levelo://app?vid=4c2ea64f-a106-41f8-a16e-beed6fe8b5c1"},"vehicle_type_id":"4","last_reported":1712952507,"current_range_meters":25200,"station_id":"ce4bgv12rcd13ifvqcp0","pricing_plan_id":"cebpf4jnsgd1na2vs0mg"},{"bike_id":"ff8fd808-f44c-40e3-afbc-ee61614d8e94","system_id":"levelo_inurba_marseille","lat":43.311722,"lon":5.387247,"is_reserved":false,"is_disabled":false,"rental_uris":{"android":"levelo://app?vid=ff8fd808-f44c-40e3-afbc-ee61614d8e94","ios":"levelo://app?vid=ff8fd808-f44c-40e3-afbc-ee61614d8e94"},"vehicle_type_id":"4","last_reported":1712952507,"current_range_meters":4800,"station_id":"ce4bgv12rcd13ifvqcp0","pricing_plan_id":"cebpf4jnsgd1na2vs0mg"},{"bike_id":"50443932-0737-4893-bff9-4c7a95cafb4d","system_id":"levelo_inurba_marseille","lat":43.297794,"lon":5.370888,"is_reserved":false,"is_disabled":false,"rental_uris":{"android":"levelo://app?vid=50443932-0737-4893-bff9-4c7a95cafb4d","ios":"levelo://app?vid=50443932-0737-4893-bff9-4c7a95cafb4d"},"vehicle_type_id":"4","last_reported":1712952507,"current_range_meters":800,"station_id":"ce4bgop2rcd13ifvqc1g","pricing_plan_id":"cebpf4jnsgd1na2vs0mg"},{"bike_id":"406f940f-1f5d-4f6b-9292-819c8bde83ae","system_id":"levelo_inurba_marseille","lat":43.311722,"lon":5.387247,"is_reserved":false,"is_disabled":false,"rental_uris":{"android":"levelo://app?vid=406f940f-1f5d-4f6b-9292-819c8bde83ae","ios":"levelo://app?vid=406f940f-1f5d-4f6b-9292-819c8bde83ae"},"vehicle_type_id":"4","last_reported":1712952507,"current_range_meters":3600,"station_id":"ce4bgv12rcd13ifvqcp0","pricing_plan_id":"cebpf4jnsgd1na2vs0mg"},{"bike_id":"50bcfe10-28b2-44e3-a6bd-320b811bc0d6","system_id":"levelo_inurba_marseille","lat":43.297794,"lon":5.370888,"is_reserved":false,"is_disabled":false,"rental_uris":{"android":"levelo://app?vid=50bcfe10-28b2-44e3-a6bd-320b811bc0d6","ios":"levelo://app?vid=50bcfe10-28b2-44e3-a6bd-320b811bc0d6"},"vehicle_type_id":"4","last_reported":1712952507,"current_range_meters":2000,"station_id":"ce4bgop2rcd13ifvqc1g","pricing_plan_id":"cebpf4jnsgd1na2vs0mg"},{"bike_id":"78e2448b-9d63-4014-9821-a5ed4ea701cc","system_id":"levelo_inurba_marseille","lat":43.322872,"lon":5.382756,"is_reserved":false,"is_disabled":false,"rental_uris":{"android":"levelo://app?vid=78e2448b-9d63-4014-9821-a5ed4ea701cc","ios":"levelo://app?vid=78e2448b-9d63-4014-9821-a5ed4ea701cc"},"vehicle_type_id":"4","last_reported":1712952507,"current_range_meters":30800,"station_id":"ce4bhr12rcd13ifvqhqg","pricing_plan_id":"cebpf4jnsgd1na2vs0mg"},{"bike_id":"33f9ec6c-35e4-4b80-9ccb-f932f44e8847","system_id":"levelo_inurba_marseille","lat":43.322872,"lon":5.382756,"is_reserved":false,"is_disabled":false,"rental_uris":{"android":"levelo://app?vid=33f9ec6c-35e4-4b80-9ccb-f932f44e8847","ios":"levelo://app?vid=33f9ec6c-35e4-4b80-9ccb-f932f44e8847"},"vehicle_type_id":"4","last_reported":1712952507,"current_range_meters":8400,"station_id":"ce4bhr12rcd13ifvqhqg","pricing_plan_id":"cebpf4jnsgd1na2vs0mg"},{"bike_id":"62f70c15-673b-4b5f-8664-4716e8ac8804","system_id":"levelo_inurba_marseille","lat":43.322872,"lon":5.382756,"is_reserved":false,"is_disabled":false,"rental_uris":{"android":"levelo://app?vid=62f70c15-673b-4b5f-8664-4716e8ac8804","ios":"levelo://app?vid=62f70c15-673b-4b5f-8664-4716e8ac8804"},"vehicle_type_id":"4","last_reported":1712952507,"current_range_meters":17600,"station_id":"ce4bhr12rcd13ifvqhqg","pricing_plan_id":"cebpf4jnsgd1na2vs0mg"},{"bike_id":"e9575f6a-7c71-448f-ab59-80d8e8773a2f","system_id":"levelo_inurba_marseille","lat":43.322872,"lon":5.382756,"is_reserved":false,"is_disabled":false,"rental_uris":{"android":"levelo://app?vid=e9575f6a-7c71-448f-ab59-80d8e8773a2f","ios":"levelo://app?vid=e9575f6a-7c71-448f-ab59-80d8e8773a2f"},"vehicle_type_id":"4","last_reported":1712952507,"current_range_meters":27200,"station_id":"ce4bhr12rcd13ifvqhqg","pricing_plan_id":"cebpf4jnsgd1na2vs0mg"},{"bike_id":"59e100ed-da50-4a3e-9006-d56c9ad9155e","system_id":"levelo_inurba_marseille","lat":43.322872,"lon":5.382756,"is_reserved":false,"is_disabled":false,"rental_uris":{"android":"levelo://app?vid=59e100ed-da50-4a3e-9006-d56c9ad9155e","ios":"levelo://app?vid=59e100ed-da50-4a3e-9006-d56c9ad9155e"},"vehicle_type_id":"4","last_reported":1712952507,"current_range_meters":1600,"station_id":"ce4bhr12rcd13ifvqhqg","pricing_plan_id":"cebpf4jnsgd1na2vs0mg"},{"bike_id":"471f6dc1-72d2-49b3-a8bb-13ca96ae22c1","system_id":"levelo_inurba_marseille","lat":43.322872,"lon":5.382756,"is_reserved":false,"is_disabled":false,"rental_uris":{"android":"levelo://app?vid=471f6dc1-72d2-49b3-a8bb-13ca96ae22c1","ios":"levelo://app?vid=471f6dc1-72d2-49b3-a8bb-13ca96ae22c1"},"vehicle_type_id":"4","last_reported":1712952507,"current_range_meters":5600,"station_id":"ce4bhr12rcd13ifvqhqg","pricing_plan_id":"cebpf4jnsgd1na2vs0mg"},{"bike_id":"29fc5b50-1cff-46be-80fb-38e796292df6","system_id":"levelo_inurba_marseille","lat":43.322872,"lon":5.382756,"is_reserved":false,"is_disabled":false,"rental_uris":{"android":"levelo://app?vid=29fc5b50-1cff-46be-80fb-38e796292df6","ios":"levelo://app?vid=29fc5b50-1cff-46be-80fb-38e796292df6"},"vehicle_type_id":"4","last_reported":1712952507,"current_range_meters":20400,"station_id":"ce4bhr12rcd13ifvqhqg","pricing_plan_id":"cebpf4jnsgd1na2vs0mg"},{"bike_id":"4bda5c39-43f6-4132-864a-cb31607f1e2b","system_id":"levelo_inurba_marseille","lat":43.297774,"lon":5.370875,"is_reserved":false,"is_disabled":false,"rental_uris":{"android":"levelo://app?vid=4bda5c39-43f6-4132-864a-cb31607f1e2b","ios":"levelo://app?vid=4bda5c39-43f6-4132-864a-cb31607f1e2b"},"vehicle_type_id":"4","last_reported":1712952507,"current_range_meters":2400,"station_id":"ce4bgop2rcd13ifvqc1g","pricing_plan_id":"cebpf4jnsgd1na2vs0mg"},{"bike_id":"01c3422d-8d5c-41eb-a8b1-2c81fafcb1e7","system_id":"levelo_inurba_marseille","lat":43.29703,"lon":5.36598,"is_reserved":false,"is_disabled":false,"rental_uris":{"android":"levelo://app?vid=01c3422d-8d5c-41eb-a8b1-2c81fafcb1e7","ios":"levelo://app?vid=01c3422d-8d5c-41eb-a8b1-2c81fafcb1e7"},"vehicle_type_id":"4","last_reported":1712952507,"current_range_meters":16800,"station_id":"","pricing_plan_id":"cebpf4jnsgd1na2vs0mg"},{"bike_id":"372c21aa-b7d4-446c-a4e2-c00058386246","system_id":"levelo_inurba_marseille","lat":43.29702,"lon":5.36601,"is_reserved":false,"is_disabled":false,"rental_uris":{"android":"levelo://app?vid=372c21aa-b7d4-446c-a4e2-c00058386246","ios":"levelo://app?vid=372c21aa-b7d4-446c-a4e2-c00058386246"},"vehicle_type_id":"4","last_reported":1712952507,"current_range_meters":0,"station_id":"ce4bgn12rcd13ifvqbt0","pricing_plan_id":"cebpf4jnsgd1na2vs0mg"},{"bike_id":"bd092c5e-6beb-4a21-96b9-29751d5cfa4b","system_id":"levelo_inurba_marseille","lat":43.29697,"lon":5.36599,"is_reserved":false,"is_disabled":false,"rental_uris":{"android":"levelo://app?vid=bd092c5e-6beb-4a21-96b9-29751d5cfa4b","ios":"levelo://app?vid=bd092c5e-6beb-4a21-96b9-29751d5cfa4b"},"vehicle_type_id":"4","last_reported":1712952507,"current_range_meters":0,"station_id":"ce4bgn12rcd13ifvqbt0","pricing_plan_id":"cebpf4jnsgd1na2vs0mg"},{"bike_id":"b5cdb02c-aa87-47ed-a786-2d6ea7c985f1","system_id":"levelo_inurba_marseille","lat":43.297163,"lon":5.365866,"is_reserved":false,"is_disabled":false,"rental_uris":{"android":"levelo://app?vid=b5cdb02c-aa87-47ed-a786-2d6ea7c985f1","ios":"levelo://app?vid=b5cdb02c-aa87-47ed-a786-2d6ea7c985f1"},"vehicle_type_id":"4","last_reported":1712952507,"current_range_meters":0,"station_id":"ce4bgn12rcd13ifvqbt0","pricing_plan_id":"cebpf4jnsgd1na2vs0mg"},{"bike_id":"df832497-a626-4d79-a96f-9b08363bdce5","system_id":"levelo_inurba_marseille","lat":43.296452,"lon":5.36537,"is_reserved":false,"is_disabled":false,"rental_uris":{"android":"levelo://app?vid=df832497-a626-4d79-a96f-9b08363bdce5","ios":"levelo://app?vid=df832497-a626-4d79-a96f-9b08363bdce5"},"vehicle_type_id":"4","last_reported":1712952507,"current_range_meters":4800,"station_id":"","pricing_plan_id":"cebpf4jnsgd1na2vs0mg"},{"bike_id":"276bed6c-a046-4fa5-beab-99d6db4a80ae","system_id":"levelo_inurba_marseille","lat":43.296131,"lon":5.370791,"is_reserved":false,"is_disabled":false,"rental_uris":{"android":"levelo://app?vid=276bed6c-a046-4fa5-beab-99d6db4a80ae","ios":"levelo://app?vid=276bed6c-a046-4fa5-beab-99d6db4a80ae"},"vehicle_type_id":"4","last_reported":1712952507,"current_range_meters":0,"station_id":"ce4bgnh2rcd13ifvqc0g","pricing_plan_id":"cebpf4jnsgd1na2vs0mg"},{"bike_id":"b4edd64d-cc1f-411f-b9f6-1b60ac9b9d9c","system_id":"levelo_inurba_marseille","lat":43.296131,"lon":5.370773,"is_reserved":false,"is_disabled":false,"rental_uris":{"android":"levelo://app?vid=b4edd64d-cc1f-411f-b9f6-1b60ac9b9d9c","ios":"levelo://app?vid=b4edd64d-cc1f-411f-b9f6-1b60ac9b9d9c"},"vehicle_type_id":"4","last_reported":1712952507,"current_range_meters":29200,"station_id":"ce4bgnh2rcd13ifvqc0g","pricing_plan_id":"cebpf4jnsgd1na2vs0mg"},{"bike_id":"05d8d887-d868-4448-9590-a34bdfe1201e","system_id":"levelo_inurba_marseille","lat":43.299028,"lon":5.381509,"is_reserved":false,"is_disabled":false,"rental_uris":{"android":"levelo://app?vid=05d8d887-d868-4448-9590-a34bdfe1201e","ios":"levelo://app?vid=05d8d887-d868-4448-9590-a34bdfe1201e"},"vehicle_type_id":"4","last_reported":1712952507,"current_range_meters":25600,"station_id":"ce4bgj12rcd13ifvqbc0","pricing_plan_id":"cebpf4jnsgd1na2vs0mg"},{"bike_id":"5a8176b4-5198-4bb3-90ba-93bcf354890d","system_id":"levelo_inurba_marseille","lat":43.29917,"lon":5.38151,"is_reserved":false,"is_disabled":false,"rental_uris":{"android":"levelo://app?vid=5a8176b4-5198-4bb3-90ba-93bcf354890d","ios":"levelo://app?vid=5a8176b4-5198-4bb3-90ba-93bcf354890d"},"vehicle_type_id":"4","last_reported":1712952507,"current_range_meters":8400,"station_id":"","pricing_plan_id":"cebpf4jnsgd1na2vs0mg"},{"bike_id":"0cdc816a-472a-4362-be85-fdace7024b2c","system_id":"levelo_inurba_marseille","lat":43.29709,"lon":5.37692,"is_reserved":false,"is_disabled":false,"rental_uris":{"android":"levelo://app?vid=0cdc816a-472a-4362-be85-fdace7024b2c","ios":"levelo://app?vid=0cdc816a-472a-4362-be85-fdace7024b2c"},"vehicle_type_id":"4","last_reported":1712952507,"current_range_meters":0,"station_id":"ce4bgkh2rcd13ifvqbl0","pricing_plan_id":"cebpf4jnsgd1na2vs0mg"},{"bike_id":"9691a2f4-e4ce-4267-87c5-d49929ded039","system_id":"levelo_inurba_marseille","lat":43.299028,"lon":5.381509,"is_reserved":false,"is_disabled":false,"rental_uris":{"android":"levelo://app?vid=9691a2f4-e4ce-4267-87c5-d49929ded039","ios":"levelo://app?vid=9691a2f4-e4ce-4267-87c5-d49929ded039"},"vehicle_type_id":"4","last_reported":1712952507,"current_range_meters":2000,"station_id":"ce4bgj12rcd13ifvqbc0","pricing_plan_id":"cebpf4jnsgd1na2vs0mg"},{"bike_id":"618237b6-8e0c-4839-b645-ea88939444fc","system_id":"levelo_inurba_marseille","lat":43.299028,"lon":5.381509,"is_reserved":false,"is_disabled":false,"rental_uris":{"android":"levelo://app?vid=618237b6-8e0c-4839-b645-ea88939444fc","ios":"levelo://app?vid=618237b6-8e0c-4839-b645-ea88939444fc"},"vehicle_type_id":"4","last_reported":1712952507,"current_range_meters":22800,"station_id":"ce4bgj12rcd13ifvqbc0","pricing_plan_id":"cebpf4jnsgd1na2vs0mg"},{"bike_id":"2998dd02-aca4-4435-82cc-41a8a33790b4","system_id":"levelo_inurba_marseille","lat":43.299,"lon":5.38143,"is_reserved":false,"is_disabled":false,"rental_uris":{"android":"levelo://app?vid=2998dd02-aca4-4435-82cc-41a8a33790b4","ios":"levelo://app?vid=2998dd02-aca4-4435-82cc-41a8a33790b4"},"vehicle_type_id":"4","last_reported":1712952507,"current_range_meters":0,"station_id":"ce4bgj12rcd13ifvqbc0","pricing_plan_id":"cebpf4jnsgd1na2vs0mg"},{"bike_id":"0590df5c-d2c2-4a50-a339-349902917444","system_id":"levelo_inurba_marseille","lat":43.296921,"lon":5.376579,"is_reserved":false,"is_disabled":false,"rental_uris":{"android":"levelo://app?vid=0590df5c-d2c2-4a50-a339-349902917444","ios":"levelo://app?vid=0590df5c-d2c2-4a50-a339-349902917444"},"vehicle_type_id":"4","last_reported":1712952507,"current_range_meters":800,"station_id":"ce4bgkh2rcd13ifvqbl0","pricing_plan_id":"cebpf4jnsgd1na2vs0mg"},{"bike_id":"8caaffb7-a852-42b3-b793-7a58f89bb34b","system_id":"levelo_inurba_marseille","lat":43.317557,"lon":5.390173,"is_reserved":false,"is_disabled":false,"rental_uris":{"android":"levelo://app?vid=8caaffb7-a852-42b3-b793-7a58f89bb34b","ios":"levelo://app?vid=8caaffb7-a852-42b3-b793-7a58f89bb34b"},"vehicle_type_id":"4","last_reported":1712952507,"current_range_meters":10800,"station_id":"ce4bhqp2rcd13ifvqhng","pricing_plan_id":"cebpf4jnsgd1na2vs0mg"},{"bike_id":"ed517da0-d814-43a2-9cae-0588c67e9505","system_id":"levelo_inurba_marseille","lat":43.317557,"lon":5.390173,"is_reserved":false,"is_disabled":false,"rental_uris":{"android":"levelo://app?vid=ed517da0-d814-43a2-9cae-0588c67e9505","ios":"levelo://app?vid=ed517da0-d814-43a2-9cae-0588c67e9505"},"vehicle_type_id":"4","last_reported":1712952507,"current_range_meters":12400,"station_id":"ce4bhqp2rcd13ifvqhng","pricing_plan_id":"cebpf4jnsgd1na2vs0mg"},{"bike_id":"1353979a-a377-4553-ad62-b2c43b4732d1","system_id":"levelo_inurba_marseille","lat":43.317557,"lon":5.390173,"is_reserved":false,"is_disabled":false,"rental_uris":{"android":"levelo://app?vid=1353979a-a377-4553-ad62-b2c43b4732d1","ios":"levelo://app?vid=1353979a-a377-4553-ad62-b2c43b4732d1"},"vehicle_type_id":"4","last_reported":1712952507,"current_range_meters":0,"station_id":"ce4bhqp2rcd13ifvqhng","pricing_plan_id":"cebpf4jnsgd1na2vs0mg"},{"bike_id":"08b891b0-5f4b-470f-867c-8a2e3be497d4","system_id":"levelo_inurba_marseille","lat":43.29823,"lon":5.38111,"is_reserved":false,"is_disabled":false,"rental_uris":{"android":"levelo://app?vid=08b891b0-5f4b-470f-867c-8a2e3be497d4","ios":"levelo://app?vid=08b891b0-5f4b-470f-867c-8a2e3be497d4"},"vehicle_type_id":"4","last_reported":1712952507,"current_range_meters":0,"station_id":"ce4bgip2rcd13ifvqbb0","pricing_plan_id":"cebpf4jnsgd1na2vs0mg"},{"bike_id":"4bdec6c8-81dd-4837-9ea2-11e0c2e9e151","system_id":"levelo_inurba_marseille","lat":43.29802,"lon":5.38084,"is_reserved":false,"is_disabled":false,"rental_uris":{"android":"levelo://app?vid=4bdec6c8-81dd-4837-9ea2-11e0c2e9e151","ios":"levelo://app?vid=4bdec6c8-81dd-4837-9ea2-11e0c2e9e151"},"vehicle_type_id":"4","last_reported":1712952507,"current_range_meters":0,"station_id":"ce4bgip2rcd13ifvqbb0","pricing_plan_id":"cebpf4jnsgd1na2vs0mg"},{"bike_id":"093178c0-eb1e-46c6-8814-272b12e2ab2e","system_id":"levelo_inurba_marseille","lat":43.29801,"lon":5.38085,"is_reserved":false,"is_disabled":false,"rental_uris":{"android":"levelo://app?vid=093178c0-eb1e-46c6-8814-272b12e2ab2e","ios":"levelo://app?vid=093178c0-eb1e-46c6-8814-272b12e2ab2e"},"vehicle_type_id":"4","last_reported":1712952507,"current_range_meters":0,"station_id":"ce4bgip2rcd13ifvqbb0","pricing_plan_id":"cebpf4jnsgd1na2vs0mg"},{"bike_id":"7fc78741-c5a6-44ea-9b6c-42aaccfa1ab7","system_id":"levelo_inurba_marseille","lat":43.29804,"lon":5.38095,"is_reserved":false,"is_disabled":false,"rental_uris":{"android":"levelo://app?vid=7fc78741-c5a6-44ea-9b6c-42aaccfa1ab7","ios":"levelo://app?vid=7fc78741-c5a6-44ea-9b6c-42aaccfa1ab7"},"vehicle_type_id":"4","last_reported":1712952507,"current_range_meters":0,"station_id":"ce4bgip2rcd13ifvqbb0","pricing_plan_id":"cebpf4jnsgd1na2vs0mg"},{"bike_id":"30fbfb17-6511-4770-aed0-6daf2da1f00f","system_id":"levelo_inurba_marseille","lat":43.29806,"lon":5.38105,"is_reserved":false,"is_disabled":false,"rental_uris":{"android":"levelo://app?vid=30fbfb17-6511-4770-aed0-6daf2da1f00f","ios":"levelo://app?vid=30fbfb17-6511-4770-aed0-6daf2da1f00f"},"vehicle_type_id":"4","last_reported":1712952507,"current_range_meters":5600,"station_id":"ce4bgip2rcd13ifvqbb0","pricing_plan_id":"cebpf4jnsgd1na2vs0mg"},{"bike_id":"879aa03e-ccc8-4c5b-b799-033f47a72823","system_id":"levelo_inurba_marseille","lat":43.29794,"lon":5.38084,"is_reserved":false,"is_disabled":false,"rental_uris":{"android":"levelo://app?vid=879aa03e-ccc8-4c5b-b799-033f47a72823","ios":"levelo://app?vid=879aa03e-ccc8-4c5b-b799-033f47a72823"},"vehicle_type_id":"4","last_reported":1712952507,"current_range_meters":0,"station_id":"ce4bgip2rcd13ifvqbb0","pricing_plan_id":"cebpf4jnsgd1na2vs0mg"},{"bike_id":"e9c07c33-4f17-438f-ae49-9c14aab3d3c5","system_id":"levelo_inurba_marseille","lat":43.297956,"lon":5.380898,"is_reserved":false,"is_disabled":false,"rental_uris":{"android":"levelo://app?vid=e9c07c33-4f17-438f-ae49-9c14aab3d3c5","ios":"levelo://app?vid=e9c07c33-4f17-438f-ae49-9c14aab3d3c5"},"vehicle_type_id":"4","last_reported":1712952507,"current_range_meters":0,"station_id":"ce4bgip2rcd13ifvqbb0","pricing_plan_id":"cebpf4jnsgd1na2vs0mg"},{"bike_id":"b9689090-87b7-455a-8c4b-ba9cc6a50446","system_id":"levelo_inurba_marseille","lat":43.297983,"lon":5.380966,"is_reserved":false,"is_disabled":false,"rental_uris":{"android":"levelo://app?vid=b9689090-87b7-455a-8c4b-ba9cc6a50446","ios":"levelo://app?vid=b9689090-87b7-455a-8c4b-ba9cc6a50446"},"vehicle_type_id":"4","last_reported":1712952507,"current_range_meters":0,"station_id":"ce4bgip2rcd13ifvqbb0","pricing_plan_id":"cebpf4jnsgd1na2vs0mg"},{"bike_id":"b64f0909-f54e-40c2-a600-da8fb808ea94","system_id":"levelo_inurba_marseille","lat":43.29799,"lon":5.38098,"is_reserved":false,"is_disabled":false,"rental_uris":{"android":"levelo://app?vid=b64f0909-f54e-40c2-a600-da8fb808ea94","ios":"levelo://app?vid=b64f0909-f54e-40c2-a600-da8fb808ea94"},"vehicle_type_id":"4","last_reported":1712952507,"current_range_meters":6000,"station_id":"ce4bgip2rcd13ifvqbb0","pricing_plan_id":"cebpf4jnsgd1na2vs0mg"},{"bike_id":"6d994eed-7d75-46d2-9db8-9515454f2438","system_id":"levelo_inurba_marseille","lat":43.297907,"lon":5.380823,"is_reserved":false,"is_disabled":false,"rental_uris":{"android":"levelo://app?vid=6d994eed-7d75-46d2-9db8-9515454f2438","ios":"levelo://app?vid=6d994eed-7d75-46d2-9db8-9515454f2438"},"vehicle_type_id":"4","last_reported":1712952507,"current_range_meters":0,"station_id":"ce4bgip2rcd13ifvqbb0","pricing_plan_id":"cebpf4jnsgd1na2vs0mg"},{"bike_id":"a6ad659c-00d5-496c-ab92-d8c1a9930c68","system_id":"levelo_inurba_marseille","lat":43.295748,"lon":5.37522,"is_reserved":false,"is_disabled":false,"rental_uris":{"android":"levelo://app?vid=a6ad659c-00d5-496c-ab92-d8c1a9930c68","ios":"levelo://app?vid=a6ad659c-00d5-496c-ab92-d8c1a9930c68"},"vehicle_type_id":"4","last_reported":1712952507,"current_range_meters":0,"station_id":"ce4bgh92rcd13ifvqb50","pricing_plan_id":"cebpf4jnsgd1na2vs0mg"},{"bike_id":"a6cf8b25-987f-4886-9fea-011fccc43ca9","system_id":"levelo_inurba_marseille","lat":43.304278,"lon":5.388868,"is_reserved":false,"is_disabled":false,"rental_uris":{"android":"levelo://app?vid=a6cf8b25-987f-4886-9fea-011fccc43ca9","ios":"levelo://app?vid=a6cf8b25-987f-4886-9fea-011fccc43ca9"},"vehicle_type_id":"4","last_reported":1712952507,"current_range_meters":22400,"station_id":"ce4bgk12rcd13ifvqbi0","pricing_plan_id":"cebpf4jnsgd1na2vs0mg"},{"bike_id":"8be375cb-df43-45bc-ae4a-86346f04d42a","system_id":"levelo_inurba_marseille","lat":43.295748,"lon":5.37522,"is_reserved":false,"is_disabled":false,"rental_uris":{"android":"levelo://app?vid=8be375cb-df43-45bc-ae4a-86346f04d42a","ios":"levelo://app?vid=8be375cb-df43-45bc-ae4a-86346f04d42a"},"vehicle_type_id":"4","last_reported":1712952507,"current_range_meters":2400,"station_id":"ce4bgh92rcd13ifvqb50","pricing_plan_id":"cebpf4jnsgd1na2vs0mg"},{"bike_id":"4fd09b75-409b-4424-9228-72ad2399a41a","system_id":"levelo_inurba_marseille","lat":43.29573,"lon":5.37528,"is_reserved":false,"is_disabled":false,"rental_uris":{"android":"levelo://app?vid=4fd09b75-409b-4424-9228-72ad2399a41a","ios":"levelo://app?vid=4fd09b75-409b-4424-9228-72ad2399a41a"},"vehicle_type_id":"4","last_reported":1712952507,"current_range_meters":0,"station_id":"ce4bgh92rcd13ifvqb50","pricing_plan_id":"cebpf4jnsgd1na2vs0mg"},{"bike_id":"a62556e6-e223-45c5-b952-3029e326cfed","system_id":"levelo_inurba_marseille","lat":43.29571,"lon":5.37524,"is_reserved":false,"is_disabled":false,"rental_uris":{"android":"levelo://app?vid=a62556e6-e223-45c5-b952-3029e326cfed","ios":"levelo://app?vid=a62556e6-e223-45c5-b952-3029e326cfed"},"vehicle_type_id":"4","last_reported":1712952507,"current_range_meters":0,"station_id":"ce4bgh92rcd13ifvqb50","pricing_plan_id":"cebpf4jnsgd1na2vs0mg"},{"bike_id":"ce053832-2fba-4259-9283-7a1b9228c173","system_id":"levelo_inurba_marseille","lat":43.304278,"lon":5.388868,"is_reserved":false,"is_disabled":false,"rental_uris":{"android":"levelo://app?vid=ce053832-2fba-4259-9283-7a1b9228c173","ios":"levelo://app?vid=ce053832-2fba-4259-9283-7a1b9228c173"},"vehicle_type_id":"4","last_reported":1712952507,"current_range_meters":400,"station_id":"ce4bgk12rcd13ifvqbi0","pricing_plan_id":"cebpf4jnsgd1na2vs0mg"},{"bike_id":"bd3fff4e-d628-467e-a8d1-3f28af8f5fbf","system_id":"levelo_inurba_marseille","lat":43.29565,"lon":5.3751,"is_reserved":false,"is_disabled":false,"rental_uris":{"android":"levelo://app?vid=bd3fff4e-d628-467e-a8d1-3f28af8f5fbf","ios":"levelo://app?vid=bd3fff4e-d628-467e-a8d1-3f28af8f5fbf"},"vehicle_type_id":"4","last_reported":1712952507,"current_range_meters":0,"station_id":"ce4bgh92rcd13ifvqb50","pricing_plan_id":"cebpf4jnsgd1na2vs0mg"},{"bike_id":"116307cc-61bd-4aab-a44e-bd4a906ffaec","system_id":"levelo_inurba_marseille","lat":43.297853,"lon":5.38114,"is_reserved":false,"is_disabled":false,"rental_uris":{"android":"levelo://app?vid=116307cc-61bd-4aab-a44e-bd4a906ffaec","ios":"levelo://app?vid=116307cc-61bd-4aab-a44e-bd4a906ffaec"},"vehicle_type_id":"4","last_reported":1712952507,"current_range_meters":9600,"station_id":"ce4bgip2rcd13ifvqbb0","pricing_plan_id":"cebpf4jnsgd1na2vs0mg"},{"bike_id":"a91b51e5-e179-4f2c-8d49-56ee77759299","system_id":"levelo_inurba_marseille","lat":43.29567,"lon":5.37531,"is_reserved":false,"is_disabled":false,"rental_uris":{"android":"levelo://app?vid=a91b51e5-e179-4f2c-8d49-56ee77759299","ios":"levelo://app?vid=a91b51e5-e179-4f2c-8d49-56ee77759299"},"vehicle_type_id":"4","last_reported":1712952507,"current_range_meters":0,"station_id":"ce4bgh92rcd13ifvqb50","pricing_plan_id":"cebpf4jnsgd1na2vs0mg"},{"bike_id":"0424096d-c520-4ab3-97a7-e87685994cba","system_id":"levelo_inurba_marseille","lat":43.296263,"lon":5.377094,"is_reserved":false,"is_disabled":false,"rental_uris":{"android":"levelo://app?vid=0424096d-c520-4ab3-97a7-e87685994cba","ios":"levelo://app?vid=0424096d-c520-4ab3-97a7-e87685994cba"},"vehicle_type_id":"4","last_reported":1712952507,"current_range_meters":0,"station_id":"ce4bgi92rcd13ifvqb90","pricing_plan_id":"cebpf4jnsgd1na2vs0mg"},{"bike_id":"3bf99d65-6b52-4a53-8529-cd83aa3242a6","system_id":"levelo_inurba_marseille","lat":43.299707,"lon":5.384859,"is_reserved":false,"is_disabled":false,"rental_uris":{"android":"levelo://app?vid=3bf99d65-6b52-4a53-8529-cd83aa3242a6","ios":"levelo://app?vid=3bf99d65-6b52-4a53-8529-cd83aa3242a6"},"vehicle_type_id":"4","last_reported":1712952507,"current_range_meters":0,"station_id":"ce4bgj92rcd13ifvqbd0","pricing_plan_id":"cebpf4jnsgd1na2vs0mg"},{"bike_id":"1e43e3c0-dd17-4a35-8a50-d71dae553703","system_id":"levelo_inurba_marseille","lat":43.29607,"lon":5.37719,"is_reserved":false,"is_disabled":false,"rental_uris":{"android":"levelo://app?vid=1e43e3c0-dd17-4a35-8a50-d71dae553703","ios":"levelo://app?vid=1e43e3c0-dd17-4a35-8a50-d71dae553703"},"vehicle_type_id":"4","last_reported":1712952507,"current_range_meters":0,"station_id":"ce4bgi92rcd13ifvqb90","pricing_plan_id":"cebpf4jnsgd1na2vs0mg"},{"bike_id":"189d9a98-2f6f-4556-94bf-4f0aa5a7d539","system_id":"levelo_inurba_marseille","lat":43.29609,"lon":5.37729,"is_reserved":false,"is_disabled":false,"rental_uris":{"android":"levelo://app?vid=189d9a98-2f6f-4556-94bf-4f0aa5a7d539","ios":"levelo://app?vid=189d9a98-2f6f-4556-94bf-4f0aa5a7d539"},"vehicle_type_id":"4","last_reported":1712952507,"current_range_meters":0,"station_id":"ce4bgi92rcd13ifvqb90","pricing_plan_id":"cebpf4jnsgd1na2vs0mg"},{"bike_id":"94601fd5-ec58-49d7-a923-3fa1a0ce8d86","system_id":"levelo_inurba_marseille","lat":43.299707,"lon":5.384859,"is_reserved":false,"is_disabled":false,"rental_uris":{"android":"levelo://app?vid=94601fd5-ec58-49d7-a923-3fa1a0ce8d86","ios":"levelo://app?vid=94601fd5-ec58-49d7-a923-3fa1a0ce8d86"},"vehicle_type_id":"4","last_reported":1712952507,"current_range_meters":29200,"station_id":"ce4bgj92rcd13ifvqbd0","pricing_plan_id":"cebpf4jnsgd1na2vs0mg"},{"bike_id":"9bce419f-e99b-4ece-90d7-104aaa0f4a97","system_id":"levelo_inurba_marseille","lat":43.2961,"lon":5.377525,"is_reserved":false,"is_disabled":false,"rental_uris":{"android":"levelo://app?vid=9bce419f-e99b-4ece-90d7-104aaa0f4a97","ios":"levelo://app?vid=9bce419f-e99b-4ece-90d7-104aaa0f4a97"},"vehicle_type_id":"4","last_reported":1712952507,"current_range_meters":0,"station_id":"ce4bgip2rcd13ifvqbb0","pricing_plan_id":"cebpf4jnsgd1na2vs0mg"},{"bike_id":"ffe02d82-65dc-4802-9b42-d7e2d3cba48e","system_id":"levelo_inurba_marseille","lat":43.29522,"lon":5.37459,"is_reserved":false,"is_disabled":false,"rental_uris":{"android":"levelo://app?vid=ffe02d82-65dc-4802-9b42-d7e2d3cba48e","ios":"levelo://app?vid=ffe02d82-65dc-4802-9b42-d7e2d3cba48e"},"vehicle_type_id":"4","last_reported":1712952507,"current_range_meters":0,"station_id":"ce4bgkp2rcd13ifvqbmg","pricing_plan_id":"cebpf4jnsgd1na2vs0mg"},{"bike_id":"1425e708-bda3-44cf-a089-1eeed91dbee4","system_id":"levelo_inurba_marseille","lat":43.323464,"lon":5.406297,"is_reserved":false,"is_disabled":false,"rental_uris":{"android":"levelo://app?vid=1425e708-bda3-44cf-a089-1eeed91dbee4","ios":"levelo://app?vid=1425e708-bda3-44cf-a089-1eeed91dbee4"},"vehicle_type_id":"4","last_reported":1712952507,"current_range_meters":18000,"station_id":"ce4bhq92rcd13ifvqhjg","pricing_plan_id":"cebpf4jnsgd1na2vs0mg"},{"bike_id":"7e7e3273-9927-47d7-b23e-d15135ee8f11","system_id":"levelo_inurba_marseille","lat":43.296263,"lon":5.377094,"is_reserved":false,"is_disabled":false,"rental_uris":{"android":"levelo://app?vid=7e7e3273-9927-47d7-b23e-d15135ee8f11","ios":"levelo://app?vid=7e7e3273-9927-47d7-b23e-d15135ee8f11"},"vehicle_type_id":"4","last_reported":1712952507,"current_range_meters":11200,"station_id":"ce4bgi92rcd13ifvqb90","pricing_plan_id":"cebpf4jnsgd1na2vs0mg"},{"bike_id":"2117d2b1-6aa6-41cd-833c-f5fe0640e0a5","system_id":"levelo_inurba_marseille","lat":43.29974,"lon":5.38488,"is_reserved":false,"is_disabled":false,"rental_uris":{"android":"levelo://app?vid=2117d2b1-6aa6-41cd-833c-f5fe0640e0a5","ios":"levelo://app?vid=2117d2b1-6aa6-41cd-833c-f5fe0640e0a5"},"vehicle_type_id":"4","last_reported":1712952507,"current_range_meters":19600,"station_id":"ce4bhgh2rcd13ifvqfb0","pricing_plan_id":"cebpf4jnsgd1na2vs0mg"},{"bike_id":"a800bbbe-a27e-4d85-a4b4-9428d394e06a","system_id":"levelo_inurba_marseille","lat":43.29519,"lon":5.37497,"is_reserved":false,"is_disabled":false,"rental_uris":{"android":"levelo://app?vid=a800bbbe-a27e-4d85-a4b4-9428d394e06a","ios":"levelo://app?vid=a800bbbe-a27e-4d85-a4b4-9428d394e06a"},"vehicle_type_id":"4","last_reported":1712952507,"current_range_meters":0,"station_id":"ce4bgkp2rcd13ifvqbmg","pricing_plan_id":"cebpf4jnsgd1na2vs0mg"},{"bike_id":"ebb71224-98b0-4287-b25d-94cccebdcc50","system_id":"levelo_inurba_marseille","lat":43.295279,"lon":5.375048,"is_reserved":false,"is_disabled":false,"rental_uris":{"android":"levelo://app?vid=ebb71224-98b0-4287-b25d-94cccebdcc50","ios":"levelo://app?vid=ebb71224-98b0-4287-b25d-94cccebdcc50"},"vehicle_type_id":"4","last_reported":1712952507,"current_range_meters":10000,"station_id":"ce4bgkp2rcd13ifvqbmg","pricing_plan_id":"cebpf4jnsgd1na2vs0mg"},{"bike_id":"fd5925c4-d173-4720-ad2b-cdbd382146d0","system_id":"levelo_inurba_marseille","lat":43.29966,"lon":5.38504,"is_reserved":false,"is_disabled":false,"rental_uris":{"android":"levelo://app?vid=fd5925c4-d173-4720-ad2b-cdbd382146d0","ios":"levelo://app?vid=fd5925c4-d173-4720-ad2b-cdbd382146d0"},"vehicle_type_id":"4","last_reported":1712952507,"current_range_meters":400,"station_id":"ce4bgj92rcd13ifvqbd0","pricing_plan_id":"cebpf4jnsgd1na2vs0mg"},{"bike_id":"03aa8b4c-881d-4d3c-8b28-e1ca4b0bd050","system_id":"levelo_inurba_marseille","lat":43.299707,"lon":5.384859,"is_reserved":false,"is_disabled":false,"rental_uris":{"android":"levelo://app?vid=03aa8b4c-881d-4d3c-8b28-e1ca4b0bd050","ios":"levelo://app?vid=03aa8b4c-881d-4d3c-8b28-e1ca4b0bd050"},"vehicle_type_id":"4","last_reported":1712952507,"current_range_meters":6800,"station_id":"ce4bgj92rcd13ifvqbd0","pricing_plan_id":"cebpf4jnsgd1na2vs0mg"},{"bike_id":"8fb9854c-8a46-473a-80c9-464b6843c098","system_id":"levelo_inurba_marseille","lat":43.299717,"lon":5.384845,"is_reserved":false,"is_disabled":false,"rental_uris":{"android":"levelo://app?vid=8fb9854c-8a46-473a-80c9-464b6843c098","ios":"levelo://app?vid=8fb9854c-8a46-473a-80c9-464b6843c098"},"vehicle_type_id":"4","last_reported":1712952507,"current_range_meters":1200,"station_id":"ce4bgj92rcd13ifvqbd0","pricing_plan_id":"cebpf4jnsgd1na2vs0mg"},{"bike_id":"039849be-780d-489b-8681-337bdd836270","system_id":"levelo_inurba_marseille","lat":43.32367,"lon":5.388836,"is_reserved":false,"is_disabled":false,"rental_uris":{"android":"levelo://app?vid=039849be-780d-489b-8681-337bdd836270","ios":"levelo://app?vid=039849be-780d-489b-8681-337bdd836270"},"vehicle_type_id":"4","last_reported":1712952507,"current_range_meters":4000,"station_id":"ce4bhqp2rcd13ifvqhog","pricing_plan_id":"cebpf4jnsgd1na2vs0mg"},{"bike_id":"78c2abf1-cc1f-4b28-bcb0-234d12481091","system_id":"levelo_inurba_marseille","lat":43.32362,"lon":5.38884,"is_reserved":false,"is_disabled":false,"rental_uris":{"android":"levelo://app?vid=78c2abf1-cc1f-4b28-bcb0-234d12481091","ios":"levelo://app?vid=78c2abf1-cc1f-4b28-bcb0-234d12481091"},"vehicle_type_id":"4","last_reported":1712952507,"current_range_meters":0,"station_id":"ce4bhqp2rcd13ifvqhog","pricing_plan_id":"cebpf4jnsgd1na2vs0mg"},{"bike_id":"f61562f9-3d2e-4bad-b4a2-f246cc318496","system_id":"levelo_inurba_marseille","lat":43.32367,"lon":5.388836,"is_reserved":false,"is_disabled":false,"rental_uris":{"android":"levelo://app?vid=f61562f9-3d2e-4bad-b4a2-f246cc318496","ios":"levelo://app?vid=f61562f9-3d2e-4bad-b4a2-f246cc318496"},"vehicle_type_id":"4","last_reported":1712952507,"current_range_meters":22400,"station_id":"ce4bhqp2rcd13ifvqhog","pricing_plan_id":"cebpf4jnsgd1na2vs0mg"},{"bike_id":"9c71595d-cead-4e17-947d-2ace0d39e986","system_id":"levelo_inurba_marseille","lat":43.32367,"lon":5.388836,"is_reserved":false,"is_disabled":false,"rental_uris":{"android":"levelo://app?vid=9c71595d-cead-4e17-947d-2ace0d39e986","ios":"levelo://app?vid=9c71595d-cead-4e17-947d-2ace0d39e986"},"vehicle_type_id":"4","last_reported":1712952507,"current_range_meters":4400,"station_id":"ce4bhqp2rcd13ifvqhog","pricing_plan_id":"cebpf4jnsgd1na2vs0mg"},{"bike_id":"f92879e8-6d15-46d6-a097-d8e8ae205312","system_id":"levelo_inurba_marseille","lat":43.32365,"lon":5.38888,"is_reserved":false,"is_disabled":false,"rental_uris":{"android":"levelo://app?vid=f92879e8-6d15-46d6-a097-d8e8ae205312","ios":"levelo://app?vid=f92879e8-6d15-46d6-a097-d8e8ae205312"},"vehicle_type_id":"4","last_reported":1712952507,"current_range_meters":3600,"station_id":"ce4bhqp2rcd13ifvqhog","pricing_plan_id":"cebpf4jnsgd1na2vs0mg"},{"bike_id":"505dc0ba-6b98-4990-a00b-e8d73d59d325","system_id":"levelo_inurba_marseille","lat":43.32367,"lon":5.388836,"is_reserved":false,"is_disabled":false,"rental_uris":{"android":"levelo://app?vid=505dc0ba-6b98-4990-a00b-e8d73d59d325","ios":"levelo://app?vid=505dc0ba-6b98-4990-a00b-e8d73d59d325"},"vehicle_type_id":"4","last_reported":1712952507,"current_range_meters":24800,"station_id":"ce4bhqp2rcd13ifvqhog","pricing_plan_id":"cebpf4jnsgd1na2vs0mg"},{"bike_id":"fe02a49c-c55e-40d0-a225-4ae35f043698","system_id":"levelo_inurba_marseille","lat":43.32367,"lon":5.388836,"is_reserved":false,"is_disabled":false,"rental_uris":{"android":"levelo://app?vid=fe02a49c-c55e-40d0-a225-4ae35f043698","ios":"levelo://app?vid=fe02a49c-c55e-40d0-a225-4ae35f043698"},"vehicle_type_id":"4","last_reported":1712952507,"current_range_meters":0,"station_id":"ce4bhqp2rcd13ifvqhog","pricing_plan_id":"cebpf4jnsgd1na2vs0mg"},{"bike_id":"1e75c24d-18eb-46d9-9e6e-354c7c094e84","system_id":"levelo_inurba_marseille","lat":43.296044,"lon":5.380975,"is_reserved":false,"is_disabled":false,"rental_uris":{"android":"levelo://app?vid=1e75c24d-18eb-46d9-9e6e-354c7c094e84","ios":"levelo://app?vid=1e75c24d-18eb-46d9-9e6e-354c7c094e84"},"vehicle_type_id":"4","last_reported":1712952507,"current_range_meters":0,"station_id":"ce4bgl12rcd13ifvqbo0","pricing_plan_id":"cebpf4jnsgd1na2vs0mg"},{"bike_id":"d72e4411-cb08-4c35-a6ca-bb7f258255f3","system_id":"levelo_inurba_marseille","lat":43.293009,"lon":5.374584,"is_reserved":false,"is_disabled":false,"rental_uris":{"android":"levelo://app?vid=d72e4411-cb08-4c35-a6ca-bb7f258255f3","ios":"levelo://app?vid=d72e4411-cb08-4c35-a6ca-bb7f258255f3"},"vehicle_type_id":"4","last_reported":1712952507,"current_range_meters":10800,"station_id":"ce4bgi12rcd13ifvqb70","pricing_plan_id":"cebpf4jnsgd1na2vs0mg"},{"bike_id":"ae71d088-0826-4e1e-b6f1-2e328a05458b","system_id":"levelo_inurba_marseille","lat":43.29303,"lon":5.37163,"is_reserved":false,"is_disabled":false,"rental_uris":{"android":"levelo://app?vid=ae71d088-0826-4e1e-b6f1-2e328a05458b","ios":"levelo://app?vid=ae71d088-0826-4e1e-b6f1-2e328a05458b"},"vehicle_type_id":"4","last_reported":1712952507,"current_range_meters":25200,"station_id":"ce4bgh92rcd13ifvqb40","pricing_plan_id":"cebpf4jnsgd1na2vs0mg"},{"bike_id":"cf7740ed-c411-48a8-9922-9e36482db016","system_id":"levelo_inurba_marseille","lat":43.29304,"lon":5.37181,"is_reserved":false,"is_disabled":false,"rental_uris":{"android":"levelo://app?vid=cf7740ed-c411-48a8-9922-9e36482db016","ios":"levelo://app?vid=cf7740ed-c411-48a8-9922-9e36482db016"},"vehicle_type_id":"4","last_reported":1712952507,"current_range_meters":4800,"station_id":"ce4bgh92rcd13ifvqb40","pricing_plan_id":"cebpf4jnsgd1na2vs0mg"},{"bike_id":"354d3de3-7e10-456b-8649-661008f4290b","system_id":"levelo_inurba_marseille","lat":43.293249,"lon":5.371578,"is_reserved":false,"is_disabled":false,"rental_uris":{"android":"levelo://app?vid=354d3de3-7e10-456b-8649-661008f4290b","ios":"levelo://app?vid=354d3de3-7e10-456b-8649-661008f4290b"},"vehicle_type_id":"4","last_reported":1712952507,"current_range_meters":0,"station_id":"ce4bgh92rcd13ifvqb40","pricing_plan_id":"cebpf4jnsgd1na2vs0mg"},{"bike_id":"4e1bf405-44e0-462c-af32-bb20d8b99a41","system_id":"levelo_inurba_marseille","lat":43.293249,"lon":5.371578,"is_reserved":false,"is_disabled":false,"rental_uris":{"android":"levelo://app?vid=4e1bf405-44e0-462c-af32-bb20d8b99a41","ios":"levelo://app?vid=4e1bf405-44e0-462c-af32-bb20d8b99a41"},"vehicle_type_id":"4","last_reported":1712952507,"current_range_meters":0,"station_id":"ce4bgh92rcd13ifvqb40","pricing_plan_id":"cebpf4jnsgd1na2vs0mg"},{"bike_id":"8f3ea1b8-4336-45a7-94df-cd9899d795cc","system_id":"levelo_inurba_marseille","lat":43.29297,"lon":5.3717,"is_reserved":false,"is_disabled":false,"rental_uris":{"android":"levelo://app?vid=8f3ea1b8-4336-45a7-94df-cd9899d795cc","ios":"levelo://app?vid=8f3ea1b8-4336-45a7-94df-cd9899d795cc"},"vehicle_type_id":"4","last_reported":1712952507,"current_range_meters":0,"station_id":"ce4bgh92rcd13ifvqb40","pricing_plan_id":"cebpf4jnsgd1na2vs0mg"},{"bike_id":"678c5173-6f30-4fa6-83a1-3293dd342bcc","system_id":"levelo_inurba_marseille","lat":43.292749,"lon":5.368402,"is_reserved":false,"is_disabled":false,"rental_uris":{"android":"levelo://app?vid=678c5173-6f30-4fa6-83a1-3293dd342bcc","ios":"levelo://app?vid=678c5173-6f30-4fa6-83a1-3293dd342bcc"},"vehicle_type_id":"4","last_reported":1712952507,"current_range_meters":0,"station_id":"ce4bhbp2rcd13ifvqesg","pricing_plan_id":"cebpf4jnsgd1na2vs0mg"},{"bike_id":"087f2df2-e292-4a70-9b55-4d51a4a9e945","system_id":"levelo_inurba_marseille","lat":43.293009,"lon":5.374584,"is_reserved":false,"is_disabled":false,"rental_uris":{"android":"levelo://app?vid=087f2df2-e292-4a70-9b55-4d51a4a9e945","ios":"levelo://app?vid=087f2df2-e292-4a70-9b55-4d51a4a9e945"},"vehicle_type_id":"4","last_reported":1712952507,"current_range_meters":1200,"station_id":"ce4bgi12rcd13ifvqb70","pricing_plan_id":"cebpf4jnsgd1na2vs0mg"},{"bike_id":"b9536f79-2f97-47ed-9709-77496d949f5d","system_id":"levelo_inurba_marseille","lat":43.29297,"lon":5.37451,"is_reserved":false,"is_disabled":false,"rental_uris":{"android":"levelo://app?vid=b9536f79-2f97-47ed-9709-77496d949f5d","ios":"levelo://app?vid=b9536f79-2f97-47ed-9709-77496d949f5d"},"vehicle_type_id":"4","last_reported":1712952507,"current_range_meters":0,"station_id":"ce4bgi12rcd13ifvqb70","pricing_plan_id":"cebpf4jnsgd1na2vs0mg"},{"bike_id":"36a60d3d-6bb5-4b16-bc10-c71596a112b0","system_id":"levelo_inurba_marseille","lat":43.29295,"lon":5.37456,"is_reserved":false,"is_disabled":false,"rental_uris":{"android":"levelo://app?vid=36a60d3d-6bb5-4b16-bc10-c71596a112b0","ios":"levelo://app?vid=36a60d3d-6bb5-4b16-bc10-c71596a112b0"},"vehicle_type_id":"4","last_reported":1712952507,"current_range_meters":0,"station_id":"ce4bgi12rcd13ifvqb70","pricing_plan_id":"cebpf4jnsgd1na2vs0mg"},{"bike_id":"9188750a-8179-4229-b11a-c7d30a99aa63","system_id":"levelo_inurba_marseille","lat":43.293795,"lon":5.378438,"is_reserved":false,"is_disabled":false,"rental_uris":{"android":"levelo://app?vid=9188750a-8179-4229-b11a-c7d30a99aa63","ios":"levelo://app?vid=9188750a-8179-4229-b11a-c7d30a99aa63"},"vehicle_type_id":"4","last_reported":1712952507,"current_range_meters":0,"station_id":"ce4bgjh2rcd13ifvqbf0","pricing_plan_id":"cebpf4jnsgd1na2vs0mg"},{"bike_id":"8db23a51-c831-4c11-a753-5c16e9330335","system_id":"levelo_inurba_marseille","lat":43.31518,"lon":5.39525,"is_reserved":false,"is_disabled":false,"rental_uris":{"android":"levelo://app?vid=8db23a51-c831-4c11-a753-5c16e9330335","ios":"levelo://app?vid=8db23a51-c831-4c11-a753-5c16e9330335"},"vehicle_type_id":"4","last_reported":1712952507,"current_range_meters":6800,"station_id":"","pricing_plan_id":"cebpf4jnsgd1na2vs0mg"},{"bike_id":"b24e5d48-f984-4b47-97e4-4512e8ae5efc","system_id":"levelo_inurba_marseille","lat":43.30301,"lon":5.39213,"is_reserved":false,"is_disabled":false,"rental_uris":{"android":"levelo://app?vid=b24e5d48-f984-4b47-97e4-4512e8ae5efc","ios":"levelo://app?vid=b24e5d48-f984-4b47-97e4-4512e8ae5efc"},"vehicle_type_id":"4","last_reported":1712952507,"current_range_meters":0,"station_id":"ce4bgkh2rcd13ifvqbk0","pricing_plan_id":"cebpf4jnsgd1na2vs0mg"},{"bike_id":"4f0be44a-c580-4852-a677-d494ea1874da","system_id":"levelo_inurba_marseille","lat":43.302992,"lon":5.392136,"is_reserved":false,"is_disabled":false,"rental_uris":{"android":"levelo://app?vid=4f0be44a-c580-4852-a677-d494ea1874da","ios":"levelo://app?vid=4f0be44a-c580-4852-a677-d494ea1874da"},"vehicle_type_id":"4","last_reported":1712952507,"current_range_meters":12800,"station_id":"ce4bgkh2rcd13ifvqbk0","pricing_plan_id":"cebpf4jnsgd1na2vs0mg"},{"bike_id":"15de141f-7057-486d-a87a-954e00886a86","system_id":"levelo_inurba_marseille","lat":43.29368,"lon":5.37855,"is_reserved":false,"is_disabled":false,"rental_uris":{"android":"levelo://app?vid=15de141f-7057-486d-a87a-954e00886a86","ios":"levelo://app?vid=15de141f-7057-486d-a87a-954e00886a86"},"vehicle_type_id":"4","last_reported":1712952507,"current_range_meters":0,"station_id":"ce4bgjh2rcd13ifvqbf0","pricing_plan_id":"cebpf4jnsgd1na2vs0mg"},{"bike_id":"83f94181-de1e-4316-a574-5b5112a59cf0","system_id":"levelo_inurba_marseille","lat":43.298764,"lon":5.388973,"is_reserved":false,"is_disabled":false,"rental_uris":{"android":"levelo://app?vid=83f94181-de1e-4316-a574-5b5112a59cf0","ios":"levelo://app?vid=83f94181-de1e-4316-a574-5b5112a59cf0"},"vehicle_type_id":"4","last_reported":1712952507,"current_range_meters":3600,"station_id":"ce4bh392rcd13ifvqdl0","pricing_plan_id":"cebpf4jnsgd1na2vs0mg"},{"bike_id":"2397688c-6d80-47d4-a6a7-cfda44fbc2b1","system_id":"levelo_inurba_marseille","lat":43.31331,"lon":5.39686,"is_reserved":false,"is_disabled":false,"rental_uris":{"android":"levelo://app?vid=2397688c-6d80-47d4-a6a7-cfda44fbc2b1","ios":"levelo://app?vid=2397688c-6d80-47d4-a6a7-cfda44fbc2b1"},"vehicle_type_id":"4","last_reported":1712952507,"current_range_meters":11600,"station_id":"ce4bgvp2rcd13ifvqcu0","pricing_plan_id":"cebpf4jnsgd1na2vs0mg"},{"bike_id":"5034db07-6e79-4069-9d84-736dc04487ff","system_id":"levelo_inurba_marseille","lat":43.29193,"lon":5.35804,"is_reserved":false,"is_disabled":false,"rental_uris":{"android":"levelo://app?vid=5034db07-6e79-4069-9d84-736dc04487ff","ios":"levelo://app?vid=5034db07-6e79-4069-9d84-736dc04487ff"},"vehicle_type_id":"4","last_reported":1712952507,"current_range_meters":0,"station_id":"ce4bhb12rcd13ifvqel0","pricing_plan_id":"cebpf4jnsgd1na2vs0mg"},{"bike_id":"5ebe0251-3709-4060-b643-9a655be0fc36","system_id":"levelo_inurba_marseille","lat":43.291994,"lon":5.357886,"is_reserved":false,"is_disabled":false,"rental_uris":{"android":"levelo://app?vid=5ebe0251-3709-4060-b643-9a655be0fc36","ios":"levelo://app?vid=5ebe0251-3709-4060-b643-9a655be0fc36"},"vehicle_type_id":"4","last_reported":1712952507,"current_range_meters":0,"station_id":"ce4bhb12rcd13ifvqel0","pricing_plan_id":"cebpf4jnsgd1na2vs0mg"},{"bike_id":"d3387c11-df87-4d87-89fd-aa125fe44f9f","system_id":"levelo_inurba_marseille","lat":43.30885,"lon":5.39643,"is_reserved":false,"is_disabled":false,"rental_uris":{"android":"levelo://app?vid=d3387c11-df87-4d87-89fd-aa125fe44f9f","ios":"levelo://app?vid=d3387c11-df87-4d87-89fd-aa125fe44f9f"},"vehicle_type_id":"4","last_reported":1712952507,"current_range_meters":0,"station_id":"ce4bh012rcd13ifvqcv0","pricing_plan_id":"cebpf4jnsgd1na2vs0mg"},{"bike_id":"bd8b0ec4-8b90-4914-83f8-be279a3eb7cd","system_id":"levelo_inurba_marseille","lat":43.2919,"lon":5.35804,"is_reserved":false,"is_disabled":false,"rental_uris":{"android":"levelo://app?vid=bd8b0ec4-8b90-4914-83f8-be279a3eb7cd","ios":"levelo://app?vid=bd8b0ec4-8b90-4914-83f8-be279a3eb7cd"},"vehicle_type_id":"4","last_reported":1712952507,"current_range_meters":0,"station_id":"ce4bhb12rcd13ifvqel0","pricing_plan_id":"cebpf4jnsgd1na2vs0mg"},{"bike_id":"a51ea956-2d0f-43f9-b4f2-c4827c123280","system_id":"levelo_inurba_marseille","lat":43.313291,"lon":5.396838,"is_reserved":false,"is_disabled":false,"rental_uris":{"android":"levelo://app?vid=a51ea956-2d0f-43f9-b4f2-c4827c123280","ios":"levelo://app?vid=a51ea956-2d0f-43f9-b4f2-c4827c123280"},"vehicle_type_id":"4","last_reported":1712952507,"current_range_meters":2400,"station_id":"ce4bgvp2rcd13ifvqcu0","pricing_plan_id":"cebpf4jnsgd1na2vs0mg"},{"bike_id":"048161bb-0211-4b3c-a03a-8d50e90cb615","system_id":"levelo_inurba_marseille","lat":43.313291,"lon":5.396838,"is_reserved":false,"is_disabled":false,"rental_uris":{"android":"levelo://app?vid=048161bb-0211-4b3c-a03a-8d50e90cb615","ios":"levelo://app?vid=048161bb-0211-4b3c-a03a-8d50e90cb615"},"vehicle_type_id":"4","last_reported":1712952507,"current_range_meters":0,"station_id":"ce4bgvp2rcd13ifvqcu0","pricing_plan_id":"cebpf4jnsgd1na2vs0mg"},{"bike_id":"63bdf672-10a7-4d1b-8736-0b1c02199199","system_id":"levelo_inurba_marseille","lat":43.309038,"lon":5.396546,"is_reserved":false,"is_disabled":false,"rental_uris":{"android":"levelo://app?vid=63bdf672-10a7-4d1b-8736-0b1c02199199","ios":"levelo://app?vid=63bdf672-10a7-4d1b-8736-0b1c02199199"},"vehicle_type_id":"4","last_reported":1712952507,"current_range_meters":13600,"station_id":"ce4bh012rcd13ifvqcv0","pricing_plan_id":"cebpf4jnsgd1na2vs0mg"},{"bike_id":"0f90ccaf-a1e8-4c8b-9185-a22ba5b6fa8e","system_id":"levelo_inurba_marseille","lat":43.309038,"lon":5.396546,"is_reserved":false,"is_disabled":false,"rental_uris":{"android":"levelo://app?vid=0f90ccaf-a1e8-4c8b-9185-a22ba5b6fa8e","ios":"levelo://app?vid=0f90ccaf-a1e8-4c8b-9185-a22ba5b6fa8e"},"vehicle_type_id":"4","last_reported":1712952507,"current_range_meters":26000,"station_id":"ce4bh012rcd13ifvqcv0","pricing_plan_id":"cebpf4jnsgd1na2vs0mg"},{"bike_id":"b3afa7ad-ec3c-47b8-a275-c8a6cd354115","system_id":"levelo_inurba_marseille","lat":43.291994,"lon":5.357886,"is_reserved":false,"is_disabled":false,"rental_uris":{"android":"levelo://app?vid=b3afa7ad-ec3c-47b8-a275-c8a6cd354115","ios":"levelo://app?vid=b3afa7ad-ec3c-47b8-a275-c8a6cd354115"},"vehicle_type_id":"4","last_reported":1712952507,"current_range_meters":0,"station_id":"ce4bhb12rcd13ifvqel0","pricing_plan_id":"cebpf4jnsgd1na2vs0mg"},{"bike_id":"745a5e9a-478d-45e8-a4df-b33f15f73280","system_id":"levelo_inurba_marseille","lat":43.313291,"lon":5.396838,"is_reserved":false,"is_disabled":false,"rental_uris":{"android":"levelo://app?vid=745a5e9a-478d-45e8-a4df-b33f15f73280","ios":"levelo://app?vid=745a5e9a-478d-45e8-a4df-b33f15f73280"},"vehicle_type_id":"4","last_reported":1712952507,"current_range_meters":1200,"station_id":"ce4bgvp2rcd13ifvqcu0","pricing_plan_id":"cebpf4jnsgd1na2vs0mg"},{"bike_id":"5eb060c1-b49f-4486-8990-6f650b967141","system_id":"levelo_inurba_marseille","lat":43.309047,"lon":5.396551,"is_reserved":false,"is_disabled":false,"rental_uris":{"android":"levelo://app?vid=5eb060c1-b49f-4486-8990-6f650b967141","ios":"levelo://app?vid=5eb060c1-b49f-4486-8990-6f650b967141"},"vehicle_type_id":"4","last_reported":1712952507,"current_range_meters":14400,"station_id":"ce4bh012rcd13ifvqcv0","pricing_plan_id":"cebpf4jnsgd1na2vs0mg"},{"bike_id":"b5213e74-c650-47cb-8e78-bf5ebd9c44ce","system_id":"levelo_inurba_marseille","lat":43.29529,"lon":5.385581,"is_reserved":false,"is_disabled":false,"rental_uris":{"android":"levelo://app?vid=b5213e74-c650-47cb-8e78-bf5ebd9c44ce","ios":"levelo://app?vid=b5213e74-c650-47cb-8e78-bf5ebd9c44ce"},"vehicle_type_id":"4","last_reported":1712952507,"current_range_meters":0,"station_id":"ce4bgih2rcd13ifvqba0","pricing_plan_id":"cebpf4jnsgd1na2vs0mg"},{"bike_id":"6d221c02-9202-4535-bbac-1ae5622ae12f","system_id":"levelo_inurba_marseille","lat":43.29529,"lon":5.385581,"is_reserved":false,"is_disabled":false,"rental_uris":{"android":"levelo://app?vid=6d221c02-9202-4535-bbac-1ae5622ae12f","ios":"levelo://app?vid=6d221c02-9202-4535-bbac-1ae5622ae12f"},"vehicle_type_id":"4","last_reported":1712952507,"current_range_meters":2000,"station_id":"ce4bgih2rcd13ifvqba0","pricing_plan_id":"cebpf4jnsgd1na2vs0mg"},{"bike_id":"460f338f-8169-417c-9225-464845cc017b","system_id":"levelo_inurba_marseille","lat":43.29529,"lon":5.385581,"is_reserved":false,"is_disabled":false,"rental_uris":{"android":"levelo://app?vid=460f338f-8169-417c-9225-464845cc017b","ios":"levelo://app?vid=460f338f-8169-417c-9225-464845cc017b"},"vehicle_type_id":"4","last_reported":1712952507,"current_range_meters":6800,"station_id":"ce4bgih2rcd13ifvqba0","pricing_plan_id":"cebpf4jnsgd1na2vs0mg"},{"bike_id":"b4df95cd-e653-4663-9189-5201eb468cc7","system_id":"levelo_inurba_marseille","lat":43.295094,"lon":5.385204,"is_reserved":false,"is_disabled":false,"rental_uris":{"android":"levelo://app?vid=b4df95cd-e653-4663-9189-5201eb468cc7","ios":"levelo://app?vid=b4df95cd-e653-4663-9189-5201eb468cc7"},"vehicle_type_id":"4","last_reported":1712952507,"current_range_meters":18400,"station_id":"ce4bgih2rcd13ifvqba0","pricing_plan_id":"cebpf4jnsgd1na2vs0mg"},{"bike_id":"9dc03b1d-a843-4ea9-ac1c-c0aa8fc9bb5e","system_id":"levelo_inurba_marseille","lat":43.29529,"lon":5.385581,"is_reserved":false,"is_disabled":false,"rental_uris":{"android":"levelo://app?vid=9dc03b1d-a843-4ea9-ac1c-c0aa8fc9bb5e","ios":"levelo://app?vid=9dc03b1d-a843-4ea9-ac1c-c0aa8fc9bb5e"},"vehicle_type_id":"4","last_reported":1712952507,"current_range_meters":14800,"station_id":"ce4bgih2rcd13ifvqba0","pricing_plan_id":"cebpf4jnsgd1na2vs0mg"},{"bike_id":"5cc473b4-5b51-4f8d-ab90-9a99164e1a61","system_id":"levelo_inurba_marseille","lat":43.290779,"lon":5.371482,"is_reserved":false,"is_disabled":false,"rental_uris":{"android":"levelo://app?vid=5cc473b4-5b51-4f8d-ab90-9a99164e1a61","ios":"levelo://app?vid=5cc473b4-5b51-4f8d-ab90-9a99164e1a61"},"vehicle_type_id":"4","last_reported":1712952507,"current_range_meters":3200,"station_id":"ce4bh5p2rcd13ifvqe4g","pricing_plan_id":"cebpf4jnsgd1na2vs0mg"},{"bike_id":"c0298621-a3a2-4ed1-a12e-dd94d8bc8505","system_id":"levelo_inurba_marseille","lat":43.29066,"lon":5.37167,"is_reserved":false,"is_disabled":false,"rental_uris":{"android":"levelo://app?vid=c0298621-a3a2-4ed1-a12e-dd94d8bc8505","ios":"levelo://app?vid=c0298621-a3a2-4ed1-a12e-dd94d8bc8505"},"vehicle_type_id":"4","last_reported":1712952507,"current_range_meters":0,"station_id":"ce4bh5p2rcd13ifvqe4g","pricing_plan_id":"cebpf4jnsgd1na2vs0mg"},{"bike_id":"eea54417-5c27-4cbd-8195-9fcb031efcc5","system_id":"levelo_inurba_marseille","lat":43.30211,"lon":5.39458,"is_reserved":false,"is_disabled":false,"rental_uris":{"android":"levelo://app?vid=eea54417-5c27-4cbd-8195-9fcb031efcc5","ios":"levelo://app?vid=eea54417-5c27-4cbd-8195-9fcb031efcc5"},"vehicle_type_id":"4","last_reported":1712952507,"current_range_meters":0,"station_id":"ce4bh0p2rcd13ifvqd70","pricing_plan_id":"cebpf4jnsgd1na2vs0mg"},{"bike_id":"c86a66a2-2508-4896-b468-e0a2371f43d6","system_id":"levelo_inurba_marseille","lat":43.294153,"lon":5.386305,"is_reserved":false,"is_disabled":false,"rental_uris":{"android":"levelo://app?vid=c86a66a2-2508-4896-b468-e0a2371f43d6","ios":"levelo://app?vid=c86a66a2-2508-4896-b468-e0a2371f43d6"},"vehicle_type_id":"4","last_reported":1712952507,"current_range_meters":20400,"station_id":"ce4bh2h2rcd13ifvqdh0","pricing_plan_id":"cebpf4jnsgd1na2vs0mg"},{"bike_id":"9f8b38e3-56cc-4550-8471-d8d15b9a8182","system_id":"levelo_inurba_marseille","lat":43.294162,"lon":5.386292,"is_reserved":false,"is_disabled":false,"rental_uris":{"android":"levelo://app?vid=9f8b38e3-56cc-4550-8471-d8d15b9a8182","ios":"levelo://app?vid=9f8b38e3-56cc-4550-8471-d8d15b9a8182"},"vehicle_type_id":"4","last_reported":1712952507,"current_range_meters":16400,"station_id":"ce4bh2h2rcd13ifvqdh0","pricing_plan_id":"cebpf4jnsgd1na2vs0mg"},{"bike_id":"f36570c0-e7d9-4908-9ab0-716a16e8b46d","system_id":"levelo_inurba_marseille","lat":43.285848,"lon":5.350787,"is_reserved":false,"is_disabled":false,"rental_uris":{"android":"levelo://app?vid=f36570c0-e7d9-4908-9ab0-716a16e8b46d","ios":"levelo://app?vid=f36570c0-e7d9-4908-9ab0-716a16e8b46d"},"vehicle_type_id":"4","last_reported":1712952507,"current_range_meters":400,"station_id":"ce4bhch2rcd13ifvqeug","pricing_plan_id":"cebpf4jnsgd1na2vs0mg"},{"bike_id":"f99f166a-5d8c-432a-b18b-bed85bdd8ef4","system_id":"levelo_inurba_marseille","lat":43.294153,"lon":5.386305,"is_reserved":false,"is_disabled":false,"rental_uris":{"android":"levelo://app?vid=f99f166a-5d8c-432a-b18b-bed85bdd8ef4","ios":"levelo://app?vid=f99f166a-5d8c-432a-b18b-bed85bdd8ef4"},"vehicle_type_id":"4","last_reported":1712952507,"current_range_meters":23600,"station_id":"ce4bh2h2rcd13ifvqdh0","pricing_plan_id":"cebpf4jnsgd1na2vs0mg"},{"bike_id":"9027bbff-d0ed-43fc-9403-b8a95e812973","system_id":"levelo_inurba_marseille","lat":43.294162,"lon":5.386292,"is_reserved":false,"is_disabled":false,"rental_uris":{"android":"levelo://app?vid=9027bbff-d0ed-43fc-9403-b8a95e812973","ios":"levelo://app?vid=9027bbff-d0ed-43fc-9403-b8a95e812973"},"vehicle_type_id":"4","last_reported":1712952507,"current_range_meters":26400,"station_id":"ce4bh2h2rcd13ifvqdh0","pricing_plan_id":"cebpf4jnsgd1na2vs0mg"},{"bike_id":"b9363927-ef37-43ee-bdb3-2754dee645bf","system_id":"levelo_inurba_marseille","lat":43.29414,"lon":5.38626,"is_reserved":false,"is_disabled":false,"rental_uris":{"android":"levelo://app?vid=b9363927-ef37-43ee-bdb3-2754dee645bf","ios":"levelo://app?vid=b9363927-ef37-43ee-bdb3-2754dee645bf"},"vehicle_type_id":"4","last_reported":1712952507,"current_range_meters":22800,"station_id":"ce4bh2h2rcd13ifvqdh0","pricing_plan_id":"cebpf4jnsgd1na2vs0mg"},{"bike_id":"e93dba11-29ea-489e-aa68-79002c97c8be","system_id":"levelo_inurba_marseille","lat":43.294162,"lon":5.386292,"is_reserved":false,"is_disabled":false,"rental_uris":{"android":"levelo://app?vid=e93dba11-29ea-489e-aa68-79002c97c8be","ios":"levelo://app?vid=e93dba11-29ea-489e-aa68-79002c97c8be"},"vehicle_type_id":"4","last_reported":1712952507,"current_range_meters":27200,"station_id":"ce4bh2h2rcd13ifvqdh0","pricing_plan_id":"cebpf4jnsgd1na2vs0mg"},{"bike_id":"7d976dfa-9f6d-40cb-a24c-b7eb245fc2a6","system_id":"levelo_inurba_marseille","lat":43.289415,"lon":5.366361,"is_reserved":false,"is_disabled":false,"rental_uris":{"android":"levelo://app?vid=7d976dfa-9f6d-40cb-a24c-b7eb245fc2a6","ios":"levelo://app?vid=7d976dfa-9f6d-40cb-a24c-b7eb245fc2a6"},"vehicle_type_id":"4","last_reported":1712952507,"current_range_meters":0,"station_id":"ce4bhap2rcd13ifvqek0","pricing_plan_id":"cebpf4jnsgd1na2vs0mg"},{"bike_id":"7f0db639-87c3-4f2c-b064-8334a7fc5958","system_id":"levelo_inurba_marseille","lat":43.294162,"lon":5.386292,"is_reserved":false,"is_disabled":false,"rental_uris":{"android":"levelo://app?vid=7f0db639-87c3-4f2c-b064-8334a7fc5958","ios":"levelo://app?vid=7f0db639-87c3-4f2c-b064-8334a7fc5958"},"vehicle_type_id":"4","last_reported":1712952507,"current_range_meters":30000,"station_id":"ce4bh2h2rcd13ifvqdh0","pricing_plan_id":"cebpf4jnsgd1na2vs0mg"},{"bike_id":"5be687ea-bb31-4ff6-a40c-ac06170d9d6f","system_id":"levelo_inurba_marseille","lat":43.294162,"lon":5.386292,"is_reserved":false,"is_disabled":false,"rental_uris":{"android":"levelo://app?vid=5be687ea-bb31-4ff6-a40c-ac06170d9d6f","ios":"levelo://app?vid=5be687ea-bb31-4ff6-a40c-ac06170d9d6f"},"vehicle_type_id":"4","last_reported":1712952507,"current_range_meters":6000,"station_id":"ce4bh2h2rcd13ifvqdh0","pricing_plan_id":"cebpf4jnsgd1na2vs0mg"},{"bike_id":"4eb2a939-5920-4c11-bb87-1905327b9081","system_id":"levelo_inurba_marseille","lat":43.294162,"lon":5.386292,"is_reserved":false,"is_disabled":false,"rental_uris":{"android":"levelo://app?vid=4eb2a939-5920-4c11-bb87-1905327b9081","ios":"levelo://app?vid=4eb2a939-5920-4c11-bb87-1905327b9081"},"vehicle_type_id":"4","last_reported":1712952507,"current_range_meters":25600,"station_id":"ce4bh2h2rcd13ifvqdh0","pricing_plan_id":"cebpf4jnsgd1na2vs0mg"},{"bike_id":"e6ce9407-952f-4aad-bc8e-17bffbcbcc1a","system_id":"levelo_inurba_marseille","lat":43.28936,"lon":5.36632,"is_reserved":false,"is_disabled":false,"rental_uris":{"android":"levelo://app?vid=e6ce9407-952f-4aad-bc8e-17bffbcbcc1a","ios":"levelo://app?vid=e6ce9407-952f-4aad-bc8e-17bffbcbcc1a"},"vehicle_type_id":"4","last_reported":1712952507,"current_range_meters":0,"station_id":"ce4bhap2rcd13ifvqek0","pricing_plan_id":"cebpf4jnsgd1na2vs0mg"},{"bike_id":"a9e0cf09-8e8b-40a6-a616-b61fa4489801","system_id":"levelo_inurba_marseille","lat":43.289468,"lon":5.363719,"is_reserved":false,"is_disabled":false,"rental_uris":{"android":"levelo://app?vid=a9e0cf09-8e8b-40a6-a616-b61fa4489801","ios":"levelo://app?vid=a9e0cf09-8e8b-40a6-a616-b61fa4489801"},"vehicle_type_id":"4","last_reported":1712952507,"current_range_meters":0,"station_id":"ce4bhc92rcd13ifvqetg","pricing_plan_id":"cebpf4jnsgd1na2vs0mg"},{"bike_id":"22bbe55a-eb6c-49ac-bd13-8d47ca41a97d","system_id":"levelo_inurba_marseille","lat":43.29265,"lon":5.38436,"is_reserved":false,"is_disabled":false,"rental_uris":{"android":"levelo://app?vid=22bbe55a-eb6c-49ac-bd13-8d47ca41a97d","ios":"levelo://app?vid=22bbe55a-eb6c-49ac-bd13-8d47ca41a97d"},"vehicle_type_id":"4","last_reported":1712952507,"current_range_meters":0,"station_id":"ce4bh692rcd13ifvqea0","pricing_plan_id":"cebpf4jnsgd1na2vs0mg"},{"bike_id":"e8c804e0-a8cd-4ed5-a39b-28f6d078d768","system_id":"levelo_inurba_marseille","lat":43.298037,"lon":5.381066,"is_reserved":false,"is_disabled":false,"rental_uris":{"android":"levelo://app?vid=e8c804e0-a8cd-4ed5-a39b-28f6d078d768","ios":"levelo://app?vid=e8c804e0-a8cd-4ed5-a39b-28f6d078d768"},"vehicle_type_id":"4","last_reported":1712952507,"current_range_meters":18400,"station_id":"ce4bgip2rcd13ifvqbb0","pricing_plan_id":"cebpf4jnsgd1na2vs0mg"},{"bike_id":"2474db0b-27af-4807-bb7c-5e495a6f8f8f","system_id":"levelo_inurba_marseille","lat":43.292644,"lon":5.384257,"is_reserved":false,"is_disabled":false,"rental_uris":{"android":"levelo://app?vid=2474db0b-27af-4807-bb7c-5e495a6f8f8f","ios":"levelo://app?vid=2474db0b-27af-4807-bb7c-5e495a6f8f8f"},"vehicle_type_id":"4","last_reported":1712952507,"current_range_meters":0,"station_id":"ce4bh692rcd13ifvqea0","pricing_plan_id":"cebpf4jnsgd1na2vs0mg"},{"bike_id":"bb8de010-9c80-4b6d-aa68-3df192ed7974","system_id":"levelo_inurba_marseille","lat":43.29266,"lon":5.38451,"is_reserved":false,"is_disabled":false,"rental_uris":{"android":"levelo://app?vid=bb8de010-9c80-4b6d-aa68-3df192ed7974","ios":"levelo://app?vid=bb8de010-9c80-4b6d-aa68-3df192ed7974"},"vehicle_type_id":"4","last_reported":1712952507,"current_range_meters":0,"station_id":"ce4bh692rcd13ifvqea0","pricing_plan_id":"cebpf4jnsgd1na2vs0mg"},{"bike_id":"f5f55ec4-ca31-4a69-bb44-227d5e428761","system_id":"levelo_inurba_marseille","lat":43.292597,"lon":5.38441,"is_reserved":false,"is_disabled":false,"rental_uris":{"android":"levelo://app?vid=f5f55ec4-ca31-4a69-bb44-227d5e428761","ios":"levelo://app?vid=f5f55ec4-ca31-4a69-bb44-227d5e428761"},"vehicle_type_id":"4","last_reported":1712952507,"current_range_meters":12000,"station_id":"ce4bh692rcd13ifvqea0","pricing_plan_id":"cebpf4jnsgd1na2vs0mg"},{"bike_id":"4ffd7572-8513-4604-9f6c-903af52dc61f","system_id":"levelo_inurba_marseille","lat":43.292603,"lon":5.38443,"is_reserved":false,"is_disabled":false,"rental_uris":{"android":"levelo://app?vid=4ffd7572-8513-4604-9f6c-903af52dc61f","ios":"levelo://app?vid=4ffd7572-8513-4604-9f6c-903af52dc61f"},"vehicle_type_id":"4","last_reported":1712952507,"current_range_meters":0,"station_id":"ce4bh692rcd13ifvqea0","pricing_plan_id":"cebpf4jnsgd1na2vs0mg"},{"bike_id":"488a2b5d-c59d-4854-9964-deaac6d36247","system_id":"levelo_inurba_marseille","lat":43.2926,"lon":5.38443,"is_reserved":false,"is_disabled":false,"rental_uris":{"android":"levelo://app?vid=488a2b5d-c59d-4854-9964-deaac6d36247","ios":"levelo://app?vid=488a2b5d-c59d-4854-9964-deaac6d36247"},"vehicle_type_id":"4","last_reported":1712952507,"current_range_meters":800,"station_id":"ce4bh692rcd13ifvqea0","pricing_plan_id":"cebpf4jnsgd1na2vs0mg"},{"bike_id":"058cb45f-2df3-4f34-988a-4fa2f2bbacbe","system_id":"levelo_inurba_marseille","lat":43.29265,"lon":5.38454,"is_reserved":false,"is_disabled":false,"rental_uris":{"android":"levelo://app?vid=058cb45f-2df3-4f34-988a-4fa2f2bbacbe","ios":"levelo://app?vid=058cb45f-2df3-4f34-988a-4fa2f2bbacbe"},"vehicle_type_id":"4","last_reported":1712952507,"current_range_meters":0,"station_id":"ce4bh692rcd13ifvqea0","pricing_plan_id":"cebpf4jnsgd1na2vs0mg"},{"bike_id":"9b1af769-5fcf-4dd4-aa07-83c67bf8f7e8","system_id":"levelo_inurba_marseille","lat":43.292566,"lon":5.384374,"is_reserved":false,"is_disabled":false,"rental_uris":{"android":"levelo://app?vid=9b1af769-5fcf-4dd4-aa07-83c67bf8f7e8","ios":"levelo://app?vid=9b1af769-5fcf-4dd4-aa07-83c67bf8f7e8"},"vehicle_type_id":"4","last_reported":1712952507,"current_range_meters":0,"station_id":"ce4bh692rcd13ifvqea0","pricing_plan_id":"cebpf4jnsgd1na2vs0mg"},{"bike_id":"c4a810e4-39d4-4697-b6cf-680fad22d5e8","system_id":"levelo_inurba_marseille","lat":43.292644,"lon":5.384257,"is_reserved":false,"is_disabled":false,"rental_uris":{"android":"levelo://app?vid=c4a810e4-39d4-4697-b6cf-680fad22d5e8","ios":"levelo://app?vid=c4a810e4-39d4-4697-b6cf-680fad22d5e8"},"vehicle_type_id":"4","last_reported":1712952507,"current_range_meters":0,"station_id":"ce4bh692rcd13ifvqea0","pricing_plan_id":"cebpf4jnsgd1na2vs0mg"},{"bike_id":"be522965-508b-48dc-af37-c1adf6236284","system_id":"levelo_inurba_marseille","lat":43.292643,"lon":5.384557,"is_reserved":false,"is_disabled":false,"rental_uris":{"android":"levelo://app?vid=be522965-508b-48dc-af37-c1adf6236284","ios":"levelo://app?vid=be522965-508b-48dc-af37-c1adf6236284"},"vehicle_type_id":"4","last_reported":1712952507,"current_range_meters":0,"station_id":"ce4bh692rcd13ifvqea0","pricing_plan_id":"cebpf4jnsgd1na2vs0mg"},{"bike_id":"3697205e-93e1-41f7-bcc1-2b8d218d8183","system_id":"levelo_inurba_marseille","lat":43.29261,"lon":5.38454,"is_reserved":false,"is_disabled":false,"rental_uris":{"android":"levelo://app?vid=3697205e-93e1-41f7-bcc1-2b8d218d8183","ios":"levelo://app?vid=3697205e-93e1-41f7-bcc1-2b8d218d8183"},"vehicle_type_id":"4","last_reported":1712952507,"current_range_meters":0,"station_id":"ce4bh692rcd13ifvqea0","pricing_plan_id":"cebpf4jnsgd1na2vs0mg"},{"bike_id":"6ba163b0-99d0-4457-a9fe-21927c038ef8","system_id":"levelo_inurba_marseille","lat":43.29262,"lon":5.38459,"is_reserved":false,"is_disabled":false,"rental_uris":{"android":"levelo://app?vid=6ba163b0-99d0-4457-a9fe-21927c038ef8","ios":"levelo://app?vid=6ba163b0-99d0-4457-a9fe-21927c038ef8"},"vehicle_type_id":"4","last_reported":1712952507,"current_range_meters":0,"station_id":"ce4bh692rcd13ifvqea0","pricing_plan_id":"cebpf4jnsgd1na2vs0mg"},{"bike_id":"a675528b-8ce7-48b6-bc6c-d41ccd861875","system_id":"levelo_inurba_marseille","lat":43.29256,"lon":5.384483,"is_reserved":false,"is_disabled":false,"rental_uris":{"android":"levelo://app?vid=a675528b-8ce7-48b6-bc6c-d41ccd861875","ios":"levelo://app?vid=a675528b-8ce7-48b6-bc6c-d41ccd861875"},"vehicle_type_id":"4","last_reported":1712952507,"current_range_meters":0,"station_id":"ce4bh692rcd13ifvqea0","pricing_plan_id":"cebpf4jnsgd1na2vs0mg"},{"bike_id":"fc98c269-5a90-4916-821b-3d49247e3c55","system_id":"levelo_inurba_marseille","lat":43.290997,"lon":5.38138,"is_reserved":false,"is_disabled":false,"rental_uris":{"android":"levelo://app?vid=fc98c269-5a90-4916-821b-3d49247e3c55","ios":"levelo://app?vid=fc98c269-5a90-4916-821b-3d49247e3c55"},"vehicle_type_id":"4","last_reported":1712952507,"current_range_meters":0,"station_id":"ce4bh512rcd13ifvqe2g","pricing_plan_id":"cebpf4jnsgd1na2vs0mg"},{"bike_id":"d0482bb0-1c32-4826-b0c4-4e4a044bff63","system_id":"levelo_inurba_marseille","lat":43.283494,"lon":5.380945,"is_reserved":false,"is_disabled":false,"rental_uris":{"android":"levelo://app?vid=d0482bb0-1c32-4826-b0c4-4e4a044bff63","ios":"levelo://app?vid=d0482bb0-1c32-4826-b0c4-4e4a044bff63"},"vehicle_type_id":"4","last_reported":1712952507,"current_range_meters":800,"station_id":"ce4bh412rcd13ifvqdr0","pricing_plan_id":"cebpf4jnsgd1na2vs0mg"},{"bike_id":"bbdf0c75-585a-41c1-a76b-eb133408cf8a","system_id":"levelo_inurba_marseille","lat":43.2479,"lon":5.374457,"is_reserved":false,"is_disabled":false,"rental_uris":{"android":"levelo://app?vid=bbdf0c75-585a-41c1-a76b-eb133408cf8a","ios":"levelo://app?vid=bbdf0c75-585a-41c1-a76b-eb133408cf8a"},"vehicle_type_id":"4","last_reported":1712952507,"current_range_meters":0,"station_id":"ce4bhgh2rcd13ifvqfb0","pricing_plan_id":"cebpf4jnsgd1na2vs0mg"},{"bike_id":"4d8b49c9-bfb8-4c9b-a49b-3cf24000529c","system_id":"levelo_inurba_marseille","lat":43.29087,"lon":5.38145,"is_reserved":false,"is_disabled":false,"rental_uris":{"android":"levelo://app?vid=4d8b49c9-bfb8-4c9b-a49b-3cf24000529c","ios":"levelo://app?vid=4d8b49c9-bfb8-4c9b-a49b-3cf24000529c"},"vehicle_type_id":"4","last_reported":1712952507,"current_range_meters":0,"station_id":"ce4bh512rcd13ifvqe2g","pricing_plan_id":"cebpf4jnsgd1na2vs0mg"},{"bike_id":"1afc4ed8-a24d-485c-a658-df9197d08ccd","system_id":"levelo_inurba_marseille","lat":43.29789,"lon":5.39343,"is_reserved":false,"is_disabled":false,"rental_uris":{"android":"levelo://app?vid=1afc4ed8-a24d-485c-a658-df9197d08ccd","ios":"levelo://app?vid=1afc4ed8-a24d-485c-a658-df9197d08ccd"},"vehicle_type_id":"4","last_reported":1712952507,"current_range_meters":0,"station_id":"chh1huq6cuj3fo74tm60","pricing_plan_id":"cebpf4jnsgd1na2vs0mg"},{"bike_id":"5dae9644-dd0f-410d-abb5-524a29880aec","system_id":"levelo_inurba_marseille","lat":43.297814,"lon":5.393513,"is_reserved":false,"is_disabled":false,"rental_uris":{"android":"levelo://app?vid=5dae9644-dd0f-410d-abb5-524a29880aec","ios":"levelo://app?vid=5dae9644-dd0f-410d-abb5-524a29880aec"},"vehicle_type_id":"4","last_reported":1712952507,"current_range_meters":0,"station_id":"chh1huq6cuj3fo74tm60","pricing_plan_id":"cebpf4jnsgd1na2vs0mg"},{"bike_id":"c8db765b-5a1c-4517-937a-fbb43060c8af","system_id":"levelo_inurba_marseille","lat":43.295169,"lon":5.390426,"is_reserved":false,"is_disabled":false,"rental_uris":{"android":"levelo://app?vid=c8db765b-5a1c-4517-937a-fbb43060c8af","ios":"levelo://app?vid=c8db765b-5a1c-4517-937a-fbb43060c8af"},"vehicle_type_id":"4","last_reported":1712952507,"current_range_meters":25600,"station_id":"ce4bh3p2rcd13ifvqdp0","pricing_plan_id":"cebpf4jnsgd1na2vs0mg"},{"bike_id":"73589ece-8658-4961-b3f6-c6305c76e099","system_id":"levelo_inurba_marseille","lat":43.289741,"lon":5.378306,"is_reserved":false,"is_disabled":false,"rental_uris":{"android":"levelo://app?vid=73589ece-8658-4961-b3f6-c6305c76e099","ios":"levelo://app?vid=73589ece-8658-4961-b3f6-c6305c76e099"},"vehicle_type_id":"4","last_reported":1712952507,"current_range_meters":12000,"station_id":"ce4bh9p2rcd13ifvqed0","pricing_plan_id":"cebpf4jnsgd1na2vs0mg"},{"bike_id":"7f1310d8-bfd6-4bcb-bd16-afdf636513a6","system_id":"levelo_inurba_marseille","lat":43.295169,"lon":5.390426,"is_reserved":false,"is_disabled":false,"rental_uris":{"android":"levelo://app?vid=7f1310d8-bfd6-4bcb-bd16-afdf636513a6","ios":"levelo://app?vid=7f1310d8-bfd6-4bcb-bd16-afdf636513a6"},"vehicle_type_id":"4","last_reported":1712952507,"current_range_meters":0,"station_id":"ce4bh3p2rcd13ifvqdp0","pricing_plan_id":"cebpf4jnsgd1na2vs0mg"},{"bike_id":"7a92c0f0-9023-4242-8f8d-911588d8f74a","system_id":"levelo_inurba_marseille","lat":43.289741,"lon":5.378306,"is_reserved":false,"is_disabled":false,"rental_uris":{"android":"levelo://app?vid=7a92c0f0-9023-4242-8f8d-911588d8f74a","ios":"levelo://app?vid=7a92c0f0-9023-4242-8f8d-911588d8f74a"},"vehicle_type_id":"4","last_reported":1712952507,"current_range_meters":0,"station_id":"ce4bh9p2rcd13ifvqed0","pricing_plan_id":"cebpf4jnsgd1na2vs0mg"},{"bike_id":"37fb42b0-8d6f-4f8b-b1df-72de5fd5ff59","system_id":"levelo_inurba_marseille","lat":43.290995,"lon":5.381361,"is_reserved":false,"is_disabled":false,"rental_uris":{"android":"levelo://app?vid=37fb42b0-8d6f-4f8b-b1df-72de5fd5ff59","ios":"levelo://app?vid=37fb42b0-8d6f-4f8b-b1df-72de5fd5ff59"},"vehicle_type_id":"4","last_reported":1712952507,"current_range_meters":2000,"station_id":"ce4bh512rcd13ifvqe2g","pricing_plan_id":"cebpf4jnsgd1na2vs0mg"},{"bike_id":"544fd192-8c26-4a9f-824a-e4c1adab3827","system_id":"levelo_inurba_marseille","lat":43.330442,"lon":5.389148,"is_reserved":false,"is_disabled":false,"rental_uris":{"android":"levelo://app?vid=544fd192-8c26-4a9f-824a-e4c1adab3827","ios":"levelo://app?vid=544fd192-8c26-4a9f-824a-e4c1adab3827"},"vehicle_type_id":"4","last_reported":1712952507,"current_range_meters":21200,"station_id":"ce4bhr92rcd13ifvqhrg","pricing_plan_id":"cebpf4jnsgd1na2vs0mg"},{"bike_id":"a996ed71-8526-4fe2-9654-1ce1b457097d","system_id":"levelo_inurba_marseille","lat":43.295169,"lon":5.390426,"is_reserved":false,"is_disabled":false,"rental_uris":{"android":"levelo://app?vid=a996ed71-8526-4fe2-9654-1ce1b457097d","ios":"levelo://app?vid=a996ed71-8526-4fe2-9654-1ce1b457097d"},"vehicle_type_id":"4","last_reported":1712952507,"current_range_meters":8400,"station_id":"ce4bh3p2rcd13ifvqdp0","pricing_plan_id":"cebpf4jnsgd1na2vs0mg"},{"bike_id":"e6c2a6d3-83a4-4387-9656-3f4593963178","system_id":"levelo_inurba_marseille","lat":43.295169,"lon":5.390426,"is_reserved":false,"is_disabled":false,"rental_uris":{"android":"levelo://app?vid=e6c2a6d3-83a4-4387-9656-3f4593963178","ios":"levelo://app?vid=e6c2a6d3-83a4-4387-9656-3f4593963178"},"vehicle_type_id":"4","last_reported":1712952507,"current_range_meters":0,"station_id":"ce4bh3p2rcd13ifvqdp0","pricing_plan_id":"cebpf4jnsgd1na2vs0mg"},{"bike_id":"906378b0-4fb7-457c-96cf-f142620800b9","system_id":"levelo_inurba_marseille","lat":43.295197,"lon":5.390487,"is_reserved":false,"is_disabled":false,"rental_uris":{"android":"levelo://app?vid=906378b0-4fb7-457c-96cf-f142620800b9","ios":"levelo://app?vid=906378b0-4fb7-457c-96cf-f142620800b9"},"vehicle_type_id":"4","last_reported":1712952507,"current_range_meters":0,"station_id":"ce4bh3p2rcd13ifvqdp0","pricing_plan_id":"cebpf4jnsgd1na2vs0mg"},{"bike_id":"d8641095-2343-4660-9560-8d15a376c480","system_id":"levelo_inurba_marseille","lat":43.290187,"lon":5.381224,"is_reserved":false,"is_disabled":false,"rental_uris":{"android":"levelo://app?vid=d8641095-2343-4660-9560-8d15a376c480","ios":"levelo://app?vid=d8641095-2343-4660-9560-8d15a376c480"},"vehicle_type_id":"4","last_reported":1712952507,"current_range_meters":0,"station_id":"ce4bh4p2rcd13ifvqe1g","pricing_plan_id":"cebpf4jnsgd1na2vs0mg"},{"bike_id":"adb63794-1fce-4f38-8a41-97dc8002b0de","system_id":"levelo_inurba_marseille","lat":43.2902,"lon":5.3814,"is_reserved":false,"is_disabled":false,"rental_uris":{"android":"levelo://app?vid=adb63794-1fce-4f38-8a41-97dc8002b0de","ios":"levelo://app?vid=adb63794-1fce-4f38-8a41-97dc8002b0de"},"vehicle_type_id":"4","last_reported":1712952507,"current_range_meters":16000,"station_id":"ce4bh4p2rcd13ifvqe1g","pricing_plan_id":"cebpf4jnsgd1na2vs0mg"},{"bike_id":"ac0303c5-f354-4b9c-a0ae-c17734f09d8c","system_id":"levelo_inurba_marseille","lat":43.290173,"lon":5.381333,"is_reserved":false,"is_disabled":false,"rental_uris":{"android":"levelo://app?vid=ac0303c5-f354-4b9c-a0ae-c17734f09d8c","ios":"levelo://app?vid=ac0303c5-f354-4b9c-a0ae-c17734f09d8c"},"vehicle_type_id":"4","last_reported":1712952507,"current_range_meters":0,"station_id":"ce4bh4p2rcd13ifvqe1g","pricing_plan_id":"cebpf4jnsgd1na2vs0mg"},{"bike_id":"ac011ba9-1b00-48f9-a9d6-afe35827dfa7","system_id":"levelo_inurba_marseille","lat":43.297794,"lon":5.370888,"is_reserved":false,"is_disabled":false,"rental_uris":{"android":"levelo://app?vid=ac011ba9-1b00-48f9-a9d6-afe35827dfa7","ios":"levelo://app?vid=ac011ba9-1b00-48f9-a9d6-afe35827dfa7"},"vehicle_type_id":"4","last_reported":1712952507,"current_range_meters":5600,"station_id":"ce4bgop2rcd13ifvqc1g","pricing_plan_id":"cebpf4jnsgd1na2vs0mg"},{"bike_id":"4000d6d8-bcbd-481e-a13b-16a46642931b","system_id":"levelo_inurba_marseille","lat":43.288477,"lon":5.3587,"is_reserved":false,"is_disabled":false,"rental_uris":{"android":"levelo://app?vid=4000d6d8-bcbd-481e-a13b-16a46642931b","ios":"levelo://app?vid=4000d6d8-bcbd-481e-a13b-16a46642931b"},"vehicle_type_id":"4","last_reported":1712952507,"current_range_meters":0,"station_id":"ce4bhb12rcd13ifvqem0","pricing_plan_id":"cebpf4jnsgd1na2vs0mg"},{"bike_id":"4bf3e806-7d2d-41eb-a92b-8f294d86849c","system_id":"levelo_inurba_marseille","lat":43.288496,"lon":5.358363,"is_reserved":false,"is_disabled":false,"rental_uris":{"android":"levelo://app?vid=4bf3e806-7d2d-41eb-a92b-8f294d86849c","ios":"levelo://app?vid=4bf3e806-7d2d-41eb-a92b-8f294d86849c"},"vehicle_type_id":"4","last_reported":1712952507,"current_range_meters":0,"station_id":"ce4bhb12rcd13ifvqem0","pricing_plan_id":"cebpf4jnsgd1na2vs0mg"},{"bike_id":"4e414983-e6eb-404e-a7ee-ee2f08c6b1c9","system_id":"levelo_inurba_marseille","lat":43.286591,"lon":5.363346,"is_reserved":false,"is_disabled":false,"rental_uris":{"android":"levelo://app?vid=4e414983-e6eb-404e-a7ee-ee2f08c6b1c9","ios":"levelo://app?vid=4e414983-e6eb-404e-a7ee-ee2f08c6b1c9"},"vehicle_type_id":"4","last_reported":1712952507,"current_range_meters":3600,"station_id":"ce4bhah2rcd13ifvqej0","pricing_plan_id":"cebpf4jnsgd1na2vs0mg"},{"bike_id":"f7290d4a-1568-4a99-bb0f-3519e7bcce82","system_id":"levelo_inurba_marseille","lat":43.312609,"lon":5.401662,"is_reserved":false,"is_disabled":false,"rental_uris":{"android":"levelo://app?vid=f7290d4a-1568-4a99-bb0f-3519e7bcce82","ios":"levelo://app?vid=f7290d4a-1568-4a99-bb0f-3519e7bcce82"},"vehicle_type_id":"4","last_reported":1712952507,"current_range_meters":2400,"station_id":"ce4bh092rcd13ifvqd30","pricing_plan_id":"cebpf4jnsgd1na2vs0mg"},{"bike_id":"91d01cf8-1bbb-4cb8-9b33-d1dddd7fba11","system_id":"levelo_inurba_marseille","lat":43.312609,"lon":5.401662,"is_reserved":false,"is_disabled":false,"rental_uris":{"android":"levelo://app?vid=91d01cf8-1bbb-4cb8-9b33-d1dddd7fba11","ios":"levelo://app?vid=91d01cf8-1bbb-4cb8-9b33-d1dddd7fba11"},"vehicle_type_id":"4","last_reported":1712952507,"current_range_meters":24000,"station_id":"ce4bh092rcd13ifvqd30","pricing_plan_id":"cebpf4jnsgd1na2vs0mg"},{"bike_id":"97551275-dfbe-403e-aacb-4be4223f6313","system_id":"levelo_inurba_marseille","lat":43.309349,"lon":5.4014,"is_reserved":false,"is_disabled":false,"rental_uris":{"android":"levelo://app?vid=97551275-dfbe-403e-aacb-4be4223f6313","ios":"levelo://app?vid=97551275-dfbe-403e-aacb-4be4223f6313"},"vehicle_type_id":"4","last_reported":1712952507,"current_range_meters":0,"station_id":"","pricing_plan_id":"cebpf4jnsgd1na2vs0mg"},{"bike_id":"b3ad4c6f-8b25-459b-bea2-76a9009393e3","system_id":"levelo_inurba_marseille","lat":43.309371,"lon":5.401449,"is_reserved":false,"is_disabled":false,"rental_uris":{"android":"levelo://app?vid=b3ad4c6f-8b25-459b-bea2-76a9009393e3","ios":"levelo://app?vid=b3ad4c6f-8b25-459b-bea2-76a9009393e3"},"vehicle_type_id":"4","last_reported":1712952507,"current_range_meters":23600,"station_id":"ce4bgvp2rcd13ifvqct0","pricing_plan_id":"cebpf4jnsgd1na2vs0mg"},{"bike_id":"1931e38e-e67e-422f-b2ab-23e2d5552a31","system_id":"levelo_inurba_marseille","lat":43.30926,"lon":5.40142,"is_reserved":false,"is_disabled":false,"rental_uris":{"android":"levelo://app?vid=1931e38e-e67e-422f-b2ab-23e2d5552a31","ios":"levelo://app?vid=1931e38e-e67e-422f-b2ab-23e2d5552a31"},"vehicle_type_id":"4","last_reported":1712952507,"current_range_meters":27600,"station_id":"ce4bgvp2rcd13ifvqct0","pricing_plan_id":"cebpf4jnsgd1na2vs0mg"},{"bike_id":"ce16d241-d4f2-4c9f-8e98-6d29581bfc19","system_id":"levelo_inurba_marseille","lat":43.309371,"lon":5.401449,"is_reserved":false,"is_disabled":false,"rental_uris":{"android":"levelo://app?vid=ce16d241-d4f2-4c9f-8e98-6d29581bfc19","ios":"levelo://app?vid=ce16d241-d4f2-4c9f-8e98-6d29581bfc19"},"vehicle_type_id":"4","last_reported":1712952507,"current_range_meters":23200,"station_id":"ce4bgvp2rcd13ifvqct0","pricing_plan_id":"cebpf4jnsgd1na2vs0mg"},{"bike_id":"60beddc7-cf7f-4566-933f-4459f4bb545c","system_id":"levelo_inurba_marseille","lat":43.312609,"lon":5.401662,"is_reserved":false,"is_disabled":false,"rental_uris":{"android":"levelo://app?vid=60beddc7-cf7f-4566-933f-4459f4bb545c","ios":"levelo://app?vid=60beddc7-cf7f-4566-933f-4459f4bb545c"},"vehicle_type_id":"4","last_reported":1712952507,"current_range_meters":5600,"station_id":"ce4bh092rcd13ifvqd30","pricing_plan_id":"cebpf4jnsgd1na2vs0mg"},{"bike_id":"a2213d62-01de-4e05-89e9-71d02344b678","system_id":"levelo_inurba_marseille","lat":43.309371,"lon":5.401449,"is_reserved":false,"is_disabled":false,"rental_uris":{"android":"levelo://app?vid=a2213d62-01de-4e05-89e9-71d02344b678","ios":"levelo://app?vid=a2213d62-01de-4e05-89e9-71d02344b678"},"vehicle_type_id":"4","last_reported":1712952507,"current_range_meters":0,"station_id":"ce4bgvp2rcd13ifvqct0","pricing_plan_id":"cebpf4jnsgd1na2vs0mg"},{"bike_id":"ff676b80-9ad6-4def-a9d2-f82e554dddce","system_id":"levelo_inurba_marseille","lat":43.309371,"lon":5.401449,"is_reserved":false,"is_disabled":false,"rental_uris":{"android":"levelo://app?vid=ff676b80-9ad6-4def-a9d2-f82e554dddce","ios":"levelo://app?vid=ff676b80-9ad6-4def-a9d2-f82e554dddce"},"vehicle_type_id":"4","last_reported":1712952507,"current_range_meters":0,"station_id":"ce4bgvp2rcd13ifvqct0","pricing_plan_id":"cebpf4jnsgd1na2vs0mg"},{"bike_id":"d3ea26f4-7d4d-45b7-8172-0133ecd9329b","system_id":"levelo_inurba_marseille","lat":43.337555,"lon":5.374566,"is_reserved":false,"is_disabled":false,"rental_uris":{"android":"levelo://app?vid=d3ea26f4-7d4d-45b7-8172-0133ecd9329b","ios":"levelo://app?vid=d3ea26f4-7d4d-45b7-8172-0133ecd9329b"},"vehicle_type_id":"4","last_reported":1712952507,"current_range_meters":26400,"station_id":"","pricing_plan_id":"cebpf4jnsgd1na2vs0mg"},{"bike_id":"774f6500-6424-427c-8133-e4987961144c","system_id":"levelo_inurba_marseille","lat":43.33754,"lon":5.374806,"is_reserved":false,"is_disabled":false,"rental_uris":{"android":"levelo://app?vid=774f6500-6424-427c-8133-e4987961144c","ios":"levelo://app?vid=774f6500-6424-427c-8133-e4987961144c"},"vehicle_type_id":"4","last_reported":1712952507,"current_range_meters":1200,"station_id":"","pricing_plan_id":"cebpf4jnsgd1na2vs0mg"},{"bike_id":"90d0dd10-17b2-43e2-9ff0-b0fc0eb6cd48","system_id":"levelo_inurba_marseille","lat":43.306412,"lon":5.401035,"is_reserved":false,"is_disabled":false,"rental_uris":{"android":"levelo://app?vid=90d0dd10-17b2-43e2-9ff0-b0fc0eb6cd48","ios":"levelo://app?vid=90d0dd10-17b2-43e2-9ff0-b0fc0eb6cd48"},"vehicle_type_id":"4","last_reported":1712952507,"current_range_meters":800,"station_id":"ce4bh112rcd13ifvqda0","pricing_plan_id":"cebpf4jnsgd1na2vs0mg"},{"bike_id":"6c490fd7-31fd-4968-b676-9894b25e01c2","system_id":"levelo_inurba_marseille","lat":43.30946,"lon":5.40184,"is_reserved":false,"is_disabled":false,"rental_uris":{"android":"levelo://app?vid=6c490fd7-31fd-4968-b676-9894b25e01c2","ios":"levelo://app?vid=6c490fd7-31fd-4968-b676-9894b25e01c2"},"vehicle_type_id":"4","last_reported":1712952507,"current_range_meters":31200,"station_id":"ce4bgvp2rcd13ifvqct0","pricing_plan_id":"cebpf4jnsgd1na2vs0mg"},{"bike_id":"1c27cabf-13d0-45a7-b222-1ad2112c9bef","system_id":"levelo_inurba_marseille","lat":43.306412,"lon":5.401035,"is_reserved":false,"is_disabled":false,"rental_uris":{"android":"levelo://app?vid=1c27cabf-13d0-45a7-b222-1ad2112c9bef","ios":"levelo://app?vid=1c27cabf-13d0-45a7-b222-1ad2112c9bef"},"vehicle_type_id":"4","last_reported":1712952507,"current_range_meters":17600,"station_id":"ce4bh112rcd13ifvqda0","pricing_plan_id":"cebpf4jnsgd1na2vs0mg"},{"bike_id":"d65697d8-3755-454d-8545-da00fc75c354","system_id":"levelo_inurba_marseille","lat":43.301117,"lon":5.398795,"is_reserved":false,"is_disabled":false,"rental_uris":{"android":"levelo://app?vid=d65697d8-3755-454d-8545-da00fc75c354","ios":"levelo://app?vid=d65697d8-3755-454d-8545-da00fc75c354"},"vehicle_type_id":"4","last_reported":1712952507,"current_range_meters":22000,"station_id":"ce4bh0h2rcd13ifvqd40","pricing_plan_id":"cebpf4jnsgd1na2vs0mg"},