{"last_updated":1769776318,"ttl":60,"version":"2.2","data":{"bikes":[{"bike_id":"19371825-a368-4982-a1c2-c5fb59d67195","system_id":"levelo_inurba_marseille","lat":43.28707,"lon":5.37372,"is_reserved":false,"is_disabled":false,"rental_uris":{"android":"levelo://app?vid=19371825-a368-4982-a1c2-c5fb59d67195","ios":"levelo://app?vid=19371825-a368-4982-a1c2-c5fb59d67195"},"vehicle_type_id":"4","last_reported":1769776318,"current_range_meters":2800,"station_id":"ce4bh3p2rcd13ifvqdq0","pricing_plan_id":"cebpf4jnsgd1na2vs0mg"},{"bike_id":"d85ff71a-0abc-43d6-8bf5-0a3c0b43e06c","system_id":"levelo_inurba_marseille","lat":43.26944,"lon":5.40259,"is_reserved":false,"is_disabled":false,"rental_uris":{"android":"levelo://app?vid=d85ff71a-0abc-43d6-8bf5-0a3c0b43e06c","ios":"levelo://app?vid=d85ff71a-0abc-43d6-8bf5-0a3c0b43e06c"},"vehicle_type_id":"4","last_reported":1769776318,"current_range_meters":2800,"station_id":"cjm6bp8fraef2m0cb0m0","pricing_plan_id":"cebpf4jnsgd1na2vs0mg"},{"bike_id":"e44d6c0d-4cdc-487c-87b1-e5cf7cd1bdd8","system_id":"levelo_inurba_marseille","lat":43.27693,"lon":5.38868,"is_reserved":false,"is_disabled":false,"rental_uris":{"android":"levelo://app?vid=e44d6c0d-4cdc-487c-87b1-e5cf7cd1bdd8","ios":"levelo://app?vid=e44d6c0d-4cdc-487c-87b1-e5cf7cd1bdd8"},"vehicle_type_id":"4","last_reported":1769776318,"current_range_meters":2800,"station_id":"ce4bhi12rcd13ifvqfo0","pricing_plan_id":"cebpf4jnsgd1na2vs0mg"},{"bike_id":"e353ce75-be3c-471a-9783-8e60ed3c0599","system_id":"levelo_inurba_marseille","lat":43.29913,"lon":5.38149,"is_reserved":false,"is_disabled":false,"rental_uris":{"android":"levelo://app?vid=e353ce75-be3c-471a-9783-8e60ed3c0599","ios":"levelo://app?vid=e353ce75-be3c-471a-9783-8e60ed3c0599"},"vehicle_type_id":"4","last_reported":1769776318,"current_range_meters":2800,"station_id":"ce4bgj12rcd13ifvqbc0","pricing_plan_id":"cebpf4jnsgd1na2vs0mg"},{"bike_id":"fed1302d-e6b3-4fff-83f6-59b9da166670","system_id":"levelo_inurba_marseille","lat":43.267,"lon":5.38272,"is_reserved":false,"is_disabled":false,"rental_uris":{"android":"levelo://app?vid=fed1302d-e6b3-4fff-83f6-59b9da166670","ios":"levelo://app?vid=fed1302d-e6b3-4fff-83f6-59b9da166670"},"vehicle_type_id":"4","last_reported":1769776318,"current_range_meters":2800,"station_id":"ce4bhg92rcd13ifvqf90","pricing_plan_id":"cebpf4jnsgd1na2vs0mg"},{"bike_id":"a7d15da4-7fbc-4c8a-9036-0b439a2a238e","system_id":"levelo_inurba_marseille","lat":43.24071,"lon":5.37757,"is_reserved":false,"is_disabled":false,"rental_uris":{"android":"levelo://app?vid=a7d15da4-7fbc-4c8a-9036-0b439a2a238e","ios":"levelo://app?vid=a7d15da4-7fbc-4c8a-9036-0b439a2a238e"},"vehicle_type_id":"4","last_reported":1769776318,"current_range_meters":2800,"station_id":"ce4bhnp2rcd13ifvqgvg","pricing_plan_id":"cebpf4jnsgd1na2vs0mg"},{"bike_id":"4bb9781d-9951-4353-8a84-40ca20f0390d","system_id":"levelo_inurba_marseille","lat":43.23154,"lon":5.43729,"is_reserved":false,"is_disabled":false,"rental_uris":{"android":"levelo://app?vid=4bb9781d-9951-4353-8a84-40ca20f0390d","ios":"levelo://app?vid=4bb9781d-9951-4353-8a84-40ca20f0390d"},"vehicle_type_id":"4","last_reported":1769776318,"current_range_meters":2800,"station_id":"ce4bhmp2rcd13ifvqgog","pricing_plan_id":"cebpf4jnsgd1na2vs0mg"},{"bike_id":"006b9a61-d99a-431d-8b41-9cea5be8d3f4","system_id":"levelo_inurba_marseille","lat":43.26228,"lon":5.37424,"is_reserved":false,"is_disabled":false,"rental_uris":{"android":"levelo://app?vid=006b9a61-d99a-431d-8b41-9cea5be8d3f4","ios":"levelo://app?vid=006b9a61-d99a-431d-8b41-9cea5be8d3f4"},"vehicle_type_id":"4","last_reported":1769776318,"current_range_meters":2800,"station_id":"","pricing_plan_id":"cebpf4jnsgd1na2vs0mg"},{"bike_id":"e2689551-b57b-4010-b47d-06fb8fe62ebb","system_id":"levelo_inurba_marseille","lat":43.30297,"lon":5.37713,"is_reserved":false,"is_disabled":false,"rental_uris":{"android":"levelo://app?vid=e2689551-b57b-4010-b47d-06fb8fe62ebb","ios":"levelo://app?vid=e2689551-b57b-4010-b47d-06fb8fe62ebb"},"vehicle_type_id":"4","last_reported":1769776318,"current_range_meters":2800,"station_id":"ce4bguh2rcd13ifvqcj0","pricing_plan_id":"cebpf4jnsgd1na2vs0mg"},{"bike_id":"dc9ee814-7f33-4fbb-a1ce-2d30e8c57914","system_id":"levelo_inurba_marseille","lat":43.22584,"lon":5.41605,"is_reserved":false,"is_disabled":false,"rental_uris":{"android":"levelo://app?vid=dc9ee814-7f33-4fbb-a1ce-2d30e8c57914","ios":"levelo://app?vid=dc9ee814-7f33-4fbb-a1ce-2d30e8c57914"},"vehicle_type_id":"4","last_reported":1769776318,"current_range_meters":2800,"station_id":"st_d2o4gvlbi1j2169b742g","pricing_plan_id":"cebpf4jnsgd1na2vs0mg"},{"bike_id":"3cbe38d2-d6ac-4281-97db-584aa42a7728","system_id":"levelo_inurba_marseille","lat":43.25872,"lon":5.39902,"is_reserved":false,"is_disabled":false,"rental_uris":{"android":"levelo://app?vid=3cbe38d2-d6ac-4281-97db-584aa42a7728","ios":"levelo://app?vid=3cbe38d2-d6ac-4281-97db-584aa42a7728"},"vehicle_type_id":"4","last_reported":1769776318,"current_range_meters":2800,"station_id":"ce4bhl92rcd13ifvqghg","pricing_plan_id":"cebpf4jnsgd1na2vs0mg"},{"bike_id":"a723bdd9-456e-4778-b497-b3be6380eb42","system_id":"levelo_inurba_marseille","lat":43.26566,"lon":5.3731,"is_reserved":false,"is_disabled":false,"rental_uris":{"android":"levelo://app?vid=a723bdd9-456e-4778-b497-b3be6380eb42","ios":"levelo://app?vid=a723bdd9-456e-4778-b497-b3be6380eb42"},"vehicle_type_id":"4","last_reported":1769776318,"current_range_meters":3200,"station_id":"ce4bhg12rcd13ifvqf70","pricing_plan_id":"cebpf4jnsgd1na2vs0mg"},{"bike_id":"a95b4716-e046-4b24-9f47-f006071598b6","system_id":"levelo_inurba_marseille","lat":43.26205,"lon":5.3746,"is_reserved":false,"is_disabled":false,"rental_uris":{"android":"levelo://app?vid=a95b4716-e046-4b24-9f47-f006071598b6","ios":"levelo://app?vid=a95b4716-e046-4b24-9f47-f006071598b6"},"vehicle_type_id":"4","last_reported":1769776318,"current_range_meters":3200,"station_id":"ce4bhgp2rcd13ifvqfc0","pricing_plan_id":"cebpf4jnsgd1na2vs0mg"},{"bike_id":"2298f315-265f-4e74-9a7f-ea8928a5c363","system_id":"levelo_inurba_marseille","lat":43.283561,"lon":5.380983,"is_reserved":false,"is_disabled":false,"rental_uris":{"android":"levelo://app?vid=2298f315-265f-4e74-9a7f-ea8928a5c363","ios":"levelo://app?vid=2298f315-265f-4e74-9a7f-ea8928a5c363"},"vehicle_type_id":"4","last_reported":1769776318,"current_range_meters":3200,"station_id":"","pricing_plan_id":"cebpf4jnsgd1na2vs0mg"},{"bike_id":"e236f0a6-2e87-48ed-94ce-e49f696f4842","system_id":"levelo_inurba_marseille","lat":43.2659,"lon":5.37507,"is_reserved":false,"is_disabled":false,"rental_uris":{"android":"levelo://app?vid=e236f0a6-2e87-48ed-94ce-e49f696f4842","ios":"levelo://app?vid=e236f0a6-2e87-48ed-94ce-e49f696f4842"},"vehicle_type_id":"4","last_reported":1769776318,"current_range_meters":3200,"station_id":"","pricing_plan_id":"cebpf4jnsgd1na2vs0mg"},{"bike_id":"6726c42e-e8c2-46d4-b05e-dde6d5bf4340","system_id":"levelo_inurba_marseille","lat":43.25946,"lon":5.40884,"is_reserved":false,"is_disabled":false,"rental_uris":{"android":"levelo://app?vid=6726c42e-e8c2-46d4-b05e-dde6d5bf4340","ios":"levelo://app?vid=6726c42e-e8c2-46d4-b05e-dde6d5bf4340"},"vehicle_type_id":"4","last_reported":1769776318,"current_range_meters":3200,"station_id":"ce4bhm92rcd13ifvqglg","pricing_plan_id":"cebpf4jnsgd1na2vs0mg"},{"bike_id":"8c1d6b92-1138-4259-82fd-05415bdea94c","system_id":"levelo_inurba_marseille","lat":43.26979,"lon":5.38607,"is_reserved":false,"is_disabled":false,"rental_uris":{"android":"levelo://app?vid=8c1d6b92-1138-4259-82fd-05415bdea94c","ios":"levelo://app?vid=8c1d6b92-1138-4259-82fd-05415bdea94c"},"vehicle_type_id":"4","last_reported":1769776318,"current_range_meters":3200,"station_id":"ce4bhh92rcd13ifvqfh0","pricing_plan_id":"cebpf4jnsgd1na2vs0mg"},{"bike_id":"8c50cc1b-6957-4db2-9b96-76d9d37bac03","system_id":"levelo_inurba_marseille","lat":43.22571,"lon":5.41621,"is_reserved":false,"is_disabled":false,"rental_uris":{"android":"levelo://app?vid=8c50cc1b-6957-4db2-9b96-76d9d37bac03","ios":"levelo://app?vid=8c50cc1b-6957-4db2-9b96-76d9d37bac03"},"vehicle_type_id":"4","last_reported":1769776318,"current_range_meters":3200,"station_id":"st_d2o4gvlbi1j2169b742g","pricing_plan_id":"cebpf4jnsgd1na2vs0mg"},{"bike_id":"ae2bd00b-86f2-42b9-8e4e-3fa74e019d82","system_id":"levelo_inurba_marseille","lat":43.23191,"lon":5.39989,"is_reserved":false,"is_disabled":false,"rental_uris":{"android":"levelo://app?vid=ae2bd00b-86f2-42b9-8e4e-3fa74e019d82","ios":"levelo://app?vid=ae2bd00b-86f2-42b9-8e4e-3fa74e019d82"},"vehicle_type_id":"4","last_reported":1769776318,"current_range_meters":3200,"station_id":"ce4bhn12rcd13ifvqgqg","pricing_plan_id":"cebpf4jnsgd1na2vs0mg"},{"bike_id":"706fe81a-bdb2-42d8-b800-5c8160b7054c","system_id":"levelo_inurba_marseille","lat":43.25366,"lon":5.42154,"is_reserved":false,"is_disabled":false,"rental_uris":{"android":"levelo://app?vid=706fe81a-bdb2-42d8-b800-5c8160b7054c","ios":"levelo://app?vid=706fe81a-bdb2-42d8-b800-5c8160b7054c"},"vehicle_type_id":"4","last_reported":1769776318,"current_range_meters":3200,"station_id":"st_d2m65c5bi1j21697t3ng","pricing_plan_id":"cebpf4jnsgd1na2vs0mg"},{"bike_id":"ee816947-afa5-43be-9e75-876dd1feb02f","system_id":"levelo_inurba_marseille","lat":43.240797,"lon":5.377553,"is_reserved":false,"is_disabled":false,"rental_uris":{"android":"levelo://app?vid=ee816947-afa5-43be-9e75-876dd1feb02f","ios":"levelo://app?vid=ee816947-afa5-43be-9e75-876dd1feb02f"},"vehicle_type_id":"4","last_reported":1769776318,"current_range_meters":3200,"station_id":"ce4bhnp2rcd13ifvqgvg","pricing_plan_id":"cebpf4jnsgd1na2vs0mg"},{"bike_id":"39753960-3c7e-4e4a-acb2-25c74c17dd07","system_id":"levelo_inurba_marseille","lat":43.22936,"lon":5.35382,"is_reserved":false,"is_disabled":false,"rental_uris":{"android":"levelo://app?vid=39753960-3c7e-4e4a-acb2-25c74c17dd07","ios":"levelo://app?vid=39753960-3c7e-4e4a-acb2-25c74c17dd07"},"vehicle_type_id":"4","last_reported":1769776318,"current_range_meters":3200,"station_id":"cpo3532slgdg3j2ikp40","pricing_plan_id":"cebpf4jnsgd1na2vs0mg"},{"bike_id":"932bb106-3c96-4dbf-947d-0b48571ad9e2","system_id":"levelo_inurba_marseille","lat":43.27378,"lon":5.36269,"is_reserved":false,"is_disabled":false,"rental_uris":{"android":"levelo://app?vid=932bb106-3c96-4dbf-947d-0b48571ad9e2","ios":"levelo://app?vid=932bb106-3c96-4dbf-947d-0b48571ad9e2"},"vehicle_type_id":"4","last_reported":1769776318,"current_range_meters":3600,"station_id":"ce4bhbh2rcd13ifvqeo0","pricing_plan_id":"cebpf4jnsgd1na2vs0mg"},{"bike_id":"14350e53-7374-4a82-9145-d963e90c79c0","system_id":"levelo_inurba_marseille","lat":43.24095,"lon":5.37742,"is_reserved":false,"is_disabled":false,"rental_uris":{"android":"levelo://app?vid=14350e53-7374-4a82-9145-d963e90c79c0","ios":"levelo://app?vid=14350e53-7374-4a82-9145-d963e90c79c0"},"vehicle_type_id":"4","last_reported":1769776318,"current_range_meters":3600,"station_id":"ce4bhnp2rcd13ifvqgvg","pricing_plan_id":"cebpf4jnsgd1na2vs0mg"},{"bike_id":"947b3f41-400e-4a7b-9150-c4b106fc2b3b","system_id":"levelo_inurba_marseille","lat":43.255815,"lon":5.382261,"is_reserved":false,"is_disabled":false,"rental_uris":{"android":"levelo://app?vid=947b3f41-400e-4a7b-9150-c4b106fc2b3b","ios":"levelo://app?vid=947b3f41-400e-4a7b-9150-c4b106fc2b3b"},"vehicle_type_id":"4","last_reported":1769776318,"current_range_meters":3600,"station_id":"ce4bhih2rcd13ifvqfs0","pricing_plan_id":"cebpf4jnsgd1na2vs0mg"},{"bike_id":"5db094de-6a86-436e-8c6e-f8afae445efb","system_id":"levelo_inurba_marseille","lat":43.28494,"lon":5.4408,"is_reserved":false,"is_disabled":false,"rental_uris":{"android":"levelo://app?vid=5db094de-6a86-436e-8c6e-f8afae445efb","ios":"levelo://app?vid=5db094de-6a86-436e-8c6e-f8afae445efb"},"vehicle_type_id":"4","last_reported":1769776318,"current_range_meters":3600,"station_id":"st_d3j3df2ikq2c7380ej80","pricing_plan_id":"cebpf4jnsgd1na2vs0mg"},{"bike_id":"abe7cc03-c298-497f-8503-33c7408838b9","system_id":"levelo_inurba_marseille","lat":43.27969,"lon":5.41042,"is_reserved":false,"is_disabled":false,"rental_uris":{"android":"levelo://app?vid=abe7cc03-c298-497f-8503-33c7408838b9","ios":"levelo://app?vid=abe7cc03-c298-497f-8503-33c7408838b9"},"vehicle_type_id":"4","last_reported":1769776318,"current_range_meters":3600,"station_id":"ce4bhnp2rcd13ifvqh0g","pricing_plan_id":"cebpf4jnsgd1na2vs0mg"},{"bike_id":"b41b4f1e-5e82-474d-88e0-8a753992949d","system_id":"levelo_inurba_marseille","lat":43.25954,"lon":5.40932,"is_reserved":false,"is_disabled":false,"rental_uris":{"android":"levelo://app?vid=b41b4f1e-5e82-474d-88e0-8a753992949d","ios":"levelo://app?vid=b41b4f1e-5e82-474d-88e0-8a753992949d"},"vehicle_type_id":"4","last_reported":1769776318,"current_range_meters":3600,"station_id":"ce4bhm92rcd13ifvqglg","pricing_plan_id":"cebpf4jnsgd1na2vs0mg"},{"bike_id":"93cb6421-bb61-475a-845a-d0f940671b6c","system_id":"levelo_inurba_marseille","lat":43.24459,"lon":5.42535,"is_reserved":false,"is_disabled":false,"rental_uris":{"android":"levelo://app?vid=93cb6421-bb61-475a-845a-d0f940671b6c","ios":"levelo://app?vid=93cb6421-bb61-475a-845a-d0f940671b6c"},"vehicle_type_id":"4","last_reported":1769776318,"current_range_meters":4000,"station_id":"","pricing_plan_id":"cebpf4jnsgd1na2vs0mg"},{"bike_id":"0edb73c2-0d71-41ef-92a0-39c6197600e4","system_id":"levelo_inurba_marseille","lat":43.2706,"lon":5.38292,"is_reserved":false,"is_disabled":false,"rental_uris":{"android":"levelo://app?vid=0edb73c2-0d71-41ef-92a0-39c6197600e4","ios":"levelo://app?vid=0edb73c2-0d71-41ef-92a0-39c6197600e4"},"vehicle_type_id":"4","last_reported":1769776318,"current_range_meters":4000,"station_id":"st_d3n2fo6cfp8s73cte1j0","pricing_plan_id":"cebpf4jnsgd1na2vs0mg"},{"bike_id":"1e1b2d31-1295-4191-9d05-650830a76117","system_id":"levelo_inurba_marseille","lat":43.301463,"lon":5.415048,"is_reserved":false,"is_disabled":false,"rental_uris":{"android":"levelo://app?vid=1e1b2d31-1295-4191-9d05-650830a76117","ios":"levelo://app?vid=1e1b2d31-1295-4191-9d05-650830a76117"},"vehicle_type_id":"4","last_reported":1769776318,"current_range_meters":4000,"station_id":"","pricing_plan_id":"cebpf4jnsgd1na2vs0mg"},{"bike_id":"d43c5a38-7847-4606-841d-59cea72271f9","system_id":"levelo_inurba_marseille","lat":43.269408,"lon":5.386382,"is_reserved":false,"is_disabled":false,"rental_uris":{"android":"levelo://app?vid=d43c5a38-7847-4606-841d-59cea72271f9","ios":"levelo://app?vid=d43c5a38-7847-4606-841d-59cea72271f9"},"vehicle_type_id":"4","last_reported":1769776318,"current_range_meters":4000,"station_id":"ce4bhh92rcd13ifvqfh0","pricing_plan_id":"cebpf4jnsgd1na2vs0mg"},{"bike_id":"71ea06b7-46c1-4fc9-a594-153d92364656","system_id":"levelo_inurba_marseille","lat":43.30732,"lon":5.40971,"is_reserved":false,"is_disabled":false,"rental_uris":{"android":"levelo://app?vid=71ea06b7-46c1-4fc9-a594-153d92364656","ios":"levelo://app?vid=71ea06b7-46c1-4fc9-a594-153d92364656"},"vehicle_type_id":"4","last_reported":1769776318,"current_range_meters":4000,"station_id":"","pricing_plan_id":"cebpf4jnsgd1na2vs0mg"},{"bike_id":"4bd6cb39-f26e-431f-9c48-bc9838a79167","system_id":"levelo_inurba_marseille","lat":43.29821,"lon":5.44066,"is_reserved":false,"is_disabled":false,"rental_uris":{"android":"levelo://app?vid=4bd6cb39-f26e-431f-9c48-bc9838a79167","ios":"levelo://app?vid=4bd6cb39-f26e-431f-9c48-bc9838a79167"},"vehicle_type_id":"4","last_reported":1769776318,"current_range_meters":4000,"station_id":"st_d3jp68qikq2c7381ktn0","pricing_plan_id":"cebpf4jnsgd1na2vs0mg"},{"bike_id":"3f303823-ea51-48ed-a165-8b84cc390df0","system_id":"levelo_inurba_marseille","lat":43.24393,"lon":5.37075,"is_reserved":false,"is_disabled":false,"rental_uris":{"android":"levelo://app?vid=3f303823-ea51-48ed-a165-8b84cc390df0","ios":"levelo://app?vid=3f303823-ea51-48ed-a165-8b84cc390df0"},"vehicle_type_id":"4","last_reported":1769776318,"current_range_meters":4400,"station_id":"ce4bhhh2rcd13ifvqfk0","pricing_plan_id":"cebpf4jnsgd1na2vs0mg"},{"bike_id":"aa753bb7-bd6b-47c5-ab34-4be181563e55","system_id":"levelo_inurba_marseille","lat":43.31044,"lon":5.37186,"is_reserved":false,"is_disabled":false,"rental_uris":{"android":"levelo://app?vid=aa753bb7-bd6b-47c5-ab34-4be181563e55","ios":"levelo://app?vid=aa753bb7-bd6b-47c5-ab34-4be181563e55"},"vehicle_type_id":"4","last_reported":1769776318,"current_range_meters":4400,"station_id":"st_d4kl2rp97mjs73e7tdfg","pricing_plan_id":"cebpf4jnsgd1na2vs0mg"},{"bike_id":"14ad4359-d217-40c8-bc15-7989600afabe","system_id":"levelo_inurba_marseille","lat":43.28403,"lon":5.40736,"is_reserved":false,"is_disabled":false,"rental_uris":{"android":"levelo://app?vid=14ad4359-d217-40c8-bc15-7989600afabe","ios":"levelo://app?vid=14ad4359-d217-40c8-bc15-7989600afabe"},"vehicle_type_id":"4","last_reported":1769776318,"current_range_meters":4400,"station_id":"","pricing_plan_id":"cebpf4jnsgd1na2vs0mg"},{"bike_id":"0113fde2-16ba-483c-9656-720494edd7bf","system_id":"levelo_inurba_marseille","lat":43.23124,"lon":5.43711,"is_reserved":false,"is_disabled":false,"rental_uris":{"android":"levelo://app?vid=0113fde2-16ba-483c-9656-720494edd7bf","ios":"levelo://app?vid=0113fde2-16ba-483c-9656-720494edd7bf"},"vehicle_type_id":"4","last_reported":1769776318,"current_range_meters":4400,"station_id":"ce4bhmp2rcd13ifvqgog","pricing_plan_id":"cebpf4jnsgd1na2vs0mg"},{"bike_id":"1f755860-409f-4a10-b291-9ec23e0168ea","system_id":"levelo_inurba_marseille","lat":43.31379,"lon":5.38506,"is_reserved":false,"is_disabled":false,"rental_uris":{"android":"levelo://app?vid=1f755860-409f-4a10-b291-9ec23e0168ea","ios":"levelo://app?vid=1f755860-409f-4a10-b291-9ec23e0168ea"},"vehicle_type_id":"4","last_reported":1769776318,"current_range_meters":4400,"station_id":"ce4bgt92rcd13ifvqcf0","pricing_plan_id":"cebpf4jnsgd1na2vs0mg"},{"bike_id":"189b5eb9-954b-4512-8c31-5e0e8af132bc","system_id":"levelo_inurba_marseille","lat":43.281468,"lon":5.426429,"is_reserved":false,"is_disabled":false,"rental_uris":{"android":"levelo://app?vid=189b5eb9-954b-4512-8c31-5e0e8af132bc","ios":"levelo://app?vid=189b5eb9-954b-4512-8c31-5e0e8af132bc"},"vehicle_type_id":"4","last_reported":1769776318,"current_range_meters":4400,"station_id":"ce4bhnh2rcd13ifvqgug","pricing_plan_id":"cebpf4jnsgd1na2vs0mg"},{"bike_id":"25a9226a-9193-4bb4-8ad1-0a617754bee3","system_id":"levelo_inurba_marseille","lat":43.28528,"lon":5.44103,"is_reserved":false,"is_disabled":false,"rental_uris":{"android":"levelo://app?vid=25a9226a-9193-4bb4-8ad1-0a617754bee3","ios":"levelo://app?vid=25a9226a-9193-4bb4-8ad1-0a617754bee3"},"vehicle_type_id":"4","last_reported":1769776318,"current_range_meters":4400,"station_id":"","pricing_plan_id":"cebpf4jnsgd1na2vs0mg"},{"bike_id":"0d2f0ee0-5aae-4e87-86ee-03a67b377d6a","system_id":"levelo_inurba_marseille","lat":43.28206,"lon":5.39045,"is_reserved":false,"is_disabled":false,"rental_uris":{"android":"levelo://app?vid=0d2f0ee0-5aae-4e87-86ee-03a67b377d6a","ios":"levelo://app?vid=0d2f0ee0-5aae-4e87-86ee-03a67b377d6a"},"vehicle_type_id":"4","last_reported":1769776318,"current_range_meters":4400,"station_id":"ce4bhn92rcd13ifvqgsg","pricing_plan_id":"cebpf4jnsgd1na2vs0mg"},{"bike_id":"3c0a4f5b-f91e-4c02-ae6d-858f0316e6f4","system_id":"levelo_inurba_marseille","lat":43.27659,"lon":5.38922,"is_reserved":false,"is_disabled":false,"rental_uris":{"android":"levelo://app?vid=3c0a4f5b-f91e-4c02-ae6d-858f0316e6f4","ios":"levelo://app?vid=3c0a4f5b-f91e-4c02-ae6d-858f0316e6f4"},"vehicle_type_id":"4","last_reported":1769776318,"current_range_meters":4800,"station_id":"ce4bhi12rcd13ifvqfo0","pricing_plan_id":"cebpf4jnsgd1na2vs0mg"},{"bike_id":"d9b6343b-4e87-445f-8063-2fce9657168c","system_id":"levelo_inurba_marseille","lat":43.30428,"lon":5.37562,"is_reserved":false,"is_disabled":false,"rental_uris":{"android":"levelo://app?vid=d9b6343b-4e87-445f-8063-2fce9657168c","ios":"levelo://app?vid=d9b6343b-4e87-445f-8063-2fce9657168c"},"vehicle_type_id":"4","last_reported":1769776318,"current_range_meters":4800,"station_id":"","pricing_plan_id":"cebpf4jnsgd1na2vs0mg"},{"bike_id":"82693396-ff61-48ee-9772-fee51d6503d4","system_id":"levelo_inurba_marseille","lat":43.29552,"lon":5.42278,"is_reserved":false,"is_disabled":false,"rental_uris":{"android":"levelo://app?vid=82693396-ff61-48ee-9772-fee51d6503d4","ios":"levelo://app?vid=82693396-ff61-48ee-9772-fee51d6503d4"},"vehicle_type_id":"4","last_reported":1769776318,"current_range_meters":4800,"station_id":"ce4bhph2rcd13ifvqhdg","pricing_plan_id":"cebpf4jnsgd1na2vs0mg"},{"bike_id":"ee0ccf3c-ca54-4417-ab13-6c458bb1ef21","system_id":"levelo_inurba_marseille","lat":43.31133,"lon":5.4049,"is_reserved":false,"is_disabled":false,"rental_uris":{"android":"levelo://app?vid=ee0ccf3c-ca54-4417-ab13-6c458bb1ef21","ios":"levelo://app?vid=ee0ccf3c-ca54-4417-ab13-6c458bb1ef21"},"vehicle_type_id":"4","last_reported":1769776318,"current_range_meters":4800,"station_id":"","pricing_plan_id":"cebpf4jnsgd1na2vs0mg"},{"bike_id":"5006f46d-0f1e-48de-8c1e-241cd033cff5","system_id":"levelo_inurba_marseille","lat":43.24395,"lon":5.37058,"is_reserved":false,"is_disabled":false,"rental_uris":{"android":"levelo://app?vid=5006f46d-0f1e-48de-8c1e-241cd033cff5","ios":"levelo://app?vid=5006f46d-0f1e-48de-8c1e-241cd033cff5"},"vehicle_type_id":"4","last_reported":1769776318,"current_range_meters":4800,"station_id":"ce4bhhh2rcd13ifvqfk0","pricing_plan_id":"cebpf4jnsgd1na2vs0mg"},{"bike_id":"eb2c4fc1-4093-465b-bb55-9744428449c1","system_id":"levelo_inurba_marseille","lat":43.28676,"lon":5.37893,"is_reserved":false,"is_disabled":false,"rental_uris":{"android":"levelo://app?vid=eb2c4fc1-4093-465b-bb55-9744428449c1","ios":"levelo://app?vid=eb2c4fc1-4093-465b-bb55-9744428449c1"},"vehicle_type_id":"4","last_reported":1769776318,"current_range_meters":4800,"station_id":"ce4bh9p2rcd13ifvqec0","pricing_plan_id":"cebpf4jnsgd1na2vs0mg"},{"bike_id":"56687f89-6e73-4dc6-8baa-ea6ba19c377d","system_id":"levelo_inurba_marseille","lat":43.307865,"lon":5.381699,"is_reserved":false,"is_disabled":false,"rental_uris":{"android":"levelo://app?vid=56687f89-6e73-4dc6-8baa-ea6ba19c377d","ios":"levelo://app?vid=56687f89-6e73-4dc6-8baa-ea6ba19c377d"},"vehicle_type_id":"4","last_reported":1769776318,"current_range_meters":4800,"station_id":"ce4bgt12rcd13ifvqce0","pricing_plan_id":"cebpf4jnsgd1na2vs0mg"},{"bike_id":"8bd2dedc-53b6-4a9b-b341-e8ab2dec2237","system_id":"levelo_inurba_marseille","lat":43.24651,"lon":5.43125,"is_reserved":false,"is_disabled":false,"rental_uris":{"android":"levelo://app?vid=8bd2dedc-53b6-4a9b-b341-e8ab2dec2237","ios":"levelo://app?vid=8bd2dedc-53b6-4a9b-b341-e8ab2dec2237"},"vehicle_type_id":"4","last_reported":1769776318,"current_range_meters":4800,"station_id":"st_d2m6c4gdas8pm72e190g","pricing_plan_id":"cebpf4jnsgd1na2vs0mg"},{"bike_id":"8124257b-86e4-4773-9928-40b9e517b1e7","system_id":"levelo_inurba_marseille","lat":43.24472,"lon":5.42537,"is_reserved":false,"is_disabled":false,"rental_uris":{"android":"levelo://app?vid=8124257b-86e4-4773-9928-40b9e517b1e7","ios":"levelo://app?vid=8124257b-86e4-4773-9928-40b9e517b1e7"},"vehicle_type_id":"4","last_reported":1769776318,"current_range_meters":5600,"station_id":"st_d4a3vfp97mjs738cd8kg","pricing_plan_id":"cebpf4jnsgd1na2vs0mg"},{"bike_id":"4628337d-b95b-4dd3-91f9-8f679c02183c","system_id":"levelo_inurba_marseille","lat":43.24657,"lon":5.3816,"is_reserved":false,"is_disabled":false,"rental_uris":{"android":"levelo://app?vid=4628337d-b95b-4dd3-91f9-8f679c02183c","ios":"levelo://app?vid=4628337d-b95b-4dd3-91f9-8f679c02183c"},"vehicle_type_id":"4","last_reported":1769776318,"current_range_meters":5600,"station_id":"ce4bhih2rcd13ifvqfr0","pricing_plan_id":"cebpf4jnsgd1na2vs0mg"},{"bike_id":"6f2111dd-6b6a-402c-9729-62f7313dcc5e","system_id":"levelo_inurba_marseille","lat":43.323524,"lon":5.367517,"is_reserved":false,"is_disabled":false,"rental_uris":{"android":"levelo://app?vid=6f2111dd-6b6a-402c-9729-62f7313dcc5e","ios":"levelo://app?vid=6f2111dd-6b6a-402c-9729-62f7313dcc5e"},"vehicle_type_id":"4","last_reported":1769776318,"current_range_meters":5600,"station_id":"ce4bhsh2rcd13ifvqi2g","pricing_plan_id":"cebpf4jnsgd1na2vs0mg"},{"bike_id":"5c47bad4-ab60-4d29-a2dd-cbdfb81cb873","system_id":"levelo_inurba_marseille","lat":43.28341,"lon":5.38101,"is_reserved":false,"is_disabled":false,"rental_uris":{"android":"levelo://app?vid=5c47bad4-ab60-4d29-a2dd-cbdfb81cb873","ios":"levelo://app?vid=5c47bad4-ab60-4d29-a2dd-cbdfb81cb873"},"vehicle_type_id":"4","last_reported":1769776318,"current_range_meters":5600,"station_id":"ce4bh412rcd13ifvqdr0","pricing_plan_id":"cebpf4jnsgd1na2vs0mg"},{"bike_id":"cdd2454c-1f24-4e68-b68b-eb5ad22e91c8","system_id":"levelo_inurba_marseille","lat":43.28928,"lon":5.39625,"is_reserved":false,"is_disabled":false,"rental_uris":{"android":"levelo://app?vid=cdd2454c-1f24-4e68-b68b-eb5ad22e91c8","ios":"levelo://app?vid=cdd2454c-1f24-4e68-b68b-eb5ad22e91c8"},"vehicle_type_id":"4","last_reported":1769776318,"current_range_meters":5600,"station_id":"ce4bh3h2rcd13ifvqdn0","pricing_plan_id":"cebpf4jnsgd1na2vs0mg"},{"bike_id":"a0d1246f-02ec-43f4-a576-be2ae57edad2","system_id":"levelo_inurba_marseille","lat":43.24391,"lon":5.37048,"is_reserved":false,"is_disabled":false,"rental_uris":{"android":"levelo://app?vid=a0d1246f-02ec-43f4-a576-be2ae57edad2","ios":"levelo://app?vid=a0d1246f-02ec-43f4-a576-be2ae57edad2"},"vehicle_type_id":"4","last_reported":1769776318,"current_range_meters":5600,"station_id":"ce4bhhh2rcd13ifvqfk0","pricing_plan_id":"cebpf4jnsgd1na2vs0mg"},{"bike_id":"83bbeac1-b4c2-4835-91cb-013728be84c8","system_id":"levelo_inurba_marseille","lat":43.29894,"lon":5.39117,"is_reserved":false,"is_disabled":true,"rental_uris":{"android":"levelo://app?vid=83bbeac1-b4c2-4835-91cb-013728be84c8","ios":"levelo://app?vid=83bbeac1-b4c2-4835-91cb-013728be84c8"},"vehicle_type_id":"4","last_reported":1769776318,"current_range_meters":5600,"station_id":"","pricing_plan_id":"cebpf4jnsgd1na2vs0mg"},{"bike_id":"5c1bebe8-43bf-476b-a01e-98bad8762f0c","system_id":"levelo_inurba_marseille","lat":43.24626,"lon":5.43145,"is_reserved":false,"is_disabled":false,"rental_uris":{"android":"levelo://app?vid=5c1bebe8-43bf-476b-a01e-98bad8762f0c","ios":"levelo://app?vid=5c1bebe8-43bf-476b-a01e-98bad8762f0c"},"vehicle_type_id":"4","last_reported":1769776318,"current_range_meters":5600,"station_id":"st_d2m6c4gdas8pm72e190g","pricing_plan_id":"cebpf4jnsgd1na2vs0mg"},{"bike_id":"f479a039-8033-47b9-816f-8d6e23143401","system_id":"levelo_inurba_marseille","lat":43.24823,"lon":5.37432,"is_reserved":false,"is_disabled":false,"rental_uris":{"android":"levelo://app?vid=f479a039-8033-47b9-816f-8d6e23143401","ios":"levelo://app?vid=f479a039-8033-47b9-816f-8d6e23143401"},"vehicle_type_id":"4","last_reported":1769776318,"current_range_meters":5600,"station_id":"ce4bhgh2rcd13ifvqfb0","pricing_plan_id":"cebpf4jnsgd1na2vs0mg"},{"bike_id":"4ae697cd-fb11-40c2-ab8f-53d4334f67ae","system_id":"levelo_inurba_marseille","lat":43.2986,"lon":5.38665,"is_reserved":false,"is_disabled":false,"rental_uris":{"android":"levelo://app?vid=4ae697cd-fb11-40c2-ab8f-53d4334f67ae","ios":"levelo://app?vid=4ae697cd-fb11-40c2-ab8f-53d4334f67ae"},"vehicle_type_id":"4","last_reported":1769776318,"current_range_meters":5600,"station_id":"","pricing_plan_id":"cebpf4jnsgd1na2vs0mg"},{"bike_id":"e04521ca-ce5b-4911-93eb-efa07b2cc503","system_id":"levelo_inurba_marseille","lat":43.29498,"lon":5.43305,"is_reserved":false,"is_disabled":false,"rental_uris":{"android":"levelo://app?vid=e04521ca-ce5b-4911-93eb-efa07b2cc503","ios":"levelo://app?vid=e04521ca-ce5b-4911-93eb-efa07b2cc503"},"vehicle_type_id":"4","last_reported":1769776318,"current_range_meters":5600,"station_id":"st_d3j5ugp08ojc73fj9d10","pricing_plan_id":"cebpf4jnsgd1na2vs0mg"},{"bike_id":"3dc504de-340a-4960-9295-e93227b46b5e","system_id":"levelo_inurba_marseille","lat":43.32104,"lon":5.36792,"is_reserved":false,"is_disabled":false,"rental_uris":{"android":"levelo://app?vid=3dc504de-340a-4960-9295-e93227b46b5e","ios":"levelo://app?vid=3dc504de-340a-4960-9295-e93227b46b5e"},"vehicle_type_id":"4","last_reported":1769776318,"current_range_meters":5600,"station_id":"ce4bhrh2rcd13ifvqhug","pricing_plan_id":"cebpf4jnsgd1na2vs0mg"},{"bike_id":"7529c937-77dc-4715-8a89-50b7457f4baa","system_id":"levelo_inurba_marseille","lat":43.25926,"lon":5.40902,"is_reserved":false,"is_disabled":true,"rental_uris":{"android":"levelo://app?vid=7529c937-77dc-4715-8a89-50b7457f4baa","ios":"levelo://app?vid=7529c937-77dc-4715-8a89-50b7457f4baa"},"vehicle_type_id":"4","last_reported":1769776318,"current_range_meters":6000,"station_id":"ce4bhm92rcd13ifvqglg","pricing_plan_id":"cebpf4jnsgd1na2vs0mg"},{"bike_id":"7ded03bd-1509-4878-b254-84593fe368f4","system_id":"levelo_inurba_marseille","lat":43.30958,"lon":5.39034,"is_reserved":false,"is_disabled":false,"rental_uris":{"android":"levelo://app?vid=7ded03bd-1509-4878-b254-84593fe368f4","ios":"levelo://app?vid=7ded03bd-1509-4878-b254-84593fe368f4"},"vehicle_type_id":"4","last_reported":1769776318,"current_range_meters":6000,"station_id":"ce4bgup2rcd13ifvqco0","pricing_plan_id":"cebpf4jnsgd1na2vs0mg"},{"bike_id":"83fc5387-9bd8-4dec-804d-abfa877a86a6","system_id":"levelo_inurba_marseille","lat":43.2983,"lon":5.44073,"is_reserved":false,"is_disabled":false,"rental_uris":{"android":"levelo://app?vid=83fc5387-9bd8-4dec-804d-abfa877a86a6","ios":"levelo://app?vid=83fc5387-9bd8-4dec-804d-abfa877a86a6"},"vehicle_type_id":"4","last_reported":1769776318,"current_range_meters":6000,"station_id":"","pricing_plan_id":"cebpf4jnsgd1na2vs0mg"},{"bike_id":"bd889336-68ff-4f09-8c88-588306cf9fc6","system_id":"levelo_inurba_marseille","lat":43.271,"lon":5.40302,"is_reserved":false,"is_disabled":false,"rental_uris":{"android":"levelo://app?vid=bd889336-68ff-4f09-8c88-588306cf9fc6","ios":"levelo://app?vid=bd889336-68ff-4f09-8c88-588306cf9fc6"},"vehicle_type_id":"4","last_reported":1769776318,"current_range_meters":6000,"station_id":"","pricing_plan_id":"cebpf4jnsgd1na2vs0mg"},{"bike_id":"7a4412cf-c498-4121-be46-049419c026d4","system_id":"levelo_inurba_marseille","lat":43.27943,"lon":5.41039,"is_reserved":false,"is_disabled":false,"rental_uris":{"android":"levelo://app?vid=7a4412cf-c498-4121-be46-049419c026d4","ios":"levelo://app?vid=7a4412cf-c498-4121-be46-049419c026d4"},"vehicle_type_id":"4","last_reported":1769776318,"current_range_meters":6000,"station_id":"ce4bhnp2rcd13ifvqh0g","pricing_plan_id":"cebpf4jnsgd1na2vs0mg"},{"bike_id":"0bbd490c-c747-44f1-8c3d-fd64007af3b3","system_id":"levelo_inurba_marseille","lat":43.28661,"lon":5.36368,"is_reserved":false,"is_disabled":false,"rental_uris":{"android":"levelo://app?vid=0bbd490c-c747-44f1-8c3d-fd64007af3b3","ios":"levelo://app?vid=0bbd490c-c747-44f1-8c3d-fd64007af3b3"},"vehicle_type_id":"4","last_reported":1769776318,"current_range_meters":6000,"station_id":"ce4bhah2rcd13ifvqej0","pricing_plan_id":"cebpf4jnsgd1na2vs0mg"},{"bike_id":"ec89d990-6a97-4b50-8a2f-28dcbf9a66ad","system_id":"levelo_inurba_marseille","lat":43.31196,"lon":5.38728,"is_reserved":false,"is_disabled":false,"rental_uris":{"android":"levelo://app?vid=ec89d990-6a97-4b50-8a2f-28dcbf9a66ad","ios":"levelo://app?vid=ec89d990-6a97-4b50-8a2f-28dcbf9a66ad"},"vehicle_type_id":"4","last_reported":1769776318,"current_range_meters":6000,"station_id":"ce4bgv12rcd13ifvqcp0","pricing_plan_id":"cebpf4jnsgd1na2vs0mg"},{"bike_id":"b93f36af-6012-4250-a69f-3de373ca3510","system_id":"levelo_inurba_marseille","lat":43.282739,"lon":5.350797,"is_reserved":false,"is_disabled":false,"rental_uris":{"android":"levelo://app?vid=b93f36af-6012-4250-a69f-3de373ca3510","ios":"levelo://app?vid=b93f36af-6012-4250-a69f-3de373ca3510"},"vehicle_type_id":"4","last_reported":1769776318,"current_range_meters":6000,"station_id":"ce4bhbp2rcd13ifvqerg","pricing_plan_id":"cebpf4jnsgd1na2vs0mg"},{"bike_id":"7714d863-1c60-4efa-a925-44984599d482","system_id":"levelo_inurba_marseille","lat":43.29762,"lon":5.427783,"is_reserved":false,"is_disabled":false,"rental_uris":{"android":"levelo://app?vid=7714d863-1c60-4efa-a925-44984599d482","ios":"levelo://app?vid=7714d863-1c60-4efa-a925-44984599d482"},"vehicle_type_id":"4","last_reported":1769776318,"current_range_meters":6000,"station_id":"st_d3md5207bmas73dh9klg","pricing_plan_id":"cebpf4jnsgd1na2vs0mg"},{"bike_id":"01be27bb-04c1-4257-961f-4af3e782a655","system_id":"levelo_inurba_marseille","lat":43.255809,"lon":5.382392,"is_reserved":false,"is_disabled":false,"rental_uris":{"android":"levelo://app?vid=01be27bb-04c1-4257-961f-4af3e782a655","ios":"levelo://app?vid=01be27bb-04c1-4257-961f-4af3e782a655"},"vehicle_type_id":"4","last_reported":1769776318,"current_range_meters":6000,"station_id":"","pricing_plan_id":"cebpf4jnsgd1na2vs0mg"},{"bike_id":"4ef5fc9c-c8d6-48d7-94a0-e86b57d76fb4","system_id":"levelo_inurba_marseille","lat":43.23155,"lon":5.43728,"is_reserved":false,"is_disabled":false,"rental_uris":{"android":"levelo://app?vid=4ef5fc9c-c8d6-48d7-94a0-e86b57d76fb4","ios":"levelo://app?vid=4ef5fc9c-c8d6-48d7-94a0-e86b57d76fb4"},"vehicle_type_id":"4","last_reported":1769776318,"current_range_meters":6000,"station_id":"ce4bhmp2rcd13ifvqgog","pricing_plan_id":"cebpf4jnsgd1na2vs0mg"},{"bike_id":"d08ad747-e8dd-4a39-990c-56de807eb318","system_id":"levelo_inurba_marseille","lat":43.26587,"lon":5.4032,"is_reserved":false,"is_disabled":false,"rental_uris":{"android":"levelo://app?vid=d08ad747-e8dd-4a39-990c-56de807eb318","ios":"levelo://app?vid=d08ad747-e8dd-4a39-990c-56de807eb318"},"vehicle_type_id":"4","last_reported":1769776318,"current_range_meters":6000,"station_id":"ce4bhmp2rcd13ifvqgng","pricing_plan_id":"cebpf4jnsgd1na2vs0mg"},{"bike_id":"d202504a-b502-48a2-bfc7-18b0cd2b6404","system_id":"levelo_inurba_marseille","lat":43.323439,"lon":5.367526,"is_reserved":false,"is_disabled":false,"rental_uris":{"android":"levelo://app?vid=d202504a-b502-48a2-bfc7-18b0cd2b6404","ios":"levelo://app?vid=d202504a-b502-48a2-bfc7-18b0cd2b6404"},"vehicle_type_id":"4","last_reported":1769776318,"current_range_meters":6000,"station_id":"ce4bhsh2rcd13ifvqi2g","pricing_plan_id":"cebpf4jnsgd1na2vs0mg"},{"bike_id":"7496a825-dfc1-46b8-b1dd-d6a0cd1a78c8","system_id":"levelo_inurba_marseille","lat":43.24418,"lon":5.37041,"is_reserved":false,"is_disabled":false,"rental_uris":{"android":"levelo://app?vid=7496a825-dfc1-46b8-b1dd-d6a0cd1a78c8","ios":"levelo://app?vid=7496a825-dfc1-46b8-b1dd-d6a0cd1a78c8"},"vehicle_type_id":"4","last_reported":1769776318,"current_range_meters":6400,"station_id":"ce4bhhh2rcd13ifvqfk0","pricing_plan_id":"cebpf4jnsgd1na2vs0mg"},{"bike_id":"ef68bdf9-fa71-483b-bc99-7f9581830aca","system_id":"levelo_inurba_marseille","lat":43.30617,"lon":5.36764,"is_reserved":false,"is_disabled":false,"rental_uris":{"android":"levelo://app?vid=ef68bdf9-fa71-483b-bc99-7f9581830aca","ios":"levelo://app?vid=ef68bdf9-fa71-483b-bc99-7f9581830aca"},"vehicle_type_id":"4","last_reported":1769776318,"current_range_meters":6400,"station_id":"","pricing_plan_id":"cebpf4jnsgd1na2vs0mg"},{"bike_id":"796e72e7-ac06-41b2-9167-f07f30cb4612","system_id":"levelo_inurba_marseille","lat":43.28482,"lon":5.38461,"is_reserved":false,"is_disabled":false,"rental_uris":{"android":"levelo://app?vid=796e72e7-ac06-41b2-9167-f07f30cb4612","ios":"levelo://app?vid=796e72e7-ac06-41b2-9167-f07f30cb4612"},"vehicle_type_id":"4","last_reported":1769776318,"current_range_meters":6400,"station_id":"ce4bh512rcd13ifvqe3g","pricing_plan_id":"cebpf4jnsgd1na2vs0mg"},{"bike_id":"82a6b099-0577-4798-9a60-21fb38c2bbb7","system_id":"levelo_inurba_marseille","lat":43.2982,"lon":5.44067,"is_reserved":false,"is_disabled":false,"rental_uris":{"android":"levelo://app?vid=82a6b099-0577-4798-9a60-21fb38c2bbb7","ios":"levelo://app?vid=82a6b099-0577-4798-9a60-21fb38c2bbb7"},"vehicle_type_id":"4","last_reported":1769776318,"current_range_meters":6400,"station_id":"st_d3jp68qikq2c7381ktn0","pricing_plan_id":"cebpf4jnsgd1na2vs0mg"},{"bike_id":"1440a1fd-c02e-49b3-95e7-8bbcddadff1d","system_id":"levelo_inurba_marseille","lat":43.24391,"lon":5.37057,"is_reserved":false,"is_disabled":false,"rental_uris":{"android":"levelo://app?vid=1440a1fd-c02e-49b3-95e7-8bbcddadff1d","ios":"levelo://app?vid=1440a1fd-c02e-49b3-95e7-8bbcddadff1d"},"vehicle_type_id":"4","last_reported":1769776318,"current_range_meters":6400,"station_id":"ce4bhhh2rcd13ifvqfk0","pricing_plan_id":"cebpf4jnsgd1na2vs0mg"},{"bike_id":"2626a307-09e6-4806-8747-64c64cf9b162","system_id":"levelo_inurba_marseille","lat":43.24467,"lon":5.42554,"is_reserved":false,"is_disabled":false,"rental_uris":{"android":"levelo://app?vid=2626a307-09e6-4806-8747-64c64cf9b162","ios":"levelo://app?vid=2626a307-09e6-4806-8747-64c64cf9b162"},"vehicle_type_id":"4","last_reported":1769776318,"current_range_meters":6400,"station_id":"st_d4a3vfp97mjs738cd8kg","pricing_plan_id":"cebpf4jnsgd1na2vs0mg"},{"bike_id":"7008570a-4030-4a5c-bce0-6e90ab09f5fd","system_id":"levelo_inurba_marseille","lat":43.24637,"lon":5.3819,"is_reserved":false,"is_disabled":false,"rental_uris":{"android":"levelo://app?vid=7008570a-4030-4a5c-bce0-6e90ab09f5fd","ios":"levelo://app?vid=7008570a-4030-4a5c-bce0-6e90ab09f5fd"},"vehicle_type_id":"4","last_reported":1769776318,"current_range_meters":6400,"station_id":"ce4bhih2rcd13ifvqfr0","pricing_plan_id":"cebpf4jnsgd1na2vs0mg"},{"bike_id":"0760064b-5722-42a9-9948-586ac57aa647","system_id":"levelo_inurba_marseille","lat":43.24688,"lon":5.38898,"is_reserved":false,"is_disabled":false,"rental_uris":{"android":"levelo://app?vid=0760064b-5722-42a9-9948-586ac57aa647","ios":"levelo://app?vid=0760064b-5722-42a9-9948-586ac57aa647"},"vehicle_type_id":"4","last_reported":1769776318,"current_range_meters":6400,"station_id":"ce4bhg12rcd13ifvqf60","pricing_plan_id":"cebpf4jnsgd1na2vs0mg"},{"bike_id":"cfc6715f-89b6-41b5-8345-c44216a0ecae","system_id":"levelo_inurba_marseille","lat":43.301379,"lon":5.374204,"is_reserved":false,"is_disabled":false,"rental_uris":{"android":"levelo://app?vid=cfc6715f-89b6-41b5-8345-c44216a0ecae","ios":"levelo://app?vid=cfc6715f-89b6-41b5-8345-c44216a0ecae"},"vehicle_type_id":"4","last_reported":1769776318,"current_range_meters":6400,"station_id":"ce4bgs92rcd13ifvqcc0","pricing_plan_id":"cebpf4jnsgd1na2vs0mg"},{"bike_id":"c37eba5d-0233-469f-a0da-fc515a0337f5","system_id":"levelo_inurba_marseille","lat":43.33559,"lon":5.37458,"is_reserved":false,"is_disabled":false,"rental_uris":{"android":"levelo://app?vid=c37eba5d-0233-469f-a0da-fc515a0337f5","ios":"levelo://app?vid=c37eba5d-0233-469f-a0da-fc515a0337f5"},"vehicle_type_id":"4","last_reported":1769776318,"current_range_meters":6400,"station_id":"st_d46tts09ee8s73dlu43g","pricing_plan_id":"cebpf4jnsgd1na2vs0mg"},{"bike_id":"59ae0900-c855-4741-b5cf-c53827ed9733","system_id":"levelo_inurba_marseille","lat":43.24158,"lon":5.36408,"is_reserved":false,"is_disabled":false,"rental_uris":{"android":"levelo://app?vid=59ae0900-c855-4741-b5cf-c53827ed9733","ios":"levelo://app?vid=59ae0900-c855-4741-b5cf-c53827ed9733"},"vehicle_type_id":"4","last_reported":1769776318,"current_range_meters":6400,"station_id":"cpo36qri1sfpv3e86is0","pricing_plan_id":"cebpf4jnsgd1na2vs0mg"},{"bike_id":"af654c71-a67d-46af-bf40-a020e2f3bf53","system_id":"levelo_inurba_marseille","lat":43.25033,"lon":5.38904,"is_reserved":false,"is_disabled":false,"rental_uris":{"android":"levelo://app?vid=af654c71-a67d-46af-bf40-a020e2f3bf53","ios":"levelo://app?vid=af654c71-a67d-46af-bf40-a020e2f3bf53"},"vehicle_type_id":"4","last_reported":1769776318,"current_range_meters":6400,"station_id":"ce4bhgp2rcd13ifvqfd0","pricing_plan_id":"cebpf4jnsgd1na2vs0mg"},{"bike_id":"6e316437-9e53-4058-b852-370b67323663","system_id":"levelo_inurba_marseille","lat":43.24637,"lon":5.43141,"is_reserved":false,"is_disabled":false,"rental_uris":{"android":"levelo://app?vid=6e316437-9e53-4058-b852-370b67323663","ios":"levelo://app?vid=6e316437-9e53-4058-b852-370b67323663"},"vehicle_type_id":"4","last_reported":1769776318,"current_range_meters":6400,"station_id":"st_d2m6c4gdas8pm72e190g","pricing_plan_id":"cebpf4jnsgd1na2vs0mg"},{"bike_id":"1df32dff-5611-415d-8fae-817c467a81ff","system_id":"levelo_inurba_marseille","lat":43.23055,"lon":5.35472,"is_reserved":false,"is_disabled":false,"rental_uris":{"android":"levelo://app?vid=1df32dff-5611-415d-8fae-817c467a81ff","ios":"levelo://app?vid=1df32dff-5611-415d-8fae-817c467a81ff"},"vehicle_type_id":"4","last_reported":1769776318,"current_range_meters":6400,"station_id":"cpo3342slgdg3j2ifvpg","pricing_plan_id":"cebpf4jnsgd1na2vs0mg"},{"bike_id":"d80f5fd9-e85a-48fe-aaed-d90f71bda7d9","system_id":"levelo_inurba_marseille","lat":43.28278,"lon":5.35073,"is_reserved":false,"is_disabled":false,"rental_uris":{"android":"levelo://app?vid=d80f5fd9-e85a-48fe-aaed-d90f71bda7d9","ios":"levelo://app?vid=d80f5fd9-e85a-48fe-aaed-d90f71bda7d9"},"vehicle_type_id":"4","last_reported":1769776318,"current_range_meters":6800,"station_id":"ce4bhbp2rcd13ifvqerg","pricing_plan_id":"cebpf4jnsgd1na2vs0mg"},{"bike_id":"456727bd-baa8-41bf-ae9f-158a99ff9411","system_id":"levelo_inurba_marseille","lat":43.22563,"lon":5.41635,"is_reserved":false,"is_disabled":false,"rental_uris":{"android":"levelo://app?vid=456727bd-baa8-41bf-ae9f-158a99ff9411","ios":"levelo://app?vid=456727bd-baa8-41bf-ae9f-158a99ff9411"},"vehicle_type_id":"4","last_reported":1769776318,"current_range_meters":6800,"station_id":"st_d2o4gvlbi1j2169b742g","pricing_plan_id":"cebpf4jnsgd1na2vs0mg"},{"bike_id":"d8594d7f-830a-4687-8d5b-5f4fb08ba151","system_id":"levelo_inurba_marseille","lat":43.28724,"lon":5.37943,"is_reserved":false,"is_disabled":false,"rental_uris":{"android":"levelo://app?vid=d8594d7f-830a-4687-8d5b-5f4fb08ba151","ios":"levelo://app?vid=d8594d7f-830a-4687-8d5b-5f4fb08ba151"},"vehicle_type_id":"4","last_reported":1769776318,"current_range_meters":6800,"station_id":"ce4bh9p2rcd13ifvqec0","pricing_plan_id":"cebpf4jnsgd1na2vs0mg"},{"bike_id":"f77f11ea-c57f-4a1e-b998-1859acb2e91b","system_id":"levelo_inurba_marseille","lat":43.28611,"lon":5.35105,"is_reserved":false,"is_disabled":false,"rental_uris":{"android":"levelo://app?vid=f77f11ea-c57f-4a1e-b998-1859acb2e91b","ios":"levelo://app?vid=f77f11ea-c57f-4a1e-b998-1859acb2e91b"},"vehicle_type_id":"4","last_reported":1769776318,"current_range_meters":6800,"station_id":"ce4bhch2rcd13ifvqeug","pricing_plan_id":"cebpf4jnsgd1na2vs0mg"},{"bike_id":"f837c673-8f99-41df-8e92-c39dc749cf7c","system_id":"levelo_inurba_marseille","lat":43.29564,"lon":5.37496,"is_reserved":false,"is_disabled":false,"rental_uris":{"android":"levelo://app?vid=f837c673-8f99-41df-8e92-c39dc749cf7c","ios":"levelo://app?vid=f837c673-8f99-41df-8e92-c39dc749cf7c"},"vehicle_type_id":"4","last_reported":1769776318,"current_range_meters":6800,"station_id":"ce4bgh92rcd13ifvqb50","pricing_plan_id":"cebpf4jnsgd1na2vs0mg"},{"bike_id":"2e836124-aeae-4ede-aab6-ceff98eedb81","system_id":"levelo_inurba_marseille","lat":43.24545,"lon":5.39517,"is_reserved":false,"is_disabled":false,"rental_uris":{"android":"levelo://app?vid=2e836124-aeae-4ede-aab6-ceff98eedb81","ios":"levelo://app?vid=2e836124-aeae-4ede-aab6-ceff98eedb81"},"vehicle_type_id":"4","last_reported":1769776318,"current_range_meters":6800,"station_id":"ce4bhlp2rcd13ifvqgjg","pricing_plan_id":"cebpf4jnsgd1na2vs0mg"},{"bike_id":"ceed1653-0aff-4dc0-b159-f8529a6c28c1","system_id":"levelo_inurba_marseille","lat":43.232,"lon":5.35553,"is_reserved":false,"is_disabled":false,"rental_uris":{"android":"levelo://app?vid=ceed1653-0aff-4dc0-b159-f8529a6c28c1","ios":"levelo://app?vid=ceed1653-0aff-4dc0-b159-f8529a6c28c1"},"vehicle_type_id":"4","last_reported":1769776318,"current_range_meters":6800,"station_id":"ce4bhu92rcd13ifvqi70","pricing_plan_id":"cebpf4jnsgd1na2vs0mg"},{"bike_id":"8382e7ba-9d5c-42bb-8532-379c18963bda","system_id":"levelo_inurba_marseille","lat":43.2918,"lon":5.35803,"is_reserved":false,"is_disabled":false,"rental_uris":{"android":"levelo://app?vid=8382e7ba-9d5c-42bb-8532-379c18963bda","ios":"levelo://app?vid=8382e7ba-9d5c-42bb-8532-379c18963bda"},"vehicle_type_id":"4","last_reported":1769776318,"current_range_meters":6800,"station_id":"ce4bhb12rcd13ifvqel0","pricing_plan_id":"cebpf4jnsgd1na2vs0mg"},{"bike_id":"a7d1bfd9-0de8-47ec-ba20-34ed34aa81d2","system_id":"levelo_inurba_marseille","lat":43.24466,"lon":5.42538,"is_reserved":false,"is_disabled":false,"rental_uris":{"android":"levelo://app?vid=a7d1bfd9-0de8-47ec-ba20-34ed34aa81d2","ios":"levelo://app?vid=a7d1bfd9-0de8-47ec-ba20-34ed34aa81d2"},"vehicle_type_id":"4","last_reported":1769776318,"current_range_meters":6800,"station_id":"st_d4a3vfp97mjs738cd8kg","pricing_plan_id":"cebpf4jnsgd1na2vs0mg"},{"bike_id":"7272b7e5-dc3f-4a67-bdd0-317168495648","system_id":"levelo_inurba_marseille","lat":43.26841,"lon":5.40184,"is_reserved":false,"is_disabled":false,"rental_uris":{"android":"levelo://app?vid=7272b7e5-dc3f-4a67-bdd0-317168495648","ios":"levelo://app?vid=7272b7e5-dc3f-4a67-bdd0-317168495648"},"vehicle_type_id":"4","last_reported":1769776318,"current_range_meters":6800,"station_id":"","pricing_plan_id":"cebpf4jnsgd1na2vs0mg"},{"bike_id":"9a240cc9-66e2-41d9-8c72-4fb91a988dad","system_id":"levelo_inurba_marseille","lat":43.30209,"lon":5.36614,"is_reserved":false,"is_disabled":false,"rental_uris":{"android":"levelo://app?vid=9a240cc9-66e2-41d9-8c72-4fb91a988dad","ios":"levelo://app?vid=9a240cc9-66e2-41d9-8c72-4fb91a988dad"},"vehicle_type_id":"4","last_reported":1769776318,"current_range_meters":6800,"station_id":"ce4bgrh2rcd13ifvqc8g","pricing_plan_id":"cebpf4jnsgd1na2vs0mg"},{"bike_id":"51215f91-c698-4615-b079-2c36171fcfd1","system_id":"levelo_inurba_marseille","lat":43.29305,"lon":5.37464,"is_reserved":false,"is_disabled":false,"rental_uris":{"android":"levelo://app?vid=51215f91-c698-4615-b079-2c36171fcfd1","ios":"levelo://app?vid=51215f91-c698-4615-b079-2c36171fcfd1"},"vehicle_type_id":"4","last_reported":1769776318,"current_range_meters":7200,"station_id":"ce4bgi12rcd13ifvqb70","pricing_plan_id":"cebpf4jnsgd1na2vs0mg"},{"bike_id":"0f05e83f-77ca-4504-b9cf-cc69291ac8d4","system_id":"levelo_inurba_marseille","lat":43.27068,"lon":5.38318,"is_reserved":false,"is_disabled":false,"rental_uris":{"android":"levelo://app?vid=0f05e83f-77ca-4504-b9cf-cc69291ac8d4","ios":"levelo://app?vid=0f05e83f-77ca-4504-b9cf-cc69291ac8d4"},"vehicle_type_id":"4","last_reported":1769776318,"current_range_meters":7200,"station_id":"st_d3n2fo6cfp8s73cte1j0","pricing_plan_id":"cebpf4jnsgd1na2vs0mg"},{"bike_id":"4b9c2949-48d9-47bd-87a5-474334cf4c2c","system_id":"levelo_inurba_marseille","lat":43.24999,"lon":5.38923,"is_reserved":false,"is_disabled":false,"rental_uris":{"android":"levelo://app?vid=4b9c2949-48d9-47bd-87a5-474334cf4c2c","ios":"levelo://app?vid=4b9c2949-48d9-47bd-87a5-474334cf4c2c"},"vehicle_type_id":"4","last_reported":1769776318,"current_range_meters":7200,"station_id":"ce4bhgp2rcd13ifvqfd0","pricing_plan_id":"cebpf4jnsgd1na2vs0mg"},{"bike_id":"d7b04403-7dfa-4d8a-bd81-cfc844f4e0b5","system_id":"levelo_inurba_marseille","lat":43.29813,"lon":5.440709,"is_reserved":false,"is_disabled":false,"rental_uris":{"android":"levelo://app?vid=d7b04403-7dfa-4d8a-bd81-cfc844f4e0b5","ios":"levelo://app?vid=d7b04403-7dfa-4d8a-bd81-cfc844f4e0b5"},"vehicle_type_id":"4","last_reported":1769776318,"current_range_meters":7200,"station_id":"st_d3jp68qikq2c7381ktn0","pricing_plan_id":"cebpf4jnsgd1na2vs0mg"},{"bike_id":"fe96793b-7f48-4d0c-8e7e-ada6a02e2210","system_id":"levelo_inurba_marseille","lat":43.27804,"lon":5.40721,"is_reserved":false,"is_disabled":false,"rental_uris":{"android":"levelo://app?vid=fe96793b-7f48-4d0c-8e7e-ada6a02e2210","ios":"levelo://app?vid=fe96793b-7f48-4d0c-8e7e-ada6a02e2210"},"vehicle_type_id":"4","last_reported":1769776318,"current_range_meters":7200,"station_id":"ce4bhnh2rcd13ifvqgtg","pricing_plan_id":"cebpf4jnsgd1na2vs0mg"},{"bike_id":"81057824-ac5d-4caa-86bf-12c882eb3d1d","system_id":"levelo_inurba_marseille","lat":43.28176,"lon":5.42659,"is_reserved":false,"is_disabled":false,"rental_uris":{"android":"levelo://app?vid=81057824-ac5d-4caa-86bf-12c882eb3d1d","ios":"levelo://app?vid=81057824-ac5d-4caa-86bf-12c882eb3d1d"},"vehicle_type_id":"4","last_reported":1769776318,"current_range_meters":7200,"station_id":"ce4bhnh2rcd13ifvqgug","pricing_plan_id":"cebpf4jnsgd1na2vs0mg"},{"bike_id":"ac1ec748-554b-4788-b6d7-efc4c2c33622","system_id":"levelo_inurba_marseille","lat":43.29955,"lon":5.41323,"is_reserved":false,"is_disabled":false,"rental_uris":{"android":"levelo://app?vid=ac1ec748-554b-4788-b6d7-efc4c2c33622","ios":"levelo://app?vid=ac1ec748-554b-4788-b6d7-efc4c2c33622"},"vehicle_type_id":"4","last_reported":1769776318,"current_range_meters":7200,"station_id":"ce4bhp12rcd13ifvqh9g","pricing_plan_id":"cebpf4jnsgd1na2vs0mg"},{"bike_id":"972fdbba-0445-4a25-9fc6-bd5842ded707","system_id":"levelo_inurba_marseille","lat":43.23057,"lon":5.35497,"is_reserved":false,"is_disabled":false,"rental_uris":{"android":"levelo://app?vid=972fdbba-0445-4a25-9fc6-bd5842ded707","ios":"levelo://app?vid=972fdbba-0445-4a25-9fc6-bd5842ded707"},"vehicle_type_id":"4","last_reported":1769776318,"current_range_meters":7200,"station_id":"cpo3342slgdg3j2ifvpg","pricing_plan_id":"cebpf4jnsgd1na2vs0mg"},{"bike_id":"7243427c-7e1e-4875-b4d3-b3a9df2c737a","system_id":"levelo_inurba_marseille","lat":43.301281,"lon":5.387759,"is_reserved":false,"is_disabled":true,"rental_uris":{"android":"levelo://app?vid=7243427c-7e1e-4875-b4d3-b3a9df2c737a","ios":"levelo://app?vid=7243427c-7e1e-4875-b4d3-b3a9df2c737a"},"vehicle_type_id":"4","last_reported":1769776318,"current_range_meters":7200,"station_id":"","pricing_plan_id":"cebpf4jnsgd1na2vs0mg"},{"bike_id":"bd1a650f-69ca-4d81-a7d8-8c6a7474ad9a","system_id":"levelo_inurba_marseille","lat":43.292,"lon":5.39322,"is_reserved":false,"is_disabled":false,"rental_uris":{"android":"levelo://app?vid=bd1a650f-69ca-4d81-a7d8-8c6a7474ad9a","ios":"levelo://app?vid=bd1a650f-69ca-4d81-a7d8-8c6a7474ad9a"},"vehicle_type_id":"4","last_reported":1769776318,"current_range_meters":7200,"station_id":"ce4bh192rcd13ifvqdd0","pricing_plan_id":"cebpf4jnsgd1na2vs0mg"},{"bike_id":"a224862a-232e-4eae-9e87-90ad084f94a7","system_id":"levelo_inurba_marseille","lat":43.24161,"lon":5.36413,"is_reserved":false,"is_disabled":false,"rental_uris":{"android":"levelo://app?vid=a224862a-232e-4eae-9e87-90ad084f94a7","ios":"levelo://app?vid=a224862a-232e-4eae-9e87-90ad084f94a7"},"vehicle_type_id":"4","last_reported":1769776318,"current_range_meters":7200,"station_id":"cpo36qri1sfpv3e86is0","pricing_plan_id":"cebpf4jnsgd1na2vs0mg"},{"bike_id":"ff6220a2-0ba2-4f2b-99d8-48d7fb65a584","system_id":"levelo_inurba_marseille","lat":43.30525,"lon":5.36539,"is_reserved":false,"is_disabled":false,"rental_uris":{"android":"levelo://app?vid=ff6220a2-0ba2-4f2b-99d8-48d7fb65a584","ios":"levelo://app?vid=ff6220a2-0ba2-4f2b-99d8-48d7fb65a584"},"vehicle_type_id":"4","last_reported":1769776318,"current_range_meters":7200,"station_id":"ce4bgs12rcd13ifvqcag","pricing_plan_id":"cebpf4jnsgd1na2vs0mg"},{"bike_id":"b110d4cf-9f13-4396-a45b-5391bfafbd9d","system_id":"levelo_inurba_marseille","lat":43.24406,"lon":5.37059,"is_reserved":false,"is_disabled":false,"rental_uris":{"android":"levelo://app?vid=b110d4cf-9f13-4396-a45b-5391bfafbd9d","ios":"levelo://app?vid=b110d4cf-9f13-4396-a45b-5391bfafbd9d"},"vehicle_type_id":"4","last_reported":1769776318,"current_range_meters":7200,"station_id":"ce4bhhh2rcd13ifvqfk0","pricing_plan_id":"cebpf4jnsgd1na2vs0mg"},{"bike_id":"0c14a26b-0ad7-4331-a203-accc0c5e2227","system_id":"levelo_inurba_marseille","lat":43.28113,"lon":5.42687,"is_reserved":false,"is_disabled":false,"rental_uris":{"android":"levelo://app?vid=0c14a26b-0ad7-4331-a203-accc0c5e2227","ios":"levelo://app?vid=0c14a26b-0ad7-4331-a203-accc0c5e2227"},"vehicle_type_id":"4","last_reported":1769776318,"current_range_meters":7200,"station_id":"ce4bhnh2rcd13ifvqgug","pricing_plan_id":"cebpf4jnsgd1na2vs0mg"},{"bike_id":"5f8af22f-9203-4ec9-816f-1618d1060df6","system_id":"levelo_inurba_marseille","lat":43.32515,"lon":5.38293,"is_reserved":false,"is_disabled":false,"rental_uris":{"android":"levelo://app?vid=5f8af22f-9203-4ec9-816f-1618d1060df6","ios":"levelo://app?vid=5f8af22f-9203-4ec9-816f-1618d1060df6"},"vehicle_type_id":"4","last_reported":1769776318,"current_range_meters":7200,"station_id":"st_d4asgbiv49dc73anf9m0","pricing_plan_id":"cebpf4jnsgd1na2vs0mg"},{"bike_id":"279a2baf-d291-4bfb-8119-5d7a1c478925","system_id":"levelo_inurba_marseille","lat":43.30158,"lon":5.38099,"is_reserved":false,"is_disabled":false,"rental_uris":{"android":"levelo://app?vid=279a2baf-d291-4bfb-8119-5d7a1c478925","ios":"levelo://app?vid=279a2baf-d291-4bfb-8119-5d7a1c478925"},"vehicle_type_id":"4","last_reported":1769776318,"current_range_meters":7200,"station_id":"ce4bgjp2rcd13ifvqbh0","pricing_plan_id":"cebpf4jnsgd1na2vs0mg"},{"bike_id":"16f5ab70-8211-4c7e-aa05-52c27c1c0d64","system_id":"levelo_inurba_marseille","lat":43.27705,"lon":5.3889,"is_reserved":false,"is_disabled":true,"rental_uris":{"android":"levelo://app?vid=16f5ab70-8211-4c7e-aa05-52c27c1c0d64","ios":"levelo://app?vid=16f5ab70-8211-4c7e-aa05-52c27c1c0d64"},"vehicle_type_id":"4","last_reported":1769776318,"current_range_meters":7200,"station_id":"ce4bhi12rcd13ifvqfo0","pricing_plan_id":"cebpf4jnsgd1na2vs0mg"},{"bike_id":"842ae640-421f-4790-99f0-94bd0d50de25","system_id":"levelo_inurba_marseille","lat":43.30482,"lon":5.36563,"is_reserved":false,"is_disabled":false,"rental_uris":{"android":"levelo://app?vid=842ae640-421f-4790-99f0-94bd0d50de25","ios":"levelo://app?vid=842ae640-421f-4790-99f0-94bd0d50de25"},"vehicle_type_id":"4","last_reported":1769776318,"current_range_meters":7200,"station_id":"","pricing_plan_id":"cebpf4jnsgd1na2vs0mg"},{"bike_id":"7a179da9-2389-4404-a68b-f7a95ce736a9","system_id":"levelo_inurba_marseille","lat":43.297068,"lon":5.376961,"is_reserved":false,"is_disabled":false,"rental_uris":{"android":"levelo://app?vid=7a179da9-2389-4404-a68b-f7a95ce736a9","ios":"levelo://app?vid=7a179da9-2389-4404-a68b-f7a95ce736a9"},"vehicle_type_id":"4","last_reported":1769776318,"current_range_meters":7200,"station_id":"ce4bgkh2rcd13ifvqbl0","pricing_plan_id":"cebpf4jnsgd1na2vs0mg"},{"bike_id":"891291bf-2508-4614-98b9-c57a30a99b04","system_id":"levelo_inurba_marseille","lat":43.22946,"lon":5.35387,"is_reserved":false,"is_disabled":false,"rental_uris":{"android":"levelo://app?vid=891291bf-2508-4614-98b9-c57a30a99b04","ios":"levelo://app?vid=891291bf-2508-4614-98b9-c57a30a99b04"},"vehicle_type_id":"4","last_reported":1769776318,"current_range_meters":7200,"station_id":"cpo3532slgdg3j2ikp40","pricing_plan_id":"cebpf4jnsgd1na2vs0mg"},{"bike_id":"425be263-4f20-4a21-918d-e1cb18892790","system_id":"levelo_inurba_marseille","lat":43.24393,"lon":5.37078,"is_reserved":false,"is_disabled":false,"rental_uris":{"android":"levelo://app?vid=425be263-4f20-4a21-918d-e1cb18892790","ios":"levelo://app?vid=425be263-4f20-4a21-918d-e1cb18892790"},"vehicle_type_id":"4","last_reported":1769776318,"current_range_meters":7200,"station_id":"ce4bhhh2rcd13ifvqfk0","pricing_plan_id":"cebpf4jnsgd1na2vs0mg"},{"bike_id":"76baf766-279c-4d54-8cc8-d388bd84f801","system_id":"levelo_inurba_marseille","lat":43.286176,"lon":5.351199,"is_reserved":false,"is_disabled":false,"rental_uris":{"android":"levelo://app?vid=76baf766-279c-4d54-8cc8-d388bd84f801","ios":"levelo://app?vid=76baf766-279c-4d54-8cc8-d388bd84f801"},"vehicle_type_id":"4","last_reported":1769776318,"current_range_meters":7200,"station_id":"ce4bhch2rcd13ifvqeug","pricing_plan_id":"cebpf4jnsgd1na2vs0mg"},{"bike_id":"c15bf6ee-369d-4dc7-89fc-91442ce5cab3","system_id":"levelo_inurba_marseille","lat":43.29905,"lon":5.43647,"is_reserved":false,"is_disabled":false,"rental_uris":{"android":"levelo://app?vid=c15bf6ee-369d-4dc7-89fc-91442ce5cab3","ios":"levelo://app?vid=c15bf6ee-369d-4dc7-89fc-91442ce5cab3"},"vehicle_type_id":"4","last_reported":1769776318,"current_range_meters":7200,"station_id":"ce4bhpp2rcd13ifvqhfg","pricing_plan_id":"cebpf4jnsgd1na2vs0mg"},{"bike_id":"878f5162-5c17-43ad-b8f4-b806958328f8","system_id":"levelo_inurba_marseille","lat":43.28481,"lon":5.38415,"is_reserved":false,"is_disabled":false,"rental_uris":{"android":"levelo://app?vid=878f5162-5c17-43ad-b8f4-b806958328f8","ios":"levelo://app?vid=878f5162-5c17-43ad-b8f4-b806958328f8"},"vehicle_type_id":"4","last_reported":1769776318,"current_range_meters":7200,"station_id":"ce4bh512rcd13ifvqe3g","pricing_plan_id":"cebpf4jnsgd1na2vs0mg"},{"bike_id":"a75a29b7-02aa-47a1-a97a-f046694f3988","system_id":"levelo_inurba_marseille","lat":43.29803,"lon":5.38088,"is_reserved":false,"is_disabled":false,"rental_uris":{"android":"levelo://app?vid=a75a29b7-02aa-47a1-a97a-f046694f3988","ios":"levelo://app?vid=a75a29b7-02aa-47a1-a97a-f046694f3988"},"vehicle_type_id":"4","last_reported":1769776318,"current_range_meters":7200,"station_id":"ce4bgip2rcd13ifvqbb0","pricing_plan_id":"cebpf4jnsgd1na2vs0mg"},{"bike_id":"d9e74e48-23e6-471a-b00e-c0252f599ae5","system_id":"levelo_inurba_marseille","lat":43.27063,"lon":5.38304,"is_reserved":false,"is_disabled":false,"rental_uris":{"android":"levelo://app?vid=d9e74e48-23e6-471a-b00e-c0252f599ae5","ios":"levelo://app?vid=d9e74e48-23e6-471a-b00e-c0252f599ae5"},"vehicle_type_id":"4","last_reported":1769776318,"current_range_meters":7200,"station_id":"st_d3n2fo6cfp8s73cte1j0","pricing_plan_id":"cebpf4jnsgd1na2vs0mg"},{"bike_id":"1db24507-d658-43fd-a9f7-b7e937916d2d","system_id":"levelo_inurba_marseille","lat":43.24391,"lon":5.37063,"is_reserved":false,"is_disabled":false,"rental_uris":{"android":"levelo://app?vid=1db24507-d658-43fd-a9f7-b7e937916d2d","ios":"levelo://app?vid=1db24507-d658-43fd-a9f7-b7e937916d2d"},"vehicle_type_id":"4","last_reported":1769776318,"current_range_meters":8000,"station_id":"ce4bhhh2rcd13ifvqfk0","pricing_plan_id":"cebpf4jnsgd1na2vs0mg"},{"bike_id":"e858244c-580e-4a5e-a86b-9fc7e954317c","system_id":"levelo_inurba_marseille","lat":43.3128,"lon":5.37873,"is_reserved":false,"is_disabled":true,"rental_uris":{"android":"levelo://app?vid=e858244c-580e-4a5e-a86b-9fc7e954317c","ios":"levelo://app?vid=e858244c-580e-4a5e-a86b-9fc7e954317c"},"vehicle_type_id":"4","last_reported":1769776318,"current_range_meters":8000,"station_id":"","pricing_plan_id":"cebpf4jnsgd1na2vs0mg"},{"bike_id":"8a8d0baf-8fd6-4a4b-a45e-086c7d42b749","system_id":"levelo_inurba_marseille","lat":43.286173,"lon":5.351102,"is_reserved":false,"is_disabled":false,"rental_uris":{"android":"levelo://app?vid=8a8d0baf-8fd6-4a4b-a45e-086c7d42b749","ios":"levelo://app?vid=8a8d0baf-8fd6-4a4b-a45e-086c7d42b749"},"vehicle_type_id":"4","last_reported":1769776318,"current_range_meters":8000,"station_id":"ce4bhch2rcd13ifvqeug","pricing_plan_id":"cebpf4jnsgd1na2vs0mg"},{"bike_id":"8b03cb7d-1de6-4845-89c8-ef7b8942b746","system_id":"levelo_inurba_marseille","lat":43.28009,"lon":5.40001,"is_reserved":false,"is_disabled":false,"rental_uris":{"android":"levelo://app?vid=8b03cb7d-1de6-4845-89c8-ef7b8942b746","ios":"levelo://app?vid=8b03cb7d-1de6-4845-89c8-ef7b8942b746"},"vehicle_type_id":"4","last_reported":1769776318,"current_range_meters":8000,"station_id":"ce4bho92rcd13ifvqh4g","pricing_plan_id":"cebpf4jnsgd1na2vs0mg"},{"bike_id":"b68606c5-7c5e-44ce-8826-e6775696c337","system_id":"levelo_inurba_marseille","lat":43.30379,"lon":5.42462,"is_reserved":false,"is_disabled":false,"rental_uris":{"android":"levelo://app?vid=b68606c5-7c5e-44ce-8826-e6775696c337","ios":"levelo://app?vid=b68606c5-7c5e-44ce-8826-e6775696c337"},"vehicle_type_id":"4","last_reported":1769776318,"current_range_meters":8000,"station_id":"ce4bhoh2rcd13ifvqh6g","pricing_plan_id":"cebpf4jnsgd1na2vs0mg"},{"bike_id":"29e4ce79-df32-4a16-836e-cd957aa9a131","system_id":"levelo_inurba_marseille","lat":43.24669,"lon":5.43104,"is_reserved":false,"is_disabled":false,"rental_uris":{"android":"levelo://app?vid=29e4ce79-df32-4a16-836e-cd957aa9a131","ios":"levelo://app?vid=29e4ce79-df32-4a16-836e-cd957aa9a131"},"vehicle_type_id":"4","last_reported":1769776318,"current_range_meters":8000,"station_id":"st_d2m6c4gdas8pm72e190g","pricing_plan_id":"cebpf4jnsgd1na2vs0mg"},{"bike_id":"6ea8ec3c-d45b-4169-99d9-393bf90653b4","system_id":"levelo_inurba_marseille","lat":43.22933,"lon":5.35383,"is_reserved":false,"is_disabled":false,"rental_uris":{"android":"levelo://app?vid=6ea8ec3c-d45b-4169-99d9-393bf90653b4","ios":"levelo://app?vid=6ea8ec3c-d45b-4169-99d9-393bf90653b4"},"vehicle_type_id":"4","last_reported":1769776318,"current_range_meters":8000,"station_id":"cpo3532slgdg3j2ikp40","pricing_plan_id":"cebpf4jnsgd1na2vs0mg"},{"bike_id":"0e79c48d-cdc7-44eb-ad7d-d24757dd50e7","system_id":"levelo_inurba_marseille","lat":43.32359,"lon":5.36757,"is_reserved":false,"is_disabled":false,"rental_uris":{"android":"levelo://app?vid=0e79c48d-cdc7-44eb-ad7d-d24757dd50e7","ios":"levelo://app?vid=0e79c48d-cdc7-44eb-ad7d-d24757dd50e7"},"vehicle_type_id":"4","last_reported":1769776318,"current_range_meters":8000,"station_id":"ce4bhsh2rcd13ifvqi2g","pricing_plan_id":"cebpf4jnsgd1na2vs0mg"},{"bike_id":"9c59ba21-0bbc-41c2-a99b-53e9947bdf47","system_id":"levelo_inurba_marseille","lat":43.30379,"lon":5.42484,"is_reserved":false,"is_disabled":false,"rental_uris":{"android":"levelo://app?vid=9c59ba21-0bbc-41c2-a99b-53e9947bdf47","ios":"levelo://app?vid=9c59ba21-0bbc-41c2-a99b-53e9947bdf47"},"vehicle_type_id":"4","last_reported":1769776318,"current_range_meters":8000,"station_id":"ce4bhoh2rcd13ifvqh6g","pricing_plan_id":"cebpf4jnsgd1na2vs0mg"},{"bike_id":"be59a1fa-fcbd-4f35-ac1f-ae4c97b5126c","system_id":"levelo_inurba_marseille","lat":43.21759,"lon":5.34621,"is_reserved":false,"is_disabled":false,"rental_uris":{"android":"levelo://app?vid=be59a1fa-fcbd-4f35-ac1f-ae4c97b5126c","ios":"levelo://app?vid=be59a1fa-fcbd-4f35-ac1f-ae4c97b5126c"},"vehicle_type_id":"4","last_reported":1769776318,"current_range_meters":8000,"station_id":"st_cvj6r9ubvosntc0bgbag","pricing_plan_id":"cebpf4jnsgd1na2vs0mg"},{"bike_id":"c01b725f-c97d-45b9-a447-87e1cdc5e95a","system_id":"levelo_inurba_marseille","lat":43.26686,"lon":5.38239,"is_reserved":false,"is_disabled":false,"rental_uris":{"android":"levelo://app?vid=c01b725f-c97d-45b9-a447-87e1cdc5e95a","ios":"levelo://app?vid=c01b725f-c97d-45b9-a447-87e1cdc5e95a"},"vehicle_type_id":"4","last_reported":1769776318,"current_range_meters":8000,"station_id":"ce4bhg92rcd13ifvqf90","pricing_plan_id":"cebpf4jnsgd1na2vs0mg"},{"bike_id":"ad150f2a-29f5-456b-94c0-795879e342bd","system_id":"levelo_inurba_marseille","lat":43.32137,"lon":5.36826,"is_reserved":false,"is_disabled":false,"rental_uris":{"android":"levelo://app?vid=ad150f2a-29f5-456b-94c0-795879e342bd","ios":"levelo://app?vid=ad150f2a-29f5-456b-94c0-795879e342bd"},"vehicle_type_id":"4","last_reported":1769776318,"current_range_meters":8000,"station_id":"ce4bhrh2rcd13ifvqhug","pricing_plan_id":"cebpf4jnsgd1na2vs0mg"},{"bike_id":"4ed8b7c4-4959-4a76-8810-ca1bf04888b4","system_id":"levelo_inurba_marseille","lat":43.24465,"lon":5.42537,"is_reserved":false,"is_disabled":false,"rental_uris":{"android":"levelo://app?vid=4ed8b7c4-4959-4a76-8810-ca1bf04888b4","ios":"levelo://app?vid=4ed8b7c4-4959-4a76-8810-ca1bf04888b4"},"vehicle_type_id":"4","last_reported":1769776318,"current_range_meters":8000,"station_id":"st_d4a3vfp97mjs738cd8kg","pricing_plan_id":"cebpf4jnsgd1na2vs0mg"},{"bike_id":"f56ee39d-a6b7-4a7e-89de-b9d7f0478322","system_id":"levelo_inurba_marseille","lat":43.32385,"lon":5.36726,"is_reserved":false,"is_disabled":false,"rental_uris":{"android":"levelo://app?vid=f56ee39d-a6b7-4a7e-89de-b9d7f0478322","ios":"levelo://app?vid=f56ee39d-a6b7-4a7e-89de-b9d7f0478322"},"vehicle_type_id":"4","last_reported":1769776318,"current_range_meters":8000,"station_id":"","pricing_plan_id":"cebpf4jnsgd1na2vs0mg"},{"bike_id":"204d135e-6d26-4fd9-85a6-dd6d40882538","system_id":"levelo_inurba_marseille","lat":43.28349,"lon":5.38084,"is_reserved":false,"is_disabled":false,"rental_uris":{"android":"levelo://app?vid=204d135e-6d26-4fd9-85a6-dd6d40882538","ios":"levelo://app?vid=204d135e-6d26-4fd9-85a6-dd6d40882538"},"vehicle_type_id":"4","last_reported":1769776318,"current_range_meters":8000,"station_id":"ce4bh412rcd13ifvqdr0","pricing_plan_id":"cebpf4jnsgd1na2vs0mg"},{"bike_id":"dd912737-3b5f-4d91-90aa-e727914fc349","system_id":"levelo_inurba_marseille","lat":43.26937,"lon":5.38633,"is_reserved":false,"is_disabled":false,"rental_uris":{"android":"levelo://app?vid=dd912737-3b5f-4d91-90aa-e727914fc349","ios":"levelo://app?vid=dd912737-3b5f-4d91-90aa-e727914fc349"},"vehicle_type_id":"4","last_reported":1769776318,"current_range_meters":8000,"station_id":"ce4bhh92rcd13ifvqfh0","pricing_plan_id":"cebpf4jnsgd1na2vs0mg"},{"bike_id":"412abae9-d62d-4987-af01-9a17904a32fe","system_id":"levelo_inurba_marseille","lat":43.24631,"lon":5.43149,"is_reserved":false,"is_disabled":false,"rental_uris":{"android":"levelo://app?vid=412abae9-d62d-4987-af01-9a17904a32fe","ios":"levelo://app?vid=412abae9-d62d-4987-af01-9a17904a32fe"},"vehicle_type_id":"4","last_reported":1769776318,"current_range_meters":8000,"station_id":"st_d2m6c4gdas8pm72e190g","pricing_plan_id":"cebpf4jnsgd1na2vs0mg"},{"bike_id":"980fc79a-48b4-4ea7-b954-7c1b2c294747","system_id":"levelo_inurba_marseille","lat":43.30166,"lon":5.38085,"is_reserved":false,"is_disabled":false,"rental_uris":{"android":"levelo://app?vid=980fc79a-48b4-4ea7-b954-7c1b2c294747","ios":"levelo://app?vid=980fc79a-48b4-4ea7-b954-7c1b2c294747"},"vehicle_type_id":"4","last_reported":1769776318,"current_range_meters":8000,"station_id":"ce4bgjp2rcd13ifvqbh0","pricing_plan_id":"cebpf4jnsgd1na2vs0mg"},{"bike_id":"b3808154-86af-47d0-966c-f1cc0984587d","system_id":"levelo_inurba_marseille","lat":43.3377,"lon":5.37488,"is_reserved":false,"is_disabled":false,"rental_uris":{"android":"levelo://app?vid=b3808154-86af-47d0-966c-f1cc0984587d","ios":"levelo://app?vid=b3808154-86af-47d0-966c-f1cc0984587d"},"vehicle_type_id":"4","last_reported":1769776318,"current_range_meters":8000,"station_id":"","pricing_plan_id":"cebpf4jnsgd1na2vs0mg"},{"bike_id":"b589a911-c752-40e2-a671-addd4ec13243","system_id":"levelo_inurba_marseille","lat":43.29075,"lon":5.37169,"is_reserved":false,"is_disabled":false,"rental_uris":{"android":"levelo://app?vid=b589a911-c752-40e2-a671-addd4ec13243","ios":"levelo://app?vid=b589a911-c752-40e2-a671-addd4ec13243"},"vehicle_type_id":"4","last_reported":1769776318,"current_range_meters":8400,"station_id":"ce4bh5p2rcd13ifvqe4g","pricing_plan_id":"cebpf4jnsgd1na2vs0mg"},{"bike_id":"1ce270cc-3ea0-4ecf-9f08-f00f3198de52","system_id":"levelo_inurba_marseille","lat":43.24166,"lon":5.36416,"is_reserved":false,"is_disabled":false,"rental_uris":{"android":"levelo://app?vid=1ce270cc-3ea0-4ecf-9f08-f00f3198de52","ios":"levelo://app?vid=1ce270cc-3ea0-4ecf-9f08-f00f3198de52"},"vehicle_type_id":"4","last_reported":1769776318,"current_range_meters":8400,"station_id":"cpo36qri1sfpv3e86is0","pricing_plan_id":"cebpf4jnsgd1na2vs0mg"},{"bike_id":"c386e859-c47c-4176-b8dc-5d121dc2bc50","system_id":"levelo_inurba_marseille","lat":43.25613,"lon":5.40999,"is_reserved":false,"is_disabled":false,"rental_uris":{"android":"levelo://app?vid=c386e859-c47c-4176-b8dc-5d121dc2bc50","ios":"levelo://app?vid=c386e859-c47c-4176-b8dc-5d121dc2bc50"},"vehicle_type_id":"4","last_reported":1769776318,"current_range_meters":8400,"station_id":"ce4bhkp2rcd13ifvqgd0","pricing_plan_id":"cebpf4jnsgd1na2vs0mg"},{"bike_id":"bebea735-aab4-4344-851d-600660db9e8e","system_id":"levelo_inurba_marseille","lat":43.30156,"lon":5.38082,"is_reserved":false,"is_disabled":false,"rental_uris":{"android":"levelo://app?vid=bebea735-aab4-4344-851d-600660db9e8e","ios":"levelo://app?vid=bebea735-aab4-4344-851d-600660db9e8e"},"vehicle_type_id":"4","last_reported":1769776318,"current_range_meters":8400,"station_id":"ce4bgjp2rcd13ifvqbh0","pricing_plan_id":"cebpf4jnsgd1na2vs0mg"},{"bike_id":"cfe73c76-3bff-481c-a5ea-9a7beba7d096","system_id":"levelo_inurba_marseille","lat":43.29768,"lon":5.42774,"is_reserved":false,"is_disabled":false,"rental_uris":{"android":"levelo://app?vid=cfe73c76-3bff-481c-a5ea-9a7beba7d096","ios":"levelo://app?vid=cfe73c76-3bff-481c-a5ea-9a7beba7d096"},"vehicle_type_id":"4","last_reported":1769776318,"current_range_meters":8400,"station_id":"st_d3md5207bmas73dh9klg","pricing_plan_id":"cebpf4jnsgd1na2vs0mg"},{"bike_id":"60601e53-e690-41e3-9640-0b5d8353d610","system_id":"levelo_inurba_marseille","lat":43.22917,"lon":5.35402,"is_reserved":false,"is_disabled":false,"rental_uris":{"android":"levelo://app?vid=60601e53-e690-41e3-9640-0b5d8353d610","ios":"levelo://app?vid=60601e53-e690-41e3-9640-0b5d8353d610"},"vehicle_type_id":"4","last_reported":1769776318,"current_range_meters":8400,"station_id":"cpo3532slgdg3j2ikp40","pricing_plan_id":"cebpf4jnsgd1na2vs0mg"},{"bike_id":"f9b558b6-28d6-402c-b98f-6096a3c616a5","system_id":"levelo_inurba_marseille","lat":43.29681,"lon":5.36611,"is_reserved":false,"is_disabled":false,"rental_uris":{"android":"levelo://app?vid=f9b558b6-28d6-402c-b98f-6096a3c616a5","ios":"levelo://app?vid=f9b558b6-28d6-402c-b98f-6096a3c616a5"},"vehicle_type_id":"4","last_reported":1769776318,"current_range_meters":8400,"station_id":"ce4bgn12rcd13ifvqbt0","pricing_plan_id":"cebpf4jnsgd1na2vs0mg"},{"bike_id":"e902ef9f-7cd4-4fe6-a82c-948b6d2fcf15","system_id":"levelo_inurba_marseille","lat":43.29919,"lon":5.4367,"is_reserved":false,"is_disabled":false,"rental_uris":{"android":"levelo://app?vid=e902ef9f-7cd4-4fe6-a82c-948b6d2fcf15","ios":"levelo://app?vid=e902ef9f-7cd4-4fe6-a82c-948b6d2fcf15"},"vehicle_type_id":"4","last_reported":1769776318,"current_range_meters":8400,"station_id":"","pricing_plan_id":"cebpf4jnsgd1na2vs0mg"},{"bike_id":"d17f80e8-4276-4c58-a3c8-3a8c14d8c43a","system_id":"levelo_inurba_marseille","lat":43.28612,"lon":5.39886,"is_reserved":false,"is_disabled":false,"rental_uris":{"android":"levelo://app?vid=d17f80e8-4276-4c58-a3c8-3a8c14d8c43a","ios":"levelo://app?vid=d17f80e8-4276-4c58-a3c8-3a8c14d8c43a"},"vehicle_type_id":"4","last_reported":1769776318,"current_range_meters":8400,"station_id":"st_d4a7ka997mjs738ck50g","pricing_plan_id":"cebpf4jnsgd1na2vs0mg"},{"bike_id":"385acf65-4d9f-49ae-a95b-4ad7d4ba2100","system_id":"levelo_inurba_marseille","lat":43.21173,"lon":5.35083,"is_reserved":false,"is_disabled":false,"rental_uris":{"android":"levelo://app?vid=385acf65-4d9f-49ae-a95b-4ad7d4ba2100","ios":"levelo://app?vid=385acf65-4d9f-49ae-a95b-4ad7d4ba2100"},"vehicle_type_id":"4","last_reported":1769776318,"current_range_meters":8400,"station_id":"","pricing_plan_id":"cebpf4jnsgd1na2vs0mg"},{"bike_id":"94842764-1da0-47c3-981d-a8a494b1c082","system_id":"levelo_inurba_marseille","lat":43.24656,"lon":5.38913,"is_reserved":false,"is_disabled":false,"rental_uris":{"android":"levelo://app?vid=94842764-1da0-47c3-981d-a8a494b1c082","ios":"levelo://app?vid=94842764-1da0-47c3-981d-a8a494b1c082"},"vehicle_type_id":"4","last_reported":1769776318,"current_range_meters":8400,"station_id":"ce4bhg12rcd13ifvqf60","pricing_plan_id":"cebpf4jnsgd1na2vs0mg"},{"bike_id":"6f006526-2e34-462f-a4a0-8e0a4c4ceba5","system_id":"levelo_inurba_marseille","lat":43.24657,"lon":5.38894,"is_reserved":false,"is_disabled":false,"rental_uris":{"android":"levelo://app?vid=6f006526-2e34-462f-a4a0-8e0a4c4ceba5","ios":"levelo://app?vid=6f006526-2e34-462f-a4a0-8e0a4c4ceba5"},"vehicle_type_id":"4","last_reported":1769776318,"current_range_meters":8400,"station_id":"ce4bhg12rcd13ifvqf60","pricing_plan_id":"cebpf4jnsgd1na2vs0mg"},{"bike_id":"9ddd5feb-5110-4d3f-b1c1-2df18bb34ed1","system_id":"levelo_inurba_marseille","lat":43.23156,"lon":5.43712,"is_reserved":false,"is_disabled":false,"rental_uris":{"android":"levelo://app?vid=9ddd5feb-5110-4d3f-b1c1-2df18bb34ed1","ios":"levelo://app?vid=9ddd5feb-5110-4d3f-b1c1-2df18bb34ed1"},"vehicle_type_id":"4","last_reported":1769776318,"current_range_meters":8400,"station_id":"ce4bhmp2rcd13ifvqgog","pricing_plan_id":"cebpf4jnsgd1na2vs0mg"},{"bike_id":"5f7d8821-ca89-4225-bbf0-d5a6326fe147","system_id":"levelo_inurba_marseille","lat":43.29981,"lon":5.38491,"is_reserved":false,"is_disabled":false,"rental_uris":{"android":"levelo://app?vid=5f7d8821-ca89-4225-bbf0-d5a6326fe147","ios":"levelo://app?vid=5f7d8821-ca89-4225-bbf0-d5a6326fe147"},"vehicle_type_id":"4","last_reported":1769776318,"current_range_meters":8400,"station_id":"ce4bgj92rcd13ifvqbd0","pricing_plan_id":"cebpf4jnsgd1na2vs0mg"},{"bike_id":"65b759d9-e66a-4cc0-915d-2e8ad0441e0c","system_id":"levelo_inurba_marseille","lat":43.31183,"lon":5.38655,"is_reserved":false,"is_disabled":false,"rental_uris":{"android":"levelo://app?vid=65b759d9-e66a-4cc0-915d-2e8ad0441e0c","ios":"levelo://app?vid=65b759d9-e66a-4cc0-915d-2e8ad0441e0c"},"vehicle_type_id":"4","last_reported":1769776318,"current_range_meters":8400,"station_id":"","pricing_plan_id":"cebpf4jnsgd1na2vs0mg"},{"bike_id":"1f27ec75-229a-41dc-b219-3991b3e2c393","system_id":"levelo_inurba_marseille","lat":43.2825,"lon":5.35084,"is_reserved":false,"is_disabled":true,"rental_uris":{"android":"levelo://app?vid=1f27ec75-229a-41dc-b219-3991b3e2c393","ios":"levelo://app?vid=1f27ec75-229a-41dc-b219-3991b3e2c393"},"vehicle_type_id":"4","last_reported":1769776318,"current_range_meters":8800,"station_id":"ce4bhbp2rcd13ifvqerg","pricing_plan_id":"cebpf4jnsgd1na2vs0mg"},{"bike_id":"f1e871b7-a533-493d-8d00-88afa298aa5d","system_id":"levelo_inurba_marseille","lat":43.29786,"lon":5.37102,"is_reserved":false,"is_disabled":false,"rental_uris":{"android":"levelo://app?vid=f1e871b7-a533-493d-8d00-88afa298aa5d","ios":"levelo://app?vid=f1e871b7-a533-493d-8d00-88afa298aa5d"},"vehicle_type_id":"4","last_reported":1769776318,"current_range_meters":8800,"station_id":"ce4bgop2rcd13ifvqc1g","pricing_plan_id":"cebpf4jnsgd1na2vs0mg"},{"bike_id":"c2029e8e-62e9-40bd-90c8-2d85b607b409","system_id":"levelo_inurba_marseille","lat":43.29729,"lon":5.42784,"is_reserved":false,"is_disabled":false,"rental_uris":{"android":"levelo://app?vid=c2029e8e-62e9-40bd-90c8-2d85b607b409","ios":"levelo://app?vid=c2029e8e-62e9-40bd-90c8-2d85b607b409"},"vehicle_type_id":"4","last_reported":1769776318,"current_range_meters":8800,"station_id":"st_d3md5207bmas73dh9klg","pricing_plan_id":"cebpf4jnsgd1na2vs0mg"},{"bike_id":"7212c134-0bb1-4307-8053-dc66b6b70a1e","system_id":"levelo_inurba_marseille","lat":43.29772,"lon":5.42771,"is_reserved":false,"is_disabled":false,"rental_uris":{"android":"levelo://app?vid=7212c134-0bb1-4307-8053-dc66b6b70a1e","ios":"levelo://app?vid=7212c134-0bb1-4307-8053-dc66b6b70a1e"},"vehicle_type_id":"4","last_reported":1769776318,"current_range_meters":8800,"station_id":"st_d3md5207bmas73dh9klg","pricing_plan_id":"cebpf4jnsgd1na2vs0mg"},{"bike_id":"32c2a5af-b5f9-416e-8e4c-96e2f8d06aad","system_id":"levelo_inurba_marseille","lat":43.28275,"lon":5.35061,"is_reserved":false,"is_disabled":false,"rental_uris":{"android":"levelo://app?vid=32c2a5af-b5f9-416e-8e4c-96e2f8d06aad","ios":"levelo://app?vid=32c2a5af-b5f9-416e-8e4c-96e2f8d06aad"},"vehicle_type_id":"4","last_reported":1769776318,"current_range_meters":8800,"station_id":"ce4bhbp2rcd13ifvqerg","pricing_plan_id":"cebpf4jnsgd1na2vs0mg"},{"bike_id":"674d0755-bda6-44bd-8dd4-47ceec1f93de","system_id":"levelo_inurba_marseille","lat":43.24475,"lon":5.42533,"is_reserved":false,"is_disabled":false,"rental_uris":{"android":"levelo://app?vid=674d0755-bda6-44bd-8dd4-47ceec1f93de","ios":"levelo://app?vid=674d0755-bda6-44bd-8dd4-47ceec1f93de"},"vehicle_type_id":"4","last_reported":1769776318,"current_range_meters":8800,"station_id":"st_d4a3vfp97mjs738cd8kg","pricing_plan_id":"cebpf4jnsgd1na2vs0mg"},{"bike_id":"da07e919-e03e-4d46-8762-e8b586d3e643","system_id":"levelo_inurba_marseille","lat":43.24398,"lon":5.37048,"is_reserved":false,"is_disabled":false,"rental_uris":{"android":"levelo://app?vid=da07e919-e03e-4d46-8762-e8b586d3e643","ios":"levelo://app?vid=da07e919-e03e-4d46-8762-e8b586d3e643"},"vehicle_type_id":"4","last_reported":1769776318,"current_range_meters":8800,"station_id":"ce4bhhh2rcd13ifvqfk0","pricing_plan_id":"cebpf4jnsgd1na2vs0mg"},{"bike_id":"8d8e65a1-3cb6-416e-919a-8b962b63738e","system_id":"levelo_inurba_marseille","lat":43.25931,"lon":5.40903,"is_reserved":false,"is_disabled":false,"rental_uris":{"android":"levelo://app?vid=8d8e65a1-3cb6-416e-919a-8b962b63738e","ios":"levelo://app?vid=8d8e65a1-3cb6-416e-919a-8b962b63738e"},"vehicle_type_id":"4","last_reported":1769776318,"current_range_meters":8800,"station_id":"ce4bhm92rcd13ifvqglg","pricing_plan_id":"cebpf4jnsgd1na2vs0mg"},{"bike_id":"e173f412-1899-4966-b3ff-754ad81bd620","system_id":"levelo_inurba_marseille","lat":43.31062,"lon":5.38351,"is_reserved":false,"is_disabled":true,"rental_uris":{"android":"levelo://app?vid=e173f412-1899-4966-b3ff-754ad81bd620","ios":"levelo://app?vid=e173f412-1899-4966-b3ff-754ad81bd620"},"vehicle_type_id":"4","last_reported":1769776318,"current_range_meters":8800,"station_id":"ce4bgv92rcd13ifvqcr0","pricing_plan_id":"cebpf4jnsgd1na2vs0mg"},{"bike_id":"be1f6356-9b44-4dd3-9f21-a3c61341d563","system_id":"levelo_inurba_marseille","lat":43.26689,"lon":5.38266,"is_reserved":false,"is_disabled":false,"rental_uris":{"android":"levelo://app?vid=be1f6356-9b44-4dd3-9f21-a3c61341d563","ios":"levelo://app?vid=be1f6356-9b44-4dd3-9f21-a3c61341d563"},"vehicle_type_id":"4","last_reported":1769776318,"current_range_meters":8800,"station_id":"ce4bhg92rcd13ifvqf90","pricing_plan_id":"cebpf4jnsgd1na2vs0mg"},{"bike_id":"bcd89f65-2170-453f-9fb7-e1dc6f80c993","system_id":"levelo_inurba_marseille","lat":43.32075,"lon":5.41553,"is_reserved":false,"is_disabled":false,"rental_uris":{"android":"levelo://app?vid=bcd89f65-2170-453f-9fb7-e1dc6f80c993","ios":"levelo://app?vid=bcd89f65-2170-453f-9fb7-e1dc6f80c993"},"vehicle_type_id":"4","last_reported":1769776318,"current_range_meters":8800,"station_id":"ce4bhq92rcd13ifvqhkg","pricing_plan_id":"cebpf4jnsgd1na2vs0mg"},{"bike_id":"79103d80-5e87-4bb5-99d9-7aa5eb413313","system_id":"levelo_inurba_marseille","lat":43.28446,"lon":5.39183,"is_reserved":false,"is_disabled":false,"rental_uris":{"android":"levelo://app?vid=79103d80-5e87-4bb5-99d9-7aa5eb413313","ios":"levelo://app?vid=79103d80-5e87-4bb5-99d9-7aa5eb413313"},"vehicle_type_id":"4","last_reported":1769776318,"current_range_meters":8800,"station_id":"ce4bhoh2rcd13ifvqh5g","pricing_plan_id":"cebpf4jnsgd1na2vs0mg"},{"bike_id":"9c86850e-322f-4ad9-a906-f0fc183b90e2","system_id":"levelo_inurba_marseille","lat":43.28929,"lon":5.38388,"is_reserved":false,"is_disabled":false,"rental_uris":{"android":"levelo://app?vid=9c86850e-322f-4ad9-a906-f0fc183b90e2","ios":"levelo://app?vid=9c86850e-322f-4ad9-a906-f0fc183b90e2"},"vehicle_type_id":"4","last_reported":1769776318,"current_range_meters":8800,"station_id":"ce4bh612rcd13ifvqe6g","pricing_plan_id":"cebpf4jnsgd1na2vs0mg"},{"bike_id":"eedf6c4a-604c-448d-9cdd-2409a3e5332f","system_id":"levelo_inurba_marseille","lat":43.25547,"lon":5.38145,"is_reserved":false,"is_disabled":false,"rental_uris":{"android":"levelo://app?vid=eedf6c4a-604c-448d-9cdd-2409a3e5332f","ios":"levelo://app?vid=eedf6c4a-604c-448d-9cdd-2409a3e5332f"},"vehicle_type_id":"4","last_reported":1769776318,"current_range_meters":8800,"station_id":"","pricing_plan_id":"cebpf4jnsgd1na2vs0mg"},{"bike_id":"e149ab49-39e6-4d52-bc8e-9e010dce8ba1","system_id":"levelo_inurba_marseille","lat":43.327756,"lon":5.410074,"is_reserved":false,"is_disabled":false,"rental_uris":{"android":"levelo://app?vid=e149ab49-39e6-4d52-bc8e-9e010dce8ba1","ios":"levelo://app?vid=e149ab49-39e6-4d52-bc8e-9e010dce8ba1"},"vehicle_type_id":"4","last_reported":1769776318,"current_range_meters":8800,"station_id":"ce4bhqh2rcd13ifvqhmg","pricing_plan_id":"cebpf4jnsgd1na2vs0mg"},{"bike_id":"21cd87c7-b320-4bc5-960a-4f03cfc03f4a","system_id":"levelo_inurba_marseille","lat":43.32478,"lon":5.3657,"is_reserved":false,"is_disabled":false,"rental_uris":{"android":"levelo://app?vid=21cd87c7-b320-4bc5-960a-4f03cfc03f4a","ios":"levelo://app?vid=21cd87c7-b320-4bc5-960a-4f03cfc03f4a"},"vehicle_type_id":"4","last_reported":1769776318,"current_range_meters":8800,"station_id":"ce4bhs12rcd13ifvqhvg","pricing_plan_id":"cebpf4jnsgd1na2vs0mg"},{"bike_id":"c185cf38-df1b-4bb4-86d7-b251a2422e4d","system_id":"levelo_inurba_marseille","lat":43.32087,"lon":5.36841,"is_reserved":false,"is_disabled":false,"rental_uris":{"android":"levelo://app?vid=c185cf38-df1b-4bb4-86d7-b251a2422e4d","ios":"levelo://app?vid=c185cf38-df1b-4bb4-86d7-b251a2422e4d"},"vehicle_type_id":"4","last_reported":1769776318,"current_range_meters":8800,"station_id":"ce4bhrh2rcd13ifvqhug","pricing_plan_id":"cebpf4jnsgd1na2vs0mg"},{"bike_id":"4d346216-fb55-46b8-8cf4-3dcac0b05710","system_id":"levelo_inurba_marseille","lat":43.26537,"lon":5.37289,"is_reserved":false,"is_disabled":true,"rental_uris":{"android":"levelo://app?vid=4d346216-fb55-46b8-8cf4-3dcac0b05710","ios":"levelo://app?vid=4d346216-fb55-46b8-8cf4-3dcac0b05710"},"vehicle_type_id":"4","last_reported":1769776318,"current_range_meters":8800,"station_id":"ce4bhg12rcd13ifvqf70","pricing_plan_id":"cebpf4jnsgd1na2vs0mg"},{"bike_id":"dfadd71c-41b8-4f6c-b79f-ea5b6b145e5f","system_id":"levelo_inurba_marseille","lat":43.24167,"lon":5.36408,"is_reserved":false,"is_disabled":false,"rental_uris":{"android":"levelo://app?vid=dfadd71c-41b8-4f6c-b79f-ea5b6b145e5f","ios":"levelo://app?vid=dfadd71c-41b8-4f6c-b79f-ea5b6b145e5f"},"vehicle_type_id":"4","last_reported":1769776318,"current_range_meters":8800,"station_id":"cpo36qri1sfpv3e86is0","pricing_plan_id":"cebpf4jnsgd1na2vs0mg"},{"bike_id":"b6bb507a-35ba-4aad-bf8d-d9ba28e136e6","system_id":"levelo_inurba_marseille","lat":43.28282,"lon":5.3508,"is_reserved":false,"is_disabled":false,"rental_uris":{"android":"levelo://app?vid=b6bb507a-35ba-4aad-bf8d-d9ba28e136e6","ios":"levelo://app?vid=b6bb507a-35ba-4aad-bf8d-d9ba28e136e6"},"vehicle_type_id":"4","last_reported":1769776318,"current_range_meters":9200,"station_id":"ce4bhbp2rcd13ifvqerg","pricing_plan_id":"cebpf4jnsgd1na2vs0mg"},{"bike_id":"9ac35684-78f8-4312-9009-9c0b024fe004","system_id":"levelo_inurba_marseille","lat":43.23784,"lon":5.36631,"is_reserved":false,"is_disabled":false,"rental_uris":{"android":"levelo://app?vid=9ac35684-78f8-4312-9009-9c0b024fe004","ios":"levelo://app?vid=9ac35684-78f8-4312-9009-9c0b024fe004"},"vehicle_type_id":"4","last_reported":1769776318,"current_range_meters":9200,"station_id":"st_d3nk18o9ro0c73en2l3g","pricing_plan_id":"cebpf4jnsgd1na2vs0mg"},{"bike_id":"a633dcb8-69cc-416a-ac75-271c195c29ed","system_id":"levelo_inurba_marseille","lat":43.25502,"lon":5.37652,"is_reserved":false,"is_disabled":false,"rental_uris":{"android":"levelo://app?vid=a633dcb8-69cc-416a-ac75-271c195c29ed","ios":"levelo://app?vid=a633dcb8-69cc-416a-ac75-271c195c29ed"},"vehicle_type_id":"4","last_reported":1769776318,"current_range_meters":9200,"station_id":"ce4bhh12rcd13ifvqff0","pricing_plan_id":"cebpf4jnsgd1na2vs0mg"},{"bike_id":"3e47412e-7cff-4711-97d5-463652c22702","system_id":"levelo_inurba_marseille","lat":43.24186,"lon":5.36417,"is_reserved":false,"is_disabled":false,"rental_uris":{"android":"levelo://app?vid=3e47412e-7cff-4711-97d5-463652c22702","ios":"levelo://app?vid=3e47412e-7cff-4711-97d5-463652c22702"},"vehicle_type_id":"4","last_reported":1769776318,"current_range_meters":9200,"station_id":"cpo36qri1sfpv3e86is0","pricing_plan_id":"cebpf4jnsgd1na2vs0mg"},{"bike_id":"6f80a0c7-e6da-4e3f-a33d-84508ae903bc","system_id":"levelo_inurba_marseille","lat":43.24661,"lon":5.43134,"is_reserved":false,"is_disabled":false,"rental_uris":{"android":"levelo://app?vid=6f80a0c7-e6da-4e3f-a33d-84508ae903bc","ios":"levelo://app?vid=6f80a0c7-e6da-4e3f-a33d-84508ae903bc"},"vehicle_type_id":"4","last_reported":1769776318,"current_range_meters":9200,"station_id":"st_d2m6c4gdas8pm72e190g","pricing_plan_id":"cebpf4jnsgd1na2vs0mg"},{"bike_id":"8eeb4da1-5ffe-42ca-ae24-0fc13dd0c38e","system_id":"levelo_inurba_marseille","lat":43.29204,"lon":5.37459,"is_reserved":false,"is_disabled":false,"rental_uris":{"android":"levelo://app?vid=8eeb4da1-5ffe-42ca-ae24-0fc13dd0c38e","ios":"levelo://app?vid=8eeb4da1-5ffe-42ca-ae24-0fc13dd0c38e"},"vehicle_type_id":"4","last_reported":1769776318,"current_range_meters":9200,"station_id":"","pricing_plan_id":"cebpf4jnsgd1na2vs0mg"},{"bike_id":"da430813-1e4c-4d0a-b07d-976b86d0c6c6","system_id":"levelo_inurba_marseille","lat":43.25339,"lon":5.4219,"is_reserved":false,"is_disabled":false,"rental_uris":{"android":"levelo://app?vid=da430813-1e4c-4d0a-b07d-976b86d0c6c6","ios":"levelo://app?vid=da430813-1e4c-4d0a-b07d-976b86d0c6c6"},"vehicle_type_id":"4","last_reported":1769776318,"current_range_meters":9200,"station_id":"st_d2m65c5bi1j21697t3ng","pricing_plan_id":"cebpf4jnsgd1na2vs0mg"},{"bike_id":"b5d91fc7-30d8-4004-8e14-1ac91b3bffa6","system_id":"levelo_inurba_marseille","lat":43.2447,"lon":5.42554,"is_reserved":false,"is_disabled":false,"rental_uris":{"android":"levelo://app?vid=b5d91fc7-30d8-4004-8e14-1ac91b3bffa6","ios":"levelo://app?vid=b5d91fc7-30d8-4004-8e14-1ac91b3bffa6"},"vehicle_type_id":"4","last_reported":1769776318,"current_range_meters":9200,"station_id":"st_d4a3vfp97mjs738cd8kg","pricing_plan_id":"cebpf4jnsgd1na2vs0mg"},{"bike_id":"706b8e5e-95ef-4439-af74-99e8032d5ec0","system_id":"levelo_inurba_marseille","lat":43.28696,"lon":5.3998,"is_reserved":false,"is_disabled":false,"rental_uris":{"android":"levelo://app?vid=706b8e5e-95ef-4439-af74-99e8032d5ec0","ios":"levelo://app?vid=706b8e5e-95ef-4439-af74-99e8032d5ec0"},"vehicle_type_id":"4","last_reported":1769776318,"current_range_meters":9200,"station_id":"ce4bho92rcd13ifvqh3g","pricing_plan_id":"cebpf4jnsgd1na2vs0mg"},{"bike_id":"89d9bbd7-56c1-47dc-a33c-3c870e84c211","system_id":"levelo_inurba_marseille","lat":43.26039,"lon":5.37531,"is_reserved":false,"is_disabled":false,"rental_uris":{"android":"levelo://app?vid=89d9bbd7-56c1-47dc-a33c-3c870e84c211","ios":"levelo://app?vid=89d9bbd7-56c1-47dc-a33c-3c870e84c211"},"vehicle_type_id":"4","last_reported":1769776318,"current_range_meters":9200,"station_id":"ce4bhgh2rcd13ifvqfa0","pricing_plan_id":"cebpf4jnsgd1na2vs0mg"},{"bike_id":"f7ba70bd-983c-4ad6-a72c-36380a2ff19c","system_id":"levelo_inurba_marseille","lat":43.23193,"lon":5.35544,"is_reserved":false,"is_disabled":false,"rental_uris":{"android":"levelo://app?vid=f7ba70bd-983c-4ad6-a72c-36380a2ff19c","ios":"levelo://app?vid=f7ba70bd-983c-4ad6-a72c-36380a2ff19c"},"vehicle_type_id":"4","last_reported":1769776318,"current_range_meters":9200,"station_id":"ce4bhu92rcd13ifvqi70","pricing_plan_id":"cebpf4jnsgd1na2vs0mg"},{"bike_id":"4c29069d-3242-443b-97aa-edd3ce455f67","system_id":"levelo_inurba_marseille","lat":43.25116,"lon":5.40317,"is_reserved":false,"is_disabled":false,"rental_uris":{"android":"levelo://app?vid=4c29069d-3242-443b-97aa-edd3ce455f67","ios":"levelo://app?vid=4c29069d-3242-443b-97aa-edd3ce455f67"},"vehicle_type_id":"4","last_reported":1769776318,"current_range_meters":9200,"station_id":"ce4bhlh2rcd13ifvqgig","pricing_plan_id":"cebpf4jnsgd1na2vs0mg"},{"bike_id":"a2fd6d48-a2fb-4e58-a99a-8f86a55a7789","system_id":"levelo_inurba_marseille","lat":43.30456,"lon":5.37899,"is_reserved":false,"is_disabled":false,"rental_uris":{"android":"levelo://app?vid=a2fd6d48-a2fb-4e58-a99a-8f86a55a7789","ios":"levelo://app?vid=a2fd6d48-a2fb-4e58-a99a-8f86a55a7789"},"vehicle_type_id":"4","last_reported":1769776318,"current_range_meters":9200,"station_id":"ce4bgup2rcd13ifvqcn0","pricing_plan_id":"cebpf4jnsgd1na2vs0mg"},{"bike_id":"05d7b93d-f7c8-4d96-ae68-729c5b25c9c8","system_id":"levelo_inurba_marseille","lat":43.27506,"lon":5.42449,"is_reserved":false,"is_disabled":true,"rental_uris":{"android":"levelo://app?vid=05d7b93d-f7c8-4d96-ae68-729c5b25c9c8","ios":"levelo://app?vid=05d7b93d-f7c8-4d96-ae68-729c5b25c9c8"},"vehicle_type_id":"4","last_reported":1769776318,"current_range_meters":9600,"station_id":"ce4bhn92rcd13ifvqgrg","pricing_plan_id":"cebpf4jnsgd1na2vs0mg"},{"bike_id":"169e268b-5fcc-439a-85a8-5d0f835d65db","system_id":"levelo_inurba_marseille","lat":43.25506,"lon":5.37666,"is_reserved":false,"is_disabled":false,"rental_uris":{"android":"levelo://app?vid=169e268b-5fcc-439a-85a8-5d0f835d65db","ios":"levelo://app?vid=169e268b-5fcc-439a-85a8-5d0f835d65db"},"vehicle_type_id":"4","last_reported":1769776318,"current_range_meters":9600,"station_id":"ce4bhh12rcd13ifvqff0","pricing_plan_id":"cebpf4jnsgd1na2vs0mg"},{"bike_id":"1f7bf812-3010-4d6a-bbe0-de222f9f0cf1","system_id":"levelo_inurba_marseille","lat":43.24082,"lon":5.37734,"is_reserved":false,"is_disabled":false,"rental_uris":{"android":"levelo://app?vid=1f7bf812-3010-4d6a-bbe0-de222f9f0cf1","ios":"levelo://app?vid=1f7bf812-3010-4d6a-bbe0-de222f9f0cf1"},"vehicle_type_id":"4","last_reported":1769776318,"current_range_meters":9600,"station_id":"ce4bhnp2rcd13ifvqgvg","pricing_plan_id":"cebpf4jnsgd1na2vs0mg"},{"bike_id":"14dbbc7f-d9f5-4d2e-abab-d738507cef2a","system_id":"levelo_inurba_marseille","lat":43.23788,"lon":5.3663,"is_reserved":false,"is_disabled":false,"rental_uris":{"android":"levelo://app?vid=14dbbc7f-d9f5-4d2e-abab-d738507cef2a","ios":"levelo://app?vid=14dbbc7f-d9f5-4d2e-abab-d738507cef2a"},"vehicle_type_id":"4","last_reported":1769776318,"current_range_meters":9600,"station_id":"st_d3nk18o9ro0c73en2l3g","pricing_plan_id":"cebpf4jnsgd1na2vs0mg"},{"bike_id":"3204c5b6-1dfb-4cc3-a887-23e54972fa05","system_id":"levelo_inurba_marseille","lat":43.29175,"lon":5.37224,"is_reserved":false,"is_disabled":false,"rental_uris":{"android":"levelo://app?vid=3204c5b6-1dfb-4cc3-a887-23e54972fa05","ios":"levelo://app?vid=3204c5b6-1dfb-4cc3-a887-23e54972fa05"},"vehicle_type_id":"4","last_reported":1769776318,"current_range_meters":9600,"station_id":"","pricing_plan_id":"cebpf4jnsgd1na2vs0mg"},{"bike_id":"3d54a795-831b-4f5a-8c8c-79b745d58ccf","system_id":"levelo_inurba_marseille","lat":43.2665,"lon":5.40252,"is_reserved":false,"is_disabled":false,"rental_uris":{"android":"levelo://app?vid=3d54a795-831b-4f5a-8c8c-79b745d58ccf","ios":"levelo://app?vid=3d54a795-831b-4f5a-8c8c-79b745d58ccf"},"vehicle_type_id":"4","last_reported":1769776318,"current_range_meters":9600,"station_id":"ce4bhmp2rcd13ifvqgng","pricing_plan_id":"cebpf4jnsgd1na2vs0mg"},{"bike_id":"a348b41d-ce0f-4115-b2b3-f88fa8dc97dd","system_id":"levelo_inurba_marseille","lat":43.22557,"lon":5.41618,"is_reserved":false,"is_disabled":false,"rental_uris":{"android":"levelo://app?vid=a348b41d-ce0f-4115-b2b3-f88fa8dc97dd","ios":"levelo://app?vid=a348b41d-ce0f-4115-b2b3-f88fa8dc97dd"},"vehicle_type_id":"4","last_reported":1769776318,"current_range_meters":9600,"station_id":"st_d2o4gvlbi1j2169b742g","pricing_plan_id":"cebpf4jnsgd1na2vs0mg"},{"bike_id":"f824cf1a-0540-4cf9-af61-d7b99d9faf84","system_id":"levelo_inurba_marseille","lat":43.2417,"lon":5.36396,"is_reserved":false,"is_disabled":false,"rental_uris":{"android":"levelo://app?vid=f824cf1a-0540-4cf9-af61-d7b99d9faf84","ios":"levelo://app?vid=f824cf1a-0540-4cf9-af61-d7b99d9faf84"},"vehicle_type_id":"4","last_reported":1769776318,"current_range_meters":9600,"station_id":"cpo36qri1sfpv3e86is0","pricing_plan_id":"cebpf4jnsgd1na2vs0mg"},{"bike_id":"3f9b1d18-cd65-442c-b27f-760f5559e29d","system_id":"levelo_inurba_marseille","lat":43.2995,"lon":5.36519,"is_reserved":false,"is_disabled":false,"rental_uris":{"android":"levelo://app?vid=3f9b1d18-cd65-442c-b27f-760f5559e29d","ios":"levelo://app?vid=3f9b1d18-cd65-442c-b27f-760f5559e29d"},"vehicle_type_id":"4","last_reported":1769776318,"current_range_meters":9600,"station_id":"ce4bgm92rcd13ifvqbr0","pricing_plan_id":"cebpf4jnsgd1na2vs0mg"},{"bike_id":"a645f1a6-e770-4076-b7fc-570f534eb88d","system_id":"levelo_inurba_marseille","lat":43.27124,"lon":5.38975,"is_reserved":false,"is_disabled":false,"rental_uris":{"android":"levelo://app?vid=a645f1a6-e770-4076-b7fc-570f534eb88d","ios":"levelo://app?vid=a645f1a6-e770-4076-b7fc-570f534eb88d"},"vehicle_type_id":"4","last_reported":1769776318,"current_range_meters":9600,"station_id":"","pricing_plan_id":"cebpf4jnsgd1na2vs0mg"},{"bike_id":"b32a36ac-6d8c-4f94-8007-49ab8ab4f812","system_id":"levelo_inurba_marseille","lat":43.29876,"lon":5.43594,"is_reserved":false,"is_disabled":false,"rental_uris":{"android":"levelo://app?vid=b32a36ac-6d8c-4f94-8007-49ab8ab4f812","ios":"levelo://app?vid=b32a36ac-6d8c-4f94-8007-49ab8ab4f812"},"vehicle_type_id":"4","last_reported":1769776318,"current_range_meters":9600,"station_id":"ce4bhpp2rcd13ifvqhfg","pricing_plan_id":"cebpf4jnsgd1na2vs0mg"},{"bike_id":"6e41a83a-81d2-4a93-a5d7-1e6a11d16bcb","system_id":"levelo_inurba_marseille","lat":43.23175,"lon":5.35551,"is_reserved":false,"is_disabled":false,"rental_uris":{"android":"levelo://app?vid=6e41a83a-81d2-4a93-a5d7-1e6a11d16bcb","ios":"levelo://app?vid=6e41a83a-81d2-4a93-a5d7-1e6a11d16bcb"},"vehicle_type_id":"4","last_reported":1769776318,"current_range_meters":9600,"station_id":"ce4bhu92rcd13ifvqi70","pricing_plan_id":"cebpf4jnsgd1na2vs0mg"},{"bike_id":"9286fb5d-411f-48b4-8882-1595131ae24b","system_id":"levelo_inurba_marseille","lat":43.26791,"lon":5.39452,"is_reserved":false,"is_disabled":false,"rental_uris":{"android":"levelo://app?vid=9286fb5d-411f-48b4-8882-1595131ae24b","ios":"levelo://app?vid=9286fb5d-411f-48b4-8882-1595131ae24b"},"vehicle_type_id":"4","last_reported":1769776318,"current_range_meters":9600,"station_id":"ce4bhh12rcd13ifvqfg0","pricing_plan_id":"cebpf4jnsgd1na2vs0mg"},{"bike_id":"0c64f01b-e867-4b27-be2c-1c9d836477bc","system_id":"levelo_inurba_marseille","lat":43.29024,"lon":5.37732,"is_reserved":false,"is_disabled":false,"rental_uris":{"android":"levelo://app?vid=0c64f01b-e867-4b27-be2c-1c9d836477bc","ios":"levelo://app?vid=0c64f01b-e867-4b27-be2c-1c9d836477bc"},"vehicle_type_id":"4","last_reported":1769776318,"current_range_meters":9600,"station_id":"","pricing_plan_id":"cebpf4jnsgd1na2vs0mg"},{"bike_id":"69ac230a-38ea-4352-9cae-117657676c98","system_id":"levelo_inurba_marseille","lat":43.30734,"lon":5.42452,"is_reserved":false,"is_disabled":false,"rental_uris":{"android":"levelo://app?vid=69ac230a-38ea-4352-9cae-117657676c98","ios":"levelo://app?vid=69ac230a-38ea-4352-9cae-117657676c98"},"vehicle_type_id":"4","last_reported":1769776318,"current_range_meters":9600,"station_id":"st_cvj6ca6bvosntc0bfgr0","pricing_plan_id":"cebpf4jnsgd1na2vs0mg"},{"bike_id":"52c8813a-f120-4644-a4e2-3176903464e7","system_id":"levelo_inurba_marseille","lat":43.282631,"lon":5.350561,"is_reserved":false,"is_disabled":false,"rental_uris":{"android":"levelo://app?vid=52c8813a-f120-4644-a4e2-3176903464e7","ios":"levelo://app?vid=52c8813a-f120-4644-a4e2-3176903464e7"},"vehicle_type_id":"4","last_reported":1769776318,"current_range_meters":9600,"station_id":"ce4bhbp2rcd13ifvqerg","pricing_plan_id":"cebpf4jnsgd1na2vs0mg"},{"bike_id":"4488b7bd-2de4-4a30-8400-e60c2d945a3c","system_id":"levelo_inurba_marseille","lat":43.29818,"lon":5.44067,"is_reserved":false,"is_disabled":false,"rental_uris":{"android":"levelo://app?vid=4488b7bd-2de4-4a30-8400-e60c2d945a3c","ios":"levelo://app?vid=4488b7bd-2de4-4a30-8400-e60c2d945a3c"},"vehicle_type_id":"4","last_reported":1769776318,"current_range_meters":9600,"station_id":"st_d3jp68qikq2c7381ktn0","pricing_plan_id":"cebpf4jnsgd1na2vs0mg"},{"bike_id":"67dde3a5-6719-400f-9754-ba07b063d126","system_id":"levelo_inurba_marseille","lat":43.22563,"lon":5.4163,"is_reserved":false,"is_disabled":false,"rental_uris":{"android":"levelo://app?vid=67dde3a5-6719-400f-9754-ba07b063d126","ios":"levelo://app?vid=67dde3a5-6719-400f-9754-ba07b063d126"},"vehicle_type_id":"4","last_reported":1769776318,"current_range_meters":10000,"station_id":"st_d2o4gvlbi1j2169b742g","pricing_plan_id":"cebpf4jnsgd1na2vs0mg"},{"bike_id":"39588d8e-7c96-4ea3-9651-39b9132979a7","system_id":"levelo_inurba_marseille","lat":43.24411,"lon":5.37049,"is_reserved":false,"is_disabled":false,"rental_uris":{"android":"levelo://app?vid=39588d8e-7c96-4ea3-9651-39b9132979a7","ios":"levelo://app?vid=39588d8e-7c96-4ea3-9651-39b9132979a7"},"vehicle_type_id":"4","last_reported":1769776318,"current_range_meters":10000,"station_id":"ce4bhhh2rcd13ifvqfk0","pricing_plan_id":"cebpf4jnsgd1na2vs0mg"},{"bike_id":"69bd550d-bae4-47b4-8ea1-fdf2613d9cd6","system_id":"levelo_inurba_marseille","lat":43.23975,"lon":5.3662,"is_reserved":false,"is_disabled":false,"rental_uris":{"android":"levelo://app?vid=69bd550d-bae4-47b4-8ea1-fdf2613d9cd6","ios":"levelo://app?vid=69bd550d-bae4-47b4-8ea1-fdf2613d9cd6"},"vehicle_type_id":"4","last_reported":1769776318,"current_range_meters":10000,"station_id":"ce4bhi12rcd13ifvqfp0","pricing_plan_id":"cebpf4jnsgd1na2vs0mg"},{"bike_id":"eb04defa-9c2c-4a46-a4da-2174d6dcd3f8","system_id":"levelo_inurba_marseille","lat":43.28476,"lon":5.4839,"is_reserved":false,"is_disabled":false,"rental_uris":{"android":"levelo://app?vid=eb04defa-9c2c-4a46-a4da-2174d6dcd3f8","ios":"levelo://app?vid=eb04defa-9c2c-4a46-a4da-2174d6dcd3f8"},"vehicle_type_id":"4","last_reported":1769776318,"current_range_meters":10000,"station_id":"","pricing_plan_id":"cebpf4jnsgd1na2vs0mg"},{"bike_id":"59c0a44a-805c-4ba2-b73e-3b162753bb66","system_id":"levelo_inurba_marseille","lat":43.285593,"lon":5.398959,"is_reserved":false,"is_disabled":false,"rental_uris":{"android":"levelo://app?vid=59c0a44a-805c-4ba2-b73e-3b162753bb66","ios":"levelo://app?vid=59c0a44a-805c-4ba2-b73e-3b162753bb66"},"vehicle_type_id":"4","last_reported":1769776318,"current_range_meters":10000,"station_id":"","pricing_plan_id":"cebpf4jnsgd1na2vs0mg"},{"bike_id":"acb481fc-82df-49e7-8f71-bb7e93332088","system_id":"levelo_inurba_marseille","lat":43.29842,"lon":5.36278,"is_reserved":false,"is_disabled":false,"rental_uris":{"android":"levelo://app?vid=acb481fc-82df-49e7-8f71-bb7e93332088","ios":"levelo://app?vid=acb481fc-82df-49e7-8f71-bb7e93332088"},"vehicle_type_id":"4","last_reported":1769776318,"current_range_meters":10000,"station_id":"ce4bgpp2rcd13ifvqc3g","pricing_plan_id":"cebpf4jnsgd1na2vs0mg"},{"bike_id":"ea32c3f6-a4db-44fe-907c-c45fd747ad9f","system_id":"levelo_inurba_marseille","lat":43.28852,"lon":5.42526,"is_reserved":false,"is_disabled":false,"rental_uris":{"android":"levelo://app?vid=ea32c3f6-a4db-44fe-907c-c45fd747ad9f","ios":"levelo://app?vid=ea32c3f6-a4db-44fe-907c-c45fd747ad9f"},"vehicle_type_id":"4","last_reported":1769776318,"current_range_meters":10000,"station_id":"st_d3b462108ojc7389ooeg","pricing_plan_id":"cebpf4jnsgd1na2vs0mg"},{"bike_id":"542c4194-0cbb-46a2-81b1-a944e64c63f6","system_id":"levelo_inurba_marseille","lat":43.27189,"lon":5.40986,"is_reserved":false,"is_disabled":false,"rental_uris":{"android":"levelo://app?vid=542c4194-0cbb-46a2-81b1-a944e64c63f6","ios":"levelo://app?vid=542c4194-0cbb-46a2-81b1-a944e64c63f6"},"vehicle_type_id":"4","last_reported":1769776318,"current_range_meters":10000,"station_id":"ce4bhl12rcd13ifvqgf0","pricing_plan_id":"cebpf4jnsgd1na2vs0mg"},{"bike_id":"f7825eee-d0e1-46ac-b609-73dc3791f9ef","system_id":"levelo_inurba_marseille","lat":43.2802,"lon":5.36949,"is_reserved":false,"is_disabled":false,"rental_uris":{"android":"levelo://app?vid=f7825eee-d0e1-46ac-b609-73dc3791f9ef","ios":"levelo://app?vid=f7825eee-d0e1-46ac-b609-73dc3791f9ef"},"vehicle_type_id":"4","last_reported":1769776318,"current_range_meters":10000,"station_id":"ce4bha12rcd13ifvqef0","pricing_plan_id":"cebpf4jnsgd1na2vs0mg"},{"bike_id":"907fe098-8c66-4b78-b3e4-e13f634d04c8","system_id":"levelo_inurba_marseille","lat":43.31515,"lon":5.3707,"is_reserved":false,"is_disabled":false,"rental_uris":{"android":"levelo://app?vid=907fe098-8c66-4b78-b3e4-e13f634d04c8","ios":"levelo://app?vid=907fe098-8c66-4b78-b3e4-e13f634d04c8"},"vehicle_type_id":"4","last_reported":1769776318,"current_range_meters":10000,"station_id":"ce4bgt12rcd13ifvqcd0","pricing_plan_id":"cebpf4jnsgd1na2vs0mg"},{"bike_id":"d6cf163d-52c4-426a-aaf1-5e501ca5e9ab","system_id":"levelo_inurba_marseille","lat":43.25333,"lon":5.42174,"is_reserved":false,"is_disabled":false,"rental_uris":{"android":"levelo://app?vid=d6cf163d-52c4-426a-aaf1-5e501ca5e9ab","ios":"levelo://app?vid=d6cf163d-52c4-426a-aaf1-5e501ca5e9ab"},"vehicle_type_id":"4","last_reported":1769776318,"current_range_meters":10000,"station_id":"st_d2m65c5bi1j21697t3ng","pricing_plan_id":"cebpf4jnsgd1na2vs0mg"},