{"last_updated":1729523419,"ttl":60,"version":"2.2","data":{"bikes":[{"bike_id":"055ac919-c05f-4c8f-af40-aa8f262fd7c3","system_id":"levelo_inurba_marseille","lat":43.28259,"lon":5.35065,"is_reserved":false,"is_disabled":false,"rental_uris":{"android":"levelo://app?vid=055ac919-c05f-4c8f-af40-aa8f262fd7c3","ios":"levelo://app?vid=055ac919-c05f-4c8f-af40-aa8f262fd7c3"},"vehicle_type_id":"4","last_reported":1729523419,"current_range_meters":36800,"station_id":"ce4bhbp2rcd13ifvqerg","pricing_plan_id":"cebpf4jnsgd1na2vs0mg"},{"bike_id":"a057fcc1-7013-42ba-ac01-60ff0a17fd6d","system_id":"levelo_inurba_marseille","lat":43.27616,"lon":5.36118,"is_reserved":false,"is_disabled":false,"rental_uris":{"android":"levelo://app?vid=a057fcc1-7013-42ba-ac01-60ff0a17fd6d","ios":"levelo://app?vid=a057fcc1-7013-42ba-ac01-60ff0a17fd6d"},"vehicle_type_id":"4","last_reported":1729523419,"current_range_meters":22000,"station_id":"ce4bgj92rcd13ifvqbe0","pricing_plan_id":"cebpf4jnsgd1na2vs0mg"},{"bike_id":"b7601630-feee-4571-a17a-79e3dea84bae","system_id":"levelo_inurba_marseille","lat":43.2465,"lon":5.38893,"is_reserved":false,"is_disabled":false,"rental_uris":{"android":"levelo://app?vid=b7601630-feee-4571-a17a-79e3dea84bae","ios":"levelo://app?vid=b7601630-feee-4571-a17a-79e3dea84bae"},"vehicle_type_id":"4","last_reported":1729523419,"current_range_meters":38800,"station_id":"ce4bhg12rcd13ifvqf60","pricing_plan_id":"cebpf4jnsgd1na2vs0mg"},{"bike_id":"007de1ee-123e-44fe-86f5-ad1850b0efc3","system_id":"levelo_inurba_marseille","lat":43.29224,"lon":5.36081,"is_reserved":false,"is_disabled":false,"rental_uris":{"android":"levelo://app?vid=007de1ee-123e-44fe-86f5-ad1850b0efc3","ios":"levelo://app?vid=007de1ee-123e-44fe-86f5-ad1850b0efc3"},"vehicle_type_id":"4","last_reported":1729523419,"current_range_meters":34000,"station_id":"ce4bhbh2rcd13ifvqeqg","pricing_plan_id":"cebpf4jnsgd1na2vs0mg"},{"bike_id":"51b68765-da36-4804-8b27-d95823e0de04","system_id":"levelo_inurba_marseille","lat":43.28149,"lon":5.42651,"is_reserved":false,"is_disabled":false,"rental_uris":{"android":"levelo://app?vid=51b68765-da36-4804-8b27-d95823e0de04","ios":"levelo://app?vid=51b68765-da36-4804-8b27-d95823e0de04"},"vehicle_type_id":"4","last_reported":1729523419,"current_range_meters":3600,"station_id":"ce4bhnh2rcd13ifvqgug","pricing_plan_id":"cebpf4jnsgd1na2vs0mg"},{"bike_id":"53b5cfa9-cea2-44a2-a93f-ffe40df82b23","system_id":"levelo_inurba_marseille","lat":43.28415,"lon":5.34984,"is_reserved":false,"is_disabled":false,"rental_uris":{"android":"levelo://app?vid=53b5cfa9-cea2-44a2-a93f-ffe40df82b23","ios":"levelo://app?vid=53b5cfa9-cea2-44a2-a93f-ffe40df82b23"},"vehicle_type_id":"4","last_reported":1729523419,"current_range_meters":39200,"station_id":"ce4bhbh2rcd13ifvqepg","pricing_plan_id":"cebpf4jnsgd1na2vs0mg"},{"bike_id":"30975775-afdc-4dbc-a24c-ad109cec844f","system_id":"levelo_inurba_marseille","lat":43.28461,"lon":5.35884,"is_reserved":false,"is_disabled":false,"rental_uris":{"android":"levelo://app?vid=30975775-afdc-4dbc-a24c-ad109cec844f","ios":"levelo://app?vid=30975775-afdc-4dbc-a24c-ad109cec844f"},"vehicle_type_id":"4","last_reported":1729523419,"current_range_meters":9200,"station_id":"ce4bhah2rcd13ifvqei0","pricing_plan_id":"cebpf4jnsgd1na2vs0mg"},{"bike_id":"12bea866-6436-4c57-9993-4f602ccc7b3c","system_id":"levelo_inurba_marseille","lat":43.22928,"lon":5.35377,"is_reserved":false,"is_disabled":false,"rental_uris":{"android":"levelo://app?vid=12bea866-6436-4c57-9993-4f602ccc7b3c","ios":"levelo://app?vid=12bea866-6436-4c57-9993-4f602ccc7b3c"},"vehicle_type_id":"4","last_reported":1729523419,"current_range_meters":38000,"station_id":"cpo3532slgdg3j2ikp40","pricing_plan_id":"cebpf4jnsgd1na2vs0mg"},{"bike_id":"0df58e98-a264-4687-96df-1b556d873a26","system_id":"levelo_inurba_marseille","lat":43.32099,"lon":5.36782,"is_reserved":false,"is_disabled":false,"rental_uris":{"android":"levelo://app?vid=0df58e98-a264-4687-96df-1b556d873a26","ios":"levelo://app?vid=0df58e98-a264-4687-96df-1b556d873a26"},"vehicle_type_id":"4","last_reported":1729523419,"current_range_meters":14400,"station_id":"ce4bhrh2rcd13ifvqhug","pricing_plan_id":"cebpf4jnsgd1na2vs0mg"},{"bike_id":"b932e369-5ccc-4ee7-969d-804cf6010408","system_id":"levelo_inurba_marseille","lat":43.28271,"lon":5.35083,"is_reserved":false,"is_disabled":false,"rental_uris":{"android":"levelo://app?vid=b932e369-5ccc-4ee7-969d-804cf6010408","ios":"levelo://app?vid=b932e369-5ccc-4ee7-969d-804cf6010408"},"vehicle_type_id":"4","last_reported":1729523419,"current_range_meters":27200,"station_id":"ce4bhbp2rcd13ifvqerg","pricing_plan_id":"cebpf4jnsgd1na2vs0mg"},{"bike_id":"885ac4a7-7dad-4016-a286-f6c226180f64","system_id":"levelo_inurba_marseille","lat":43.23191,"lon":5.35547,"is_reserved":false,"is_disabled":false,"rental_uris":{"android":"levelo://app?vid=885ac4a7-7dad-4016-a286-f6c226180f64","ios":"levelo://app?vid=885ac4a7-7dad-4016-a286-f6c226180f64"},"vehicle_type_id":"4","last_reported":1729523419,"current_range_meters":34800,"station_id":"ce4bhu92rcd13ifvqi70","pricing_plan_id":"cebpf4jnsgd1na2vs0mg"},{"bike_id":"a1489b30-e2cd-465d-a3b1-63964b256b98","system_id":"levelo_inurba_marseille","lat":43.284173,"lon":5.349752,"is_reserved":false,"is_disabled":false,"rental_uris":{"android":"levelo://app?vid=a1489b30-e2cd-465d-a3b1-63964b256b98","ios":"levelo://app?vid=a1489b30-e2cd-465d-a3b1-63964b256b98"},"vehicle_type_id":"4","last_reported":1729523419,"current_range_meters":19200,"station_id":"ce4bhbh2rcd13ifvqepg","pricing_plan_id":"cebpf4jnsgd1na2vs0mg"},{"bike_id":"dacd1d96-56ff-4fb5-8a20-d328938c11e9","system_id":"levelo_inurba_marseille","lat":43.26568,"lon":5.39005,"is_reserved":false,"is_disabled":false,"rental_uris":{"android":"levelo://app?vid=dacd1d96-56ff-4fb5-8a20-d328938c11e9","ios":"levelo://app?vid=dacd1d96-56ff-4fb5-8a20-d328938c11e9"},"vehicle_type_id":"4","last_reported":1729523419,"current_range_meters":17600,"station_id":"ce4bhe12rcd13ifvqf30","pricing_plan_id":"cebpf4jnsgd1na2vs0mg"},{"bike_id":"85bc5aea-df0f-4bae-9033-16ea6747d3a4","system_id":"levelo_inurba_marseille","lat":43.27375,"lon":5.36255,"is_reserved":false,"is_disabled":false,"rental_uris":{"android":"levelo://app?vid=85bc5aea-df0f-4bae-9033-16ea6747d3a4","ios":"levelo://app?vid=85bc5aea-df0f-4bae-9033-16ea6747d3a4"},"vehicle_type_id":"4","last_reported":1729523419,"current_range_meters":6800,"station_id":"ce4bhbh2rcd13ifvqeo0","pricing_plan_id":"cebpf4jnsgd1na2vs0mg"},{"bike_id":"4ef4249e-ac05-419b-b664-92a900d8553f","system_id":"levelo_inurba_marseille","lat":43.2869,"lon":5.37386,"is_reserved":false,"is_disabled":false,"rental_uris":{"android":"levelo://app?vid=4ef4249e-ac05-419b-b664-92a900d8553f","ios":"levelo://app?vid=4ef4249e-ac05-419b-b664-92a900d8553f"},"vehicle_type_id":"4","last_reported":1729523419,"current_range_meters":21600,"station_id":"ce4bh3p2rcd13ifvqdq0","pricing_plan_id":"cebpf4jnsgd1na2vs0mg"},{"bike_id":"3787793c-2d49-45f6-869b-c0c33de60958","system_id":"levelo_inurba_marseille","lat":43.26566,"lon":5.39008,"is_reserved":false,"is_disabled":false,"rental_uris":{"android":"levelo://app?vid=3787793c-2d49-45f6-869b-c0c33de60958","ios":"levelo://app?vid=3787793c-2d49-45f6-869b-c0c33de60958"},"vehicle_type_id":"4","last_reported":1729523419,"current_range_meters":8400,"station_id":"ce4bhe12rcd13ifvqf30","pricing_plan_id":"cebpf4jnsgd1na2vs0mg"},{"bike_id":"db279941-aadc-4433-8e89-dd89ed4e1ba9","system_id":"levelo_inurba_marseille","lat":43.303101,"lon":5.36908,"is_reserved":false,"is_disabled":false,"rental_uris":{"android":"levelo://app?vid=db279941-aadc-4433-8e89-dd89ed4e1ba9","ios":"levelo://app?vid=db279941-aadc-4433-8e89-dd89ed4e1ba9"},"vehicle_type_id":"4","last_reported":1729523419,"current_range_meters":36000,"station_id":"ce4bgqh2rcd13ifvqc5g","pricing_plan_id":"cebpf4jnsgd1na2vs0mg"},{"bike_id":"ba059a80-8f6c-4c72-9a86-c36fac9d6aec","system_id":"levelo_inurba_marseille","lat":43.29085,"lon":5.38109,"is_reserved":false,"is_disabled":false,"rental_uris":{"android":"levelo://app?vid=ba059a80-8f6c-4c72-9a86-c36fac9d6aec","ios":"levelo://app?vid=ba059a80-8f6c-4c72-9a86-c36fac9d6aec"},"vehicle_type_id":"4","last_reported":1729523419,"current_range_meters":30400,"station_id":"ce4bh512rcd13ifvqe2g","pricing_plan_id":"cebpf4jnsgd1na2vs0mg"},{"bike_id":"3de55bfa-c0ca-4740-a1f4-4e698e71da4e","system_id":"levelo_inurba_marseille","lat":43.27494,"lon":5.4245,"is_reserved":false,"is_disabled":false,"rental_uris":{"android":"levelo://app?vid=3de55bfa-c0ca-4740-a1f4-4e698e71da4e","ios":"levelo://app?vid=3de55bfa-c0ca-4740-a1f4-4e698e71da4e"},"vehicle_type_id":"4","last_reported":1729523419,"current_range_meters":31200,"station_id":"ce4bhn92rcd13ifvqgrg","pricing_plan_id":"cebpf4jnsgd1na2vs0mg"},{"bike_id":"17a9ea24-a710-45a4-9bf0-91a75aca0687","system_id":"levelo_inurba_marseille","lat":43.28423,"lon":5.34983,"is_reserved":false,"is_disabled":false,"rental_uris":{"android":"levelo://app?vid=17a9ea24-a710-45a4-9bf0-91a75aca0687","ios":"levelo://app?vid=17a9ea24-a710-45a4-9bf0-91a75aca0687"},"vehicle_type_id":"4","last_reported":1729523419,"current_range_meters":28400,"station_id":"ce4bhbh2rcd13ifvqepg","pricing_plan_id":"cebpf4jnsgd1na2vs0mg"},{"bike_id":"da5a500b-a22c-45f3-9140-7dc54fb2335f","system_id":"levelo_inurba_marseille","lat":43.28863,"lon":5.35859,"is_reserved":false,"is_disabled":false,"rental_uris":{"android":"levelo://app?vid=da5a500b-a22c-45f3-9140-7dc54fb2335f","ios":"levelo://app?vid=da5a500b-a22c-45f3-9140-7dc54fb2335f"},"vehicle_type_id":"4","last_reported":1729523419,"current_range_meters":25600,"station_id":"ce4bhb12rcd13ifvqem0","pricing_plan_id":"cebpf4jnsgd1na2vs0mg"},{"bike_id":"730f5f04-9cef-4a3d-8954-779ca2382258","system_id":"levelo_inurba_marseille","lat":43.32104,"lon":5.36784,"is_reserved":false,"is_disabled":false,"rental_uris":{"android":"levelo://app?vid=730f5f04-9cef-4a3d-8954-779ca2382258","ios":"levelo://app?vid=730f5f04-9cef-4a3d-8954-779ca2382258"},"vehicle_type_id":"4","last_reported":1729523419,"current_range_meters":39200,"station_id":"ce4bhrh2rcd13ifvqhug","pricing_plan_id":"cebpf4jnsgd1na2vs0mg"},{"bike_id":"48fbcf13-e47c-41e1-887e-3aeff59d1ae8","system_id":"levelo_inurba_marseille","lat":43.31473,"lon":5.37308,"is_reserved":false,"is_disabled":false,"rental_uris":{"android":"levelo://app?vid=48fbcf13-e47c-41e1-887e-3aeff59d1ae8","ios":"levelo://app?vid=48fbcf13-e47c-41e1-887e-3aeff59d1ae8"},"vehicle_type_id":"4","last_reported":1729523419,"current_range_meters":17200,"station_id":"ce4bgt12rcd13ifvqcd0","pricing_plan_id":"cebpf4jnsgd1na2vs0mg"},{"bike_id":"15a3590a-7ba0-4adc-967a-e84b045e4646","system_id":"levelo_inurba_marseille","lat":43.2847,"lon":5.3843,"is_reserved":false,"is_disabled":false,"rental_uris":{"android":"levelo://app?vid=15a3590a-7ba0-4adc-967a-e84b045e4646","ios":"levelo://app?vid=15a3590a-7ba0-4adc-967a-e84b045e4646"},"vehicle_type_id":"4","last_reported":1729523419,"current_range_meters":8000,"station_id":"ce4bh512rcd13ifvqe3g","pricing_plan_id":"cebpf4jnsgd1na2vs0mg"},{"bike_id":"ff2d6f2b-8929-485d-8c1e-2283071fdb86","system_id":"levelo_inurba_marseille","lat":43.2315,"lon":5.43719,"is_reserved":false,"is_disabled":false,"rental_uris":{"android":"levelo://app?vid=ff2d6f2b-8929-485d-8c1e-2283071fdb86","ios":"levelo://app?vid=ff2d6f2b-8929-485d-8c1e-2283071fdb86"},"vehicle_type_id":"4","last_reported":1729523419,"current_range_meters":8400,"station_id":"ce4bhmp2rcd13ifvqgog","pricing_plan_id":"cebpf4jnsgd1na2vs0mg"},{"bike_id":"3c2e9290-6792-4e2d-b00d-712b965be0bd","system_id":"levelo_inurba_marseille","lat":43.26421,"lon":5.38679,"is_reserved":false,"is_disabled":false,"rental_uris":{"android":"levelo://app?vid=3c2e9290-6792-4e2d-b00d-712b965be0bd","ios":"levelo://app?vid=3c2e9290-6792-4e2d-b00d-712b965be0bd"},"vehicle_type_id":"4","last_reported":1729523419,"current_range_meters":12800,"station_id":"","pricing_plan_id":"cebpf4jnsgd1na2vs0mg"},{"bike_id":"462788be-48e7-4379-bc0e-0312feb0f5ad","system_id":"levelo_inurba_marseille","lat":43.33743,"lon":5.37457,"is_reserved":false,"is_disabled":false,"rental_uris":{"android":"levelo://app?vid=462788be-48e7-4379-bc0e-0312feb0f5ad","ios":"levelo://app?vid=462788be-48e7-4379-bc0e-0312feb0f5ad"},"vehicle_type_id":"4","last_reported":1729523419,"current_range_meters":2800,"station_id":"","pricing_plan_id":"cebpf4jnsgd1na2vs0mg"},{"bike_id":"2e15cb2b-24ef-4007-bc3e-3f1a3a6c9748","system_id":"levelo_inurba_marseille","lat":43.25005,"lon":5.38926,"is_reserved":false,"is_disabled":false,"rental_uris":{"android":"levelo://app?vid=2e15cb2b-24ef-4007-bc3e-3f1a3a6c9748","ios":"levelo://app?vid=2e15cb2b-24ef-4007-bc3e-3f1a3a6c9748"},"vehicle_type_id":"4","last_reported":1729523419,"current_range_meters":19200,"station_id":"ce4bhgp2rcd13ifvqfd0","pricing_plan_id":"cebpf4jnsgd1na2vs0mg"},{"bike_id":"c3f208c1-a508-44e7-b393-679c07c4740d","system_id":"levelo_inurba_marseille","lat":43.29977,"lon":5.38493,"is_reserved":false,"is_disabled":false,"rental_uris":{"android":"levelo://app?vid=c3f208c1-a508-44e7-b393-679c07c4740d","ios":"levelo://app?vid=c3f208c1-a508-44e7-b393-679c07c4740d"},"vehicle_type_id":"4","last_reported":1729523419,"current_range_meters":1200,"station_id":"ce4bgj92rcd13ifvqbd0","pricing_plan_id":"cebpf4jnsgd1na2vs0mg"},{"bike_id":"59201f26-8818-4b50-9904-9f00397dde3a","system_id":"levelo_inurba_marseille","lat":43.31267,"lon":5.40178,"is_reserved":false,"is_disabled":false,"rental_uris":{"android":"levelo://app?vid=59201f26-8818-4b50-9904-9f00397dde3a","ios":"levelo://app?vid=59201f26-8818-4b50-9904-9f00397dde3a"},"vehicle_type_id":"4","last_reported":1729523419,"current_range_meters":24400,"station_id":"ce4bh092rcd13ifvqd30","pricing_plan_id":"cebpf4jnsgd1na2vs0mg"},{"bike_id":"ba3898f4-3501-4781-a570-60992e86193e","system_id":"levelo_inurba_marseille","lat":43.28406,"lon":5.34994,"is_reserved":false,"is_disabled":false,"rental_uris":{"android":"levelo://app?vid=ba3898f4-3501-4781-a570-60992e86193e","ios":"levelo://app?vid=ba3898f4-3501-4781-a570-60992e86193e"},"vehicle_type_id":"4","last_reported":1729523419,"current_range_meters":12800,"station_id":"ce4bhbh2rcd13ifvqepg","pricing_plan_id":"cebpf4jnsgd1na2vs0mg"},{"bike_id":"ab1295d8-40ea-43fa-92fa-abdc33824b2f","system_id":"levelo_inurba_marseille","lat":43.26066,"lon":5.38552,"is_reserved":false,"is_disabled":false,"rental_uris":{"android":"levelo://app?vid=ab1295d8-40ea-43fa-92fa-abdc33824b2f","ios":"levelo://app?vid=ab1295d8-40ea-43fa-92fa-abdc33824b2f"},"vehicle_type_id":"4","last_reported":1729523419,"current_range_meters":13600,"station_id":"","pricing_plan_id":"cebpf4jnsgd1na2vs0mg"},{"bike_id":"cbca7da2-5140-4b12-bf43-d9c198ca4cd7","system_id":"levelo_inurba_marseille","lat":43.28454,"lon":5.35883,"is_reserved":false,"is_disabled":false,"rental_uris":{"android":"levelo://app?vid=cbca7da2-5140-4b12-bf43-d9c198ca4cd7","ios":"levelo://app?vid=cbca7da2-5140-4b12-bf43-d9c198ca4cd7"},"vehicle_type_id":"4","last_reported":1729523419,"current_range_meters":32400,"station_id":"ce4bhah2rcd13ifvqei0","pricing_plan_id":"cebpf4jnsgd1na2vs0mg"},{"bike_id":"dfd214e0-4dbf-4c03-93e9-204daa78defe","system_id":"levelo_inurba_marseille","lat":43.22931,"lon":5.3538,"is_reserved":false,"is_disabled":false,"rental_uris":{"android":"levelo://app?vid=dfd214e0-4dbf-4c03-93e9-204daa78defe","ios":"levelo://app?vid=dfd214e0-4dbf-4c03-93e9-204daa78defe"},"vehicle_type_id":"4","last_reported":1729523419,"current_range_meters":38400,"station_id":"cpo3532slgdg3j2ikp40","pricing_plan_id":"cebpf4jnsgd1na2vs0mg"},{"bike_id":"a7ff61c8-4762-4bbf-b0f4-83e78490edd1","system_id":"levelo_inurba_marseille","lat":43.29173,"lon":5.37177,"is_reserved":false,"is_disabled":false,"rental_uris":{"android":"levelo://app?vid=a7ff61c8-4762-4bbf-b0f4-83e78490edd1","ios":"levelo://app?vid=a7ff61c8-4762-4bbf-b0f4-83e78490edd1"},"vehicle_type_id":"4","last_reported":1729523419,"current_range_meters":11200,"station_id":"ce4bha92rcd13ifvqeh0","pricing_plan_id":"cebpf4jnsgd1na2vs0mg"},{"bike_id":"566fc9a0-e562-46c0-9f77-e0bcfb90eac3","system_id":"levelo_inurba_marseille","lat":43.24663,"lon":5.38165,"is_reserved":false,"is_disabled":false,"rental_uris":{"android":"levelo://app?vid=566fc9a0-e562-46c0-9f77-e0bcfb90eac3","ios":"levelo://app?vid=566fc9a0-e562-46c0-9f77-e0bcfb90eac3"},"vehicle_type_id":"4","last_reported":1729523419,"current_range_meters":9200,"station_id":"ce4bhih2rcd13ifvqfr0","pricing_plan_id":"cebpf4jnsgd1na2vs0mg"},{"bike_id":"1357eecb-a751-40e2-8cf2-050344320bd7","system_id":"levelo_inurba_marseille","lat":43.3248,"lon":5.36567,"is_reserved":false,"is_disabled":false,"rental_uris":{"android":"levelo://app?vid=1357eecb-a751-40e2-8cf2-050344320bd7","ios":"levelo://app?vid=1357eecb-a751-40e2-8cf2-050344320bd7"},"vehicle_type_id":"4","last_reported":1729523419,"current_range_meters":35600,"station_id":"ce4bhs12rcd13ifvqhvg","pricing_plan_id":"cebpf4jnsgd1na2vs0mg"},{"bike_id":"25f6b5cf-19fe-460f-99b4-a3aba59efc42","system_id":"levelo_inurba_marseille","lat":43.28667,"lon":5.3636,"is_reserved":false,"is_disabled":false,"rental_uris":{"android":"levelo://app?vid=25f6b5cf-19fe-460f-99b4-a3aba59efc42","ios":"levelo://app?vid=25f6b5cf-19fe-460f-99b4-a3aba59efc42"},"vehicle_type_id":"4","last_reported":1729523419,"current_range_meters":37600,"station_id":"ce4bhah2rcd13ifvqej0","pricing_plan_id":"cebpf4jnsgd1na2vs0mg"},{"bike_id":"c3722015-4e1c-4b37-8346-e69263b7c83d","system_id":"levelo_inurba_marseille","lat":43.26502,"lon":5.39542,"is_reserved":false,"is_disabled":false,"rental_uris":{"android":"levelo://app?vid=c3722015-4e1c-4b37-8346-e69263b7c83d","ios":"levelo://app?vid=c3722015-4e1c-4b37-8346-e69263b7c83d"},"vehicle_type_id":"4","last_reported":1729523419,"current_range_meters":10800,"station_id":"ce4bhi12rcd13ifvqfq0","pricing_plan_id":"cebpf4jnsgd1na2vs0mg"},{"bike_id":"3635f8c5-1d04-4904-826b-3b5c2ba304f2","system_id":"levelo_inurba_marseille","lat":43.28421,"lon":5.34999,"is_reserved":false,"is_disabled":false,"rental_uris":{"android":"levelo://app?vid=3635f8c5-1d04-4904-826b-3b5c2ba304f2","ios":"levelo://app?vid=3635f8c5-1d04-4904-826b-3b5c2ba304f2"},"vehicle_type_id":"4","last_reported":1729523419,"current_range_meters":36800,"station_id":"ce4bhbh2rcd13ifvqepg","pricing_plan_id":"cebpf4jnsgd1na2vs0mg"},{"bike_id":"c4511b85-6429-47ce-9ae6-55b10f821220","system_id":"levelo_inurba_marseille","lat":43.3014,"lon":5.37426,"is_reserved":false,"is_disabled":false,"rental_uris":{"android":"levelo://app?vid=c4511b85-6429-47ce-9ae6-55b10f821220","ios":"levelo://app?vid=c4511b85-6429-47ce-9ae6-55b10f821220"},"vehicle_type_id":"4","last_reported":1729523419,"current_range_meters":28400,"station_id":"ce4bgs92rcd13ifvqcc0","pricing_plan_id":"cebpf4jnsgd1na2vs0mg"},{"bike_id":"db81ac60-3eb5-4659-89bd-e5ff505a5513","system_id":"levelo_inurba_marseille","lat":43.28347,"lon":5.38097,"is_reserved":false,"is_disabled":false,"rental_uris":{"android":"levelo://app?vid=db81ac60-3eb5-4659-89bd-e5ff505a5513","ios":"levelo://app?vid=db81ac60-3eb5-4659-89bd-e5ff505a5513"},"vehicle_type_id":"4","last_reported":1729523419,"current_range_meters":3600,"station_id":"ce4bh412rcd13ifvqdr0","pricing_plan_id":"cebpf4jnsgd1na2vs0mg"},{"bike_id":"5dcb4b3a-c321-49a5-94f8-20932272253e","system_id":"levelo_inurba_marseille","lat":43.286224,"lon":5.3617,"is_reserved":false,"is_disabled":false,"rental_uris":{"android":"levelo://app?vid=5dcb4b3a-c321-49a5-94f8-20932272253e","ios":"levelo://app?vid=5dcb4b3a-c321-49a5-94f8-20932272253e"},"vehicle_type_id":"4","last_reported":1729523419,"current_range_meters":8000,"station_id":"ce4bhah2rcd13ifvqei0","pricing_plan_id":"cebpf4jnsgd1na2vs0mg"},{"bike_id":"37f47e1d-ff1e-40e6-8eaf-53779fa4708a","system_id":"levelo_inurba_marseille","lat":43.29248,"lon":5.384055,"is_reserved":false,"is_disabled":false,"rental_uris":{"android":"levelo://app?vid=37f47e1d-ff1e-40e6-8eaf-53779fa4708a","ios":"levelo://app?vid=37f47e1d-ff1e-40e6-8eaf-53779fa4708a"},"vehicle_type_id":"4","last_reported":1729523419,"current_range_meters":12800,"station_id":"ce4bh692rcd13ifvqea0","pricing_plan_id":"cebpf4jnsgd1na2vs0mg"},{"bike_id":"311cb3b2-2a0e-46dc-ab94-c796a4e42e1c","system_id":"levelo_inurba_marseille","lat":43.28457,"lon":5.359,"is_reserved":false,"is_disabled":false,"rental_uris":{"android":"levelo://app?vid=311cb3b2-2a0e-46dc-ab94-c796a4e42e1c","ios":"levelo://app?vid=311cb3b2-2a0e-46dc-ab94-c796a4e42e1c"},"vehicle_type_id":"4","last_reported":1729523419,"current_range_meters":35600,"station_id":"ce4bhah2rcd13ifvqei0","pricing_plan_id":"cebpf4jnsgd1na2vs0mg"},{"bike_id":"ab24f162-dce6-4890-a274-4e09811e3a33","system_id":"levelo_inurba_marseille","lat":43.292,"lon":5.35813,"is_reserved":false,"is_disabled":false,"rental_uris":{"android":"levelo://app?vid=ab24f162-dce6-4890-a274-4e09811e3a33","ios":"levelo://app?vid=ab24f162-dce6-4890-a274-4e09811e3a33"},"vehicle_type_id":"4","last_reported":1729523419,"current_range_meters":34000,"station_id":"ce4bhb12rcd13ifvqel0","pricing_plan_id":"cebpf4jnsgd1na2vs0mg"},{"bike_id":"b029640a-1e24-4384-a21c-55c58b2c42c5","system_id":"levelo_inurba_marseille","lat":43.2407,"lon":5.37762,"is_reserved":false,"is_disabled":false,"rental_uris":{"android":"levelo://app?vid=b029640a-1e24-4384-a21c-55c58b2c42c5","ios":"levelo://app?vid=b029640a-1e24-4384-a21c-55c58b2c42c5"},"vehicle_type_id":"4","last_reported":1729523419,"current_range_meters":3600,"station_id":"ce4bhnp2rcd13ifvqgvg","pricing_plan_id":"cebpf4jnsgd1na2vs0mg"},{"bike_id":"e6558dc4-b439-4982-a365-caed061d67e1","system_id":"levelo_inurba_marseille","lat":43.32489,"lon":5.36595,"is_reserved":false,"is_disabled":false,"rental_uris":{"android":"levelo://app?vid=e6558dc4-b439-4982-a365-caed061d67e1","ios":"levelo://app?vid=e6558dc4-b439-4982-a365-caed061d67e1"},"vehicle_type_id":"4","last_reported":1729523419,"current_range_meters":16800,"station_id":"ce4bhs12rcd13ifvqhvg","pricing_plan_id":"cebpf4jnsgd1na2vs0mg"},{"bike_id":"4c089c5a-ac7b-4c19-be6d-d52bfc843c3f","system_id":"levelo_inurba_marseille","lat":43.27676,"lon":5.38869,"is_reserved":false,"is_disabled":false,"rental_uris":{"android":"levelo://app?vid=4c089c5a-ac7b-4c19-be6d-d52bfc843c3f","ios":"levelo://app?vid=4c089c5a-ac7b-4c19-be6d-d52bfc843c3f"},"vehicle_type_id":"4","last_reported":1729523419,"current_range_meters":20000,"station_id":"ce4bhi12rcd13ifvqfo0","pricing_plan_id":"cebpf4jnsgd1na2vs0mg"},{"bike_id":"37affae4-b23a-4354-bdc0-2af2cb8e9757","system_id":"levelo_inurba_marseille","lat":43.28621,"lon":5.37342,"is_reserved":false,"is_disabled":false,"rental_uris":{"android":"levelo://app?vid=37affae4-b23a-4354-bdc0-2af2cb8e9757","ios":"levelo://app?vid=37affae4-b23a-4354-bdc0-2af2cb8e9757"},"vehicle_type_id":"4","last_reported":1729523419,"current_range_meters":20800,"station_id":"ce4bh3p2rcd13ifvqdq0","pricing_plan_id":"cebpf4jnsgd1na2vs0mg"},{"bike_id":"b146aa87-101c-437f-9557-1628a4c4d972","system_id":"levelo_inurba_marseille","lat":43.29516,"lon":5.39047,"is_reserved":false,"is_disabled":false,"rental_uris":{"android":"levelo://app?vid=b146aa87-101c-437f-9557-1628a4c4d972","ios":"levelo://app?vid=b146aa87-101c-437f-9557-1628a4c4d972"},"vehicle_type_id":"4","last_reported":1729523419,"current_range_meters":4800,"station_id":"ce4bh3p2rcd13ifvqdp0","pricing_plan_id":"cebpf4jnsgd1na2vs0mg"},{"bike_id":"d242b493-9e15-4911-a02d-dacbca1ad4c9","system_id":"levelo_inurba_marseille","lat":43.30141,"lon":5.3808,"is_reserved":false,"is_disabled":false,"rental_uris":{"android":"levelo://app?vid=d242b493-9e15-4911-a02d-dacbca1ad4c9","ios":"levelo://app?vid=d242b493-9e15-4911-a02d-dacbca1ad4c9"},"vehicle_type_id":"4","last_reported":1729523419,"current_range_meters":39200,"station_id":"ce4bgjp2rcd13ifvqbh0","pricing_plan_id":"cebpf4jnsgd1na2vs0mg"},{"bike_id":"80e59cab-c678-4a15-8910-454aca0d4d81","system_id":"levelo_inurba_marseille","lat":43.28417,"lon":5.34969,"is_reserved":false,"is_disabled":false,"rental_uris":{"android":"levelo://app?vid=80e59cab-c678-4a15-8910-454aca0d4d81","ios":"levelo://app?vid=80e59cab-c678-4a15-8910-454aca0d4d81"},"vehicle_type_id":"4","last_reported":1729523419,"current_range_meters":22800,"station_id":"ce4bhbh2rcd13ifvqepg","pricing_plan_id":"cebpf4jnsgd1na2vs0mg"},{"bike_id":"22cd1367-dfaf-4e04-a21c-1ea6ad2c5506","system_id":"levelo_inurba_marseille","lat":43.26204,"lon":5.37935,"is_reserved":false,"is_disabled":false,"rental_uris":{"android":"levelo://app?vid=22cd1367-dfaf-4e04-a21c-1ea6ad2c5506","ios":"levelo://app?vid=22cd1367-dfaf-4e04-a21c-1ea6ad2c5506"},"vehicle_type_id":"4","last_reported":1729523419,"current_range_meters":38400,"station_id":"ce4bhjp2rcd13ifvqg90","pricing_plan_id":"cebpf4jnsgd1na2vs0mg"},{"bike_id":"7a2acaa5-50b5-4298-873f-a3a244261ee5","system_id":"levelo_inurba_marseille","lat":43.26059,"lon":5.39392,"is_reserved":false,"is_disabled":false,"rental_uris":{"android":"levelo://app?vid=7a2acaa5-50b5-4298-873f-a3a244261ee5","ios":"levelo://app?vid=7a2acaa5-50b5-4298-873f-a3a244261ee5"},"vehicle_type_id":"4","last_reported":1729523419,"current_range_meters":38800,"station_id":"ce4bhh92rcd13ifvqfj0","pricing_plan_id":"cebpf4jnsgd1na2vs0mg"},{"bike_id":"00420090-3074-4aad-9631-988e949b0220","system_id":"levelo_inurba_marseille","lat":43.297485,"lon":5.36602,"is_reserved":false,"is_disabled":false,"rental_uris":{"android":"levelo://app?vid=00420090-3074-4aad-9631-988e949b0220","ios":"levelo://app?vid=00420090-3074-4aad-9631-988e949b0220"},"vehicle_type_id":"4","last_reported":1729523419,"current_range_meters":35600,"station_id":"ce4bgn12rcd13ifvqbt0","pricing_plan_id":"cebpf4jnsgd1na2vs0mg"},{"bike_id":"2c9ac14e-5cea-4904-8fc1-641864d1e1e0","system_id":"levelo_inurba_marseille","lat":43.28608,"lon":5.37065,"is_reserved":false,"is_disabled":false,"rental_uris":{"android":"levelo://app?vid=2c9ac14e-5cea-4904-8fc1-641864d1e1e0","ios":"levelo://app?vid=2c9ac14e-5cea-4904-8fc1-641864d1e1e0"},"vehicle_type_id":"4","last_reported":1729523419,"current_range_meters":15200,"station_id":"ce4bht12rcd13ifvqi60","pricing_plan_id":"cebpf4jnsgd1na2vs0mg"},{"bike_id":"0728974d-1ad5-4181-91f2-6035aab7157d","system_id":"levelo_inurba_marseille","lat":43.23196,"lon":5.35546,"is_reserved":false,"is_disabled":false,"rental_uris":{"android":"levelo://app?vid=0728974d-1ad5-4181-91f2-6035aab7157d","ios":"levelo://app?vid=0728974d-1ad5-4181-91f2-6035aab7157d"},"vehicle_type_id":"4","last_reported":1729523419,"current_range_meters":39200,"station_id":"ce4bhu92rcd13ifvqi70","pricing_plan_id":"cebpf4jnsgd1na2vs0mg"},{"bike_id":"5dac9742-efcf-4eda-ab14-c30171706402","system_id":"levelo_inurba_marseille","lat":43.30297,"lon":5.36874,"is_reserved":false,"is_disabled":false,"rental_uris":{"android":"levelo://app?vid=5dac9742-efcf-4eda-ab14-c30171706402","ios":"levelo://app?vid=5dac9742-efcf-4eda-ab14-c30171706402"},"vehicle_type_id":"4","last_reported":1729523419,"current_range_meters":29600,"station_id":"ce4bgqh2rcd13ifvqc5g","pricing_plan_id":"cebpf4jnsgd1na2vs0mg"},{"bike_id":"957a0e0a-78da-4d14-aaa1-4f4b0b21d8ef","system_id":"levelo_inurba_marseille","lat":43.26679,"lon":5.3827,"is_reserved":false,"is_disabled":false,"rental_uris":{"android":"levelo://app?vid=957a0e0a-78da-4d14-aaa1-4f4b0b21d8ef","ios":"levelo://app?vid=957a0e0a-78da-4d14-aaa1-4f4b0b21d8ef"},"vehicle_type_id":"4","last_reported":1729523419,"current_range_meters":38400,"station_id":"ce4bhg92rcd13ifvqf90","pricing_plan_id":"cebpf4jnsgd1na2vs0mg"},{"bike_id":"e3227fe8-85ba-4eb5-98d7-418c667c1cf1","system_id":"levelo_inurba_marseille","lat":43.31675,"lon":5.37549,"is_reserved":false,"is_disabled":false,"rental_uris":{"android":"levelo://app?vid=e3227fe8-85ba-4eb5-98d7-418c667c1cf1","ios":"levelo://app?vid=e3227fe8-85ba-4eb5-98d7-418c667c1cf1"},"vehicle_type_id":"4","last_reported":1729523419,"current_range_meters":16000,"station_id":"","pricing_plan_id":"cebpf4jnsgd1na2vs0mg"},{"bike_id":"581c408e-0ea5-4fb1-8842-f1d09a193a19","system_id":"levelo_inurba_marseille","lat":43.23191,"lon":5.3555,"is_reserved":false,"is_disabled":false,"rental_uris":{"android":"levelo://app?vid=581c408e-0ea5-4fb1-8842-f1d09a193a19","ios":"levelo://app?vid=581c408e-0ea5-4fb1-8842-f1d09a193a19"},"vehicle_type_id":"4","last_reported":1729523419,"current_range_meters":38000,"station_id":"ce4bhu92rcd13ifvqi70","pricing_plan_id":"cebpf4jnsgd1na2vs0mg"},{"bike_id":"100281b0-5fee-423e-a235-c7c43e7aad54","system_id":"levelo_inurba_marseille","lat":43.29984,"lon":5.37185,"is_reserved":false,"is_disabled":false,"rental_uris":{"android":"levelo://app?vid=100281b0-5fee-423e-a235-c7c43e7aad54","ios":"levelo://app?vid=100281b0-5fee-423e-a235-c7c43e7aad54"},"vehicle_type_id":"4","last_reported":1729523419,"current_range_meters":4000,"station_id":"ce4bgr92rcd13ifvqc7g","pricing_plan_id":"cebpf4jnsgd1na2vs0mg"},{"bike_id":"59e6dbe3-787b-47ac-905e-d02089889c4b","system_id":"levelo_inurba_marseille","lat":43.32478,"lon":5.36567,"is_reserved":false,"is_disabled":false,"rental_uris":{"android":"levelo://app?vid=59e6dbe3-787b-47ac-905e-d02089889c4b","ios":"levelo://app?vid=59e6dbe3-787b-47ac-905e-d02089889c4b"},"vehicle_type_id":"4","last_reported":1729523419,"current_range_meters":34800,"station_id":"ce4bhs12rcd13ifvqhvg","pricing_plan_id":"cebpf4jnsgd1na2vs0mg"},{"bike_id":"959e6a9c-7541-4eba-8b38-6000ab32a660","system_id":"levelo_inurba_marseille","lat":43.24167,"lon":5.36395,"is_reserved":false,"is_disabled":false,"rental_uris":{"android":"levelo://app?vid=959e6a9c-7541-4eba-8b38-6000ab32a660","ios":"levelo://app?vid=959e6a9c-7541-4eba-8b38-6000ab32a660"},"vehicle_type_id":"4","last_reported":1729523419,"current_range_meters":38800,"station_id":"cpo36qri1sfpv3e86is0","pricing_plan_id":"cebpf4jnsgd1na2vs0mg"},{"bike_id":"c041a90f-b25c-42e6-a62e-92f0fe46de9a","system_id":"levelo_inurba_marseille","lat":43.296115,"lon":5.369401,"is_reserved":false,"is_disabled":false,"rental_uris":{"android":"levelo://app?vid=c041a90f-b25c-42e6-a62e-92f0fe46de9a","ios":"levelo://app?vid=c041a90f-b25c-42e6-a62e-92f0fe46de9a"},"vehicle_type_id":"4","last_reported":1729523419,"current_range_meters":10000,"station_id":"ce4bgph2rcd13ifvqc2g","pricing_plan_id":"cebpf4jnsgd1na2vs0mg"},{"bike_id":"b5df5b48-1a14-491a-bf35-a52f9ed3e7af","system_id":"levelo_inurba_marseille","lat":43.30963,"lon":5.40059,"is_reserved":false,"is_disabled":false,"rental_uris":{"android":"levelo://app?vid=b5df5b48-1a14-491a-bf35-a52f9ed3e7af","ios":"levelo://app?vid=b5df5b48-1a14-491a-bf35-a52f9ed3e7af"},"vehicle_type_id":"4","last_reported":1729523419,"current_range_meters":4400,"station_id":"ce4bh092rcd13ifvqd30","pricing_plan_id":"cebpf4jnsgd1na2vs0mg"},{"bike_id":"79a1e020-318b-42a1-a8c0-a424b1daf69e","system_id":"levelo_inurba_marseille","lat":43.296,"lon":5.36142,"is_reserved":false,"is_disabled":false,"rental_uris":{"android":"levelo://app?vid=79a1e020-318b-42a1-a8c0-a424b1daf69e","ios":"levelo://app?vid=79a1e020-318b-42a1-a8c0-a424b1daf69e"},"vehicle_type_id":"4","last_reported":1729523419,"current_range_meters":10000,"station_id":"","pricing_plan_id":"cebpf4jnsgd1na2vs0mg"},{"bike_id":"916089e6-7c68-4026-9185-b7c8222214d3","system_id":"levelo_inurba_marseille","lat":43.28418,"lon":5.35003,"is_reserved":false,"is_disabled":false,"rental_uris":{"android":"levelo://app?vid=916089e6-7c68-4026-9185-b7c8222214d3","ios":"levelo://app?vid=916089e6-7c68-4026-9185-b7c8222214d3"},"vehicle_type_id":"4","last_reported":1729523419,"current_range_meters":17600,"station_id":"ce4bhbh2rcd13ifvqepg","pricing_plan_id":"cebpf4jnsgd1na2vs0mg"},{"bike_id":"76b616ae-0faf-42cf-b5dd-5c98fd3462ba","system_id":"levelo_inurba_marseille","lat":43.31332,"lon":5.3676,"is_reserved":false,"is_disabled":false,"rental_uris":{"android":"levelo://app?vid=76b616ae-0faf-42cf-b5dd-5c98fd3462ba","ios":"levelo://app?vid=76b616ae-0faf-42cf-b5dd-5c98fd3462ba"},"vehicle_type_id":"4","last_reported":1729523419,"current_range_meters":39200,"station_id":"ce4bgr92rcd13ifvqc6g","pricing_plan_id":"cebpf4jnsgd1na2vs0mg"},{"bike_id":"0b56bef3-ec73-4194-b0b7-e3c9172a0bc0","system_id":"levelo_inurba_marseille","lat":43.28419,"lon":5.3499,"is_reserved":false,"is_disabled":false,"rental_uris":{"android":"levelo://app?vid=0b56bef3-ec73-4194-b0b7-e3c9172a0bc0","ios":"levelo://app?vid=0b56bef3-ec73-4194-b0b7-e3c9172a0bc0"},"vehicle_type_id":"4","last_reported":1729523419,"current_range_meters":8400,"station_id":"ce4bhbh2rcd13ifvqepg","pricing_plan_id":"cebpf4jnsgd1na2vs0mg"},{"bike_id":"89a84913-e3d6-4546-a1cc-624bfe9a5f4f","system_id":"levelo_inurba_marseille","lat":43.29622,"lon":5.3717,"is_reserved":false,"is_disabled":false,"rental_uris":{"android":"levelo://app?vid=89a84913-e3d6-4546-a1cc-624bfe9a5f4f","ios":"levelo://app?vid=89a84913-e3d6-4546-a1cc-624bfe9a5f4f"},"vehicle_type_id":"4","last_reported":1729523419,"current_range_meters":38000,"station_id":"ce4bgnh2rcd13ifvqc0g","pricing_plan_id":"cebpf4jnsgd1na2vs0mg"},{"bike_id":"2be68d19-aa1e-4886-93cd-137e126c55c8","system_id":"levelo_inurba_marseille","lat":43.2846,"lon":5.35897,"is_reserved":false,"is_disabled":false,"rental_uris":{"android":"levelo://app?vid=2be68d19-aa1e-4886-93cd-137e126c55c8","ios":"levelo://app?vid=2be68d19-aa1e-4886-93cd-137e126c55c8"},"vehicle_type_id":"4","last_reported":1729523419,"current_range_meters":36800,"station_id":"ce4bhah2rcd13ifvqei0","pricing_plan_id":"cebpf4jnsgd1na2vs0mg"},{"bike_id":"7adf842b-4b8c-4356-a23f-1be0cbaf4d21","system_id":"levelo_inurba_marseille","lat":43.23199,"lon":5.35549,"is_reserved":false,"is_disabled":false,"rental_uris":{"android":"levelo://app?vid=7adf842b-4b8c-4356-a23f-1be0cbaf4d21","ios":"levelo://app?vid=7adf842b-4b8c-4356-a23f-1be0cbaf4d21"},"vehicle_type_id":"4","last_reported":1729523419,"current_range_meters":16400,"station_id":"ce4bhu92rcd13ifvqi70","pricing_plan_id":"cebpf4jnsgd1na2vs0mg"},{"bike_id":"d58a1889-5101-4585-ae13-2d4588356194","system_id":"levelo_inurba_marseille","lat":43.29964,"lon":5.37166,"is_reserved":false,"is_disabled":false,"rental_uris":{"android":"levelo://app?vid=d58a1889-5101-4585-ae13-2d4588356194","ios":"levelo://app?vid=d58a1889-5101-4585-ae13-2d4588356194"},"vehicle_type_id":"4","last_reported":1729523419,"current_range_meters":33200,"station_id":"ce4bgr92rcd13ifvqc7g","pricing_plan_id":"cebpf4jnsgd1na2vs0mg"},{"bike_id":"5878ac2d-e259-4e32-a9e6-e16ca4ac7334","system_id":"levelo_inurba_marseille","lat":43.28156,"lon":5.42648,"is_reserved":false,"is_disabled":false,"rental_uris":{"android":"levelo://app?vid=5878ac2d-e259-4e32-a9e6-e16ca4ac7334","ios":"levelo://app?vid=5878ac2d-e259-4e32-a9e6-e16ca4ac7334"},"vehicle_type_id":"4","last_reported":1729523419,"current_range_meters":20800,"station_id":"ce4bhnh2rcd13ifvqgug","pricing_plan_id":"cebpf4jnsgd1na2vs0mg"},{"bike_id":"fbffec83-e8ac-4ab8-bc6b-019a9a045066","system_id":"levelo_inurba_marseille","lat":43.27381,"lon":5.36264,"is_reserved":false,"is_disabled":false,"rental_uris":{"android":"levelo://app?vid=fbffec83-e8ac-4ab8-bc6b-019a9a045066","ios":"levelo://app?vid=fbffec83-e8ac-4ab8-bc6b-019a9a045066"},"vehicle_type_id":"4","last_reported":1729523419,"current_range_meters":28000,"station_id":"ce4bhbh2rcd13ifvqeo0","pricing_plan_id":"cebpf4jnsgd1na2vs0mg"},{"bike_id":"4ac0ff5c-ee66-41d4-befb-6ecbfb08dddb","system_id":"levelo_inurba_marseille","lat":43.28465,"lon":5.35895,"is_reserved":false,"is_disabled":false,"rental_uris":{"android":"levelo://app?vid=4ac0ff5c-ee66-41d4-befb-6ecbfb08dddb","ios":"levelo://app?vid=4ac0ff5c-ee66-41d4-befb-6ecbfb08dddb"},"vehicle_type_id":"4","last_reported":1729523419,"current_range_meters":22800,"station_id":"ce4bhah2rcd13ifvqei0","pricing_plan_id":"cebpf4jnsgd1na2vs0mg"},{"bike_id":"fd40ddd6-89ca-4e23-a1c8-d5485aefdbd8","system_id":"levelo_inurba_marseille","lat":43.28153,"lon":5.42643,"is_reserved":false,"is_disabled":false,"rental_uris":{"android":"levelo://app?vid=fd40ddd6-89ca-4e23-a1c8-d5485aefdbd8","ios":"levelo://app?vid=fd40ddd6-89ca-4e23-a1c8-d5485aefdbd8"},"vehicle_type_id":"4","last_reported":1729523419,"current_range_meters":4400,"station_id":"ce4bhnh2rcd13ifvqgug","pricing_plan_id":"cebpf4jnsgd1na2vs0mg"},{"bike_id":"aef4da28-0d94-416c-aa76-b2bb23aa0555","system_id":"levelo_inurba_marseille","lat":43.28151,"lon":5.42646,"is_reserved":false,"is_disabled":false,"rental_uris":{"android":"levelo://app?vid=aef4da28-0d94-416c-aa76-b2bb23aa0555","ios":"levelo://app?vid=aef4da28-0d94-416c-aa76-b2bb23aa0555"},"vehicle_type_id":"4","last_reported":1729523419,"current_range_meters":24800,"station_id":"ce4bhnh2rcd13ifvqgug","pricing_plan_id":"cebpf4jnsgd1na2vs0mg"},{"bike_id":"c24b853c-513a-45bb-8521-d3b868bfbad7","system_id":"levelo_inurba_marseille","lat":43.26868,"lon":5.42058,"is_reserved":false,"is_disabled":false,"rental_uris":{"android":"levelo://app?vid=c24b853c-513a-45bb-8521-d3b868bfbad7","ios":"levelo://app?vid=c24b853c-513a-45bb-8521-d3b868bfbad7"},"vehicle_type_id":"4","last_reported":1729523419,"current_range_meters":36000,"station_id":"ce4bhk92rcd13ifvqgb0","pricing_plan_id":"cebpf4jnsgd1na2vs0mg"},{"bike_id":"0dc6f465-37f7-4803-aafb-1486234648b5","system_id":"levelo_inurba_marseille","lat":43.27382,"lon":5.36251,"is_reserved":false,"is_disabled":false,"rental_uris":{"android":"levelo://app?vid=0dc6f465-37f7-4803-aafb-1486234648b5","ios":"levelo://app?vid=0dc6f465-37f7-4803-aafb-1486234648b5"},"vehicle_type_id":"4","last_reported":1729523419,"current_range_meters":2000,"station_id":"ce4bhbh2rcd13ifvqeo0","pricing_plan_id":"cebpf4jnsgd1na2vs0mg"},{"bike_id":"09392925-1ebb-4598-8777-c0f09d6a4edf","system_id":"levelo_inurba_marseille","lat":43.28151,"lon":5.42653,"is_reserved":false,"is_disabled":false,"rental_uris":{"android":"levelo://app?vid=09392925-1ebb-4598-8777-c0f09d6a4edf","ios":"levelo://app?vid=09392925-1ebb-4598-8777-c0f09d6a4edf"},"vehicle_type_id":"4","last_reported":1729523419,"current_range_meters":32400,"station_id":"ce4bhnh2rcd13ifvqgug","pricing_plan_id":"cebpf4jnsgd1na2vs0mg"},{"bike_id":"1098a3c6-88ae-48ac-ade0-49c4ae558815","system_id":"levelo_inurba_marseille","lat":43.2827,"lon":5.35098,"is_reserved":false,"is_disabled":false,"rental_uris":{"android":"levelo://app?vid=1098a3c6-88ae-48ac-ade0-49c4ae558815","ios":"levelo://app?vid=1098a3c6-88ae-48ac-ade0-49c4ae558815"},"vehicle_type_id":"4","last_reported":1729523419,"current_range_meters":30800,"station_id":"ce4bhbp2rcd13ifvqerg","pricing_plan_id":"cebpf4jnsgd1na2vs0mg"},{"bike_id":"acc16664-0dd5-4988-814a-3b25431bee65","system_id":"levelo_inurba_marseille","lat":43.31357,"lon":5.36733,"is_reserved":false,"is_disabled":false,"rental_uris":{"android":"levelo://app?vid=acc16664-0dd5-4988-814a-3b25431bee65","ios":"levelo://app?vid=acc16664-0dd5-4988-814a-3b25431bee65"},"vehicle_type_id":"4","last_reported":1729523419,"current_range_meters":28000,"station_id":"ce4bgr92rcd13ifvqc6g","pricing_plan_id":"cebpf4jnsgd1na2vs0mg"},{"bike_id":"3123f377-4f2a-45d6-85df-640225627f4e","system_id":"levelo_inurba_marseille","lat":43.303202,"lon":5.392042,"is_reserved":false,"is_disabled":false,"rental_uris":{"android":"levelo://app?vid=3123f377-4f2a-45d6-85df-640225627f4e","ios":"levelo://app?vid=3123f377-4f2a-45d6-85df-640225627f4e"},"vehicle_type_id":"4","last_reported":1729523419,"current_range_meters":17200,"station_id":"ce4bgkh2rcd13ifvqbk0","pricing_plan_id":"cebpf4jnsgd1na2vs0mg"},{"bike_id":"7d35bbf9-c6ca-4a7f-b18f-b929e39af75f","system_id":"levelo_inurba_marseille","lat":43.27945,"lon":5.41056,"is_reserved":false,"is_disabled":false,"rental_uris":{"android":"levelo://app?vid=7d35bbf9-c6ca-4a7f-b18f-b929e39af75f","ios":"levelo://app?vid=7d35bbf9-c6ca-4a7f-b18f-b929e39af75f"},"vehicle_type_id":"4","last_reported":1729523419,"current_range_meters":8000,"station_id":"ce4bhnp2rcd13ifvqh0g","pricing_plan_id":"cebpf4jnsgd1na2vs0mg"},{"bike_id":"500cb39a-08fd-4bad-bf3b-4d2b098fccfe","system_id":"levelo_inurba_marseille","lat":43.24651,"lon":5.389,"is_reserved":false,"is_disabled":false,"rental_uris":{"android":"levelo://app?vid=500cb39a-08fd-4bad-bf3b-4d2b098fccfe","ios":"levelo://app?vid=500cb39a-08fd-4bad-bf3b-4d2b098fccfe"},"vehicle_type_id":"4","last_reported":1729523419,"current_range_meters":18800,"station_id":"ce4bhg12rcd13ifvqf60","pricing_plan_id":"cebpf4jnsgd1na2vs0mg"},{"bike_id":"dd2421d7-1d6b-446d-adb9-3398305cab66","system_id":"levelo_inurba_marseille","lat":43.29356,"lon":5.37826,"is_reserved":false,"is_disabled":false,"rental_uris":{"android":"levelo://app?vid=dd2421d7-1d6b-446d-adb9-3398305cab66","ios":"levelo://app?vid=dd2421d7-1d6b-446d-adb9-3398305cab66"},"vehicle_type_id":"4","last_reported":1729523419,"current_range_meters":26000,"station_id":"ce4bgjh2rcd13ifvqbf0","pricing_plan_id":"cebpf4jnsgd1na2vs0mg"},{"bike_id":"2a4f8c30-628b-441c-ab4f-655946e4f1f2","system_id":"levelo_inurba_marseille","lat":43.24548,"lon":5.39529,"is_reserved":false,"is_disabled":false,"rental_uris":{"android":"levelo://app?vid=2a4f8c30-628b-441c-ab4f-655946e4f1f2","ios":"levelo://app?vid=2a4f8c30-628b-441c-ab4f-655946e4f1f2"},"vehicle_type_id":"4","last_reported":1729523419,"current_range_meters":16000,"station_id":"ce4bhlp2rcd13ifvqgjg","pricing_plan_id":"cebpf4jnsgd1na2vs0mg"},{"bike_id":"4426a32a-f0b0-4dad-8be6-a143f76d5fb4","system_id":"levelo_inurba_marseille","lat":43.26684,"lon":5.38264,"is_reserved":false,"is_disabled":false,"rental_uris":{"android":"levelo://app?vid=4426a32a-f0b0-4dad-8be6-a143f76d5fb4","ios":"levelo://app?vid=4426a32a-f0b0-4dad-8be6-a143f76d5fb4"},"vehicle_type_id":"4","last_reported":1729523419,"current_range_meters":39200,"station_id":"ce4bhg92rcd13ifvqf90","pricing_plan_id":"cebpf4jnsgd1na2vs0mg"},{"bike_id":"c3945b60-e38d-4106-8f18-92c7f436cc4f","system_id":"levelo_inurba_marseille","lat":43.33757,"lon":5.37448,"is_reserved":false,"is_disabled":false,"rental_uris":{"android":"levelo://app?vid=c3945b60-e38d-4106-8f18-92c7f436cc4f","ios":"levelo://app?vid=c3945b60-e38d-4106-8f18-92c7f436cc4f"},"vehicle_type_id":"4","last_reported":1729523419,"current_range_meters":36000,"station_id":"","pricing_plan_id":"cebpf4jnsgd1na2vs0mg"},{"bike_id":"324ad3b0-2ced-48ec-b2e0-e5019c5244a9","system_id":"levelo_inurba_marseille","lat":43.28461,"lon":5.35886,"is_reserved":false,"is_disabled":false,"rental_uris":{"android":"levelo://app?vid=324ad3b0-2ced-48ec-b2e0-e5019c5244a9","ios":"levelo://app?vid=324ad3b0-2ced-48ec-b2e0-e5019c5244a9"},"vehicle_type_id":"4","last_reported":1729523419,"current_range_meters":32000,"station_id":"ce4bhah2rcd13ifvqei0","pricing_plan_id":"cebpf4jnsgd1na2vs0mg"},{"bike_id":"de1ff86d-3061-40a1-be1e-8be446e6115e","system_id":"levelo_inurba_marseille","lat":43.29592,"lon":5.38165,"is_reserved":false,"is_disabled":false,"rental_uris":{"android":"levelo://app?vid=de1ff86d-3061-40a1-be1e-8be446e6115e","ios":"levelo://app?vid=de1ff86d-3061-40a1-be1e-8be446e6115e"},"vehicle_type_id":"4","last_reported":1729523419,"current_range_meters":19200,"station_id":"ce4bgl12rcd13ifvqbo0","pricing_plan_id":"cebpf4jnsgd1na2vs0mg"},{"bike_id":"3cb6d853-d34a-4728-aa02-160b45e8b87a","system_id":"levelo_inurba_marseille","lat":43.27943,"lon":5.41055,"is_reserved":false,"is_disabled":false,"rental_uris":{"android":"levelo://app?vid=3cb6d853-d34a-4728-aa02-160b45e8b87a","ios":"levelo://app?vid=3cb6d853-d34a-4728-aa02-160b45e8b87a"},"vehicle_type_id":"4","last_reported":1729523419,"current_range_meters":15200,"station_id":"ce4bhnp2rcd13ifvqh0g","pricing_plan_id":"cebpf4jnsgd1na2vs0mg"},{"bike_id":"59bad78a-afb7-466b-bc9f-cae342fa6d10","system_id":"levelo_inurba_marseille","lat":43.28849,"lon":5.35864,"is_reserved":false,"is_disabled":false,"rental_uris":{"android":"levelo://app?vid=59bad78a-afb7-466b-bc9f-cae342fa6d10","ios":"levelo://app?vid=59bad78a-afb7-466b-bc9f-cae342fa6d10"},"vehicle_type_id":"4","last_reported":1729523419,"current_range_meters":27600,"station_id":"ce4bhb12rcd13ifvqem0","pricing_plan_id":"cebpf4jnsgd1na2vs0mg"},{"bike_id":"1ce26204-202b-4d4e-84b1-3c251b72a681","system_id":"levelo_inurba_marseille","lat":43.26679,"lon":5.38261,"is_reserved":false,"is_disabled":false,"rental_uris":{"android":"levelo://app?vid=1ce26204-202b-4d4e-84b1-3c251b72a681","ios":"levelo://app?vid=1ce26204-202b-4d4e-84b1-3c251b72a681"},"vehicle_type_id":"4","last_reported":1729523419,"current_range_meters":39200,"station_id":"ce4bhg92rcd13ifvqf90","pricing_plan_id":"cebpf4jnsgd1na2vs0mg"},{"bike_id":"73e09bd3-51ff-43f5-8b18-f395c607a422","system_id":"levelo_inurba_marseille","lat":43.28929,"lon":5.36626,"is_reserved":false,"is_disabled":false,"rental_uris":{"android":"levelo://app?vid=73e09bd3-51ff-43f5-8b18-f395c607a422","ios":"levelo://app?vid=73e09bd3-51ff-43f5-8b18-f395c607a422"},"vehicle_type_id":"4","last_reported":1729523419,"current_range_meters":23200,"station_id":"ce4bhap2rcd13ifvqek0","pricing_plan_id":"cebpf4jnsgd1na2vs0mg"},{"bike_id":"8856ea1c-b3a1-470c-a494-fdabd9959543","system_id":"levelo_inurba_marseille","lat":43.28416,"lon":5.34978,"is_reserved":false,"is_disabled":false,"rental_uris":{"android":"levelo://app?vid=8856ea1c-b3a1-470c-a494-fdabd9959543","ios":"levelo://app?vid=8856ea1c-b3a1-470c-a494-fdabd9959543"},"vehicle_type_id":"4","last_reported":1729523419,"current_range_meters":21600,"station_id":"ce4bhbh2rcd13ifvqepg","pricing_plan_id":"cebpf4jnsgd1na2vs0mg"},{"bike_id":"68838dca-60ea-458b-a4bb-46783ee5f013","system_id":"levelo_inurba_marseille","lat":43.30526,"lon":5.39768,"is_reserved":false,"is_disabled":false,"rental_uris":{"android":"levelo://app?vid=68838dca-60ea-458b-a4bb-46783ee5f013","ios":"levelo://app?vid=68838dca-60ea-458b-a4bb-46783ee5f013"},"vehicle_type_id":"4","last_reported":1729523419,"current_range_meters":27600,"station_id":"ce4bh0h2rcd13ifvqd40","pricing_plan_id":"cebpf4jnsgd1na2vs0mg"},{"bike_id":"545ff263-f84d-4efa-a9ec-cbf2a6cb87a5","system_id":"levelo_inurba_marseille","lat":43.25869,"lon":5.39899,"is_reserved":false,"is_disabled":false,"rental_uris":{"android":"levelo://app?vid=545ff263-f84d-4efa-a9ec-cbf2a6cb87a5","ios":"levelo://app?vid=545ff263-f84d-4efa-a9ec-cbf2a6cb87a5"},"vehicle_type_id":"4","last_reported":1729523419,"current_range_meters":8400,"station_id":"ce4bhl92rcd13ifvqghg","pricing_plan_id":"cebpf4jnsgd1na2vs0mg"},{"bike_id":"de5511c8-8e63-4f93-89fc-d93b562ca605","system_id":"levelo_inurba_marseille","lat":43.27612,"lon":5.36114,"is_reserved":false,"is_disabled":false,"rental_uris":{"android":"levelo://app?vid=de5511c8-8e63-4f93-89fc-d93b562ca605","ios":"levelo://app?vid=de5511c8-8e63-4f93-89fc-d93b562ca605"},"vehicle_type_id":"4","last_reported":1729523419,"current_range_meters":37600,"station_id":"ce4bgj92rcd13ifvqbe0","pricing_plan_id":"cebpf4jnsgd1na2vs0mg"},{"bike_id":"8ff5c174-e5be-4439-9cb8-fc5831fafdc3","system_id":"levelo_inurba_marseille","lat":43.28261,"lon":5.35077,"is_reserved":false,"is_disabled":false,"rental_uris":{"android":"levelo://app?vid=8ff5c174-e5be-4439-9cb8-fc5831fafdc3","ios":"levelo://app?vid=8ff5c174-e5be-4439-9cb8-fc5831fafdc3"},"vehicle_type_id":"4","last_reported":1729523419,"current_range_meters":30400,"station_id":"ce4bhbp2rcd13ifvqerg","pricing_plan_id":"cebpf4jnsgd1na2vs0mg"},{"bike_id":"8e6e2140-9018-4bfb-9d04-7fbfa5dde3a5","system_id":"levelo_inurba_marseille","lat":43.32106,"lon":5.36772,"is_reserved":false,"is_disabled":false,"rental_uris":{"android":"levelo://app?vid=8e6e2140-9018-4bfb-9d04-7fbfa5dde3a5","ios":"levelo://app?vid=8e6e2140-9018-4bfb-9d04-7fbfa5dde3a5"},"vehicle_type_id":"4","last_reported":1729523419,"current_range_meters":36400,"station_id":"ce4bhrh2rcd13ifvqhug","pricing_plan_id":"cebpf4jnsgd1na2vs0mg"},{"bike_id":"235b4b4c-5985-4c80-8b5b-e18a4f3b32d1","system_id":"levelo_inurba_marseille","lat":43.23151,"lon":5.43702,"is_reserved":false,"is_disabled":false,"rental_uris":{"android":"levelo://app?vid=235b4b4c-5985-4c80-8b5b-e18a4f3b32d1","ios":"levelo://app?vid=235b4b4c-5985-4c80-8b5b-e18a4f3b32d1"},"vehicle_type_id":"4","last_reported":1729523419,"current_range_meters":38800,"station_id":"ce4bhmp2rcd13ifvqgog","pricing_plan_id":"cebpf4jnsgd1na2vs0mg"},{"bike_id":"6fe969d3-9ceb-48ba-947c-61366ca4145d","system_id":"levelo_inurba_marseille","lat":43.31328,"lon":5.36737,"is_reserved":false,"is_disabled":false,"rental_uris":{"android":"levelo://app?vid=6fe969d3-9ceb-48ba-947c-61366ca4145d","ios":"levelo://app?vid=6fe969d3-9ceb-48ba-947c-61366ca4145d"},"vehicle_type_id":"4","last_reported":1729523419,"current_range_meters":39200,"station_id":"ce4bgr92rcd13ifvqc6g","pricing_plan_id":"cebpf4jnsgd1na2vs0mg"},{"bike_id":"7f8408b7-3649-494f-aae8-09a28063d31d","system_id":"levelo_inurba_marseille","lat":43.27372,"lon":5.36257,"is_reserved":false,"is_disabled":false,"rental_uris":{"android":"levelo://app?vid=7f8408b7-3649-494f-aae8-09a28063d31d","ios":"levelo://app?vid=7f8408b7-3649-494f-aae8-09a28063d31d"},"vehicle_type_id":"4","last_reported":1729523419,"current_range_meters":36400,"station_id":"ce4bhbh2rcd13ifvqeo0","pricing_plan_id":"cebpf4jnsgd1na2vs0mg"},{"bike_id":"82944a7d-5caa-4af6-a9e7-6a5a9e81c946","system_id":"levelo_inurba_marseille","lat":43.284119,"lon":5.349824,"is_reserved":false,"is_disabled":false,"rental_uris":{"android":"levelo://app?vid=82944a7d-5caa-4af6-a9e7-6a5a9e81c946","ios":"levelo://app?vid=82944a7d-5caa-4af6-a9e7-6a5a9e81c946"},"vehicle_type_id":"4","last_reported":1729523419,"current_range_meters":31200,"station_id":"ce4bhbh2rcd13ifvqepg","pricing_plan_id":"cebpf4jnsgd1na2vs0mg"},{"bike_id":"93b134c1-f5b4-467b-829d-db83d1ce0ea5","system_id":"levelo_inurba_marseille","lat":43.2319,"lon":5.35546,"is_reserved":false,"is_disabled":false,"rental_uris":{"android":"levelo://app?vid=93b134c1-f5b4-467b-829d-db83d1ce0ea5","ios":"levelo://app?vid=93b134c1-f5b4-467b-829d-db83d1ce0ea5"},"vehicle_type_id":"4","last_reported":1729523419,"current_range_meters":38000,"station_id":"ce4bhu92rcd13ifvqi70","pricing_plan_id":"cebpf4jnsgd1na2vs0mg"},{"bike_id":"c056f5b2-efef-4e8d-a981-5281c0d1514f","system_id":"levelo_inurba_marseille","lat":43.32473,"lon":5.36582,"is_reserved":false,"is_disabled":false,"rental_uris":{"android":"levelo://app?vid=c056f5b2-efef-4e8d-a981-5281c0d1514f","ios":"levelo://app?vid=c056f5b2-efef-4e8d-a981-5281c0d1514f"},"vehicle_type_id":"4","last_reported":1729523419,"current_range_meters":35600,"station_id":"ce4bhs12rcd13ifvqhvg","pricing_plan_id":"cebpf4jnsgd1na2vs0mg"},{"bike_id":"90c1f15b-3bf7-4f49-bf6e-5cb69eef0440","system_id":"levelo_inurba_marseille","lat":43.29267,"lon":5.3844,"is_reserved":false,"is_disabled":false,"rental_uris":{"android":"levelo://app?vid=90c1f15b-3bf7-4f49-bf6e-5cb69eef0440","ios":"levelo://app?vid=90c1f15b-3bf7-4f49-bf6e-5cb69eef0440"},"vehicle_type_id":"4","last_reported":1729523419,"current_range_meters":31200,"station_id":"ce4bh692rcd13ifvqea0","pricing_plan_id":"cebpf4jnsgd1na2vs0mg"},{"bike_id":"052cf3f4-1f43-4250-bc67-2372def116a5","system_id":"levelo_inurba_marseille","lat":43.28417,"lon":5.34988,"is_reserved":false,"is_disabled":false,"rental_uris":{"android":"levelo://app?vid=052cf3f4-1f43-4250-bc67-2372def116a5","ios":"levelo://app?vid=052cf3f4-1f43-4250-bc67-2372def116a5"},"vehicle_type_id":"4","last_reported":1729523419,"current_range_meters":39200,"station_id":"ce4bhbh2rcd13ifvqepg","pricing_plan_id":"cebpf4jnsgd1na2vs0mg"},{"bike_id":"815dd284-1bd2-4bb9-992a-b2116e2485bc","system_id":"levelo_inurba_marseille","lat":43.30532,"lon":5.36553,"is_reserved":false,"is_disabled":false,"rental_uris":{"android":"levelo://app?vid=815dd284-1bd2-4bb9-992a-b2116e2485bc","ios":"levelo://app?vid=815dd284-1bd2-4bb9-992a-b2116e2485bc"},"vehicle_type_id":"4","last_reported":1729523419,"current_range_meters":37600,"station_id":"ce4bgs12rcd13ifvqcag","pricing_plan_id":"cebpf4jnsgd1na2vs0mg"},{"bike_id":"b225f7d3-3dda-4e9f-a6a2-887fdd3406ed","system_id":"levelo_inurba_marseille","lat":43.3375,"lon":5.37451,"is_reserved":false,"is_disabled":false,"rental_uris":{"android":"levelo://app?vid=b225f7d3-3dda-4e9f-a6a2-887fdd3406ed","ios":"levelo://app?vid=b225f7d3-3dda-4e9f-a6a2-887fdd3406ed"},"vehicle_type_id":"4","last_reported":1729523419,"current_range_meters":36800,"station_id":"","pricing_plan_id":"cebpf4jnsgd1na2vs0mg"},{"bike_id":"db74497f-fbdb-41c3-9890-b99ee0eeda47","system_id":"levelo_inurba_marseille","lat":43.27423,"lon":5.39423,"is_reserved":false,"is_disabled":false,"rental_uris":{"android":"levelo://app?vid=db74497f-fbdb-41c3-9890-b99ee0eeda47","ios":"levelo://app?vid=db74497f-fbdb-41c3-9890-b99ee0eeda47"},"vehicle_type_id":"4","last_reported":1729523419,"current_range_meters":12000,"station_id":"ce4bhdp2rcd13ifvqf20","pricing_plan_id":"cebpf4jnsgd1na2vs0mg"},{"bike_id":"33bbe4ad-0cf9-4c7e-b4a0-f13c698223b5","system_id":"levelo_inurba_marseille","lat":43.22935,"lon":5.35378,"is_reserved":false,"is_disabled":false,"rental_uris":{"android":"levelo://app?vid=33bbe4ad-0cf9-4c7e-b4a0-f13c698223b5","ios":"levelo://app?vid=33bbe4ad-0cf9-4c7e-b4a0-f13c698223b5"},"vehicle_type_id":"4","last_reported":1729523419,"current_range_meters":38800,"station_id":"cpo3532slgdg3j2ikp40","pricing_plan_id":"cebpf4jnsgd1na2vs0mg"},{"bike_id":"7615ac46-9b72-4011-987c-cf9b8a97b7ee","system_id":"levelo_inurba_marseille","lat":43.3171,"lon":5.43711,"is_reserved":false,"is_disabled":false,"rental_uris":{"android":"levelo://app?vid=7615ac46-9b72-4011-987c-cf9b8a97b7ee","ios":"levelo://app?vid=7615ac46-9b72-4011-987c-cf9b8a97b7ee"},"vehicle_type_id":"4","last_reported":1729523419,"current_range_meters":30800,"station_id":"ce4bhp92rcd13ifvqhcg","pricing_plan_id":"cebpf4jnsgd1na2vs0mg"},{"bike_id":"86ddb841-4474-485c-adbe-a64936e481a8","system_id":"levelo_inurba_marseille","lat":43.30127,"lon":5.38783,"is_reserved":false,"is_disabled":false,"rental_uris":{"android":"levelo://app?vid=86ddb841-4474-485c-adbe-a64936e481a8","ios":"levelo://app?vid=86ddb841-4474-485c-adbe-a64936e481a8"},"vehicle_type_id":"4","last_reported":1729523419,"current_range_meters":32400,"station_id":"ce4bghh2rcd13ifvqb60","pricing_plan_id":"cebpf4jnsgd1na2vs0mg"},{"bike_id":"7afe71a3-201a-49fc-a5f2-136629564808","system_id":"levelo_inurba_marseille","lat":43.28418,"lon":5.3499,"is_reserved":false,"is_disabled":false,"rental_uris":{"android":"levelo://app?vid=7afe71a3-201a-49fc-a5f2-136629564808","ios":"levelo://app?vid=7afe71a3-201a-49fc-a5f2-136629564808"},"vehicle_type_id":"4","last_reported":1729523419,"current_range_meters":33200,"station_id":"ce4bhbh2rcd13ifvqepg","pricing_plan_id":"cebpf4jnsgd1na2vs0mg"},{"bike_id":"fdcb9399-3f9d-4d53-b315-2bc9b4339e8c","system_id":"levelo_inurba_marseille","lat":43.33716,"lon":5.39188,"is_reserved":false,"is_disabled":false,"rental_uris":{"android":"levelo://app?vid=fdcb9399-3f9d-4d53-b315-2bc9b4339e8c","ios":"levelo://app?vid=fdcb9399-3f9d-4d53-b315-2bc9b4339e8c"},"vehicle_type_id":"4","last_reported":1729523419,"current_range_meters":28400,"station_id":"ce4bhr92rcd13ifvqhsg","pricing_plan_id":"cebpf4jnsgd1na2vs0mg"},{"bike_id":"5d82eb44-49d0-477f-8167-d5700ec00be5","system_id":"levelo_inurba_marseille","lat":43.27373,"lon":5.36252,"is_reserved":false,"is_disabled":false,"rental_uris":{"android":"levelo://app?vid=5d82eb44-49d0-477f-8167-d5700ec00be5","ios":"levelo://app?vid=5d82eb44-49d0-477f-8167-d5700ec00be5"},"vehicle_type_id":"4","last_reported":1729523419,"current_range_meters":16800,"station_id":"ce4bhbh2rcd13ifvqeo0","pricing_plan_id":"cebpf4jnsgd1na2vs0mg"},{"bike_id":"09cb8207-c804-47c7-9699-59cc1a14b677","system_id":"levelo_inurba_marseille","lat":43.23061,"lon":5.3549,"is_reserved":false,"is_disabled":false,"rental_uris":{"android":"levelo://app?vid=09cb8207-c804-47c7-9699-59cc1a14b677","ios":"levelo://app?vid=09cb8207-c804-47c7-9699-59cc1a14b677"},"vehicle_type_id":"4","last_reported":1729523419,"current_range_meters":36800,"station_id":"cpo3342slgdg3j2ifvpg","pricing_plan_id":"cebpf4jnsgd1na2vs0mg"},{"bike_id":"407773a7-bafd-4994-a1fd-8a73c9328a48","system_id":"levelo_inurba_marseille","lat":43.28416,"lon":5.35,"is_reserved":false,"is_disabled":false,"rental_uris":{"android":"levelo://app?vid=407773a7-bafd-4994-a1fd-8a73c9328a48","ios":"levelo://app?vid=407773a7-bafd-4994-a1fd-8a73c9328a48"},"vehicle_type_id":"4","last_reported":1729523419,"current_range_meters":21600,"station_id":"ce4bhbh2rcd13ifvqepg","pricing_plan_id":"cebpf4jnsgd1na2vs0mg"},{"bike_id":"3e125731-f6a1-477d-8429-16b99adccecf","system_id":"levelo_inurba_marseille","lat":43.29095,"lon":5.38151,"is_reserved":false,"is_disabled":false,"rental_uris":{"android":"levelo://app?vid=3e125731-f6a1-477d-8429-16b99adccecf","ios":"levelo://app?vid=3e125731-f6a1-477d-8429-16b99adccecf"},"vehicle_type_id":"4","last_reported":1729523419,"current_range_meters":4800,"station_id":"ce4bh512rcd13ifvqe2g","pricing_plan_id":"cebpf4jnsgd1na2vs0mg"},{"bike_id":"75a7d4e8-7156-431d-98ea-dcdeefbc3902","system_id":"levelo_inurba_marseille","lat":43.246354,"lon":5.389268,"is_reserved":false,"is_disabled":false,"rental_uris":{"android":"levelo://app?vid=75a7d4e8-7156-431d-98ea-dcdeefbc3902","ios":"levelo://app?vid=75a7d4e8-7156-431d-98ea-dcdeefbc3902"},"vehicle_type_id":"4","last_reported":1729523419,"current_range_meters":8800,"station_id":"ce4bhg12rcd13ifvqf60","pricing_plan_id":"cebpf4jnsgd1na2vs0mg"},{"bike_id":"d09b9bb6-7db1-47ee-8eb1-6c99150f66cc","system_id":"levelo_inurba_marseille","lat":43.26675,"lon":5.38267,"is_reserved":false,"is_disabled":false,"rental_uris":{"android":"levelo://app?vid=d09b9bb6-7db1-47ee-8eb1-6c99150f66cc","ios":"levelo://app?vid=d09b9bb6-7db1-47ee-8eb1-6c99150f66cc"},"vehicle_type_id":"4","last_reported":1729523419,"current_range_meters":24000,"station_id":"ce4bhg92rcd13ifvqf90","pricing_plan_id":"cebpf4jnsgd1na2vs0mg"},{"bike_id":"d6056c03-fd9a-4318-ab01-54fcb42b30ff","system_id":"levelo_inurba_marseille","lat":43.27606,"lon":5.3612,"is_reserved":false,"is_disabled":false,"rental_uris":{"android":"levelo://app?vid=d6056c03-fd9a-4318-ab01-54fcb42b30ff","ios":"levelo://app?vid=d6056c03-fd9a-4318-ab01-54fcb42b30ff"},"vehicle_type_id":"4","last_reported":1729523419,"current_range_meters":24000,"station_id":"ce4bgj92rcd13ifvqbe0","pricing_plan_id":"cebpf4jnsgd1na2vs0mg"},{"bike_id":"2d2c8b8e-c933-432f-9f07-1b231ee8765f","system_id":"levelo_inurba_marseille","lat":43.30797,"lon":5.38167,"is_reserved":false,"is_disabled":false,"rental_uris":{"android":"levelo://app?vid=2d2c8b8e-c933-432f-9f07-1b231ee8765f","ios":"levelo://app?vid=2d2c8b8e-c933-432f-9f07-1b231ee8765f"},"vehicle_type_id":"4","last_reported":1729523419,"current_range_meters":32000,"station_id":"","pricing_plan_id":"cebpf4jnsgd1na2vs0mg"},{"bike_id":"e01af3fb-a46a-472a-a9ce-4d0d6e75d0db","system_id":"levelo_inurba_marseille","lat":43.28455,"lon":5.35894,"is_reserved":false,"is_disabled":false,"rental_uris":{"android":"levelo://app?vid=e01af3fb-a46a-472a-a9ce-4d0d6e75d0db","ios":"levelo://app?vid=e01af3fb-a46a-472a-a9ce-4d0d6e75d0db"},"vehicle_type_id":"4","last_reported":1729523419,"current_range_meters":39200,"station_id":"ce4bhah2rcd13ifvqei0","pricing_plan_id":"cebpf4jnsgd1na2vs0mg"},{"bike_id":"43bc3d0b-18e5-41c6-8512-26e24d35eaf0","system_id":"levelo_inurba_marseille","lat":43.27373,"lon":5.36246,"is_reserved":false,"is_disabled":false,"rental_uris":{"android":"levelo://app?vid=43bc3d0b-18e5-41c6-8512-26e24d35eaf0","ios":"levelo://app?vid=43bc3d0b-18e5-41c6-8512-26e24d35eaf0"},"vehicle_type_id":"4","last_reported":1729523419,"current_range_meters":38800,"station_id":"ce4bhbh2rcd13ifvqeo0","pricing_plan_id":"cebpf4jnsgd1na2vs0mg"},{"bike_id":"0263b0a4-08bd-4d56-9db8-a60566da85ba","system_id":"levelo_inurba_marseille","lat":43.32664,"lon":5.40996,"is_reserved":false,"is_disabled":false,"rental_uris":{"android":"levelo://app?vid=0263b0a4-08bd-4d56-9db8-a60566da85ba","ios":"levelo://app?vid=0263b0a4-08bd-4d56-9db8-a60566da85ba"},"vehicle_type_id":"4","last_reported":1729523419,"current_range_meters":2800,"station_id":"ce4bhpp2rcd13ifvqhgg","pricing_plan_id":"cebpf4jnsgd1na2vs0mg"},{"bike_id":"cdd03d3a-91af-4f00-a9bb-239f005fcf37","system_id":"levelo_inurba_marseille","lat":43.31348,"lon":5.36734,"is_reserved":false,"is_disabled":false,"rental_uris":{"android":"levelo://app?vid=cdd03d3a-91af-4f00-a9bb-239f005fcf37","ios":"levelo://app?vid=cdd03d3a-91af-4f00-a9bb-239f005fcf37"},"vehicle_type_id":"4","last_reported":1729523419,"current_range_meters":8800,"station_id":"ce4bgr92rcd13ifvqc6g","pricing_plan_id":"cebpf4jnsgd1na2vs0mg"},{"bike_id":"5f988eb6-9a40-46f3-a790-533891f2709a","system_id":"levelo_inurba_marseille","lat":43.31323,"lon":5.39688,"is_reserved":false,"is_disabled":false,"rental_uris":{"android":"levelo://app?vid=5f988eb6-9a40-46f3-a790-533891f2709a","ios":"levelo://app?vid=5f988eb6-9a40-46f3-a790-533891f2709a"},"vehicle_type_id":"4","last_reported":1729523419,"current_range_meters":19600,"station_id":"ce4bgvp2rcd13ifvqcu0","pricing_plan_id":"cebpf4jnsgd1na2vs0mg"},{"bike_id":"fad84b3f-b2d4-4a09-876e-58e843ccb843","system_id":"levelo_inurba_marseille","lat":43.31495,"lon":5.37317,"is_reserved":false,"is_disabled":false,"rental_uris":{"android":"levelo://app?vid=fad84b3f-b2d4-4a09-876e-58e843ccb843","ios":"levelo://app?vid=fad84b3f-b2d4-4a09-876e-58e843ccb843"},"vehicle_type_id":"4","last_reported":1729523419,"current_range_meters":28000,"station_id":"ce4bgt12rcd13ifvqcd0","pricing_plan_id":"cebpf4jnsgd1na2vs0mg"},{"bike_id":"505c2ed0-c748-4bc4-9512-95a207478e5f","system_id":"levelo_inurba_marseille","lat":43.27377,"lon":5.36254,"is_reserved":false,"is_disabled":false,"rental_uris":{"android":"levelo://app?vid=505c2ed0-c748-4bc4-9512-95a207478e5f","ios":"levelo://app?vid=505c2ed0-c748-4bc4-9512-95a207478e5f"},"vehicle_type_id":"4","last_reported":1729523419,"current_range_meters":38800,"station_id":"ce4bhbh2rcd13ifvqeo0","pricing_plan_id":"cebpf4jnsgd1na2vs0mg"},{"bike_id":"2de1491f-56f3-4817-9830-b0d59d8ec6de","system_id":"levelo_inurba_marseille","lat":43.28278,"lon":5.35062,"is_reserved":false,"is_disabled":false,"rental_uris":{"android":"levelo://app?vid=2de1491f-56f3-4817-9830-b0d59d8ec6de","ios":"levelo://app?vid=2de1491f-56f3-4817-9830-b0d59d8ec6de"},"vehicle_type_id":"4","last_reported":1729523419,"current_range_meters":26800,"station_id":"ce4bhbp2rcd13ifvqerg","pricing_plan_id":"cebpf4jnsgd1na2vs0mg"},{"bike_id":"e9e9a82e-e118-41ca-ae12-6227ade803ad","system_id":"levelo_inurba_marseille","lat":43.275665,"lon":5.384171,"is_reserved":false,"is_disabled":false,"rental_uris":{"android":"levelo://app?vid=e9e9a82e-e118-41ca-ae12-6227ade803ad","ios":"levelo://app?vid=e9e9a82e-e118-41ca-ae12-6227ade803ad"},"vehicle_type_id":"4","last_reported":1729523419,"current_range_meters":27600,"station_id":"ce4bhh92rcd13ifvqfi0","pricing_plan_id":"cebpf4jnsgd1na2vs0mg"},{"bike_id":"d464c206-3e2b-4dfe-96bc-fdfdb23f53f0","system_id":"levelo_inurba_marseille","lat":43.2931,"lon":5.36982,"is_reserved":false,"is_disabled":false,"rental_uris":{"android":"levelo://app?vid=d464c206-3e2b-4dfe-96bc-fdfdb23f53f0","ios":"levelo://app?vid=d464c206-3e2b-4dfe-96bc-fdfdb23f53f0"},"vehicle_type_id":"4","last_reported":1729523419,"current_range_meters":38000,"station_id":"","pricing_plan_id":"cebpf4jnsgd1na2vs0mg"},{"bike_id":"8108509e-ac7e-45bc-af43-4cef2b508202","system_id":"levelo_inurba_marseille","lat":43.24545,"lon":5.39527,"is_reserved":false,"is_disabled":false,"rental_uris":{"android":"levelo://app?vid=8108509e-ac7e-45bc-af43-4cef2b508202","ios":"levelo://app?vid=8108509e-ac7e-45bc-af43-4cef2b508202"},"vehicle_type_id":"4","last_reported":1729523419,"current_range_meters":24000,"station_id":"ce4bhlp2rcd13ifvqgjg","pricing_plan_id":"cebpf4jnsgd1na2vs0mg"},{"bike_id":"024a9f97-ee12-4bde-aad3-6edf4d7b8e19","system_id":"levelo_inurba_marseille","lat":43.33743,"lon":5.37461,"is_reserved":false,"is_disabled":false,"rental_uris":{"android":"levelo://app?vid=024a9f97-ee12-4bde-aad3-6edf4d7b8e19","ios":"levelo://app?vid=024a9f97-ee12-4bde-aad3-6edf4d7b8e19"},"vehicle_type_id":"4","last_reported":1729523419,"current_range_meters":2000,"station_id":"","pricing_plan_id":"cebpf4jnsgd1na2vs0mg"},{"bike_id":"12b63156-7302-4db5-8fd2-8af2a1bcc422","system_id":"levelo_inurba_marseille","lat":43.26914,"lon":5.39354,"is_reserved":false,"is_disabled":false,"rental_uris":{"android":"levelo://app?vid=12b63156-7302-4db5-8fd2-8af2a1bcc422","ios":"levelo://app?vid=12b63156-7302-4db5-8fd2-8af2a1bcc422"},"vehicle_type_id":"4","last_reported":1729523419,"current_range_meters":27600,"station_id":"","pricing_plan_id":"cebpf4jnsgd1na2vs0mg"},{"bike_id":"dc1bee65-e82b-420b-9f1c-3b158095b308","system_id":"levelo_inurba_marseille","lat":43.24167,"lon":5.36392,"is_reserved":false,"is_disabled":false,"rental_uris":{"android":"levelo://app?vid=dc1bee65-e82b-420b-9f1c-3b158095b308","ios":"levelo://app?vid=dc1bee65-e82b-420b-9f1c-3b158095b308"},"vehicle_type_id":"4","last_reported":1729523419,"current_range_meters":19200,"station_id":"cpo36qri1sfpv3e86is0","pricing_plan_id":"cebpf4jnsgd1na2vs0mg"},{"bike_id":"6c17deed-7d8e-4c2d-ad5b-4eb9d8a334db","system_id":"levelo_inurba_marseille","lat":43.2857,"lon":5.3951,"is_reserved":false,"is_disabled":false,"rental_uris":{"android":"levelo://app?vid=6c17deed-7d8e-4c2d-ad5b-4eb9d8a334db","ios":"levelo://app?vid=6c17deed-7d8e-4c2d-ad5b-4eb9d8a334db"},"vehicle_type_id":"4","last_reported":1729523419,"current_range_meters":16400,"station_id":"ce4bh292rcd13ifvqdg0","pricing_plan_id":"cebpf4jnsgd1na2vs0mg"},{"bike_id":"68715265-6161-4020-9a34-18e563cb6e80","system_id":"levelo_inurba_marseille","lat":43.28167,"lon":5.42652,"is_reserved":false,"is_disabled":false,"rental_uris":{"android":"levelo://app?vid=68715265-6161-4020-9a34-18e563cb6e80","ios":"levelo://app?vid=68715265-6161-4020-9a34-18e563cb6e80"},"vehicle_type_id":"4","last_reported":1729523419,"current_range_meters":24800,"station_id":"ce4bhnh2rcd13ifvqgug","pricing_plan_id":"cebpf4jnsgd1na2vs0mg"},{"bike_id":"71a3575e-567a-433e-92c7-0d79be4b6502","system_id":"levelo_inurba_marseille","lat":43.28269,"lon":5.35074,"is_reserved":false,"is_disabled":false,"rental_uris":{"android":"levelo://app?vid=71a3575e-567a-433e-92c7-0d79be4b6502","ios":"levelo://app?vid=71a3575e-567a-433e-92c7-0d79be4b6502"},"vehicle_type_id":"4","last_reported":1729523419,"current_range_meters":30000,"station_id":"ce4bhbp2rcd13ifvqerg","pricing_plan_id":"cebpf4jnsgd1na2vs0mg"},{"bike_id":"f389c1db-bdfb-435a-a255-5f266c270eb9","system_id":"levelo_inurba_marseille","lat":43.23187,"lon":5.39991,"is_reserved":false,"is_disabled":false,"rental_uris":{"android":"levelo://app?vid=f389c1db-bdfb-435a-a255-5f266c270eb9","ios":"levelo://app?vid=f389c1db-bdfb-435a-a255-5f266c270eb9"},"vehicle_type_id":"4","last_reported":1729523419,"current_range_meters":25600,"station_id":"ce4bhn12rcd13ifvqgqg","pricing_plan_id":"cebpf4jnsgd1na2vs0mg"},{"bike_id":"1e2270ef-237b-42e2-a98d-0bcaf3c6fdac","system_id":"levelo_inurba_marseille","lat":43.30546,"lon":5.36535,"is_reserved":false,"is_disabled":false,"rental_uris":{"android":"levelo://app?vid=1e2270ef-237b-42e2-a98d-0bcaf3c6fdac","ios":"levelo://app?vid=1e2270ef-237b-42e2-a98d-0bcaf3c6fdac"},"vehicle_type_id":"4","last_reported":1729523419,"current_range_meters":37600,"station_id":"ce4bgs12rcd13ifvqcag","pricing_plan_id":"cebpf4jnsgd1na2vs0mg"},{"bike_id":"fcbce288-9311-47d1-b7f5-5658d2f1006c","system_id":"levelo_inurba_marseille","lat":43.27397,"lon":5.41921,"is_reserved":false,"is_disabled":false,"rental_uris":{"android":"levelo://app?vid=fcbce288-9311-47d1-b7f5-5658d2f1006c","ios":"levelo://app?vid=fcbce288-9311-47d1-b7f5-5658d2f1006c"},"vehicle_type_id":"4","last_reported":1729523419,"current_range_meters":2000,"station_id":"","pricing_plan_id":"cebpf4jnsgd1na2vs0mg"},{"bike_id":"3e4d42e6-bd6a-427a-9abe-dc4e488d23e7","system_id":"levelo_inurba_marseille","lat":43.25863,"lon":5.39902,"is_reserved":false,"is_disabled":false,"rental_uris":{"android":"levelo://app?vid=3e4d42e6-bd6a-427a-9abe-dc4e488d23e7","ios":"levelo://app?vid=3e4d42e6-bd6a-427a-9abe-dc4e488d23e7"},"vehicle_type_id":"4","last_reported":1729523419,"current_range_meters":19200,"station_id":"ce4bhl92rcd13ifvqghg","pricing_plan_id":"cebpf4jnsgd1na2vs0mg"},{"bike_id":"35f09153-cef3-4e41-bcef-5598e9fc1f48","system_id":"levelo_inurba_marseille","lat":43.24074,"lon":5.37758,"is_reserved":false,"is_disabled":false,"rental_uris":{"android":"levelo://app?vid=35f09153-cef3-4e41-bcef-5598e9fc1f48","ios":"levelo://app?vid=35f09153-cef3-4e41-bcef-5598e9fc1f48"},"vehicle_type_id":"4","last_reported":1729523419,"current_range_meters":11600,"station_id":"ce4bhnp2rcd13ifvqgvg","pricing_plan_id":"cebpf4jnsgd1na2vs0mg"},{"bike_id":"ea4fc42c-f649-48b6-9895-3b26e16b9d90","system_id":"levelo_inurba_marseille","lat":43.28411,"lon":5.34994,"is_reserved":false,"is_disabled":false,"rental_uris":{"android":"levelo://app?vid=ea4fc42c-f649-48b6-9895-3b26e16b9d90","ios":"levelo://app?vid=ea4fc42c-f649-48b6-9895-3b26e16b9d90"},"vehicle_type_id":"4","last_reported":1729523419,"current_range_meters":26800,"station_id":"ce4bhbh2rcd13ifvqepg","pricing_plan_id":"cebpf4jnsgd1na2vs0mg"},{"bike_id":"c74392b4-5684-4add-9921-69201bef5dee","system_id":"levelo_inurba_marseille","lat":43.28419,"lon":5.34995,"is_reserved":false,"is_disabled":false,"rental_uris":{"android":"levelo://app?vid=c74392b4-5684-4add-9921-69201bef5dee","ios":"levelo://app?vid=c74392b4-5684-4add-9921-69201bef5dee"},"vehicle_type_id":"4","last_reported":1729523419,"current_range_meters":24400,"station_id":"ce4bhbh2rcd13ifvqepg","pricing_plan_id":"cebpf4jnsgd1na2vs0mg"},{"bike_id":"1d6559d8-0413-4df7-8e10-59b7ca160390","system_id":"levelo_inurba_marseille","lat":43.28465,"lon":5.38439,"is_reserved":false,"is_disabled":false,"rental_uris":{"android":"levelo://app?vid=1d6559d8-0413-4df7-8e10-59b7ca160390","ios":"levelo://app?vid=1d6559d8-0413-4df7-8e10-59b7ca160390"},"vehicle_type_id":"4","last_reported":1729523419,"current_range_meters":4000,"station_id":"ce4bh512rcd13ifvqe3g","pricing_plan_id":"cebpf4jnsgd1na2vs0mg"},{"bike_id":"a7efbea4-5e4a-4bc9-81d1-38b08be1d2f7","system_id":"levelo_inurba_marseille","lat":43.25865,"lon":5.39899,"is_reserved":false,"is_disabled":false,"rental_uris":{"android":"levelo://app?vid=a7efbea4-5e4a-4bc9-81d1-38b08be1d2f7","ios":"levelo://app?vid=a7efbea4-5e4a-4bc9-81d1-38b08be1d2f7"},"vehicle_type_id":"4","last_reported":1729523419,"current_range_meters":8000,"station_id":"ce4bhl92rcd13ifvqghg","pricing_plan_id":"cebpf4jnsgd1na2vs0mg"},{"bike_id":"35971642-d2c4-4f60-a4bf-979a58675987","system_id":"levelo_inurba_marseille","lat":43.25581,"lon":5.38233,"is_reserved":false,"is_disabled":false,"rental_uris":{"android":"levelo://app?vid=35971642-d2c4-4f60-a4bf-979a58675987","ios":"levelo://app?vid=35971642-d2c4-4f60-a4bf-979a58675987"},"vehicle_type_id":"4","last_reported":1729523419,"current_range_meters":36000,"station_id":"ce4bhih2rcd13ifvqfs0","pricing_plan_id":"cebpf4jnsgd1na2vs0mg"},{"bike_id":"ad380d01-3cb7-4db4-a153-5c707eb35acf","system_id":"levelo_inurba_marseille","lat":43.28271,"lon":5.35086,"is_reserved":false,"is_disabled":false,"rental_uris":{"android":"levelo://app?vid=ad380d01-3cb7-4db4-a153-5c707eb35acf","ios":"levelo://app?vid=ad380d01-3cb7-4db4-a153-5c707eb35acf"},"vehicle_type_id":"4","last_reported":1729523419,"current_range_meters":34000,"station_id":"ce4bhbp2rcd13ifvqerg","pricing_plan_id":"cebpf4jnsgd1na2vs0mg"},{"bike_id":"be841669-b191-4b64-9291-7b9e306b14f7","system_id":"levelo_inurba_marseille","lat":43.2846,"lon":5.35903,"is_reserved":false,"is_disabled":false,"rental_uris":{"android":"levelo://app?vid=be841669-b191-4b64-9291-7b9e306b14f7","ios":"levelo://app?vid=be841669-b191-4b64-9291-7b9e306b14f7"},"vehicle_type_id":"4","last_reported":1729523419,"current_range_meters":38400,"station_id":"ce4bhah2rcd13ifvqei0","pricing_plan_id":"cebpf4jnsgd1na2vs0mg"},{"bike_id":"91675f0c-087b-4c33-9702-3d28326f14c2","system_id":"levelo_inurba_marseille","lat":43.26683,"lon":5.38272,"is_reserved":false,"is_disabled":false,"rental_uris":{"android":"levelo://app?vid=91675f0c-087b-4c33-9702-3d28326f14c2","ios":"levelo://app?vid=91675f0c-087b-4c33-9702-3d28326f14c2"},"vehicle_type_id":"4","last_reported":1729523419,"current_range_meters":38000,"station_id":"ce4bhg92rcd13ifvqf90","pricing_plan_id":"cebpf4jnsgd1na2vs0mg"},{"bike_id":"763d66e1-dd9a-41aa-8e32-b189977d4332","system_id":"levelo_inurba_marseille","lat":43.3128,"lon":5.40173,"is_reserved":false,"is_disabled":false,"rental_uris":{"android":"levelo://app?vid=763d66e1-dd9a-41aa-8e32-b189977d4332","ios":"levelo://app?vid=763d66e1-dd9a-41aa-8e32-b189977d4332"},"vehicle_type_id":"4","last_reported":1729523419,"current_range_meters":20800,"station_id":"ce4bh092rcd13ifvqd30","pricing_plan_id":"cebpf4jnsgd1na2vs0mg"},{"bike_id":"46e06c76-e16d-43b7-9714-f07be7c59c45","system_id":"levelo_inurba_marseille","lat":43.2827,"lon":5.35071,"is_reserved":false,"is_disabled":false,"rental_uris":{"android":"levelo://app?vid=46e06c76-e16d-43b7-9714-f07be7c59c45","ios":"levelo://app?vid=46e06c76-e16d-43b7-9714-f07be7c59c45"},"vehicle_type_id":"4","last_reported":1729523419,"current_range_meters":9600,"station_id":"ce4bhbp2rcd13ifvqerg","pricing_plan_id":"cebpf4jnsgd1na2vs0mg"},{"bike_id":"80f46cd6-4267-4e9b-9b10-492b997f7652","system_id":"levelo_inurba_marseille","lat":43.28263,"lon":5.35078,"is_reserved":false,"is_disabled":false,"rental_uris":{"android":"levelo://app?vid=80f46cd6-4267-4e9b-9b10-492b997f7652","ios":"levelo://app?vid=80f46cd6-4267-4e9b-9b10-492b997f7652"},"vehicle_type_id":"4","last_reported":1729523419,"current_range_meters":24400,"station_id":"ce4bhbp2rcd13ifvqerg","pricing_plan_id":"cebpf4jnsgd1na2vs0mg"},{"bike_id":"cd8e12ee-9460-4562-8b20-6f1037c30e91","system_id":"levelo_inurba_marseille","lat":43.31121,"lon":5.37769,"is_reserved":false,"is_disabled":false,"rental_uris":{"android":"levelo://app?vid=cd8e12ee-9460-4562-8b20-6f1037c30e91","ios":"levelo://app?vid=cd8e12ee-9460-4562-8b20-6f1037c30e91"},"vehicle_type_id":"4","last_reported":1729523419,"current_range_meters":38800,"station_id":"ce4bgt92rcd13ifvqcg0","pricing_plan_id":"cebpf4jnsgd1na2vs0mg"},{"bike_id":"7ba06756-220e-4aa9-90f3-77369d37fe56","system_id":"levelo_inurba_marseille","lat":43.30192,"lon":5.36624,"is_reserved":false,"is_disabled":false,"rental_uris":{"android":"levelo://app?vid=7ba06756-220e-4aa9-90f3-77369d37fe56","ios":"levelo://app?vid=7ba06756-220e-4aa9-90f3-77369d37fe56"},"vehicle_type_id":"4","last_reported":1729523419,"current_range_meters":28400,"station_id":"ce4bgrh2rcd13ifvqc8g","pricing_plan_id":"cebpf4jnsgd1na2vs0mg"},{"bike_id":"1d818ca2-cdce-4c7f-acbc-b394d267c167","system_id":"levelo_inurba_marseille","lat":43.30604,"lon":5.39357,"is_reserved":false,"is_disabled":false,"rental_uris":{"android":"levelo://app?vid=1d818ca2-cdce-4c7f-acbc-b394d267c167","ios":"levelo://app?vid=1d818ca2-cdce-4c7f-acbc-b394d267c167"},"vehicle_type_id":"4","last_reported":1729523419,"current_range_meters":22800,"station_id":"ce4bh0p2rcd13ifvqd80","pricing_plan_id":"cebpf4jnsgd1na2vs0mg"},{"bike_id":"44641a44-51fd-4058-a365-d27a9eeeb44b","system_id":"levelo_inurba_marseille","lat":43.24658,"lon":5.38166,"is_reserved":false,"is_disabled":false,"rental_uris":{"android":"levelo://app?vid=44641a44-51fd-4058-a365-d27a9eeeb44b","ios":"levelo://app?vid=44641a44-51fd-4058-a365-d27a9eeeb44b"},"vehicle_type_id":"4","last_reported":1729523419,"current_range_meters":18000,"station_id":"ce4bhih2rcd13ifvqfr0","pricing_plan_id":"cebpf4jnsgd1na2vs0mg"},{"bike_id":"926c78b5-c75d-49f7-b847-bce505991a66","system_id":"levelo_inurba_marseille","lat":43.323408,"lon":5.406256,"is_reserved":false,"is_disabled":false,"rental_uris":{"android":"levelo://app?vid=926c78b5-c75d-49f7-b847-bce505991a66","ios":"levelo://app?vid=926c78b5-c75d-49f7-b847-bce505991a66"},"vehicle_type_id":"4","last_reported":1729523419,"current_range_meters":24400,"station_id":"ce4bhq92rcd13ifvqhjg","pricing_plan_id":"cebpf4jnsgd1na2vs0mg"},{"bike_id":"bc341a37-5899-4a1a-96a2-5da2ef83b5ab","system_id":"levelo_inurba_marseille","lat":43.29015,"lon":5.3813,"is_reserved":false,"is_disabled":false,"rental_uris":{"android":"levelo://app?vid=bc341a37-5899-4a1a-96a2-5da2ef83b5ab","ios":"levelo://app?vid=bc341a37-5899-4a1a-96a2-5da2ef83b5ab"},"vehicle_type_id":"4","last_reported":1729523419,"current_range_meters":13600,"station_id":"ce4bh4p2rcd13ifvqe1g","pricing_plan_id":"cebpf4jnsgd1na2vs0mg"},{"bike_id":"f6f55f72-1de4-43fe-9616-166aa83f3c58","system_id":"levelo_inurba_marseille","lat":43.28153,"lon":5.42642,"is_reserved":false,"is_disabled":false,"rental_uris":{"android":"levelo://app?vid=f6f55f72-1de4-43fe-9616-166aa83f3c58","ios":"levelo://app?vid=f6f55f72-1de4-43fe-9616-166aa83f3c58"},"vehicle_type_id":"4","last_reported":1729523419,"current_range_meters":6400,"station_id":"ce4bhnh2rcd13ifvqgug","pricing_plan_id":"cebpf4jnsgd1na2vs0mg"},{"bike_id":"f507cd56-95de-4112-bac0-3688235425a1","system_id":"levelo_inurba_marseille","lat":43.2408,"lon":5.3775,"is_reserved":false,"is_disabled":false,"rental_uris":{"android":"levelo://app?vid=f507cd56-95de-4112-bac0-3688235425a1","ios":"levelo://app?vid=f507cd56-95de-4112-bac0-3688235425a1"},"vehicle_type_id":"4","last_reported":1729523419,"current_range_meters":4000,"station_id":"ce4bhnp2rcd13ifvqgvg","pricing_plan_id":"cebpf4jnsgd1na2vs0mg"},{"bike_id":"cb4ed9c4-c17d-462b-8e5b-f8aec9f2ad00","system_id":"levelo_inurba_marseille","lat":43.30351,"lon":5.41878,"is_reserved":false,"is_disabled":false,"rental_uris":{"android":"levelo://app?vid=cb4ed9c4-c17d-462b-8e5b-f8aec9f2ad00","ios":"levelo://app?vid=cb4ed9c4-c17d-462b-8e5b-f8aec9f2ad00"},"vehicle_type_id":"4","last_reported":1729523419,"current_range_meters":26000,"station_id":"ce4bhop2rcd13ifvqh7g","pricing_plan_id":"cebpf4jnsgd1na2vs0mg"},{"bike_id":"279b59b9-41ca-48a4-ad84-a4c4e4a6b455","system_id":"levelo_inurba_marseille","lat":43.28411,"lon":5.34992,"is_reserved":false,"is_disabled":false,"rental_uris":{"android":"levelo://app?vid=279b59b9-41ca-48a4-ad84-a4c4e4a6b455","ios":"levelo://app?vid=279b59b9-41ca-48a4-ad84-a4c4e4a6b455"},"vehicle_type_id":"4","last_reported":1729523419,"current_range_meters":22400,"station_id":"ce4bhbh2rcd13ifvqepg","pricing_plan_id":"cebpf4jnsgd1na2vs0mg"},{"bike_id":"25bc9416-762f-462a-94b8-0c8b5985e2ef","system_id":"levelo_inurba_marseille","lat":43.29436,"lon":5.39747,"is_reserved":false,"is_disabled":false,"rental_uris":{"android":"levelo://app?vid=25bc9416-762f-462a-94b8-0c8b5985e2ef","ios":"levelo://app?vid=25bc9416-762f-462a-94b8-0c8b5985e2ef"},"vehicle_type_id":"4","last_reported":1729523419,"current_range_meters":27200,"station_id":"ce4bh3h2rcd13ifvqdo0","pricing_plan_id":"cebpf4jnsgd1na2vs0mg"},{"bike_id":"500ad0d4-3f89-40f2-adab-1e6110ec377c","system_id":"levelo_inurba_marseille","lat":43.32476,"lon":5.36572,"is_reserved":false,"is_disabled":false,"rental_uris":{"android":"levelo://app?vid=500ad0d4-3f89-40f2-adab-1e6110ec377c","ios":"levelo://app?vid=500ad0d4-3f89-40f2-adab-1e6110ec377c"},"vehicle_type_id":"4","last_reported":1729523419,"current_range_meters":39200,"station_id":"ce4bhs12rcd13ifvqhvg","pricing_plan_id":"cebpf4jnsgd1na2vs0mg"},{"bike_id":"586c981b-51f6-4859-a43e-098987459617","system_id":"levelo_inurba_marseille","lat":43.23194,"lon":5.3556,"is_reserved":false,"is_disabled":false,"rental_uris":{"android":"levelo://app?vid=586c981b-51f6-4859-a43e-098987459617","ios":"levelo://app?vid=586c981b-51f6-4859-a43e-098987459617"},"vehicle_type_id":"4","last_reported":1729523419,"current_range_meters":39200,"station_id":"ce4bhu92rcd13ifvqi70","pricing_plan_id":"cebpf4jnsgd1na2vs0mg"},{"bike_id":"e868d24d-a495-4582-a68d-fd804fa4e77b","system_id":"levelo_inurba_marseille","lat":43.22927,"lon":5.35376,"is_reserved":false,"is_disabled":false,"rental_uris":{"android":"levelo://app?vid=e868d24d-a495-4582-a68d-fd804fa4e77b","ios":"levelo://app?vid=e868d24d-a495-4582-a68d-fd804fa4e77b"},"vehicle_type_id":"4","last_reported":1729523419,"current_range_meters":36000,"station_id":"cpo3532slgdg3j2ikp40","pricing_plan_id":"cebpf4jnsgd1na2vs0mg"},{"bike_id":"cab317a4-cbf0-4a5b-82d5-42d3930f1c61","system_id":"levelo_inurba_marseille","lat":43.29227,"lon":5.36068,"is_reserved":false,"is_disabled":false,"rental_uris":{"android":"levelo://app?vid=cab317a4-cbf0-4a5b-82d5-42d3930f1c61","ios":"levelo://app?vid=cab317a4-cbf0-4a5b-82d5-42d3930f1c61"},"vehicle_type_id":"4","last_reported":1729523419,"current_range_meters":27200,"station_id":"ce4bhbh2rcd13ifvqeqg","pricing_plan_id":"cebpf4jnsgd1na2vs0mg"},{"bike_id":"ba94fe3f-91ea-492a-8ee6-ce0fac7b5b71","system_id":"levelo_inurba_marseille","lat":43.29213,"lon":5.3934,"is_reserved":false,"is_disabled":false,"rental_uris":{"android":"levelo://app?vid=ba94fe3f-91ea-492a-8ee6-ce0fac7b5b71","ios":"levelo://app?vid=ba94fe3f-91ea-492a-8ee6-ce0fac7b5b71"},"vehicle_type_id":"4","last_reported":1729523419,"current_range_meters":6400,"station_id":"ce4bh192rcd13ifvqdd0","pricing_plan_id":"cebpf4jnsgd1na2vs0mg"},{"bike_id":"a65bd1da-3721-4f1e-ba04-b2194587e72c","system_id":"levelo_inurba_marseille","lat":43.28152,"lon":5.42647,"is_reserved":false,"is_disabled":false,"rental_uris":{"android":"levelo://app?vid=a65bd1da-3721-4f1e-ba04-b2194587e72c","ios":"levelo://app?vid=a65bd1da-3721-4f1e-ba04-b2194587e72c"},"vehicle_type_id":"4","last_reported":1729523419,"current_range_meters":8800,"station_id":"ce4bhnh2rcd13ifvqgug","pricing_plan_id":"cebpf4jnsgd1na2vs0mg"},{"bike_id":"0fd4424c-0a49-4f7c-a34e-3502d5d3a680","system_id":"levelo_inurba_marseille","lat":43.2841,"lon":5.3498,"is_reserved":false,"is_disabled":false,"rental_uris":{"android":"levelo://app?vid=0fd4424c-0a49-4f7c-a34e-3502d5d3a680","ios":"levelo://app?vid=0fd4424c-0a49-4f7c-a34e-3502d5d3a680"},"vehicle_type_id":"4","last_reported":1729523419,"current_range_meters":37600,"station_id":"ce4bhbh2rcd13ifvqepg","pricing_plan_id":"cebpf4jnsgd1na2vs0mg"},{"bike_id":"07132f27-7008-4a45-a543-b330019e78b0","system_id":"levelo_inurba_marseille","lat":43.29068,"lon":5.37176,"is_reserved":false,"is_disabled":false,"rental_uris":{"android":"levelo://app?vid=07132f27-7008-4a45-a543-b330019e78b0","ios":"levelo://app?vid=07132f27-7008-4a45-a543-b330019e78b0"},"vehicle_type_id":"4","last_reported":1729523419,"current_range_meters":40000,"station_id":"ce4bh5p2rcd13ifvqe4g","pricing_plan_id":"cebpf4jnsgd1na2vs0mg"},{"bike_id":"3676a773-026d-4bc0-8509-953965fa407c","system_id":"levelo_inurba_marseille","lat":43.32472,"lon":5.36556,"is_reserved":false,"is_disabled":false,"rental_uris":{"android":"levelo://app?vid=3676a773-026d-4bc0-8509-953965fa407c","ios":"levelo://app?vid=3676a773-026d-4bc0-8509-953965fa407c"},"vehicle_type_id":"4","last_reported":1729523419,"current_range_meters":39200,"station_id":"ce4bhs12rcd13ifvqhvg","pricing_plan_id":"cebpf4jnsgd1na2vs0mg"},{"bike_id":"b84ab4c9-ff29-492f-a2c4-658135a09c49","system_id":"levelo_inurba_marseille","lat":43.28155,"lon":5.42647,"is_reserved":false,"is_disabled":false,"rental_uris":{"android":"levelo://app?vid=b84ab4c9-ff29-492f-a2c4-658135a09c49","ios":"levelo://app?vid=b84ab4c9-ff29-492f-a2c4-658135a09c49"},"vehicle_type_id":"4","last_reported":1729523419,"current_range_meters":31200,"station_id":"ce4bhnh2rcd13ifvqgug","pricing_plan_id":"cebpf4jnsgd1na2vs0mg"},{"bike_id":"bf68b812-14b8-4ca2-a1cd-3cdd03c445b8","system_id":"levelo_inurba_marseille","lat":43.276215,"lon":5.361117,"is_reserved":false,"is_disabled":false,"rental_uris":{"android":"levelo://app?vid=bf68b812-14b8-4ca2-a1cd-3cdd03c445b8","ios":"levelo://app?vid=bf68b812-14b8-4ca2-a1cd-3cdd03c445b8"},"vehicle_type_id":"4","last_reported":1729523419,"current_range_meters":5600,"station_id":"ce4bgj92rcd13ifvqbe0","pricing_plan_id":"cebpf4jnsgd1na2vs0mg"},{"bike_id":"643ac206-d526-4b75-91ba-da123b616eaf","system_id":"levelo_inurba_marseille","lat":43.28848,"lon":5.39324,"is_reserved":false,"is_disabled":false,"rental_uris":{"android":"levelo://app?vid=643ac206-d526-4b75-91ba-da123b616eaf","ios":"levelo://app?vid=643ac206-d526-4b75-91ba-da123b616eaf"},"vehicle_type_id":"4","last_reported":1729523419,"current_range_meters":38400,"station_id":"ce4bh2p2rcd13ifvqdi0","pricing_plan_id":"cebpf4jnsgd1na2vs0mg"},{"bike_id":"2439f439-dc85-4e4f-ae04-9ad535a44ed7","system_id":"levelo_inurba_marseille","lat":43.27316,"lon":5.39079,"is_reserved":false,"is_disabled":false,"rental_uris":{"android":"levelo://app?vid=2439f439-dc85-4e4f-ae04-9ad535a44ed7","ios":"levelo://app?vid=2439f439-dc85-4e4f-ae04-9ad535a44ed7"},"vehicle_type_id":"4","last_reported":1729523419,"current_range_meters":31200,"station_id":"ce4bhgp2rcd13ifvqfe0","pricing_plan_id":"cebpf4jnsgd1na2vs0mg"},{"bike_id":"59c76784-74a8-4046-bed5-3096ac87c4a1","system_id":"levelo_inurba_marseille","lat":43.24074,"lon":5.37765,"is_reserved":false,"is_disabled":false,"rental_uris":{"android":"levelo://app?vid=59c76784-74a8-4046-bed5-3096ac87c4a1","ios":"levelo://app?vid=59c76784-74a8-4046-bed5-3096ac87c4a1"},"vehicle_type_id":"4","last_reported":1729523419,"current_range_meters":37600,"station_id":"ce4bhnp2rcd13ifvqgvg","pricing_plan_id":"cebpf4jnsgd1na2vs0mg"},{"bike_id":"68761867-9396-4180-9230-3e914b3bda15","system_id":"levelo_inurba_marseille","lat":43.26681,"lon":5.3827,"is_reserved":false,"is_disabled":false,"rental_uris":{"android":"levelo://app?vid=68761867-9396-4180-9230-3e914b3bda15","ios":"levelo://app?vid=68761867-9396-4180-9230-3e914b3bda15"},"vehicle_type_id":"4","last_reported":1729523419,"current_range_meters":18800,"station_id":"ce4bhg92rcd13ifvqf90","pricing_plan_id":"cebpf4jnsgd1na2vs0mg"},{"bike_id":"e59fb873-7275-4a30-bf88-7c8676a1d0fe","system_id":"levelo_inurba_marseille","lat":43.28455,"lon":5.35888,"is_reserved":false,"is_disabled":false,"rental_uris":{"android":"levelo://app?vid=e59fb873-7275-4a30-bf88-7c8676a1d0fe","ios":"levelo://app?vid=e59fb873-7275-4a30-bf88-7c8676a1d0fe"},"vehicle_type_id":"4","last_reported":1729523419,"current_range_meters":38000,"station_id":"ce4bhah2rcd13ifvqei0","pricing_plan_id":"cebpf4jnsgd1na2vs0mg"},{"bike_id":"ab5029ac-ff74-42c5-bb85-885c740289cb","system_id":"levelo_inurba_marseille","lat":43.31077,"lon":5.38364,"is_reserved":false,"is_disabled":false,"rental_uris":{"android":"levelo://app?vid=ab5029ac-ff74-42c5-bb85-885c740289cb","ios":"levelo://app?vid=ab5029ac-ff74-42c5-bb85-885c740289cb"},"vehicle_type_id":"4","last_reported":1729523419,"current_range_meters":36400,"station_id":"ce4bgv92rcd13ifvqcr0","pricing_plan_id":"cebpf4jnsgd1na2vs0mg"},{"bike_id":"a1a02b11-b5b1-49cb-8397-88640ce031ab","system_id":"levelo_inurba_marseille","lat":43.29262,"lon":5.40924,"is_reserved":false,"is_disabled":false,"rental_uris":{"android":"levelo://app?vid=a1a02b11-b5b1-49cb-8397-88640ce031ab","ios":"levelo://app?vid=a1a02b11-b5b1-49cb-8397-88640ce031ab"},"vehicle_type_id":"4","last_reported":1729523419,"current_range_meters":32400,"station_id":"ce4bh192rcd13ifvqdc0","pricing_plan_id":"cebpf4jnsgd1na2vs0mg"},{"bike_id":"b79cfa95-7ad9-482f-bcc9-a924a3b81198","system_id":"levelo_inurba_marseille","lat":43.28412,"lon":5.34993,"is_reserved":false,"is_disabled":false,"rental_uris":{"android":"levelo://app?vid=b79cfa95-7ad9-482f-bcc9-a924a3b81198","ios":"levelo://app?vid=b79cfa95-7ad9-482f-bcc9-a924a3b81198"},"vehicle_type_id":"4","last_reported":1729523419,"current_range_meters":28000,"station_id":"ce4bhbh2rcd13ifvqepg","pricing_plan_id":"cebpf4jnsgd1na2vs0mg"},{"bike_id":"4974fb49-48da-47e2-9f45-536968db30bb","system_id":"levelo_inurba_marseille","lat":43.24999,"lon":5.38928,"is_reserved":false,"is_disabled":false,"rental_uris":{"android":"levelo://app?vid=4974fb49-48da-47e2-9f45-536968db30bb","ios":"levelo://app?vid=4974fb49-48da-47e2-9f45-536968db30bb"},"vehicle_type_id":"4","last_reported":1729523419,"current_range_meters":17600,"station_id":"ce4bhgp2rcd13ifvqfd0","pricing_plan_id":"cebpf4jnsgd1na2vs0mg"},{"bike_id":"3d3d0e35-dbb7-44fe-865b-500844f66f8c","system_id":"levelo_inurba_marseille","lat":43.31165,"lon":5.38717,"is_reserved":false,"is_disabled":false,"rental_uris":{"android":"levelo://app?vid=3d3d0e35-dbb7-44fe-865b-500844f66f8c","ios":"levelo://app?vid=3d3d0e35-dbb7-44fe-865b-500844f66f8c"},"vehicle_type_id":"4","last_reported":1729523419,"current_range_meters":22000,"station_id":"ce4bgv12rcd13ifvqcp0","pricing_plan_id":"cebpf4jnsgd1na2vs0mg"},{"bike_id":"3bb86520-53cc-4804-be0b-cae989a4520f","system_id":"levelo_inurba_marseille","lat":43.22933,"lon":5.35378,"is_reserved":false,"is_disabled":false,"rental_uris":{"android":"levelo://app?vid=3bb86520-53cc-4804-be0b-cae989a4520f","ios":"levelo://app?vid=3bb86520-53cc-4804-be0b-cae989a4520f"},"vehicle_type_id":"4","last_reported":1729523419,"current_range_meters":35200,"station_id":"cpo3532slgdg3j2ikp40","pricing_plan_id":"cebpf4jnsgd1na2vs0mg"},{"bike_id":"097c0d1d-741e-4751-bc5a-04f0eeef4cdb","system_id":"levelo_inurba_marseille","lat":43.32107,"lon":5.36775,"is_reserved":false,"is_disabled":false,"rental_uris":{"android":"levelo://app?vid=097c0d1d-741e-4751-bc5a-04f0eeef4cdb","ios":"levelo://app?vid=097c0d1d-741e-4751-bc5a-04f0eeef4cdb"},"vehicle_type_id":"4","last_reported":1729523419,"current_range_meters":26000,"station_id":"ce4bhrh2rcd13ifvqhug","pricing_plan_id":"cebpf4jnsgd1na2vs0mg"},{"bike_id":"96a6062d-5199-4344-a474-34edcf0b3f26","system_id":"levelo_inurba_marseille","lat":43.29313,"lon":5.37179,"is_reserved":false,"is_disabled":false,"rental_uris":{"android":"levelo://app?vid=96a6062d-5199-4344-a474-34edcf0b3f26","ios":"levelo://app?vid=96a6062d-5199-4344-a474-34edcf0b3f26"},"vehicle_type_id":"4","last_reported":1729523419,"current_range_meters":38800,"station_id":"ce4bgh92rcd13ifvqb40","pricing_plan_id":"cebpf4jnsgd1na2vs0mg"},{"bike_id":"5ed4ac10-b6ba-410e-acb6-d4cff88a14b2","system_id":"levelo_inurba_marseille","lat":43.28416,"lon":5.34988,"is_reserved":false,"is_disabled":false,"rental_uris":{"android":"levelo://app?vid=5ed4ac10-b6ba-410e-acb6-d4cff88a14b2","ios":"levelo://app?vid=5ed4ac10-b6ba-410e-acb6-d4cff88a14b2"},"vehicle_type_id":"4","last_reported":1729523419,"current_range_meters":6000,"station_id":"ce4bhbh2rcd13ifvqepg","pricing_plan_id":"cebpf4jnsgd1na2vs0mg"},{"bike_id":"6ed766ff-aba2-48ea-b0b9-9164a448ec6f","system_id":"levelo_inurba_marseille","lat":43.29024,"lon":5.38634,"is_reserved":false,"is_disabled":false,"rental_uris":{"android":"levelo://app?vid=6ed766ff-aba2-48ea-b0b9-9164a448ec6f","ios":"levelo://app?vid=6ed766ff-aba2-48ea-b0b9-9164a448ec6f"},"vehicle_type_id":"4","last_reported":1729523419,"current_range_meters":8400,"station_id":"ce4bh4p2rcd13ifvqe0g","pricing_plan_id":"cebpf4jnsgd1na2vs0mg"},{"bike_id":"ffc82169-0ebf-465f-beef-7ddb83f8ec98","system_id":"levelo_inurba_marseille","lat":43.28262,"lon":5.35074,"is_reserved":false,"is_disabled":false,"rental_uris":{"android":"levelo://app?vid=ffc82169-0ebf-465f-beef-7ddb83f8ec98","ios":"levelo://app?vid=ffc82169-0ebf-465f-beef-7ddb83f8ec98"},"vehicle_type_id":"4","last_reported":1729523419,"current_range_meters":32400,"station_id":"ce4bhbp2rcd13ifvqerg","pricing_plan_id":"cebpf4jnsgd1na2vs0mg"},{"bike_id":"96aa7419-fec1-4846-8b3d-33ad0b99cf53","system_id":"levelo_inurba_marseille","lat":43.31075,"lon":5.38364,"is_reserved":false,"is_disabled":false,"rental_uris":{"android":"levelo://app?vid=96aa7419-fec1-4846-8b3d-33ad0b99cf53","ios":"levelo://app?vid=96aa7419-fec1-4846-8b3d-33ad0b99cf53"},"vehicle_type_id":"4","last_reported":1729523419,"current_range_meters":28400,"station_id":"ce4bgv92rcd13ifvqcr0","pricing_plan_id":"cebpf4jnsgd1na2vs0mg"},{"bike_id":"1c7ef514-69dc-433b-a545-3ce4c7e83906","system_id":"levelo_inurba_marseille","lat":43.28266,"lon":5.35083,"is_reserved":false,"is_disabled":false,"rental_uris":{"android":"levelo://app?vid=1c7ef514-69dc-433b-a545-3ce4c7e83906","ios":"levelo://app?vid=1c7ef514-69dc-433b-a545-3ce4c7e83906"},"vehicle_type_id":"4","last_reported":1729523419,"current_range_meters":38800,"station_id":"ce4bhbp2rcd13ifvqerg","pricing_plan_id":"cebpf4jnsgd1na2vs0mg"},{"bike_id":"b7661b66-68c9-4aea-b199-11bbfb8fd05b","system_id":"levelo_inurba_marseille","lat":43.28458,"lon":5.35891,"is_reserved":false,"is_disabled":false,"rental_uris":{"android":"levelo://app?vid=b7661b66-68c9-4aea-b199-11bbfb8fd05b","ios":"levelo://app?vid=b7661b66-68c9-4aea-b199-11bbfb8fd05b"},"vehicle_type_id":"4","last_reported":1729523419,"current_range_meters":30400,"station_id":"ce4bhah2rcd13ifvqei0","pricing_plan_id":"cebpf4jnsgd1na2vs0mg"},{"bike_id":"2eea6828-8402-4af7-9447-6d730d96b051","system_id":"levelo_inurba_marseille","lat":43.29908,"lon":5.38146,"is_reserved":false,"is_disabled":false,"rental_uris":{"android":"levelo://app?vid=2eea6828-8402-4af7-9447-6d730d96b051","ios":"levelo://app?vid=2eea6828-8402-4af7-9447-6d730d96b051"},"vehicle_type_id":"4","last_reported":1729523419,"current_range_meters":17600,"station_id":"ce4bgj12rcd13ifvqbc0","pricing_plan_id":"cebpf4jnsgd1na2vs0mg"},{"bike_id":"9255256c-3617-4f98-950e-45e6e2ede2b8","system_id":"levelo_inurba_marseille","lat":43.3375,"lon":5.37448,"is_reserved":false,"is_disabled":false,"rental_uris":{"android":"levelo://app?vid=9255256c-3617-4f98-950e-45e6e2ede2b8","ios":"levelo://app?vid=9255256c-3617-4f98-950e-45e6e2ede2b8"},"vehicle_type_id":"4","last_reported":1729523419,"current_range_meters":36400,"station_id":"","pricing_plan_id":"cebpf4jnsgd1na2vs0mg"},{"bike_id":"f664508d-c703-410b-8571-546ad2f855e9","system_id":"levelo_inurba_marseille","lat":43.22931,"lon":5.35389,"is_reserved":false,"is_disabled":false,"rental_uris":{"android":"levelo://app?vid=f664508d-c703-410b-8571-546ad2f855e9","ios":"levelo://app?vid=f664508d-c703-410b-8571-546ad2f855e9"},"vehicle_type_id":"4","last_reported":1729523419,"current_range_meters":38400,"station_id":"cpo3532slgdg3j2ikp40","pricing_plan_id":"cebpf4jnsgd1na2vs0mg"},{"bike_id":"67663885-a01f-4cfa-a966-96c205f89ceb","system_id":"levelo_inurba_marseille","lat":43.27618,"lon":5.36122,"is_reserved":false,"is_disabled":false,"rental_uris":{"android":"levelo://app?vid=67663885-a01f-4cfa-a966-96c205f89ceb","ios":"levelo://app?vid=67663885-a01f-4cfa-a966-96c205f89ceb"},"vehicle_type_id":"4","last_reported":1729523419,"current_range_meters":10800,"station_id":"ce4bgj92rcd13ifvqbe0","pricing_plan_id":"cebpf4jnsgd1na2vs0mg"},{"bike_id":"d5b2cc69-110b-46a5-9661-13a83803e928","system_id":"levelo_inurba_marseille","lat":43.30655,"lon":5.40103,"is_reserved":false,"is_disabled":false,"rental_uris":{"android":"levelo://app?vid=d5b2cc69-110b-46a5-9661-13a83803e928","ios":"levelo://app?vid=d5b2cc69-110b-46a5-9661-13a83803e928"},"vehicle_type_id":"4","last_reported":1729523419,"current_range_meters":3600,"station_id":"ce4bh112rcd13ifvqda0","pricing_plan_id":"cebpf4jnsgd1na2vs0mg"},{"bike_id":"5da8cade-5999-4716-a63f-570deffc4f66","system_id":"levelo_inurba_marseille","lat":43.28265,"lon":5.35077,"is_reserved":false,"is_disabled":false,"rental_uris":{"android":"levelo://app?vid=5da8cade-5999-4716-a63f-570deffc4f66","ios":"levelo://app?vid=5da8cade-5999-4716-a63f-570deffc4f66"},"vehicle_type_id":"4","last_reported":1729523419,"current_range_meters":10800,"station_id":"ce4bhbp2rcd13ifvqerg","pricing_plan_id":"cebpf4jnsgd1na2vs0mg"},{"bike_id":"c2b49f1a-6df4-41dd-8b10-03cd351eefc8","system_id":"levelo_inurba_marseille","lat":43.25574,"lon":5.38227,"is_reserved":false,"is_disabled":false,"rental_uris":{"android":"levelo://app?vid=c2b49f1a-6df4-41dd-8b10-03cd351eefc8","ios":"levelo://app?vid=c2b49f1a-6df4-41dd-8b10-03cd351eefc8"},"vehicle_type_id":"4","last_reported":1729523419,"current_range_meters":34000,"station_id":"ce4bhih2rcd13ifvqfs0","pricing_plan_id":"cebpf4jnsgd1na2vs0mg"},{"bike_id":"ee733ab8-3a43-40e2-8741-c25449fa5c04","system_id":"levelo_inurba_marseille","lat":43.29862,"lon":5.39734,"is_reserved":false,"is_disabled":false,"rental_uris":{"android":"levelo://app?vid=ee733ab8-3a43-40e2-8741-c25449fa5c04","ios":"levelo://app?vid=ee733ab8-3a43-40e2-8741-c25449fa5c04"},"vehicle_type_id":"4","last_reported":1729523419,"current_range_meters":22000,"station_id":"ce4bh0h2rcd13ifvqd50","pricing_plan_id":"cebpf4jnsgd1na2vs0mg"},{"bike_id":"352dc937-837f-4f98-9d8c-ca8da16061fe","system_id":"levelo_inurba_marseille","lat":43.28609,"lon":5.35111,"is_reserved":false,"is_disabled":false,"rental_uris":{"android":"levelo://app?vid=352dc937-837f-4f98-9d8c-ca8da16061fe","ios":"levelo://app?vid=352dc937-837f-4f98-9d8c-ca8da16061fe"},"vehicle_type_id":"4","last_reported":1729523419,"current_range_meters":28000,"station_id":"ce4bhch2rcd13ifvqeug","pricing_plan_id":"cebpf4jnsgd1na2vs0mg"},{"bike_id":"4c439efa-5a04-4e85-81ff-c7a735ab00b1","system_id":"levelo_inurba_marseille","lat":43.32475,"lon":5.36589,"is_reserved":false,"is_disabled":false,"rental_uris":{"android":"levelo://app?vid=4c439efa-5a04-4e85-81ff-c7a735ab00b1","ios":"levelo://app?vid=4c439efa-5a04-4e85-81ff-c7a735ab00b1"},"vehicle_type_id":"4","last_reported":1729523419,"current_range_meters":38800,"station_id":"ce4bhs12rcd13ifvqhvg","pricing_plan_id":"cebpf4jnsgd1na2vs0mg"},{"bike_id":"15e27dd3-d78b-4d25-912e-cb098797c4f9","system_id":"levelo_inurba_marseille","lat":43.298218,"lon":5.371208,"is_reserved":false,"is_disabled":false,"rental_uris":{"android":"levelo://app?vid=15e27dd3-d78b-4d25-912e-cb098797c4f9","ios":"levelo://app?vid=15e27dd3-d78b-4d25-912e-cb098797c4f9"},"vehicle_type_id":"4","last_reported":1729523419,"current_range_meters":32000,"station_id":"ce4bgop2rcd13ifvqc1g","pricing_plan_id":"cebpf4jnsgd1na2vs0mg"},{"bike_id":"187ce735-7548-4380-a4a5-b09f618e4eca","system_id":"levelo_inurba_marseille","lat":43.23065,"lon":5.35487,"is_reserved":false,"is_disabled":false,"rental_uris":{"android":"levelo://app?vid=187ce735-7548-4380-a4a5-b09f618e4eca","ios":"levelo://app?vid=187ce735-7548-4380-a4a5-b09f618e4eca"},"vehicle_type_id":"4","last_reported":1729523419,"current_range_meters":6400,"station_id":"cpo3342slgdg3j2ifvpg","pricing_plan_id":"cebpf4jnsgd1na2vs0mg"},{"bike_id":"dd1ae247-7a68-4ead-bf1e-12bf7071c927","system_id":"levelo_inurba_marseille","lat":43.290436,"lon":5.399583,"is_reserved":false,"is_disabled":false,"rental_uris":{"android":"levelo://app?vid=dd1ae247-7a68-4ead-bf1e-12bf7071c927","ios":"levelo://app?vid=dd1ae247-7a68-4ead-bf1e-12bf7071c927"},"vehicle_type_id":"4","last_reported":1729523419,"current_range_meters":16800,"station_id":"ce4bh392rcd13ifvqdm0","pricing_plan_id":"cebpf4jnsgd1na2vs0mg"},{"bike_id":"04b97abb-a7eb-4ef1-bff1-7a3b7edd950d","system_id":"levelo_inurba_marseille","lat":43.24079,"lon":5.37755,"is_reserved":false,"is_disabled":false,"rental_uris":{"android":"levelo://app?vid=04b97abb-a7eb-4ef1-bff1-7a3b7edd950d","ios":"levelo://app?vid=04b97abb-a7eb-4ef1-bff1-7a3b7edd950d"},"vehicle_type_id":"4","last_reported":1729523419,"current_range_meters":19200,"station_id":"ce4bhnp2rcd13ifvqgvg","pricing_plan_id":"cebpf4jnsgd1na2vs0mg"},{"bike_id":"661d9f93-ca59-4cd7-87ad-c498cfa7676a","system_id":"levelo_inurba_marseille","lat":43.28719,"lon":5.36091,"is_reserved":false,"is_disabled":false,"rental_uris":{"android":"levelo://app?vid=661d9f93-ca59-4cd7-87ad-c498cfa7676a","ios":"levelo://app?vid=661d9f93-ca59-4cd7-87ad-c498cfa7676a"},"vehicle_type_id":"4","last_reported":1729523419,"current_range_meters":20000,"station_id":"cki0cbj6b192h4jlfktg","pricing_plan_id":"cebpf4jnsgd1na2vs0mg"},{"bike_id":"723c448c-f4f6-4e10-9599-a891eb37bc4d","system_id":"levelo_inurba_marseille","lat":43.28462,"lon":5.39234,"is_reserved":false,"is_disabled":false,"rental_uris":{"android":"levelo://app?vid=723c448c-f4f6-4e10-9599-a891eb37bc4d","ios":"levelo://app?vid=723c448c-f4f6-4e10-9599-a891eb37bc4d"},"vehicle_type_id":"4","last_reported":1729523419,"current_range_meters":30000,"station_id":"ce4bhoh2rcd13ifvqh5g","pricing_plan_id":"cebpf4jnsgd1na2vs0mg"},{"bike_id":"985f6a5a-689f-49cf-b05c-d8617459b66a","system_id":"levelo_inurba_marseille","lat":43.28272,"lon":5.35073,"is_reserved":false,"is_disabled":false,"rental_uris":{"android":"levelo://app?vid=985f6a5a-689f-49cf-b05c-d8617459b66a","ios":"levelo://app?vid=985f6a5a-689f-49cf-b05c-d8617459b66a"},"vehicle_type_id":"4","last_reported":1729523419,"current_range_meters":11200,"station_id":"ce4bhbp2rcd13ifvqerg","pricing_plan_id":"cebpf4jnsgd1na2vs0mg"},