{"last_updated":1725390442,"ttl":30,"version":"2.2","data":{"bikes":[{"bike_id":"fa1fdfbe-4250-4189-87ba-193d2b9d77c6","system_id":"levelo_inurba_marseille","lat":43.313391,"lon":5.36706,"is_reserved":false,"is_disabled":false,"rental_uris":{"android":"levelo://app?vid=fa1fdfbe-4250-4189-87ba-193d2b9d77c6","ios":"levelo://app?vid=fa1fdfbe-4250-4189-87ba-193d2b9d77c6"},"vehicle_type_id":"4","last_reported":1725390442,"current_range_meters":27200,"station_id":"ce4bgr92rcd13ifvqc6g","pricing_plan_id":"cebpf4jnsgd1na2vs0mg"},{"bike_id":"0de9fa73-5c73-4f4f-a147-b8021c684da4","system_id":"levelo_inurba_marseille","lat":43.309076,"lon":5.368465,"is_reserved":false,"is_disabled":false,"rental_uris":{"android":"levelo://app?vid=0de9fa73-5c73-4f4f-a147-b8021c684da4","ios":"levelo://app?vid=0de9fa73-5c73-4f4f-a147-b8021c684da4"},"vehicle_type_id":"4","last_reported":1725390442,"current_range_meters":6400,"station_id":"ce4bgn92rcd13ifvqbvg","pricing_plan_id":"cebpf4jnsgd1na2vs0mg"},{"bike_id":"8ff6c4ed-64c6-4faf-8582-226d8d05713c","system_id":"levelo_inurba_marseille","lat":43.314811,"lon":5.373103,"is_reserved":false,"is_disabled":false,"rental_uris":{"android":"levelo://app?vid=8ff6c4ed-64c6-4faf-8582-226d8d05713c","ios":"levelo://app?vid=8ff6c4ed-64c6-4faf-8582-226d8d05713c"},"vehicle_type_id":"4","last_reported":1725390442,"current_range_meters":27600,"station_id":"ce4bgt12rcd13ifvqcd0","pricing_plan_id":"cebpf4jnsgd1na2vs0mg"},{"bike_id":"398d13e6-726c-4905-8883-aea40643aa8e","system_id":"levelo_inurba_marseille","lat":43.314811,"lon":5.373103,"is_reserved":false,"is_disabled":false,"rental_uris":{"android":"levelo://app?vid=398d13e6-726c-4905-8883-aea40643aa8e","ios":"levelo://app?vid=398d13e6-726c-4905-8883-aea40643aa8e"},"vehicle_type_id":"4","last_reported":1725390442,"current_range_meters":19600,"station_id":"ce4bgt12rcd13ifvqcd0","pricing_plan_id":"cebpf4jnsgd1na2vs0mg"},{"bike_id":"dee6175e-cd0d-4691-a44c-a092974e28b5","system_id":"levelo_inurba_marseille","lat":43.31815,"lon":5.36947,"is_reserved":false,"is_disabled":false,"rental_uris":{"android":"levelo://app?vid=dee6175e-cd0d-4691-a44c-a092974e28b5","ios":"levelo://app?vid=dee6175e-cd0d-4691-a44c-a092974e28b5"},"vehicle_type_id":"4","last_reported":1725390442,"current_range_meters":6800,"station_id":"","pricing_plan_id":"cebpf4jnsgd1na2vs0mg"},{"bike_id":"13ddead7-8cc6-4a17-91ea-60c2d8db7810","system_id":"levelo_inurba_marseille","lat":43.30554,"lon":5.36544,"is_reserved":false,"is_disabled":false,"rental_uris":{"android":"levelo://app?vid=13ddead7-8cc6-4a17-91ea-60c2d8db7810","ios":"levelo://app?vid=13ddead7-8cc6-4a17-91ea-60c2d8db7810"},"vehicle_type_id":"4","last_reported":1725390442,"current_range_meters":0,"station_id":"ce4bgs12rcd13ifvqcag","pricing_plan_id":"cebpf4jnsgd1na2vs0mg"},{"bike_id":"06a53273-3ff1-4c5d-b967-1fcf475d4564","system_id":"levelo_inurba_marseille","lat":43.30544,"lon":5.36547,"is_reserved":false,"is_disabled":false,"rental_uris":{"android":"levelo://app?vid=06a53273-3ff1-4c5d-b967-1fcf475d4564","ios":"levelo://app?vid=06a53273-3ff1-4c5d-b967-1fcf475d4564"},"vehicle_type_id":"4","last_reported":1725390442,"current_range_meters":26800,"station_id":"ce4bgs12rcd13ifvqcag","pricing_plan_id":"cebpf4jnsgd1na2vs0mg"},{"bike_id":"ac67826f-e567-4d1f-ac56-5dd67460a6d6","system_id":"levelo_inurba_marseille","lat":43.30536,"lon":5.36722,"is_reserved":false,"is_disabled":false,"rental_uris":{"android":"levelo://app?vid=ac67826f-e567-4d1f-ac56-5dd67460a6d6","ios":"levelo://app?vid=ac67826f-e567-4d1f-ac56-5dd67460a6d6"},"vehicle_type_id":"4","last_reported":1725390442,"current_range_meters":4400,"station_id":"ce4bgrp2rcd13ifvqc9g","pricing_plan_id":"cebpf4jnsgd1na2vs0mg"},{"bike_id":"0e72dfec-b26f-464e-88c2-561f33b19c5d","system_id":"levelo_inurba_marseille","lat":43.30529,"lon":5.36719,"is_reserved":false,"is_disabled":false,"rental_uris":{"android":"levelo://app?vid=0e72dfec-b26f-464e-88c2-561f33b19c5d","ios":"levelo://app?vid=0e72dfec-b26f-464e-88c2-561f33b19c5d"},"vehicle_type_id":"4","last_reported":1725390442,"current_range_meters":0,"station_id":"ce4bgrp2rcd13ifvqc9g","pricing_plan_id":"cebpf4jnsgd1na2vs0mg"},{"bike_id":"bc882ead-8929-4a61-802b-3dbc4324bb8a","system_id":"levelo_inurba_marseille","lat":43.30606,"lon":5.37228,"is_reserved":false,"is_disabled":false,"rental_uris":{"android":"levelo://app?vid=bc882ead-8929-4a61-802b-3dbc4324bb8a","ios":"levelo://app?vid=bc882ead-8929-4a61-802b-3dbc4324bb8a"},"vehicle_type_id":"4","last_reported":1725390442,"current_range_meters":0,"station_id":"ce4bgqh2rcd13ifvqc4g","pricing_plan_id":"cebpf4jnsgd1na2vs0mg"},{"bike_id":"0db6195a-366e-4744-8930-2dec5105dc02","system_id":"levelo_inurba_marseille","lat":43.305989,"lon":5.37225,"is_reserved":false,"is_disabled":false,"rental_uris":{"android":"levelo://app?vid=0db6195a-366e-4744-8930-2dec5105dc02","ios":"levelo://app?vid=0db6195a-366e-4744-8930-2dec5105dc02"},"vehicle_type_id":"4","last_reported":1725390442,"current_range_meters":2800,"station_id":"ce4bgqh2rcd13ifvqc4g","pricing_plan_id":"cebpf4jnsgd1na2vs0mg"},{"bike_id":"ee9ceaad-7a0f-47db-86c0-2ce8955702c1","system_id":"levelo_inurba_marseille","lat":43.305989,"lon":5.37225,"is_reserved":false,"is_disabled":false,"rental_uris":{"android":"levelo://app?vid=ee9ceaad-7a0f-47db-86c0-2ce8955702c1","ios":"levelo://app?vid=ee9ceaad-7a0f-47db-86c0-2ce8955702c1"},"vehicle_type_id":"4","last_reported":1725390442,"current_range_meters":2800,"station_id":"ce4bgqh2rcd13ifvqc4g","pricing_plan_id":"cebpf4jnsgd1na2vs0mg"},{"bike_id":"4f4c4ee6-7c6c-4460-a483-76af333e4bd5","system_id":"levelo_inurba_marseille","lat":43.305989,"lon":5.37225,"is_reserved":false,"is_disabled":false,"rental_uris":{"android":"levelo://app?vid=4f4c4ee6-7c6c-4460-a483-76af333e4bd5","ios":"levelo://app?vid=4f4c4ee6-7c6c-4460-a483-76af333e4bd5"},"vehicle_type_id":"4","last_reported":1725390442,"current_range_meters":0,"station_id":"ce4bgqh2rcd13ifvqc4g","pricing_plan_id":"cebpf4jnsgd1na2vs0mg"},{"bike_id":"abcc5620-2db8-42f3-9dc5-c95b476a53b5","system_id":"levelo_inurba_marseille","lat":43.31031,"lon":5.37711,"is_reserved":false,"is_disabled":false,"rental_uris":{"android":"levelo://app?vid=abcc5620-2db8-42f3-9dc5-c95b476a53b5","ios":"levelo://app?vid=abcc5620-2db8-42f3-9dc5-c95b476a53b5"},"vehicle_type_id":"4","last_reported":1725390442,"current_range_meters":20000,"station_id":"","pricing_plan_id":"cebpf4jnsgd1na2vs0mg"},{"bike_id":"5454edba-097a-485d-9802-a6ccfed64b37","system_id":"levelo_inurba_marseille","lat":43.305989,"lon":5.37225,"is_reserved":false,"is_disabled":false,"rental_uris":{"android":"levelo://app?vid=5454edba-097a-485d-9802-a6ccfed64b37","ios":"levelo://app?vid=5454edba-097a-485d-9802-a6ccfed64b37"},"vehicle_type_id":"4","last_reported":1725390442,"current_range_meters":14800,"station_id":"ce4bgqh2rcd13ifvqc4g","pricing_plan_id":"cebpf4jnsgd1na2vs0mg"},{"bike_id":"ca72b864-4715-4bc9-b705-c310de77ac1f","system_id":"levelo_inurba_marseille","lat":43.311131,"lon":5.377651,"is_reserved":false,"is_disabled":false,"rental_uris":{"android":"levelo://app?vid=ca72b864-4715-4bc9-b705-c310de77ac1f","ios":"levelo://app?vid=ca72b864-4715-4bc9-b705-c310de77ac1f"},"vehicle_type_id":"4","last_reported":1725390442,"current_range_meters":0,"station_id":"ce4bgt92rcd13ifvqcg0","pricing_plan_id":"cebpf4jnsgd1na2vs0mg"},{"bike_id":"08212877-2a04-48ea-aa1c-2089bcea63a8","system_id":"levelo_inurba_marseille","lat":43.317075,"lon":5.377367,"is_reserved":false,"is_disabled":false,"rental_uris":{"android":"levelo://app?vid=08212877-2a04-48ea-aa1c-2089bcea63a8","ios":"levelo://app?vid=08212877-2a04-48ea-aa1c-2089bcea63a8"},"vehicle_type_id":"4","last_reported":1725390442,"current_range_meters":12000,"station_id":"ce4bgth2rcd13ifvqch0","pricing_plan_id":"cebpf4jnsgd1na2vs0mg"},{"bike_id":"9c327a20-65e6-4cf7-8165-169bb977067e","system_id":"levelo_inurba_marseille","lat":43.301396,"lon":5.387812,"is_reserved":false,"is_disabled":false,"rental_uris":{"android":"levelo://app?vid=9c327a20-65e6-4cf7-8165-169bb977067e","ios":"levelo://app?vid=9c327a20-65e6-4cf7-8165-169bb977067e"},"vehicle_type_id":"4","last_reported":1725390442,"current_range_meters":11600,"station_id":"ce4bghh2rcd13ifvqb60","pricing_plan_id":"cebpf4jnsgd1na2vs0mg"},{"bike_id":"7173f79c-1699-4940-a8db-f1cd10b328fa","system_id":"levelo_inurba_marseille","lat":43.30304,"lon":5.368987,"is_reserved":false,"is_disabled":false,"rental_uris":{"android":"levelo://app?vid=7173f79c-1699-4940-a8db-f1cd10b328fa","ios":"levelo://app?vid=7173f79c-1699-4940-a8db-f1cd10b328fa"},"vehicle_type_id":"4","last_reported":1725390442,"current_range_meters":30800,"station_id":"ce4bgqh2rcd13ifvqc5g","pricing_plan_id":"cebpf4jnsgd1na2vs0mg"},{"bike_id":"eadb16db-7399-4123-a461-40d0eccdbaa7","system_id":"levelo_inurba_marseille","lat":43.30304,"lon":5.368987,"is_reserved":false,"is_disabled":false,"rental_uris":{"android":"levelo://app?vid=eadb16db-7399-4123-a461-40d0eccdbaa7","ios":"levelo://app?vid=eadb16db-7399-4123-a461-40d0eccdbaa7"},"vehicle_type_id":"4","last_reported":1725390442,"current_range_meters":14400,"station_id":"ce4bgqh2rcd13ifvqc5g","pricing_plan_id":"cebpf4jnsgd1na2vs0mg"},{"bike_id":"998902b6-f498-4f66-9ec9-fdc6499814f3","system_id":"levelo_inurba_marseille","lat":43.315289,"lon":5.380349,"is_reserved":false,"is_disabled":false,"rental_uris":{"android":"levelo://app?vid=998902b6-f498-4f66-9ec9-fdc6499814f3","ios":"levelo://app?vid=998902b6-f498-4f66-9ec9-fdc6499814f3"},"vehicle_type_id":"4","last_reported":1725390442,"current_range_meters":8000,"station_id":"ce4bhsp2rcd13ifvqi50","pricing_plan_id":"cebpf4jnsgd1na2vs0mg"},{"bike_id":"695c6ca7-c248-4a47-ab86-5654fedeb619","system_id":"levelo_inurba_marseille","lat":43.31522,"lon":5.3804,"is_reserved":false,"is_disabled":false,"rental_uris":{"android":"levelo://app?vid=695c6ca7-c248-4a47-ab86-5654fedeb619","ios":"levelo://app?vid=695c6ca7-c248-4a47-ab86-5654fedeb619"},"vehicle_type_id":"4","last_reported":1725390442,"current_range_meters":2400,"station_id":"ce4bhsp2rcd13ifvqi50","pricing_plan_id":"cebpf4jnsgd1na2vs0mg"},{"bike_id":"e8e71965-0a71-4311-b978-463b1ff43a31","system_id":"levelo_inurba_marseille","lat":43.30786,"lon":5.3801,"is_reserved":false,"is_disabled":false,"rental_uris":{"android":"levelo://app?vid=e8e71965-0a71-4311-b978-463b1ff43a31","ios":"levelo://app?vid=e8e71965-0a71-4311-b978-463b1ff43a31"},"vehicle_type_id":"4","last_reported":1725390442,"current_range_meters":1200,"station_id":"","pricing_plan_id":"cebpf4jnsgd1na2vs0mg"},{"bike_id":"f0bb049a-ff04-4dc8-8dfd-1b6e0f5653b6","system_id":"levelo_inurba_marseille","lat":43.308012,"lon":5.381511,"is_reserved":false,"is_disabled":false,"rental_uris":{"android":"levelo://app?vid=f0bb049a-ff04-4dc8-8dfd-1b6e0f5653b6","ios":"levelo://app?vid=f0bb049a-ff04-4dc8-8dfd-1b6e0f5653b6"},"vehicle_type_id":"4","last_reported":1725390442,"current_range_meters":28400,"station_id":"ce4bgt12rcd13ifvqce0","pricing_plan_id":"cebpf4jnsgd1na2vs0mg"},{"bike_id":"6ef72e6f-74f5-48c4-8c9a-bb95b9956a5c","system_id":"levelo_inurba_marseille","lat":43.304606,"lon":5.379026,"is_reserved":false,"is_disabled":false,"rental_uris":{"android":"levelo://app?vid=6ef72e6f-74f5-48c4-8c9a-bb95b9956a5c","ios":"levelo://app?vid=6ef72e6f-74f5-48c4-8c9a-bb95b9956a5c"},"vehicle_type_id":"4","last_reported":1725390442,"current_range_meters":11200,"station_id":"ce4bgup2rcd13ifvqcn0","pricing_plan_id":"cebpf4jnsgd1na2vs0mg"},{"bike_id":"a291466f-b36e-48a1-b6e5-c8e68109a706","system_id":"levelo_inurba_marseille","lat":43.304606,"lon":5.379026,"is_reserved":false,"is_disabled":false,"rental_uris":{"android":"levelo://app?vid=a291466f-b36e-48a1-b6e5-c8e68109a706","ios":"levelo://app?vid=a291466f-b36e-48a1-b6e5-c8e68109a706"},"vehicle_type_id":"4","last_reported":1725390442,"current_range_meters":6800,"station_id":"ce4bgup2rcd13ifvqcn0","pricing_plan_id":"cebpf4jnsgd1na2vs0mg"},{"bike_id":"f47f94e2-1d06-4a6f-b9fb-1c89d405b1c6","system_id":"levelo_inurba_marseille","lat":43.304606,"lon":5.379026,"is_reserved":false,"is_disabled":false,"rental_uris":{"android":"levelo://app?vid=f47f94e2-1d06-4a6f-b9fb-1c89d405b1c6","ios":"levelo://app?vid=f47f94e2-1d06-4a6f-b9fb-1c89d405b1c6"},"vehicle_type_id":"4","last_reported":1725390442,"current_range_meters":5200,"station_id":"ce4bgup2rcd13ifvqcn0","pricing_plan_id":"cebpf4jnsgd1na2vs0mg"},{"bike_id":"39319c34-1a4c-410b-b18c-06d826e18110","system_id":"levelo_inurba_marseille","lat":43.304606,"lon":5.379026,"is_reserved":false,"is_disabled":false,"rental_uris":{"android":"levelo://app?vid=39319c34-1a4c-410b-b18c-06d826e18110","ios":"levelo://app?vid=39319c34-1a4c-410b-b18c-06d826e18110"},"vehicle_type_id":"4","last_reported":1725390442,"current_range_meters":2000,"station_id":"ce4bgup2rcd13ifvqcn0","pricing_plan_id":"cebpf4jnsgd1na2vs0mg"},{"bike_id":"209dec20-6a2d-45a4-8fbc-c33604d6c388","system_id":"levelo_inurba_marseille","lat":43.324771,"lon":5.36557,"is_reserved":false,"is_disabled":false,"rental_uris":{"android":"levelo://app?vid=209dec20-6a2d-45a4-8fbc-c33604d6c388","ios":"levelo://app?vid=209dec20-6a2d-45a4-8fbc-c33604d6c388"},"vehicle_type_id":"4","last_reported":1725390442,"current_range_meters":14400,"station_id":"ce4bhs12rcd13ifvqhvg","pricing_plan_id":"cebpf4jnsgd1na2vs0mg"},{"bike_id":"c953883f-f36f-4810-bddf-af2f0f20b6a7","system_id":"levelo_inurba_marseille","lat":43.324771,"lon":5.36557,"is_reserved":false,"is_disabled":false,"rental_uris":{"android":"levelo://app?vid=c953883f-f36f-4810-bddf-af2f0f20b6a7","ios":"levelo://app?vid=c953883f-f36f-4810-bddf-af2f0f20b6a7"},"vehicle_type_id":"4","last_reported":1725390442,"current_range_meters":1200,"station_id":"ce4bhs12rcd13ifvqhvg","pricing_plan_id":"cebpf4jnsgd1na2vs0mg"},{"bike_id":"c1f37e38-afda-43be-809f-fbb7ad420795","system_id":"levelo_inurba_marseille","lat":43.32482,"lon":5.36572,"is_reserved":false,"is_disabled":false,"rental_uris":{"android":"levelo://app?vid=c1f37e38-afda-43be-809f-fbb7ad420795","ios":"levelo://app?vid=c1f37e38-afda-43be-809f-fbb7ad420795"},"vehicle_type_id":"4","last_reported":1725390442,"current_range_meters":0,"station_id":"ce4bhs12rcd13ifvqhvg","pricing_plan_id":"cebpf4jnsgd1na2vs0mg"},{"bike_id":"81f89127-3c15-4b94-b6fa-cafe332f7932","system_id":"levelo_inurba_marseille","lat":43.324861,"lon":5.36575,"is_reserved":false,"is_disabled":false,"rental_uris":{"android":"levelo://app?vid=81f89127-3c15-4b94-b6fa-cafe332f7932","ios":"levelo://app?vid=81f89127-3c15-4b94-b6fa-cafe332f7932"},"vehicle_type_id":"4","last_reported":1725390442,"current_range_meters":0,"station_id":"ce4bhs12rcd13ifvqhvg","pricing_plan_id":"cebpf4jnsgd1na2vs0mg"},{"bike_id":"ed4010e0-2a49-4d1e-a8e8-de9f3d8feee7","system_id":"levelo_inurba_marseille","lat":43.304606,"lon":5.379026,"is_reserved":false,"is_disabled":false,"rental_uris":{"android":"levelo://app?vid=ed4010e0-2a49-4d1e-a8e8-de9f3d8feee7","ios":"levelo://app?vid=ed4010e0-2a49-4d1e-a8e8-de9f3d8feee7"},"vehicle_type_id":"4","last_reported":1725390442,"current_range_meters":12000,"station_id":"ce4bgup2rcd13ifvqcn0","pricing_plan_id":"cebpf4jnsgd1na2vs0mg"},{"bike_id":"ac9f6195-7cff-4a4e-bafa-c06002a918cb","system_id":"levelo_inurba_marseille","lat":43.31075,"lon":5.3836,"is_reserved":false,"is_disabled":false,"rental_uris":{"android":"levelo://app?vid=ac9f6195-7cff-4a4e-bafa-c06002a918cb","ios":"levelo://app?vid=ac9f6195-7cff-4a4e-bafa-c06002a918cb"},"vehicle_type_id":"4","last_reported":1725390442,"current_range_meters":0,"station_id":"ce4bgv92rcd13ifvqcr0","pricing_plan_id":"cebpf4jnsgd1na2vs0mg"},{"bike_id":"4b479cd7-36b6-49d7-b600-2bdd31ebf73e","system_id":"levelo_inurba_marseille","lat":43.31075,"lon":5.383623,"is_reserved":false,"is_disabled":false,"rental_uris":{"android":"levelo://app?vid=4b479cd7-36b6-49d7-b600-2bdd31ebf73e","ios":"levelo://app?vid=4b479cd7-36b6-49d7-b600-2bdd31ebf73e"},"vehicle_type_id":"4","last_reported":1725390442,"current_range_meters":23200,"station_id":"ce4bgv92rcd13ifvqcr0","pricing_plan_id":"cebpf4jnsgd1na2vs0mg"},{"bike_id":"937aad03-1252-44c9-92de-dfdd7087cdeb","system_id":"levelo_inurba_marseille","lat":43.310804,"lon":5.38359,"is_reserved":false,"is_disabled":false,"rental_uris":{"android":"levelo://app?vid=937aad03-1252-44c9-92de-dfdd7087cdeb","ios":"levelo://app?vid=937aad03-1252-44c9-92de-dfdd7087cdeb"},"vehicle_type_id":"4","last_reported":1725390442,"current_range_meters":15600,"station_id":"ce4bgv92rcd13ifvqcr0","pricing_plan_id":"cebpf4jnsgd1na2vs0mg"},{"bike_id":"447c2960-9865-4313-a59e-72cc0168797d","system_id":"levelo_inurba_marseille","lat":43.302784,"lon":5.377158,"is_reserved":false,"is_disabled":false,"rental_uris":{"android":"levelo://app?vid=447c2960-9865-4313-a59e-72cc0168797d","ios":"levelo://app?vid=447c2960-9865-4313-a59e-72cc0168797d"},"vehicle_type_id":"4","last_reported":1725390442,"current_range_meters":3600,"station_id":"ce4bguh2rcd13ifvqcj0","pricing_plan_id":"cebpf4jnsgd1na2vs0mg"},{"bike_id":"fedadb82-e030-4853-9aa4-21517c373a1f","system_id":"levelo_inurba_marseille","lat":43.302784,"lon":5.377158,"is_reserved":false,"is_disabled":false,"rental_uris":{"android":"levelo://app?vid=fedadb82-e030-4853-9aa4-21517c373a1f","ios":"levelo://app?vid=fedadb82-e030-4853-9aa4-21517c373a1f"},"vehicle_type_id":"4","last_reported":1725390442,"current_range_meters":15600,"station_id":"ce4bguh2rcd13ifvqcj0","pricing_plan_id":"cebpf4jnsgd1na2vs0mg"},{"bike_id":"6240613f-32ae-49d0-ac14-6fcd92dc8bdf","system_id":"levelo_inurba_marseille","lat":43.325302,"lon":5.367929,"is_reserved":false,"is_disabled":false,"rental_uris":{"android":"levelo://app?vid=6240613f-32ae-49d0-ac14-6fcd92dc8bdf","ios":"levelo://app?vid=6240613f-32ae-49d0-ac14-6fcd92dc8bdf"},"vehicle_type_id":"4","last_reported":1725390442,"current_range_meters":16800,"station_id":"","pricing_plan_id":"cebpf4jnsgd1na2vs0mg"},{"bike_id":"b3f4448e-8923-48a1-820c-a5a8746ea50f","system_id":"levelo_inurba_marseille","lat":43.319935,"lon":5.381699,"is_reserved":false,"is_disabled":false,"rental_uris":{"android":"levelo://app?vid=b3f4448e-8923-48a1-820c-a5a8746ea50f","ios":"levelo://app?vid=b3f4448e-8923-48a1-820c-a5a8746ea50f"},"vehicle_type_id":"4","last_reported":1725390442,"current_range_meters":3200,"station_id":"ce4bhr12rcd13ifvqhpg","pricing_plan_id":"cebpf4jnsgd1na2vs0mg"},{"bike_id":"7bc38d31-0ad8-460f-875d-0f087792d8c5","system_id":"levelo_inurba_marseille","lat":43.319935,"lon":5.381699,"is_reserved":false,"is_disabled":false,"rental_uris":{"android":"levelo://app?vid=7bc38d31-0ad8-460f-875d-0f087792d8c5","ios":"levelo://app?vid=7bc38d31-0ad8-460f-875d-0f087792d8c5"},"vehicle_type_id":"4","last_reported":1725390442,"current_range_meters":17200,"station_id":"ce4bhr12rcd13ifvqhpg","pricing_plan_id":"cebpf4jnsgd1na2vs0mg"},{"bike_id":"c10f8811-fd8d-4542-bec3-0f30c15e532e","system_id":"levelo_inurba_marseille","lat":43.31187,"lon":5.384595,"is_reserved":false,"is_disabled":false,"rental_uris":{"android":"levelo://app?vid=c10f8811-fd8d-4542-bec3-0f30c15e532e","ios":"levelo://app?vid=c10f8811-fd8d-4542-bec3-0f30c15e532e"},"vehicle_type_id":"4","last_reported":1725390442,"current_range_meters":10400,"station_id":"","pricing_plan_id":"cebpf4jnsgd1na2vs0mg"},{"bike_id":"4d287a3b-cd82-4af6-b894-3b75e68cd051","system_id":"levelo_inurba_marseille","lat":43.319935,"lon":5.381699,"is_reserved":false,"is_disabled":false,"rental_uris":{"android":"levelo://app?vid=4d287a3b-cd82-4af6-b894-3b75e68cd051","ios":"levelo://app?vid=4d287a3b-cd82-4af6-b894-3b75e68cd051"},"vehicle_type_id":"4","last_reported":1725390442,"current_range_meters":6800,"station_id":"ce4bhr12rcd13ifvqhpg","pricing_plan_id":"cebpf4jnsgd1na2vs0mg"},{"bike_id":"501a7196-857d-4488-bf26-27ea70254034","system_id":"levelo_inurba_marseille","lat":43.313571,"lon":5.384829,"is_reserved":false,"is_disabled":false,"rental_uris":{"android":"levelo://app?vid=501a7196-857d-4488-bf26-27ea70254034","ios":"levelo://app?vid=501a7196-857d-4488-bf26-27ea70254034"},"vehicle_type_id":"4","last_reported":1725390442,"current_range_meters":14400,"station_id":"ce4bgt92rcd13ifvqcf0","pricing_plan_id":"cebpf4jnsgd1na2vs0mg"},{"bike_id":"ba8db203-b6e3-46b2-a2d6-fea9c1642521","system_id":"levelo_inurba_marseille","lat":43.313571,"lon":5.384829,"is_reserved":false,"is_disabled":false,"rental_uris":{"android":"levelo://app?vid=ba8db203-b6e3-46b2-a2d6-fea9c1642521","ios":"levelo://app?vid=ba8db203-b6e3-46b2-a2d6-fea9c1642521"},"vehicle_type_id":"4","last_reported":1725390442,"current_range_meters":16400,"station_id":"ce4bgt92rcd13ifvqcf0","pricing_plan_id":"cebpf4jnsgd1na2vs0mg"},{"bike_id":"7f1181f1-02f7-42a1-bc22-bf62d4a27914","system_id":"levelo_inurba_marseille","lat":43.313571,"lon":5.384829,"is_reserved":false,"is_disabled":false,"rental_uris":{"android":"levelo://app?vid=7f1181f1-02f7-42a1-bc22-bf62d4a27914","ios":"levelo://app?vid=7f1181f1-02f7-42a1-bc22-bf62d4a27914"},"vehicle_type_id":"4","last_reported":1725390442,"current_range_meters":4000,"station_id":"ce4bgt92rcd13ifvqcf0","pricing_plan_id":"cebpf4jnsgd1na2vs0mg"},{"bike_id":"d195ea1c-f01f-4c14-b9c7-6f14a7ebabfb","system_id":"levelo_inurba_marseille","lat":43.313571,"lon":5.384829,"is_reserved":false,"is_disabled":false,"rental_uris":{"android":"levelo://app?vid=d195ea1c-f01f-4c14-b9c7-6f14a7ebabfb","ios":"levelo://app?vid=d195ea1c-f01f-4c14-b9c7-6f14a7ebabfb"},"vehicle_type_id":"4","last_reported":1725390442,"current_range_meters":20400,"station_id":"ce4bgt92rcd13ifvqcf0","pricing_plan_id":"cebpf4jnsgd1na2vs0mg"},{"bike_id":"7c5ad923-6026-4f28-8d4a-78e790f99645","system_id":"levelo_inurba_marseille","lat":43.29985,"lon":5.371814,"is_reserved":false,"is_disabled":false,"rental_uris":{"android":"levelo://app?vid=7c5ad923-6026-4f28-8d4a-78e790f99645","ios":"levelo://app?vid=7c5ad923-6026-4f28-8d4a-78e790f99645"},"vehicle_type_id":"4","last_reported":1725390442,"current_range_meters":0,"station_id":"ce4bgr92rcd13ifvqc7g","pricing_plan_id":"cebpf4jnsgd1na2vs0mg"},{"bike_id":"087d1ac9-fb0c-4a92-8ba3-0297500553f4","system_id":"levelo_inurba_marseille","lat":43.299222,"lon":5.365554,"is_reserved":false,"is_disabled":false,"rental_uris":{"android":"levelo://app?vid=087d1ac9-fb0c-4a92-8ba3-0297500553f4","ios":"levelo://app?vid=087d1ac9-fb0c-4a92-8ba3-0297500553f4"},"vehicle_type_id":"4","last_reported":1725390442,"current_range_meters":6000,"station_id":"ce4bgm92rcd13ifvqbr0","pricing_plan_id":"cebpf4jnsgd1na2vs0mg"},{"bike_id":"b05a3fe5-1524-4c3a-bb09-142a84e2ca56","system_id":"levelo_inurba_marseille","lat":43.32014,"lon":5.38241,"is_reserved":false,"is_disabled":false,"rental_uris":{"android":"levelo://app?vid=b05a3fe5-1524-4c3a-bb09-142a84e2ca56","ios":"levelo://app?vid=b05a3fe5-1524-4c3a-bb09-142a84e2ca56"},"vehicle_type_id":"4","last_reported":1725390442,"current_range_meters":9200,"station_id":"","pricing_plan_id":"cebpf4jnsgd1na2vs0mg"},{"bike_id":"b2594163-dcd0-4694-a058-318425eb87eb","system_id":"levelo_inurba_marseille","lat":43.299724,"lon":5.371829,"is_reserved":false,"is_disabled":false,"rental_uris":{"android":"levelo://app?vid=b2594163-dcd0-4694-a058-318425eb87eb","ios":"levelo://app?vid=b2594163-dcd0-4694-a058-318425eb87eb"},"vehicle_type_id":"4","last_reported":1725390442,"current_range_meters":23600,"station_id":"ce4bgr92rcd13ifvqc7g","pricing_plan_id":"cebpf4jnsgd1na2vs0mg"},{"bike_id":"6a596d47-74b3-4bfb-92c4-69f166600247","system_id":"levelo_inurba_marseille","lat":43.299724,"lon":5.371829,"is_reserved":false,"is_disabled":false,"rental_uris":{"android":"levelo://app?vid=6a596d47-74b3-4bfb-92c4-69f166600247","ios":"levelo://app?vid=6a596d47-74b3-4bfb-92c4-69f166600247"},"vehicle_type_id":"4","last_reported":1725390442,"current_range_meters":25200,"station_id":"ce4bgr92rcd13ifvqc7g","pricing_plan_id":"cebpf4jnsgd1na2vs0mg"},{"bike_id":"98004554-5cba-4377-88ea-185a2f2ebc23","system_id":"levelo_inurba_marseille","lat":43.299724,"lon":5.371829,"is_reserved":false,"is_disabled":false,"rental_uris":{"android":"levelo://app?vid=98004554-5cba-4377-88ea-185a2f2ebc23","ios":"levelo://app?vid=98004554-5cba-4377-88ea-185a2f2ebc23"},"vehicle_type_id":"4","last_reported":1725390442,"current_range_meters":0,"station_id":"ce4bgr92rcd13ifvqc7g","pricing_plan_id":"cebpf4jnsgd1na2vs0mg"},{"bike_id":"cc3f9f7a-7213-4335-aebf-c937275fcabc","system_id":"levelo_inurba_marseille","lat":43.298433,"lon":5.362774,"is_reserved":false,"is_disabled":false,"rental_uris":{"android":"levelo://app?vid=cc3f9f7a-7213-4335-aebf-c937275fcabc","ios":"levelo://app?vid=cc3f9f7a-7213-4335-aebf-c937275fcabc"},"vehicle_type_id":"4","last_reported":1725390442,"current_range_meters":0,"station_id":"ce4bgpp2rcd13ifvqc3g","pricing_plan_id":"cebpf4jnsgd1na2vs0mg"},{"bike_id":"1109f02a-4f5f-43a3-9cd9-f23137ec8741","system_id":"levelo_inurba_marseille","lat":43.305364,"lon":5.384119,"is_reserved":false,"is_disabled":false,"rental_uris":{"android":"levelo://app?vid=1109f02a-4f5f-43a3-9cd9-f23137ec8741","ios":"levelo://app?vid=1109f02a-4f5f-43a3-9cd9-f23137ec8741"},"vehicle_type_id":"4","last_reported":1725390442,"current_range_meters":16400,"station_id":"ce4bgg92rcd13ifvqb30","pricing_plan_id":"cebpf4jnsgd1na2vs0mg"},{"bike_id":"ef8f82d8-d4b8-483a-8ea5-d532c2af44b7","system_id":"levelo_inurba_marseille","lat":43.299243,"lon":5.374807,"is_reserved":false,"is_disabled":false,"rental_uris":{"android":"levelo://app?vid=ef8f82d8-d4b8-483a-8ea5-d532c2af44b7","ios":"levelo://app?vid=ef8f82d8-d4b8-483a-8ea5-d532c2af44b7"},"vehicle_type_id":"4","last_reported":1725390442,"current_range_meters":13200,"station_id":"ce4bgjh2rcd13ifvqbg0","pricing_plan_id":"cebpf4jnsgd1na2vs0mg"},{"bike_id":"2106db7f-e0e6-4492-9557-9c838d35013e","system_id":"levelo_inurba_marseille","lat":43.299243,"lon":5.37481,"is_reserved":false,"is_disabled":false,"rental_uris":{"android":"levelo://app?vid=2106db7f-e0e6-4492-9557-9c838d35013e","ios":"levelo://app?vid=2106db7f-e0e6-4492-9557-9c838d35013e"},"vehicle_type_id":"4","last_reported":1725390442,"current_range_meters":30400,"station_id":"ce4bgjh2rcd13ifvqbg0","pricing_plan_id":"cebpf4jnsgd1na2vs0mg"},{"bike_id":"9c5881eb-8d14-4d58-a0fe-8c9b01c7b89e","system_id":"levelo_inurba_marseille","lat":43.299243,"lon":5.374807,"is_reserved":false,"is_disabled":false,"rental_uris":{"android":"levelo://app?vid=9c5881eb-8d14-4d58-a0fe-8c9b01c7b89e","ios":"levelo://app?vid=9c5881eb-8d14-4d58-a0fe-8c9b01c7b89e"},"vehicle_type_id":"4","last_reported":1725390442,"current_range_meters":16400,"station_id":"ce4bgjh2rcd13ifvqbg0","pricing_plan_id":"cebpf4jnsgd1na2vs0mg"},{"bike_id":"72f31897-7b54-41eb-b24b-ac1edfbf434f","system_id":"levelo_inurba_marseille","lat":43.299243,"lon":5.37481,"is_reserved":false,"is_disabled":false,"rental_uris":{"android":"levelo://app?vid=72f31897-7b54-41eb-b24b-ac1edfbf434f","ios":"levelo://app?vid=72f31897-7b54-41eb-b24b-ac1edfbf434f"},"vehicle_type_id":"4","last_reported":1725390442,"current_range_meters":2800,"station_id":"ce4bgjh2rcd13ifvqbg0","pricing_plan_id":"cebpf4jnsgd1na2vs0mg"},{"bike_id":"1508a26c-9ee2-4c95-9144-dca8c5f7e882","system_id":"levelo_inurba_marseille","lat":43.311722,"lon":5.387247,"is_reserved":false,"is_disabled":false,"rental_uris":{"android":"levelo://app?vid=1508a26c-9ee2-4c95-9144-dca8c5f7e882","ios":"levelo://app?vid=1508a26c-9ee2-4c95-9144-dca8c5f7e882"},"vehicle_type_id":"4","last_reported":1725390442,"current_range_meters":30000,"station_id":"ce4bgv12rcd13ifvqcp0","pricing_plan_id":"cebpf4jnsgd1na2vs0mg"},{"bike_id":"74f4755d-5429-4848-b681-101e05d78f09","system_id":"levelo_inurba_marseille","lat":43.297774,"lon":5.370875,"is_reserved":false,"is_disabled":false,"rental_uris":{"android":"levelo://app?vid=74f4755d-5429-4848-b681-101e05d78f09","ios":"levelo://app?vid=74f4755d-5429-4848-b681-101e05d78f09"},"vehicle_type_id":"4","last_reported":1725390442,"current_range_meters":12800,"station_id":"ce4bgop2rcd13ifvqc1g","pricing_plan_id":"cebpf4jnsgd1na2vs0mg"},{"bike_id":"09c71641-ba58-4a7f-83c3-cc99b98cc82a","system_id":"levelo_inurba_marseille","lat":43.297794,"lon":5.370888,"is_reserved":false,"is_disabled":false,"rental_uris":{"android":"levelo://app?vid=09c71641-ba58-4a7f-83c3-cc99b98cc82a","ios":"levelo://app?vid=09c71641-ba58-4a7f-83c3-cc99b98cc82a"},"vehicle_type_id":"4","last_reported":1725390442,"current_range_meters":28000,"station_id":"ce4bgop2rcd13ifvqc1g","pricing_plan_id":"cebpf4jnsgd1na2vs0mg"},{"bike_id":"06176ceb-5e51-466d-940c-d7d17e8e5307","system_id":"levelo_inurba_marseille","lat":43.322872,"lon":5.382756,"is_reserved":false,"is_disabled":false,"rental_uris":{"android":"levelo://app?vid=06176ceb-5e51-466d-940c-d7d17e8e5307","ios":"levelo://app?vid=06176ceb-5e51-466d-940c-d7d17e8e5307"},"vehicle_type_id":"4","last_reported":1725390442,"current_range_meters":27200,"station_id":"ce4bhr12rcd13ifvqhqg","pricing_plan_id":"cebpf4jnsgd1na2vs0mg"},{"bike_id":"3301428e-72a9-4d22-8559-74f34a4287b4","system_id":"levelo_inurba_marseille","lat":43.322872,"lon":5.382756,"is_reserved":false,"is_disabled":false,"rental_uris":{"android":"levelo://app?vid=3301428e-72a9-4d22-8559-74f34a4287b4","ios":"levelo://app?vid=3301428e-72a9-4d22-8559-74f34a4287b4"},"vehicle_type_id":"4","last_reported":1725390442,"current_range_meters":26400,"station_id":"ce4bhr12rcd13ifvqhqg","pricing_plan_id":"cebpf4jnsgd1na2vs0mg"},{"bike_id":"53632ff6-1b1d-4dfa-b2a7-09a7d01a5d9e","system_id":"levelo_inurba_marseille","lat":43.297163,"lon":5.365866,"is_reserved":false,"is_disabled":false,"rental_uris":{"android":"levelo://app?vid=53632ff6-1b1d-4dfa-b2a7-09a7d01a5d9e","ios":"levelo://app?vid=53632ff6-1b1d-4dfa-b2a7-09a7d01a5d9e"},"vehicle_type_id":"4","last_reported":1725390442,"current_range_meters":20000,"station_id":"ce4bgn12rcd13ifvqbt0","pricing_plan_id":"cebpf4jnsgd1na2vs0mg"},{"bike_id":"b79fa6ff-6874-491e-ad94-2ba6bd81afd9","system_id":"levelo_inurba_marseille","lat":43.32875,"lon":5.36531,"is_reserved":false,"is_disabled":false,"rental_uris":{"android":"levelo://app?vid=b79fa6ff-6874-491e-ad94-2ba6bd81afd9","ios":"levelo://app?vid=b79fa6ff-6874-491e-ad94-2ba6bd81afd9"},"vehicle_type_id":"4","last_reported":1725390442,"current_range_meters":400,"station_id":"","pricing_plan_id":"cebpf4jnsgd1na2vs0mg"},{"bike_id":"8a8887de-5c7d-4b1c-91b2-78e9c920b48d","system_id":"levelo_inurba_marseille","lat":43.2968,"lon":5.37291,"is_reserved":false,"is_disabled":false,"rental_uris":{"android":"levelo://app?vid=8a8887de-5c7d-4b1c-91b2-78e9c920b48d","ios":"levelo://app?vid=8a8887de-5c7d-4b1c-91b2-78e9c920b48d"},"vehicle_type_id":"4","last_reported":1725390442,"current_range_meters":30400,"station_id":"ce4bgk12rcd13ifvqbj0","pricing_plan_id":"cebpf4jnsgd1na2vs0mg"},{"bike_id":"52fb6cb2-164b-4999-9b06-cc255cc8b259","system_id":"levelo_inurba_marseille","lat":43.303527,"lon":5.385784,"is_reserved":false,"is_disabled":false,"rental_uris":{"android":"levelo://app?vid=52fb6cb2-164b-4999-9b06-cc255cc8b259","ios":"levelo://app?vid=52fb6cb2-164b-4999-9b06-cc255cc8b259"},"vehicle_type_id":"4","last_reported":1725390442,"current_range_meters":22800,"station_id":"","pricing_plan_id":"cebpf4jnsgd1na2vs0mg"},{"bike_id":"35a966ad-0870-4de2-a2bb-d5e6fb11e8db","system_id":"levelo_inurba_marseille","lat":43.29573,"lon":5.367355,"is_reserved":false,"is_disabled":false,"rental_uris":{"android":"levelo://app?vid=35a966ad-0870-4de2-a2bb-d5e6fb11e8db","ios":"levelo://app?vid=35a966ad-0870-4de2-a2bb-d5e6fb11e8db"},"vehicle_type_id":"4","last_reported":1725390442,"current_range_meters":0,"station_id":"ce4bgph2rcd13ifvqc2g","pricing_plan_id":"cebpf4jnsgd1na2vs0mg"},{"bike_id":"a6acde5d-6753-453d-a2ed-45ff7d90e571","system_id":"levelo_inurba_marseille","lat":43.29573,"lon":5.367355,"is_reserved":false,"is_disabled":false,"rental_uris":{"android":"levelo://app?vid=a6acde5d-6753-453d-a2ed-45ff7d90e571","ios":"levelo://app?vid=a6acde5d-6753-453d-a2ed-45ff7d90e571"},"vehicle_type_id":"4","last_reported":1725390442,"current_range_meters":20800,"station_id":"ce4bgph2rcd13ifvqc2g","pricing_plan_id":"cebpf4jnsgd1na2vs0mg"},{"bike_id":"55f03ab6-4816-405c-b1aa-c47b3c9b5fed","system_id":"levelo_inurba_marseille","lat":43.299028,"lon":5.381509,"is_reserved":false,"is_disabled":false,"rental_uris":{"android":"levelo://app?vid=55f03ab6-4816-405c-b1aa-c47b3c9b5fed","ios":"levelo://app?vid=55f03ab6-4816-405c-b1aa-c47b3c9b5fed"},"vehicle_type_id":"4","last_reported":1725390442,"current_range_meters":0,"station_id":"ce4bgj12rcd13ifvqbc0","pricing_plan_id":"cebpf4jnsgd1na2vs0mg"},{"bike_id":"ac06e218-f846-487e-bfe4-b3f9c8d064c6","system_id":"levelo_inurba_marseille","lat":43.30953,"lon":5.39024,"is_reserved":false,"is_disabled":false,"rental_uris":{"android":"levelo://app?vid=ac06e218-f846-487e-bfe4-b3f9c8d064c6","ios":"levelo://app?vid=ac06e218-f846-487e-bfe4-b3f9c8d064c6"},"vehicle_type_id":"4","last_reported":1725390442,"current_range_meters":0,"station_id":"ce4bgup2rcd13ifvqco0","pricing_plan_id":"cebpf4jnsgd1na2vs0mg"},{"bike_id":"7e282e47-4ca1-4619-ad4a-f29cae7c5b0e","system_id":"levelo_inurba_marseille","lat":43.296921,"lon":5.376579,"is_reserved":false,"is_disabled":false,"rental_uris":{"android":"levelo://app?vid=7e282e47-4ca1-4619-ad4a-f29cae7c5b0e","ios":"levelo://app?vid=7e282e47-4ca1-4619-ad4a-f29cae7c5b0e"},"vehicle_type_id":"4","last_reported":1725390442,"current_range_meters":24800,"station_id":"ce4bgkh2rcd13ifvqbl0","pricing_plan_id":"cebpf4jnsgd1na2vs0mg"},{"bike_id":"dbdcda84-ede4-437e-8a35-12bf587ccd80","system_id":"levelo_inurba_marseille","lat":43.3095,"lon":5.39031,"is_reserved":false,"is_disabled":false,"rental_uris":{"android":"levelo://app?vid=dbdcda84-ede4-437e-8a35-12bf587ccd80","ios":"levelo://app?vid=dbdcda84-ede4-437e-8a35-12bf587ccd80"},"vehicle_type_id":"4","last_reported":1725390442,"current_range_meters":0,"station_id":"ce4bgup2rcd13ifvqco0","pricing_plan_id":"cebpf4jnsgd1na2vs0mg"},{"bike_id":"de45defc-8f34-4054-ba2b-e9df2aac0dc9","system_id":"levelo_inurba_marseille","lat":43.317557,"lon":5.390173,"is_reserved":false,"is_disabled":false,"rental_uris":{"android":"levelo://app?vid=de45defc-8f34-4054-ba2b-e9df2aac0dc9","ios":"levelo://app?vid=de45defc-8f34-4054-ba2b-e9df2aac0dc9"},"vehicle_type_id":"4","last_reported":1725390442,"current_range_meters":28000,"station_id":"ce4bhqp2rcd13ifvqhng","pricing_plan_id":"cebpf4jnsgd1na2vs0mg"},{"bike_id":"e6588140-5c2c-4a8e-b146-b43d9d478d42","system_id":"levelo_inurba_marseille","lat":43.317557,"lon":5.390173,"is_reserved":false,"is_disabled":false,"rental_uris":{"android":"levelo://app?vid=e6588140-5c2c-4a8e-b146-b43d9d478d42","ios":"levelo://app?vid=e6588140-5c2c-4a8e-b146-b43d9d478d42"},"vehicle_type_id":"4","last_reported":1725390442,"current_range_meters":7600,"station_id":"ce4bhqp2rcd13ifvqhng","pricing_plan_id":"cebpf4jnsgd1na2vs0mg"},{"bike_id":"a26b8354-14d1-4810-b72a-b5d5617ac526","system_id":"levelo_inurba_marseille","lat":43.317557,"lon":5.390173,"is_reserved":false,"is_disabled":false,"rental_uris":{"android":"levelo://app?vid=a26b8354-14d1-4810-b72a-b5d5617ac526","ios":"levelo://app?vid=a26b8354-14d1-4810-b72a-b5d5617ac526"},"vehicle_type_id":"4","last_reported":1725390442,"current_range_meters":8400,"station_id":"ce4bhqp2rcd13ifvqhng","pricing_plan_id":"cebpf4jnsgd1na2vs0mg"},{"bike_id":"a664035d-f783-447d-abd3-f088ff5ef2c4","system_id":"levelo_inurba_marseille","lat":43.317557,"lon":5.390173,"is_reserved":false,"is_disabled":false,"rental_uris":{"android":"levelo://app?vid=a664035d-f783-447d-abd3-f088ff5ef2c4","ios":"levelo://app?vid=a664035d-f783-447d-abd3-f088ff5ef2c4"},"vehicle_type_id":"4","last_reported":1725390442,"current_range_meters":17200,"station_id":"ce4bhqp2rcd13ifvqhng","pricing_plan_id":"cebpf4jnsgd1na2vs0mg"},{"bike_id":"10f69fe8-7773-460f-8cbc-84d5043d302b","system_id":"levelo_inurba_marseille","lat":43.322794,"lon":5.38687,"is_reserved":false,"is_disabled":false,"rental_uris":{"android":"levelo://app?vid=10f69fe8-7773-460f-8cbc-84d5043d302b","ios":"levelo://app?vid=10f69fe8-7773-460f-8cbc-84d5043d302b"},"vehicle_type_id":"4","last_reported":1725390442,"current_range_meters":29200,"station_id":"","pricing_plan_id":"cebpf4jnsgd1na2vs0mg"},{"bike_id":"7f71c00d-6df0-4060-b255-6917d181e58c","system_id":"levelo_inurba_marseille","lat":43.304274,"lon":5.388873,"is_reserved":false,"is_disabled":false,"rental_uris":{"android":"levelo://app?vid=7f71c00d-6df0-4060-b255-6917d181e58c","ios":"levelo://app?vid=7f71c00d-6df0-4060-b255-6917d181e58c"},"vehicle_type_id":"4","last_reported":1725390442,"current_range_meters":0,"station_id":"ce4bgk12rcd13ifvqbi0","pricing_plan_id":"cebpf4jnsgd1na2vs0mg"},{"bike_id":"c3f4daa9-3324-4552-81c6-119146c5dc53","system_id":"levelo_inurba_marseille","lat":43.304278,"lon":5.388868,"is_reserved":false,"is_disabled":false,"rental_uris":{"android":"levelo://app?vid=c3f4daa9-3324-4552-81c6-119146c5dc53","ios":"levelo://app?vid=c3f4daa9-3324-4552-81c6-119146c5dc53"},"vehicle_type_id":"4","last_reported":1725390442,"current_range_meters":11200,"station_id":"ce4bgk12rcd13ifvqbi0","pricing_plan_id":"cebpf4jnsgd1na2vs0mg"},{"bike_id":"56bab783-152d-41fb-93f1-ceabb05129c5","system_id":"levelo_inurba_marseille","lat":43.30452,"lon":5.38939,"is_reserved":false,"is_disabled":false,"rental_uris":{"android":"levelo://app?vid=56bab783-152d-41fb-93f1-ceabb05129c5","ios":"levelo://app?vid=56bab783-152d-41fb-93f1-ceabb05129c5"},"vehicle_type_id":"4","last_reported":1725390442,"current_range_meters":0,"station_id":"","pricing_plan_id":"cebpf4jnsgd1na2vs0mg"},{"bike_id":"2fe0a96c-285b-471c-8900-100225d1bbb7","system_id":"levelo_inurba_marseille","lat":43.29971,"lon":5.38492,"is_reserved":false,"is_disabled":false,"rental_uris":{"android":"levelo://app?vid=2fe0a96c-285b-471c-8900-100225d1bbb7","ios":"levelo://app?vid=2fe0a96c-285b-471c-8900-100225d1bbb7"},"vehicle_type_id":"4","last_reported":1725390442,"current_range_meters":2400,"station_id":"ce4bgj92rcd13ifvqbd0","pricing_plan_id":"cebpf4jnsgd1na2vs0mg"},{"bike_id":"2e5b111b-7c48-4951-badf-6d988da9283a","system_id":"levelo_inurba_marseille","lat":43.299707,"lon":5.384859,"is_reserved":false,"is_disabled":false,"rental_uris":{"android":"levelo://app?vid=2e5b111b-7c48-4951-badf-6d988da9283a","ios":"levelo://app?vid=2e5b111b-7c48-4951-badf-6d988da9283a"},"vehicle_type_id":"4","last_reported":1725390442,"current_range_meters":25600,"station_id":"ce4bgj92rcd13ifvqbd0","pricing_plan_id":"cebpf4jnsgd1na2vs0mg"},{"bike_id":"ef1e2a14-e238-48a8-b58c-ecf6ed2d5146","system_id":"levelo_inurba_marseille","lat":43.29967,"lon":5.3849,"is_reserved":false,"is_disabled":false,"rental_uris":{"android":"levelo://app?vid=ef1e2a14-e238-48a8-b58c-ecf6ed2d5146","ios":"levelo://app?vid=ef1e2a14-e238-48a8-b58c-ecf6ed2d5146"},"vehicle_type_id":"4","last_reported":1725390442,"current_range_meters":24400,"station_id":"ce4bgj92rcd13ifvqbd0","pricing_plan_id":"cebpf4jnsgd1na2vs0mg"},{"bike_id":"f795e935-9db0-419d-adb0-0eb628799702","system_id":"levelo_inurba_marseille","lat":43.29967,"lon":5.38496,"is_reserved":false,"is_disabled":false,"rental_uris":{"android":"levelo://app?vid=f795e935-9db0-419d-adb0-0eb628799702","ios":"levelo://app?vid=f795e935-9db0-419d-adb0-0eb628799702"},"vehicle_type_id":"4","last_reported":1725390442,"current_range_meters":27200,"station_id":"ce4bgj92rcd13ifvqbd0","pricing_plan_id":"cebpf4jnsgd1na2vs0mg"},{"bike_id":"cf965481-ca6b-4261-9c7f-ee0a659dbdd8","system_id":"levelo_inurba_marseille","lat":43.299717,"lon":5.384845,"is_reserved":false,"is_disabled":false,"rental_uris":{"android":"levelo://app?vid=cf965481-ca6b-4261-9c7f-ee0a659dbdd8","ios":"levelo://app?vid=cf965481-ca6b-4261-9c7f-ee0a659dbdd8"},"vehicle_type_id":"4","last_reported":1725390442,"current_range_meters":20800,"station_id":"ce4bgj92rcd13ifvqbd0","pricing_plan_id":"cebpf4jnsgd1na2vs0mg"},{"bike_id":"0ec77bb7-325d-415d-ab43-e09e220f90b4","system_id":"levelo_inurba_marseille","lat":43.299717,"lon":5.384845,"is_reserved":false,"is_disabled":false,"rental_uris":{"android":"levelo://app?vid=0ec77bb7-325d-415d-ab43-e09e220f90b4","ios":"levelo://app?vid=0ec77bb7-325d-415d-ab43-e09e220f90b4"},"vehicle_type_id":"4","last_reported":1725390442,"current_range_meters":27200,"station_id":"ce4bgj92rcd13ifvqbd0","pricing_plan_id":"cebpf4jnsgd1na2vs0mg"},{"bike_id":"73d17c75-53ef-4130-a452-9839dadc00b4","system_id":"levelo_inurba_marseille","lat":43.299724,"lon":5.384848,"is_reserved":false,"is_disabled":false,"rental_uris":{"android":"levelo://app?vid=73d17c75-53ef-4130-a452-9839dadc00b4","ios":"levelo://app?vid=73d17c75-53ef-4130-a452-9839dadc00b4"},"vehicle_type_id":"4","last_reported":1725390442,"current_range_meters":31200,"station_id":"ce4bgj92rcd13ifvqbd0","pricing_plan_id":"cebpf4jnsgd1na2vs0mg"},{"bike_id":"ed88fc0c-a06b-4e2d-92f8-6783ad1b7d45","system_id":"levelo_inurba_marseille","lat":43.2996,"lon":5.38502,"is_reserved":false,"is_disabled":false,"rental_uris":{"android":"levelo://app?vid=ed88fc0c-a06b-4e2d-92f8-6783ad1b7d45","ios":"levelo://app?vid=ed88fc0c-a06b-4e2d-92f8-6783ad1b7d45"},"vehicle_type_id":"4","last_reported":1725390442,"current_range_meters":31200,"station_id":"ce4bgj92rcd13ifvqbd0","pricing_plan_id":"cebpf4jnsgd1na2vs0mg"},{"bike_id":"05d70bef-6bb5-40e6-9a6a-871d2308a469","system_id":"levelo_inurba_marseille","lat":43.29934,"lon":5.38529,"is_reserved":false,"is_disabled":false,"rental_uris":{"android":"levelo://app?vid=05d70bef-6bb5-40e6-9a6a-871d2308a469","ios":"levelo://app?vid=05d70bef-6bb5-40e6-9a6a-871d2308a469"},"vehicle_type_id":"4","last_reported":1725390442,"current_range_meters":26800,"station_id":"ce4bgj92rcd13ifvqbd0","pricing_plan_id":"cebpf4jnsgd1na2vs0mg"},{"bike_id":"23bcc1d8-2352-48d1-8403-8097180897d3","system_id":"levelo_inurba_marseille","lat":43.301396,"lon":5.387812,"is_reserved":false,"is_disabled":false,"rental_uris":{"android":"levelo://app?vid=23bcc1d8-2352-48d1-8403-8097180897d3","ios":"levelo://app?vid=23bcc1d8-2352-48d1-8403-8097180897d3"},"vehicle_type_id":"4","last_reported":1725390442,"current_range_meters":20400,"station_id":"ce4bghh2rcd13ifvqb60","pricing_plan_id":"cebpf4jnsgd1na2vs0mg"},{"bike_id":"346347fa-eeed-45ff-8322-2074b12daed4","system_id":"levelo_inurba_marseille","lat":43.301396,"lon":5.387812,"is_reserved":false,"is_disabled":false,"rental_uris":{"android":"levelo://app?vid=346347fa-eeed-45ff-8322-2074b12daed4","ios":"levelo://app?vid=346347fa-eeed-45ff-8322-2074b12daed4"},"vehicle_type_id":"4","last_reported":1725390442,"current_range_meters":3600,"station_id":"ce4bghh2rcd13ifvqb60","pricing_plan_id":"cebpf4jnsgd1na2vs0mg"},{"bike_id":"cbf2a808-c1fb-48d8-aee5-e026035e8edc","system_id":"levelo_inurba_marseille","lat":43.301396,"lon":5.387812,"is_reserved":false,"is_disabled":false,"rental_uris":{"android":"levelo://app?vid=cbf2a808-c1fb-48d8-aee5-e026035e8edc","ios":"levelo://app?vid=cbf2a808-c1fb-48d8-aee5-e026035e8edc"},"vehicle_type_id":"4","last_reported":1725390442,"current_range_meters":31200,"station_id":"ce4bghh2rcd13ifvqb60","pricing_plan_id":"cebpf4jnsgd1na2vs0mg"},{"bike_id":"7d3bb53a-52ea-4c87-9386-f42e8d3e72f0","system_id":"levelo_inurba_marseille","lat":43.30126,"lon":5.38777,"is_reserved":false,"is_disabled":false,"rental_uris":{"android":"levelo://app?vid=7d3bb53a-52ea-4c87-9386-f42e8d3e72f0","ios":"levelo://app?vid=7d3bb53a-52ea-4c87-9386-f42e8d3e72f0"},"vehicle_type_id":"4","last_reported":1725390442,"current_range_meters":31200,"station_id":"ce4bghh2rcd13ifvqb60","pricing_plan_id":"cebpf4jnsgd1na2vs0mg"},{"bike_id":"668a9819-66a5-4f1b-82da-6b3bead58e23","system_id":"levelo_inurba_marseille","lat":43.296045,"lon":5.38087,"is_reserved":false,"is_disabled":false,"rental_uris":{"android":"levelo://app?vid=668a9819-66a5-4f1b-82da-6b3bead58e23","ios":"levelo://app?vid=668a9819-66a5-4f1b-82da-6b3bead58e23"},"vehicle_type_id":"4","last_reported":1725390442,"current_range_meters":20400,"station_id":"ce4bhap2rcd13ifvqek0","pricing_plan_id":"cebpf4jnsgd1na2vs0mg"},{"bike_id":"b607c3cd-cd29-4cb2-aece-ad44aa840e23","system_id":"levelo_inurba_marseille","lat":43.2959,"lon":5.38097,"is_reserved":false,"is_disabled":false,"rental_uris":{"android":"levelo://app?vid=b607c3cd-cd29-4cb2-aece-ad44aa840e23","ios":"levelo://app?vid=b607c3cd-cd29-4cb2-aece-ad44aa840e23"},"vehicle_type_id":"4","last_reported":1725390442,"current_range_meters":0,"station_id":"ce4bgl12rcd13ifvqbo0","pricing_plan_id":"cebpf4jnsgd1na2vs0mg"},{"bike_id":"af3df6f5-172a-442d-9971-b3bcad854f78","system_id":"levelo_inurba_marseille","lat":43.293259,"lon":5.371586,"is_reserved":false,"is_disabled":false,"rental_uris":{"android":"levelo://app?vid=af3df6f5-172a-442d-9971-b3bcad854f78","ios":"levelo://app?vid=af3df6f5-172a-442d-9971-b3bcad854f78"},"vehicle_type_id":"4","last_reported":1725390442,"current_range_meters":6800,"station_id":"ce4bgh92rcd13ifvqb40","pricing_plan_id":"cebpf4jnsgd1na2vs0mg"},{"bike_id":"0477cbbc-fd27-4be9-8a6f-f2731702071d","system_id":"levelo_inurba_marseille","lat":43.297345,"lon":5.385395,"is_reserved":false,"is_disabled":false,"rental_uris":{"android":"levelo://app?vid=0477cbbc-fd27-4be9-8a6f-f2731702071d","ios":"levelo://app?vid=0477cbbc-fd27-4be9-8a6f-f2731702071d"},"vehicle_type_id":"4","last_reported":1725390442,"current_range_meters":0,"station_id":"","pricing_plan_id":"cebpf4jnsgd1na2vs0mg"},{"bike_id":"6be36fb5-f1e4-47f8-b2be-19b843284ae5","system_id":"levelo_inurba_marseille","lat":43.29305,"lon":5.37455,"is_reserved":false,"is_disabled":false,"rental_uris":{"android":"levelo://app?vid=6be36fb5-f1e4-47f8-b2be-19b843284ae5","ios":"levelo://app?vid=6be36fb5-f1e4-47f8-b2be-19b843284ae5"},"vehicle_type_id":"4","last_reported":1725390442,"current_range_meters":0,"station_id":"ce4bgi12rcd13ifvqb70","pricing_plan_id":"cebpf4jnsgd1na2vs0mg"},{"bike_id":"f385fbfc-c9fa-4540-a70e-f5cd1bfe0027","system_id":"levelo_inurba_marseille","lat":43.29304,"lon":5.37451,"is_reserved":false,"is_disabled":false,"rental_uris":{"android":"levelo://app?vid=f385fbfc-c9fa-4540-a70e-f5cd1bfe0027","ios":"levelo://app?vid=f385fbfc-c9fa-4540-a70e-f5cd1bfe0027"},"vehicle_type_id":"4","last_reported":1725390442,"current_range_meters":0,"station_id":"ce4bgi12rcd13ifvqb70","pricing_plan_id":"cebpf4jnsgd1na2vs0mg"},{"bike_id":"4c3aa1f6-ae82-449a-8265-c2b16fe0d3d9","system_id":"levelo_inurba_marseille","lat":43.30595,"lon":5.39361,"is_reserved":false,"is_disabled":false,"rental_uris":{"android":"levelo://app?vid=4c3aa1f6-ae82-449a-8265-c2b16fe0d3d9","ios":"levelo://app?vid=4c3aa1f6-ae82-449a-8265-c2b16fe0d3d9"},"vehicle_type_id":"4","last_reported":1725390442,"current_range_meters":4000,"station_id":"ce4bh0p2rcd13ifvqd80","pricing_plan_id":"cebpf4jnsgd1na2vs0mg"},{"bike_id":"3956be79-f577-45b0-bc56-eb09d28ccc81","system_id":"levelo_inurba_marseille","lat":43.29295,"lon":5.37465,"is_reserved":false,"is_disabled":false,"rental_uris":{"android":"levelo://app?vid=3956be79-f577-45b0-bc56-eb09d28ccc81","ios":"levelo://app?vid=3956be79-f577-45b0-bc56-eb09d28ccc81"},"vehicle_type_id":"4","last_reported":1725390442,"current_range_meters":0,"station_id":"ce4bgi12rcd13ifvqb70","pricing_plan_id":"cebpf4jnsgd1na2vs0mg"},{"bike_id":"cdfc4edc-7f95-47e9-be50-b8d6087b6a83","system_id":"levelo_inurba_marseille","lat":43.293009,"lon":5.374584,"is_reserved":false,"is_disabled":false,"rental_uris":{"android":"levelo://app?vid=cdfc4edc-7f95-47e9-be50-b8d6087b6a83","ios":"levelo://app?vid=cdfc4edc-7f95-47e9-be50-b8d6087b6a83"},"vehicle_type_id":"4","last_reported":1725390442,"current_range_meters":15200,"station_id":"ce4bgi12rcd13ifvqb70","pricing_plan_id":"cebpf4jnsgd1na2vs0mg"},{"bike_id":"1679f236-99bf-4e5f-9b0f-b69a5c94e36b","system_id":"levelo_inurba_marseille","lat":43.30311,"lon":5.39214,"is_reserved":false,"is_disabled":false,"rental_uris":{"android":"levelo://app?vid=1679f236-99bf-4e5f-9b0f-b69a5c94e36b","ios":"levelo://app?vid=1679f236-99bf-4e5f-9b0f-b69a5c94e36b"},"vehicle_type_id":"4","last_reported":1725390442,"current_range_meters":15600,"station_id":"ce4bgkh2rcd13ifvqbk0","pricing_plan_id":"cebpf4jnsgd1na2vs0mg"},{"bike_id":"f8c77d52-5394-49e5-983c-5cf8cecc9557","system_id":"levelo_inurba_marseille","lat":43.302953,"lon":5.392033,"is_reserved":false,"is_disabled":false,"rental_uris":{"android":"levelo://app?vid=f8c77d52-5394-49e5-983c-5cf8cecc9557","ios":"levelo://app?vid=f8c77d52-5394-49e5-983c-5cf8cecc9557"},"vehicle_type_id":"4","last_reported":1725390442,"current_range_meters":31200,"station_id":"ce4bgkh2rcd13ifvqbk0","pricing_plan_id":"cebpf4jnsgd1na2vs0mg"},{"bike_id":"adb1ec80-34ae-4f05-8413-379f22261ff0","system_id":"levelo_inurba_marseille","lat":43.302981,"lon":5.392056,"is_reserved":false,"is_disabled":false,"rental_uris":{"android":"levelo://app?vid=adb1ec80-34ae-4f05-8413-379f22261ff0","ios":"levelo://app?vid=adb1ec80-34ae-4f05-8413-379f22261ff0"},"vehicle_type_id":"4","last_reported":1725390442,"current_range_meters":8800,"station_id":"","pricing_plan_id":"cebpf4jnsgd1na2vs0mg"},{"bike_id":"90185622-7c53-4d4c-b70f-6946946df6db","system_id":"levelo_inurba_marseille","lat":43.302992,"lon":5.392136,"is_reserved":false,"is_disabled":false,"rental_uris":{"android":"levelo://app?vid=90185622-7c53-4d4c-b70f-6946946df6db","ios":"levelo://app?vid=90185622-7c53-4d4c-b70f-6946946df6db"},"vehicle_type_id":"4","last_reported":1725390442,"current_range_meters":31200,"station_id":"ce4bgkh2rcd13ifvqbk0","pricing_plan_id":"cebpf4jnsgd1na2vs0mg"},{"bike_id":"30d30706-dcdd-447c-a50e-ae3ce2ba5e6f","system_id":"levelo_inurba_marseille","lat":43.30308,"lon":5.39214,"is_reserved":false,"is_disabled":false,"rental_uris":{"android":"levelo://app?vid=30d30706-dcdd-447c-a50e-ae3ce2ba5e6f","ios":"levelo://app?vid=30d30706-dcdd-447c-a50e-ae3ce2ba5e6f"},"vehicle_type_id":"4","last_reported":1725390442,"current_range_meters":400,"station_id":"ce4bgkh2rcd13ifvqbk0","pricing_plan_id":"cebpf4jnsgd1na2vs0mg"},{"bike_id":"ed472e31-2a19-49dd-9d63-2ce1fba53a7a","system_id":"levelo_inurba_marseille","lat":43.30295,"lon":5.39209,"is_reserved":false,"is_disabled":false,"rental_uris":{"android":"levelo://app?vid=ed472e31-2a19-49dd-9d63-2ce1fba53a7a","ios":"levelo://app?vid=ed472e31-2a19-49dd-9d63-2ce1fba53a7a"},"vehicle_type_id":"4","last_reported":1725390442,"current_range_meters":31200,"station_id":"ce4bgkh2rcd13ifvqbk0","pricing_plan_id":"cebpf4jnsgd1na2vs0mg"},{"bike_id":"7e55e3ea-0725-4098-86de-4090f00737ec","system_id":"levelo_inurba_marseille","lat":43.302992,"lon":5.392136,"is_reserved":false,"is_disabled":false,"rental_uris":{"android":"levelo://app?vid=7e55e3ea-0725-4098-86de-4090f00737ec","ios":"levelo://app?vid=7e55e3ea-0725-4098-86de-4090f00737ec"},"vehicle_type_id":"4","last_reported":1725390442,"current_range_meters":23200,"station_id":"ce4bgkh2rcd13ifvqbk0","pricing_plan_id":"cebpf4jnsgd1na2vs0mg"},{"bike_id":"757338aa-5d5c-4d9a-ada3-ba5bec0e2548","system_id":"levelo_inurba_marseille","lat":43.302992,"lon":5.392136,"is_reserved":false,"is_disabled":false,"rental_uris":{"android":"levelo://app?vid=757338aa-5d5c-4d9a-ada3-ba5bec0e2548","ios":"levelo://app?vid=757338aa-5d5c-4d9a-ada3-ba5bec0e2548"},"vehicle_type_id":"4","last_reported":1725390442,"current_range_meters":31200,"station_id":"ce4bgkh2rcd13ifvqbk0","pricing_plan_id":"cebpf4jnsgd1na2vs0mg"},{"bike_id":"2773ff62-a564-4bb6-b363-3b2a7724c8a2","system_id":"levelo_inurba_marseille","lat":43.30301,"lon":5.39216,"is_reserved":false,"is_disabled":false,"rental_uris":{"android":"levelo://app?vid=2773ff62-a564-4bb6-b363-3b2a7724c8a2","ios":"levelo://app?vid=2773ff62-a564-4bb6-b363-3b2a7724c8a2"},"vehicle_type_id":"4","last_reported":1725390442,"current_range_meters":13200,"station_id":"ce4bgkh2rcd13ifvqbk0","pricing_plan_id":"cebpf4jnsgd1na2vs0mg"},{"bike_id":"f2b61339-1f30-497c-8011-b7066e23ccd4","system_id":"levelo_inurba_marseille","lat":43.30297,"lon":5.39216,"is_reserved":false,"is_disabled":false,"rental_uris":{"android":"levelo://app?vid=f2b61339-1f30-497c-8011-b7066e23ccd4","ios":"levelo://app?vid=f2b61339-1f30-497c-8011-b7066e23ccd4"},"vehicle_type_id":"4","last_reported":1725390442,"current_range_meters":4000,"station_id":"ce4bgkh2rcd13ifvqbk0","pricing_plan_id":"cebpf4jnsgd1na2vs0mg"},{"bike_id":"d171c2f7-bec4-4014-978c-15e15d90e92f","system_id":"levelo_inurba_marseille","lat":43.302992,"lon":5.392136,"is_reserved":false,"is_disabled":false,"rental_uris":{"android":"levelo://app?vid=d171c2f7-bec4-4014-978c-15e15d90e92f","ios":"levelo://app?vid=d171c2f7-bec4-4014-978c-15e15d90e92f"},"vehicle_type_id":"4","last_reported":1725390442,"current_range_meters":400,"station_id":"ce4bgkh2rcd13ifvqbk0","pricing_plan_id":"cebpf4jnsgd1na2vs0mg"},{"bike_id":"0b58fe17-492c-450a-9eed-a1355dad78a6","system_id":"levelo_inurba_marseille","lat":43.30303,"lon":5.39223,"is_reserved":false,"is_disabled":false,"rental_uris":{"android":"levelo://app?vid=0b58fe17-492c-450a-9eed-a1355dad78a6","ios":"levelo://app?vid=0b58fe17-492c-450a-9eed-a1355dad78a6"},"vehicle_type_id":"4","last_reported":1725390442,"current_range_meters":25600,"station_id":"ce4bgkh2rcd13ifvqbk0","pricing_plan_id":"cebpf4jnsgd1na2vs0mg"},{"bike_id":"f1c6dc70-edd4-48e9-8172-eeb14627558f","system_id":"levelo_inurba_marseille","lat":43.302992,"lon":5.392136,"is_reserved":false,"is_disabled":false,"rental_uris":{"android":"levelo://app?vid=f1c6dc70-edd4-48e9-8172-eeb14627558f","ios":"levelo://app?vid=f1c6dc70-edd4-48e9-8172-eeb14627558f"},"vehicle_type_id":"4","last_reported":1725390442,"current_range_meters":8800,"station_id":"ce4bgkh2rcd13ifvqbk0","pricing_plan_id":"cebpf4jnsgd1na2vs0mg"},{"bike_id":"beb0ab11-3d18-453c-9ed6-d05002f2a253","system_id":"levelo_inurba_marseille","lat":43.2936,"lon":5.37835,"is_reserved":false,"is_disabled":false,"rental_uris":{"android":"levelo://app?vid=beb0ab11-3d18-453c-9ed6-d05002f2a253","ios":"levelo://app?vid=beb0ab11-3d18-453c-9ed6-d05002f2a253"},"vehicle_type_id":"4","last_reported":1725390442,"current_range_meters":14800,"station_id":"ce4bgjh2rcd13ifvqbf0","pricing_plan_id":"cebpf4jnsgd1na2vs0mg"},{"bike_id":"b0791d08-086c-4a49-839e-191c6f007967","system_id":"levelo_inurba_marseille","lat":43.300852,"lon":5.390859,"is_reserved":false,"is_disabled":false,"rental_uris":{"android":"levelo://app?vid=b0791d08-086c-4a49-839e-191c6f007967","ios":"levelo://app?vid=b0791d08-086c-4a49-839e-191c6f007967"},"vehicle_type_id":"4","last_reported":1725390442,"current_range_meters":31200,"station_id":"ce4bh192rcd13ifvqdb0","pricing_plan_id":"cebpf4jnsgd1na2vs0mg"},{"bike_id":"d3db359b-c20c-4bf3-bb37-a5410db2f7f9","system_id":"levelo_inurba_marseille","lat":43.300852,"lon":5.390859,"is_reserved":false,"is_disabled":false,"rental_uris":{"android":"levelo://app?vid=d3db359b-c20c-4bf3-bb37-a5410db2f7f9","ios":"levelo://app?vid=d3db359b-c20c-4bf3-bb37-a5410db2f7f9"},"vehicle_type_id":"4","last_reported":1725390442,"current_range_meters":31200,"station_id":"ce4bh192rcd13ifvqdb0","pricing_plan_id":"cebpf4jnsgd1na2vs0mg"},{"bike_id":"9a45a2aa-5100-4452-998d-6ef269130570","system_id":"levelo_inurba_marseille","lat":43.292311,"lon":5.360731,"is_reserved":false,"is_disabled":false,"rental_uris":{"android":"levelo://app?vid=9a45a2aa-5100-4452-998d-6ef269130570","ios":"levelo://app?vid=9a45a2aa-5100-4452-998d-6ef269130570"},"vehicle_type_id":"4","last_reported":1725390442,"current_range_meters":5200,"station_id":"ce4bhbh2rcd13ifvqeqg","pricing_plan_id":"cebpf4jnsgd1na2vs0mg"},{"bike_id":"b6b657f6-a44c-486a-afa7-439bebc319fb","system_id":"levelo_inurba_marseille","lat":43.29226,"lon":5.36062,"is_reserved":false,"is_disabled":false,"rental_uris":{"android":"levelo://app?vid=b6b657f6-a44c-486a-afa7-439bebc319fb","ios":"levelo://app?vid=b6b657f6-a44c-486a-afa7-439bebc319fb"},"vehicle_type_id":"4","last_reported":1725390442,"current_range_meters":0,"station_id":"ce4bhbh2rcd13ifvqeqg","pricing_plan_id":"cebpf4jnsgd1na2vs0mg"},{"bike_id":"59b43048-16ff-4052-a090-dc168e9000f5","system_id":"levelo_inurba_marseille","lat":43.33373,"lon":5.3664,"is_reserved":false,"is_disabled":false,"rental_uris":{"android":"levelo://app?vid=59b43048-16ff-4052-a090-dc168e9000f5","ios":"levelo://app?vid=59b43048-16ff-4052-a090-dc168e9000f5"},"vehicle_type_id":"4","last_reported":1725390442,"current_range_meters":22400,"station_id":"","pricing_plan_id":"cebpf4jnsgd1na2vs0mg"},{"bike_id":"1a418398-3482-45ed-9857-d4e7f42d97db","system_id":"levelo_inurba_marseille","lat":43.300852,"lon":5.390859,"is_reserved":false,"is_disabled":false,"rental_uris":{"android":"levelo://app?vid=1a418398-3482-45ed-9857-d4e7f42d97db","ios":"levelo://app?vid=1a418398-3482-45ed-9857-d4e7f42d97db"},"vehicle_type_id":"4","last_reported":1725390442,"current_range_meters":30000,"station_id":"ce4bh192rcd13ifvqdb0","pricing_plan_id":"cebpf4jnsgd1na2vs0mg"},{"bike_id":"ff72aa79-c6e2-4586-8dc4-268b897ec350","system_id":"levelo_inurba_marseille","lat":43.300852,"lon":5.390859,"is_reserved":false,"is_disabled":false,"rental_uris":{"android":"levelo://app?vid=ff72aa79-c6e2-4586-8dc4-268b897ec350","ios":"levelo://app?vid=ff72aa79-c6e2-4586-8dc4-268b897ec350"},"vehicle_type_id":"4","last_reported":1725390442,"current_range_meters":28400,"station_id":"ce4bh192rcd13ifvqdb0","pricing_plan_id":"cebpf4jnsgd1na2vs0mg"},{"bike_id":"d788c3b0-7469-4b31-8c32-3fcdf77d93b7","system_id":"levelo_inurba_marseille","lat":43.300852,"lon":5.390859,"is_reserved":false,"is_disabled":false,"rental_uris":{"android":"levelo://app?vid=d788c3b0-7469-4b31-8c32-3fcdf77d93b7","ios":"levelo://app?vid=d788c3b0-7469-4b31-8c32-3fcdf77d93b7"},"vehicle_type_id":"4","last_reported":1725390442,"current_range_meters":31200,"station_id":"ce4bh192rcd13ifvqdb0","pricing_plan_id":"cebpf4jnsgd1na2vs0mg"},{"bike_id":"469206f1-fbf0-403e-947b-06060c2f190a","system_id":"levelo_inurba_marseille","lat":43.29212,"lon":5.36054,"is_reserved":false,"is_disabled":false,"rental_uris":{"android":"levelo://app?vid=469206f1-fbf0-403e-947b-06060c2f190a","ios":"levelo://app?vid=469206f1-fbf0-403e-947b-06060c2f190a"},"vehicle_type_id":"4","last_reported":1725390442,"current_range_meters":12000,"station_id":"ce4bhbh2rcd13ifvqeqg","pricing_plan_id":"cebpf4jnsgd1na2vs0mg"},{"bike_id":"ac1db90e-2555-46bf-a73b-130da8921de3","system_id":"levelo_inurba_marseille","lat":43.29887,"lon":5.38908,"is_reserved":false,"is_disabled":false,"rental_uris":{"android":"levelo://app?vid=ac1db90e-2555-46bf-a73b-130da8921de3","ios":"levelo://app?vid=ac1db90e-2555-46bf-a73b-130da8921de3"},"vehicle_type_id":"4","last_reported":1725390442,"current_range_meters":6800,"station_id":"ce4bh392rcd13ifvqdl0","pricing_plan_id":"cebpf4jnsgd1na2vs0mg"},{"bike_id":"0ce2b6ee-4953-4b0d-af00-f906e88857a0","system_id":"levelo_inurba_marseille","lat":43.298818,"lon":5.389036,"is_reserved":false,"is_disabled":false,"rental_uris":{"android":"levelo://app?vid=0ce2b6ee-4953-4b0d-af00-f906e88857a0","ios":"levelo://app?vid=0ce2b6ee-4953-4b0d-af00-f906e88857a0"},"vehicle_type_id":"4","last_reported":1725390442,"current_range_meters":17600,"station_id":"ce4bh392rcd13ifvqdl0","pricing_plan_id":"cebpf4jnsgd1na2vs0mg"},{"bike_id":"f3bba668-a573-43d4-a987-fd92f31a85ba","system_id":"levelo_inurba_marseille","lat":43.29874,"lon":5.38903,"is_reserved":false,"is_disabled":false,"rental_uris":{"android":"levelo://app?vid=f3bba668-a573-43d4-a987-fd92f31a85ba","ios":"levelo://app?vid=f3bba668-a573-43d4-a987-fd92f31a85ba"},"vehicle_type_id":"4","last_reported":1725390442,"current_range_meters":6400,"station_id":"ce4bh392rcd13ifvqdl0","pricing_plan_id":"cebpf4jnsgd1na2vs0mg"},{"bike_id":"717c5740-3784-4d00-8ed1-95f56c81417f","system_id":"levelo_inurba_marseille","lat":43.29876,"lon":5.38913,"is_reserved":false,"is_disabled":false,"rental_uris":{"android":"levelo://app?vid=717c5740-3784-4d00-8ed1-95f56c81417f","ios":"levelo://app?vid=717c5740-3784-4d00-8ed1-95f56c81417f"},"vehicle_type_id":"4","last_reported":1725390442,"current_range_meters":0,"station_id":"ce4bh392rcd13ifvqdl0","pricing_plan_id":"cebpf4jnsgd1na2vs0mg"},{"bike_id":"45e6f1f0-dbdb-419e-af6d-e68fe4cec662","system_id":"levelo_inurba_marseille","lat":43.29874,"lon":5.38912,"is_reserved":false,"is_disabled":false,"rental_uris":{"android":"levelo://app?vid=45e6f1f0-dbdb-419e-af6d-e68fe4cec662","ios":"levelo://app?vid=45e6f1f0-dbdb-419e-af6d-e68fe4cec662"},"vehicle_type_id":"4","last_reported":1725390442,"current_range_meters":20400,"station_id":"ce4bh392rcd13ifvqdl0","pricing_plan_id":"cebpf4jnsgd1na2vs0mg"},{"bike_id":"6714e5a4-1e69-4c05-b326-7ed955b44408","system_id":"levelo_inurba_marseille","lat":43.29874,"lon":5.38912,"is_reserved":false,"is_disabled":false,"rental_uris":{"android":"levelo://app?vid=6714e5a4-1e69-4c05-b326-7ed955b44408","ios":"levelo://app?vid=6714e5a4-1e69-4c05-b326-7ed955b44408"},"vehicle_type_id":"4","last_reported":1725390442,"current_range_meters":15600,"station_id":"ce4bh392rcd13ifvqdl0","pricing_plan_id":"cebpf4jnsgd1na2vs0mg"},{"bike_id":"9487ce24-914c-4695-b583-2c62597f3aa1","system_id":"levelo_inurba_marseille","lat":43.29874,"lon":5.38916,"is_reserved":false,"is_disabled":false,"rental_uris":{"android":"levelo://app?vid=9487ce24-914c-4695-b583-2c62597f3aa1","ios":"levelo://app?vid=9487ce24-914c-4695-b583-2c62597f3aa1"},"vehicle_type_id":"4","last_reported":1725390442,"current_range_meters":1200,"station_id":"ce4bh392rcd13ifvqdl0","pricing_plan_id":"cebpf4jnsgd1na2vs0mg"},{"bike_id":"8d66c69e-a21b-4d5b-ab86-15fac69b0022","system_id":"levelo_inurba_marseille","lat":43.29869,"lon":5.38911,"is_reserved":false,"is_disabled":false,"rental_uris":{"android":"levelo://app?vid=8d66c69e-a21b-4d5b-ab86-15fac69b0022","ios":"levelo://app?vid=8d66c69e-a21b-4d5b-ab86-15fac69b0022"},"vehicle_type_id":"4","last_reported":1725390442,"current_range_meters":30800,"station_id":"ce4bh392rcd13ifvqdl0","pricing_plan_id":"cebpf4jnsgd1na2vs0mg"},{"bike_id":"210eed7b-7a65-464c-93c9-50cef9f2b145","system_id":"levelo_inurba_marseille","lat":43.29865,"lon":5.38909,"is_reserved":false,"is_disabled":false,"rental_uris":{"android":"levelo://app?vid=210eed7b-7a65-464c-93c9-50cef9f2b145","ios":"levelo://app?vid=210eed7b-7a65-464c-93c9-50cef9f2b145"},"vehicle_type_id":"4","last_reported":1725390442,"current_range_meters":31200,"station_id":"ce4bh392rcd13ifvqdl0","pricing_plan_id":"cebpf4jnsgd1na2vs0mg"},{"bike_id":"8d0f04a0-bc6e-4637-9b94-a093c580c955","system_id":"levelo_inurba_marseille","lat":43.29159,"lon":5.37157,"is_reserved":false,"is_disabled":false,"rental_uris":{"android":"levelo://app?vid=8d0f04a0-bc6e-4637-9b94-a093c580c955","ios":"levelo://app?vid=8d0f04a0-bc6e-4637-9b94-a093c580c955"},"vehicle_type_id":"4","last_reported":1725390442,"current_range_meters":0,"station_id":"ce4bha92rcd13ifvqeh0","pricing_plan_id":"cebpf4jnsgd1na2vs0mg"},{"bike_id":"7c19087b-2432-474d-a4bd-407ee5893ac8","system_id":"levelo_inurba_marseille","lat":43.29178,"lon":5.35924,"is_reserved":false,"is_disabled":false,"rental_uris":{"android":"levelo://app?vid=7c19087b-2432-474d-a4bd-407ee5893ac8","ios":"levelo://app?vid=7c19087b-2432-474d-a4bd-407ee5893ac8"},"vehicle_type_id":"4","last_reported":1725390442,"current_range_meters":12000,"station_id":"","pricing_plan_id":"cebpf4jnsgd1na2vs0mg"},{"bike_id":"f7539413-4f3e-45d9-8f61-a909e5d057d4","system_id":"levelo_inurba_marseille","lat":43.30884,"lon":5.39645,"is_reserved":false,"is_disabled":false,"rental_uris":{"android":"levelo://app?vid=f7539413-4f3e-45d9-8f61-a909e5d057d4","ios":"levelo://app?vid=f7539413-4f3e-45d9-8f61-a909e5d057d4"},"vehicle_type_id":"4","last_reported":1725390442,"current_range_meters":0,"station_id":"ce4bh012rcd13ifvqcv0","pricing_plan_id":"cebpf4jnsgd1na2vs0mg"},{"bike_id":"04be60dc-b02a-4362-af40-5d22011bb714","system_id":"levelo_inurba_marseille","lat":43.309038,"lon":5.396546,"is_reserved":false,"is_disabled":false,"rental_uris":{"android":"levelo://app?vid=04be60dc-b02a-4362-af40-5d22011bb714","ios":"levelo://app?vid=04be60dc-b02a-4362-af40-5d22011bb714"},"vehicle_type_id":"4","last_reported":1725390442,"current_range_meters":10400,"station_id":"ce4bh012rcd13ifvqcv0","pricing_plan_id":"cebpf4jnsgd1na2vs0mg"},{"bike_id":"1449b037-2fd3-4a13-adb9-51ebdfe67d80","system_id":"levelo_inurba_marseille","lat":43.309038,"lon":5.396546,"is_reserved":false,"is_disabled":false,"rental_uris":{"android":"levelo://app?vid=1449b037-2fd3-4a13-adb9-51ebdfe67d80","ios":"levelo://app?vid=1449b037-2fd3-4a13-adb9-51ebdfe67d80"},"vehicle_type_id":"4","last_reported":1725390442,"current_range_meters":1600,"station_id":"ce4bh012rcd13ifvqcv0","pricing_plan_id":"cebpf4jnsgd1na2vs0mg"},{"bike_id":"bce50e60-b8db-416b-8d73-0dd104accff8","system_id":"levelo_inurba_marseille","lat":43.309038,"lon":5.396546,"is_reserved":false,"is_disabled":false,"rental_uris":{"android":"levelo://app?vid=bce50e60-b8db-416b-8d73-0dd104accff8","ios":"levelo://app?vid=bce50e60-b8db-416b-8d73-0dd104accff8"},"vehicle_type_id":"4","last_reported":1725390442,"current_range_meters":14400,"station_id":"ce4bh012rcd13ifvqcv0","pricing_plan_id":"cebpf4jnsgd1na2vs0mg"},{"bike_id":"8fab10c6-98aa-4ca0-ae44-e4980d2883c4","system_id":"levelo_inurba_marseille","lat":43.309047,"lon":5.396551,"is_reserved":false,"is_disabled":false,"rental_uris":{"android":"levelo://app?vid=8fab10c6-98aa-4ca0-ae44-e4980d2883c4","ios":"levelo://app?vid=8fab10c6-98aa-4ca0-ae44-e4980d2883c4"},"vehicle_type_id":"4","last_reported":1725390442,"current_range_meters":11600,"station_id":"ce4bh012rcd13ifvqcv0","pricing_plan_id":"cebpf4jnsgd1na2vs0mg"},{"bike_id":"4638853a-3aca-4926-8e70-f216630149df","system_id":"levelo_inurba_marseille","lat":43.309038,"lon":5.396546,"is_reserved":false,"is_disabled":false,"rental_uris":{"android":"levelo://app?vid=4638853a-3aca-4926-8e70-f216630149df","ios":"levelo://app?vid=4638853a-3aca-4926-8e70-f216630149df"},"vehicle_type_id":"4","last_reported":1725390442,"current_range_meters":30000,"station_id":"ce4bh012rcd13ifvqcv0","pricing_plan_id":"cebpf4jnsgd1na2vs0mg"},{"bike_id":"cd2d29fa-ea18-4045-84b6-def07e14dfcc","system_id":"levelo_inurba_marseille","lat":43.309047,"lon":5.396551,"is_reserved":false,"is_disabled":false,"rental_uris":{"android":"levelo://app?vid=cd2d29fa-ea18-4045-84b6-def07e14dfcc","ios":"levelo://app?vid=cd2d29fa-ea18-4045-84b6-def07e14dfcc"},"vehicle_type_id":"4","last_reported":1725390442,"current_range_meters":0,"station_id":"ce4bh012rcd13ifvqcv0","pricing_plan_id":"cebpf4jnsgd1na2vs0mg"},{"bike_id":"f6994089-df94-4666-a2ff-985412e6bbf5","system_id":"levelo_inurba_marseille","lat":43.309038,"lon":5.396546,"is_reserved":false,"is_disabled":false,"rental_uris":{"android":"levelo://app?vid=f6994089-df94-4666-a2ff-985412e6bbf5","ios":"levelo://app?vid=f6994089-df94-4666-a2ff-985412e6bbf5"},"vehicle_type_id":"4","last_reported":1725390442,"current_range_meters":14800,"station_id":"ce4bh012rcd13ifvqcv0","pricing_plan_id":"cebpf4jnsgd1na2vs0mg"},{"bike_id":"adcedc91-c133-462a-ba0d-1815dd18363d","system_id":"levelo_inurba_marseille","lat":43.309038,"lon":5.396546,"is_reserved":false,"is_disabled":false,"rental_uris":{"android":"levelo://app?vid=adcedc91-c133-462a-ba0d-1815dd18363d","ios":"levelo://app?vid=adcedc91-c133-462a-ba0d-1815dd18363d"},"vehicle_type_id":"4","last_reported":1725390442,"current_range_meters":28400,"station_id":"ce4bh012rcd13ifvqcv0","pricing_plan_id":"cebpf4jnsgd1na2vs0mg"},{"bike_id":"ba37b8bc-50e8-416e-bc5c-5d2cd0a416aa","system_id":"levelo_inurba_marseille","lat":43.309038,"lon":5.396546,"is_reserved":false,"is_disabled":false,"rental_uris":{"android":"levelo://app?vid=ba37b8bc-50e8-416e-bc5c-5d2cd0a416aa","ios":"levelo://app?vid=ba37b8bc-50e8-416e-bc5c-5d2cd0a416aa"},"vehicle_type_id":"4","last_reported":1725390442,"current_range_meters":3200,"station_id":"ce4bh012rcd13ifvqcv0","pricing_plan_id":"cebpf4jnsgd1na2vs0mg"},{"bike_id":"09f6ca31-ecf7-4821-a70d-2f5336c508d8","system_id":"levelo_inurba_marseille","lat":43.29529,"lon":5.385581,"is_reserved":false,"is_disabled":false,"rental_uris":{"android":"levelo://app?vid=09f6ca31-ecf7-4821-a70d-2f5336c508d8","ios":"levelo://app?vid=09f6ca31-ecf7-4821-a70d-2f5336c508d8"},"vehicle_type_id":"4","last_reported":1725390442,"current_range_meters":17600,"station_id":"ce4bgih2rcd13ifvqba0","pricing_plan_id":"cebpf4jnsgd1na2vs0mg"},{"bike_id":"50ba255b-8ba1-49ed-bab0-4a3f4415b890","system_id":"levelo_inurba_marseille","lat":43.302008,"lon":5.394694,"is_reserved":false,"is_disabled":false,"rental_uris":{"android":"levelo://app?vid=50ba255b-8ba1-49ed-bab0-4a3f4415b890","ios":"levelo://app?vid=50ba255b-8ba1-49ed-bab0-4a3f4415b890"},"vehicle_type_id":"4","last_reported":1725390442,"current_range_meters":14000,"station_id":"ce4bh0p2rcd13ifvqd70","pricing_plan_id":"cebpf4jnsgd1na2vs0mg"},{"bike_id":"4ac22b89-3993-47d9-b4b1-32a30df4addc","system_id":"levelo_inurba_marseille","lat":43.302008,"lon":5.394694,"is_reserved":false,"is_disabled":false,"rental_uris":{"android":"levelo://app?vid=4ac22b89-3993-47d9-b4b1-32a30df4addc","ios":"levelo://app?vid=4ac22b89-3993-47d9-b4b1-32a30df4addc"},"vehicle_type_id":"4","last_reported":1725390442,"current_range_meters":9600,"station_id":"ce4bh0p2rcd13ifvqd70","pricing_plan_id":"cebpf4jnsgd1na2vs0mg"},{"bike_id":"be689b8d-aa98-4369-88cb-4086bc87ba67","system_id":"levelo_inurba_marseille","lat":43.302008,"lon":5.394694,"is_reserved":false,"is_disabled":false,"rental_uris":{"android":"levelo://app?vid=be689b8d-aa98-4369-88cb-4086bc87ba67","ios":"levelo://app?vid=be689b8d-aa98-4369-88cb-4086bc87ba67"},"vehicle_type_id":"4","last_reported":1725390442,"current_range_meters":400,"station_id":"ce4bh0p2rcd13ifvqd70","pricing_plan_id":"cebpf4jnsgd1na2vs0mg"},{"bike_id":"068b7748-3cfb-4d75-be76-66d017138d8e","system_id":"levelo_inurba_marseille","lat":43.302008,"lon":5.394694,"is_reserved":false,"is_disabled":false,"rental_uris":{"android":"levelo://app?vid=068b7748-3cfb-4d75-be76-66d017138d8e","ios":"levelo://app?vid=068b7748-3cfb-4d75-be76-66d017138d8e"},"vehicle_type_id":"4","last_reported":1725390442,"current_range_meters":7200,"station_id":"ce4bh0p2rcd13ifvqd70","pricing_plan_id":"cebpf4jnsgd1na2vs0mg"},{"bike_id":"8889579b-8991-4874-bfb6-987d7cf724d6","system_id":"levelo_inurba_marseille","lat":43.302008,"lon":5.394694,"is_reserved":false,"is_disabled":false,"rental_uris":{"android":"levelo://app?vid=8889579b-8991-4874-bfb6-987d7cf724d6","ios":"levelo://app?vid=8889579b-8991-4874-bfb6-987d7cf724d6"},"vehicle_type_id":"4","last_reported":1725390442,"current_range_meters":4800,"station_id":"ce4bh0p2rcd13ifvqd70","pricing_plan_id":"cebpf4jnsgd1na2vs0mg"},{"bike_id":"550ed27d-b691-4b9c-a670-accd729173c0","system_id":"levelo_inurba_marseille","lat":43.290631,"lon":5.359244,"is_reserved":false,"is_disabled":false,"rental_uris":{"android":"levelo://app?vid=550ed27d-b691-4b9c-a670-accd729173c0","ios":"levelo://app?vid=550ed27d-b691-4b9c-a670-accd729173c0"},"vehicle_type_id":"4","last_reported":1725390442,"current_range_meters":5600,"station_id":"ce4bha92rcd13ifvqeg0","pricing_plan_id":"cebpf4jnsgd1na2vs0mg"},{"bike_id":"490dfe44-a71a-4c44-8ddd-b4a9acedc943","system_id":"levelo_inurba_marseille","lat":43.294918,"lon":5.387098,"is_reserved":false,"is_disabled":false,"rental_uris":{"android":"levelo://app?vid=490dfe44-a71a-4c44-8ddd-b4a9acedc943","ios":"levelo://app?vid=490dfe44-a71a-4c44-8ddd-b4a9acedc943"},"vehicle_type_id":"4","last_reported":1725390442,"current_range_meters":3200,"station_id":"","pricing_plan_id":"cebpf4jnsgd1na2vs0mg"},{"bike_id":"5a95b26a-d894-448a-b251-bca03e487828","system_id":"levelo_inurba_marseille","lat":43.29043,"lon":5.37567,"is_reserved":false,"is_disabled":false,"rental_uris":{"android":"levelo://app?vid=5a95b26a-d894-448a-b251-bca03e487828","ios":"levelo://app?vid=5a95b26a-d894-448a-b251-bca03e487828"},"vehicle_type_id":"4","last_reported":1725390442,"current_range_meters":0,"station_id":"ce4bh692rcd13ifvqe90","pricing_plan_id":"cebpf4jnsgd1na2vs0mg"},{"bike_id":"8e35bea7-b864-4ff9-9ff9-63f6af789617","system_id":"levelo_inurba_marseille","lat":43.294153,"lon":5.386305,"is_reserved":false,"is_disabled":false,"rental_uris":{"android":"levelo://app?vid=8e35bea7-b864-4ff9-9ff9-63f6af789617","ios":"levelo://app?vid=8e35bea7-b864-4ff9-9ff9-63f6af789617"},"vehicle_type_id":"4","last_reported":1725390442,"current_range_meters":27600,"station_id":"ce4bh2h2rcd13ifvqdh0","pricing_plan_id":"cebpf4jnsgd1na2vs0mg"},{"bike_id":"ea8bd40e-0b9f-4e08-ae17-e869b629645d","system_id":"levelo_inurba_marseille","lat":43.294153,"lon":5.386305,"is_reserved":false,"is_disabled":false,"rental_uris":{"android":"levelo://app?vid=ea8bd40e-0b9f-4e08-ae17-e869b629645d","ios":"levelo://app?vid=ea8bd40e-0b9f-4e08-ae17-e869b629645d"},"vehicle_type_id":"4","last_reported":1725390442,"current_range_meters":0,"station_id":"ce4bh2h2rcd13ifvqdh0","pricing_plan_id":"cebpf4jnsgd1na2vs0mg"},{"bike_id":"09ac222f-c40c-4933-8b09-3964258266c9","system_id":"levelo_inurba_marseille","lat":43.294153,"lon":5.386305,"is_reserved":false,"is_disabled":false,"rental_uris":{"android":"levelo://app?vid=09ac222f-c40c-4933-8b09-3964258266c9","ios":"levelo://app?vid=09ac222f-c40c-4933-8b09-3964258266c9"},"vehicle_type_id":"4","last_reported":1725390442,"current_range_meters":6800,"station_id":"ce4bh2h2rcd13ifvqdh0","pricing_plan_id":"cebpf4jnsgd1na2vs0mg"},{"bike_id":"0a35ae92-caac-4697-af6c-865ce1513c0d","system_id":"levelo_inurba_marseille","lat":43.294162,"lon":5.386292,"is_reserved":false,"is_disabled":false,"rental_uris":{"android":"levelo://app?vid=0a35ae92-caac-4697-af6c-865ce1513c0d","ios":"levelo://app?vid=0a35ae92-caac-4697-af6c-865ce1513c0d"},"vehicle_type_id":"4","last_reported":1725390442,"current_range_meters":0,"station_id":"ce4bh2h2rcd13ifvqdh0","pricing_plan_id":"cebpf4jnsgd1na2vs0mg"},{"bike_id":"fe314f32-e7dd-43fe-9eec-911f58045f57","system_id":"levelo_inurba_marseille","lat":43.29417,"lon":5.38626,"is_reserved":false,"is_disabled":false,"rental_uris":{"android":"levelo://app?vid=fe314f32-e7dd-43fe-9eec-911f58045f57","ios":"levelo://app?vid=fe314f32-e7dd-43fe-9eec-911f58045f57"},"vehicle_type_id":"4","last_reported":1725390442,"current_range_meters":0,"station_id":"ce4bh2h2rcd13ifvqdh0","pricing_plan_id":"cebpf4jnsgd1na2vs0mg"},{"bike_id":"f7494d25-44a9-4cec-97d8-0b56f3e8d7d7","system_id":"levelo_inurba_marseille","lat":43.294153,"lon":5.386305,"is_reserved":false,"is_disabled":false,"rental_uris":{"android":"levelo://app?vid=f7494d25-44a9-4cec-97d8-0b56f3e8d7d7","ios":"levelo://app?vid=f7494d25-44a9-4cec-97d8-0b56f3e8d7d7"},"vehicle_type_id":"4","last_reported":1725390442,"current_range_meters":18400,"station_id":"ce4bh2h2rcd13ifvqdh0","pricing_plan_id":"cebpf4jnsgd1na2vs0mg"},{"bike_id":"2db1109c-ceb1-4f3a-a46b-5c4d8c4f7e3d","system_id":"levelo_inurba_marseille","lat":43.290319,"lon":5.375732,"is_reserved":false,"is_disabled":false,"rental_uris":{"android":"levelo://app?vid=2db1109c-ceb1-4f3a-a46b-5c4d8c4f7e3d","ios":"levelo://app?vid=2db1109c-ceb1-4f3a-a46b-5c4d8c4f7e3d"},"vehicle_type_id":"4","last_reported":1725390442,"current_range_meters":16800,"station_id":"ce4bh692rcd13ifvqe90","pricing_plan_id":"cebpf4jnsgd1na2vs0mg"},{"bike_id":"f39ab6b8-de45-4613-9787-da5830b19155","system_id":"levelo_inurba_marseille","lat":43.289464,"lon":5.363913,"is_reserved":false,"is_disabled":false,"rental_uris":{"android":"levelo://app?vid=f39ab6b8-de45-4613-9787-da5830b19155","ios":"levelo://app?vid=f39ab6b8-de45-4613-9787-da5830b19155"},"vehicle_type_id":"4","last_reported":1725390442,"current_range_meters":0,"station_id":"ce4bhc92rcd13ifvqetg","pricing_plan_id":"cebpf4jnsgd1na2vs0mg"},{"bike_id":"4caea2df-94cb-4461-ae49-87cf3d02d299","system_id":"levelo_inurba_marseille","lat":43.28933,"lon":5.36643,"is_reserved":false,"is_disabled":false,"rental_uris":{"android":"levelo://app?vid=4caea2df-94cb-4461-ae49-87cf3d02d299","ios":"levelo://app?vid=4caea2df-94cb-4461-ae49-87cf3d02d299"},"vehicle_type_id":"4","last_reported":1725390442,"current_range_meters":0,"station_id":"ce4bhap2rcd13ifvqek0","pricing_plan_id":"cebpf4jnsgd1na2vs0mg"},{"bike_id":"8cb533b0-abcf-4fd3-b1f6-7e127b0336fb","system_id":"levelo_inurba_marseille","lat":43.289184,"lon":5.366408,"is_reserved":false,"is_disabled":false,"rental_uris":{"android":"levelo://app?vid=8cb533b0-abcf-4fd3-b1f6-7e127b0336fb","ios":"levelo://app?vid=8cb533b0-abcf-4fd3-b1f6-7e127b0336fb"},"vehicle_type_id":"4","last_reported":1725390442,"current_range_meters":24000,"station_id":"ce4bhap2rcd13ifvqek0","pricing_plan_id":"cebpf4jnsgd1na2vs0mg"},{"bike_id":"0889fd02-0cc0-4cc4-896b-77626aa64c60","system_id":"levelo_inurba_marseille","lat":43.289468,"lon":5.363719,"is_reserved":false,"is_disabled":false,"rental_uris":{"android":"levelo://app?vid=0889fd02-0cc0-4cc4-896b-77626aa64c60","ios":"levelo://app?vid=0889fd02-0cc0-4cc4-896b-77626aa64c60"},"vehicle_type_id":"4","last_reported":1725390442,"current_range_meters":21600,"station_id":"ce4bhc92rcd13ifvqetg","pricing_plan_id":"cebpf4jnsgd1na2vs0mg"},{"bike_id":"f2265c6b-c57a-4605-8697-2131a0a45938","system_id":"levelo_inurba_marseille","lat":43.289468,"lon":5.363719,"is_reserved":false,"is_disabled":false,"rental_uris":{"android":"levelo://app?vid=f2265c6b-c57a-4605-8697-2131a0a45938","ios":"levelo://app?vid=f2265c6b-c57a-4605-8697-2131a0a45938"},"vehicle_type_id":"4","last_reported":1725390442,"current_range_meters":29200,"station_id":"ce4bhc92rcd13ifvqetg","pricing_plan_id":"cebpf4jnsgd1na2vs0mg"},{"bike_id":"74afb38e-a182-4da6-84ef-7b3f7f8fe4e0","system_id":"levelo_inurba_marseille","lat":43.289184,"lon":5.366408,"is_reserved":false,"is_disabled":false,"rental_uris":{"android":"levelo://app?vid=74afb38e-a182-4da6-84ef-7b3f7f8fe4e0","ios":"levelo://app?vid=74afb38e-a182-4da6-84ef-7b3f7f8fe4e0"},"vehicle_type_id":"4","last_reported":1725390442,"current_range_meters":0,"station_id":"ce4bhap2rcd13ifvqek0","pricing_plan_id":"cebpf4jnsgd1na2vs0mg"},{"bike_id":"6b097b94-9955-45bf-b0dc-93cb650cd248","system_id":"levelo_inurba_marseille","lat":43.289362,"lon":5.363938,"is_reserved":false,"is_disabled":false,"rental_uris":{"android":"levelo://app?vid=6b097b94-9955-45bf-b0dc-93cb650cd248","ios":"levelo://app?vid=6b097b94-9955-45bf-b0dc-93cb650cd248"},"vehicle_type_id":"4","last_reported":1725390442,"current_range_meters":0,"station_id":"ce4bhc92rcd13ifvqetg","pricing_plan_id":"cebpf4jnsgd1na2vs0mg"},{"bike_id":"6a4463ca-fc9e-4d05-a3ad-4cb5bad4610e","system_id":"levelo_inurba_marseille","lat":43.28931,"lon":5.36398,"is_reserved":false,"is_disabled":false,"rental_uris":{"android":"levelo://app?vid=6a4463ca-fc9e-4d05-a3ad-4cb5bad4610e","ios":"levelo://app?vid=6a4463ca-fc9e-4d05-a3ad-4cb5bad4610e"},"vehicle_type_id":"4","last_reported":1725390442,"current_range_meters":0,"station_id":"ce4bhc92rcd13ifvqetg","pricing_plan_id":"cebpf4jnsgd1na2vs0mg"},{"bike_id":"ca253939-f239-4a25-9335-a57cfeee4dcb","system_id":"levelo_inurba_marseille","lat":43.29274,"lon":5.38447,"is_reserved":false,"is_disabled":false,"rental_uris":{"android":"levelo://app?vid=ca253939-f239-4a25-9335-a57cfeee4dcb","ios":"levelo://app?vid=ca253939-f239-4a25-9335-a57cfeee4dcb"},"vehicle_type_id":"4","last_reported":1725390442,"current_range_meters":0,"station_id":"ce4bh692rcd13ifvqea0","pricing_plan_id":"cebpf4jnsgd1na2vs0mg"},{"bike_id":"6bdeac11-1987-4f55-bf13-b0e95a9aa2ec","system_id":"levelo_inurba_marseille","lat":43.2927,"lon":5.38448,"is_reserved":false,"is_disabled":false,"rental_uris":{"android":"levelo://app?vid=6bdeac11-1987-4f55-bf13-b0e95a9aa2ec","ios":"levelo://app?vid=6bdeac11-1987-4f55-bf13-b0e95a9aa2ec"},"vehicle_type_id":"4","last_reported":1725390442,"current_range_meters":8400,"station_id":"ce4bh692rcd13ifvqea0","pricing_plan_id":"cebpf4jnsgd1na2vs0mg"},{"bike_id":"83613e09-884b-4c91-b360-504c31931305","system_id":"levelo_inurba_marseille","lat":43.2926,"lon":5.38428,"is_reserved":false,"is_disabled":false,"rental_uris":{"android":"levelo://app?vid=83613e09-884b-4c91-b360-504c31931305","ios":"levelo://app?vid=83613e09-884b-4c91-b360-504c31931305"},"vehicle_type_id":"4","last_reported":1725390442,"current_range_meters":3200,"station_id":"ce4bh692rcd13ifvqea0","pricing_plan_id":"cebpf4jnsgd1na2vs0mg"},{"bike_id":"05b93f5a-ee9d-4861-9779-573ea52817d7","system_id":"levelo_inurba_marseille","lat":43.29266,"lon":5.38444,"is_reserved":false,"is_disabled":false,"rental_uris":{"android":"levelo://app?vid=05b93f5a-ee9d-4861-9779-573ea52817d7","ios":"levelo://app?vid=05b93f5a-ee9d-4861-9779-573ea52817d7"},"vehicle_type_id":"4","last_reported":1725390442,"current_range_meters":0,"station_id":"ce4bh692rcd13ifvqea0","pricing_plan_id":"cebpf4jnsgd1na2vs0mg"},{"bike_id":"572381fd-3cfc-4c1c-95f1-6c8053703dbb","system_id":"levelo_inurba_marseille","lat":43.29262,"lon":5.38436,"is_reserved":false,"is_disabled":false,"rental_uris":{"android":"levelo://app?vid=572381fd-3cfc-4c1c-95f1-6c8053703dbb","ios":"levelo://app?vid=572381fd-3cfc-4c1c-95f1-6c8053703dbb"},"vehicle_type_id":"4","last_reported":1725390442,"current_range_meters":14000,"station_id":"ce4bh692rcd13ifvqea0","pricing_plan_id":"cebpf4jnsgd1na2vs0mg"},{"bike_id":"04475860-d704-451e-abcf-d13c826eb1b0","system_id":"levelo_inurba_marseille","lat":43.304274,"lon":5.397513,"is_reserved":false,"is_disabled":false,"rental_uris":{"android":"levelo://app?vid=04475860-d704-451e-abcf-d13c826eb1b0","ios":"levelo://app?vid=04475860-d704-451e-abcf-d13c826eb1b0"},"vehicle_type_id":"4","last_reported":1725390442,"current_range_meters":0,"station_id":"ce4bh092rcd13ifvqd20","pricing_plan_id":"cebpf4jnsgd1na2vs0mg"},{"bike_id":"8f84da2b-f83e-47db-acd0-cfdcb680bc0a","system_id":"levelo_inurba_marseille","lat":43.304296,"lon":5.397513,"is_reserved":false,"is_disabled":false,"rental_uris":{"android":"levelo://app?vid=8f84da2b-f83e-47db-acd0-cfdcb680bc0a","ios":"levelo://app?vid=8f84da2b-f83e-47db-acd0-cfdcb680bc0a"},"vehicle_type_id":"4","last_reported":1725390442,"current_range_meters":6800,"station_id":"ce4bh092rcd13ifvqd20","pricing_plan_id":"cebpf4jnsgd1na2vs0mg"},{"bike_id":"3566f756-2075-47d6-b623-2b88c9ad80f8","system_id":"levelo_inurba_marseille","lat":43.29264,"lon":5.38445,"is_reserved":false,"is_disabled":false,"rental_uris":{"android":"levelo://app?vid=3566f756-2075-47d6-b623-2b88c9ad80f8","ios":"levelo://app?vid=3566f756-2075-47d6-b623-2b88c9ad80f8"},"vehicle_type_id":"4","last_reported":1725390442,"current_range_meters":0,"station_id":"ce4bh692rcd13ifvqea0","pricing_plan_id":"cebpf4jnsgd1na2vs0mg"},{"bike_id":"84ad8e49-52e2-4d19-b652-74124bcb6952","system_id":"levelo_inurba_marseille","lat":43.304274,"lon":5.397513,"is_reserved":false,"is_disabled":false,"rental_uris":{"android":"levelo://app?vid=84ad8e49-52e2-4d19-b652-74124bcb6952","ios":"levelo://app?vid=84ad8e49-52e2-4d19-b652-74124bcb6952"},"vehicle_type_id":"4","last_reported":1725390442,"current_range_meters":20000,"station_id":"ce4bh092rcd13ifvqd20","pricing_plan_id":"cebpf4jnsgd1na2vs0mg"},{"bike_id":"8db4dba1-30f1-45ed-8854-5444f581ec5f","system_id":"levelo_inurba_marseille","lat":43.29261,"lon":5.38443,"is_reserved":false,"is_disabled":false,"rental_uris":{"android":"levelo://app?vid=8db4dba1-30f1-45ed-8854-5444f581ec5f","ios":"levelo://app?vid=8db4dba1-30f1-45ed-8854-5444f581ec5f"},"vehicle_type_id":"4","last_reported":1725390442,"current_range_meters":0,"station_id":"ce4bh692rcd13ifvqea0","pricing_plan_id":"cebpf4jnsgd1na2vs0mg"},{"bike_id":"0efe7cea-c133-4be4-a7f1-c238f17a7f32","system_id":"levelo_inurba_marseille","lat":43.292644,"lon":5.384257,"is_reserved":false,"is_disabled":false,"rental_uris":{"android":"levelo://app?vid=0efe7cea-c133-4be4-a7f1-c238f17a7f32","ios":"levelo://app?vid=0efe7cea-c133-4be4-a7f1-c238f17a7f32"},"vehicle_type_id":"4","last_reported":1725390442,"current_range_meters":12400,"station_id":"ce4bh692rcd13ifvqea0","pricing_plan_id":"cebpf4jnsgd1na2vs0mg"},{"bike_id":"11f1b1eb-b4d7-4d2a-9295-02c25721d4ca","system_id":"levelo_inurba_marseille","lat":43.30419,"lon":5.397553,"is_reserved":false,"is_disabled":false,"rental_uris":{"android":"levelo://app?vid=11f1b1eb-b4d7-4d2a-9295-02c25721d4ca","ios":"levelo://app?vid=11f1b1eb-b4d7-4d2a-9295-02c25721d4ca"},"vehicle_type_id":"4","last_reported":1725390442,"current_range_meters":0,"station_id":"ce4bh092rcd13ifvqd20","pricing_plan_id":"cebpf4jnsgd1na2vs0mg"},{"bike_id":"7d82698c-9048-4820-83de-be0a24947952","system_id":"levelo_inurba_marseille","lat":43.29258,"lon":5.38451,"is_reserved":false,"is_disabled":false,"rental_uris":{"android":"levelo://app?vid=7d82698c-9048-4820-83de-be0a24947952","ios":"levelo://app?vid=7d82698c-9048-4820-83de-be0a24947952"},"vehicle_type_id":"4","last_reported":1725390442,"current_range_meters":28800,"station_id":"ce4bh692rcd13ifvqea0","pricing_plan_id":"cebpf4jnsgd1na2vs0mg"},{"bike_id":"ebecbaa5-b68b-4a58-8409-4060ad4a2095","system_id":"levelo_inurba_marseille","lat":43.29003,"lon":5.35616,"is_reserved":false,"is_disabled":false,"rental_uris":{"android":"levelo://app?vid=ebecbaa5-b68b-4a58-8409-4060ad4a2095","ios":"levelo://app?vid=ebecbaa5-b68b-4a58-8409-4060ad4a2095"},"vehicle_type_id":"4","last_reported":1725390442,"current_range_meters":0,"station_id":"ce4bhb92rcd13ifvqen0","pricing_plan_id":"cebpf4jnsgd1na2vs0mg"},{"bike_id":"4de89a41-fb12-4005-becb-0fb84c1f5d82","system_id":"levelo_inurba_marseille","lat":43.290995,"lon":5.381361,"is_reserved":false,"is_disabled":false,"rental_uris":{"android":"levelo://app?vid=4de89a41-fb12-4005-becb-0fb84c1f5d82","ios":"levelo://app?vid=4de89a41-fb12-4005-becb-0fb84c1f5d82"},"vehicle_type_id":"4","last_reported":1725390442,"current_range_meters":28800,"station_id":"ce4bh512rcd13ifvqe2g","pricing_plan_id":"cebpf4jnsgd1na2vs0mg"},{"bike_id":"ba52c3ad-8f95-4efe-a47e-b59cb2bd4abc","system_id":"levelo_inurba_marseille","lat":43.290995,"lon":5.381361,"is_reserved":false,"is_disabled":false,"rental_uris":{"android":"levelo://app?vid=ba52c3ad-8f95-4efe-a47e-b59cb2bd4abc","ios":"levelo://app?vid=ba52c3ad-8f95-4efe-a47e-b59cb2bd4abc"},"vehicle_type_id":"4","last_reported":1725390442,"current_range_meters":0,"station_id":"ce4bh512rcd13ifvqe2g","pricing_plan_id":"cebpf4jnsgd1na2vs0mg"},{"bike_id":"d0a1dcd5-cd2a-4b1d-ae07-3cb5511ecacf","system_id":"levelo_inurba_marseille","lat":43.290995,"lon":5.381361,"is_reserved":false,"is_disabled":false,"rental_uris":{"android":"levelo://app?vid=d0a1dcd5-cd2a-4b1d-ae07-3cb5511ecacf","ios":"levelo://app?vid=d0a1dcd5-cd2a-4b1d-ae07-3cb5511ecacf"},"vehicle_type_id":"4","last_reported":1725390442,"current_range_meters":0,"station_id":"ce4bh512rcd13ifvqe2g","pricing_plan_id":"cebpf4jnsgd1na2vs0mg"},{"bike_id":"1bb5b037-81e6-4a60-afb9-20390877666d","system_id":"levelo_inurba_marseille","lat":43.297815,"lon":5.393548,"is_reserved":false,"is_disabled":false,"rental_uris":{"android":"levelo://app?vid=1bb5b037-81e6-4a60-afb9-20390877666d","ios":"levelo://app?vid=1bb5b037-81e6-4a60-afb9-20390877666d"},"vehicle_type_id":"4","last_reported":1725390442,"current_range_meters":2800,"station_id":"chh1huq6cuj3fo74tm60","pricing_plan_id":"cebpf4jnsgd1na2vs0mg"},{"bike_id":"19c308c6-5f3f-4ef5-aa75-90eb1c2e1747","system_id":"levelo_inurba_marseille","lat":43.289741,"lon":5.378306,"is_reserved":false,"is_disabled":false,"rental_uris":{"android":"levelo://app?vid=19c308c6-5f3f-4ef5-aa75-90eb1c2e1747","ios":"levelo://app?vid=19c308c6-5f3f-4ef5-aa75-90eb1c2e1747"},"vehicle_type_id":"4","last_reported":1725390442,"current_range_meters":9600,"station_id":"ce4bh9p2rcd13ifvqed0","pricing_plan_id":"cebpf4jnsgd1na2vs0mg"},{"bike_id":"46bd723f-f193-4ef0-b1ab-95127dacdbea","system_id":"levelo_inurba_marseille","lat":43.295216,"lon":5.390322,"is_reserved":false,"is_disabled":false,"rental_uris":{"android":"levelo://app?vid=46bd723f-f193-4ef0-b1ab-95127dacdbea","ios":"levelo://app?vid=46bd723f-f193-4ef0-b1ab-95127dacdbea"},"vehicle_type_id":"4","last_reported":1725390442,"current_range_meters":0,"station_id":"ce4bh3p2rcd13ifvqdp0","pricing_plan_id":"cebpf4jnsgd1na2vs0mg"},{"bike_id":"f3a5f9e9-2ebe-4ddf-96fb-a79c925a691c","system_id":"levelo_inurba_marseille","lat":43.297807,"lon":5.393533,"is_reserved":false,"is_disabled":false,"rental_uris":{"android":"levelo://app?vid=f3a5f9e9-2ebe-4ddf-96fb-a79c925a691c","ios":"levelo://app?vid=f3a5f9e9-2ebe-4ddf-96fb-a79c925a691c"},"vehicle_type_id":"4","last_reported":1725390442,"current_range_meters":21600,"station_id":"chh1huq6cuj3fo74tm60","pricing_plan_id":"cebpf4jnsgd1na2vs0mg"},{"bike_id":"90f45e91-48a8-4156-9692-888515543217","system_id":"levelo_inurba_marseille","lat":43.33019,"lon":5.39044,"is_reserved":false,"is_disabled":false,"rental_uris":{"android":"levelo://app?vid=90f45e91-48a8-4156-9692-888515543217","ios":"levelo://app?vid=90f45e91-48a8-4156-9692-888515543217"},"vehicle_type_id":"4","last_reported":1725390442,"current_range_meters":0,"station_id":"ce4bhr92rcd13ifvqhrg","pricing_plan_id":"cebpf4jnsgd1na2vs0mg"},{"bike_id":"2936c493-43dd-48b8-b2b7-69814c603405","system_id":"levelo_inurba_marseille","lat":43.31067,"lon":5.400395,"is_reserved":false,"is_disabled":false,"rental_uris":{"android":"levelo://app?vid=2936c493-43dd-48b8-b2b7-69814c603405","ios":"levelo://app?vid=2936c493-43dd-48b8-b2b7-69814c603405"},"vehicle_type_id":"4","last_reported":1725390442,"current_range_meters":0,"station_id":"","pricing_plan_id":"cebpf4jnsgd1na2vs0mg"},{"bike_id":"c29e3bf2-5385-4e1d-8dd7-eeaac68d094a","system_id":"levelo_inurba_marseille","lat":43.330442,"lon":5.389148,"is_reserved":false,"is_disabled":false,"rental_uris":{"android":"levelo://app?vid=c29e3bf2-5385-4e1d-8dd7-eeaac68d094a","ios":"levelo://app?vid=c29e3bf2-5385-4e1d-8dd7-eeaac68d094a"},"vehicle_type_id":"4","last_reported":1725390442,"current_range_meters":30400,"station_id":"ce4bhr92rcd13ifvqhrg","pricing_plan_id":"cebpf4jnsgd1na2vs0mg"},{"bike_id":"6a3154b7-6f19-455d-b739-b37587da3804","system_id":"levelo_inurba_marseille","lat":43.33021,"lon":5.39043,"is_reserved":false,"is_disabled":false,"rental_uris":{"android":"levelo://app?vid=6a3154b7-6f19-455d-b739-b37587da3804","ios":"levelo://app?vid=6a3154b7-6f19-455d-b739-b37587da3804"},"vehicle_type_id":"4","last_reported":1725390442,"current_range_meters":0,"station_id":"ce4bhr92rcd13ifvqhrg","pricing_plan_id":"cebpf4jnsgd1na2vs0mg"},{"bike_id":"88258ca0-6940-4401-95b1-b29a0ab49c78","system_id":"levelo_inurba_marseille","lat":43.295169,"lon":5.390426,"is_reserved":false,"is_disabled":false,"rental_uris":{"android":"levelo://app?vid=88258ca0-6940-4401-95b1-b29a0ab49c78","ios":"levelo://app?vid=88258ca0-6940-4401-95b1-b29a0ab49c78"},"vehicle_type_id":"4","last_reported":1725390442,"current_range_meters":26800,"station_id":"ce4bh3p2rcd13ifvqdp0","pricing_plan_id":"cebpf4jnsgd1na2vs0mg"},{"bike_id":"74b822bc-d0a4-46af-90a4-8437f70beeb3","system_id":"levelo_inurba_marseille","lat":43.289741,"lon":5.378306,"is_reserved":false,"is_disabled":false,"rental_uris":{"android":"levelo://app?vid=74b822bc-d0a4-46af-90a4-8437f70beeb3","ios":"levelo://app?vid=74b822bc-d0a4-46af-90a4-8437f70beeb3"},"vehicle_type_id":"4","last_reported":1725390442,"current_range_meters":13200,"station_id":"ce4bh9p2rcd13ifvqed0","pricing_plan_id":"cebpf4jnsgd1na2vs0mg"},{"bike_id":"eddcc2a9-c3f5-4764-bc0e-5f9f397375a6","system_id":"levelo_inurba_marseille","lat":43.330442,"lon":5.389148,"is_reserved":false,"is_disabled":false,"rental_uris":{"android":"levelo://app?vid=eddcc2a9-c3f5-4764-bc0e-5f9f397375a6","ios":"levelo://app?vid=eddcc2a9-c3f5-4764-bc0e-5f9f397375a6"},"vehicle_type_id":"4","last_reported":1725390442,"current_range_meters":14400,"station_id":"ce4bhr92rcd13ifvqhrg","pricing_plan_id":"cebpf4jnsgd1na2vs0mg"},{"bike_id":"2ab9ef88-42d5-4509-a88f-37f5d7cc08e9","system_id":"levelo_inurba_marseille","lat":43.28856,"lon":5.358371,"is_reserved":false,"is_disabled":false,"rental_uris":{"android":"levelo://app?vid=2ab9ef88-42d5-4509-a88f-37f5d7cc08e9","ios":"levelo://app?vid=2ab9ef88-42d5-4509-a88f-37f5d7cc08e9"},"vehicle_type_id":"4","last_reported":1725390442,"current_range_meters":2800,"station_id":"ce4bhb12rcd13ifvqem0","pricing_plan_id":"cebpf4jnsgd1na2vs0mg"},{"bike_id":"edd42b2c-2743-4474-a9f8-4e91a843d033","system_id":"levelo_inurba_marseille","lat":43.310683,"lon":5.400869,"is_reserved":false,"is_disabled":false,"rental_uris":{"android":"levelo://app?vid=edd42b2c-2743-4474-a9f8-4e91a843d033","ios":"levelo://app?vid=edd42b2c-2743-4474-a9f8-4e91a843d033"},"vehicle_type_id":"4","last_reported":1725390442,"current_range_meters":19600,"station_id":"","pricing_plan_id":"cebpf4jnsgd1na2vs0mg"},{"bike_id":"d9a9175d-6724-4239-92ce-0740f1dcefc8","system_id":"levelo_inurba_marseille","lat":43.2901,"lon":5.381269,"is_reserved":false,"is_disabled":false,"rental_uris":{"android":"levelo://app?vid=d9a9175d-6724-4239-92ce-0740f1dcefc8","ios":"levelo://app?vid=d9a9175d-6724-4239-92ce-0740f1dcefc8"},"vehicle_type_id":"4","last_reported":1725390442,"current_range_meters":19200,"station_id":"ce4bh4p2rcd13ifvqe1g","pricing_plan_id":"cebpf4jnsgd1na2vs0mg"},{"bike_id":"07b779b2-f981-41aa-bc92-99195fa7587e","system_id":"levelo_inurba_marseille","lat":43.29023,"lon":5.3814,"is_reserved":false,"is_disabled":false,"rental_uris":{"android":"levelo://app?vid=07b779b2-f981-41aa-bc92-99195fa7587e","ios":"levelo://app?vid=07b779b2-f981-41aa-bc92-99195fa7587e"},"vehicle_type_id":"4","last_reported":1725390442,"current_range_meters":0,"station_id":"ce4bh4p2rcd13ifvqe1g","pricing_plan_id":"cebpf4jnsgd1na2vs0mg"},{"bike_id":"8264e6c5-a0d8-48ce-8891-e6f6f41d0cc4","system_id":"levelo_inurba_marseille","lat":43.28856,"lon":5.358371,"is_reserved":false,"is_disabled":false,"rental_uris":{"android":"levelo://app?vid=8264e6c5-a0d8-48ce-8891-e6f6f41d0cc4","ios":"levelo://app?vid=8264e6c5-a0d8-48ce-8891-e6f6f41d0cc4"},"vehicle_type_id":"4","last_reported":1725390442,"current_range_meters":0,"station_id":"ce4bhb12rcd13ifvqem0","pricing_plan_id":"cebpf4jnsgd1na2vs0mg"},{"bike_id":"e2831325-88d7-4954-b256-a1ea6f5cc0e9","system_id":"levelo_inurba_marseille","lat":43.290094,"lon":5.381264,"is_reserved":false,"is_disabled":false,"rental_uris":{"android":"levelo://app?vid=e2831325-88d7-4954-b256-a1ea6f5cc0e9","ios":"levelo://app?vid=e2831325-88d7-4954-b256-a1ea6f5cc0e9"},"vehicle_type_id":"4","last_reported":1725390442,"current_range_meters":400,"station_id":"ce4bh4p2rcd13ifvqe1g","pricing_plan_id":"cebpf4jnsgd1na2vs0mg"},{"bike_id":"dee34804-c04c-4d3b-b666-997840390640","system_id":"levelo_inurba_marseille","lat":43.28856,"lon":5.358371,"is_reserved":false,"is_disabled":false,"rental_uris":{"android":"levelo://app?vid=dee34804-c04c-4d3b-b666-997840390640","ios":"levelo://app?vid=dee34804-c04c-4d3b-b666-997840390640"},"vehicle_type_id":"4","last_reported":1725390442,"current_range_meters":8400,"station_id":"ce4bhb12rcd13ifvqem0","pricing_plan_id":"cebpf4jnsgd1na2vs0mg"},{"bike_id":"6317d8c4-3c12-4638-8fca-2c1182d32f4a","system_id":"levelo_inurba_marseille","lat":43.28856,"lon":5.358371,"is_reserved":false,"is_disabled":false,"rental_uris":{"android":"levelo://app?vid=6317d8c4-3c12-4638-8fca-2c1182d32f4a","ios":"levelo://app?vid=6317d8c4-3c12-4638-8fca-2c1182d32f4a"},"vehicle_type_id":"4","last_reported":1725390442,"current_range_meters":26400,"station_id":"ce4bhb12rcd13ifvqem0","pricing_plan_id":"cebpf4jnsgd1na2vs0mg"},{"bike_id":"558fa12e-693e-462c-af1b-c30d4811f582","system_id":"levelo_inurba_marseille","lat":43.2885,"lon":5.35849,"is_reserved":false,"is_disabled":false,"rental_uris":{"android":"levelo://app?vid=558fa12e-693e-462c-af1b-c30d4811f582","ios":"levelo://app?vid=558fa12e-693e-462c-af1b-c30d4811f582"},"vehicle_type_id":"4","last_reported":1725390442,"current_range_meters":0,"station_id":"ce4bhb12rcd13ifvqem0","pricing_plan_id":"cebpf4jnsgd1na2vs0mg"},{"bike_id":"326ec77d-7343-446a-b52b-513e9d9ef55a","system_id":"levelo_inurba_marseille","lat":43.3126,"lon":5.4017,"is_reserved":false,"is_disabled":false,"rental_uris":{"android":"levelo://app?vid=326ec77d-7343-446a-b52b-513e9d9ef55a","ios":"levelo://app?vid=326ec77d-7343-446a-b52b-513e9d9ef55a"},"vehicle_type_id":"4","last_reported":1725390442,"current_range_meters":0,"station_id":"ce4bh092rcd13ifvqd30","pricing_plan_id":"cebpf4jnsgd1na2vs0mg"},{"bike_id":"56374aed-132c-4d7a-b1ee-350695c52474","system_id":"levelo_inurba_marseille","lat":43.30933,"lon":5.40147,"is_reserved":false,"is_disabled":false,"rental_uris":{"android":"levelo://app?vid=56374aed-132c-4d7a-b1ee-350695c52474","ios":"levelo://app?vid=56374aed-132c-4d7a-b1ee-350695c52474"},"vehicle_type_id":"4","last_reported":1725390442,"current_range_meters":20000,"station_id":"ce4bgvp2rcd13ifvqct0","pricing_plan_id":"cebpf4jnsgd1na2vs0mg"},{"bike_id":"2c567034-35fa-4bde-8d2b-0025244dd920","system_id":"levelo_inurba_marseille","lat":43.33757,"lon":5.37478,"is_reserved":false,"is_disabled":false,"rental_uris":{"android":"levelo://app?vid=2c567034-35fa-4bde-8d2b-0025244dd920","ios":"levelo://app?vid=2c567034-35fa-4bde-8d2b-0025244dd920"},"vehicle_type_id":"4","last_reported":1725390442,"current_range_meters":7600,"station_id":"","pricing_plan_id":"cebpf4jnsgd1na2vs0mg"},{"bike_id":"d3ea3af9-6b11-47d4-8df1-656e45234040","system_id":"levelo_inurba_marseille","lat":43.33761,"lon":5.37475,"is_reserved":false,"is_disabled":false,"rental_uris":{"android":"levelo://app?vid=d3ea3af9-6b11-47d4-8df1-656e45234040","ios":"levelo://app?vid=d3ea3af9-6b11-47d4-8df1-656e45234040"},"vehicle_type_id":"4","last_reported":1725390442,"current_range_meters":26800,"station_id":"","pricing_plan_id":"cebpf4jnsgd1na2vs0mg"},{"bike_id":"b329e76f-5320-4a71-8892-296580dce30d","system_id":"levelo_inurba_marseille","lat":43.337642,"lon":5.374874,"is_reserved":false,"is_disabled":false,"rental_uris":{"android":"levelo://app?vid=b329e76f-5320-4a71-8892-296580dce30d","ios":"levelo://app?vid=b329e76f-5320-4a71-8892-296580dce30d"},"vehicle_type_id":"4","last_reported":1725390442,"current_range_meters":24000,"station_id":"","pricing_plan_id":"cebpf4jnsgd1na2vs0mg"},{"bike_id":"faafe71e-1b94-44fc-a69d-26ac65d5d819","system_id":"levelo_inurba_marseille","lat":43.33768,"lon":5.37488,"is_reserved":false,"is_disabled":false,"rental_uris":{"android":"levelo://app?vid=faafe71e-1b94-44fc-a69d-26ac65d5d819","ios":"levelo://app?vid=faafe71e-1b94-44fc-a69d-26ac65d5d819"},"vehicle_type_id":"4","last_reported":1725390442,"current_range_meters":2400,"station_id":"","pricing_plan_id":"cebpf4jnsgd1na2vs0mg"},{"bike_id":"37400299-fa49-466e-a35c-fea3b52b7cc5","system_id":"levelo_inurba_marseille","lat":43.30641,"lon":5.40103,"is_reserved":false,"is_disabled":false,"rental_uris":{"android":"levelo://app?vid=37400299-fa49-466e-a35c-fea3b52b7cc5","ios":"levelo://app?vid=37400299-fa49-466e-a35c-fea3b52b7cc5"},"vehicle_type_id":"4","last_reported":1725390442,"current_range_meters":14800,"station_id":"ce4bh112rcd13ifvqda0","pricing_plan_id":"cebpf4jnsgd1na2vs0mg"},{"bike_id":"281719cb-7acf-4023-b42e-a39b91262c6f","system_id":"levelo_inurba_marseille","lat":43.33771,"lon":5.37477,"is_reserved":false,"is_disabled":false,"rental_uris":{"android":"levelo://app?vid=281719cb-7acf-4023-b42e-a39b91262c6f","ios":"levelo://app?vid=281719cb-7acf-4023-b42e-a39b91262c6f"},"vehicle_type_id":"4","last_reported":1725390442,"current_range_meters":8800,"station_id":"","pricing_plan_id":"cebpf4jnsgd1na2vs0mg"},{"bike_id":"5934a594-b95c-4f88-a814-66362d879262","system_id":"levelo_inurba_marseille","lat":43.30642,"lon":5.401031,"is_reserved":false,"is_disabled":false,"rental_uris":{"android":"levelo://app?vid=5934a594-b95c-4f88-a814-66362d879262","ios":"levelo://app?vid=5934a594-b95c-4f88-a814-66362d879262"},"vehicle_type_id":"4","last_reported":1725390442,"current_range_meters":20800,"station_id":"ce4bh112rcd13ifvqda0","pricing_plan_id":"cebpf4jnsgd1na2vs0mg"},{"bike_id":"d9ca960e-3c2a-437e-8c12-dcb6a8a9e947","system_id":"levelo_inurba_marseille","lat":43.301117,"lon":5.398795,"is_reserved":false,"is_disabled":false,"rental_uris":{"android":"levelo://app?vid=d9ca960e-3c2a-437e-8c12-dcb6a8a9e947","ios":"levelo://app?vid=d9ca960e-3c2a-437e-8c12-dcb6a8a9e947"},"vehicle_type_id":"4","last_reported":1725390442,"current_range_meters":4400,"station_id":"ce4bh0h2rcd13ifvqd40","pricing_plan_id":"cebpf4jnsgd1na2vs0mg"},{"bike_id":"4eb40bf5-7b83-4e8c-a4da-963c768a8b19","system_id":"levelo_inurba_marseille","lat":43.301117,"lon":5.398795,"is_reserved":false,"is_disabled":false,"rental_uris":{"android":"levelo://app?vid=4eb40bf5-7b83-4e8c-a4da-963c768a8b19","ios":"levelo://app?vid=4eb40bf5-7b83-4e8c-a4da-963c768a8b19"},