{"last_updated":1773098256,"ttl":60,"version":"2.2","data":{"bikes":[{"bike_id":"5ee77820-4a37-4d7a-bd10-81e2e9385bb8","system_id":"levelo_inurba_marseille","lat":43.24171,"lon":5.36411,"is_reserved":false,"is_disabled":false,"rental_uris":{"android":"levelo://app?vid=5ee77820-4a37-4d7a-bd10-81e2e9385bb8","ios":"levelo://app?vid=5ee77820-4a37-4d7a-bd10-81e2e9385bb8"},"vehicle_type_id":"4","last_reported":1773098257,"current_range_meters":11600,"station_id":"cpo36qri1sfpv3e86is0","pricing_plan_id":"cebpf4jnsgd1na2vs0mg"},{"bike_id":"37f47553-44fe-4200-b4ce-5fbf3357e33e","system_id":"levelo_inurba_marseille","lat":43.25872,"lon":5.39916,"is_reserved":false,"is_disabled":false,"rental_uris":{"android":"levelo://app?vid=37f47553-44fe-4200-b4ce-5fbf3357e33e","ios":"levelo://app?vid=37f47553-44fe-4200-b4ce-5fbf3357e33e"},"vehicle_type_id":"4","last_reported":1773098257,"current_range_meters":39200,"station_id":"ce4bhl92rcd13ifvqghg","pricing_plan_id":"cebpf4jnsgd1na2vs0mg"},{"bike_id":"1556fcb0-701d-4a38-8843-12272288966e","system_id":"levelo_inurba_marseille","lat":43.28847,"lon":5.39308,"is_reserved":false,"is_disabled":false,"rental_uris":{"android":"levelo://app?vid=1556fcb0-701d-4a38-8843-12272288966e","ios":"levelo://app?vid=1556fcb0-701d-4a38-8843-12272288966e"},"vehicle_type_id":"4","last_reported":1773098257,"current_range_meters":30400,"station_id":"ce4bh2p2rcd13ifvqdi0","pricing_plan_id":"cebpf4jnsgd1na2vs0mg"},{"bike_id":"cf74c7d1-cbf3-4653-a5af-df7bf0e04bf8","system_id":"levelo_inurba_marseille","lat":43.27997,"lon":5.3999,"is_reserved":false,"is_disabled":false,"rental_uris":{"android":"levelo://app?vid=cf74c7d1-cbf3-4653-a5af-df7bf0e04bf8","ios":"levelo://app?vid=cf74c7d1-cbf3-4653-a5af-df7bf0e04bf8"},"vehicle_type_id":"4","last_reported":1773098257,"current_range_meters":19200,"station_id":"ce4bho92rcd13ifvqh4g","pricing_plan_id":"cebpf4jnsgd1na2vs0mg"},{"bike_id":"43c5028b-7155-46f2-8f26-79b2701a5637","system_id":"levelo_inurba_marseille","lat":43.29575,"lon":5.37516,"is_reserved":false,"is_disabled":false,"rental_uris":{"android":"levelo://app?vid=43c5028b-7155-46f2-8f26-79b2701a5637","ios":"levelo://app?vid=43c5028b-7155-46f2-8f26-79b2701a5637"},"vehicle_type_id":"4","last_reported":1773098257,"current_range_meters":28400,"station_id":"ce4bgh92rcd13ifvqb50","pricing_plan_id":"cebpf4jnsgd1na2vs0mg"},{"bike_id":"13a509ba-9144-400d-9d18-cf861540aefb","system_id":"levelo_inurba_marseille","lat":43.30538,"lon":5.36499,"is_reserved":false,"is_disabled":false,"rental_uris":{"android":"levelo://app?vid=13a509ba-9144-400d-9d18-cf861540aefb","ios":"levelo://app?vid=13a509ba-9144-400d-9d18-cf861540aefb"},"vehicle_type_id":"4","last_reported":1773098257,"current_range_meters":39200,"station_id":"","pricing_plan_id":"cebpf4jnsgd1na2vs0mg"},{"bike_id":"6e11994e-f717-4dc3-9249-3a4d6487a3ac","system_id":"levelo_inurba_marseille","lat":43.28149,"lon":5.42651,"is_reserved":false,"is_disabled":false,"rental_uris":{"android":"levelo://app?vid=6e11994e-f717-4dc3-9249-3a4d6487a3ac","ios":"levelo://app?vid=6e11994e-f717-4dc3-9249-3a4d6487a3ac"},"vehicle_type_id":"4","last_reported":1773098257,"current_range_meters":36800,"station_id":"ce4bhnh2rcd13ifvqgug","pricing_plan_id":"cebpf4jnsgd1na2vs0mg"},{"bike_id":"a790a7f8-403a-440e-8a02-725a676c9442","system_id":"levelo_inurba_marseille","lat":43.30886,"lon":5.36841,"is_reserved":false,"is_disabled":false,"rental_uris":{"android":"levelo://app?vid=a790a7f8-403a-440e-8a02-725a676c9442","ios":"levelo://app?vid=a790a7f8-403a-440e-8a02-725a676c9442"},"vehicle_type_id":"4","last_reported":1773098257,"current_range_meters":37600,"station_id":"ce4bgn92rcd13ifvqbvg","pricing_plan_id":"cebpf4jnsgd1na2vs0mg"},{"bike_id":"c534034f-ea2d-4e8a-a7fd-2647667136b6","system_id":"levelo_inurba_marseille","lat":43.3464,"lon":5.36722,"is_reserved":false,"is_disabled":false,"rental_uris":{"android":"levelo://app?vid=c534034f-ea2d-4e8a-a7fd-2647667136b6","ios":"levelo://app?vid=c534034f-ea2d-4e8a-a7fd-2647667136b6"},"vehicle_type_id":"4","last_reported":1773098257,"current_range_meters":36400,"station_id":"","pricing_plan_id":"cebpf4jnsgd1na2vs0mg"},{"bike_id":"06ed7067-7d5c-44ab-a2d9-a22f16152d6a","system_id":"levelo_inurba_marseille","lat":43.29679,"lon":5.37692,"is_reserved":false,"is_disabled":false,"rental_uris":{"android":"levelo://app?vid=06ed7067-7d5c-44ab-a2d9-a22f16152d6a","ios":"levelo://app?vid=06ed7067-7d5c-44ab-a2d9-a22f16152d6a"},"vehicle_type_id":"4","last_reported":1773098257,"current_range_meters":22000,"station_id":"ce4bgkh2rcd13ifvqbl0","pricing_plan_id":"cebpf4jnsgd1na2vs0mg"},{"bike_id":"30249f37-7174-4966-ad32-ac13d8a2531b","system_id":"levelo_inurba_marseille","lat":43.28477,"lon":5.48394,"is_reserved":false,"is_disabled":false,"rental_uris":{"android":"levelo://app?vid=30249f37-7174-4966-ad32-ac13d8a2531b","ios":"levelo://app?vid=30249f37-7174-4966-ad32-ac13d8a2531b"},"vehicle_type_id":"4","last_reported":1773098257,"current_range_meters":39200,"station_id":"st_d3svhcjqgbts73a3dn0g","pricing_plan_id":"cebpf4jnsgd1na2vs0mg"},{"bike_id":"6706bffe-c9d4-4c65-b96b-ef2be0327550","system_id":"levelo_inurba_marseille","lat":43.31364,"lon":5.38511,"is_reserved":false,"is_disabled":false,"rental_uris":{"android":"levelo://app?vid=6706bffe-c9d4-4c65-b96b-ef2be0327550","ios":"levelo://app?vid=6706bffe-c9d4-4c65-b96b-ef2be0327550"},"vehicle_type_id":"4","last_reported":1773098257,"current_range_meters":38000,"station_id":"ce4bgt92rcd13ifvqcf0","pricing_plan_id":"cebpf4jnsgd1na2vs0mg"},{"bike_id":"7038acda-974f-46e7-aa44-f24a8ef6ea8c","system_id":"levelo_inurba_marseille","lat":43.29594,"lon":5.37544,"is_reserved":false,"is_disabled":false,"rental_uris":{"android":"levelo://app?vid=7038acda-974f-46e7-aa44-f24a8ef6ea8c","ios":"levelo://app?vid=7038acda-974f-46e7-aa44-f24a8ef6ea8c"},"vehicle_type_id":"4","last_reported":1773098257,"current_range_meters":38400,"station_id":"ce4bgh92rcd13ifvqb50","pricing_plan_id":"cebpf4jnsgd1na2vs0mg"},{"bike_id":"fba4a7a5-5ece-4bd1-998c-f114bf613bba","system_id":"levelo_inurba_marseille","lat":43.279905,"lon":5.4001,"is_reserved":false,"is_disabled":false,"rental_uris":{"android":"levelo://app?vid=fba4a7a5-5ece-4bd1-998c-f114bf613bba","ios":"levelo://app?vid=fba4a7a5-5ece-4bd1-998c-f114bf613bba"},"vehicle_type_id":"4","last_reported":1773098257,"current_range_meters":24400,"station_id":"ce4bho92rcd13ifvqh4g","pricing_plan_id":"cebpf4jnsgd1na2vs0mg"},{"bike_id":"55e1e1bc-0959-48ca-ae32-d2622fb5eb7d","system_id":"levelo_inurba_marseille","lat":43.27995,"lon":5.41657,"is_reserved":false,"is_disabled":false,"rental_uris":{"android":"levelo://app?vid=55e1e1bc-0959-48ca-ae32-d2622fb5eb7d","ios":"levelo://app?vid=55e1e1bc-0959-48ca-ae32-d2622fb5eb7d"},"vehicle_type_id":"4","last_reported":1773098257,"current_range_meters":6000,"station_id":"ce4bho12rcd13ifvqh1g","pricing_plan_id":"cebpf4jnsgd1na2vs0mg"},{"bike_id":"933c92cb-fdd0-4ac0-b880-5e7537254ff7","system_id":"levelo_inurba_marseille","lat":43.30609,"lon":5.39356,"is_reserved":false,"is_disabled":false,"rental_uris":{"android":"levelo://app?vid=933c92cb-fdd0-4ac0-b880-5e7537254ff7","ios":"levelo://app?vid=933c92cb-fdd0-4ac0-b880-5e7537254ff7"},"vehicle_type_id":"4","last_reported":1773098257,"current_range_meters":30800,"station_id":"ce4bh0p2rcd13ifvqd80","pricing_plan_id":"cebpf4jnsgd1na2vs0mg"},{"bike_id":"d91f7c39-6f58-4d2b-94ce-7965f79cd4c9","system_id":"levelo_inurba_marseille","lat":43.2981,"lon":5.40433,"is_reserved":false,"is_disabled":false,"rental_uris":{"android":"levelo://app?vid=d91f7c39-6f58-4d2b-94ce-7965f79cd4c9","ios":"levelo://app?vid=d91f7c39-6f58-4d2b-94ce-7965f79cd4c9"},"vehicle_type_id":"4","last_reported":1773098257,"current_range_meters":30400,"station_id":"ce4bh112rcd13ifvqd90","pricing_plan_id":"cebpf4jnsgd1na2vs0mg"},{"bike_id":"592fcae4-924e-4719-bd11-2dc7d58842c2","system_id":"levelo_inurba_marseille","lat":43.28401,"lon":5.37483,"is_reserved":false,"is_disabled":false,"rental_uris":{"android":"levelo://app?vid=592fcae4-924e-4719-bd11-2dc7d58842c2","ios":"levelo://app?vid=592fcae4-924e-4719-bd11-2dc7d58842c2"},"vehicle_type_id":"4","last_reported":1773098257,"current_range_meters":15200,"station_id":"ce4bh412rcd13ifvqds0","pricing_plan_id":"cebpf4jnsgd1na2vs0mg"},{"bike_id":"afcadad4-7338-4a2b-ade0-d14bc5f054b7","system_id":"levelo_inurba_marseille","lat":43.24791,"lon":5.37495,"is_reserved":false,"is_disabled":false,"rental_uris":{"android":"levelo://app?vid=afcadad4-7338-4a2b-ade0-d14bc5f054b7","ios":"levelo://app?vid=afcadad4-7338-4a2b-ade0-d14bc5f054b7"},"vehicle_type_id":"4","last_reported":1773098257,"current_range_meters":37600,"station_id":"ce4bhgh2rcd13ifvqfb0","pricing_plan_id":"cebpf4jnsgd1na2vs0mg"},{"bike_id":"dafe9701-bd03-40ec-9bf0-412bdc2a71bb","system_id":"levelo_inurba_marseille","lat":43.24184,"lon":5.39737,"is_reserved":false,"is_disabled":false,"rental_uris":{"android":"levelo://app?vid=dafe9701-bd03-40ec-9bf0-412bdc2a71bb","ios":"levelo://app?vid=dafe9701-bd03-40ec-9bf0-412bdc2a71bb"},"vehicle_type_id":"4","last_reported":1773098257,"current_range_meters":39200,"station_id":"ce4bhn12rcd13ifvqgpg","pricing_plan_id":"cebpf4jnsgd1na2vs0mg"},{"bike_id":"94a01336-8d01-406a-b455-8a0da0b72637","system_id":"levelo_inurba_marseille","lat":43.30324,"lon":5.40445,"is_reserved":false,"is_disabled":false,"rental_uris":{"android":"levelo://app?vid=94a01336-8d01-406a-b455-8a0da0b72637","ios":"levelo://app?vid=94a01336-8d01-406a-b455-8a0da0b72637"},"vehicle_type_id":"4","last_reported":1773098257,"current_range_meters":39200,"station_id":"ce4bh012rcd13ifvqd10","pricing_plan_id":"cebpf4jnsgd1na2vs0mg"},{"bike_id":"ebe60d70-d332-410f-9dda-5f0f1e26676d","system_id":"levelo_inurba_marseille","lat":43.26065,"lon":5.39392,"is_reserved":false,"is_disabled":false,"rental_uris":{"android":"levelo://app?vid=ebe60d70-d332-410f-9dda-5f0f1e26676d","ios":"levelo://app?vid=ebe60d70-d332-410f-9dda-5f0f1e26676d"},"vehicle_type_id":"4","last_reported":1773098257,"current_range_meters":39200,"station_id":"ce4bhh92rcd13ifvqfj0","pricing_plan_id":"cebpf4jnsgd1na2vs0mg"},{"bike_id":"3aeb43bb-8afc-410f-8a84-85134db41e68","system_id":"levelo_inurba_marseille","lat":43.25729,"lon":5.41105,"is_reserved":false,"is_disabled":false,"rental_uris":{"android":"levelo://app?vid=3aeb43bb-8afc-410f-8a84-85134db41e68","ios":"levelo://app?vid=3aeb43bb-8afc-410f-8a84-85134db41e68"},"vehicle_type_id":"4","last_reported":1773098257,"current_range_meters":32000,"station_id":"ce4bhkp2rcd13ifvqgd0","pricing_plan_id":"cebpf4jnsgd1na2vs0mg"},{"bike_id":"a4bf38d8-affb-4ddc-9f3e-0bd4664037ea","system_id":"levelo_inurba_marseille","lat":43.2378,"lon":5.36655,"is_reserved":false,"is_disabled":false,"rental_uris":{"android":"levelo://app?vid=a4bf38d8-affb-4ddc-9f3e-0bd4664037ea","ios":"levelo://app?vid=a4bf38d8-affb-4ddc-9f3e-0bd4664037ea"},"vehicle_type_id":"4","last_reported":1773098257,"current_range_meters":18800,"station_id":"st_d3nk18o9ro0c73en2l3g","pricing_plan_id":"cebpf4jnsgd1na2vs0mg"},{"bike_id":"5abd440c-ae83-4beb-8283-60dd460ec562","system_id":"levelo_inurba_marseille","lat":43.23192,"lon":5.39999,"is_reserved":false,"is_disabled":false,"rental_uris":{"android":"levelo://app?vid=5abd440c-ae83-4beb-8283-60dd460ec562","ios":"levelo://app?vid=5abd440c-ae83-4beb-8283-60dd460ec562"},"vehicle_type_id":"4","last_reported":1773098257,"current_range_meters":30000,"station_id":"ce4bhn12rcd13ifvqgqg","pricing_plan_id":"cebpf4jnsgd1na2vs0mg"},{"bike_id":"f7545fe2-0a74-4bfb-9a39-8e40af6707f3","system_id":"levelo_inurba_marseille","lat":43.32087,"lon":5.36746,"is_reserved":false,"is_disabled":false,"rental_uris":{"android":"levelo://app?vid=f7545fe2-0a74-4bfb-9a39-8e40af6707f3","ios":"levelo://app?vid=f7545fe2-0a74-4bfb-9a39-8e40af6707f3"},"vehicle_type_id":"4","last_reported":1773098257,"current_range_meters":34800,"station_id":"ce4bhrh2rcd13ifvqhug","pricing_plan_id":"cebpf4jnsgd1na2vs0mg"},{"bike_id":"368567a6-84fa-4a2d-b3cc-e360ef5ac095","system_id":"levelo_inurba_marseille","lat":43.32656,"lon":5.40997,"is_reserved":false,"is_disabled":false,"rental_uris":{"android":"levelo://app?vid=368567a6-84fa-4a2d-b3cc-e360ef5ac095","ios":"levelo://app?vid=368567a6-84fa-4a2d-b3cc-e360ef5ac095"},"vehicle_type_id":"4","last_reported":1773098257,"current_range_meters":39200,"station_id":"ce4bhpp2rcd13ifvqhgg","pricing_plan_id":"cebpf4jnsgd1na2vs0mg"},{"bike_id":"8d554946-c11f-49e5-a6ce-44189672c4cc","system_id":"levelo_inurba_marseille","lat":43.26209,"lon":5.37467,"is_reserved":false,"is_disabled":false,"rental_uris":{"android":"levelo://app?vid=8d554946-c11f-49e5-a6ce-44189672c4cc","ios":"levelo://app?vid=8d554946-c11f-49e5-a6ce-44189672c4cc"},"vehicle_type_id":"4","last_reported":1773098257,"current_range_meters":21600,"station_id":"ce4bhgp2rcd13ifvqfc0","pricing_plan_id":"cebpf4jnsgd1na2vs0mg"},{"bike_id":"42ecd24a-1c85-423d-8c6f-6815ba7e4e5b","system_id":"levelo_inurba_marseille","lat":43.28702,"lon":5.37432,"is_reserved":false,"is_disabled":false,"rental_uris":{"android":"levelo://app?vid=42ecd24a-1c85-423d-8c6f-6815ba7e4e5b","ios":"levelo://app?vid=42ecd24a-1c85-423d-8c6f-6815ba7e4e5b"},"vehicle_type_id":"4","last_reported":1773098257,"current_range_meters":30400,"station_id":"ce4bh3p2rcd13ifvqdq0","pricing_plan_id":"cebpf4jnsgd1na2vs0mg"},{"bike_id":"07ee1948-4847-4e16-879b-7899d2626ea1","system_id":"levelo_inurba_marseille","lat":43.30407,"lon":5.41292,"is_reserved":false,"is_disabled":false,"rental_uris":{"android":"levelo://app?vid=07ee1948-4847-4e16-879b-7899d2626ea1","ios":"levelo://app?vid=07ee1948-4847-4e16-879b-7899d2626ea1"},"vehicle_type_id":"4","last_reported":1773098257,"current_range_meters":11600,"station_id":"ce4bhop2rcd13ifvqh8g","pricing_plan_id":"cebpf4jnsgd1na2vs0mg"},{"bike_id":"5e3e07bd-8cc1-4fad-bff9-56785bdf721b","system_id":"levelo_inurba_marseille","lat":43.22563,"lon":5.41623,"is_reserved":false,"is_disabled":false,"rental_uris":{"android":"levelo://app?vid=5e3e07bd-8cc1-4fad-bff9-56785bdf721b","ios":"levelo://app?vid=5e3e07bd-8cc1-4fad-bff9-56785bdf721b"},"vehicle_type_id":"4","last_reported":1773098257,"current_range_meters":12400,"station_id":"st_d2o4gvlbi1j2169b742g","pricing_plan_id":"cebpf4jnsgd1na2vs0mg"},{"bike_id":"73a40c01-08d2-45ba-a964-c053c2fe22c7","system_id":"levelo_inurba_marseille","lat":43.26965,"lon":5.39004,"is_reserved":false,"is_disabled":true,"rental_uris":{"android":"levelo://app?vid=73a40c01-08d2-45ba-a964-c053c2fe22c7","ios":"levelo://app?vid=73a40c01-08d2-45ba-a964-c053c2fe22c7"},"vehicle_type_id":"4","last_reported":1773098257,"current_range_meters":6400,"station_id":"ce4bhhh2rcd13ifvqfl0","pricing_plan_id":"cebpf4jnsgd1na2vs0mg"},{"bike_id":"0861ab24-aa6c-4226-8d32-6a97e5d5e03e","system_id":"levelo_inurba_marseille","lat":43.24187,"lon":5.39734,"is_reserved":false,"is_disabled":false,"rental_uris":{"android":"levelo://app?vid=0861ab24-aa6c-4226-8d32-6a97e5d5e03e","ios":"levelo://app?vid=0861ab24-aa6c-4226-8d32-6a97e5d5e03e"},"vehicle_type_id":"4","last_reported":1773098257,"current_range_meters":39200,"station_id":"ce4bhn12rcd13ifvqgpg","pricing_plan_id":"cebpf4jnsgd1na2vs0mg"},{"bike_id":"de4c5b78-4e3f-4343-ba5e-6988894a7b57","system_id":"levelo_inurba_marseille","lat":43.22929,"lon":5.35382,"is_reserved":false,"is_disabled":false,"rental_uris":{"android":"levelo://app?vid=de4c5b78-4e3f-4343-ba5e-6988894a7b57","ios":"levelo://app?vid=de4c5b78-4e3f-4343-ba5e-6988894a7b57"},"vehicle_type_id":"4","last_reported":1773098257,"current_range_meters":28000,"station_id":"cpo3532slgdg3j2ikp40","pricing_plan_id":"cebpf4jnsgd1na2vs0mg"},{"bike_id":"5d741309-3c00-42cf-bd85-42ba973faf6b","system_id":"levelo_inurba_marseille","lat":43.29038,"lon":5.38647,"is_reserved":false,"is_disabled":false,"rental_uris":{"android":"levelo://app?vid=5d741309-3c00-42cf-bd85-42ba973faf6b","ios":"levelo://app?vid=5d741309-3c00-42cf-bd85-42ba973faf6b"},"vehicle_type_id":"4","last_reported":1773098257,"current_range_meters":15200,"station_id":"ce4bh4p2rcd13ifvqe0g","pricing_plan_id":"cebpf4jnsgd1na2vs0mg"},{"bike_id":"6a6411e1-c7c6-4bdc-a546-7e1966148ad6","system_id":"levelo_inurba_marseille","lat":43.24069,"lon":5.37769,"is_reserved":false,"is_disabled":false,"rental_uris":{"android":"levelo://app?vid=6a6411e1-c7c6-4bdc-a546-7e1966148ad6","ios":"levelo://app?vid=6a6411e1-c7c6-4bdc-a546-7e1966148ad6"},"vehicle_type_id":"4","last_reported":1773098257,"current_range_meters":38400,"station_id":"ce4bhnp2rcd13ifvqgvg","pricing_plan_id":"cebpf4jnsgd1na2vs0mg"},{"bike_id":"238229bf-1338-47e4-a7d4-20c0708e6a02","system_id":"levelo_inurba_marseille","lat":43.30881,"lon":5.39659,"is_reserved":false,"is_disabled":false,"rental_uris":{"android":"levelo://app?vid=238229bf-1338-47e4-a7d4-20c0708e6a02","ios":"levelo://app?vid=238229bf-1338-47e4-a7d4-20c0708e6a02"},"vehicle_type_id":"4","last_reported":1773098257,"current_range_meters":39200,"station_id":"ce4bh012rcd13ifvqcv0","pricing_plan_id":"cebpf4jnsgd1na2vs0mg"},{"bike_id":"a0cc7bf7-72c5-43a2-9598-05fd1dcbc255","system_id":"levelo_inurba_marseille","lat":43.29794,"lon":5.40415,"is_reserved":false,"is_disabled":false,"rental_uris":{"android":"levelo://app?vid=a0cc7bf7-72c5-43a2-9598-05fd1dcbc255","ios":"levelo://app?vid=a0cc7bf7-72c5-43a2-9598-05fd1dcbc255"},"vehicle_type_id":"4","last_reported":1773098257,"current_range_meters":35200,"station_id":"ce4bh112rcd13ifvqd90","pricing_plan_id":"cebpf4jnsgd1na2vs0mg"},{"bike_id":"ec2495ad-1e47-48f7-95ca-0c4617e24ce8","system_id":"levelo_inurba_marseille","lat":43.29934,"lon":5.37444,"is_reserved":false,"is_disabled":false,"rental_uris":{"android":"levelo://app?vid=ec2495ad-1e47-48f7-95ca-0c4617e24ce8","ios":"levelo://app?vid=ec2495ad-1e47-48f7-95ca-0c4617e24ce8"},"vehicle_type_id":"4","last_reported":1773098257,"current_range_meters":39200,"station_id":"ce4bgjh2rcd13ifvqbg0","pricing_plan_id":"cebpf4jnsgd1na2vs0mg"},{"bike_id":"3a3509cf-89a0-41af-9e28-1407323d2989","system_id":"levelo_inurba_marseille","lat":43.32463,"lon":5.36599,"is_reserved":false,"is_disabled":false,"rental_uris":{"android":"levelo://app?vid=3a3509cf-89a0-41af-9e28-1407323d2989","ios":"levelo://app?vid=3a3509cf-89a0-41af-9e28-1407323d2989"},"vehicle_type_id":"4","last_reported":1773098257,"current_range_meters":12800,"station_id":"ce4bhs12rcd13ifvqhvg","pricing_plan_id":"cebpf4jnsgd1na2vs0mg"},{"bike_id":"cf1b857c-922b-48b2-b9cc-69b81eb95856","system_id":"levelo_inurba_marseille","lat":43.30327,"lon":5.36921,"is_reserved":false,"is_disabled":false,"rental_uris":{"android":"levelo://app?vid=cf1b857c-922b-48b2-b9cc-69b81eb95856","ios":"levelo://app?vid=cf1b857c-922b-48b2-b9cc-69b81eb95856"},"vehicle_type_id":"4","last_reported":1773098257,"current_range_meters":35200,"station_id":"ce4bgqh2rcd13ifvqc5g","pricing_plan_id":"cebpf4jnsgd1na2vs0mg"},{"bike_id":"4a60f387-2da1-494e-94d1-63b8eab36c22","system_id":"levelo_inurba_marseille","lat":43.24835,"lon":5.3746,"is_reserved":false,"is_disabled":false,"rental_uris":{"android":"levelo://app?vid=4a60f387-2da1-494e-94d1-63b8eab36c22","ios":"levelo://app?vid=4a60f387-2da1-494e-94d1-63b8eab36c22"},"vehicle_type_id":"4","last_reported":1773098257,"current_range_meters":38400,"station_id":"","pricing_plan_id":"cebpf4jnsgd1na2vs0mg"},{"bike_id":"79dbe0b3-ad4a-4667-b806-b7a7fe6197aa","system_id":"levelo_inurba_marseille","lat":43.28272,"lon":5.43353,"is_reserved":false,"is_disabled":false,"rental_uris":{"android":"levelo://app?vid=79dbe0b3-ad4a-4667-b806-b7a7fe6197aa","ios":"levelo://app?vid=79dbe0b3-ad4a-4667-b806-b7a7fe6197aa"},"vehicle_type_id":"4","last_reported":1773098257,"current_range_meters":24000,"station_id":"","pricing_plan_id":"cebpf4jnsgd1na2vs0mg"},{"bike_id":"a0dafef1-0dad-45aa-a3ca-442121691bfa","system_id":"levelo_inurba_marseille","lat":43.29269,"lon":5.40122,"is_reserved":false,"is_disabled":false,"rental_uris":{"android":"levelo://app?vid=a0dafef1-0dad-45aa-a3ca-442121691bfa","ios":"levelo://app?vid=a0dafef1-0dad-45aa-a3ca-442121691bfa"},"vehicle_type_id":"4","last_reported":1773098257,"current_range_meters":38000,"station_id":"ce4bh312rcd13ifvqdk0","pricing_plan_id":"cebpf4jnsgd1na2vs0mg"},{"bike_id":"e3474984-c0e0-4a50-8440-18b2e0cd94ef","system_id":"levelo_inurba_marseille","lat":43.29531,"lon":5.39407,"is_reserved":false,"is_disabled":false,"rental_uris":{"android":"levelo://app?vid=e3474984-c0e0-4a50-8440-18b2e0cd94ef","ios":"levelo://app?vid=e3474984-c0e0-4a50-8440-18b2e0cd94ef"},"vehicle_type_id":"4","last_reported":1773098257,"current_range_meters":39200,"station_id":"ce4bh292rcd13ifvqdf0","pricing_plan_id":"cebpf4jnsgd1na2vs0mg"},{"bike_id":"2e9b471b-efaf-489f-8a3a-3c37e41ddb69","system_id":"levelo_inurba_marseille","lat":43.24627,"lon":5.38928,"is_reserved":false,"is_disabled":false,"rental_uris":{"android":"levelo://app?vid=2e9b471b-efaf-489f-8a3a-3c37e41ddb69","ios":"levelo://app?vid=2e9b471b-efaf-489f-8a3a-3c37e41ddb69"},"vehicle_type_id":"4","last_reported":1773098257,"current_range_meters":38400,"station_id":"ce4bhg12rcd13ifvqf60","pricing_plan_id":"cebpf4jnsgd1na2vs0mg"},{"bike_id":"0e6d5a6c-713c-43ac-8e35-c197b4acafb5","system_id":"levelo_inurba_marseille","lat":43.30363,"lon":5.41923,"is_reserved":false,"is_disabled":false,"rental_uris":{"android":"levelo://app?vid=0e6d5a6c-713c-43ac-8e35-c197b4acafb5","ios":"levelo://app?vid=0e6d5a6c-713c-43ac-8e35-c197b4acafb5"},"vehicle_type_id":"4","last_reported":1773098257,"current_range_meters":33200,"station_id":"ce4bhop2rcd13ifvqh7g","pricing_plan_id":"cebpf4jnsgd1na2vs0mg"},{"bike_id":"218c934a-746d-4b12-8481-e9067bc26d31","system_id":"levelo_inurba_marseille","lat":43.23784,"lon":5.36616,"is_reserved":false,"is_disabled":false,"rental_uris":{"android":"levelo://app?vid=218c934a-746d-4b12-8481-e9067bc26d31","ios":"levelo://app?vid=218c934a-746d-4b12-8481-e9067bc26d31"},"vehicle_type_id":"4","last_reported":1773098257,"current_range_meters":19200,"station_id":"st_d3nk18o9ro0c73en2l3g","pricing_plan_id":"cebpf4jnsgd1na2vs0mg"},{"bike_id":"5dfc9c37-d0f9-4aab-8a54-a8e005f3dfc2","system_id":"levelo_inurba_marseille","lat":43.30134,"lon":5.39878,"is_reserved":false,"is_disabled":false,"rental_uris":{"android":"levelo://app?vid=5dfc9c37-d0f9-4aab-8a54-a8e005f3dfc2","ios":"levelo://app?vid=5dfc9c37-d0f9-4aab-8a54-a8e005f3dfc2"},"vehicle_type_id":"4","last_reported":1773098257,"current_range_meters":24000,"station_id":"ce4bh0h2rcd13ifvqd40","pricing_plan_id":"cebpf4jnsgd1na2vs0mg"},{"bike_id":"378f6fe9-3d99-4463-8570-8afc08d8eea9","system_id":"levelo_inurba_marseille","lat":43.30776,"lon":5.37713,"is_reserved":false,"is_disabled":false,"rental_uris":{"android":"levelo://app?vid=378f6fe9-3d99-4463-8570-8afc08d8eea9","ios":"levelo://app?vid=378f6fe9-3d99-4463-8570-8afc08d8eea9"},"vehicle_type_id":"4","last_reported":1773098257,"current_range_meters":24800,"station_id":"","pricing_plan_id":"cebpf4jnsgd1na2vs0mg"},{"bike_id":"8002b181-0633-4545-8f56-231e34334446","system_id":"levelo_inurba_marseille","lat":43.29515,"lon":5.38528,"is_reserved":false,"is_disabled":false,"rental_uris":{"android":"levelo://app?vid=8002b181-0633-4545-8f56-231e34334446","ios":"levelo://app?vid=8002b181-0633-4545-8f56-231e34334446"},"vehicle_type_id":"4","last_reported":1773098257,"current_range_meters":38400,"station_id":"ce4bgih2rcd13ifvqba0","pricing_plan_id":"cebpf4jnsgd1na2vs0mg"},{"bike_id":"1e816aea-061f-4553-b949-ee81043239d7","system_id":"levelo_inurba_marseille","lat":43.30255,"lon":5.40077,"is_reserved":false,"is_disabled":false,"rental_uris":{"android":"levelo://app?vid=1e816aea-061f-4553-b949-ee81043239d7","ios":"levelo://app?vid=1e816aea-061f-4553-b949-ee81043239d7"},"vehicle_type_id":"4","last_reported":1773098257,"current_range_meters":24400,"station_id":"ce4bgvh2rcd13ifvqcs0","pricing_plan_id":"cebpf4jnsgd1na2vs0mg"},{"bike_id":"af2ec6a6-eb8d-4428-827d-c793a45b4b25","system_id":"levelo_inurba_marseille","lat":43.26195,"lon":5.37451,"is_reserved":false,"is_disabled":false,"rental_uris":{"android":"levelo://app?vid=af2ec6a6-eb8d-4428-827d-c793a45b4b25","ios":"levelo://app?vid=af2ec6a6-eb8d-4428-827d-c793a45b4b25"},"vehicle_type_id":"4","last_reported":1773098257,"current_range_meters":22000,"station_id":"ce4bhgp2rcd13ifvqfc0","pricing_plan_id":"cebpf4jnsgd1na2vs0mg"},{"bike_id":"b96fccfe-8174-44a2-a5b1-3ffce2d0922a","system_id":"levelo_inurba_marseille","lat":43.28846,"lon":5.35871,"is_reserved":false,"is_disabled":false,"rental_uris":{"android":"levelo://app?vid=b96fccfe-8174-44a2-a5b1-3ffce2d0922a","ios":"levelo://app?vid=b96fccfe-8174-44a2-a5b1-3ffce2d0922a"},"vehicle_type_id":"4","last_reported":1773098257,"current_range_meters":39200,"station_id":"ce4bhb12rcd13ifvqem0","pricing_plan_id":"cebpf4jnsgd1na2vs0mg"},{"bike_id":"8e3fab13-9479-4d2e-a71b-ef568553b996","system_id":"levelo_inurba_marseille","lat":43.29305,"lon":5.37155,"is_reserved":false,"is_disabled":false,"rental_uris":{"android":"levelo://app?vid=8e3fab13-9479-4d2e-a71b-ef568553b996","ios":"levelo://app?vid=8e3fab13-9479-4d2e-a71b-ef568553b996"},"vehicle_type_id":"4","last_reported":1773098257,"current_range_meters":38000,"station_id":"ce4bgh92rcd13ifvqb40","pricing_plan_id":"cebpf4jnsgd1na2vs0mg"},{"bike_id":"93d1db1a-bf75-4b84-b65a-350ea3a3a404","system_id":"levelo_inurba_marseille","lat":43.2954,"lon":5.38546,"is_reserved":false,"is_disabled":false,"rental_uris":{"android":"levelo://app?vid=93d1db1a-bf75-4b84-b65a-350ea3a3a404","ios":"levelo://app?vid=93d1db1a-bf75-4b84-b65a-350ea3a3a404"},"vehicle_type_id":"4","last_reported":1773098257,"current_range_meters":25600,"station_id":"ce4bgih2rcd13ifvqba0","pricing_plan_id":"cebpf4jnsgd1na2vs0mg"},{"bike_id":"8e354d5c-6f89-4b4f-accb-7de2dfc5df08","system_id":"levelo_inurba_marseille","lat":43.29552,"lon":5.42283,"is_reserved":false,"is_disabled":false,"rental_uris":{"android":"levelo://app?vid=8e354d5c-6f89-4b4f-accb-7de2dfc5df08","ios":"levelo://app?vid=8e354d5c-6f89-4b4f-accb-7de2dfc5df08"},"vehicle_type_id":"4","last_reported":1773098257,"current_range_meters":39200,"station_id":"ce4bhph2rcd13ifvqhdg","pricing_plan_id":"cebpf4jnsgd1na2vs0mg"},{"bike_id":"52848e7a-9586-4c64-8fdd-ba1ea75b8ae3","system_id":"levelo_inurba_marseille","lat":43.28143,"lon":5.42647,"is_reserved":false,"is_disabled":false,"rental_uris":{"android":"levelo://app?vid=52848e7a-9586-4c64-8fdd-ba1ea75b8ae3","ios":"levelo://app?vid=52848e7a-9586-4c64-8fdd-ba1ea75b8ae3"},"vehicle_type_id":"4","last_reported":1773098257,"current_range_meters":24800,"station_id":"ce4bhnh2rcd13ifvqgug","pricing_plan_id":"cebpf4jnsgd1na2vs0mg"},{"bike_id":"fc7f9449-826c-412d-b944-89cebcb07dce","system_id":"levelo_inurba_marseille","lat":43.29593,"lon":5.3752,"is_reserved":false,"is_disabled":false,"rental_uris":{"android":"levelo://app?vid=fc7f9449-826c-412d-b944-89cebcb07dce","ios":"levelo://app?vid=fc7f9449-826c-412d-b944-89cebcb07dce"},"vehicle_type_id":"4","last_reported":1773098257,"current_range_meters":27600,"station_id":"ce4bgh92rcd13ifvqb50","pricing_plan_id":"cebpf4jnsgd1na2vs0mg"},{"bike_id":"1ade23f7-dffc-408a-8958-18cef8954cc8","system_id":"levelo_inurba_marseille","lat":43.28538,"lon":5.44118,"is_reserved":false,"is_disabled":false,"rental_uris":{"android":"levelo://app?vid=1ade23f7-dffc-408a-8958-18cef8954cc8","ios":"levelo://app?vid=1ade23f7-dffc-408a-8958-18cef8954cc8"},"vehicle_type_id":"4","last_reported":1773098257,"current_range_meters":11200,"station_id":"st_d3j3df2ikq2c7380ej80","pricing_plan_id":"cebpf4jnsgd1na2vs0mg"},{"bike_id":"645db37d-48b2-4394-82e7-41b7bf8ea40f","system_id":"levelo_inurba_marseille","lat":43.2954,"lon":5.39034,"is_reserved":false,"is_disabled":false,"rental_uris":{"android":"levelo://app?vid=645db37d-48b2-4394-82e7-41b7bf8ea40f","ios":"levelo://app?vid=645db37d-48b2-4394-82e7-41b7bf8ea40f"},"vehicle_type_id":"4","last_reported":1773098257,"current_range_meters":7200,"station_id":"ce4bh3p2rcd13ifvqdp0","pricing_plan_id":"cebpf4jnsgd1na2vs0mg"},{"bike_id":"d28a1c56-1da8-4e27-bf2f-0321512b4001","system_id":"levelo_inurba_marseille","lat":43.24084,"lon":5.3777,"is_reserved":false,"is_disabled":false,"rental_uris":{"android":"levelo://app?vid=d28a1c56-1da8-4e27-bf2f-0321512b4001","ios":"levelo://app?vid=d28a1c56-1da8-4e27-bf2f-0321512b4001"},"vehicle_type_id":"4","last_reported":1773098257,"current_range_meters":39200,"station_id":"ce4bhnp2rcd13ifvqgvg","pricing_plan_id":"cebpf4jnsgd1na2vs0mg"},{"bike_id":"7c8645b7-fc53-418c-a6b6-5a52c7ad0dbf","system_id":"levelo_inurba_marseille","lat":43.32127,"lon":5.36776,"is_reserved":false,"is_disabled":false,"rental_uris":{"android":"levelo://app?vid=7c8645b7-fc53-418c-a6b6-5a52c7ad0dbf","ios":"levelo://app?vid=7c8645b7-fc53-418c-a6b6-5a52c7ad0dbf"},"vehicle_type_id":"4","last_reported":1773098257,"current_range_meters":28400,"station_id":"ce4bhrh2rcd13ifvqhug","pricing_plan_id":"cebpf4jnsgd1na2vs0mg"},{"bike_id":"7d2fa334-cbef-41e4-aac8-73c0cbb1c6f1","system_id":"levelo_inurba_marseille","lat":43.30207,"lon":5.39438,"is_reserved":false,"is_disabled":false,"rental_uris":{"android":"levelo://app?vid=7d2fa334-cbef-41e4-aac8-73c0cbb1c6f1","ios":"levelo://app?vid=7d2fa334-cbef-41e4-aac8-73c0cbb1c6f1"},"vehicle_type_id":"4","last_reported":1773098257,"current_range_meters":31200,"station_id":"ce4bh0p2rcd13ifvqd70","pricing_plan_id":"cebpf4jnsgd1na2vs0mg"},{"bike_id":"cc7bc750-b2bc-4e04-8c77-b17e2e3d1d2a","system_id":"levelo_inurba_marseille","lat":43.29875,"lon":5.3971,"is_reserved":false,"is_disabled":false,"rental_uris":{"android":"levelo://app?vid=cc7bc750-b2bc-4e04-8c77-b17e2e3d1d2a","ios":"levelo://app?vid=cc7bc750-b2bc-4e04-8c77-b17e2e3d1d2a"},"vehicle_type_id":"4","last_reported":1773098257,"current_range_meters":39200,"station_id":"ce4bh0h2rcd13ifvqd50","pricing_plan_id":"cebpf4jnsgd1na2vs0mg"},{"bike_id":"2f0f7511-6847-46aa-985f-1cc7f900ccc2","system_id":"levelo_inurba_marseille","lat":43.29034,"lon":5.35609,"is_reserved":false,"is_disabled":false,"rental_uris":{"android":"levelo://app?vid=2f0f7511-6847-46aa-985f-1cc7f900ccc2","ios":"levelo://app?vid=2f0f7511-6847-46aa-985f-1cc7f900ccc2"},"vehicle_type_id":"4","last_reported":1773098257,"current_range_meters":38800,"station_id":"ce4bhb92rcd13ifvqen0","pricing_plan_id":"cebpf4jnsgd1na2vs0mg"},{"bike_id":"aab543b9-5798-46e6-b0ed-0c4277570b55","system_id":"levelo_inurba_marseille","lat":43.32311,"lon":5.37565,"is_reserved":false,"is_disabled":false,"rental_uris":{"android":"levelo://app?vid=aab543b9-5798-46e6-b0ed-0c4277570b55","ios":"levelo://app?vid=aab543b9-5798-46e6-b0ed-0c4277570b55"},"vehicle_type_id":"4","last_reported":1773098257,"current_range_meters":30400,"station_id":"","pricing_plan_id":"cebpf4jnsgd1na2vs0mg"},{"bike_id":"6f36c9ae-5761-4bfd-b9be-18de1c2bab9b","system_id":"levelo_inurba_marseille","lat":43.29528,"lon":5.39045,"is_reserved":false,"is_disabled":false,"rental_uris":{"android":"levelo://app?vid=6f36c9ae-5761-4bfd-b9be-18de1c2bab9b","ios":"levelo://app?vid=6f36c9ae-5761-4bfd-b9be-18de1c2bab9b"},"vehicle_type_id":"4","last_reported":1773098257,"current_range_meters":27600,"station_id":"ce4bh3p2rcd13ifvqdp0","pricing_plan_id":"cebpf4jnsgd1na2vs0mg"},{"bike_id":"60f668d5-3f63-4043-beaf-019fd6583e2e","system_id":"levelo_inurba_marseille","lat":43.29033,"lon":5.37564,"is_reserved":false,"is_disabled":false,"rental_uris":{"android":"levelo://app?vid=60f668d5-3f63-4043-beaf-019fd6583e2e","ios":"levelo://app?vid=60f668d5-3f63-4043-beaf-019fd6583e2e"},"vehicle_type_id":"4","last_reported":1773098257,"current_range_meters":39200,"station_id":"ce4bh692rcd13ifvqe90","pricing_plan_id":"cebpf4jnsgd1na2vs0mg"},{"bike_id":"d4d7a40b-02dc-436d-87aa-bc2e2c0efa5c","system_id":"levelo_inurba_marseille","lat":43.23197,"lon":5.35565,"is_reserved":false,"is_disabled":false,"rental_uris":{"android":"levelo://app?vid=d4d7a40b-02dc-436d-87aa-bc2e2c0efa5c","ios":"levelo://app?vid=d4d7a40b-02dc-436d-87aa-bc2e2c0efa5c"},"vehicle_type_id":"4","last_reported":1773098257,"current_range_meters":38400,"station_id":"ce4bhu92rcd13ifvqi70","pricing_plan_id":"cebpf4jnsgd1na2vs0mg"},{"bike_id":"d6d38b0c-11e4-4cd6-819c-f4919cd5a099","system_id":"levelo_inurba_marseille","lat":43.24817,"lon":5.37461,"is_reserved":false,"is_disabled":false,"rental_uris":{"android":"levelo://app?vid=d6d38b0c-11e4-4cd6-819c-f4919cd5a099","ios":"levelo://app?vid=d6d38b0c-11e4-4cd6-819c-f4919cd5a099"},"vehicle_type_id":"4","last_reported":1773098257,"current_range_meters":39200,"station_id":"ce4bhgh2rcd13ifvqfb0","pricing_plan_id":"cebpf4jnsgd1na2vs0mg"},{"bike_id":"7f257108-f6ee-457b-b48f-03a4476cb0e1","system_id":"levelo_inurba_marseille","lat":43.25002,"lon":5.38912,"is_reserved":false,"is_disabled":false,"rental_uris":{"android":"levelo://app?vid=7f257108-f6ee-457b-b48f-03a4476cb0e1","ios":"levelo://app?vid=7f257108-f6ee-457b-b48f-03a4476cb0e1"},"vehicle_type_id":"4","last_reported":1773098257,"current_range_meters":24800,"station_id":"ce4bhgp2rcd13ifvqfd0","pricing_plan_id":"cebpf4jnsgd1na2vs0mg"},{"bike_id":"31ff3dee-49ff-47c6-8878-b351d67d855d","system_id":"levelo_inurba_marseille","lat":43.28666,"lon":5.36353,"is_reserved":false,"is_disabled":false,"rental_uris":{"android":"levelo://app?vid=31ff3dee-49ff-47c6-8878-b351d67d855d","ios":"levelo://app?vid=31ff3dee-49ff-47c6-8878-b351d67d855d"},"vehicle_type_id":"4","last_reported":1773098257,"current_range_meters":39200,"station_id":"ce4bhah2rcd13ifvqej0","pricing_plan_id":"cebpf4jnsgd1na2vs0mg"},{"bike_id":"cfe07db8-c00a-4624-a404-510906d366cd","system_id":"levelo_inurba_marseille","lat":43.28413,"lon":5.37541,"is_reserved":false,"is_disabled":false,"rental_uris":{"android":"levelo://app?vid=cfe07db8-c00a-4624-a404-510906d366cd","ios":"levelo://app?vid=cfe07db8-c00a-4624-a404-510906d366cd"},"vehicle_type_id":"4","last_reported":1773098257,"current_range_meters":38000,"station_id":"ce4bh412rcd13ifvqds0","pricing_plan_id":"cebpf4jnsgd1na2vs0mg"},{"bike_id":"6b68d697-180c-4380-ab4f-1a8c04ec9ca9","system_id":"levelo_inurba_marseille","lat":43.32114,"lon":5.36762,"is_reserved":false,"is_disabled":false,"rental_uris":{"android":"levelo://app?vid=6b68d697-180c-4380-ab4f-1a8c04ec9ca9","ios":"levelo://app?vid=6b68d697-180c-4380-ab4f-1a8c04ec9ca9"},"vehicle_type_id":"4","last_reported":1773098257,"current_range_meters":8800,"station_id":"ce4bhrh2rcd13ifvqhug","pricing_plan_id":"cebpf4jnsgd1na2vs0mg"},{"bike_id":"60b62697-5af7-442f-a7bf-6e165a75642b","system_id":"levelo_inurba_marseille","lat":43.32029,"lon":5.41564,"is_reserved":false,"is_disabled":false,"rental_uris":{"android":"levelo://app?vid=60b62697-5af7-442f-a7bf-6e165a75642b","ios":"levelo://app?vid=60b62697-5af7-442f-a7bf-6e165a75642b"},"vehicle_type_id":"4","last_reported":1773098257,"current_range_meters":33600,"station_id":"ce4bhq92rcd13ifvqhkg","pricing_plan_id":"cebpf4jnsgd1na2vs0mg"},{"bike_id":"fd5c8f77-e408-469b-8c8e-d2882e9d3b6c","system_id":"levelo_inurba_marseille","lat":43.29727,"lon":5.41059,"is_reserved":false,"is_disabled":false,"rental_uris":{"android":"levelo://app?vid=fd5c8f77-e408-469b-8c8e-d2882e9d3b6c","ios":"levelo://app?vid=fd5c8f77-e408-469b-8c8e-d2882e9d3b6c"},"vehicle_type_id":"4","last_reported":1773098257,"current_range_meters":36000,"station_id":"","pricing_plan_id":"cebpf4jnsgd1na2vs0mg"},{"bike_id":"aa3cc2fd-8976-4d5d-9fcf-e0b554cdc517","system_id":"levelo_inurba_marseille","lat":43.23962,"lon":5.36638,"is_reserved":false,"is_disabled":false,"rental_uris":{"android":"levelo://app?vid=aa3cc2fd-8976-4d5d-9fcf-e0b554cdc517","ios":"levelo://app?vid=aa3cc2fd-8976-4d5d-9fcf-e0b554cdc517"},"vehicle_type_id":"4","last_reported":1773098257,"current_range_meters":39200,"station_id":"ce4bhi12rcd13ifvqfp0","pricing_plan_id":"cebpf4jnsgd1na2vs0mg"},{"bike_id":"6eb3a516-5037-4cd8-b423-823c6ac450ad","system_id":"levelo_inurba_marseille","lat":43.31071,"lon":5.42459,"is_reserved":false,"is_disabled":false,"rental_uris":{"android":"levelo://app?vid=6eb3a516-5037-4cd8-b423-823c6ac450ad","ios":"levelo://app?vid=6eb3a516-5037-4cd8-b423-823c6ac450ad"},"vehicle_type_id":"4","last_reported":1773098257,"current_range_meters":36000,"station_id":"ce4bhp92rcd13ifvqhag","pricing_plan_id":"cebpf4jnsgd1na2vs0mg"},{"bike_id":"3a0ec3ad-578a-427d-aa8e-f4f633556a1d","system_id":"levelo_inurba_marseille","lat":43.31494,"lon":5.37319,"is_reserved":false,"is_disabled":false,"rental_uris":{"android":"levelo://app?vid=3a0ec3ad-578a-427d-aa8e-f4f633556a1d","ios":"levelo://app?vid=3a0ec3ad-578a-427d-aa8e-f4f633556a1d"},"vehicle_type_id":"4","last_reported":1773098257,"current_range_meters":38400,"station_id":"ce4bgt12rcd13ifvqcd0","pricing_plan_id":"cebpf4jnsgd1na2vs0mg"},{"bike_id":"64775f4e-5ae6-4195-b7e1-2fa38f8089e5","system_id":"levelo_inurba_marseille","lat":43.30779,"lon":5.37652,"is_reserved":false,"is_disabled":true,"rental_uris":{"android":"levelo://app?vid=64775f4e-5ae6-4195-b7e1-2fa38f8089e5","ios":"levelo://app?vid=64775f4e-5ae6-4195-b7e1-2fa38f8089e5"},"vehicle_type_id":"4","last_reported":1773098257,"current_range_meters":17600,"station_id":"ce4bgv92rcd13ifvqcq0","pricing_plan_id":"cebpf4jnsgd1na2vs0mg"},{"bike_id":"d91261ef-a37e-4836-91cf-90cd7ac29f09","system_id":"levelo_inurba_marseille","lat":43.30557,"lon":5.36541,"is_reserved":false,"is_disabled":false,"rental_uris":{"android":"levelo://app?vid=d91261ef-a37e-4836-91cf-90cd7ac29f09","ios":"levelo://app?vid=d91261ef-a37e-4836-91cf-90cd7ac29f09"},"vehicle_type_id":"4","last_reported":1773098257,"current_range_meters":37600,"station_id":"ce4bgs12rcd13ifvqcag","pricing_plan_id":"cebpf4jnsgd1na2vs0mg"},{"bike_id":"49afcda3-8378-4fd0-bc35-22e4275f5d26","system_id":"levelo_inurba_marseille","lat":43.29811,"lon":5.4188,"is_reserved":false,"is_disabled":false,"rental_uris":{"android":"levelo://app?vid=49afcda3-8378-4fd0-bc35-22e4275f5d26","ios":"levelo://app?vid=49afcda3-8378-4fd0-bc35-22e4275f5d26"},"vehicle_type_id":"4","last_reported":1773098257,"current_range_meters":32800,"station_id":"","pricing_plan_id":"cebpf4jnsgd1na2vs0mg"},{"bike_id":"f97d9e35-8861-49d6-9687-23c40a96e15e","system_id":"levelo_inurba_marseille","lat":43.27815,"lon":5.40713,"is_reserved":false,"is_disabled":false,"rental_uris":{"android":"levelo://app?vid=f97d9e35-8861-49d6-9687-23c40a96e15e","ios":"levelo://app?vid=f97d9e35-8861-49d6-9687-23c40a96e15e"},"vehicle_type_id":"4","last_reported":1773098257,"current_range_meters":22000,"station_id":"ce4bhnh2rcd13ifvqgtg","pricing_plan_id":"cebpf4jnsgd1na2vs0mg"},{"bike_id":"ddd2fdc0-4279-45f3-80da-98abd025c0c8","system_id":"levelo_inurba_marseille","lat":43.29603,"lon":5.37506,"is_reserved":false,"is_disabled":false,"rental_uris":{"android":"levelo://app?vid=ddd2fdc0-4279-45f3-80da-98abd025c0c8","ios":"levelo://app?vid=ddd2fdc0-4279-45f3-80da-98abd025c0c8"},"vehicle_type_id":"4","last_reported":1773098257,"current_range_meters":14800,"station_id":"ce4bgh92rcd13ifvqb50","pricing_plan_id":"cebpf4jnsgd1na2vs0mg"},{"bike_id":"752c3cb1-b01a-4407-a38c-2b5fa4f2afd3","system_id":"levelo_inurba_marseille","lat":43.30285,"lon":5.37698,"is_reserved":false,"is_disabled":false,"rental_uris":{"android":"levelo://app?vid=752c3cb1-b01a-4407-a38c-2b5fa4f2afd3","ios":"levelo://app?vid=752c3cb1-b01a-4407-a38c-2b5fa4f2afd3"},"vehicle_type_id":"4","last_reported":1773098257,"current_range_meters":14000,"station_id":"ce4bguh2rcd13ifvqcj0","pricing_plan_id":"cebpf4jnsgd1na2vs0mg"},{"bike_id":"4d8f9403-4851-4b2a-8f57-b07b6d1ee572","system_id":"levelo_inurba_marseille","lat":43.29564,"lon":5.37525,"is_reserved":false,"is_disabled":false,"rental_uris":{"android":"levelo://app?vid=4d8f9403-4851-4b2a-8f57-b07b6d1ee572","ios":"levelo://app?vid=4d8f9403-4851-4b2a-8f57-b07b6d1ee572"},"vehicle_type_id":"4","last_reported":1773098257,"current_range_meters":38800,"station_id":"ce4bgh92rcd13ifvqb50","pricing_plan_id":"cebpf4jnsgd1na2vs0mg"},{"bike_id":"84e29743-31ac-4c1a-b57b-16d8195784cb","system_id":"levelo_inurba_marseille","lat":43.2482,"lon":5.37462,"is_reserved":false,"is_disabled":false,"rental_uris":{"android":"levelo://app?vid=84e29743-31ac-4c1a-b57b-16d8195784cb","ios":"levelo://app?vid=84e29743-31ac-4c1a-b57b-16d8195784cb"},"vehicle_type_id":"4","last_reported":1773098257,"current_range_meters":20800,"station_id":"ce4bhgh2rcd13ifvqfb0","pricing_plan_id":"cebpf4jnsgd1na2vs0mg"},{"bike_id":"5ad65e35-5b16-42b9-96e5-8334c5773ee9","system_id":"levelo_inurba_marseille","lat":43.30635,"lon":5.40071,"is_reserved":false,"is_disabled":false,"rental_uris":{"android":"levelo://app?vid=5ad65e35-5b16-42b9-96e5-8334c5773ee9","ios":"levelo://app?vid=5ad65e35-5b16-42b9-96e5-8334c5773ee9"},"vehicle_type_id":"4","last_reported":1773098257,"current_range_meters":39200,"station_id":"ce4bh112rcd13ifvqda0","pricing_plan_id":"cebpf4jnsgd1na2vs0mg"},{"bike_id":"da2522f9-bb4b-4c5e-bc6f-cb8ed4358105","system_id":"levelo_inurba_marseille","lat":43.30425,"lon":5.41291,"is_reserved":false,"is_disabled":true,"rental_uris":{"android":"levelo://app?vid=da2522f9-bb4b-4c5e-bc6f-cb8ed4358105","ios":"levelo://app?vid=da2522f9-bb4b-4c5e-bc6f-cb8ed4358105"},"vehicle_type_id":"4","last_reported":1773098257,"current_range_meters":20400,"station_id":"ce4bhop2rcd13ifvqh8g","pricing_plan_id":"cebpf4jnsgd1na2vs0mg"},{"bike_id":"9c8f944f-2a8a-4ba7-aedf-a708fe52987b","system_id":"levelo_inurba_marseille","lat":43.2319,"lon":5.39997,"is_reserved":false,"is_disabled":false,"rental_uris":{"android":"levelo://app?vid=9c8f944f-2a8a-4ba7-aedf-a708fe52987b","ios":"levelo://app?vid=9c8f944f-2a8a-4ba7-aedf-a708fe52987b"},"vehicle_type_id":"4","last_reported":1773098257,"current_range_meters":11200,"station_id":"ce4bhn12rcd13ifvqgqg","pricing_plan_id":"cebpf4jnsgd1na2vs0mg"},{"bike_id":"5baab780-a35e-4994-bc36-90528b8e03a8","system_id":"levelo_inurba_marseille","lat":43.28357,"lon":5.38121,"is_reserved":false,"is_disabled":false,"rental_uris":{"android":"levelo://app?vid=5baab780-a35e-4994-bc36-90528b8e03a8","ios":"levelo://app?vid=5baab780-a35e-4994-bc36-90528b8e03a8"},"vehicle_type_id":"4","last_reported":1773098257,"current_range_meters":32000,"station_id":"ce4bh412rcd13ifvqdr0","pricing_plan_id":"cebpf4jnsgd1na2vs0mg"},{"bike_id":"3bb95377-79c6-4fde-a0bd-c68bc683d7a8","system_id":"levelo_inurba_marseille","lat":43.28102,"lon":5.37845,"is_reserved":false,"is_disabled":false,"rental_uris":{"android":"levelo://app?vid=3bb95377-79c6-4fde-a0bd-c68bc683d7a8","ios":"levelo://app?vid=3bb95377-79c6-4fde-a0bd-c68bc683d7a8"},"vehicle_type_id":"4","last_reported":1773098257,"current_range_meters":39200,"station_id":"ce4bha12rcd13ifvqee0","pricing_plan_id":"cebpf4jnsgd1na2vs0mg"},{"bike_id":"d77c6480-3a99-4d71-b1bd-bae2b9f17594","system_id":"levelo_inurba_marseille","lat":43.2621,"lon":5.37921,"is_reserved":false,"is_disabled":false,"rental_uris":{"android":"levelo://app?vid=d77c6480-3a99-4d71-b1bd-bae2b9f17594","ios":"levelo://app?vid=d77c6480-3a99-4d71-b1bd-bae2b9f17594"},"vehicle_type_id":"4","last_reported":1773098257,"current_range_meters":32800,"station_id":"ce4bhjp2rcd13ifvqg90","pricing_plan_id":"cebpf4jnsgd1na2vs0mg"},{"bike_id":"4e509f79-2625-43d1-9a6f-bd9cef661c80","system_id":"levelo_inurba_marseille","lat":43.24129,"lon":5.39723,"is_reserved":false,"is_disabled":false,"rental_uris":{"android":"levelo://app?vid=4e509f79-2625-43d1-9a6f-bd9cef661c80","ios":"levelo://app?vid=4e509f79-2625-43d1-9a6f-bd9cef661c80"},"vehicle_type_id":"4","last_reported":1773098257,"current_range_meters":39200,"station_id":"ce4bhn12rcd13ifvqgpg","pricing_plan_id":"cebpf4jnsgd1na2vs0mg"},{"bike_id":"e3c03313-7eb1-4a54-b8ec-e0d72f84d041","system_id":"levelo_inurba_marseille","lat":43.2835,"lon":5.38126,"is_reserved":false,"is_disabled":true,"rental_uris":{"android":"levelo://app?vid=e3c03313-7eb1-4a54-b8ec-e0d72f84d041","ios":"levelo://app?vid=e3c03313-7eb1-4a54-b8ec-e0d72f84d041"},"vehicle_type_id":"4","last_reported":1773098257,"current_range_meters":6400,"station_id":"ce4bh412rcd13ifvqdr0","pricing_plan_id":"cebpf4jnsgd1na2vs0mg"},{"bike_id":"1be2de89-cedd-4f72-9d48-fd8af281656a","system_id":"levelo_inurba_marseille","lat":43.24823,"lon":5.37465,"is_reserved":false,"is_disabled":false,"rental_uris":{"android":"levelo://app?vid=1be2de89-cedd-4f72-9d48-fd8af281656a","ios":"levelo://app?vid=1be2de89-cedd-4f72-9d48-fd8af281656a"},"vehicle_type_id":"4","last_reported":1773098257,"current_range_meters":26000,"station_id":"ce4bhgh2rcd13ifvqfb0","pricing_plan_id":"cebpf4jnsgd1na2vs0mg"},{"bike_id":"35407071-868b-4fef-ab12-3236d4ae48f7","system_id":"levelo_inurba_marseille","lat":43.29753,"lon":5.37649,"is_reserved":false,"is_disabled":true,"rental_uris":{"android":"levelo://app?vid=35407071-868b-4fef-ab12-3236d4ae48f7","ios":"levelo://app?vid=35407071-868b-4fef-ab12-3236d4ae48f7"},"vehicle_type_id":"4","last_reported":1773098257,"current_range_meters":28000,"station_id":"ce4bgkh2rcd13ifvqbl0","pricing_plan_id":"cebpf4jnsgd1na2vs0mg"},{"bike_id":"d1adf8c8-151e-4cb1-9dd6-bae61b585b98","system_id":"levelo_inurba_marseille","lat":43.29251,"lon":5.4091,"is_reserved":false,"is_disabled":false,"rental_uris":{"android":"levelo://app?vid=d1adf8c8-151e-4cb1-9dd6-bae61b585b98","ios":"levelo://app?vid=d1adf8c8-151e-4cb1-9dd6-bae61b585b98"},"vehicle_type_id":"4","last_reported":1773098257,"current_range_meters":38400,"station_id":"ce4bh192rcd13ifvqdc0","pricing_plan_id":"cebpf4jnsgd1na2vs0mg"},{"bike_id":"7e93c6a9-f866-42f1-87c2-867b36324163","system_id":"levelo_inurba_marseille","lat":43.22565,"lon":5.41639,"is_reserved":false,"is_disabled":false,"rental_uris":{"android":"levelo://app?vid=7e93c6a9-f866-42f1-87c2-867b36324163","ios":"levelo://app?vid=7e93c6a9-f866-42f1-87c2-867b36324163"},"vehicle_type_id":"4","last_reported":1773098257,"current_range_meters":10800,"station_id":"st_d2o4gvlbi1j2169b742g","pricing_plan_id":"cebpf4jnsgd1na2vs0mg"},{"bike_id":"afab229a-9e75-44ca-a4f2-4edda1809993","system_id":"levelo_inurba_marseille","lat":43.22557,"lon":5.41633,"is_reserved":false,"is_disabled":false,"rental_uris":{"android":"levelo://app?vid=afab229a-9e75-44ca-a4f2-4edda1809993","ios":"levelo://app?vid=afab229a-9e75-44ca-a4f2-4edda1809993"},"vehicle_type_id":"4","last_reported":1773098257,"current_range_meters":8800,"station_id":"st_d2o4gvlbi1j2169b742g","pricing_plan_id":"cebpf4jnsgd1na2vs0mg"},{"bike_id":"12fc1efc-0120-4562-95cd-86cfd98bee12","system_id":"levelo_inurba_marseille","lat":43.29589,"lon":5.37596,"is_reserved":false,"is_disabled":false,"rental_uris":{"android":"levelo://app?vid=12fc1efc-0120-4562-95cd-86cfd98bee12","ios":"levelo://app?vid=12fc1efc-0120-4562-95cd-86cfd98bee12"},"vehicle_type_id":"4","last_reported":1773098257,"current_range_meters":26800,"station_id":"","pricing_plan_id":"cebpf4jnsgd1na2vs0mg"},{"bike_id":"e76801b7-9c4d-4da7-8b8f-8706d798a88b","system_id":"levelo_inurba_marseille","lat":43.24172,"lon":5.39729,"is_reserved":false,"is_disabled":false,"rental_uris":{"android":"levelo://app?vid=e76801b7-9c4d-4da7-8b8f-8706d798a88b","ios":"levelo://app?vid=e76801b7-9c4d-4da7-8b8f-8706d798a88b"},"vehicle_type_id":"4","last_reported":1773098257,"current_range_meters":31200,"station_id":"ce4bhn12rcd13ifvqgpg","pricing_plan_id":"cebpf4jnsgd1na2vs0mg"},{"bike_id":"c2dd6d57-0938-4285-96ac-9bd5d7e384c5","system_id":"levelo_inurba_marseille","lat":43.29959,"lon":5.4131,"is_reserved":false,"is_disabled":false,"rental_uris":{"android":"levelo://app?vid=c2dd6d57-0938-4285-96ac-9bd5d7e384c5","ios":"levelo://app?vid=c2dd6d57-0938-4285-96ac-9bd5d7e384c5"},"vehicle_type_id":"4","last_reported":1773098257,"current_range_meters":38000,"station_id":"ce4bhp12rcd13ifvqh9g","pricing_plan_id":"cebpf4jnsgd1na2vs0mg"},{"bike_id":"228ab558-3514-4e79-9c8a-86b72dbfcc36","system_id":"levelo_inurba_marseille","lat":43.26583,"lon":5.39025,"is_reserved":false,"is_disabled":false,"rental_uris":{"android":"levelo://app?vid=228ab558-3514-4e79-9c8a-86b72dbfcc36","ios":"levelo://app?vid=228ab558-3514-4e79-9c8a-86b72dbfcc36"},"vehicle_type_id":"4","last_reported":1773098257,"current_range_meters":28400,"station_id":"ce4bhe12rcd13ifvqf30","pricing_plan_id":"cebpf4jnsgd1na2vs0mg"},{"bike_id":"c2e47771-3fbf-42dc-99f4-741369e2fa9c","system_id":"levelo_inurba_marseille","lat":43.29067,"lon":5.37151,"is_reserved":false,"is_disabled":false,"rental_uris":{"android":"levelo://app?vid=c2e47771-3fbf-42dc-99f4-741369e2fa9c","ios":"levelo://app?vid=c2e47771-3fbf-42dc-99f4-741369e2fa9c"},"vehicle_type_id":"4","last_reported":1773098257,"current_range_meters":39200,"station_id":"ce4bh5p2rcd13ifvqe4g","pricing_plan_id":"cebpf4jnsgd1na2vs0mg"},{"bike_id":"bc5242dc-f594-4e53-bca2-592f187bfd33","system_id":"levelo_inurba_marseille","lat":43.27172,"lon":5.4099,"is_reserved":false,"is_disabled":false,"rental_uris":{"android":"levelo://app?vid=bc5242dc-f594-4e53-bca2-592f187bfd33","ios":"levelo://app?vid=bc5242dc-f594-4e53-bca2-592f187bfd33"},"vehicle_type_id":"4","last_reported":1773098257,"current_range_meters":37600,"station_id":"ce4bhl12rcd13ifvqgf0","pricing_plan_id":"cebpf4jnsgd1na2vs0mg"},{"bike_id":"1e8c95f7-e50d-4bd2-89a4-1600de9841a9","system_id":"levelo_inurba_marseille","lat":43.28466,"lon":5.48402,"is_reserved":false,"is_disabled":false,"rental_uris":{"android":"levelo://app?vid=1e8c95f7-e50d-4bd2-89a4-1600de9841a9","ios":"levelo://app?vid=1e8c95f7-e50d-4bd2-89a4-1600de9841a9"},"vehicle_type_id":"4","last_reported":1773098257,"current_range_meters":35600,"station_id":"","pricing_plan_id":"cebpf4jnsgd1na2vs0mg"},{"bike_id":"7954b6fe-92a8-4d4a-9147-7ae0b741f30f","system_id":"levelo_inurba_marseille","lat":43.28105,"lon":5.37837,"is_reserved":false,"is_disabled":false,"rental_uris":{"android":"levelo://app?vid=7954b6fe-92a8-4d4a-9147-7ae0b741f30f","ios":"levelo://app?vid=7954b6fe-92a8-4d4a-9147-7ae0b741f30f"},"vehicle_type_id":"4","last_reported":1773098257,"current_range_meters":39200,"station_id":"ce4bha12rcd13ifvqee0","pricing_plan_id":"cebpf4jnsgd1na2vs0mg"},{"bike_id":"0a3a3b9f-a9b0-413b-9eec-a7f16fa13a52","system_id":"levelo_inurba_marseille","lat":43.29177,"lon":5.37163,"is_reserved":false,"is_disabled":false,"rental_uris":{"android":"levelo://app?vid=0a3a3b9f-a9b0-413b-9eec-a7f16fa13a52","ios":"levelo://app?vid=0a3a3b9f-a9b0-413b-9eec-a7f16fa13a52"},"vehicle_type_id":"4","last_reported":1773098257,"current_range_meters":38000,"station_id":"ce4bha92rcd13ifvqeh0","pricing_plan_id":"cebpf4jnsgd1na2vs0mg"},{"bike_id":"cf633fb9-ab33-483e-ac38-c953d535a353","system_id":"levelo_inurba_marseille","lat":43.28472,"lon":5.48399,"is_reserved":false,"is_disabled":false,"rental_uris":{"android":"levelo://app?vid=cf633fb9-ab33-483e-ac38-c953d535a353","ios":"levelo://app?vid=cf633fb9-ab33-483e-ac38-c953d535a353"},"vehicle_type_id":"4","last_reported":1773098257,"current_range_meters":39200,"station_id":"","pricing_plan_id":"cebpf4jnsgd1na2vs0mg"},{"bike_id":"69e887fa-2db1-4cf3-aaee-72cb8e754b6f","system_id":"levelo_inurba_marseille","lat":43.29775,"lon":5.371,"is_reserved":false,"is_disabled":false,"rental_uris":{"android":"levelo://app?vid=69e887fa-2db1-4cf3-aaee-72cb8e754b6f","ios":"levelo://app?vid=69e887fa-2db1-4cf3-aaee-72cb8e754b6f"},"vehicle_type_id":"4","last_reported":1773098257,"current_range_meters":21600,"station_id":"ce4bgop2rcd13ifvqc1g","pricing_plan_id":"cebpf4jnsgd1na2vs0mg"},{"bike_id":"a2f981a3-5513-470a-96de-10a3698ee65c","system_id":"levelo_inurba_marseille","lat":43.32115,"lon":5.36774,"is_reserved":false,"is_disabled":false,"rental_uris":{"android":"levelo://app?vid=a2f981a3-5513-470a-96de-10a3698ee65c","ios":"levelo://app?vid=a2f981a3-5513-470a-96de-10a3698ee65c"},"vehicle_type_id":"4","last_reported":1773098257,"current_range_meters":26800,"station_id":"ce4bhrh2rcd13ifvqhug","pricing_plan_id":"cebpf4jnsgd1na2vs0mg"},{"bike_id":"dd52a951-c2ab-48d0-8794-fb89314db9e6","system_id":"levelo_inurba_marseille","lat":43.24362,"lon":5.44107,"is_reserved":false,"is_disabled":false,"rental_uris":{"android":"levelo://app?vid=dd52a951-c2ab-48d0-8794-fb89314db9e6","ios":"levelo://app?vid=dd52a951-c2ab-48d0-8794-fb89314db9e6"},"vehicle_type_id":"4","last_reported":1773098257,"current_range_meters":14400,"station_id":"","pricing_plan_id":"cebpf4jnsgd1na2vs0mg"},{"bike_id":"fe1222f5-63a1-476a-9af1-535aa80314db","system_id":"levelo_inurba_marseille","lat":43.27941,"lon":5.41049,"is_reserved":false,"is_disabled":false,"rental_uris":{"android":"levelo://app?vid=fe1222f5-63a1-476a-9af1-535aa80314db","ios":"levelo://app?vid=fe1222f5-63a1-476a-9af1-535aa80314db"},"vehicle_type_id":"4","last_reported":1773098257,"current_range_meters":20800,"station_id":"ce4bhnp2rcd13ifvqh0g","pricing_plan_id":"cebpf4jnsgd1na2vs0mg"},{"bike_id":"6dc9a861-bb4c-4795-a23d-d938127d5090","system_id":"levelo_inurba_marseille","lat":43.28484,"lon":5.38423,"is_reserved":false,"is_disabled":true,"rental_uris":{"android":"levelo://app?vid=6dc9a861-bb4c-4795-a23d-d938127d5090","ios":"levelo://app?vid=6dc9a861-bb4c-4795-a23d-d938127d5090"},"vehicle_type_id":"4","last_reported":1773098257,"current_range_meters":16800,"station_id":"ce4bh512rcd13ifvqe3g","pricing_plan_id":"cebpf4jnsgd1na2vs0mg"},{"bike_id":"d09736e8-ff9b-4450-a935-b2ba52b28605","system_id":"levelo_inurba_marseille","lat":43.25571,"lon":5.38233,"is_reserved":false,"is_disabled":false,"rental_uris":{"android":"levelo://app?vid=d09736e8-ff9b-4450-a935-b2ba52b28605","ios":"levelo://app?vid=d09736e8-ff9b-4450-a935-b2ba52b28605"},"vehicle_type_id":"4","last_reported":1773098257,"current_range_meters":17200,"station_id":"ce4bhih2rcd13ifvqfs0","pricing_plan_id":"cebpf4jnsgd1na2vs0mg"},{"bike_id":"17570545-33d3-42ed-8da7-8ce9a20022a6","system_id":"levelo_inurba_marseille","lat":43.24652,"lon":5.38895,"is_reserved":false,"is_disabled":false,"rental_uris":{"android":"levelo://app?vid=17570545-33d3-42ed-8da7-8ce9a20022a6","ios":"levelo://app?vid=17570545-33d3-42ed-8da7-8ce9a20022a6"},"vehicle_type_id":"4","last_reported":1773098257,"current_range_meters":27600,"station_id":"ce4bhg12rcd13ifvqf60","pricing_plan_id":"cebpf4jnsgd1na2vs0mg"},{"bike_id":"a8e95bca-2bfe-45bd-bb7e-5a106846dd09","system_id":"levelo_inurba_marseille","lat":43.2501,"lon":5.38923,"is_reserved":false,"is_disabled":false,"rental_uris":{"android":"levelo://app?vid=a8e95bca-2bfe-45bd-bb7e-5a106846dd09","ios":"levelo://app?vid=a8e95bca-2bfe-45bd-bb7e-5a106846dd09"},"vehicle_type_id":"4","last_reported":1773098257,"current_range_meters":28400,"station_id":"ce4bhgp2rcd13ifvqfd0","pricing_plan_id":"cebpf4jnsgd1na2vs0mg"},{"bike_id":"7bf9c58b-669a-4736-8b55-cf5a58707052","system_id":"levelo_inurba_marseille","lat":43.25515,"lon":5.37664,"is_reserved":false,"is_disabled":false,"rental_uris":{"android":"levelo://app?vid=7bf9c58b-669a-4736-8b55-cf5a58707052","ios":"levelo://app?vid=7bf9c58b-669a-4736-8b55-cf5a58707052"},"vehicle_type_id":"4","last_reported":1773098257,"current_range_meters":18800,"station_id":"ce4bhh12rcd13ifvqff0","pricing_plan_id":"cebpf4jnsgd1na2vs0mg"},{"bike_id":"128eff59-d6a2-426b-a932-f923656b9ed9","system_id":"levelo_inurba_marseille","lat":43.22563,"lon":5.41627,"is_reserved":false,"is_disabled":false,"rental_uris":{"android":"levelo://app?vid=128eff59-d6a2-426b-a932-f923656b9ed9","ios":"levelo://app?vid=128eff59-d6a2-426b-a932-f923656b9ed9"},"vehicle_type_id":"4","last_reported":1773098257,"current_range_meters":25200,"station_id":"st_d2o4gvlbi1j2169b742g","pricing_plan_id":"cebpf4jnsgd1na2vs0mg"},{"bike_id":"760ee3c2-bf47-45a1-871d-b693df4110ee","system_id":"levelo_inurba_marseille","lat":43.24158,"lon":5.36396,"is_reserved":false,"is_disabled":false,"rental_uris":{"android":"levelo://app?vid=760ee3c2-bf47-45a1-871d-b693df4110ee","ios":"levelo://app?vid=760ee3c2-bf47-45a1-871d-b693df4110ee"},"vehicle_type_id":"4","last_reported":1773098257,"current_range_meters":21600,"station_id":"cpo36qri1sfpv3e86is0","pricing_plan_id":"cebpf4jnsgd1na2vs0mg"},{"bike_id":"4b647021-b58c-4912-a31d-5513f8a37c01","system_id":"levelo_inurba_marseille","lat":43.28934,"lon":5.36404,"is_reserved":false,"is_disabled":false,"rental_uris":{"android":"levelo://app?vid=4b647021-b58c-4912-a31d-5513f8a37c01","ios":"levelo://app?vid=4b647021-b58c-4912-a31d-5513f8a37c01"},"vehicle_type_id":"4","last_reported":1773098257,"current_range_meters":39200,"station_id":"ce4bhc92rcd13ifvqetg","pricing_plan_id":"cebpf4jnsgd1na2vs0mg"},{"bike_id":"ac62d2d3-2f10-41a2-bb1e-90b5faed3697","system_id":"levelo_inurba_marseille","lat":43.30439,"lon":5.41309,"is_reserved":false,"is_disabled":false,"rental_uris":{"android":"levelo://app?vid=ac62d2d3-2f10-41a2-bb1e-90b5faed3697","ios":"levelo://app?vid=ac62d2d3-2f10-41a2-bb1e-90b5faed3697"},"vehicle_type_id":"4","last_reported":1773098257,"current_range_meters":39200,"station_id":"ce4bhop2rcd13ifvqh8g","pricing_plan_id":"cebpf4jnsgd1na2vs0mg"},{"bike_id":"6bca939e-1a1f-4fea-96f6-17ba20cbb2ed","system_id":"levelo_inurba_marseille","lat":43.2501,"lon":5.38926,"is_reserved":false,"is_disabled":false,"rental_uris":{"android":"levelo://app?vid=6bca939e-1a1f-4fea-96f6-17ba20cbb2ed","ios":"levelo://app?vid=6bca939e-1a1f-4fea-96f6-17ba20cbb2ed"},"vehicle_type_id":"4","last_reported":1773098257,"current_range_meters":6800,"station_id":"ce4bhgp2rcd13ifvqfd0","pricing_plan_id":"cebpf4jnsgd1na2vs0mg"},{"bike_id":"72cb14f1-757c-47f9-8ce8-9d7c53af9e8e","system_id":"levelo_inurba_marseille","lat":43.30549,"lon":5.36702,"is_reserved":false,"is_disabled":false,"rental_uris":{"android":"levelo://app?vid=72cb14f1-757c-47f9-8ce8-9d7c53af9e8e","ios":"levelo://app?vid=72cb14f1-757c-47f9-8ce8-9d7c53af9e8e"},"vehicle_type_id":"4","last_reported":1773098257,"current_range_meters":35600,"station_id":"ce4bgrp2rcd13ifvqc9g","pricing_plan_id":"cebpf4jnsgd1na2vs0mg"},{"bike_id":"c2746f29-9c37-4371-afae-fc48ff8042bf","system_id":"levelo_inurba_marseille","lat":43.31179,"lon":5.37727,"is_reserved":false,"is_disabled":false,"rental_uris":{"android":"levelo://app?vid=c2746f29-9c37-4371-afae-fc48ff8042bf","ios":"levelo://app?vid=c2746f29-9c37-4371-afae-fc48ff8042bf"},"vehicle_type_id":"4","last_reported":1773098257,"current_range_meters":36000,"station_id":"","pricing_plan_id":"cebpf4jnsgd1na2vs0mg"},{"bike_id":"056a26d0-a182-4d8e-a369-d1c8ed7bd9f2","system_id":"levelo_inurba_marseille","lat":43.29727,"lon":5.36609,"is_reserved":false,"is_disabled":false,"rental_uris":{"android":"levelo://app?vid=056a26d0-a182-4d8e-a369-d1c8ed7bd9f2","ios":"levelo://app?vid=056a26d0-a182-4d8e-a369-d1c8ed7bd9f2"},"vehicle_type_id":"4","last_reported":1773098257,"current_range_meters":39200,"station_id":"ce4bgn12rcd13ifvqbt0","pricing_plan_id":"cebpf4jnsgd1na2vs0mg"},{"bike_id":"409cbcfd-2a11-44aa-b630-9111eab30cd0","system_id":"levelo_inurba_marseille","lat":43.25031,"lon":5.38909,"is_reserved":false,"is_disabled":false,"rental_uris":{"android":"levelo://app?vid=409cbcfd-2a11-44aa-b630-9111eab30cd0","ios":"levelo://app?vid=409cbcfd-2a11-44aa-b630-9111eab30cd0"},"vehicle_type_id":"4","last_reported":1773098257,"current_range_meters":30400,"station_id":"ce4bhgp2rcd13ifvqfd0","pricing_plan_id":"cebpf4jnsgd1na2vs0mg"},{"bike_id":"1d617aa4-eb54-4357-bdfd-8d3708dda098","system_id":"levelo_inurba_marseille","lat":43.29261,"lon":5.40911,"is_reserved":false,"is_disabled":false,"rental_uris":{"android":"levelo://app?vid=1d617aa4-eb54-4357-bdfd-8d3708dda098","ios":"levelo://app?vid=1d617aa4-eb54-4357-bdfd-8d3708dda098"},"vehicle_type_id":"4","last_reported":1773098257,"current_range_meters":6800,"station_id":"ce4bh192rcd13ifvqdc0","pricing_plan_id":"cebpf4jnsgd1na2vs0mg"},{"bike_id":"d639f068-f7a6-4484-a344-41b62180cb3c","system_id":"levelo_inurba_marseille","lat":43.29188,"lon":5.3933,"is_reserved":false,"is_disabled":false,"rental_uris":{"android":"levelo://app?vid=d639f068-f7a6-4484-a344-41b62180cb3c","ios":"levelo://app?vid=d639f068-f7a6-4484-a344-41b62180cb3c"},"vehicle_type_id":"4","last_reported":1773098257,"current_range_meters":31200,"station_id":"ce4bh192rcd13ifvqdd0","pricing_plan_id":"cebpf4jnsgd1na2vs0mg"},{"bike_id":"ccfba79d-86c9-45d7-9a0f-ea50a82e1e0f","system_id":"levelo_inurba_marseille","lat":43.2483,"lon":5.37442,"is_reserved":false,"is_disabled":true,"rental_uris":{"android":"levelo://app?vid=ccfba79d-86c9-45d7-9a0f-ea50a82e1e0f","ios":"levelo://app?vid=ccfba79d-86c9-45d7-9a0f-ea50a82e1e0f"},"vehicle_type_id":"4","last_reported":1773098257,"current_range_meters":800,"station_id":"ce4bhgh2rcd13ifvqfb0","pricing_plan_id":"cebpf4jnsgd1na2vs0mg"},{"bike_id":"5cce9157-454e-4874-9b3e-40dd22c5911e","system_id":"levelo_inurba_marseille","lat":43.2857,"lon":5.39508,"is_reserved":false,"is_disabled":false,"rental_uris":{"android":"levelo://app?vid=5cce9157-454e-4874-9b3e-40dd22c5911e","ios":"levelo://app?vid=5cce9157-454e-4874-9b3e-40dd22c5911e"},"vehicle_type_id":"4","last_reported":1773098257,"current_range_meters":38400,"station_id":"ce4bh292rcd13ifvqdg0","pricing_plan_id":"cebpf4jnsgd1na2vs0mg"},{"bike_id":"e2ab50cf-eae2-4a7a-977f-df719e818941","system_id":"levelo_inurba_marseille","lat":43.28474,"lon":5.48396,"is_reserved":false,"is_disabled":false,"rental_uris":{"android":"levelo://app?vid=e2ab50cf-eae2-4a7a-977f-df719e818941","ios":"levelo://app?vid=e2ab50cf-eae2-4a7a-977f-df719e818941"},"vehicle_type_id":"4","last_reported":1773098257,"current_range_meters":28400,"station_id":"","pricing_plan_id":"cebpf4jnsgd1na2vs0mg"},{"bike_id":"f69ebbb1-8913-4d77-9048-bdc1925d9ba7","system_id":"levelo_inurba_marseille","lat":43.24672,"lon":5.38182,"is_reserved":false,"is_disabled":false,"rental_uris":{"android":"levelo://app?vid=f69ebbb1-8913-4d77-9048-bdc1925d9ba7","ios":"levelo://app?vid=f69ebbb1-8913-4d77-9048-bdc1925d9ba7"},"vehicle_type_id":"4","last_reported":1773098257,"current_range_meters":36800,"station_id":"ce4bhih2rcd13ifvqfr0","pricing_plan_id":"cebpf4jnsgd1na2vs0mg"},{"bike_id":"ebcc0628-de8b-4e50-a8be-02870197efac","system_id":"levelo_inurba_marseille","lat":43.32488,"lon":5.36559,"is_reserved":false,"is_disabled":false,"rental_uris":{"android":"levelo://app?vid=ebcc0628-de8b-4e50-a8be-02870197efac","ios":"levelo://app?vid=ebcc0628-de8b-4e50-a8be-02870197efac"},"vehicle_type_id":"4","last_reported":1773098257,"current_range_meters":22800,"station_id":"ce4bhs12rcd13ifvqhvg","pricing_plan_id":"cebpf4jnsgd1na2vs0mg"},{"bike_id":"30f001c2-b40c-4d24-97ed-c81686448831","system_id":"levelo_inurba_marseille","lat":43.31114,"lon":5.37774,"is_reserved":false,"is_disabled":false,"rental_uris":{"android":"levelo://app?vid=30f001c2-b40c-4d24-97ed-c81686448831","ios":"levelo://app?vid=30f001c2-b40c-4d24-97ed-c81686448831"},"vehicle_type_id":"4","last_reported":1773098257,"current_range_meters":12000,"station_id":"ce4bgt92rcd13ifvqcg0","pricing_plan_id":"cebpf4jnsgd1na2vs0mg"},{"bike_id":"51057c5c-b1cf-4978-a2f9-940ff7534550","system_id":"levelo_inurba_marseille","lat":43.27825,"lon":5.39218,"is_reserved":false,"is_disabled":false,"rental_uris":{"android":"levelo://app?vid=51057c5c-b1cf-4978-a2f9-940ff7534550","ios":"levelo://app?vid=51057c5c-b1cf-4978-a2f9-940ff7534550"},"vehicle_type_id":"4","last_reported":1773098257,"current_range_meters":31200,"station_id":"ce4bhjp2rcd13ifvqga0","pricing_plan_id":"cebpf4jnsgd1na2vs0mg"},{"bike_id":"cfd358ee-ac79-40cb-b59b-655a39d9d431","system_id":"levelo_inurba_marseille","lat":43.28442,"lon":5.3919,"is_reserved":false,"is_disabled":false,"rental_uris":{"android":"levelo://app?vid=cfd358ee-ac79-40cb-b59b-655a39d9d431","ios":"levelo://app?vid=cfd358ee-ac79-40cb-b59b-655a39d9d431"},"vehicle_type_id":"4","last_reported":1773098257,"current_range_meters":35600,"station_id":"ce4bhoh2rcd13ifvqh5g","pricing_plan_id":"cebpf4jnsgd1na2vs0mg"},{"bike_id":"db36bbf7-139f-42dc-bc5b-fa497418b2d4","system_id":"levelo_inurba_marseille","lat":43.30603,"lon":5.3723,"is_reserved":false,"is_disabled":false,"rental_uris":{"android":"levelo://app?vid=db36bbf7-139f-42dc-bc5b-fa497418b2d4","ios":"levelo://app?vid=db36bbf7-139f-42dc-bc5b-fa497418b2d4"},"vehicle_type_id":"4","last_reported":1773098257,"current_range_meters":32400,"station_id":"ce4bgqh2rcd13ifvqc4g","pricing_plan_id":"cebpf4jnsgd1na2vs0mg"},{"bike_id":"e15181d1-9032-472b-82d4-3658f7d06ba1","system_id":"levelo_inurba_marseille","lat":43.28479,"lon":5.48392,"is_reserved":false,"is_disabled":false,"rental_uris":{"android":"levelo://app?vid=e15181d1-9032-472b-82d4-3658f7d06ba1","ios":"levelo://app?vid=e15181d1-9032-472b-82d4-3658f7d06ba1"},"vehicle_type_id":"4","last_reported":1773098257,"current_range_meters":7200,"station_id":"","pricing_plan_id":"cebpf4jnsgd1na2vs0mg"},{"bike_id":"3476808d-fa60-4b5d-b343-db1c01c9363b","system_id":"levelo_inurba_marseille","lat":43.2868,"lon":5.38669,"is_reserved":false,"is_disabled":true,"rental_uris":{"android":"levelo://app?vid=3476808d-fa60-4b5d-b343-db1c01c9363b","ios":"levelo://app?vid=3476808d-fa60-4b5d-b343-db1c01c9363b"},"vehicle_type_id":"4","last_reported":1773098257,"current_range_meters":8800,"station_id":"ce4bh492rcd13ifvqdug","pricing_plan_id":"cebpf4jnsgd1na2vs0mg"},{"bike_id":"d292dd84-f01f-4f56-9efa-6ec6c2938826","system_id":"levelo_inurba_marseille","lat":43.27817,"lon":5.40713,"is_reserved":false,"is_disabled":false,"rental_uris":{"android":"levelo://app?vid=d292dd84-f01f-4f56-9efa-6ec6c2938826","ios":"levelo://app?vid=d292dd84-f01f-4f56-9efa-6ec6c2938826"},"vehicle_type_id":"4","last_reported":1773098257,"current_range_meters":24800,"station_id":"ce4bhnh2rcd13ifvqgtg","pricing_plan_id":"cebpf4jnsgd1na2vs0mg"},{"bike_id":"7f29853e-3997-48a4-bc5d-93be80af6372","system_id":"levelo_inurba_marseille","lat":43.29704,"lon":5.42544,"is_reserved":false,"is_disabled":false,"rental_uris":{"android":"levelo://app?vid=7f29853e-3997-48a4-bc5d-93be80af6372","ios":"levelo://app?vid=7f29853e-3997-48a4-bc5d-93be80af6372"},"vehicle_type_id":"4","last_reported":1773098257,"current_range_meters":18000,"station_id":"","pricing_plan_id":"cebpf4jnsgd1na2vs0mg"},{"bike_id":"fccb4a8d-a05c-4906-9275-e53e0b0dd875","system_id":"levelo_inurba_marseille","lat":43.29007,"lon":5.35606,"is_reserved":false,"is_disabled":false,"rental_uris":{"android":"levelo://app?vid=fccb4a8d-a05c-4906-9275-e53e0b0dd875","ios":"levelo://app?vid=fccb4a8d-a05c-4906-9275-e53e0b0dd875"},"vehicle_type_id":"4","last_reported":1773098257,"current_range_meters":24400,"station_id":"ce4bhb92rcd13ifvqen0","pricing_plan_id":"cebpf4jnsgd1na2vs0mg"},{"bike_id":"89dc861a-a0cc-404c-b76d-7eeb73fcb589","system_id":"levelo_inurba_marseille","lat":43.32188,"lon":5.38708,"is_reserved":false,"is_disabled":false,"rental_uris":{"android":"levelo://app?vid=89dc861a-a0cc-404c-b76d-7eeb73fcb589","ios":"levelo://app?vid=89dc861a-a0cc-404c-b76d-7eeb73fcb589"},"vehicle_type_id":"4","last_reported":1773098257,"current_range_meters":3600,"station_id":"","pricing_plan_id":"cebpf4jnsgd1na2vs0mg"},{"bike_id":"6b776b36-458a-4ebb-b58c-e26289475a87","system_id":"levelo_inurba_marseille","lat":43.30343,"lon":5.36924,"is_reserved":false,"is_disabled":false,"rental_uris":{"android":"levelo://app?vid=6b776b36-458a-4ebb-b58c-e26289475a87","ios":"levelo://app?vid=6b776b36-458a-4ebb-b58c-e26289475a87"},"vehicle_type_id":"4","last_reported":1773098257,"current_range_meters":20000,"station_id":"ce4bgqh2rcd13ifvqc5g","pricing_plan_id":"cebpf4jnsgd1na2vs0mg"},{"bike_id":"dea37e9d-8b46-4291-898d-32a1ec4c4006","system_id":"levelo_inurba_marseille","lat":43.23198,"lon":5.35544,"is_reserved":false,"is_disabled":false,"rental_uris":{"android":"levelo://app?vid=dea37e9d-8b46-4291-898d-32a1ec4c4006","ios":"levelo://app?vid=dea37e9d-8b46-4291-898d-32a1ec4c4006"},"vehicle_type_id":"4","last_reported":1773098257,"current_range_meters":36800,"station_id":"ce4bhu92rcd13ifvqi70","pricing_plan_id":"cebpf4jnsgd1na2vs0mg"},{"bike_id":"86886e08-69f5-4c37-b5ea-578bba7cb128","system_id":"levelo_inurba_marseille","lat":43.26206,"lon":5.37442,"is_reserved":false,"is_disabled":false,"rental_uris":{"android":"levelo://app?vid=86886e08-69f5-4c37-b5ea-578bba7cb128","ios":"levelo://app?vid=86886e08-69f5-4c37-b5ea-578bba7cb128"},"vehicle_type_id":"4","last_reported":1773098257,"current_range_meters":33200,"station_id":"ce4bhgp2rcd13ifvqfc0","pricing_plan_id":"cebpf4jnsgd1na2vs0mg"},{"bike_id":"3d9baf2c-d766-45a7-9443-c8b7a28aa697","system_id":"levelo_inurba_marseille","lat":43.32369,"lon":5.36755,"is_reserved":false,"is_disabled":false,"rental_uris":{"android":"levelo://app?vid=3d9baf2c-d766-45a7-9443-c8b7a28aa697","ios":"levelo://app?vid=3d9baf2c-d766-45a7-9443-c8b7a28aa697"},"vehicle_type_id":"4","last_reported":1773098257,"current_range_meters":32800,"station_id":"ce4bhsh2rcd13ifvqi2g","pricing_plan_id":"cebpf4jnsgd1na2vs0mg"},{"bike_id":"8c56148b-64ab-4ab5-b502-eea7b91de085","system_id":"levelo_inurba_marseille","lat":43.33564,"lon":5.37468,"is_reserved":false,"is_disabled":false,"rental_uris":{"android":"levelo://app?vid=8c56148b-64ab-4ab5-b502-eea7b91de085","ios":"levelo://app?vid=8c56148b-64ab-4ab5-b502-eea7b91de085"},"vehicle_type_id":"4","last_reported":1773098257,"current_range_meters":36400,"station_id":"st_d46tts09ee8s73dlu43g","pricing_plan_id":"cebpf4jnsgd1na2vs0mg"},{"bike_id":"8960cbb9-498c-40b9-b277-1ef6549c07ba","system_id":"levelo_inurba_marseille","lat":43.27186,"lon":5.40984,"is_reserved":false,"is_disabled":false,"rental_uris":{"android":"levelo://app?vid=8960cbb9-498c-40b9-b277-1ef6549c07ba","ios":"levelo://app?vid=8960cbb9-498c-40b9-b277-1ef6549c07ba"},"vehicle_type_id":"4","last_reported":1773098257,"current_range_meters":36000,"station_id":"ce4bhl12rcd13ifvqgf0","pricing_plan_id":"cebpf4jnsgd1na2vs0mg"},{"bike_id":"d6a6814e-8c5d-4d02-888b-276d15608da0","system_id":"levelo_inurba_marseille","lat":43.27093,"lon":5.38301,"is_reserved":false,"is_disabled":false,"rental_uris":{"android":"levelo://app?vid=d6a6814e-8c5d-4d02-888b-276d15608da0","ios":"levelo://app?vid=d6a6814e-8c5d-4d02-888b-276d15608da0"},"vehicle_type_id":"4","last_reported":1773098257,"current_range_meters":36400,"station_id":"st_d3n2fo6cfp8s73cte1j0","pricing_plan_id":"cebpf4jnsgd1na2vs0mg"},{"bike_id":"ed49d650-9a9c-4dea-b0f3-4aa79e9605db","system_id":"levelo_inurba_marseille","lat":43.25115,"lon":5.4032,"is_reserved":false,"is_disabled":false,"rental_uris":{"android":"levelo://app?vid=ed49d650-9a9c-4dea-b0f3-4aa79e9605db","ios":"levelo://app?vid=ed49d650-9a9c-4dea-b0f3-4aa79e9605db"},"vehicle_type_id":"4","last_reported":1773098257,"current_range_meters":30400,"station_id":"ce4bhlh2rcd13ifvqgig","pricing_plan_id":"cebpf4jnsgd1na2vs0mg"},{"bike_id":"0dadaebe-6571-4500-accf-7dcd46ab76bc","system_id":"levelo_inurba_marseille","lat":43.27576,"lon":5.39672,"is_reserved":false,"is_disabled":false,"rental_uris":{"android":"levelo://app?vid=0dadaebe-6571-4500-accf-7dcd46ab76bc","ios":"levelo://app?vid=0dadaebe-6571-4500-accf-7dcd46ab76bc"},"vehicle_type_id":"4","last_reported":1773098257,"current_range_meters":28800,"station_id":"","pricing_plan_id":"cebpf4jnsgd1na2vs0mg"},{"bike_id":"f1d2f547-0c45-46bc-8d63-89a469eaa7c0","system_id":"levelo_inurba_marseille","lat":43.3025,"lon":5.40071,"is_reserved":false,"is_disabled":false,"rental_uris":{"android":"levelo://app?vid=f1d2f547-0c45-46bc-8d63-89a469eaa7c0","ios":"levelo://app?vid=f1d2f547-0c45-46bc-8d63-89a469eaa7c0"},"vehicle_type_id":"4","last_reported":1773098257,"current_range_meters":38000,"station_id":"ce4bgvh2rcd13ifvqcs0","pricing_plan_id":"cebpf4jnsgd1na2vs0mg"},{"bike_id":"10e277d4-1c46-4de5-bc1e-cd1ad3294a93","system_id":"levelo_inurba_marseille","lat":43.29282,"lon":5.36828,"is_reserved":false,"is_disabled":false,"rental_uris":{"android":"levelo://app?vid=10e277d4-1c46-4de5-bc1e-cd1ad3294a93","ios":"levelo://app?vid=10e277d4-1c46-4de5-bc1e-cd1ad3294a93"},"vehicle_type_id":"4","last_reported":1773098257,"current_range_meters":32000,"station_id":"ce4bhbp2rcd13ifvqesg","pricing_plan_id":"cebpf4jnsgd1na2vs0mg"},{"bike_id":"719dc178-f476-4578-bc48-fd64e1accff4","system_id":"levelo_inurba_marseille","lat":43.25,"lon":5.38932,"is_reserved":false,"is_disabled":false,"rental_uris":{"android":"levelo://app?vid=719dc178-f476-4578-bc48-fd64e1accff4","ios":"levelo://app?vid=719dc178-f476-4578-bc48-fd64e1accff4"},"vehicle_type_id":"4","last_reported":1773098257,"current_range_meters":38400,"station_id":"ce4bhgp2rcd13ifvqfd0","pricing_plan_id":"cebpf4jnsgd1na2vs0mg"},{"bike_id":"28588195-96e4-4128-a890-f1a3d95e6576","system_id":"levelo_inurba_marseille","lat":43.28443,"lon":5.3751,"is_reserved":false,"is_disabled":false,"rental_uris":{"android":"levelo://app?vid=28588195-96e4-4128-a890-f1a3d95e6576","ios":"levelo://app?vid=28588195-96e4-4128-a890-f1a3d95e6576"},"vehicle_type_id":"4","last_reported":1773098257,"current_range_meters":28000,"station_id":"ce4bh412rcd13ifvqds0","pricing_plan_id":"cebpf4jnsgd1na2vs0mg"},{"bike_id":"32f4fd17-9a0b-40d1-b8ed-5ad329b5ece5","system_id":"levelo_inurba_marseille","lat":43.24391,"lon":5.37085,"is_reserved":false,"is_disabled":false,"rental_uris":{"android":"levelo://app?vid=32f4fd17-9a0b-40d1-b8ed-5ad329b5ece5","ios":"levelo://app?vid=32f4fd17-9a0b-40d1-b8ed-5ad329b5ece5"},"vehicle_type_id":"4","last_reported":1773098257,"current_range_meters":38400,"station_id":"ce4bhhh2rcd13ifvqfk0","pricing_plan_id":"cebpf4jnsgd1na2vs0mg"},{"bike_id":"7143f00d-8d66-4577-8d9b-e0810e97ce11","system_id":"levelo_inurba_marseille","lat":43.27941,"lon":5.41057,"is_reserved":false,"is_disabled":false,"rental_uris":{"android":"levelo://app?vid=7143f00d-8d66-4577-8d9b-e0810e97ce11","ios":"levelo://app?vid=7143f00d-8d66-4577-8d9b-e0810e97ce11"},"vehicle_type_id":"4","last_reported":1773098257,"current_range_meters":8800,"station_id":"ce4bhnp2rcd13ifvqh0g","pricing_plan_id":"cebpf4jnsgd1na2vs0mg"},{"bike_id":"14cdf274-e20f-4219-a198-1507d732d1f7","system_id":"levelo_inurba_marseille","lat":43.29792,"lon":5.42569,"is_reserved":false,"is_disabled":false,"rental_uris":{"android":"levelo://app?vid=14cdf274-e20f-4219-a198-1507d732d1f7","ios":"levelo://app?vid=14cdf274-e20f-4219-a198-1507d732d1f7"},"vehicle_type_id":"4","last_reported":1773098257,"current_range_meters":6800,"station_id":"","pricing_plan_id":"cebpf4jnsgd1na2vs0mg"},{"bike_id":"dfdee6c1-784b-4644-802e-bdfd828518b2","system_id":"levelo_inurba_marseille","lat":43.3036,"lon":5.41899,"is_reserved":false,"is_disabled":false,"rental_uris":{"android":"levelo://app?vid=dfdee6c1-784b-4644-802e-bdfd828518b2","ios":"levelo://app?vid=dfdee6c1-784b-4644-802e-bdfd828518b2"},"vehicle_type_id":"4","last_reported":1773098257,"current_range_meters":38400,"station_id":"ce4bhop2rcd13ifvqh7g","pricing_plan_id":"cebpf4jnsgd1na2vs0mg"},{"bike_id":"8b8dd98e-f4d1-4977-89a6-b36968ac4347","system_id":"levelo_inurba_marseille","lat":43.29535,"lon":5.38541,"is_reserved":false,"is_disabled":true,"rental_uris":{"android":"levelo://app?vid=8b8dd98e-f4d1-4977-89a6-b36968ac4347","ios":"levelo://app?vid=8b8dd98e-f4d1-4977-89a6-b36968ac4347"},"vehicle_type_id":"4","last_reported":1773098257,"current_range_meters":12000,"station_id":"ce4bgih2rcd13ifvqba0","pricing_plan_id":"cebpf4jnsgd1na2vs0mg"},{"bike_id":"5b4a7d06-08d8-48ea-8164-c88ca94a329a","system_id":"levelo_inurba_marseille","lat":43.32362,"lon":5.36723,"is_reserved":false,"is_disabled":false,"rental_uris":{"android":"levelo://app?vid=5b4a7d06-08d8-48ea-8164-c88ca94a329a","ios":"levelo://app?vid=5b4a7d06-08d8-48ea-8164-c88ca94a329a"},"vehicle_type_id":"4","last_reported":1773098257,"current_range_meters":8000,"station_id":"ce4bhsh2rcd13ifvqi2g","pricing_plan_id":"cebpf4jnsgd1na2vs0mg"},{"bike_id":"e560ebf3-7a45-4dbf-a02c-90877126b61d","system_id":"levelo_inurba_marseille","lat":43.27067,"lon":5.42284,"is_reserved":false,"is_disabled":false,"rental_uris":{"android":"levelo://app?vid=e560ebf3-7a45-4dbf-a02c-90877126b61d","ios":"levelo://app?vid=e560ebf3-7a45-4dbf-a02c-90877126b61d"},"vehicle_type_id":"4","last_reported":1773098257,"current_range_meters":14400,"station_id":"ce4bhk92rcd13ifvqgb0","pricing_plan_id":"cebpf4jnsgd1na2vs0mg"},{"bike_id":"36d7eb66-84a9-46f2-a0b1-8642fa323249","system_id":"levelo_inurba_marseille","lat":43.24387,"lon":5.37065,"is_reserved":false,"is_disabled":false,"rental_uris":{"android":"levelo://app?vid=36d7eb66-84a9-46f2-a0b1-8642fa323249","ios":"levelo://app?vid=36d7eb66-84a9-46f2-a0b1-8642fa323249"},"vehicle_type_id":"4","last_reported":1773098257,"current_range_meters":38400,"station_id":"ce4bhhh2rcd13ifvqfk0","pricing_plan_id":"cebpf4jnsgd1na2vs0mg"},{"bike_id":"85b61058-16f0-4ad9-9359-66c73a186228","system_id":"levelo_inurba_marseille","lat":43.29218,"lon":5.36064,"is_reserved":false,"is_disabled":false,"rental_uris":{"android":"levelo://app?vid=85b61058-16f0-4ad9-9359-66c73a186228","ios":"levelo://app?vid=85b61058-16f0-4ad9-9359-66c73a186228"},"vehicle_type_id":"4","last_reported":1773098257,"current_range_meters":11200,"station_id":"ce4bhbh2rcd13ifvqeqg","pricing_plan_id":"cebpf4jnsgd1na2vs0mg"},{"bike_id":"389efbbe-9c76-4709-bf09-bd264406f18f","system_id":"levelo_inurba_marseille","lat":43.279694,"lon":5.387333,"is_reserved":false,"is_disabled":false,"rental_uris":{"android":"levelo://app?vid=389efbbe-9c76-4709-bf09-bd264406f18f","ios":"levelo://app?vid=389efbbe-9c76-4709-bf09-bd264406f18f"},"vehicle_type_id":"4","last_reported":1773098257,"current_range_meters":20800,"station_id":"ce4bhg12rcd13ifvqf80","pricing_plan_id":"cebpf4jnsgd1na2vs0mg"},{"bike_id":"465cd5fb-b580-41ad-86f4-40f4c5ecfb76","system_id":"levelo_inurba_marseille","lat":43.30594,"lon":5.37192,"is_reserved":false,"is_disabled":false,"rental_uris":{"android":"levelo://app?vid=465cd5fb-b580-41ad-86f4-40f4c5ecfb76","ios":"levelo://app?vid=465cd5fb-b580-41ad-86f4-40f4c5ecfb76"},"vehicle_type_id":"4","last_reported":1773098257,"current_range_meters":36800,"station_id":"ce4bgqh2rcd13ifvqc4g","pricing_plan_id":"cebpf4jnsgd1na2vs0mg"},{"bike_id":"48d00890-c5b7-42b8-a958-8b730cc5e8c6","system_id":"levelo_inurba_marseille","lat":43.26222,"lon":5.37473,"is_reserved":false,"is_disabled":false,"rental_uris":{"android":"levelo://app?vid=48d00890-c5b7-42b8-a958-8b730cc5e8c6","ios":"levelo://app?vid=48d00890-c5b7-42b8-a958-8b730cc5e8c6"},"vehicle_type_id":"4","last_reported":1773098257,"current_range_meters":12000,"station_id":"ce4bhgp2rcd13ifvqfc0","pricing_plan_id":"cebpf4jnsgd1na2vs0mg"},{"bike_id":"89f4fb04-0431-4019-8387-d9c8cae5c449","system_id":"levelo_inurba_marseille","lat":43.30659,"lon":5.40072,"is_reserved":false,"is_disabled":false,"rental_uris":{"android":"levelo://app?vid=89f4fb04-0431-4019-8387-d9c8cae5c449","ios":"levelo://app?vid=89f4fb04-0431-4019-8387-d9c8cae5c449"},"vehicle_type_id":"4","last_reported":1773098257,"current_range_meters":40000,"station_id":"ce4bh112rcd13ifvqda0","pricing_plan_id":"cebpf4jnsgd1na2vs0mg"},{"bike_id":"89a33d1e-1556-4628-94fc-49475551a9cc","system_id":"levelo_inurba_marseille","lat":43.23147,"lon":5.43718,"is_reserved":false,"is_disabled":false,"rental_uris":{"android":"levelo://app?vid=89a33d1e-1556-4628-94fc-49475551a9cc","ios":"levelo://app?vid=89a33d1e-1556-4628-94fc-49475551a9cc"},"vehicle_type_id":"4","last_reported":1773098257,"current_range_meters":20400,"station_id":"ce4bhmp2rcd13ifvqgog","pricing_plan_id":"cebpf4jnsgd1na2vs0mg"},{"bike_id":"cd9f2912-379b-4a08-a1b1-6ec8522324a3","system_id":"levelo_inurba_marseille","lat":43.29622,"lon":5.37154,"is_reserved":false,"is_disabled":false,"rental_uris":{"android":"levelo://app?vid=cd9f2912-379b-4a08-a1b1-6ec8522324a3","ios":"levelo://app?vid=cd9f2912-379b-4a08-a1b1-6ec8522324a3"},"vehicle_type_id":"4","last_reported":1773098257,"current_range_meters":35600,"station_id":"ce4bgnh2rcd13ifvqc0g","pricing_plan_id":"cebpf4jnsgd1na2vs0mg"},{"bike_id":"008639b3-16fc-4cfb-932f-e0603ccdaaa3","system_id":"levelo_inurba_marseille","lat":43.3054,"lon":5.3844,"is_reserved":false,"is_disabled":false,"rental_uris":{"android":"levelo://app?vid=008639b3-16fc-4cfb-932f-e0603ccdaaa3","ios":"levelo://app?vid=008639b3-16fc-4cfb-932f-e0603ccdaaa3"},"vehicle_type_id":"4","last_reported":1773098257,"current_range_meters":33600,"station_id":"ce4bgg92rcd13ifvqb30","pricing_plan_id":"cebpf4jnsgd1na2vs0mg"},{"bike_id":"1690202c-d927-4998-8ec5-bf93e4331b2e","system_id":"levelo_inurba_marseille","lat":43.28784,"lon":5.41194,"is_reserved":false,"is_disabled":false,"rental_uris":{"android":"levelo://app?vid=1690202c-d927-4998-8ec5-bf93e4331b2e","ios":"levelo://app?vid=1690202c-d927-4998-8ec5-bf93e4331b2e"},"vehicle_type_id":"4","last_reported":1773098257,"current_range_meters":39200,"station_id":"","pricing_plan_id":"cebpf4jnsgd1na2vs0mg"},{"bike_id":"f96f7df6-bf7a-4078-b18f-34f848475d7f","system_id":"levelo_inurba_marseille","lat":43.27523,"lon":5.42405,"is_reserved":false,"is_disabled":false,"rental_uris":{"android":"levelo://app?vid=f96f7df6-bf7a-4078-b18f-34f848475d7f","ios":"levelo://app?vid=f96f7df6-bf7a-4078-b18f-34f848475d7f"},"vehicle_type_id":"4","last_reported":1773098257,"current_range_meters":16400,"station_id":"ce4bhn92rcd13ifvqgrg","pricing_plan_id":"cebpf4jnsgd1na2vs0mg"},{"bike_id":"14e1269b-a637-4451-9ace-0f4cad37e78f","system_id":"levelo_inurba_marseille","lat":43.29675,"lon":5.36589,"is_reserved":false,"is_disabled":false,"rental_uris":{"android":"levelo://app?vid=14e1269b-a637-4451-9ace-0f4cad37e78f","ios":"levelo://app?vid=14e1269b-a637-4451-9ace-0f4cad37e78f"},"vehicle_type_id":"4","last_reported":1773098257,"current_range_meters":4400,"station_id":"ce4bgn12rcd13ifvqbt0","pricing_plan_id":"cebpf4jnsgd1na2vs0mg"},{"bike_id":"cec1b99b-f8d1-45bf-8f5e-32533eeaa13e","system_id":"levelo_inurba_marseille","lat":43.23177,"lon":5.43739,"is_reserved":false,"is_disabled":false,"rental_uris":{"android":"levelo://app?vid=cec1b99b-f8d1-45bf-8f5e-32533eeaa13e","ios":"levelo://app?vid=cec1b99b-f8d1-45bf-8f5e-32533eeaa13e"},"vehicle_type_id":"4","last_reported":1773098257,"current_range_meters":38000,"station_id":"ce4bhmp2rcd13ifvqgog","pricing_plan_id":"cebpf4jnsgd1na2vs0mg"},{"bike_id":"ad5d0942-4286-47b9-9fa4-31cde5c84d6a","system_id":"levelo_inurba_marseille","lat":43.27493,"lon":5.42455,"is_reserved":false,"is_disabled":false,"rental_uris":{"android":"levelo://app?vid=ad5d0942-4286-47b9-9fa4-31cde5c84d6a","ios":"levelo://app?vid=ad5d0942-4286-47b9-9fa4-31cde5c84d6a"},"vehicle_type_id":"4","last_reported":1773098257,"current_range_meters":38000,"station_id":"ce4bhn92rcd13ifvqgrg","pricing_plan_id":"cebpf4jnsgd1na2vs0mg"},{"bike_id":"e17f765f-1e87-49e4-95ac-2ed816a86075","system_id":"levelo_inurba_marseille","lat":43.26053,"lon":5.39406,"is_reserved":false,"is_disabled":false,"rental_uris":{"android":"levelo://app?vid=e17f765f-1e87-49e4-95ac-2ed816a86075","ios":"levelo://app?vid=e17f765f-1e87-49e4-95ac-2ed816a86075"},"vehicle_type_id":"4","last_reported":1773098257,"current_range_meters":38000,"station_id":"ce4bhh92rcd13ifvqfj0","pricing_plan_id":"cebpf4jnsgd1na2vs0mg"},{"bike_id":"246200bc-e5ad-4299-aaa6-45e52f307eef","system_id":"levelo_inurba_marseille","lat":43.28759,"lon":5.35826,"is_reserved":false,"is_disabled":false,"rental_uris":{"android":"levelo://app?vid=246200bc-e5ad-4299-aaa6-45e52f307eef","ios":"levelo://app?vid=246200bc-e5ad-4299-aaa6-45e52f307eef"},"vehicle_type_id":"4","last_reported":1773098257,"current_range_meters":6400,"station_id":"","pricing_plan_id":"cebpf4jnsgd1na2vs0mg"},{"bike_id":"d989e1b5-f59c-4274-b08b-41d897e6477f","system_id":"levelo_inurba_marseille","lat":43.25493,"lon":5.3768,"is_reserved":false,"is_disabled":false,"rental_uris":{"android":"levelo://app?vid=d989e1b5-f59c-4274-b08b-41d897e6477f","ios":"levelo://app?vid=d989e1b5-f59c-4274-b08b-41d897e6477f"},"vehicle_type_id":"4","last_reported":1773098257,"current_range_meters":38800,"station_id":"ce4bhh12rcd13ifvqff0","pricing_plan_id":"cebpf4jnsgd1na2vs0mg"},{"bike_id":"0e06d055-0bb0-4f56-8c8c-2d513918d2a2","system_id":"levelo_inurba_marseille","lat":43.30243,"lon":5.40085,"is_reserved":false,"is_disabled":true,"rental_uris":{"android":"levelo://app?vid=0e06d055-0bb0-4f56-8c8c-2d513918d2a2","ios":"levelo://app?vid=0e06d055-0bb0-4f56-8c8c-2d513918d2a2"},"vehicle_type_id":"4","last_reported":1773098257,"current_range_meters":30000,"station_id":"ce4bgvh2rcd13ifvqcs0","pricing_plan_id":"cebpf4jnsgd1na2vs0mg"},{"bike_id":"cdf5370e-c834-4c7c-aceb-ca6fb936e4ca","system_id":"levelo_inurba_marseille","lat":43.26204,"lon":5.4044,"is_reserved":false,"is_disabled":false,"rental_uris":{"android":"levelo://app?vid=cdf5370e-c834-4c7c-aceb-ca6fb936e4ca","ios":"levelo://app?vid=cdf5370e-c834-4c7c-aceb-ca6fb936e4ca"},"vehicle_type_id":"4","last_reported":1773098257,"current_range_meters":3600,"station_id":"ce4bhmh2rcd13ifvqgmg","pricing_plan_id":"cebpf4jnsgd1na2vs0mg"},{"bike_id":"8acca59a-a150-479e-b1aa-c401dcc17a36","system_id":"levelo_inurba_marseille","lat":43.25592,"lon":5.3825,"is_reserved":false,"is_disabled":false,"rental_uris":{"android":"levelo://app?vid=8acca59a-a150-479e-b1aa-c401dcc17a36","ios":"levelo://app?vid=8acca59a-a150-479e-b1aa-c401dcc17a36"},"vehicle_type_id":"4","last_reported":1773098257,"current_range_meters":38400,"station_id":"ce4bhih2rcd13ifvqfs0","pricing_plan_id":"cebpf4jnsgd1na2vs0mg"},{"bike_id":"9de26f6b-c509-4d10-b3ca-8a02bbe02569","system_id":"levelo_inurba_marseille","lat":43.24473,"lon":5.42551,"is_reserved":false,"is_disabled":false,"rental_uris":{"android":"levelo://app?vid=9de26f6b-c509-4d10-b3ca-8a02bbe02569","ios":"levelo://app?vid=9de26f6b-c509-4d10-b3ca-8a02bbe02569"},"vehicle_type_id":"4","last_reported":1773098257,"current_range_meters":17600,"station_id":"st_d4a3vfp97mjs738cd8kg","pricing_plan_id":"cebpf4jnsgd1na2vs0mg"},{"bike_id":"69a2e8cb-b4c4-4643-a4d5-81133b7d7d8a","system_id":"levelo_inurba_marseille","lat":43.32103,"lon":5.36776,"is_reserved":false,"is_disabled":false,"rental_uris":{"android":"levelo://app?vid=69a2e8cb-b4c4-4643-a4d5-81133b7d7d8a","ios":"levelo://app?vid=69a2e8cb-b4c4-4643-a4d5-81133b7d7d8a"},"vehicle_type_id":"4","last_reported":1773098257,"current_range_meters":9600,"station_id":"ce4bhrh2rcd13ifvqhug","pricing_plan_id":"cebpf4jnsgd1na2vs0mg"},{"bike_id":"b68538a9-a224-4821-be16-aa92f306a2cb","system_id":"levelo_inurba_marseille","lat":43.31172,"lon":5.38735,"is_reserved":false,"is_disabled":false,"rental_uris":{"android":"levelo://app?vid=b68538a9-a224-4821-be16-aa92f306a2cb","ios":"levelo://app?vid=b68538a9-a224-4821-be16-aa92f306a2cb"},"vehicle_type_id":"4","last_reported":1773098257,"current_range_meters":11200,"station_id":"ce4bgv12rcd13ifvqcp0","pricing_plan_id":"cebpf4jnsgd1na2vs0mg"},{"bike_id":"b2223b88-5338-4f8b-b5d9-267d751e6d6c","system_id":"levelo_inurba_marseille","lat":43.28614,"lon":5.35102,"is_reserved":false,"is_disabled":false,"rental_uris":{"android":"levelo://app?vid=b2223b88-5338-4f8b-b5d9-267d751e6d6c","ios":"levelo://app?vid=b2223b88-5338-4f8b-b5d9-267d751e6d6c"},"vehicle_type_id":"4","last_reported":1773098257,"current_range_meters":29600,"station_id":"ce4bhch2rcd13ifvqeug","pricing_plan_id":"cebpf4jnsgd1na2vs0mg"},{"bike_id":"0d3555bb-0843-47fc-a655-b77b1617fb2c","system_id":"levelo_inurba_marseille","lat":43.2962,"lon":5.37147,"is_reserved":false,"is_disabled":true,"rental_uris":{"android":"levelo://app?vid=0d3555bb-0843-47fc-a655-b77b1617fb2c","ios":"levelo://app?vid=0d3555bb-0843-47fc-a655-b77b1617fb2c"},"vehicle_type_id":"4","last_reported":1773098257,"current_range_meters":19600,"station_id":"ce4bgnh2rcd13ifvqc0g","pricing_plan_id":"cebpf4jnsgd1na2vs0mg"},{"bike_id":"cd80f9a9-6b16-43d6-bdaf-4283084b4755","system_id":"levelo_inurba_marseille","lat":43.2795,"lon":5.41054,"is_reserved":false,"is_disabled":false,"rental_uris":{"android":"levelo://app?vid=cd80f9a9-6b16-43d6-bdaf-4283084b4755","ios":"levelo://app?vid=cd80f9a9-6b16-43d6-bdaf-4283084b4755"},"vehicle_type_id":"4","last_reported":1773098257,"current_range_meters":28800,"station_id":"ce4bhnp2rcd13ifvqh0g","pricing_plan_id":"cebpf4jnsgd1na2vs0mg"},{"bike_id":"fe6018bf-9aa2-4a12-9855-ddbfcd78f38a","system_id":"levelo_inurba_marseille","lat":43.28589,"lon":5.39917,"is_reserved":false,"is_disabled":false,"rental_uris":{"android":"levelo://app?vid=fe6018bf-9aa2-4a12-9855-ddbfcd78f38a","ios":"levelo://app?vid=fe6018bf-9aa2-4a12-9855-ddbfcd78f38a"},"vehicle_type_id":"4","last_reported":1773098257,"current_range_meters":20000,"station_id":"st_d4a7ka997mjs738ck50g","pricing_plan_id":"cebpf4jnsgd1na2vs0mg"},{"bike_id":"53ef9d1c-2fac-4a44-b42b-e99dcab2d36a","system_id":"levelo_inurba_marseille","lat":43.2482,"lon":5.37456,"is_reserved":false,"is_disabled":false,"rental_uris":{"android":"levelo://app?vid=53ef9d1c-2fac-4a44-b42b-e99dcab2d36a","ios":"levelo://app?vid=53ef9d1c-2fac-4a44-b42b-e99dcab2d36a"},"vehicle_type_id":"4","last_reported":1773098257,"current_range_meters":26000,"station_id":"ce4bhgh2rcd13ifvqfb0","pricing_plan_id":"cebpf4jnsgd1na2vs0mg"},{"bike_id":"9cfd9909-d0c9-4688-b480-96983a217a63","system_id":"levelo_inurba_marseille","lat":43.31493,"lon":5.37314,"is_reserved":false,"is_disabled":false,"rental_uris":{"android":"levelo://app?vid=9cfd9909-d0c9-4688-b480-96983a217a63","ios":"levelo://app?vid=9cfd9909-d0c9-4688-b480-96983a217a63"},"vehicle_type_id":"4","last_reported":1773098257,"current_range_meters":33600,"station_id":"ce4bgt12rcd13ifvqcd0","pricing_plan_id":"cebpf4jnsgd1na2vs0mg"},{"bike_id":"427a99b2-dd28-4439-9f30-585786133da2","system_id":"levelo_inurba_marseille","lat":43.26678,"lon":5.38293,"is_reserved":false,"is_disabled":false,"rental_uris":{"android":"levelo://app?vid=427a99b2-dd28-4439-9f30-585786133da2","ios":"levelo://app?vid=427a99b2-dd28-4439-9f30-585786133da2"},"vehicle_type_id":"4","last_reported":1773098257,"current_range_meters":24400,"station_id":"ce4bhg92rcd13ifvqf90","pricing_plan_id":"cebpf4jnsgd1na2vs0mg"},{"bike_id":"d2164ec5-0098-440b-8105-bbcf03d5b33d","system_id":"levelo_inurba_marseille","lat":43.3,"lon":5.38493,"is_reserved":false,"is_disabled":false,"rental_uris":{"android":"levelo://app?vid=d2164ec5-0098-440b-8105-bbcf03d5b33d","ios":"levelo://app?vid=d2164ec5-0098-440b-8105-bbcf03d5b33d"},"vehicle_type_id":"4","last_reported":1773098257,"current_range_meters":8800,"station_id":"ce4bgj92rcd13ifvqbd0","pricing_plan_id":"cebpf4jnsgd1na2vs0mg"},{"bike_id":"0f6227ed-0f44-45a2-8455-212d59c52a31","system_id":"levelo_inurba_marseille","lat":43.28477,"lon":5.48394,"is_reserved":false,"is_disabled":false,"rental_uris":{"android":"levelo://app?vid=0f6227ed-0f44-45a2-8455-212d59c52a31","ios":"levelo://app?vid=0f6227ed-0f44-45a2-8455-212d59c52a31"},"vehicle_type_id":"4","last_reported":1773098257,"current_range_meters":39200,"station_id":"","pricing_plan_id":"cebpf4jnsgd1na2vs0mg"},{"bike_id":"3bedcfef-d9cf-4818-bb13-df0d76f2b81c","system_id":"levelo_inurba_marseille","lat":43.22561,"lon":5.41633,"is_reserved":false,"is_disabled":false,"rental_uris":{"android":"levelo://app?vid=3bedcfef-d9cf-4818-bb13-df0d76f2b81c","ios":"levelo://app?vid=3bedcfef-d9cf-4818-bb13-df0d76f2b81c"},"vehicle_type_id":"4","last_reported":1773098257,"current_range_meters":12400,"station_id":"st_d2o4gvlbi1j2169b742g","pricing_plan_id":"cebpf4jnsgd1na2vs0mg"},{"bike_id":"76307a73-b3c7-4379-bdba-3bbcd03bc18f","system_id":"levelo_inurba_marseille","lat":43.30786,"lon":5.37661,"is_reserved":false,"is_disabled":false,"rental_uris":{"android":"levelo://app?vid=76307a73-b3c7-4379-bdba-3bbcd03bc18f","ios":"levelo://app?vid=76307a73-b3c7-4379-bdba-3bbcd03bc18f"},"vehicle_type_id":"4","last_reported":1773098257,"current_range_meters":38400,"station_id":"ce4bgv92rcd13ifvqcq0","pricing_plan_id":"cebpf4jnsgd1na2vs0mg"},{"bike_id":"4243d778-d8be-44c6-828f-e3622fd200d9","system_id":"levelo_inurba_marseille","lat":43.2954,"lon":5.38562,"is_reserved":false,"is_disabled":true,"rental_uris":{"android":"levelo://app?vid=4243d778-d8be-44c6-828f-e3622fd200d9","ios":"levelo://app?vid=4243d778-d8be-44c6-828f-e3622fd200d9"},"vehicle_type_id":"4","last_reported":1773098257,"current_range_meters":5600,"station_id":"ce4bgih2rcd13ifvqba0","pricing_plan_id":"cebpf4jnsgd1na2vs0mg"},{"bike_id":"a26814d3-4b6d-483e-b0c6-eec610890280","system_id":"levelo_inurba_marseille","lat":43.29043,"lon":5.3593,"is_reserved":false,"is_disabled":false,"rental_uris":{"android":"levelo://app?vid=a26814d3-4b6d-483e-b0c6-eec610890280","ios":"levelo://app?vid=a26814d3-4b6d-483e-b0c6-eec610890280"},"vehicle_type_id":"4","last_reported":1773098257,"current_range_meters":38400,"station_id":"ce4bha92rcd13ifvqeg0","pricing_plan_id":"cebpf4jnsgd1na2vs0mg"},{"bike_id":"82df2698-a0ae-4082-af32-b3ee40e7f47c","system_id":"levelo_inurba_marseille","lat":43.32112,"lon":5.36786,"is_reserved":false,"is_disabled":false,"rental_uris":{"android":"levelo://app?vid=82df2698-a0ae-4082-af32-b3ee40e7f47c","ios":"levelo://app?vid=82df2698-a0ae-4082-af32-b3ee40e7f47c"},"vehicle_type_id":"4","last_reported":1773098257,"current_range_meters":30400,"station_id":"ce4bhrh2rcd13ifvqhug","pricing_plan_id":"cebpf4jnsgd1na2vs0mg"},{"bike_id":"198f4853-a081-4b0c-a32e-bc4e5239b772","system_id":"levelo_inurba_marseille","lat":43.29029,"lon":5.38652,"is_reserved":false,"is_disabled":false,"rental_uris":{"android":"levelo://app?vid=198f4853-a081-4b0c-a32e-bc4e5239b772","ios":"levelo://app?vid=198f4853-a081-4b0c-a32e-bc4e5239b772"},"vehicle_type_id":"4","last_reported":1773098257,"current_range_meters":35600,"station_id":"ce4bh4p2rcd13ifvqe0g","pricing_plan_id":"cebpf4jnsgd1na2vs0mg"},{"bike_id":"03a291c8-cb0a-4cca-8d5c-c2ed3805aad7","system_id":"levelo_inurba_marseille","lat":43.28851,"lon":5.42518,"is_reserved":false,"is_disabled":false,"rental_uris":{"android":"levelo://app?vid=03a291c8-cb0a-4cca-8d5c-c2ed3805aad7","ios":"levelo://app?vid=03a291c8-cb0a-4cca-8d5c-c2ed3805aad7"},"vehicle_type_id":"4","last_reported":1773098257,"current_range_meters":6800,"station_id":"st_d3b462108ojc7389ooeg","pricing_plan_id":"cebpf4jnsgd1na2vs0mg"},{"bike_id":"ed96406d-1442-4e06-9700-e969655751bf","system_id":"levelo_inurba_marseille","lat":43.2979,"lon":5.37102,"is_reserved":false,"is_disabled":false,"rental_uris":{"android":"levelo://app?vid=ed96406d-1442-4e06-9700-e969655751bf","ios":"levelo://app?vid=ed96406d-1442-4e06-9700-e969655751bf"},"vehicle_type_id":"4","last_reported":1773098257,"current_range_meters":39200,"station_id":"ce4bgop2rcd13ifvqc1g","pricing_plan_id":"cebpf4jnsgd1na2vs0mg"},{"bike_id":"a379f09f-859a-401a-9375-e035025fc013","system_id":"levelo_inurba_marseille","lat":43.24664,"lon":5.38187,"is_reserved":false,"is_disabled":false,"rental_uris":{"android":"levelo://app?vid=a379f09f-859a-401a-9375-e035025fc013","ios":"levelo://app?vid=a379f09f-859a-401a-9375-e035025fc013"},"vehicle_type_id":"4","last_reported":1773098257,"current_range_meters":38000,"station_id":"ce4bhih2rcd13ifvqfr0","pricing_plan_id":"cebpf4jnsgd1na2vs0mg"},{"bike_id":"2f3d4811-96cb-417a-bc94-9ab57c947451","system_id":"levelo_inurba_marseille","lat":43.2464,"lon":5.38898,"is_reserved":false,"is_disabled":false,"rental_uris":{"android":"levelo://app?vid=2f3d4811-96cb-417a-bc94-9ab57c947451","ios":"levelo://app?vid=2f3d4811-96cb-417a-bc94-9ab57c947451"},"vehicle_type_id":"4","last_reported":1773098257,"current_range_meters":20000,"station_id":"ce4bhg12rcd13ifvqf60","pricing_plan_id":"cebpf4jnsgd1na2vs0mg"},{"bike_id":"8b6564f5-428a-4754-a580-45277f24fc05","system_id":"levelo_inurba_marseille","lat":43.29036,"lon":5.35922,"is_reserved":false,"is_disabled":false,"rental_uris":{"android":"levelo://app?vid=8b6564f5-428a-4754-a580-45277f24fc05","ios":"levelo://app?vid=8b6564f5-428a-4754-a580-45277f24fc05"},"vehicle_type_id":"4","last_reported":1773098257,"current_range_meters":20000,"station_id":"ce4bha92rcd13ifvqeg0","pricing_plan_id":"cebpf4jnsgd1na2vs0mg"},{"bike_id":"51be5aec-8051-44bf-b98f-6b36952ac610","system_id":"levelo_inurba_marseille","lat":43.30132,"lon":5.39859,"is_reserved":false,"is_disabled":false,"rental_uris":{"android":"levelo://app?vid=51be5aec-8051-44bf-b98f-6b36952ac610","ios":"levelo://app?vid=51be5aec-8051-44bf-b98f-6b36952ac610"},"vehicle_type_id":"4","last_reported":1773098257,"current_range_meters":38400,"station_id":"ce4bh0h2rcd13ifvqd40","pricing_plan_id":"cebpf4jnsgd1na2vs0mg"},{"bike_id":"f69d63bd-e4b1-4110-ae9b-987547c8e6c9","system_id":"levelo_inurba_marseille","lat":43.26538,"lon":5.37296,"is_reserved":false,"is_disabled":false,"rental_uris":{"android":"levelo://app?vid=f69d63bd-e4b1-4110-ae9b-987547c8e6c9","ios":"levelo://app?vid=f69d63bd-e4b1-4110-ae9b-987547c8e6c9"},"vehicle_type_id":"4","last_reported":1773098257,"current_range_meters":39200,"station_id":"ce4bhg12rcd13ifvqf70","pricing_plan_id":"cebpf4jnsgd1na2vs0mg"},{"bike_id":"bdc79b6f-2ae9-4d5b-a8cc-e0094ad4781e","system_id":"levelo_inurba_marseille","lat":43.29933,"lon":5.38618,"is_reserved":false,"is_disabled":false,"rental_uris":{"android":"levelo://app?vid=bdc79b6f-2ae9-4d5b-a8cc-e0094ad4781e","ios":"levelo://app?vid=bdc79b6f-2ae9-4d5b-a8cc-e0094ad4781e"},"vehicle_type_id":"4","last_reported":1773098257,"current_range_meters":32000,"station_id":"","pricing_plan_id":"cebpf4jnsgd1na2vs0mg"},{"bike_id":"59b077ee-7a50-4cb2-a987-ca5f7783aa6e","system_id":"levelo_inurba_marseille","lat":43.29192,"lon":5.39317,"is_reserved":false,"is_disabled":false,"rental_uris":{"android":"levelo://app?vid=59b077ee-7a50-4cb2-a987-ca5f7783aa6e","ios":"levelo://app?vid=59b077ee-7a50-4cb2-a987-ca5f7783aa6e"},"vehicle_type_id":"4","last_reported":1773098257,"current_range_meters":39200,"station_id":"ce4bh192rcd13ifvqdd0","pricing_plan_id":"cebpf4jnsgd1na2vs0mg"},{"bike_id":"44b0b289-46e3-4948-b655-0f53069bb204","system_id":"levelo_inurba_marseille","lat":43.29588,"lon":5.3753,"is_reserved":false,"is_disabled":false,"rental_uris":{"android":"levelo://app?vid=44b0b289-46e3-4948-b655-0f53069bb204","ios":"levelo://app?vid=44b0b289-46e3-4948-b655-0f53069bb204"},"vehicle_type_id":"4","last_reported":1773098257,"current_range_meters":29600,"station_id":"ce4bgh92rcd13ifvqb50","pricing_plan_id":"cebpf4jnsgd1na2vs0mg"},{"bike_id":"6801b74e-8cc9-4af8-998e-f9e6dceddca1","system_id":"levelo_inurba_marseille","lat":43.30877,"lon":5.39624,"is_reserved":false,"is_disabled":false,"rental_uris":{"android":"levelo://app?vid=6801b74e-8cc9-4af8-998e-f9e6dceddca1","ios":"levelo://app?vid=6801b74e-8cc9-4af8-998e-f9e6dceddca1"},"vehicle_type_id":"4","last_reported":1773098257,"current_range_meters":39200,"station_id":"ce4bh012rcd13ifvqcv0","pricing_plan_id":"cebpf4jnsgd1na2vs0mg"},{"bike_id":"8a8fe5ae-9374-4de5-8ab0-b45e0e3f97ba","system_id":"levelo_inurba_marseille","lat":43.26602,"lon":5.39013,"is_reserved":false,"is_disabled":false,"rental_uris":{"android":"levelo://app?vid=8a8fe5ae-9374-4de5-8ab0-b45e0e3f97ba","ios":"levelo://app?vid=8a8fe5ae-9374-4de5-8ab0-b45e0e3f97ba"},"vehicle_type_id":"4","last_reported":1773098257,"current_range_meters":11600,"station_id":"","pricing_plan_id":"cebpf4jnsgd1na2vs0mg"},{"bike_id":"4da79f0e-7a50-473b-a18a-d7a128419bab","system_id":"levelo_inurba_marseille","lat":43.29377,"lon":5.37834,"is_reserved":false,"is_disabled":false,"rental_uris":{"android":"levelo://app?vid=4da79f0e-7a50-473b-a18a-d7a128419bab","ios":"levelo://app?vid=4da79f0e-7a50-473b-a18a-d7a128419bab"},"vehicle_type_id":"4","last_reported":1773098257,"current_range_meters":37600,"station_id":"ce4bgjh2rcd13ifvqbf0","pricing_plan_id":"cebpf4jnsgd1na2vs0mg"},{"bike_id":"b88f7b61-d43f-411e-a96c-f4778431c1b6","system_id":"levelo_inurba_marseille","lat":43.28935,"lon":5.36394,"is_reserved":false,"is_disabled":false,"rental_uris":{"android":"levelo://app?vid=b88f7b61-d43f-411e-a96c-f4778431c1b6","ios":"levelo://app?vid=b88f7b61-d43f-411e-a96c-f4778431c1b6"},"vehicle_type_id":"4","last_reported":1773098257,"current_range_meters":39200,"station_id":"ce4bhc92rcd13ifvqetg","pricing_plan_id":"cebpf4jnsgd1na2vs0mg"},{"bike_id":"6557ab9a-b877-41c9-a3be-92e487566b3e","system_id":"levelo_inurba_marseille","lat":43.29302,"lon":5.3745,"is_reserved":false,"is_disabled":false,"rental_uris":{"android":"levelo://app?vid=6557ab9a-b877-41c9-a3be-92e487566b3e","ios":"levelo://app?vid=6557ab9a-b877-41c9-a3be-92e487566b3e"},"vehicle_type_id":"4","last_reported":1773098257,"current_range_meters":14800,"station_id":"ce4bgi12rcd13ifvqb70","pricing_plan_id":"cebpf4jnsgd1na2vs0mg"},{"bike_id":"dc654d37-b3ac-4044-836c-363113fa0215","system_id":"levelo_inurba_marseille","lat":43.28692,"lon":5.38648,"is_reserved":false,"is_disabled":true,"rental_uris":{"android":"levelo://app?vid=dc654d37-b3ac-4044-836c-363113fa0215","ios":"levelo://app?vid=dc654d37-b3ac-4044-836c-363113fa0215"},