{"last_updated":1731226222,"ttl":60,"version":"2.2","data":{"bikes":[{"bike_id":"dcd8b508-2c18-4839-ab68-7b52cc2d3fb7","system_id":"levelo_inurba_marseille","lat":43.2707,"lon":5.42274,"is_reserved":false,"is_disabled":false,"rental_uris":{"android":"levelo://app?vid=dcd8b508-2c18-4839-ab68-7b52cc2d3fb7","ios":"levelo://app?vid=dcd8b508-2c18-4839-ab68-7b52cc2d3fb7"},"vehicle_type_id":"4","last_reported":1731226222,"current_range_meters":31200,"station_id":"ce4bhk92rcd13ifvqgb0","pricing_plan_id":"cebpf4jnsgd1na2vs0mg"},{"bike_id":"e94e2327-9eaf-4d26-bd7f-903afa708be6","system_id":"levelo_inurba_marseille","lat":43.33727,"lon":5.3918,"is_reserved":false,"is_disabled":false,"rental_uris":{"android":"levelo://app?vid=e94e2327-9eaf-4d26-bd7f-903afa708be6","ios":"levelo://app?vid=e94e2327-9eaf-4d26-bd7f-903afa708be6"},"vehicle_type_id":"4","last_reported":1731226222,"current_range_meters":15200,"station_id":"ce4bhr92rcd13ifvqhsg","pricing_plan_id":"cebpf4jnsgd1na2vs0mg"},{"bike_id":"3f98d5bc-8cba-45da-9b18-d2bbd2d31032","system_id":"levelo_inurba_marseille","lat":43.29005,"lon":5.35616,"is_reserved":false,"is_disabled":false,"rental_uris":{"android":"levelo://app?vid=3f98d5bc-8cba-45da-9b18-d2bbd2d31032","ios":"levelo://app?vid=3f98d5bc-8cba-45da-9b18-d2bbd2d31032"},"vehicle_type_id":"4","last_reported":1731226222,"current_range_meters":14800,"station_id":"ce4bhb92rcd13ifvqen0","pricing_plan_id":"cebpf4jnsgd1na2vs0mg"},{"bike_id":"03b21e3c-734f-4951-bf01-23147218d4fc","system_id":"levelo_inurba_marseille","lat":43.29199,"lon":5.36009,"is_reserved":false,"is_disabled":false,"rental_uris":{"android":"levelo://app?vid=03b21e3c-734f-4951-bf01-23147218d4fc","ios":"levelo://app?vid=03b21e3c-734f-4951-bf01-23147218d4fc"},"vehicle_type_id":"4","last_reported":1731226222,"current_range_meters":10000,"station_id":"ce4bhbh2rcd13ifvqeqg","pricing_plan_id":"cebpf4jnsgd1na2vs0mg"},{"bike_id":"4d807e1d-e928-4f4e-a3d6-537ea1b965f5","system_id":"levelo_inurba_marseille","lat":43.27373,"lon":5.36255,"is_reserved":false,"is_disabled":false,"rental_uris":{"android":"levelo://app?vid=4d807e1d-e928-4f4e-a3d6-537ea1b965f5","ios":"levelo://app?vid=4d807e1d-e928-4f4e-a3d6-537ea1b965f5"},"vehicle_type_id":"4","last_reported":1731226222,"current_range_meters":38800,"station_id":"ce4bhbh2rcd13ifvqeo0","pricing_plan_id":"cebpf4jnsgd1na2vs0mg"},{"bike_id":"8d618ad3-e42f-4b7f-961b-1ad00e2aa17c","system_id":"levelo_inurba_marseille","lat":43.25007,"lon":5.38925,"is_reserved":false,"is_disabled":false,"rental_uris":{"android":"levelo://app?vid=8d618ad3-e42f-4b7f-961b-1ad00e2aa17c","ios":"levelo://app?vid=8d618ad3-e42f-4b7f-961b-1ad00e2aa17c"},"vehicle_type_id":"4","last_reported":1731226222,"current_range_meters":38000,"station_id":"ce4bhgp2rcd13ifvqfd0","pricing_plan_id":"cebpf4jnsgd1na2vs0mg"},{"bike_id":"68bb9078-c705-4e4c-81de-7ae7c7d86c43","system_id":"levelo_inurba_marseille","lat":43.31569,"lon":5.37788,"is_reserved":false,"is_disabled":false,"rental_uris":{"android":"levelo://app?vid=68bb9078-c705-4e4c-81de-7ae7c7d86c43","ios":"levelo://app?vid=68bb9078-c705-4e4c-81de-7ae7c7d86c43"},"vehicle_type_id":"4","last_reported":1731226222,"current_range_meters":25200,"station_id":"ce4bgth2rcd13ifvqch0","pricing_plan_id":"cebpf4jnsgd1na2vs0mg"},{"bike_id":"016fd715-3839-42e3-a00b-dd23ea8d4fea","system_id":"levelo_inurba_marseille","lat":43.30531,"lon":5.36708,"is_reserved":false,"is_disabled":false,"rental_uris":{"android":"levelo://app?vid=016fd715-3839-42e3-a00b-dd23ea8d4fea","ios":"levelo://app?vid=016fd715-3839-42e3-a00b-dd23ea8d4fea"},"vehicle_type_id":"4","last_reported":1731226222,"current_range_meters":36800,"station_id":"ce4bgrp2rcd13ifvqc9g","pricing_plan_id":"cebpf4jnsgd1na2vs0mg"},{"bike_id":"526a8f2f-d921-4a24-b4a9-35fa9b4ad996","system_id":"levelo_inurba_marseille","lat":43.29483,"lon":5.397996,"is_reserved":false,"is_disabled":false,"rental_uris":{"android":"levelo://app?vid=526a8f2f-d921-4a24-b4a9-35fa9b4ad996","ios":"levelo://app?vid=526a8f2f-d921-4a24-b4a9-35fa9b4ad996"},"vehicle_type_id":"4","last_reported":1731226222,"current_range_meters":27200,"station_id":"ce4bh0h2rcd13ifvqd50","pricing_plan_id":"cebpf4jnsgd1na2vs0mg"},{"bike_id":"5daf7e81-adca-4c69-ac49-7439dac41928","system_id":"levelo_inurba_marseille","lat":43.29547,"lon":5.42284,"is_reserved":false,"is_disabled":false,"rental_uris":{"android":"levelo://app?vid=5daf7e81-adca-4c69-ac49-7439dac41928","ios":"levelo://app?vid=5daf7e81-adca-4c69-ac49-7439dac41928"},"vehicle_type_id":"4","last_reported":1731226222,"current_range_meters":38800,"station_id":"ce4bhph2rcd13ifvqhdg","pricing_plan_id":"cebpf4jnsgd1na2vs0mg"},{"bike_id":"650378b6-25c8-4aef-bb74-6953c5aa449e","system_id":"levelo_inurba_marseille","lat":43.2861,"lon":5.37062,"is_reserved":false,"is_disabled":false,"rental_uris":{"android":"levelo://app?vid=650378b6-25c8-4aef-bb74-6953c5aa449e","ios":"levelo://app?vid=650378b6-25c8-4aef-bb74-6953c5aa449e"},"vehicle_type_id":"4","last_reported":1731226222,"current_range_meters":24800,"station_id":"ce4bht12rcd13ifvqi60","pricing_plan_id":"cebpf4jnsgd1na2vs0mg"},{"bike_id":"bab7e8bf-3dd9-4ba8-ae9e-1d78dcf614a2","system_id":"levelo_inurba_marseille","lat":43.25096,"lon":5.39522,"is_reserved":false,"is_disabled":false,"rental_uris":{"android":"levelo://app?vid=bab7e8bf-3dd9-4ba8-ae9e-1d78dcf614a2","ios":"levelo://app?vid=bab7e8bf-3dd9-4ba8-ae9e-1d78dcf614a2"},"vehicle_type_id":"4","last_reported":1731226222,"current_range_meters":36000,"station_id":"ce4bhm12rcd13ifvqgkg","pricing_plan_id":"cebpf4jnsgd1na2vs0mg"},{"bike_id":"015818e9-e80c-4eee-ac1e-68618c0bc31a","system_id":"levelo_inurba_marseille","lat":43.28718,"lon":5.39977,"is_reserved":false,"is_disabled":false,"rental_uris":{"android":"levelo://app?vid=015818e9-e80c-4eee-ac1e-68618c0bc31a","ios":"levelo://app?vid=015818e9-e80c-4eee-ac1e-68618c0bc31a"},"vehicle_type_id":"4","last_reported":1731226222,"current_range_meters":14800,"station_id":"ce4bho92rcd13ifvqh3g","pricing_plan_id":"cebpf4jnsgd1na2vs0mg"},{"bike_id":"3cba9fdd-e01f-406a-8731-509d66a1b107","system_id":"levelo_inurba_marseille","lat":43.26058,"lon":5.39395,"is_reserved":false,"is_disabled":false,"rental_uris":{"android":"levelo://app?vid=3cba9fdd-e01f-406a-8731-509d66a1b107","ios":"levelo://app?vid=3cba9fdd-e01f-406a-8731-509d66a1b107"},"vehicle_type_id":"4","last_reported":1731226222,"current_range_meters":25600,"station_id":"ce4bhh92rcd13ifvqfj0","pricing_plan_id":"cebpf4jnsgd1na2vs0mg"},{"bike_id":"4eb8cd11-f10e-4d12-8a9c-4645e2f4f74b","system_id":"levelo_inurba_marseille","lat":43.27824,"lon":5.39207,"is_reserved":false,"is_disabled":false,"rental_uris":{"android":"levelo://app?vid=4eb8cd11-f10e-4d12-8a9c-4645e2f4f74b","ios":"levelo://app?vid=4eb8cd11-f10e-4d12-8a9c-4645e2f4f74b"},"vehicle_type_id":"4","last_reported":1731226222,"current_range_meters":38400,"station_id":"ce4bhjp2rcd13ifvqga0","pricing_plan_id":"cebpf4jnsgd1na2vs0mg"},{"bike_id":"a0a3d814-432b-4cf3-a992-62dd562ea743","system_id":"levelo_inurba_marseille","lat":43.29204,"lon":5.35786,"is_reserved":false,"is_disabled":false,"rental_uris":{"android":"levelo://app?vid=a0a3d814-432b-4cf3-a992-62dd562ea743","ios":"levelo://app?vid=a0a3d814-432b-4cf3-a992-62dd562ea743"},"vehicle_type_id":"4","last_reported":1731226222,"current_range_meters":8800,"station_id":"ce4bhb12rcd13ifvqel0","pricing_plan_id":"cebpf4jnsgd1na2vs0mg"},{"bike_id":"605308ae-e328-49e6-83af-5dad5f553481","system_id":"levelo_inurba_marseille","lat":43.2396,"lon":5.36635,"is_reserved":false,"is_disabled":false,"rental_uris":{"android":"levelo://app?vid=605308ae-e328-49e6-83af-5dad5f553481","ios":"levelo://app?vid=605308ae-e328-49e6-83af-5dad5f553481"},"vehicle_type_id":"4","last_reported":1731226222,"current_range_meters":30400,"station_id":"ce4bhi12rcd13ifvqfp0","pricing_plan_id":"cebpf4jnsgd1na2vs0mg"},{"bike_id":"9110cb2e-2e72-4bc3-9f77-b10b73b70273","system_id":"levelo_inurba_marseille","lat":43.26059,"lon":5.39396,"is_reserved":false,"is_disabled":false,"rental_uris":{"android":"levelo://app?vid=9110cb2e-2e72-4bc3-9f77-b10b73b70273","ios":"levelo://app?vid=9110cb2e-2e72-4bc3-9f77-b10b73b70273"},"vehicle_type_id":"4","last_reported":1731226222,"current_range_meters":24800,"station_id":"ce4bhh92rcd13ifvqfj0","pricing_plan_id":"cebpf4jnsgd1na2vs0mg"},{"bike_id":"5e36cde2-fcff-4a64-90a2-e74bc8690dc9","system_id":"levelo_inurba_marseille","lat":43.29269,"lon":5.40121,"is_reserved":false,"is_disabled":false,"rental_uris":{"android":"levelo://app?vid=5e36cde2-fcff-4a64-90a2-e74bc8690dc9","ios":"levelo://app?vid=5e36cde2-fcff-4a64-90a2-e74bc8690dc9"},"vehicle_type_id":"4","last_reported":1731226222,"current_range_meters":10800,"station_id":"ce4bh312rcd13ifvqdk0","pricing_plan_id":"cebpf4jnsgd1na2vs0mg"},{"bike_id":"0e2e1854-95c0-4c56-aead-2824487f9a9d","system_id":"levelo_inurba_marseille","lat":43.31316,"lon":5.39707,"is_reserved":false,"is_disabled":false,"rental_uris":{"android":"levelo://app?vid=0e2e1854-95c0-4c56-aead-2824487f9a9d","ios":"levelo://app?vid=0e2e1854-95c0-4c56-aead-2824487f9a9d"},"vehicle_type_id":"4","last_reported":1731226222,"current_range_meters":38800,"station_id":"ce4bgvp2rcd13ifvqcu0","pricing_plan_id":"cebpf4jnsgd1na2vs0mg"},{"bike_id":"30037827-8659-4cce-803b-88835fb3f6b5","system_id":"levelo_inurba_marseille","lat":43.25506,"lon":5.37647,"is_reserved":false,"is_disabled":false,"rental_uris":{"android":"levelo://app?vid=30037827-8659-4cce-803b-88835fb3f6b5","ios":"levelo://app?vid=30037827-8659-4cce-803b-88835fb3f6b5"},"vehicle_type_id":"4","last_reported":1731226222,"current_range_meters":38800,"station_id":"ce4bhh12rcd13ifvqff0","pricing_plan_id":"cebpf4jnsgd1na2vs0mg"},{"bike_id":"e9002204-8784-4caf-9ef0-0bc6a40f7ee3","system_id":"levelo_inurba_marseille","lat":43.30152,"lon":5.38092,"is_reserved":false,"is_disabled":false,"rental_uris":{"android":"levelo://app?vid=e9002204-8784-4caf-9ef0-0bc6a40f7ee3","ios":"levelo://app?vid=e9002204-8784-4caf-9ef0-0bc6a40f7ee3"},"vehicle_type_id":"4","last_reported":1731226222,"current_range_meters":38400,"station_id":"ce4bgjp2rcd13ifvqbh0","pricing_plan_id":"cebpf4jnsgd1na2vs0mg"},{"bike_id":"671ddd79-64b2-4ee0-a149-985f30b74ba0","system_id":"levelo_inurba_marseille","lat":43.30283,"lon":5.37699,"is_reserved":false,"is_disabled":false,"rental_uris":{"android":"levelo://app?vid=671ddd79-64b2-4ee0-a149-985f30b74ba0","ios":"levelo://app?vid=671ddd79-64b2-4ee0-a149-985f30b74ba0"},"vehicle_type_id":"4","last_reported":1731226222,"current_range_meters":37600,"station_id":"ce4bguh2rcd13ifvqcj0","pricing_plan_id":"cebpf4jnsgd1na2vs0mg"},{"bike_id":"33ff2d8c-7f38-4f7f-a10d-060ac3058d08","system_id":"levelo_inurba_marseille","lat":43.28707,"lon":5.39985,"is_reserved":false,"is_disabled":false,"rental_uris":{"android":"levelo://app?vid=33ff2d8c-7f38-4f7f-a10d-060ac3058d08","ios":"levelo://app?vid=33ff2d8c-7f38-4f7f-a10d-060ac3058d08"},"vehicle_type_id":"4","last_reported":1731226222,"current_range_meters":33200,"station_id":"ce4bho92rcd13ifvqh3g","pricing_plan_id":"cebpf4jnsgd1na2vs0mg"},{"bike_id":"e235d3a0-d271-4a9b-8af9-d1794cadd606","system_id":"levelo_inurba_marseille","lat":43.26204,"lon":5.37929,"is_reserved":false,"is_disabled":false,"rental_uris":{"android":"levelo://app?vid=e235d3a0-d271-4a9b-8af9-d1794cadd606","ios":"levelo://app?vid=e235d3a0-d271-4a9b-8af9-d1794cadd606"},"vehicle_type_id":"4","last_reported":1731226222,"current_range_meters":38800,"station_id":"ce4bhjp2rcd13ifvqg90","pricing_plan_id":"cebpf4jnsgd1na2vs0mg"},{"bike_id":"a6129d70-e82d-41ca-b397-d33b29a83d09","system_id":"levelo_inurba_marseille","lat":43.303006,"lon":5.392145,"is_reserved":false,"is_disabled":false,"rental_uris":{"android":"levelo://app?vid=a6129d70-e82d-41ca-b397-d33b29a83d09","ios":"levelo://app?vid=a6129d70-e82d-41ca-b397-d33b29a83d09"},"vehicle_type_id":"4","last_reported":1731226222,"current_range_meters":38800,"station_id":"ce4bgkh2rcd13ifvqbk0","pricing_plan_id":"cebpf4jnsgd1na2vs0mg"},{"bike_id":"1368067b-129d-4020-a2d9-e3ebe92deabe","system_id":"levelo_inurba_marseille","lat":43.2885,"lon":5.35844,"is_reserved":false,"is_disabled":false,"rental_uris":{"android":"levelo://app?vid=1368067b-129d-4020-a2d9-e3ebe92deabe","ios":"levelo://app?vid=1368067b-129d-4020-a2d9-e3ebe92deabe"},"vehicle_type_id":"4","last_reported":1731226222,"current_range_meters":14000,"station_id":"ce4bhb12rcd13ifvqem0","pricing_plan_id":"cebpf4jnsgd1na2vs0mg"},{"bike_id":"b9059161-bc2a-4853-8231-de961bd5f1e7","system_id":"levelo_inurba_marseille","lat":43.33718,"lon":5.391771,"is_reserved":false,"is_disabled":false,"rental_uris":{"android":"levelo://app?vid=b9059161-bc2a-4853-8231-de961bd5f1e7","ios":"levelo://app?vid=b9059161-bc2a-4853-8231-de961bd5f1e7"},"vehicle_type_id":"4","last_reported":1731226222,"current_range_meters":18000,"station_id":"ce4bhr92rcd13ifvqhsg","pricing_plan_id":"cebpf4jnsgd1na2vs0mg"},{"bike_id":"6540d6d8-0acc-45fd-a2d4-2aca7b4a9966","system_id":"levelo_inurba_marseille","lat":43.29008,"lon":5.35613,"is_reserved":false,"is_disabled":false,"rental_uris":{"android":"levelo://app?vid=6540d6d8-0acc-45fd-a2d4-2aca7b4a9966","ios":"levelo://app?vid=6540d6d8-0acc-45fd-a2d4-2aca7b4a9966"},"vehicle_type_id":"4","last_reported":1731226222,"current_range_meters":14400,"station_id":"ce4bhb92rcd13ifvqen0","pricing_plan_id":"cebpf4jnsgd1na2vs0mg"},{"bike_id":"9e00ae8d-b3a9-4d4b-a691-62debbf0e14c","system_id":"levelo_inurba_marseille","lat":43.2318,"lon":5.39998,"is_reserved":false,"is_disabled":false,"rental_uris":{"android":"levelo://app?vid=9e00ae8d-b3a9-4d4b-a691-62debbf0e14c","ios":"levelo://app?vid=9e00ae8d-b3a9-4d4b-a691-62debbf0e14c"},"vehicle_type_id":"4","last_reported":1731226222,"current_range_meters":37600,"station_id":"ce4bhn12rcd13ifvqgqg","pricing_plan_id":"cebpf4jnsgd1na2vs0mg"},{"bike_id":"6a0fffdf-b4e8-477d-b9d8-6dacf651cf86","system_id":"levelo_inurba_marseille","lat":43.31764,"lon":5.39008,"is_reserved":false,"is_disabled":false,"rental_uris":{"android":"levelo://app?vid=6a0fffdf-b4e8-477d-b9d8-6dacf651cf86","ios":"levelo://app?vid=6a0fffdf-b4e8-477d-b9d8-6dacf651cf86"},"vehicle_type_id":"4","last_reported":1731226222,"current_range_meters":31200,"station_id":"ce4bhqp2rcd13ifvqhng","pricing_plan_id":"cebpf4jnsgd1na2vs0mg"},{"bike_id":"4c078400-38bf-4153-b4a2-c937cbf6c0d1","system_id":"levelo_inurba_marseille","lat":43.28618,"lon":5.35105,"is_reserved":false,"is_disabled":false,"rental_uris":{"android":"levelo://app?vid=4c078400-38bf-4153-b4a2-c937cbf6c0d1","ios":"levelo://app?vid=4c078400-38bf-4153-b4a2-c937cbf6c0d1"},"vehicle_type_id":"4","last_reported":1731226222,"current_range_meters":2800,"station_id":"ce4bhch2rcd13ifvqeug","pricing_plan_id":"cebpf4jnsgd1na2vs0mg"},{"bike_id":"85deaabe-8b47-49fe-ab48-308cbac59a2b","system_id":"levelo_inurba_marseille","lat":43.28153,"lon":5.42648,"is_reserved":false,"is_disabled":false,"rental_uris":{"android":"levelo://app?vid=85deaabe-8b47-49fe-ab48-308cbac59a2b","ios":"levelo://app?vid=85deaabe-8b47-49fe-ab48-308cbac59a2b"},"vehicle_type_id":"4","last_reported":1731226222,"current_range_meters":28800,"station_id":"ce4bhnh2rcd13ifvqgug","pricing_plan_id":"cebpf4jnsgd1na2vs0mg"},{"bike_id":"1bbd01d2-135b-41f4-82d3-8a1a08e394f9","system_id":"levelo_inurba_marseille","lat":43.28465,"lon":5.35882,"is_reserved":false,"is_disabled":false,"rental_uris":{"android":"levelo://app?vid=1bbd01d2-135b-41f4-82d3-8a1a08e394f9","ios":"levelo://app?vid=1bbd01d2-135b-41f4-82d3-8a1a08e394f9"},"vehicle_type_id":"4","last_reported":1731226222,"current_range_meters":24800,"station_id":"ce4bhah2rcd13ifvqei0","pricing_plan_id":"cebpf4jnsgd1na2vs0mg"},{"bike_id":"af4fd449-268e-4d43-897d-45e93709dcf7","system_id":"levelo_inurba_marseille","lat":43.29283,"lon":5.36854,"is_reserved":false,"is_disabled":false,"rental_uris":{"android":"levelo://app?vid=af4fd449-268e-4d43-897d-45e93709dcf7","ios":"levelo://app?vid=af4fd449-268e-4d43-897d-45e93709dcf7"},"vehicle_type_id":"4","last_reported":1731226222,"current_range_meters":25200,"station_id":"ce4bhbp2rcd13ifvqesg","pricing_plan_id":"cebpf4jnsgd1na2vs0mg"},{"bike_id":"c1f65704-cc25-481f-847d-9ea4578d50b4","system_id":"levelo_inurba_marseille","lat":43.28924,"lon":5.38401,"is_reserved":false,"is_disabled":false,"rental_uris":{"android":"levelo://app?vid=c1f65704-cc25-481f-847d-9ea4578d50b4","ios":"levelo://app?vid=c1f65704-cc25-481f-847d-9ea4578d50b4"},"vehicle_type_id":"4","last_reported":1731226222,"current_range_meters":27600,"station_id":"ce4bh612rcd13ifvqe6g","pricing_plan_id":"cebpf4jnsgd1na2vs0mg"},{"bike_id":"b89d6516-0dc4-4705-9993-76b039773ae0","system_id":"levelo_inurba_marseille","lat":43.30145,"lon":5.37415,"is_reserved":false,"is_disabled":false,"rental_uris":{"android":"levelo://app?vid=b89d6516-0dc4-4705-9993-76b039773ae0","ios":"levelo://app?vid=b89d6516-0dc4-4705-9993-76b039773ae0"},"vehicle_type_id":"4","last_reported":1731226222,"current_range_meters":37600,"station_id":"ce4bgs92rcd13ifvqcc0","pricing_plan_id":"cebpf4jnsgd1na2vs0mg"},{"bike_id":"022a6c3f-2c40-4cbf-9753-f6fa44b0f843","system_id":"levelo_inurba_marseille","lat":43.31273,"lon":5.40178,"is_reserved":false,"is_disabled":false,"rental_uris":{"android":"levelo://app?vid=022a6c3f-2c40-4cbf-9753-f6fa44b0f843","ios":"levelo://app?vid=022a6c3f-2c40-4cbf-9753-f6fa44b0f843"},"vehicle_type_id":"4","last_reported":1731226222,"current_range_meters":36400,"station_id":"ce4bh092rcd13ifvqd30","pricing_plan_id":"cebpf4jnsgd1na2vs0mg"},{"bike_id":"d61f1249-1dd9-4131-95be-4b8b16026e29","system_id":"levelo_inurba_marseille","lat":43.297058,"lon":5.366027,"is_reserved":false,"is_disabled":false,"rental_uris":{"android":"levelo://app?vid=d61f1249-1dd9-4131-95be-4b8b16026e29","ios":"levelo://app?vid=d61f1249-1dd9-4131-95be-4b8b16026e29"},"vehicle_type_id":"4","last_reported":1731226222,"current_range_meters":27600,"station_id":"ce4bgn12rcd13ifvqbt0","pricing_plan_id":"cebpf4jnsgd1na2vs0mg"},{"bike_id":"b3853e53-117a-4f15-b4eb-8096528db125","system_id":"levelo_inurba_marseille","lat":43.26213,"lon":5.37924,"is_reserved":false,"is_disabled":false,"rental_uris":{"android":"levelo://app?vid=b3853e53-117a-4f15-b4eb-8096528db125","ios":"levelo://app?vid=b3853e53-117a-4f15-b4eb-8096528db125"},"vehicle_type_id":"4","last_reported":1731226222,"current_range_meters":38000,"station_id":"ce4bhjp2rcd13ifvqg90","pricing_plan_id":"cebpf4jnsgd1na2vs0mg"},{"bike_id":"0b0b749b-978e-49eb-94d3-f153ec8ad30b","system_id":"levelo_inurba_marseille","lat":43.3153,"lon":5.38039,"is_reserved":false,"is_disabled":false,"rental_uris":{"android":"levelo://app?vid=0b0b749b-978e-49eb-94d3-f153ec8ad30b","ios":"levelo://app?vid=0b0b749b-978e-49eb-94d3-f153ec8ad30b"},"vehicle_type_id":"4","last_reported":1731226222,"current_range_meters":6800,"station_id":"ce4bhsp2rcd13ifvqi50","pricing_plan_id":"cebpf4jnsgd1na2vs0mg"},{"bike_id":"018cdcf7-93ec-4e24-8e3e-3f9d0d08d718","system_id":"levelo_inurba_marseille","lat":43.23965,"lon":5.36638,"is_reserved":false,"is_disabled":false,"rental_uris":{"android":"levelo://app?vid=018cdcf7-93ec-4e24-8e3e-3f9d0d08d718","ios":"levelo://app?vid=018cdcf7-93ec-4e24-8e3e-3f9d0d08d718"},"vehicle_type_id":"4","last_reported":1731226222,"current_range_meters":38800,"station_id":"ce4bhi12rcd13ifvqfp0","pricing_plan_id":"cebpf4jnsgd1na2vs0mg"},{"bike_id":"7286c0d4-b97e-4ea4-ad88-07777441f7ba","system_id":"levelo_inurba_marseille","lat":43.30933,"lon":5.40148,"is_reserved":false,"is_disabled":false,"rental_uris":{"android":"levelo://app?vid=7286c0d4-b97e-4ea4-ad88-07777441f7ba","ios":"levelo://app?vid=7286c0d4-b97e-4ea4-ad88-07777441f7ba"},"vehicle_type_id":"4","last_reported":1731226222,"current_range_meters":39200,"station_id":"ce4bgvp2rcd13ifvqct0","pricing_plan_id":"cebpf4jnsgd1na2vs0mg"},{"bike_id":"c100340e-0352-473b-9235-5d8c7722d299","system_id":"levelo_inurba_marseille","lat":43.305924,"lon":5.37226,"is_reserved":false,"is_disabled":false,"rental_uris":{"android":"levelo://app?vid=c100340e-0352-473b-9235-5d8c7722d299","ios":"levelo://app?vid=c100340e-0352-473b-9235-5d8c7722d299"},"vehicle_type_id":"4","last_reported":1731226222,"current_range_meters":38800,"station_id":"ce4bgqh2rcd13ifvqc4g","pricing_plan_id":"cebpf4jnsgd1na2vs0mg"},{"bike_id":"e931dbea-a637-4f2a-b715-63e0aded4802","system_id":"levelo_inurba_marseille","lat":43.3117,"lon":5.38714,"is_reserved":false,"is_disabled":false,"rental_uris":{"android":"levelo://app?vid=e931dbea-a637-4f2a-b715-63e0aded4802","ios":"levelo://app?vid=e931dbea-a637-4f2a-b715-63e0aded4802"},"vehicle_type_id":"4","last_reported":1731226222,"current_range_meters":38800,"station_id":"ce4bgv12rcd13ifvqcp0","pricing_plan_id":"cebpf4jnsgd1na2vs0mg"},{"bike_id":"c2e7ed3a-f62d-4fe5-9088-bf07ba717243","system_id":"levelo_inurba_marseille","lat":43.26684,"lon":5.38272,"is_reserved":false,"is_disabled":false,"rental_uris":{"android":"levelo://app?vid=c2e7ed3a-f62d-4fe5-9088-bf07ba717243","ios":"levelo://app?vid=c2e7ed3a-f62d-4fe5-9088-bf07ba717243"},"vehicle_type_id":"4","last_reported":1731226222,"current_range_meters":38800,"station_id":"ce4bhg92rcd13ifvqf90","pricing_plan_id":"cebpf4jnsgd1na2vs0mg"},{"bike_id":"cad5cedc-25ae-4edc-8b42-c8922e065838","system_id":"levelo_inurba_marseille","lat":43.30245,"lon":5.40049,"is_reserved":false,"is_disabled":false,"rental_uris":{"android":"levelo://app?vid=cad5cedc-25ae-4edc-8b42-c8922e065838","ios":"levelo://app?vid=cad5cedc-25ae-4edc-8b42-c8922e065838"},"vehicle_type_id":"4","last_reported":1731226222,"current_range_meters":16400,"station_id":"ce4bgvh2rcd13ifvqcs0","pricing_plan_id":"cebpf4jnsgd1na2vs0mg"},{"bike_id":"c94909dd-e782-4a49-bf66-6d27f36ac2ee","system_id":"levelo_inurba_marseille","lat":43.29635,"lon":5.38086,"is_reserved":false,"is_disabled":false,"rental_uris":{"android":"levelo://app?vid=c94909dd-e782-4a49-bf66-6d27f36ac2ee","ios":"levelo://app?vid=c94909dd-e782-4a49-bf66-6d27f36ac2ee"},"vehicle_type_id":"4","last_reported":1731226222,"current_range_meters":30400,"station_id":"ce4bgl12rcd13ifvqbo0","pricing_plan_id":"cebpf4jnsgd1na2vs0mg"},{"bike_id":"c221efe7-efcb-49b8-a1b0-1dd8d171a453","system_id":"levelo_inurba_marseille","lat":43.33732,"lon":5.39186,"is_reserved":false,"is_disabled":false,"rental_uris":{"android":"levelo://app?vid=c221efe7-efcb-49b8-a1b0-1dd8d171a453","ios":"levelo://app?vid=c221efe7-efcb-49b8-a1b0-1dd8d171a453"},"vehicle_type_id":"4","last_reported":1731226222,"current_range_meters":37600,"station_id":"ce4bhr92rcd13ifvqhsg","pricing_plan_id":"cebpf4jnsgd1na2vs0mg"},{"bike_id":"b8fdd341-0697-41ca-82c9-e4253415f4e6","system_id":"levelo_inurba_marseille","lat":43.23059,"lon":5.354909,"is_reserved":false,"is_disabled":false,"rental_uris":{"android":"levelo://app?vid=b8fdd341-0697-41ca-82c9-e4253415f4e6","ios":"levelo://app?vid=b8fdd341-0697-41ca-82c9-e4253415f4e6"},"vehicle_type_id":"4","last_reported":1731226222,"current_range_meters":28400,"station_id":"cpo3342slgdg3j2ifvpg","pricing_plan_id":"cebpf4jnsgd1na2vs0mg"},{"bike_id":"cf9daf46-3bd1-47e7-80ac-0de06577c598","system_id":"levelo_inurba_marseille","lat":43.24389,"lon":5.37049,"is_reserved":false,"is_disabled":false,"rental_uris":{"android":"levelo://app?vid=cf9daf46-3bd1-47e7-80ac-0de06577c598","ios":"levelo://app?vid=cf9daf46-3bd1-47e7-80ac-0de06577c598"},"vehicle_type_id":"4","last_reported":1731226222,"current_range_meters":38800,"station_id":"ce4bhhh2rcd13ifvqfk0","pricing_plan_id":"cebpf4jnsgd1na2vs0mg"},{"bike_id":"7926f21e-447b-4b97-94a3-e35466a5018e","system_id":"levelo_inurba_marseille","lat":43.23179,"lon":5.39989,"is_reserved":false,"is_disabled":false,"rental_uris":{"android":"levelo://app?vid=7926f21e-447b-4b97-94a3-e35466a5018e","ios":"levelo://app?vid=7926f21e-447b-4b97-94a3-e35466a5018e"},"vehicle_type_id":"4","last_reported":1731226222,"current_range_meters":38800,"station_id":"ce4bhn12rcd13ifvqgqg","pricing_plan_id":"cebpf4jnsgd1na2vs0mg"},{"bike_id":"535ccd2b-fa82-454d-8b3b-7e708959f079","system_id":"levelo_inurba_marseille","lat":43.24646,"lon":5.38894,"is_reserved":false,"is_disabled":false,"rental_uris":{"android":"levelo://app?vid=535ccd2b-fa82-454d-8b3b-7e708959f079","ios":"levelo://app?vid=535ccd2b-fa82-454d-8b3b-7e708959f079"},"vehicle_type_id":"4","last_reported":1731226222,"current_range_meters":8000,"station_id":"ce4bhg12rcd13ifvqf60","pricing_plan_id":"cebpf4jnsgd1na2vs0mg"},{"bike_id":"0341e1e6-a90c-470f-bffb-a5d1dc244a00","system_id":"levelo_inurba_marseille","lat":43.2846,"lon":5.35887,"is_reserved":false,"is_disabled":false,"rental_uris":{"android":"levelo://app?vid=0341e1e6-a90c-470f-bffb-a5d1dc244a00","ios":"levelo://app?vid=0341e1e6-a90c-470f-bffb-a5d1dc244a00"},"vehicle_type_id":"4","last_reported":1731226222,"current_range_meters":8000,"station_id":"ce4bhah2rcd13ifvqei0","pricing_plan_id":"cebpf4jnsgd1na2vs0mg"},{"bike_id":"c67a1795-3146-4b01-8240-7fe64c056eca","system_id":"levelo_inurba_marseille","lat":43.30929,"lon":5.40154,"is_reserved":false,"is_disabled":false,"rental_uris":{"android":"levelo://app?vid=c67a1795-3146-4b01-8240-7fe64c056eca","ios":"levelo://app?vid=c67a1795-3146-4b01-8240-7fe64c056eca"},"vehicle_type_id":"4","last_reported":1731226222,"current_range_meters":38800,"station_id":"ce4bgvp2rcd13ifvqct0","pricing_plan_id":"cebpf4jnsgd1na2vs0mg"},{"bike_id":"d9bc9902-5e97-4c43-9109-305ea65da59c","system_id":"levelo_inurba_marseille","lat":43.26784,"lon":5.3942,"is_reserved":false,"is_disabled":false,"rental_uris":{"android":"levelo://app?vid=d9bc9902-5e97-4c43-9109-305ea65da59c","ios":"levelo://app?vid=d9bc9902-5e97-4c43-9109-305ea65da59c"},"vehicle_type_id":"4","last_reported":1731226222,"current_range_meters":33200,"station_id":"ce4bhh12rcd13ifvqfg0","pricing_plan_id":"cebpf4jnsgd1na2vs0mg"},{"bike_id":"79cfb2da-a585-4fce-98cf-dc3b63c5a31f","system_id":"levelo_inurba_marseille","lat":43.25088,"lon":5.39522,"is_reserved":false,"is_disabled":false,"rental_uris":{"android":"levelo://app?vid=79cfb2da-a585-4fce-98cf-dc3b63c5a31f","ios":"levelo://app?vid=79cfb2da-a585-4fce-98cf-dc3b63c5a31f"},"vehicle_type_id":"4","last_reported":1731226222,"current_range_meters":34000,"station_id":"ce4bhm12rcd13ifvqgkg","pricing_plan_id":"cebpf4jnsgd1na2vs0mg"},{"bike_id":"388bccca-bdb5-4031-9e3c-b3950c0a071e","system_id":"levelo_inurba_marseille","lat":43.24663,"lon":5.38165,"is_reserved":false,"is_disabled":false,"rental_uris":{"android":"levelo://app?vid=388bccca-bdb5-4031-9e3c-b3950c0a071e","ios":"levelo://app?vid=388bccca-bdb5-4031-9e3c-b3950c0a071e"},"vehicle_type_id":"4","last_reported":1731226222,"current_range_meters":36000,"station_id":"ce4bhih2rcd13ifvqfr0","pricing_plan_id":"cebpf4jnsgd1na2vs0mg"},{"bike_id":"bc4759fa-afe0-409c-990b-9bc7a136ee1f","system_id":"levelo_inurba_marseille","lat":43.29248,"lon":5.40906,"is_reserved":false,"is_disabled":false,"rental_uris":{"android":"levelo://app?vid=bc4759fa-afe0-409c-990b-9bc7a136ee1f","ios":"levelo://app?vid=bc4759fa-afe0-409c-990b-9bc7a136ee1f"},"vehicle_type_id":"4","last_reported":1731226222,"current_range_meters":38800,"station_id":"ce4bh192rcd13ifvqdc0","pricing_plan_id":"cebpf4jnsgd1na2vs0mg"},{"bike_id":"f9033295-6269-47e4-8e9a-2c71353f29b5","system_id":"levelo_inurba_marseille","lat":43.28845,"lon":5.35861,"is_reserved":false,"is_disabled":false,"rental_uris":{"android":"levelo://app?vid=f9033295-6269-47e4-8e9a-2c71353f29b5","ios":"levelo://app?vid=f9033295-6269-47e4-8e9a-2c71353f29b5"},"vehicle_type_id":"4","last_reported":1731226222,"current_range_meters":34000,"station_id":"ce4bhb12rcd13ifvqem0","pricing_plan_id":"cebpf4jnsgd1na2vs0mg"},{"bike_id":"45da62df-7f80-44a3-ba8e-1acd781a5f69","system_id":"levelo_inurba_marseille","lat":43.29554,"lon":5.42285,"is_reserved":false,"is_disabled":false,"rental_uris":{"android":"levelo://app?vid=45da62df-7f80-44a3-ba8e-1acd781a5f69","ios":"levelo://app?vid=45da62df-7f80-44a3-ba8e-1acd781a5f69"},"vehicle_type_id":"4","last_reported":1731226222,"current_range_meters":26000,"station_id":"ce4bhph2rcd13ifvqhdg","pricing_plan_id":"cebpf4jnsgd1na2vs0mg"},{"bike_id":"ce01ded0-ddab-4ea7-9bb2-beecf3db090d","system_id":"levelo_inurba_marseille","lat":43.29249,"lon":5.40914,"is_reserved":false,"is_disabled":false,"rental_uris":{"android":"levelo://app?vid=ce01ded0-ddab-4ea7-9bb2-beecf3db090d","ios":"levelo://app?vid=ce01ded0-ddab-4ea7-9bb2-beecf3db090d"},"vehicle_type_id":"4","last_reported":1731226222,"current_range_meters":38800,"station_id":"ce4bh192rcd13ifvqdc0","pricing_plan_id":"cebpf4jnsgd1na2vs0mg"},{"bike_id":"2972f759-c98e-4fe7-9758-85d215895273","system_id":"levelo_inurba_marseille","lat":43.23958,"lon":5.3663,"is_reserved":false,"is_disabled":false,"rental_uris":{"android":"levelo://app?vid=2972f759-c98e-4fe7-9758-85d215895273","ios":"levelo://app?vid=2972f759-c98e-4fe7-9758-85d215895273"},"vehicle_type_id":"4","last_reported":1731226222,"current_range_meters":36800,"station_id":"ce4bhi12rcd13ifvqfp0","pricing_plan_id":"cebpf4jnsgd1na2vs0mg"},{"bike_id":"010d3bc6-1da9-4e2e-9558-6436a5780c21","system_id":"levelo_inurba_marseille","lat":43.23193,"lon":5.35552,"is_reserved":false,"is_disabled":false,"rental_uris":{"android":"levelo://app?vid=010d3bc6-1da9-4e2e-9558-6436a5780c21","ios":"levelo://app?vid=010d3bc6-1da9-4e2e-9558-6436a5780c21"},"vehicle_type_id":"4","last_reported":1731226222,"current_range_meters":38800,"station_id":"ce4bhu92rcd13ifvqi70","pricing_plan_id":"cebpf4jnsgd1na2vs0mg"},{"bike_id":"475da2da-2e7d-4647-8ade-afee2742a4bd","system_id":"levelo_inurba_marseille","lat":43.29012,"lon":5.35616,"is_reserved":false,"is_disabled":false,"rental_uris":{"android":"levelo://app?vid=475da2da-2e7d-4647-8ade-afee2742a4bd","ios":"levelo://app?vid=475da2da-2e7d-4647-8ade-afee2742a4bd"},"vehicle_type_id":"4","last_reported":1731226222,"current_range_meters":27600,"station_id":"ce4bhb92rcd13ifvqen0","pricing_plan_id":"cebpf4jnsgd1na2vs0mg"},{"bike_id":"720179be-536c-414c-b19d-c298d2a8d0ec","system_id":"levelo_inurba_marseille","lat":43.29557,"lon":5.42285,"is_reserved":false,"is_disabled":false,"rental_uris":{"android":"levelo://app?vid=720179be-536c-414c-b19d-c298d2a8d0ec","ios":"levelo://app?vid=720179be-536c-414c-b19d-c298d2a8d0ec"},"vehicle_type_id":"4","last_reported":1731226222,"current_range_meters":37600,"station_id":"ce4bhph2rcd13ifvqhdg","pricing_plan_id":"cebpf4jnsgd1na2vs0mg"},{"bike_id":"662385fc-63f9-4a4f-87db-2e58a1f015e0","system_id":"levelo_inurba_marseille","lat":43.23958,"lon":5.36636,"is_reserved":false,"is_disabled":false,"rental_uris":{"android":"levelo://app?vid=662385fc-63f9-4a4f-87db-2e58a1f015e0","ios":"levelo://app?vid=662385fc-63f9-4a4f-87db-2e58a1f015e0"},"vehicle_type_id":"4","last_reported":1731226222,"current_range_meters":34000,"station_id":"ce4bhi12rcd13ifvqfp0","pricing_plan_id":"cebpf4jnsgd1na2vs0mg"},{"bike_id":"c63000ba-4e53-42f2-8495-b57bb4c2808d","system_id":"levelo_inurba_marseille","lat":43.28703,"lon":5.37398,"is_reserved":false,"is_disabled":false,"rental_uris":{"android":"levelo://app?vid=c63000ba-4e53-42f2-8495-b57bb4c2808d","ios":"levelo://app?vid=c63000ba-4e53-42f2-8495-b57bb4c2808d"},"vehicle_type_id":"4","last_reported":1731226222,"current_range_meters":30000,"station_id":"ce4bh3p2rcd13ifvqdq0","pricing_plan_id":"cebpf4jnsgd1na2vs0mg"},{"bike_id":"0a11ffea-6ccf-45d5-8ce9-b6dd253b1ff7","system_id":"levelo_inurba_marseille","lat":43.31884,"lon":5.40738,"is_reserved":false,"is_disabled":false,"rental_uris":{"android":"levelo://app?vid=0a11ffea-6ccf-45d5-8ce9-b6dd253b1ff7","ios":"levelo://app?vid=0a11ffea-6ccf-45d5-8ce9-b6dd253b1ff7"},"vehicle_type_id":"4","last_reported":1731226222,"current_range_meters":38800,"station_id":"ce4bhq12rcd13ifvqhig","pricing_plan_id":"cebpf4jnsgd1na2vs0mg"},{"bike_id":"4ee59947-8c12-46aa-bcb3-9544d7341608","system_id":"levelo_inurba_marseille","lat":43.30151,"lon":5.38084,"is_reserved":false,"is_disabled":false,"rental_uris":{"android":"levelo://app?vid=4ee59947-8c12-46aa-bcb3-9544d7341608","ios":"levelo://app?vid=4ee59947-8c12-46aa-bcb3-9544d7341608"},"vehicle_type_id":"4","last_reported":1731226222,"current_range_meters":34000,"station_id":"ce4bgjp2rcd13ifvqbh0","pricing_plan_id":"cebpf4jnsgd1na2vs0mg"},{"bike_id":"dd9956c9-8b4c-4a50-bce2-f3832ff78172","system_id":"levelo_inurba_marseille","lat":43.30462,"lon":5.37908,"is_reserved":false,"is_disabled":false,"rental_uris":{"android":"levelo://app?vid=dd9956c9-8b4c-4a50-bce2-f3832ff78172","ios":"levelo://app?vid=dd9956c9-8b4c-4a50-bce2-f3832ff78172"},"vehicle_type_id":"4","last_reported":1731226222,"current_range_meters":38800,"station_id":"ce4bgup2rcd13ifvqcn0","pricing_plan_id":"cebpf4jnsgd1na2vs0mg"},{"bike_id":"d41fb0f1-e480-4160-8e49-a6b72f7db271","system_id":"levelo_inurba_marseille","lat":43.27945,"lon":5.41048,"is_reserved":false,"is_disabled":false,"rental_uris":{"android":"levelo://app?vid=d41fb0f1-e480-4160-8e49-a6b72f7db271","ios":"levelo://app?vid=d41fb0f1-e480-4160-8e49-a6b72f7db271"},"vehicle_type_id":"4","last_reported":1731226222,"current_range_meters":26000,"station_id":"ce4bhnp2rcd13ifvqh0g","pricing_plan_id":"cebpf4jnsgd1na2vs0mg"},{"bike_id":"87c0d841-71cc-46e3-866a-7cdd5c34c7d2","system_id":"levelo_inurba_marseille","lat":43.2993,"lon":5.36553,"is_reserved":false,"is_disabled":false,"rental_uris":{"android":"levelo://app?vid=87c0d841-71cc-46e3-866a-7cdd5c34c7d2","ios":"levelo://app?vid=87c0d841-71cc-46e3-866a-7cdd5c34c7d2"},"vehicle_type_id":"4","last_reported":1731226222,"current_range_meters":4800,"station_id":"ce4bgm92rcd13ifvqbr0","pricing_plan_id":"cebpf4jnsgd1na2vs0mg"},{"bike_id":"2ad361b6-540e-4873-9e5b-6b5de9b52523","system_id":"levelo_inurba_marseille","lat":43.2396,"lon":5.36622,"is_reserved":false,"is_disabled":false,"rental_uris":{"android":"levelo://app?vid=2ad361b6-540e-4873-9e5b-6b5de9b52523","ios":"levelo://app?vid=2ad361b6-540e-4873-9e5b-6b5de9b52523"},"vehicle_type_id":"4","last_reported":1731226222,"current_range_meters":38800,"station_id":"ce4bhi12rcd13ifvqfp0","pricing_plan_id":"cebpf4jnsgd1na2vs0mg"},{"bike_id":"d6f22bb1-8390-4dde-a4e8-6f1e6d4bf68d","system_id":"levelo_inurba_marseille","lat":43.29202,"lon":5.35801,"is_reserved":false,"is_disabled":false,"rental_uris":{"android":"levelo://app?vid=d6f22bb1-8390-4dde-a4e8-6f1e6d4bf68d","ios":"levelo://app?vid=d6f22bb1-8390-4dde-a4e8-6f1e6d4bf68d"},"vehicle_type_id":"4","last_reported":1731226222,"current_range_meters":38800,"station_id":"ce4bhb12rcd13ifvqel0","pricing_plan_id":"cebpf4jnsgd1na2vs0mg"},{"bike_id":"e5102d73-aede-4928-a65e-0e24a604c7be","system_id":"levelo_inurba_marseille","lat":43.30954,"lon":5.39044,"is_reserved":false,"is_disabled":false,"rental_uris":{"android":"levelo://app?vid=e5102d73-aede-4928-a65e-0e24a604c7be","ios":"levelo://app?vid=e5102d73-aede-4928-a65e-0e24a604c7be"},"vehicle_type_id":"4","last_reported":1731226222,"current_range_meters":7200,"station_id":"ce4bgup2rcd13ifvqco0","pricing_plan_id":"cebpf4jnsgd1na2vs0mg"},{"bike_id":"07d9f39b-b5c0-4e0d-b308-a64481facfda","system_id":"levelo_inurba_marseille","lat":43.29012,"lon":5.35621,"is_reserved":false,"is_disabled":false,"rental_uris":{"android":"levelo://app?vid=07d9f39b-b5c0-4e0d-b308-a64481facfda","ios":"levelo://app?vid=07d9f39b-b5c0-4e0d-b308-a64481facfda"},"vehicle_type_id":"4","last_reported":1731226222,"current_range_meters":9600,"station_id":"ce4bhb92rcd13ifvqen0","pricing_plan_id":"cebpf4jnsgd1na2vs0mg"},{"bike_id":"3cedd8e9-721e-4740-aeea-d77f0d12e13b","system_id":"levelo_inurba_marseille","lat":43.26489,"lon":5.3955,"is_reserved":false,"is_disabled":false,"rental_uris":{"android":"levelo://app?vid=3cedd8e9-721e-4740-aeea-d77f0d12e13b","ios":"levelo://app?vid=3cedd8e9-721e-4740-aeea-d77f0d12e13b"},"vehicle_type_id":"4","last_reported":1731226222,"current_range_meters":38800,"station_id":"ce4bhi12rcd13ifvqfq0","pricing_plan_id":"cebpf4jnsgd1na2vs0mg"},{"bike_id":"c98a5f0c-fd30-4775-968c-54896168ce2e","system_id":"levelo_inurba_marseille","lat":43.32476,"lon":5.36567,"is_reserved":false,"is_disabled":false,"rental_uris":{"android":"levelo://app?vid=c98a5f0c-fd30-4775-968c-54896168ce2e","ios":"levelo://app?vid=c98a5f0c-fd30-4775-968c-54896168ce2e"},"vehicle_type_id":"4","last_reported":1731226222,"current_range_meters":27600,"station_id":"ce4bhs12rcd13ifvqhvg","pricing_plan_id":"cebpf4jnsgd1na2vs0mg"},{"bike_id":"c7f4c733-6efd-428f-8dbd-9db83b9bb1ba","system_id":"levelo_inurba_marseille","lat":43.257262,"lon":5.411022,"is_reserved":false,"is_disabled":false,"rental_uris":{"android":"levelo://app?vid=c7f4c733-6efd-428f-8dbd-9db83b9bb1ba","ios":"levelo://app?vid=c7f4c733-6efd-428f-8dbd-9db83b9bb1ba"},"vehicle_type_id":"4","last_reported":1731226222,"current_range_meters":38800,"station_id":"ce4bhkp2rcd13ifvqgd0","pricing_plan_id":"cebpf4jnsgd1na2vs0mg"},{"bike_id":"b9478b1d-79e3-44c9-ae60-496dd5151f62","system_id":"levelo_inurba_marseille","lat":43.291641,"lon":5.371525,"is_reserved":false,"is_disabled":false,"rental_uris":{"android":"levelo://app?vid=b9478b1d-79e3-44c9-ae60-496dd5151f62","ios":"levelo://app?vid=b9478b1d-79e3-44c9-ae60-496dd5151f62"},"vehicle_type_id":"4","last_reported":1731226222,"current_range_meters":32400,"station_id":"ce4bha92rcd13ifvqeh0","pricing_plan_id":"cebpf4jnsgd1na2vs0mg"},{"bike_id":"a6662f96-7914-4568-9644-1c4ba1cb159a","system_id":"levelo_inurba_marseille","lat":43.28418,"lon":5.34979,"is_reserved":false,"is_disabled":false,"rental_uris":{"android":"levelo://app?vid=a6662f96-7914-4568-9644-1c4ba1cb159a","ios":"levelo://app?vid=a6662f96-7914-4568-9644-1c4ba1cb159a"},"vehicle_type_id":"4","last_reported":1731226222,"current_range_meters":8800,"station_id":"ce4bhbh2rcd13ifvqepg","pricing_plan_id":"cebpf4jnsgd1na2vs0mg"},{"bike_id":"4204c697-9142-4d6f-a64b-20f319f8c9a7","system_id":"levelo_inurba_marseille","lat":43.27073,"lon":5.42285,"is_reserved":false,"is_disabled":false,"rental_uris":{"android":"levelo://app?vid=4204c697-9142-4d6f-a64b-20f319f8c9a7","ios":"levelo://app?vid=4204c697-9142-4d6f-a64b-20f319f8c9a7"},"vehicle_type_id":"4","last_reported":1731226222,"current_range_meters":8400,"station_id":"ce4bhk92rcd13ifvqgb0","pricing_plan_id":"cebpf4jnsgd1na2vs0mg"},{"bike_id":"6f2e831f-8886-42c5-a26f-b4421afe7f6c","system_id":"levelo_inurba_marseille","lat":43.24075,"lon":5.37754,"is_reserved":false,"is_disabled":false,"rental_uris":{"android":"levelo://app?vid=6f2e831f-8886-42c5-a26f-b4421afe7f6c","ios":"levelo://app?vid=6f2e831f-8886-42c5-a26f-b4421afe7f6c"},"vehicle_type_id":"4","last_reported":1731226222,"current_range_meters":14000,"station_id":"ce4bhnp2rcd13ifvqgvg","pricing_plan_id":"cebpf4jnsgd1na2vs0mg"},{"bike_id":"0d978afa-4840-4a38-a471-c4fca1973309","system_id":"levelo_inurba_marseille","lat":43.30949,"lon":5.39035,"is_reserved":false,"is_disabled":false,"rental_uris":{"android":"levelo://app?vid=0d978afa-4840-4a38-a471-c4fca1973309","ios":"levelo://app?vid=0d978afa-4840-4a38-a471-c4fca1973309"},"vehicle_type_id":"4","last_reported":1731226222,"current_range_meters":37600,"station_id":"ce4bgup2rcd13ifvqco0","pricing_plan_id":"cebpf4jnsgd1na2vs0mg"},{"bike_id":"4f8f3d05-77a1-4608-a529-e5ae940296cc","system_id":"levelo_inurba_marseille","lat":43.28936,"lon":5.36632,"is_reserved":false,"is_disabled":false,"rental_uris":{"android":"levelo://app?vid=4f8f3d05-77a1-4608-a529-e5ae940296cc","ios":"levelo://app?vid=4f8f3d05-77a1-4608-a529-e5ae940296cc"},"vehicle_type_id":"4","last_reported":1731226222,"current_range_meters":38800,"station_id":"ce4bhap2rcd13ifvqek0","pricing_plan_id":"cebpf4jnsgd1na2vs0mg"},{"bike_id":"ef356e8e-0769-41da-b1b4-1cc38104ce18","system_id":"levelo_inurba_marseille","lat":43.29898,"lon":5.43668,"is_reserved":false,"is_disabled":false,"rental_uris":{"android":"levelo://app?vid=ef356e8e-0769-41da-b1b4-1cc38104ce18","ios":"levelo://app?vid=ef356e8e-0769-41da-b1b4-1cc38104ce18"},"vehicle_type_id":"4","last_reported":1731226222,"current_range_meters":20000,"station_id":"ce4bhpp2rcd13ifvqhfg","pricing_plan_id":"cebpf4jnsgd1na2vs0mg"},{"bike_id":"1d0c8d0f-cf43-49ad-9deb-0a58ca2f9f08","system_id":"levelo_inurba_marseille","lat":43.29187,"lon":5.35807,"is_reserved":false,"is_disabled":false,"rental_uris":{"android":"levelo://app?vid=1d0c8d0f-cf43-49ad-9deb-0a58ca2f9f08","ios":"levelo://app?vid=1d0c8d0f-cf43-49ad-9deb-0a58ca2f9f08"},"vehicle_type_id":"4","last_reported":1731226222,"current_range_meters":30400,"station_id":"ce4bhb12rcd13ifvqel0","pricing_plan_id":"cebpf4jnsgd1na2vs0mg"},{"bike_id":"3d35a84d-d2e5-4e42-811b-597b89e5e6ed","system_id":"levelo_inurba_marseille","lat":43.28841,"lon":5.35864,"is_reserved":false,"is_disabled":false,"rental_uris":{"android":"levelo://app?vid=3d35a84d-d2e5-4e42-811b-597b89e5e6ed","ios":"levelo://app?vid=3d35a84d-d2e5-4e42-811b-597b89e5e6ed"},"vehicle_type_id":"4","last_reported":1731226222,"current_range_meters":30400,"station_id":"ce4bhb12rcd13ifvqem0","pricing_plan_id":"cebpf4jnsgd1na2vs0mg"},{"bike_id":"52a94537-f113-455a-9e91-42176e080fca","system_id":"levelo_inurba_marseille","lat":43.31885,"lon":5.40735,"is_reserved":false,"is_disabled":false,"rental_uris":{"android":"levelo://app?vid=52a94537-f113-455a-9e91-42176e080fca","ios":"levelo://app?vid=52a94537-f113-455a-9e91-42176e080fca"},"vehicle_type_id":"4","last_reported":1731226222,"current_range_meters":38000,"station_id":"ce4bhq12rcd13ifvqhig","pricing_plan_id":"cebpf4jnsgd1na2vs0mg"},{"bike_id":"9b3d39b7-4227-43f2-a945-f9a2852d37a4","system_id":"levelo_inurba_marseille","lat":43.2573,"lon":5.41106,"is_reserved":false,"is_disabled":false,"rental_uris":{"android":"levelo://app?vid=9b3d39b7-4227-43f2-a945-f9a2852d37a4","ios":"levelo://app?vid=9b3d39b7-4227-43f2-a945-f9a2852d37a4"},"vehicle_type_id":"4","last_reported":1731226222,"current_range_meters":26000,"station_id":"ce4bhkp2rcd13ifvqgd0","pricing_plan_id":"cebpf4jnsgd1na2vs0mg"},{"bike_id":"281376e1-147e-4d81-b62c-a38cf4533d28","system_id":"levelo_inurba_marseille","lat":43.27668,"lon":5.389,"is_reserved":false,"is_disabled":false,"rental_uris":{"android":"levelo://app?vid=281376e1-147e-4d81-b62c-a38cf4533d28","ios":"levelo://app?vid=281376e1-147e-4d81-b62c-a38cf4533d28"},"vehicle_type_id":"4","last_reported":1731226222,"current_range_meters":38800,"station_id":"ce4bhi12rcd13ifvqfo0","pricing_plan_id":"cebpf4jnsgd1na2vs0mg"},{"bike_id":"e6dc57cf-44da-4102-9d69-7c7b35161e11","system_id":"levelo_inurba_marseille","lat":43.24166,"lon":5.364,"is_reserved":false,"is_disabled":false,"rental_uris":{"android":"levelo://app?vid=e6dc57cf-44da-4102-9d69-7c7b35161e11","ios":"levelo://app?vid=e6dc57cf-44da-4102-9d69-7c7b35161e11"},"vehicle_type_id":"4","last_reported":1731226222,"current_range_meters":36400,"station_id":"cpo36qri1sfpv3e86is0","pricing_plan_id":"cebpf4jnsgd1na2vs0mg"},{"bike_id":"ef288286-229d-4b9a-a189-8d61840dcffb","system_id":"levelo_inurba_marseille","lat":43.23191,"lon":5.35554,"is_reserved":false,"is_disabled":false,"rental_uris":{"android":"levelo://app?vid=ef288286-229d-4b9a-a189-8d61840dcffb","ios":"levelo://app?vid=ef288286-229d-4b9a-a189-8d61840dcffb"},"vehicle_type_id":"4","last_reported":1731226222,"current_range_meters":28800,"station_id":"ce4bhu92rcd13ifvqi70","pricing_plan_id":"cebpf4jnsgd1na2vs0mg"},{"bike_id":"84e9758e-68da-4ea7-9b25-5517170f65de","system_id":"levelo_inurba_marseille","lat":43.26779,"lon":5.39419,"is_reserved":false,"is_disabled":false,"rental_uris":{"android":"levelo://app?vid=84e9758e-68da-4ea7-9b25-5517170f65de","ios":"levelo://app?vid=84e9758e-68da-4ea7-9b25-5517170f65de"},"vehicle_type_id":"4","last_reported":1731226222,"current_range_meters":38800,"station_id":"ce4bhh12rcd13ifvqfg0","pricing_plan_id":"cebpf4jnsgd1na2vs0mg"},{"bike_id":"c73cfb22-22c4-456a-8fa1-53d3a53d43af","system_id":"levelo_inurba_marseille","lat":43.25498,"lon":5.37654,"is_reserved":false,"is_disabled":false,"rental_uris":{"android":"levelo://app?vid=c73cfb22-22c4-456a-8fa1-53d3a53d43af","ios":"levelo://app?vid=c73cfb22-22c4-456a-8fa1-53d3a53d43af"},"vehicle_type_id":"4","last_reported":1731226222,"current_range_meters":24000,"station_id":"ce4bhhp2rcd13ifvqfm0","pricing_plan_id":"cebpf4jnsgd1na2vs0mg"},{"bike_id":"eab98335-8399-4b8f-bbaa-12f7938c9fcb","system_id":"levelo_inurba_marseille","lat":43.29217,"lon":5.36065,"is_reserved":false,"is_disabled":false,"rental_uris":{"android":"levelo://app?vid=eab98335-8399-4b8f-bbaa-12f7938c9fcb","ios":"levelo://app?vid=eab98335-8399-4b8f-bbaa-12f7938c9fcb"},"vehicle_type_id":"4","last_reported":1731226222,"current_range_meters":8000,"station_id":"ce4bhbh2rcd13ifvqeqg","pricing_plan_id":"cebpf4jnsgd1na2vs0mg"},{"bike_id":"a0a2a94f-606d-4991-ae14-99c4473aded0","system_id":"levelo_inurba_marseille","lat":43.29915,"lon":5.3748,"is_reserved":false,"is_disabled":false,"rental_uris":{"android":"levelo://app?vid=a0a2a94f-606d-4991-ae14-99c4473aded0","ios":"levelo://app?vid=a0a2a94f-606d-4991-ae14-99c4473aded0"},"vehicle_type_id":"4","last_reported":1731226222,"current_range_meters":35200,"station_id":"ce4bgjh2rcd13ifvqbg0","pricing_plan_id":"cebpf4jnsgd1na2vs0mg"},{"bike_id":"6a6899f9-de42-4f09-9c9a-7c627f1e117f","system_id":"levelo_inurba_marseille","lat":43.28848,"lon":5.35852,"is_reserved":false,"is_disabled":false,"rental_uris":{"android":"levelo://app?vid=6a6899f9-de42-4f09-9c9a-7c627f1e117f","ios":"levelo://app?vid=6a6899f9-de42-4f09-9c9a-7c627f1e117f"},"vehicle_type_id":"4","last_reported":1731226222,"current_range_meters":30800,"station_id":"ce4bhb12rcd13ifvqem0","pricing_plan_id":"cebpf4jnsgd1na2vs0mg"},{"bike_id":"19256e00-1703-4736-ae1c-3d3f06c531ab","system_id":"levelo_inurba_marseille","lat":43.29851,"lon":5.36278,"is_reserved":false,"is_disabled":false,"rental_uris":{"android":"levelo://app?vid=19256e00-1703-4736-ae1c-3d3f06c531ab","ios":"levelo://app?vid=19256e00-1703-4736-ae1c-3d3f06c531ab"},"vehicle_type_id":"4","last_reported":1731226222,"current_range_meters":10000,"station_id":"ce4bgpp2rcd13ifvqc3g","pricing_plan_id":"cebpf4jnsgd1na2vs0mg"},{"bike_id":"07a3136c-61c3-40a1-bef4-3f52cb9d08b0","system_id":"levelo_inurba_marseille","lat":43.30305,"lon":5.36903,"is_reserved":false,"is_disabled":false,"rental_uris":{"android":"levelo://app?vid=07a3136c-61c3-40a1-bef4-3f52cb9d08b0","ios":"levelo://app?vid=07a3136c-61c3-40a1-bef4-3f52cb9d08b0"},"vehicle_type_id":"4","last_reported":1731226222,"current_range_meters":38800,"station_id":"ce4bgqh2rcd13ifvqc5g","pricing_plan_id":"cebpf4jnsgd1na2vs0mg"},{"bike_id":"41041769-f72e-491a-8529-c5df729c4e5c","system_id":"levelo_inurba_marseille","lat":43.26061,"lon":5.394,"is_reserved":false,"is_disabled":false,"rental_uris":{"android":"levelo://app?vid=41041769-f72e-491a-8529-c5df729c4e5c","ios":"levelo://app?vid=41041769-f72e-491a-8529-c5df729c4e5c"},"vehicle_type_id":"4","last_reported":1731226222,"current_range_meters":32800,"station_id":"ce4bhh92rcd13ifvqfj0","pricing_plan_id":"cebpf4jnsgd1na2vs0mg"},{"bike_id":"d2a974a2-88bc-4638-8d41-7f094635c91a","system_id":"levelo_inurba_marseille","lat":43.27098,"lon":5.3818,"is_reserved":false,"is_disabled":false,"rental_uris":{"android":"levelo://app?vid=d2a974a2-88bc-4638-8d41-7f094635c91a","ios":"levelo://app?vid=d2a974a2-88bc-4638-8d41-7f094635c91a"},"vehicle_type_id":"4","last_reported":1731226222,"current_range_meters":6800,"station_id":"","pricing_plan_id":"cebpf4jnsgd1na2vs0mg"},{"bike_id":"f0730e13-11c4-4020-956a-ca204d2dd6c0","system_id":"levelo_inurba_marseille","lat":43.29558,"lon":5.42281,"is_reserved":false,"is_disabled":false,"rental_uris":{"android":"levelo://app?vid=f0730e13-11c4-4020-956a-ca204d2dd6c0","ios":"levelo://app?vid=f0730e13-11c4-4020-956a-ca204d2dd6c0"},"vehicle_type_id":"4","last_reported":1731226222,"current_range_meters":37600,"station_id":"ce4bhph2rcd13ifvqhdg","pricing_plan_id":"cebpf4jnsgd1na2vs0mg"},{"bike_id":"da169ceb-ae56-419a-8329-1caa20980f29","system_id":"levelo_inurba_marseille","lat":43.25823,"lon":5.39437,"is_reserved":false,"is_disabled":false,"rental_uris":{"android":"levelo://app?vid=da169ceb-ae56-419a-8329-1caa20980f29","ios":"levelo://app?vid=da169ceb-ae56-419a-8329-1caa20980f29"},"vehicle_type_id":"4","last_reported":1731226222,"current_range_meters":25200,"station_id":"ce4bhip2rcd13ifvqft0","pricing_plan_id":"cebpf4jnsgd1na2vs0mg"},{"bike_id":"c467dd09-0cec-45ff-b31d-4645d3255528","system_id":"levelo_inurba_marseille","lat":43.287,"lon":5.39983,"is_reserved":false,"is_disabled":false,"rental_uris":{"android":"levelo://app?vid=c467dd09-0cec-45ff-b31d-4645d3255528","ios":"levelo://app?vid=c467dd09-0cec-45ff-b31d-4645d3255528"},"vehicle_type_id":"4","last_reported":1731226222,"current_range_meters":38800,"station_id":"ce4bho92rcd13ifvqh3g","pricing_plan_id":"cebpf4jnsgd1na2vs0mg"},{"bike_id":"d8b069df-29e1-4273-99b0-c9104446d9c3","system_id":"levelo_inurba_marseille","lat":43.23191,"lon":5.3555,"is_reserved":false,"is_disabled":false,"rental_uris":{"android":"levelo://app?vid=d8b069df-29e1-4273-99b0-c9104446d9c3","ios":"levelo://app?vid=d8b069df-29e1-4273-99b0-c9104446d9c3"},"vehicle_type_id":"4","last_reported":1731226222,"current_range_meters":6000,"station_id":"ce4bhu92rcd13ifvqi70","pricing_plan_id":"cebpf4jnsgd1na2vs0mg"},{"bike_id":"f881e4d3-9b02-4040-bab7-080caf630d76","system_id":"levelo_inurba_marseille","lat":43.32475,"lon":5.36575,"is_reserved":false,"is_disabled":false,"rental_uris":{"android":"levelo://app?vid=f881e4d3-9b02-4040-bab7-080caf630d76","ios":"levelo://app?vid=f881e4d3-9b02-4040-bab7-080caf630d76"},"vehicle_type_id":"4","last_reported":1731226222,"current_range_meters":36400,"station_id":"ce4bhs12rcd13ifvqhvg","pricing_plan_id":"cebpf4jnsgd1na2vs0mg"},{"bike_id":"aed49dd4-304d-4222-a024-c67cec1bcce7","system_id":"levelo_inurba_marseille","lat":43.25728,"lon":5.411,"is_reserved":false,"is_disabled":false,"rental_uris":{"android":"levelo://app?vid=aed49dd4-304d-4222-a024-c67cec1bcce7","ios":"levelo://app?vid=aed49dd4-304d-4222-a024-c67cec1bcce7"},"vehicle_type_id":"4","last_reported":1731226222,"current_range_meters":38000,"station_id":"ce4bhkp2rcd13ifvqgd0","pricing_plan_id":"cebpf4jnsgd1na2vs0mg"},{"bike_id":"7425107a-538d-4d10-be36-9d4fced446a5","system_id":"levelo_inurba_marseille","lat":43.25,"lon":5.38929,"is_reserved":false,"is_disabled":false,"rental_uris":{"android":"levelo://app?vid=7425107a-538d-4d10-be36-9d4fced446a5","ios":"levelo://app?vid=7425107a-538d-4d10-be36-9d4fced446a5"},"vehicle_type_id":"4","last_reported":1731226222,"current_range_meters":10000,"station_id":"ce4bhgp2rcd13ifvqfd0","pricing_plan_id":"cebpf4jnsgd1na2vs0mg"},{"bike_id":"fbbe362b-7b29-4c8f-b506-484f07761f02","system_id":"levelo_inurba_marseille","lat":43.29914,"lon":5.37444,"is_reserved":false,"is_disabled":false,"rental_uris":{"android":"levelo://app?vid=fbbe362b-7b29-4c8f-b506-484f07761f02","ios":"levelo://app?vid=fbbe362b-7b29-4c8f-b506-484f07761f02"},"vehicle_type_id":"4","last_reported":1731226222,"current_range_meters":36000,"station_id":"ce4bgjh2rcd13ifvqbg0","pricing_plan_id":"cebpf4jnsgd1na2vs0mg"},{"bike_id":"7a9e2545-af8c-4cfc-9cfa-20719364dc01","system_id":"levelo_inurba_marseille","lat":43.29006,"lon":5.35618,"is_reserved":false,"is_disabled":false,"rental_uris":{"android":"levelo://app?vid=7a9e2545-af8c-4cfc-9cfa-20719364dc01","ios":"levelo://app?vid=7a9e2545-af8c-4cfc-9cfa-20719364dc01"},"vehicle_type_id":"4","last_reported":1731226222,"current_range_meters":34000,"station_id":"ce4bhb92rcd13ifvqen0","pricing_plan_id":"cebpf4jnsgd1na2vs0mg"},{"bike_id":"405d360a-7db6-431e-a62f-1ab758d7a60e","system_id":"levelo_inurba_marseille","lat":43.29633,"lon":5.40597,"is_reserved":false,"is_disabled":false,"rental_uris":{"android":"levelo://app?vid=405d360a-7db6-431e-a62f-1ab758d7a60e","ios":"levelo://app?vid=405d360a-7db6-431e-a62f-1ab758d7a60e"},"vehicle_type_id":"4","last_reported":1731226222,"current_range_meters":25200,"station_id":"ce4bh0h2rcd13ifvqd60","pricing_plan_id":"cebpf4jnsgd1na2vs0mg"},{"bike_id":"4b72668e-c38b-4a2f-a70f-fdd3fa1c2b2b","system_id":"levelo_inurba_marseille","lat":43.291667,"lon":5.371564,"is_reserved":false,"is_disabled":false,"rental_uris":{"android":"levelo://app?vid=4b72668e-c38b-4a2f-a70f-fdd3fa1c2b2b","ios":"levelo://app?vid=4b72668e-c38b-4a2f-a70f-fdd3fa1c2b2b"},"vehicle_type_id":"4","last_reported":1731226222,"current_range_meters":38000,"station_id":"ce4bha92rcd13ifvqeh0","pricing_plan_id":"cebpf4jnsgd1na2vs0mg"},{"bike_id":"f9aeacdd-bf01-432f-bf4e-03e65cef4bbd","system_id":"levelo_inurba_marseille","lat":43.29554,"lon":5.42289,"is_reserved":false,"is_disabled":false,"rental_uris":{"android":"levelo://app?vid=f9aeacdd-bf01-432f-bf4e-03e65cef4bbd","ios":"levelo://app?vid=f9aeacdd-bf01-432f-bf4e-03e65cef4bbd"},"vehicle_type_id":"4","last_reported":1731226222,"current_range_meters":38800,"station_id":"ce4bhph2rcd13ifvqhdg","pricing_plan_id":"cebpf4jnsgd1na2vs0mg"},{"bike_id":"8a84a900-fb97-4e7b-bd2c-0abbb858bb8b","system_id":"levelo_inurba_marseille","lat":43.296924,"lon":5.377114,"is_reserved":false,"is_disabled":false,"rental_uris":{"android":"levelo://app?vid=8a84a900-fb97-4e7b-bd2c-0abbb858bb8b","ios":"levelo://app?vid=8a84a900-fb97-4e7b-bd2c-0abbb858bb8b"},"vehicle_type_id":"4","last_reported":1731226222,"current_range_meters":38000,"station_id":"ce4bgkh2rcd13ifvqbl0","pricing_plan_id":"cebpf4jnsgd1na2vs0mg"},{"bike_id":"04c5248d-8230-42fb-96a1-ef9a443404fe","system_id":"levelo_inurba_marseille","lat":43.27923,"lon":5.39589,"is_reserved":false,"is_disabled":false,"rental_uris":{"android":"levelo://app?vid=04c5248d-8230-42fb-96a1-ef9a443404fe","ios":"levelo://app?vid=04c5248d-8230-42fb-96a1-ef9a443404fe"},"vehicle_type_id":"4","last_reported":1731226222,"current_range_meters":28000,"station_id":"ce4bhf92rcd13ifvqf40","pricing_plan_id":"cebpf4jnsgd1na2vs0mg"},{"bike_id":"037ae61b-1599-46be-a4c0-8490f0e128bc","system_id":"levelo_inurba_marseille","lat":43.30421,"lon":5.39755,"is_reserved":false,"is_disabled":false,"rental_uris":{"android":"levelo://app?vid=037ae61b-1599-46be-a4c0-8490f0e128bc","ios":"levelo://app?vid=037ae61b-1599-46be-a4c0-8490f0e128bc"},"vehicle_type_id":"4","last_reported":1731226222,"current_range_meters":38800,"station_id":"ce4bh092rcd13ifvqd20","pricing_plan_id":"cebpf4jnsgd1na2vs0mg"},{"bike_id":"cfce580b-5f0b-4f3e-850b-bda83bbf1dbc","system_id":"levelo_inurba_marseille","lat":43.27951,"lon":5.4106,"is_reserved":false,"is_disabled":false,"rental_uris":{"android":"levelo://app?vid=cfce580b-5f0b-4f3e-850b-bda83bbf1dbc","ios":"levelo://app?vid=cfce580b-5f0b-4f3e-850b-bda83bbf1dbc"},"vehicle_type_id":"4","last_reported":1731226222,"current_range_meters":6800,"station_id":"ce4bhnp2rcd13ifvqh0g","pricing_plan_id":"cebpf4jnsgd1na2vs0mg"},{"bike_id":"ece6c1ac-b0f6-41b1-a4ea-cdc77068020d","system_id":"levelo_inurba_marseille","lat":43.29004,"lon":5.35609,"is_reserved":false,"is_disabled":false,"rental_uris":{"android":"levelo://app?vid=ece6c1ac-b0f6-41b1-a4ea-cdc77068020d","ios":"levelo://app?vid=ece6c1ac-b0f6-41b1-a4ea-cdc77068020d"},"vehicle_type_id":"4","last_reported":1731226222,"current_range_meters":26800,"station_id":"ce4bhb92rcd13ifvqen0","pricing_plan_id":"cebpf4jnsgd1na2vs0mg"},{"bike_id":"b6cc784d-7246-4aad-a56b-95e685683567","system_id":"levelo_inurba_marseille","lat":43.28097,"lon":5.37842,"is_reserved":false,"is_disabled":false,"rental_uris":{"android":"levelo://app?vid=b6cc784d-7246-4aad-a56b-95e685683567","ios":"levelo://app?vid=b6cc784d-7246-4aad-a56b-95e685683567"},"vehicle_type_id":"4","last_reported":1731226222,"current_range_meters":39200,"station_id":"ce4bha12rcd13ifvqee0","pricing_plan_id":"cebpf4jnsgd1na2vs0mg"},{"bike_id":"37dc112e-715e-49c6-92ca-f0ac0a65f63a","system_id":"levelo_inurba_marseille","lat":43.29006,"lon":5.35618,"is_reserved":false,"is_disabled":false,"rental_uris":{"android":"levelo://app?vid=37dc112e-715e-49c6-92ca-f0ac0a65f63a","ios":"levelo://app?vid=37dc112e-715e-49c6-92ca-f0ac0a65f63a"},"vehicle_type_id":"4","last_reported":1731226222,"current_range_meters":28400,"station_id":"ce4bhb92rcd13ifvqen0","pricing_plan_id":"cebpf4jnsgd1na2vs0mg"},{"bike_id":"3cd036b1-82b2-4728-9c4f-a57fb25f0cb6","system_id":"levelo_inurba_marseille","lat":43.24072,"lon":5.37763,"is_reserved":false,"is_disabled":false,"rental_uris":{"android":"levelo://app?vid=3cd036b1-82b2-4728-9c4f-a57fb25f0cb6","ios":"levelo://app?vid=3cd036b1-82b2-4728-9c4f-a57fb25f0cb6"},"vehicle_type_id":"4","last_reported":1731226222,"current_range_meters":7200,"station_id":"ce4bhnp2rcd13ifvqgvg","pricing_plan_id":"cebpf4jnsgd1na2vs0mg"},{"bike_id":"b6a5154a-555b-42d1-acf4-16ddc96237bd","system_id":"levelo_inurba_marseille","lat":43.3096,"lon":5.39043,"is_reserved":false,"is_disabled":false,"rental_uris":{"android":"levelo://app?vid=b6a5154a-555b-42d1-acf4-16ddc96237bd","ios":"levelo://app?vid=b6a5154a-555b-42d1-acf4-16ddc96237bd"},"vehicle_type_id":"4","last_reported":1731226222,"current_range_meters":24000,"station_id":"ce4bgup2rcd13ifvqco0","pricing_plan_id":"cebpf4jnsgd1na2vs0mg"},{"bike_id":"4725a226-481b-4c2e-aba3-bc93621d9cc5","system_id":"levelo_inurba_marseille","lat":43.28707,"lon":5.39989,"is_reserved":false,"is_disabled":false,"rental_uris":{"android":"levelo://app?vid=4725a226-481b-4c2e-aba3-bc93621d9cc5","ios":"levelo://app?vid=4725a226-481b-4c2e-aba3-bc93621d9cc5"},"vehicle_type_id":"4","last_reported":1731226222,"current_range_meters":10800,"station_id":"ce4bho92rcd13ifvqh3g","pricing_plan_id":"cebpf4jnsgd1na2vs0mg"},{"bike_id":"1f72dfe9-3d53-4420-8aeb-30b7325a8507","system_id":"levelo_inurba_marseille","lat":43.33609,"lon":5.41017,"is_reserved":false,"is_disabled":false,"rental_uris":{"android":"levelo://app?vid=1f72dfe9-3d53-4420-8aeb-30b7325a8507","ios":"levelo://app?vid=1f72dfe9-3d53-4420-8aeb-30b7325a8507"},"vehicle_type_id":"4","last_reported":1731226222,"current_range_meters":38800,"station_id":"ce4bhqh2rcd13ifvqhmg","pricing_plan_id":"cebpf4jnsgd1na2vs0mg"},{"bike_id":"5ba76f15-d84a-4280-88c1-de3bcb128680","system_id":"levelo_inurba_marseille","lat":43.27565,"lon":5.38431,"is_reserved":false,"is_disabled":false,"rental_uris":{"android":"levelo://app?vid=5ba76f15-d84a-4280-88c1-de3bcb128680","ios":"levelo://app?vid=5ba76f15-d84a-4280-88c1-de3bcb128680"},"vehicle_type_id":"4","last_reported":1731226222,"current_range_meters":36800,"station_id":"ce4bhh92rcd13ifvqfi0","pricing_plan_id":"cebpf4jnsgd1na2vs0mg"},{"bike_id":"31c24427-fc42-44df-bfcf-b3bb31f09a07","system_id":"levelo_inurba_marseille","lat":43.28851,"lon":5.3934,"is_reserved":false,"is_disabled":false,"rental_uris":{"android":"levelo://app?vid=31c24427-fc42-44df-bfcf-b3bb31f09a07","ios":"levelo://app?vid=31c24427-fc42-44df-bfcf-b3bb31f09a07"},"vehicle_type_id":"4","last_reported":1731226222,"current_range_meters":28000,"station_id":"ce4bh2p2rcd13ifvqdi0","pricing_plan_id":"cebpf4jnsgd1na2vs0mg"},{"bike_id":"2c89db61-cad8-4593-91d6-ca841eb17499","system_id":"levelo_inurba_marseille","lat":43.29198,"lon":5.35796,"is_reserved":false,"is_disabled":false,"rental_uris":{"android":"levelo://app?vid=2c89db61-cad8-4593-91d6-ca841eb17499","ios":"levelo://app?vid=2c89db61-cad8-4593-91d6-ca841eb17499"},"vehicle_type_id":"4","last_reported":1731226222,"current_range_meters":32400,"station_id":"ce4bhb12rcd13ifvqel0","pricing_plan_id":"cebpf4jnsgd1na2vs0mg"},{"bike_id":"2c085216-e118-4d2f-b289-0c7e4a4fe1d0","system_id":"levelo_inurba_marseille","lat":43.31265,"lon":5.40171,"is_reserved":false,"is_disabled":false,"rental_uris":{"android":"levelo://app?vid=2c085216-e118-4d2f-b289-0c7e4a4fe1d0","ios":"levelo://app?vid=2c085216-e118-4d2f-b289-0c7e4a4fe1d0"},"vehicle_type_id":"4","last_reported":1731226222,"current_range_meters":38400,"station_id":"ce4bh092rcd13ifvqd30","pricing_plan_id":"cebpf4jnsgd1na2vs0mg"},{"bike_id":"26b19a86-03b6-439d-a286-d17362989328","system_id":"levelo_inurba_marseille","lat":43.27991,"lon":5.40024,"is_reserved":false,"is_disabled":false,"rental_uris":{"android":"levelo://app?vid=26b19a86-03b6-439d-a286-d17362989328","ios":"levelo://app?vid=26b19a86-03b6-439d-a286-d17362989328"},"vehicle_type_id":"4","last_reported":1731226222,"current_range_meters":38800,"station_id":"ce4bho92rcd13ifvqh4g","pricing_plan_id":"cebpf4jnsgd1na2vs0mg"},{"bike_id":"265211ad-8097-4cf2-bab7-0e312fe4906e","system_id":"levelo_inurba_marseille","lat":43.30776,"lon":5.3765,"is_reserved":false,"is_disabled":false,"rental_uris":{"android":"levelo://app?vid=265211ad-8097-4cf2-bab7-0e312fe4906e","ios":"levelo://app?vid=265211ad-8097-4cf2-bab7-0e312fe4906e"},"vehicle_type_id":"4","last_reported":1731226222,"current_range_meters":24000,"station_id":"ce4bgv92rcd13ifvqcq0","pricing_plan_id":"cebpf4jnsgd1na2vs0mg"},{"bike_id":"6aae269e-8155-4150-9733-cd5c5482b6df","system_id":"levelo_inurba_marseille","lat":43.28456,"lon":5.35895,"is_reserved":false,"is_disabled":false,"rental_uris":{"android":"levelo://app?vid=6aae269e-8155-4150-9733-cd5c5482b6df","ios":"levelo://app?vid=6aae269e-8155-4150-9733-cd5c5482b6df"},"vehicle_type_id":"4","last_reported":1731226222,"current_range_meters":24800,"station_id":"ce4bhah2rcd13ifvqei0","pricing_plan_id":"cebpf4jnsgd1na2vs0mg"},{"bike_id":"046683b0-3026-49cc-ba6a-fff965a0393e","system_id":"levelo_inurba_marseille","lat":43.24075,"lon":5.37754,"is_reserved":false,"is_disabled":false,"rental_uris":{"android":"levelo://app?vid=046683b0-3026-49cc-ba6a-fff965a0393e","ios":"levelo://app?vid=046683b0-3026-49cc-ba6a-fff965a0393e"},"vehicle_type_id":"4","last_reported":1731226222,"current_range_meters":38000,"station_id":"ce4bhnp2rcd13ifvqgvg","pricing_plan_id":"cebpf4jnsgd1na2vs0mg"},{"bike_id":"da6cd7c7-5524-466f-bc18-d935b19bc5bf","system_id":"levelo_inurba_marseille","lat":43.29185,"lon":5.35806,"is_reserved":false,"is_disabled":false,"rental_uris":{"android":"levelo://app?vid=da6cd7c7-5524-466f-bc18-d935b19bc5bf","ios":"levelo://app?vid=da6cd7c7-5524-466f-bc18-d935b19bc5bf"},"vehicle_type_id":"4","last_reported":1731226222,"current_range_meters":18000,"station_id":"ce4bhb12rcd13ifvqel0","pricing_plan_id":"cebpf4jnsgd1na2vs0mg"},{"bike_id":"dcf6845c-2214-41f7-b152-0b5ecc060131","system_id":"levelo_inurba_marseille","lat":43.29446,"lon":5.39744,"is_reserved":false,"is_disabled":false,"rental_uris":{"android":"levelo://app?vid=dcf6845c-2214-41f7-b152-0b5ecc060131","ios":"levelo://app?vid=dcf6845c-2214-41f7-b152-0b5ecc060131"},"vehicle_type_id":"4","last_reported":1731226222,"current_range_meters":38800,"station_id":"ce4bh3h2rcd13ifvqdo0","pricing_plan_id":"cebpf4jnsgd1na2vs0mg"},{"bike_id":"0a64ed50-8cfc-463a-acb6-61f6f9203091","system_id":"levelo_inurba_marseille","lat":43.29903,"lon":5.43676,"is_reserved":false,"is_disabled":false,"rental_uris":{"android":"levelo://app?vid=0a64ed50-8cfc-463a-acb6-61f6f9203091","ios":"levelo://app?vid=0a64ed50-8cfc-463a-acb6-61f6f9203091"},"vehicle_type_id":"4","last_reported":1731226222,"current_range_meters":38800,"station_id":"ce4bhpp2rcd13ifvqhfg","pricing_plan_id":"cebpf4jnsgd1na2vs0mg"},{"bike_id":"96aef8c1-f007-442e-b872-036e6f6c58ad","system_id":"levelo_inurba_marseille","lat":43.31754,"lon":5.39019,"is_reserved":false,"is_disabled":false,"rental_uris":{"android":"levelo://app?vid=96aef8c1-f007-442e-b872-036e6f6c58ad","ios":"levelo://app?vid=96aef8c1-f007-442e-b872-036e6f6c58ad"},"vehicle_type_id":"4","last_reported":1731226222,"current_range_meters":38800,"station_id":"ce4bhqp2rcd13ifvqhng","pricing_plan_id":"cebpf4jnsgd1na2vs0mg"},{"bike_id":"a3bbae90-eb29-4f42-adee-aa56b5ba422b","system_id":"levelo_inurba_marseille","lat":43.30354,"lon":5.41874,"is_reserved":false,"is_disabled":false,"rental_uris":{"android":"levelo://app?vid=a3bbae90-eb29-4f42-adee-aa56b5ba422b","ios":"levelo://app?vid=a3bbae90-eb29-4f42-adee-aa56b5ba422b"},"vehicle_type_id":"4","last_reported":1731226222,"current_range_meters":38000,"station_id":"ce4bhop2rcd13ifvqh7g","pricing_plan_id":"cebpf4jnsgd1na2vs0mg"},{"bike_id":"134ce1ce-579d-4d82-bde6-b146c0c11c11","system_id":"levelo_inurba_marseille","lat":43.29895,"lon":5.43677,"is_reserved":false,"is_disabled":false,"rental_uris":{"android":"levelo://app?vid=134ce1ce-579d-4d82-bde6-b146c0c11c11","ios":"levelo://app?vid=134ce1ce-579d-4d82-bde6-b146c0c11c11"},"vehicle_type_id":"4","last_reported":1731226222,"current_range_meters":37600,"station_id":"ce4bhpp2rcd13ifvqhfg","pricing_plan_id":"cebpf4jnsgd1na2vs0mg"},{"bike_id":"74a41359-ed80-4cd3-85be-bd7b0ea67a0d","system_id":"levelo_inurba_marseille","lat":43.31531,"lon":5.38035,"is_reserved":false,"is_disabled":false,"rental_uris":{"android":"levelo://app?vid=74a41359-ed80-4cd3-85be-bd7b0ea67a0d","ios":"levelo://app?vid=74a41359-ed80-4cd3-85be-bd7b0ea67a0d"},"vehicle_type_id":"4","last_reported":1731226222,"current_range_meters":18800,"station_id":"ce4bhsp2rcd13ifvqi50","pricing_plan_id":"cebpf4jnsgd1na2vs0mg"},{"bike_id":"b7a76e19-8b44-42ba-b89d-6dd1407e1b1b","system_id":"levelo_inurba_marseille","lat":43.30652,"lon":5.40082,"is_reserved":false,"is_disabled":false,"rental_uris":{"android":"levelo://app?vid=b7a76e19-8b44-42ba-b89d-6dd1407e1b1b","ios":"levelo://app?vid=b7a76e19-8b44-42ba-b89d-6dd1407e1b1b"},"vehicle_type_id":"4","last_reported":1731226222,"current_range_meters":29600,"station_id":"ce4bh112rcd13ifvqda0","pricing_plan_id":"cebpf4jnsgd1na2vs0mg"},{"bike_id":"181fa628-fd06-4339-88f4-5d411c857699","system_id":"levelo_inurba_marseille","lat":43.27072,"lon":5.42281,"is_reserved":false,"is_disabled":false,"rental_uris":{"android":"levelo://app?vid=181fa628-fd06-4339-88f4-5d411c857699","ios":"levelo://app?vid=181fa628-fd06-4339-88f4-5d411c857699"},"vehicle_type_id":"4","last_reported":1731226222,"current_range_meters":9200,"station_id":"ce4bhk92rcd13ifvqgb0","pricing_plan_id":"cebpf4jnsgd1na2vs0mg"},{"bike_id":"9887d588-713e-4376-b261-145b0c970073","system_id":"levelo_inurba_marseille","lat":43.28487,"lon":5.38572,"is_reserved":false,"is_disabled":false,"rental_uris":{"android":"levelo://app?vid=9887d588-713e-4376-b261-145b0c970073","ios":"levelo://app?vid=9887d588-713e-4376-b261-145b0c970073"},"vehicle_type_id":"4","last_reported":1731226222,"current_range_meters":26000,"station_id":"ce4bh8p2rcd13ifvqeb0","pricing_plan_id":"cebpf4jnsgd1na2vs0mg"},{"bike_id":"d9a5da0a-59f7-40f5-8e63-d8883b3e81f7","system_id":"levelo_inurba_marseille","lat":43.28703,"lon":5.3739,"is_reserved":false,"is_disabled":false,"rental_uris":{"android":"levelo://app?vid=d9a5da0a-59f7-40f5-8e63-d8883b3e81f7","ios":"levelo://app?vid=d9a5da0a-59f7-40f5-8e63-d8883b3e81f7"},"vehicle_type_id":"4","last_reported":1731226222,"current_range_meters":34000,"station_id":"ce4bh3p2rcd13ifvqdq0","pricing_plan_id":"cebpf4jnsgd1na2vs0mg"},{"bike_id":"7ad1fcfb-dbad-4f2f-94e3-26a08d9ba442","system_id":"levelo_inurba_marseille","lat":43.27992,"lon":5.41659,"is_reserved":false,"is_disabled":false,"rental_uris":{"android":"levelo://app?vid=7ad1fcfb-dbad-4f2f-94e3-26a08d9ba442","ios":"levelo://app?vid=7ad1fcfb-dbad-4f2f-94e3-26a08d9ba442"},"vehicle_type_id":"4","last_reported":1731226222,"current_range_meters":38800,"station_id":"ce4bho12rcd13ifvqh1g","pricing_plan_id":"cebpf4jnsgd1na2vs0mg"},{"bike_id":"64f1e304-55fc-4bb7-bb27-4faaf7cf65c1","system_id":"levelo_inurba_marseille","lat":43.27536,"lon":5.40912,"is_reserved":false,"is_disabled":false,"rental_uris":{"android":"levelo://app?vid=64f1e304-55fc-4bb7-bb27-4faaf7cf65c1","ios":"levelo://app?vid=64f1e304-55fc-4bb7-bb27-4faaf7cf65c1"},"vehicle_type_id":"4","last_reported":1731226222,"current_range_meters":7200,"station_id":"","pricing_plan_id":"cebpf4jnsgd1na2vs0mg"},{"bike_id":"9a5eb101-92a2-4eeb-93bd-8d070d90c1ea","system_id":"levelo_inurba_marseille","lat":43.30433,"lon":5.42528,"is_reserved":false,"is_disabled":false,"rental_uris":{"android":"levelo://app?vid=9a5eb101-92a2-4eeb-93bd-8d070d90c1ea","ios":"levelo://app?vid=9a5eb101-92a2-4eeb-93bd-8d070d90c1ea"},"vehicle_type_id":"4","last_reported":1731226222,"current_range_meters":12400,"station_id":"","pricing_plan_id":"cebpf4jnsgd1na2vs0mg"},{"bike_id":"aea1d714-0a51-488c-8416-b2b0e9e35128","system_id":"levelo_inurba_marseille","lat":43.28454,"lon":5.35887,"is_reserved":false,"is_disabled":false,"rental_uris":{"android":"levelo://app?vid=aea1d714-0a51-488c-8416-b2b0e9e35128","ios":"levelo://app?vid=aea1d714-0a51-488c-8416-b2b0e9e35128"},"vehicle_type_id":"4","last_reported":1731226222,"current_range_meters":10800,"station_id":"ce4bhah2rcd13ifvqei0","pricing_plan_id":"cebpf4jnsgd1na2vs0mg"},{"bike_id":"27e15419-d9b0-4647-890e-e21a7149b1cd","system_id":"levelo_inurba_marseille","lat":43.27067,"lon":5.42275,"is_reserved":false,"is_disabled":false,"rental_uris":{"android":"levelo://app?vid=27e15419-d9b0-4647-890e-e21a7149b1cd","ios":"levelo://app?vid=27e15419-d9b0-4647-890e-e21a7149b1cd"},"vehicle_type_id":"4","last_reported":1731226222,"current_range_meters":8000,"station_id":"ce4bhk92rcd13ifvqgb0","pricing_plan_id":"cebpf4jnsgd1na2vs0mg"},{"bike_id":"55f47cbb-4cd2-4214-9965-9e0698b16e2e","system_id":"levelo_inurba_marseille","lat":43.32392,"lon":5.37004,"is_reserved":false,"is_disabled":false,"rental_uris":{"android":"levelo://app?vid=55f47cbb-4cd2-4214-9965-9e0698b16e2e","ios":"levelo://app?vid=55f47cbb-4cd2-4214-9965-9e0698b16e2e"},"vehicle_type_id":"4","last_reported":1731226222,"current_range_meters":36800,"station_id":"","pricing_plan_id":"cebpf4jnsgd1na2vs0mg"},{"bike_id":"6b51e6dd-3c7f-4178-932b-07d37986933e","system_id":"levelo_inurba_marseille","lat":43.30647,"lon":5.40072,"is_reserved":false,"is_disabled":false,"rental_uris":{"android":"levelo://app?vid=6b51e6dd-3c7f-4178-932b-07d37986933e","ios":"levelo://app?vid=6b51e6dd-3c7f-4178-932b-07d37986933e"},"vehicle_type_id":"4","last_reported":1731226222,"current_range_meters":35600,"station_id":"ce4bh112rcd13ifvqda0","pricing_plan_id":"cebpf4jnsgd1na2vs0mg"},{"bike_id":"ae59c122-6f6a-4058-b9e4-cf3f9a369f15","system_id":"levelo_inurba_marseille","lat":43.33006,"lon":5.39063,"is_reserved":false,"is_disabled":false,"rental_uris":{"android":"levelo://app?vid=ae59c122-6f6a-4058-b9e4-cf3f9a369f15","ios":"levelo://app?vid=ae59c122-6f6a-4058-b9e4-cf3f9a369f15"},"vehicle_type_id":"4","last_reported":1731226222,"current_range_meters":23200,"station_id":"ce4bhr92rcd13ifvqhrg","pricing_plan_id":"cebpf4jnsgd1na2vs0mg"},{"bike_id":"708574a0-429c-49c9-98a7-01938c1b7e58","system_id":"levelo_inurba_marseille","lat":43.29274,"lon":5.36843,"is_reserved":false,"is_disabled":false,"rental_uris":{"android":"levelo://app?vid=708574a0-429c-49c9-98a7-01938c1b7e58","ios":"levelo://app?vid=708574a0-429c-49c9-98a7-01938c1b7e58"},"vehicle_type_id":"4","last_reported":1731226222,"current_range_meters":30000,"station_id":"ce4bhbp2rcd13ifvqesg","pricing_plan_id":"cebpf4jnsgd1na2vs0mg"},{"bike_id":"0d93b31b-854a-4c31-b287-70df5cbe7d07","system_id":"levelo_inurba_marseille","lat":43.24083,"lon":5.37741,"is_reserved":false,"is_disabled":false,"rental_uris":{"android":"levelo://app?vid=0d93b31b-854a-4c31-b287-70df5cbe7d07","ios":"levelo://app?vid=0d93b31b-854a-4c31-b287-70df5cbe7d07"},"vehicle_type_id":"4","last_reported":1731226222,"current_range_meters":11200,"station_id":"ce4bhnp2rcd13ifvqgvg","pricing_plan_id":"cebpf4jnsgd1na2vs0mg"},{"bike_id":"8d2b72fb-c6f8-44de-b9b8-8b5223930e89","system_id":"levelo_inurba_marseille","lat":43.24606,"lon":5.38969,"is_reserved":false,"is_disabled":false,"rental_uris":{"android":"levelo://app?vid=8d2b72fb-c6f8-44de-b9b8-8b5223930e89","ios":"levelo://app?vid=8d2b72fb-c6f8-44de-b9b8-8b5223930e89"},"vehicle_type_id":"4","last_reported":1731226222,"current_range_meters":25600,"station_id":"","pricing_plan_id":"cebpf4jnsgd1na2vs0mg"},{"bike_id":"25fe25a4-403f-4e6f-b9e1-cc790ad299ec","system_id":"levelo_inurba_marseille","lat":43.24395,"lon":5.3706,"is_reserved":false,"is_disabled":false,"rental_uris":{"android":"levelo://app?vid=25fe25a4-403f-4e6f-b9e1-cc790ad299ec","ios":"levelo://app?vid=25fe25a4-403f-4e6f-b9e1-cc790ad299ec"},"vehicle_type_id":"4","last_reported":1731226222,"current_range_meters":22400,"station_id":"ce4bhhh2rcd13ifvqfk0","pricing_plan_id":"cebpf4jnsgd1na2vs0mg"},{"bike_id":"f3bf7e69-48df-4afb-93a9-ec803cd90f94","system_id":"levelo_inurba_marseille","lat":43.28847,"lon":5.35856,"is_reserved":false,"is_disabled":false,"rental_uris":{"android":"levelo://app?vid=f3bf7e69-48df-4afb-93a9-ec803cd90f94","ios":"levelo://app?vid=f3bf7e69-48df-4afb-93a9-ec803cd90f94"},"vehicle_type_id":"4","last_reported":1731226222,"current_range_meters":28400,"station_id":"ce4bhb12rcd13ifvqem0","pricing_plan_id":"cebpf4jnsgd1na2vs0mg"},{"bike_id":"c516322f-e348-4da4-bc40-a63a1a9de554","system_id":"levelo_inurba_marseille","lat":43.29782,"lon":5.371,"is_reserved":false,"is_disabled":false,"rental_uris":{"android":"levelo://app?vid=c516322f-e348-4da4-bc40-a63a1a9de554","ios":"levelo://app?vid=c516322f-e348-4da4-bc40-a63a1a9de554"},"vehicle_type_id":"4","last_reported":1731226222,"current_range_meters":36400,"station_id":"ce4bgop2rcd13ifvqc1g","pricing_plan_id":"cebpf4jnsgd1na2vs0mg"},{"bike_id":"746aa9aa-513a-4f24-99b1-c7d7fbb481a7","system_id":"levelo_inurba_marseille","lat":43.28717,"lon":5.3611,"is_reserved":false,"is_disabled":false,"rental_uris":{"android":"levelo://app?vid=746aa9aa-513a-4f24-99b1-c7d7fbb481a7","ios":"levelo://app?vid=746aa9aa-513a-4f24-99b1-c7d7fbb481a7"},"vehicle_type_id":"4","last_reported":1731226222,"current_range_meters":38000,"station_id":"cki0cbj6b192h4jlfktg","pricing_plan_id":"cebpf4jnsgd1na2vs0mg"},{"bike_id":"c50a1464-a576-48f7-9cdc-57cb94404bef","system_id":"levelo_inurba_marseille","lat":43.26555,"lon":5.37282,"is_reserved":false,"is_disabled":false,"rental_uris":{"android":"levelo://app?vid=c50a1464-a576-48f7-9cdc-57cb94404bef","ios":"levelo://app?vid=c50a1464-a576-48f7-9cdc-57cb94404bef"},"vehicle_type_id":"4","last_reported":1731226222,"current_range_meters":38000,"station_id":"ce4bhg12rcd13ifvqf70","pricing_plan_id":"cebpf4jnsgd1na2vs0mg"},{"bike_id":"dcbb2d29-25e2-46f5-8ba1-e33eefae9e1a","system_id":"levelo_inurba_marseille","lat":43.29199,"lon":5.35791,"is_reserved":false,"is_disabled":false,"rental_uris":{"android":"levelo://app?vid=dcbb2d29-25e2-46f5-8ba1-e33eefae9e1a","ios":"levelo://app?vid=dcbb2d29-25e2-46f5-8ba1-e33eefae9e1a"},"vehicle_type_id":"4","last_reported":1731226222,"current_range_meters":33200,"station_id":"ce4bhb12rcd13ifvqel0","pricing_plan_id":"cebpf4jnsgd1na2vs0mg"},{"bike_id":"2528636a-da2b-4d92-947d-4f76e0e8e5ea","system_id":"levelo_inurba_marseille","lat":43.29437,"lon":5.39756,"is_reserved":false,"is_disabled":false,"rental_uris":{"android":"levelo://app?vid=2528636a-da2b-4d92-947d-4f76e0e8e5ea","ios":"levelo://app?vid=2528636a-da2b-4d92-947d-4f76e0e8e5ea"},"vehicle_type_id":"4","last_reported":1731226222,"current_range_meters":38800,"station_id":"ce4bh3h2rcd13ifvqdo0","pricing_plan_id":"cebpf4jnsgd1na2vs0mg"},{"bike_id":"c6ae65bf-8d5e-4ea9-a3a9-adc79d0ebafe","system_id":"levelo_inurba_marseille","lat":43.24392,"lon":5.37057,"is_reserved":false,"is_disabled":false,"rental_uris":{"android":"levelo://app?vid=c6ae65bf-8d5e-4ea9-a3a9-adc79d0ebafe","ios":"levelo://app?vid=c6ae65bf-8d5e-4ea9-a3a9-adc79d0ebafe"},"vehicle_type_id":"4","last_reported":1731226222,"current_range_meters":24000,"station_id":"ce4bhhh2rcd13ifvqfk0","pricing_plan_id":"cebpf4jnsgd1na2vs0mg"},{"bike_id":"d37c9ca4-b2d7-4147-a9b7-b9dd5a96bc6f","system_id":"levelo_inurba_marseille","lat":43.29002,"lon":5.35614,"is_reserved":false,"is_disabled":false,"rental_uris":{"android":"levelo://app?vid=d37c9ca4-b2d7-4147-a9b7-b9dd5a96bc6f","ios":"levelo://app?vid=d37c9ca4-b2d7-4147-a9b7-b9dd5a96bc6f"},"vehicle_type_id":"4","last_reported":1731226222,"current_range_meters":24400,"station_id":"ce4bhb92rcd13ifvqen0","pricing_plan_id":"cebpf4jnsgd1na2vs0mg"},{"bike_id":"86769cfa-ee19-48ff-9dfc-45f805961b7b","system_id":"levelo_inurba_marseille","lat":43.29006,"lon":5.3561,"is_reserved":false,"is_disabled":false,"rental_uris":{"android":"levelo://app?vid=86769cfa-ee19-48ff-9dfc-45f805961b7b","ios":"levelo://app?vid=86769cfa-ee19-48ff-9dfc-45f805961b7b"},"vehicle_type_id":"4","last_reported":1731226222,"current_range_meters":19200,"station_id":"ce4bhb92rcd13ifvqen0","pricing_plan_id":"cebpf4jnsgd1na2vs0mg"},{"bike_id":"1b641421-2e55-46f2-aa52-a5bd61345632","system_id":"levelo_inurba_marseille","lat":43.24163,"lon":5.36402,"is_reserved":false,"is_disabled":false,"rental_uris":{"android":"levelo://app?vid=1b641421-2e55-46f2-aa52-a5bd61345632","ios":"levelo://app?vid=1b641421-2e55-46f2-aa52-a5bd61345632"},"vehicle_type_id":"4","last_reported":1731226222,"current_range_meters":12000,"station_id":"cpo36qri1sfpv3e86is0","pricing_plan_id":"cebpf4jnsgd1na2vs0mg"},{"bike_id":"ba4109b1-d99b-4b96-b8be-e7a7d80ac365","system_id":"levelo_inurba_marseille","lat":43.32368,"lon":5.38888,"is_reserved":false,"is_disabled":false,"rental_uris":{"android":"levelo://app?vid=ba4109b1-d99b-4b96-b8be-e7a7d80ac365","ios":"levelo://app?vid=ba4109b1-d99b-4b96-b8be-e7a7d80ac365"},"vehicle_type_id":"4","last_reported":1731226222,"current_range_meters":37600,"station_id":"ce4bhqp2rcd13ifvqhog","pricing_plan_id":"cebpf4jnsgd1na2vs0mg"},{"bike_id":"6e04e997-545b-4682-a96f-41749d999c20","system_id":"levelo_inurba_marseille","lat":43.31328,"lon":5.39689,"is_reserved":false,"is_disabled":false,"rental_uris":{"android":"levelo://app?vid=6e04e997-545b-4682-a96f-41749d999c20","ios":"levelo://app?vid=6e04e997-545b-4682-a96f-41749d999c20"},"vehicle_type_id":"4","last_reported":1731226222,"current_range_meters":20800,"station_id":"ce4bgvp2rcd13ifvqcu0","pricing_plan_id":"cebpf4jnsgd1na2vs0mg"},{"bike_id":"8ab21f45-a2fc-420e-85fc-7d62c749390e","system_id":"levelo_inurba_marseille","lat":43.29005,"lon":5.35617,"is_reserved":false,"is_disabled":false,"rental_uris":{"android":"levelo://app?vid=8ab21f45-a2fc-420e-85fc-7d62c749390e","ios":"levelo://app?vid=8ab21f45-a2fc-420e-85fc-7d62c749390e"},"vehicle_type_id":"4","last_reported":1731226222,"current_range_meters":25200,"station_id":"ce4bhb92rcd13ifvqen0","pricing_plan_id":"cebpf4jnsgd1na2vs0mg"},{"bike_id":"0d0ef880-2434-4d1b-be5b-12320ed92e83","system_id":"levelo_inurba_marseille","lat":43.25728,"lon":5.41105,"is_reserved":false,"is_disabled":false,"rental_uris":{"android":"levelo://app?vid=0d0ef880-2434-4d1b-be5b-12320ed92e83","ios":"levelo://app?vid=0d0ef880-2434-4d1b-be5b-12320ed92e83"},"vehicle_type_id":"4","last_reported":1731226222,"current_range_meters":26800,"station_id":"ce4bhkp2rcd13ifvqgd0","pricing_plan_id":"cebpf4jnsgd1na2vs0mg"},{"bike_id":"07704a86-dbed-425a-854d-11b1a4e3d84c","system_id":"levelo_inurba_marseille","lat":43.3376,"lon":5.37443,"is_reserved":false,"is_disabled":false,"rental_uris":{"android":"levelo://app?vid=07704a86-dbed-425a-854d-11b1a4e3d84c","ios":"levelo://app?vid=07704a86-dbed-425a-854d-11b1a4e3d84c"},"vehicle_type_id":"4","last_reported":1731226222,"current_range_meters":32000,"station_id":"","pricing_plan_id":"cebpf4jnsgd1na2vs0mg"},{"bike_id":"79b39923-b687-4420-a58b-1f85feafef16","system_id":"levelo_inurba_marseille","lat":43.30009,"lon":5.37457,"is_reserved":false,"is_disabled":false,"rental_uris":{"android":"levelo://app?vid=79b39923-b687-4420-a58b-1f85feafef16","ios":"levelo://app?vid=79b39923-b687-4420-a58b-1f85feafef16"},"vehicle_type_id":"4","last_reported":1731226222,"current_range_meters":37600,"station_id":"","pricing_plan_id":"cebpf4jnsgd1na2vs0mg"},{"bike_id":"4e37018f-24fe-4508-b911-c59dbcb4fac8","system_id":"levelo_inurba_marseille","lat":43.29973,"lon":5.37187,"is_reserved":false,"is_disabled":false,"rental_uris":{"android":"levelo://app?vid=4e37018f-24fe-4508-b911-c59dbcb4fac8","ios":"levelo://app?vid=4e37018f-24fe-4508-b911-c59dbcb4fac8"},"vehicle_type_id":"4","last_reported":1731226222,"current_range_meters":38400,"station_id":"ce4bgr92rcd13ifvqc7g","pricing_plan_id":"cebpf4jnsgd1na2vs0mg"},{"bike_id":"75549626-0245-4b08-bde2-9dda73c6adad","system_id":"levelo_inurba_marseille","lat":43.2953,"lon":5.39047,"is_reserved":false,"is_disabled":false,"rental_uris":{"android":"levelo://app?vid=75549626-0245-4b08-bde2-9dda73c6adad","ios":"levelo://app?vid=75549626-0245-4b08-bde2-9dda73c6adad"},"vehicle_type_id":"4","last_reported":1731226222,"current_range_meters":32800,"station_id":"ce4bh3p2rcd13ifvqdp0","pricing_plan_id":"cebpf4jnsgd1na2vs0mg"},{"bike_id":"39e0fb1d-6066-4204-83e9-c454b4b8332c","system_id":"levelo_inurba_marseille","lat":43.27824,"lon":5.39206,"is_reserved":false,"is_disabled":false,"rental_uris":{"android":"levelo://app?vid=39e0fb1d-6066-4204-83e9-c454b4b8332c","ios":"levelo://app?vid=39e0fb1d-6066-4204-83e9-c454b4b8332c"},"vehicle_type_id":"4","last_reported":1731226222,"current_range_meters":36000,"station_id":"ce4bhjp2rcd13ifvqga0","pricing_plan_id":"cebpf4jnsgd1na2vs0mg"},{"bike_id":"0b74ce83-e6b1-4485-8ca6-3897f29a426e","system_id":"levelo_inurba_marseille","lat":43.23958,"lon":5.36632,"is_reserved":false,"is_disabled":false,"rental_uris":{"android":"levelo://app?vid=0b74ce83-e6b1-4485-8ca6-3897f29a426e","ios":"levelo://app?vid=0b74ce83-e6b1-4485-8ca6-3897f29a426e"},"vehicle_type_id":"4","last_reported":1731226222,"current_range_meters":9600,"station_id":"ce4bhi12rcd13ifvqfp0","pricing_plan_id":"cebpf4jnsgd1na2vs0mg"},{"bike_id":"2c64c703-c85e-4a6f-91f4-8499eba9eaa2","system_id":"levelo_inurba_marseille","lat":43.28701,"lon":5.39979,"is_reserved":false,"is_disabled":false,"rental_uris":{"android":"levelo://app?vid=2c64c703-c85e-4a6f-91f4-8499eba9eaa2","ios":"levelo://app?vid=2c64c703-c85e-4a6f-91f4-8499eba9eaa2"},"vehicle_type_id":"4","last_reported":1731226222,"current_range_meters":30000,"station_id":"ce4bho92rcd13ifvqh3g","pricing_plan_id":"cebpf4jnsgd1na2vs0mg"},{"bike_id":"6c667f5f-b7e9-4c69-8c31-28fbbcdde478","system_id":"levelo_inurba_marseille","lat":43.23193,"lon":5.35558,"is_reserved":false,"is_disabled":false,"rental_uris":{"android":"levelo://app?vid=6c667f5f-b7e9-4c69-8c31-28fbbcdde478","ios":"levelo://app?vid=6c667f5f-b7e9-4c69-8c31-28fbbcdde478"},"vehicle_type_id":"4","last_reported":1731226222,"current_range_meters":16000,"station_id":"ce4bhu92rcd13ifvqi70","pricing_plan_id":"cebpf4jnsgd1na2vs0mg"},{"bike_id":"cec05772-88fc-40f1-b561-c75ea0611103","system_id":"levelo_inurba_marseille","lat":43.27495,"lon":5.42456,"is_reserved":false,"is_disabled":false,"rental_uris":{"android":"levelo://app?vid=cec05772-88fc-40f1-b561-c75ea0611103","ios":"levelo://app?vid=cec05772-88fc-40f1-b561-c75ea0611103"},"vehicle_type_id":"4","last_reported":1731226222,"current_range_meters":38800,"station_id":"ce4bhn92rcd13ifvqgrg","pricing_plan_id":"cebpf4jnsgd1na2vs0mg"},{"bike_id":"90fe466d-60f7-4cb7-b2d6-c1f73bc7cd7a","system_id":"levelo_inurba_marseille","lat":43.32059,"lon":5.41536,"is_reserved":false,"is_disabled":false,"rental_uris":{"android":"levelo://app?vid=90fe466d-60f7-4cb7-b2d6-c1f73bc7cd7a","ios":"levelo://app?vid=90fe466d-60f7-4cb7-b2d6-c1f73bc7cd7a"},"vehicle_type_id":"4","last_reported":1731226222,"current_range_meters":30800,"station_id":"ce4bhq92rcd13ifvqhkg","pricing_plan_id":"cebpf4jnsgd1na2vs0mg"},{"bike_id":"da717939-5c6f-4fd5-87af-3d4a34249f84","system_id":"levelo_inurba_marseille","lat":43.29034,"lon":5.38645,"is_reserved":false,"is_disabled":false,"rental_uris":{"android":"levelo://app?vid=da717939-5c6f-4fd5-87af-3d4a34249f84","ios":"levelo://app?vid=da717939-5c6f-4fd5-87af-3d4a34249f84"},"vehicle_type_id":"4","last_reported":1731226222,"current_range_meters":29600,"station_id":"ce4bh4p2rcd13ifvqe0g","pricing_plan_id":"cebpf4jnsgd1na2vs0mg"},{"bike_id":"2c42f401-8588-45b2-801d-41b9137e6000","system_id":"levelo_inurba_marseille","lat":43.31692,"lon":5.40474,"is_reserved":false,"is_disabled":false,"rental_uris":{"android":"levelo://app?vid=2c42f401-8588-45b2-801d-41b9137e6000","ios":"levelo://app?vid=2c42f401-8588-45b2-801d-41b9137e6000"},"vehicle_type_id":"4","last_reported":1731226222,"current_range_meters":26000,"station_id":"ce4bh012rcd13ifvqd00","pricing_plan_id":"cebpf4jnsgd1na2vs0mg"},{"bike_id":"baac3be3-010c-4ab7-b814-2af962c842f8","system_id":"levelo_inurba_marseille","lat":43.28355,"lon":5.37532,"is_reserved":false,"is_disabled":false,"rental_uris":{"android":"levelo://app?vid=baac3be3-010c-4ab7-b814-2af962c842f8","ios":"levelo://app?vid=baac3be3-010c-4ab7-b814-2af962c842f8"},"vehicle_type_id":"4","last_reported":1731226222,"current_range_meters":27600,"station_id":"","pricing_plan_id":"cebpf4jnsgd1na2vs0mg"},{"bike_id":"c1f926f7-9b35-4eec-933c-9e7ed756a8b9","system_id":"levelo_inurba_marseille","lat":43.30882,"lon":5.39649,"is_reserved":false,"is_disabled":false,"rental_uris":{"android":"levelo://app?vid=c1f926f7-9b35-4eec-933c-9e7ed756a8b9","ios":"levelo://app?vid=c1f926f7-9b35-4eec-933c-9e7ed756a8b9"},"vehicle_type_id":"4","last_reported":1731226222,"current_range_meters":38800,"station_id":"ce4bh012rcd13ifvqcv0","pricing_plan_id":"cebpf4jnsgd1na2vs0mg"},{"bike_id":"04d2e88f-c5a5-441d-a13d-50ee686a0c76","system_id":"levelo_inurba_marseille","lat":43.30945,"lon":5.39029,"is_reserved":false,"is_disabled":false,"rental_uris":{"android":"levelo://app?vid=04d2e88f-c5a5-441d-a13d-50ee686a0c76","ios":"levelo://app?vid=04d2e88f-c5a5-441d-a13d-50ee686a0c76"},"vehicle_type_id":"4","last_reported":1731226222,"current_range_meters":12000,"station_id":"ce4bgup2rcd13ifvqco0","pricing_plan_id":"cebpf4jnsgd1na2vs0mg"},{"bike_id":"ce2879f6-b67d-4289-ac71-73576ea9f6c4","system_id":"levelo_inurba_marseille","lat":43.33019,"lon":5.39033,"is_reserved":false,"is_disabled":false,"rental_uris":{"android":"levelo://app?vid=ce2879f6-b67d-4289-ac71-73576ea9f6c4","ios":"levelo://app?vid=ce2879f6-b67d-4289-ac71-73576ea9f6c4"},"vehicle_type_id":"4","last_reported":1731226222,"current_range_meters":38800,"station_id":"ce4bhr92rcd13ifvqhrg","pricing_plan_id":"cebpf4jnsgd1na2vs0mg"},{"bike_id":"d17d14b6-bd39-4f6f-860c-b6baae4afc33","system_id":"levelo_inurba_marseille","lat":43.2606,"lon":5.39396,"is_reserved":false,"is_disabled":false,"rental_uris":{"android":"levelo://app?vid=d17d14b6-bd39-4f6f-860c-b6baae4afc33","ios":"levelo://app?vid=d17d14b6-bd39-4f6f-860c-b6baae4afc33"},"vehicle_type_id":"4","last_reported":1731226222,"current_range_meters":16000,"station_id":"ce4bhh92rcd13ifvqfj0","pricing_plan_id":"cebpf4jnsgd1na2vs0mg"},{"bike_id":"bc9cd5a8-b8ff-4043-9c10-9af81ba385ee","system_id":"levelo_inurba_marseille","lat":43.29273,"lon":5.40123,"is_reserved":false,"is_disabled":false,"rental_uris":{"android":"levelo://app?vid=bc9cd5a8-b8ff-4043-9c10-9af81ba385ee","ios":"levelo://app?vid=bc9cd5a8-b8ff-4043-9c10-9af81ba385ee"},"vehicle_type_id":"4","last_reported":1731226222,"current_range_meters":33200,"station_id":"ce4bh312rcd13ifvqdk0","pricing_plan_id":"cebpf4jnsgd1na2vs0mg"},{"bike_id":"f4a76605-3d31-435c-bc98-20b367702792","system_id":"levelo_inurba_marseille","lat":43.28617,"lon":5.35106,"is_reserved":false,"is_disabled":false,"rental_uris":{"android":"levelo://app?vid=f4a76605-3d31-435c-bc98-20b367702792","ios":"levelo://app?vid=f4a76605-3d31-435c-bc98-20b367702792"},"vehicle_type_id":"4","last_reported":1731226222,"current_range_meters":25200,"station_id":"ce4bhch2rcd13ifvqeug","pricing_plan_id":"cebpf4jnsgd1na2vs0mg"},{"bike_id":"d4b7ad62-62cc-4bff-bee2-ee88acc9c73c","system_id":"levelo_inurba_marseille","lat":43.2679,"lon":5.39431,"is_reserved":false,"is_disabled":false,"rental_uris":{"android":"levelo://app?vid=d4b7ad62-62cc-4bff-bee2-ee88acc9c73c","ios":"levelo://app?vid=d4b7ad62-62cc-4bff-bee2-ee88acc9c73c"},"vehicle_type_id":"4","last_reported":1731226222,"current_range_meters":25200,"station_id":"ce4bhh12rcd13ifvqfg0","pricing_plan_id":"cebpf4jnsgd1na2vs0mg"},{"bike_id":"398ec039-e038-4de4-ba10-93b74a997367","system_id":"levelo_inurba_marseille","lat":43.24389,"lon":5.37062,"is_reserved":false,"is_disabled":false,"rental_uris":{"android":"levelo://app?vid=398ec039-e038-4de4-ba10-93b74a997367","ios":"levelo://app?vid=398ec039-e038-4de4-ba10-93b74a997367"},"vehicle_type_id":"4","last_reported":1731226222,"current_range_meters":26000,"station_id":"ce4bhhh2rcd13ifvqfk0","pricing_plan_id":"cebpf4jnsgd1na2vs0mg"},{"bike_id":"0d77ed02-5c0d-49de-a1ce-76cc38985d4c","system_id":"levelo_inurba_marseille","lat":43.23965,"lon":5.36639,"is_reserved":false,"is_disabled":false,"rental_uris":{"android":"levelo://app?vid=0d77ed02-5c0d-49de-a1ce-76cc38985d4c","ios":"levelo://app?vid=0d77ed02-5c0d-49de-a1ce-76cc38985d4c"},"vehicle_type_id":"4","last_reported":1731226222,"current_range_meters":2000,"station_id":"ce4bhi12rcd13ifvqfp0","pricing_plan_id":"cebpf4jnsgd1na2vs0mg"},{"bike_id":"fd70d13a-52e0-4a3e-ad19-1a314edc618d","system_id":"levelo_inurba_marseille","lat":43.29228,"lon":5.36075,"is_reserved":false,"is_disabled":false,"rental_uris":{"android":"levelo://app?vid=fd70d13a-52e0-4a3e-ad19-1a314edc618d","ios":"levelo://app?vid=fd70d13a-52e0-4a3e-ad19-1a314edc618d"},"vehicle_type_id":"4","last_reported":1731226222,"current_range_meters":24000,"station_id":"ce4bhbh2rcd13ifvqeqg","pricing_plan_id":"cebpf4jnsgd1na2vs0mg"},{"bike_id":"b4eb30bc-dd09-4cbf-8ece-3b8ada662aaf","system_id":"levelo_inurba_marseille","lat":43.25008,"lon":5.3891,"is_reserved":false,"is_disabled":false,"rental_uris":{"android":"levelo://app?vid=b4eb30bc-dd09-4cbf-8ece-3b8ada662aaf","ios":"levelo://app?vid=b4eb30bc-dd09-4cbf-8ece-3b8ada662aaf"},"vehicle_type_id":"4","last_reported":1731226222,"current_range_meters":14800,"station_id":"ce4bhgp2rcd13ifvqfd0","pricing_plan_id":"cebpf4jnsgd1na2vs0mg"},{"bike_id":"0a9ced8e-5540-4b2f-8a58-9d2edfe5e395","system_id":"levelo_inurba_marseille","lat":43.26203,"lon":5.3793,"is_reserved":false,"is_disabled":false,"rental_uris":{"android":"levelo://app?vid=0a9ced8e-5540-4b2f-8a58-9d2edfe5e395","ios":"levelo://app?vid=0a9ced8e-5540-4b2f-8a58-9d2edfe5e395"},"vehicle_type_id":"4","last_reported":1731226222,"current_range_meters":37600,"station_id":"ce4bhjp2rcd13ifvqg90","pricing_plan_id":"cebpf4jnsgd1na2vs0mg"},{"bike_id":"fa78405e-369c-40ab-b21e-6f22fa956195","system_id":"levelo_inurba_marseille","lat":43.2928,"lon":5.36845,"is_reserved":false,"is_disabled":false,"rental_uris":{"android":"levelo://app?vid=fa78405e-369c-40ab-b21e-6f22fa956195","ios":"levelo://app?vid=fa78405e-369c-40ab-b21e-6f22fa956195"},"vehicle_type_id":"4","last_reported":1731226222,"current_range_meters":38000,"station_id":"ce4bhbp2rcd13ifvqesg","pricing_plan_id":"cebpf4jnsgd1na2vs0mg"},{"bike_id":"c931e854-f671-4eae-be17-c754dc3c9917","system_id":"levelo_inurba_marseille","lat":43.29559,"lon":5.42288,"is_reserved":false,"is_disabled":false,"rental_uris":{"android":"levelo://app?vid=c931e854-f671-4eae-be17-c754dc3c9917","ios":"levelo://app?vid=c931e854-f671-4eae-be17-c754dc3c9917"},"vehicle_type_id":"4","last_reported":1731226222,"current_range_meters":8800,"station_id":"ce4bhph2rcd13ifvqhdg","pricing_plan_id":"cebpf4jnsgd1na2vs0mg"},{"bike_id":"a7608079-3065-4507-abb3-2949ede52249","system_id":"levelo_inurba_marseille","lat":43.29269,"lon":5.36849,"is_reserved":false,"is_disabled":false,"rental_uris":{"android":"levelo://app?vid=a7608079-3065-4507-abb3-2949ede52249","ios":"levelo://app?vid=a7608079-3065-4507-abb3-2949ede52249"},"vehicle_type_id":"4","last_reported":1731226222,"current_range_meters":33200,"station_id":"ce4bhbp2rcd13ifvqesg","pricing_plan_id":"cebpf4jnsgd1na2vs0mg"},{"bike_id":"be94c940-c56d-4132-af66-fedb762b3e0f","system_id":"levelo_inurba_marseille","lat":43.23189,"lon":5.35555,"is_reserved":false,"is_disabled":false,"rental_uris":{"android":"levelo://app?vid=be94c940-c56d-4132-af66-fedb762b3e0f","ios":"levelo://app?vid=be94c940-c56d-4132-af66-fedb762b3e0f"},"vehicle_type_id":"4","last_reported":1731226222,"current_range_meters":33200,"station_id":"ce4bhu92rcd13ifvqi70","pricing_plan_id":"cebpf4jnsgd1na2vs0mg"},{"bike_id":"26a3e5fe-a4fc-4030-a34d-1c3abe24f5bb","system_id":"levelo_inurba_marseille","lat":43.25097,"lon":5.39527,"is_reserved":false,"is_disabled":false,"rental_uris":{"android":"levelo://app?vid=26a3e5fe-a4fc-4030-a34d-1c3abe24f5bb","ios":"levelo://app?vid=26a3e5fe-a4fc-4030-a34d-1c3abe24f5bb"},"vehicle_type_id":"4","last_reported":1731226222,"current_range_meters":36800,"station_id":"ce4bhm12rcd13ifvqgkg","pricing_plan_id":"cebpf4jnsgd1na2vs0mg"},{"bike_id":"9769b54a-608a-49dc-ab6a-d885f78ea978","system_id":"levelo_inurba_marseille","lat":43.31123,"lon":5.37765,"is_reserved":false,"is_disabled":false,"rental_uris":{"android":"levelo://app?vid=9769b54a-608a-49dc-ab6a-d885f78ea978","ios":"levelo://app?vid=9769b54a-608a-49dc-ab6a-d885f78ea978"},"vehicle_type_id":"4","last_reported":1731226222,"current_range_meters":16400,"station_id":"ce4bgt92rcd13ifvqcg0","pricing_plan_id":"cebpf4jnsgd1na2vs0mg"},{"bike_id":"cf43c170-786d-415d-a9f8-96b6650f2427","system_id":"levelo_inurba_marseille","lat":43.27947,"lon":5.41046,"is_reserved":false,"is_disabled":false,"rental_uris":{"android":"levelo://app?vid=cf43c170-786d-415d-a9f8-96b6650f2427","ios":"levelo://app?vid=cf43c170-786d-415d-a9f8-96b6650f2427"},"vehicle_type_id":"4","last_reported":1731226222,"current_range_meters":30000,"station_id":"ce4bhnp2rcd13ifvqh0g","pricing_plan_id":"cebpf4jnsgd1na2vs0mg"},{"bike_id":"961f3708-c589-4143-8e95-6f61ad74d927","system_id":"levelo_inurba_marseille","lat":43.32055,"lon":5.41539,"is_reserved":false,"is_disabled":false,"rental_uris":{"android":"levelo://app?vid=961f3708-c589-4143-8e95-6f61ad74d927","ios":"levelo://app?vid=961f3708-c589-4143-8e95-6f61ad74d927"},"vehicle_type_id":"4","last_reported":1731226222,"current_range_meters":37600,"station_id":"ce4bhq92rcd13ifvqhkg","pricing_plan_id":"cebpf4jnsgd1na2vs0mg"},{"bike_id":"799051fd-d983-438d-b1a6-f94aa3428752","system_id":"levelo_inurba_marseille","lat":43.295539,"lon":5.422835,"is_reserved":false,"is_disabled":false,"rental_uris":{"android":"levelo://app?vid=799051fd-d983-438d-b1a6-f94aa3428752","ios":"levelo://app?vid=799051fd-d983-438d-b1a6-f94aa3428752"},"vehicle_type_id":"4","last_reported":1731226222,"current_range_meters":37600,"station_id":"ce4bhph2rcd13ifvqhdg","pricing_plan_id":"cebpf4jnsgd1na2vs0mg"},{"bike_id":"2f4fe126-9423-4754-95ef-63242eaa6081","system_id":"levelo_inurba_marseille","lat":43.30783,"lon":5.37655,"is_reserved":false,"is_disabled":false,"rental_uris":{"android":"levelo://app?vid=2f4fe126-9423-4754-95ef-63242eaa6081","ios":"levelo://app?vid=2f4fe126-9423-4754-95ef-63242eaa6081"},"vehicle_type_id":"4","last_reported":1731226222,"current_range_meters":38800,"station_id":"ce4bgv92rcd13ifvqcq0","pricing_plan_id":"cebpf4jnsgd1na2vs0mg"},{"bike_id":"f0792be0-366f-4646-90bc-071bcc3a47a5","system_id":"levelo_inurba_marseille","lat":43.2993,"lon":5.36543,"is_reserved":false,"is_disabled":false,"rental_uris":{"android":"levelo://app?vid=f0792be0-366f-4646-90bc-071bcc3a47a5","ios":"levelo://app?vid=f0792be0-366f-4646-90bc-071bcc3a47a5"},"vehicle_type_id":"4","last_reported":1731226222,"current_range_meters":28400,"station_id":"ce4bgm92rcd13ifvqbr0","pricing_plan_id":"cebpf4jnsgd1na2vs0mg"},{"bike_id":"89b22e55-4d99-44a1-81b5-8cf32fcc5187","system_id":"levelo_inurba_marseille","lat":43.30458,"lon":5.37909,"is_reserved":false,"is_disabled":false,"rental_uris":{"android":"levelo://app?vid=89b22e55-4d99-44a1-81b5-8cf32fcc5187","ios":"levelo://app?vid=89b22e55-4d99-44a1-81b5-8cf32fcc5187"},"vehicle_type_id":"4","last_reported":1731226222,"current_range_meters":38800,"station_id":"ce4bgup2rcd13ifvqcn0","pricing_plan_id":"cebpf4jnsgd1na2vs0mg"},{"bike_id":"cf585a70-aec5-4c67-a7ed-c0d5885305ed","system_id":"levelo_inurba_marseille","lat":43.30167,"lon":5.38083,"is_reserved":false,"is_disabled":false,"rental_uris":{"android":"levelo://app?vid=cf585a70-aec5-4c67-a7ed-c0d5885305ed","ios":"levelo://app?vid=cf585a70-aec5-4c67-a7ed-c0d5885305ed"},"vehicle_type_id":"4","last_reported":1731226222,"current_range_meters":6000,"station_id":"ce4bgjp2rcd13ifvqbh0","pricing_plan_id":"cebpf4jnsgd1na2vs0mg"},{"bike_id":"89560c1c-9f8c-467a-83a2-6e82b26175ca","system_id":"levelo_inurba_marseille","lat":43.309601,"lon":5.390395,"is_reserved":false,"is_disabled":false,"rental_uris":{"android":"levelo://app?vid=89560c1c-9f8c-467a-83a2-6e82b26175ca","ios":"levelo://app?vid=89560c1c-9f8c-467a-83a2-6e82b26175ca"},"vehicle_type_id":"4","last_reported":1731226222,"current_range_meters":28000,"station_id":"ce4bgup2rcd13ifvqco0","pricing_plan_id":"cebpf4jnsgd1na2vs0mg"},{"bike_id":"51a09077-510c-4052-8828-323a9cbe0194","system_id":"levelo_inurba_marseille","lat":43.30886,"lon":5.39644,"is_reserved":false,"is_disabled":false,"rental_uris":{"android":"levelo://app?vid=51a09077-510c-4052-8828-323a9cbe0194","ios":"levelo://app?vid=51a09077-510c-4052-8828-323a9cbe0194"},"vehicle_type_id":"4","last_reported":1731226222,"current_range_meters":31200,"station_id":"ce4bh012rcd13ifvqcv0","pricing_plan_id":"cebpf4jnsgd1na2vs0mg"},{"bike_id":"d0c4b5ca-604f-481e-861a-fed9d1781334","system_id":"levelo_inurba_marseille","lat":43.24166,"lon":5.36405,"is_reserved":false,"is_disabled":false,"rental_uris":{"android":"levelo://app?vid=d0c4b5ca-604f-481e-861a-fed9d1781334","ios":"levelo://app?vid=d0c4b5ca-604f-481e-861a-fed9d1781334"},"vehicle_type_id":"4","last_reported":1731226222,"current_range_meters":17200,"station_id":"cpo36qri1sfpv3e86is0","pricing_plan_id":"cebpf4jnsgd1na2vs0mg"},{"bike_id":"2a2b6bd4-7604-497d-9ca3-0e5e501b0d20","system_id":"levelo_inurba_marseille","lat":43.31174,"lon":5.38719,"is_reserved":false,"is_disabled":false,"rental_uris":{"android":"levelo://app?vid=2a2b6bd4-7604-497d-9ca3-0e5e501b0d20","ios":"levelo://app?vid=2a2b6bd4-7604-497d-9ca3-0e5e501b0d20"},"vehicle_type_id":"4","last_reported":1731226222,"current_range_meters":37600,"station_id":"ce4bgv12rcd13ifvqcp0","pricing_plan_id":"cebpf4jnsgd1na2vs0mg"},{"bike_id":"87a1e4cb-56fc-43f2-8a9c-be092895dbde","system_id":"levelo_inurba_marseille","lat":43.28934,"lon":5.36399,"is_reserved":false,"is_disabled":false,"rental_uris":{"android":"levelo://app?vid=87a1e4cb-56fc-43f2-8a9c-be092895dbde","ios":"levelo://app?vid=87a1e4cb-56fc-43f2-8a9c-be092895dbde"},"vehicle_type_id":"4","last_reported":1731226222,"current_range_meters":14800,"station_id":"ce4bhc92rcd13ifvqetg","pricing_plan_id":"cebpf4jnsgd1na2vs0mg"},{"bike_id":"c017dadd-79e7-4b34-a196-75afd0bb381b","system_id":"levelo_inurba_marseille","lat":43.28843,"lon":5.35853,"is_reserved":false,"is_disabled":false,"rental_uris":{"android":"levelo://app?vid=c017dadd-79e7-4b34-a196-75afd0bb381b","ios":"levelo://app?vid=c017dadd-79e7-4b34-a196-75afd0bb381b"},"vehicle_type_id":"4","last_reported":1731226222,"current_range_meters":34800,"station_id":"ce4bhb12rcd13ifvqem0","pricing_plan_id":"cebpf4jnsgd1na2vs0mg"},{"bike_id":"e61e0940-c088-4879-95f6-2eeeebf20835","system_id":"levelo_inurba_marseille","lat":43.31701,"lon":5.37741,"is_reserved":false,"is_disabled":false,"rental_uris":{"android":"levelo://app?vid=e61e0940-c088-4879-95f6-2eeeebf20835","ios":"levelo://app?vid=e61e0940-c088-4879-95f6-2eeeebf20835"},"vehicle_type_id":"4","last_reported":1731226222,"current_range_meters":16000,"station_id":"ce4bgth2rcd13ifvqch0","pricing_plan_id":"cebpf4jnsgd1na2vs0mg"},{"bike_id":"155cf988-37d6-4892-a54b-4d87b21fe729","system_id":"levelo_inurba_marseille","lat":43.306,"lon":5.37239,"is_reserved":false,"is_disabled":false,"rental_uris":{"android":"levelo://app?vid=155cf988-37d6-4892-a54b-4d87b21fe729","ios":"levelo://app?vid=155cf988-37d6-4892-a54b-4d87b21fe729"},"vehicle_type_id":"4","last_reported":1731226222,"current_range_meters":37600,"station_id":"ce4bgqh2rcd13ifvqc4g","pricing_plan_id":"cebpf4jnsgd1na2vs0mg"},{"bike_id":"78a96a5f-8864-4cb8-b33f-d148b5a41d90","system_id":"levelo_inurba_marseille","lat":43.28697,"lon":5.37385,"is_reserved":false,"is_disabled":false,"rental_uris":{"android":"levelo://app?vid=78a96a5f-8864-4cb8-b33f-d148b5a41d90","ios":"levelo://app?vid=78a96a5f-8864-4cb8-b33f-d148b5a41d90"},"vehicle_type_id":"4","last_reported":1731226222,"current_range_meters":2800,"station_id":"ce4bh3p2rcd13ifvqdq0","pricing_plan_id":"cebpf4jnsgd1na2vs0mg"},{"bike_id":"bc093f93-70b4-4483-bab7-842028ba9346","system_id":"levelo_inurba_marseille","lat":43.26681,"lon":5.38266,"is_reserved":false,"is_disabled":false,"rental_uris":{"android":"levelo://app?vid=bc093f93-70b4-4483-bab7-842028ba9346","ios":"levelo://app?vid=bc093f93-70b4-4483-bab7-842028ba9346"},"vehicle_type_id":"4","last_reported":1731226222,"current_range_meters":38800,"station_id":"ce4bhg92rcd13ifvqf90","pricing_plan_id":"cebpf4jnsgd1na2vs0mg"},