{"last_updated":1762330535,"ttl":60,"version":"2.2","data":{"bikes":[{"bike_id":"b7c5e96f-2666-418c-b8cc-36dfc613348c","system_id":"levelo_inurba_marseille","lat":43.337444,"lon":5.374475,"is_reserved":false,"is_disabled":false,"rental_uris":{"android":"levelo://app?vid=b7c5e96f-2666-418c-b8cc-36dfc613348c","ios":"levelo://app?vid=b7c5e96f-2666-418c-b8cc-36dfc613348c"},"vehicle_type_id":"4","last_reported":1762330535,"current_range_meters":0,"station_id":"","pricing_plan_id":"cebpf4jnsgd1na2vs0mg"},{"bike_id":"9c46a9f5-39cb-461a-ac28-286dc216524b","system_id":"levelo_inurba_marseille","lat":43.337444,"lon":5.374475,"is_reserved":false,"is_disabled":false,"rental_uris":{"android":"levelo://app?vid=9c46a9f5-39cb-461a-ac28-286dc216524b","ios":"levelo://app?vid=9c46a9f5-39cb-461a-ac28-286dc216524b"},"vehicle_type_id":"4","last_reported":1762330535,"current_range_meters":0,"station_id":"","pricing_plan_id":"cebpf4jnsgd1na2vs0mg"},{"bike_id":"2aa95e42-5a8c-4825-81d0-40d356e0168e","system_id":"levelo_inurba_marseille","lat":43.337444,"lon":5.374475,"is_reserved":false,"is_disabled":false,"rental_uris":{"android":"levelo://app?vid=2aa95e42-5a8c-4825-81d0-40d356e0168e","ios":"levelo://app?vid=2aa95e42-5a8c-4825-81d0-40d356e0168e"},"vehicle_type_id":"4","last_reported":1762330535,"current_range_meters":0,"station_id":"","pricing_plan_id":"cebpf4jnsgd1na2vs0mg"},{"bike_id":"23f7c00c-abd3-4b9e-b454-b625ef68ddce","system_id":"levelo_inurba_marseille","lat":43.337444,"lon":5.374475,"is_reserved":false,"is_disabled":false,"rental_uris":{"android":"levelo://app?vid=23f7c00c-abd3-4b9e-b454-b625ef68ddce","ios":"levelo://app?vid=23f7c00c-abd3-4b9e-b454-b625ef68ddce"},"vehicle_type_id":"4","last_reported":1762330535,"current_range_meters":0,"station_id":"","pricing_plan_id":"cebpf4jnsgd1na2vs0mg"},{"bike_id":"a3451d83-9c80-4ffa-96f9-a14c25634465","system_id":"levelo_inurba_marseille","lat":43.337444,"lon":5.374475,"is_reserved":false,"is_disabled":false,"rental_uris":{"android":"levelo://app?vid=a3451d83-9c80-4ffa-96f9-a14c25634465","ios":"levelo://app?vid=a3451d83-9c80-4ffa-96f9-a14c25634465"},"vehicle_type_id":"4","last_reported":1762330535,"current_range_meters":0,"station_id":"","pricing_plan_id":"cebpf4jnsgd1na2vs0mg"},{"bike_id":"19649598-fd0f-4237-a302-8b748132eb30","system_id":"levelo_inurba_marseille","lat":43.337444,"lon":5.374475,"is_reserved":false,"is_disabled":false,"rental_uris":{"android":"levelo://app?vid=19649598-fd0f-4237-a302-8b748132eb30","ios":"levelo://app?vid=19649598-fd0f-4237-a302-8b748132eb30"},"vehicle_type_id":"4","last_reported":1762330535,"current_range_meters":0,"station_id":"","pricing_plan_id":"cebpf4jnsgd1na2vs0mg"},{"bike_id":"79f0199f-1fbb-40b2-9337-191d82b520a7","system_id":"levelo_inurba_marseille","lat":43.337444,"lon":5.374475,"is_reserved":false,"is_disabled":false,"rental_uris":{"android":"levelo://app?vid=79f0199f-1fbb-40b2-9337-191d82b520a7","ios":"levelo://app?vid=79f0199f-1fbb-40b2-9337-191d82b520a7"},"vehicle_type_id":"4","last_reported":1762330535,"current_range_meters":0,"station_id":"","pricing_plan_id":"cebpf4jnsgd1na2vs0mg"},{"bike_id":"34a0d96e-bbf5-4ab6-8de8-a56cc767fd57","system_id":"levelo_inurba_marseille","lat":43.337444,"lon":5.374475,"is_reserved":false,"is_disabled":false,"rental_uris":{"android":"levelo://app?vid=34a0d96e-bbf5-4ab6-8de8-a56cc767fd57","ios":"levelo://app?vid=34a0d96e-bbf5-4ab6-8de8-a56cc767fd57"},"vehicle_type_id":"4","last_reported":1762330535,"current_range_meters":0,"station_id":"","pricing_plan_id":"cebpf4jnsgd1na2vs0mg"},{"bike_id":"30c4756b-2e3a-4ac9-b1fb-aa08283eecaa","system_id":"levelo_inurba_marseille","lat":43.337444,"lon":5.374475,"is_reserved":false,"is_disabled":false,"rental_uris":{"android":"levelo://app?vid=30c4756b-2e3a-4ac9-b1fb-aa08283eecaa","ios":"levelo://app?vid=30c4756b-2e3a-4ac9-b1fb-aa08283eecaa"},"vehicle_type_id":"4","last_reported":1762330535,"current_range_meters":0,"station_id":"","pricing_plan_id":"cebpf4jnsgd1na2vs0mg"},{"bike_id":"cb5b6ee7-3ef8-4299-a38d-cc32f035098b","system_id":"levelo_inurba_marseille","lat":43.337444,"lon":5.374475,"is_reserved":false,"is_disabled":false,"rental_uris":{"android":"levelo://app?vid=cb5b6ee7-3ef8-4299-a38d-cc32f035098b","ios":"levelo://app?vid=cb5b6ee7-3ef8-4299-a38d-cc32f035098b"},"vehicle_type_id":"4","last_reported":1762330535,"current_range_meters":0,"station_id":"","pricing_plan_id":"cebpf4jnsgd1na2vs0mg"},{"bike_id":"0dbf8834-1963-4427-879a-60d5139a1252","system_id":"levelo_inurba_marseille","lat":43.337444,"lon":5.374475,"is_reserved":false,"is_disabled":false,"rental_uris":{"android":"levelo://app?vid=0dbf8834-1963-4427-879a-60d5139a1252","ios":"levelo://app?vid=0dbf8834-1963-4427-879a-60d5139a1252"},"vehicle_type_id":"4","last_reported":1762330535,"current_range_meters":0,"station_id":"","pricing_plan_id":"cebpf4jnsgd1na2vs0mg"},{"bike_id":"c3d3ce5c-8075-4b42-9455-beadd1468f17","system_id":"levelo_inurba_marseille","lat":43.337444,"lon":5.374475,"is_reserved":false,"is_disabled":false,"rental_uris":{"android":"levelo://app?vid=c3d3ce5c-8075-4b42-9455-beadd1468f17","ios":"levelo://app?vid=c3d3ce5c-8075-4b42-9455-beadd1468f17"},"vehicle_type_id":"4","last_reported":1762330535,"current_range_meters":0,"station_id":"","pricing_plan_id":"cebpf4jnsgd1na2vs0mg"},{"bike_id":"2177a091-7ad7-4fcd-ad08-e78406d1a8ef","system_id":"levelo_inurba_marseille","lat":43.337444,"lon":5.374475,"is_reserved":false,"is_disabled":false,"rental_uris":{"android":"levelo://app?vid=2177a091-7ad7-4fcd-ad08-e78406d1a8ef","ios":"levelo://app?vid=2177a091-7ad7-4fcd-ad08-e78406d1a8ef"},"vehicle_type_id":"4","last_reported":1762330535,"current_range_meters":0,"station_id":"","pricing_plan_id":"cebpf4jnsgd1na2vs0mg"},{"bike_id":"ed2dc6ad-7a96-47d2-b4d0-3deee38fd62c","system_id":"levelo_inurba_marseille","lat":43.337444,"lon":5.374475,"is_reserved":false,"is_disabled":false,"rental_uris":{"android":"levelo://app?vid=ed2dc6ad-7a96-47d2-b4d0-3deee38fd62c","ios":"levelo://app?vid=ed2dc6ad-7a96-47d2-b4d0-3deee38fd62c"},"vehicle_type_id":"4","last_reported":1762330535,"current_range_meters":0,"station_id":"","pricing_plan_id":"cebpf4jnsgd1na2vs0mg"},{"bike_id":"42735ee1-244b-4d96-8480-f9806199924f","system_id":"levelo_inurba_marseille","lat":43.337444,"lon":5.374475,"is_reserved":false,"is_disabled":false,"rental_uris":{"android":"levelo://app?vid=42735ee1-244b-4d96-8480-f9806199924f","ios":"levelo://app?vid=42735ee1-244b-4d96-8480-f9806199924f"},"vehicle_type_id":"4","last_reported":1762330535,"current_range_meters":0,"station_id":"","pricing_plan_id":"cebpf4jnsgd1na2vs0mg"},{"bike_id":"0d7ab61a-02ec-456f-ab23-ba92f34594d5","system_id":"levelo_inurba_marseille","lat":43.337444,"lon":5.374475,"is_reserved":false,"is_disabled":false,"rental_uris":{"android":"levelo://app?vid=0d7ab61a-02ec-456f-ab23-ba92f34594d5","ios":"levelo://app?vid=0d7ab61a-02ec-456f-ab23-ba92f34594d5"},"vehicle_type_id":"4","last_reported":1762330535,"current_range_meters":0,"station_id":"","pricing_plan_id":"cebpf4jnsgd1na2vs0mg"},{"bike_id":"9a822f97-a72e-4da0-ad7e-ebf195f67924","system_id":"levelo_inurba_marseille","lat":43.337444,"lon":5.374475,"is_reserved":false,"is_disabled":false,"rental_uris":{"android":"levelo://app?vid=9a822f97-a72e-4da0-ad7e-ebf195f67924","ios":"levelo://app?vid=9a822f97-a72e-4da0-ad7e-ebf195f67924"},"vehicle_type_id":"4","last_reported":1762330535,"current_range_meters":0,"station_id":"","pricing_plan_id":"cebpf4jnsgd1na2vs0mg"},{"bike_id":"f68022fa-eb0a-4aac-8aea-6f2e14d0afb9","system_id":"levelo_inurba_marseille","lat":43.337444,"lon":5.374475,"is_reserved":false,"is_disabled":false,"rental_uris":{"android":"levelo://app?vid=f68022fa-eb0a-4aac-8aea-6f2e14d0afb9","ios":"levelo://app?vid=f68022fa-eb0a-4aac-8aea-6f2e14d0afb9"},"vehicle_type_id":"4","last_reported":1762330535,"current_range_meters":0,"station_id":"","pricing_plan_id":"cebpf4jnsgd1na2vs0mg"},{"bike_id":"386a9781-f1f4-4d33-8679-4d1163c3b9de","system_id":"levelo_inurba_marseille","lat":43.337444,"lon":5.374475,"is_reserved":false,"is_disabled":false,"rental_uris":{"android":"levelo://app?vid=386a9781-f1f4-4d33-8679-4d1163c3b9de","ios":"levelo://app?vid=386a9781-f1f4-4d33-8679-4d1163c3b9de"},"vehicle_type_id":"4","last_reported":1762330535,"current_range_meters":0,"station_id":"","pricing_plan_id":"cebpf4jnsgd1na2vs0mg"},{"bike_id":"4692d694-8a80-47c7-a7c6-1264ca94c6df","system_id":"levelo_inurba_marseille","lat":43.337444,"lon":5.374475,"is_reserved":false,"is_disabled":false,"rental_uris":{"android":"levelo://app?vid=4692d694-8a80-47c7-a7c6-1264ca94c6df","ios":"levelo://app?vid=4692d694-8a80-47c7-a7c6-1264ca94c6df"},"vehicle_type_id":"4","last_reported":1762330535,"current_range_meters":0,"station_id":"","pricing_plan_id":"cebpf4jnsgd1na2vs0mg"},{"bike_id":"4706d18d-408c-4dc1-a44f-b0f99f27bdf0","system_id":"levelo_inurba_marseille","lat":43.337444,"lon":5.374475,"is_reserved":false,"is_disabled":false,"rental_uris":{"android":"levelo://app?vid=4706d18d-408c-4dc1-a44f-b0f99f27bdf0","ios":"levelo://app?vid=4706d18d-408c-4dc1-a44f-b0f99f27bdf0"},"vehicle_type_id":"4","last_reported":1762330535,"current_range_meters":0,"station_id":"","pricing_plan_id":"cebpf4jnsgd1na2vs0mg"},{"bike_id":"abb77335-fe7b-4b75-9b2f-be4bb45cbb0d","system_id":"levelo_inurba_marseille","lat":43.337444,"lon":5.374475,"is_reserved":false,"is_disabled":false,"rental_uris":{"android":"levelo://app?vid=abb77335-fe7b-4b75-9b2f-be4bb45cbb0d","ios":"levelo://app?vid=abb77335-fe7b-4b75-9b2f-be4bb45cbb0d"},"vehicle_type_id":"4","last_reported":1762330535,"current_range_meters":0,"station_id":"","pricing_plan_id":"cebpf4jnsgd1na2vs0mg"},{"bike_id":"4bde9393-6919-41f3-8fef-f4b40f375cc0","system_id":"levelo_inurba_marseille","lat":43.337444,"lon":5.374475,"is_reserved":false,"is_disabled":false,"rental_uris":{"android":"levelo://app?vid=4bde9393-6919-41f3-8fef-f4b40f375cc0","ios":"levelo://app?vid=4bde9393-6919-41f3-8fef-f4b40f375cc0"},"vehicle_type_id":"4","last_reported":1762330535,"current_range_meters":0,"station_id":"","pricing_plan_id":"cebpf4jnsgd1na2vs0mg"},{"bike_id":"51f4e824-5009-4c5b-9283-cfda2d34404c","system_id":"levelo_inurba_marseille","lat":43.337444,"lon":5.374475,"is_reserved":false,"is_disabled":false,"rental_uris":{"android":"levelo://app?vid=51f4e824-5009-4c5b-9283-cfda2d34404c","ios":"levelo://app?vid=51f4e824-5009-4c5b-9283-cfda2d34404c"},"vehicle_type_id":"4","last_reported":1762330535,"current_range_meters":0,"station_id":"","pricing_plan_id":"cebpf4jnsgd1na2vs0mg"},{"bike_id":"d155d58c-f50a-4469-b126-b5af1b8d3f8a","system_id":"levelo_inurba_marseille","lat":43.337444,"lon":5.374475,"is_reserved":false,"is_disabled":false,"rental_uris":{"android":"levelo://app?vid=d155d58c-f50a-4469-b126-b5af1b8d3f8a","ios":"levelo://app?vid=d155d58c-f50a-4469-b126-b5af1b8d3f8a"},"vehicle_type_id":"4","last_reported":1762330535,"current_range_meters":0,"station_id":"","pricing_plan_id":"cebpf4jnsgd1na2vs0mg"},{"bike_id":"16f471c2-a8ed-4e61-ba2a-d83085a9c284","system_id":"levelo_inurba_marseille","lat":43.337444,"lon":5.374475,"is_reserved":false,"is_disabled":false,"rental_uris":{"android":"levelo://app?vid=16f471c2-a8ed-4e61-ba2a-d83085a9c284","ios":"levelo://app?vid=16f471c2-a8ed-4e61-ba2a-d83085a9c284"},"vehicle_type_id":"4","last_reported":1762330535,"current_range_meters":0,"station_id":"","pricing_plan_id":"cebpf4jnsgd1na2vs0mg"},{"bike_id":"b8bd4cc4-f519-43de-b194-2cc2cf75483c","system_id":"levelo_inurba_marseille","lat":43.337444,"lon":5.374475,"is_reserved":false,"is_disabled":false,"rental_uris":{"android":"levelo://app?vid=b8bd4cc4-f519-43de-b194-2cc2cf75483c","ios":"levelo://app?vid=b8bd4cc4-f519-43de-b194-2cc2cf75483c"},"vehicle_type_id":"4","last_reported":1762330535,"current_range_meters":0,"station_id":"","pricing_plan_id":"cebpf4jnsgd1na2vs0mg"},{"bike_id":"591b062c-0423-40a0-9120-f7c30f97e98f","system_id":"levelo_inurba_marseille","lat":43.337444,"lon":5.374475,"is_reserved":false,"is_disabled":false,"rental_uris":{"android":"levelo://app?vid=591b062c-0423-40a0-9120-f7c30f97e98f","ios":"levelo://app?vid=591b062c-0423-40a0-9120-f7c30f97e98f"},"vehicle_type_id":"4","last_reported":1762330535,"current_range_meters":0,"station_id":"","pricing_plan_id":"cebpf4jnsgd1na2vs0mg"},{"bike_id":"8fbb8d57-565e-4232-a867-846a316b3375","system_id":"levelo_inurba_marseille","lat":43.337444,"lon":5.374475,"is_reserved":false,"is_disabled":false,"rental_uris":{"android":"levelo://app?vid=8fbb8d57-565e-4232-a867-846a316b3375","ios":"levelo://app?vid=8fbb8d57-565e-4232-a867-846a316b3375"},"vehicle_type_id":"4","last_reported":1762330535,"current_range_meters":0,"station_id":"","pricing_plan_id":"cebpf4jnsgd1na2vs0mg"},{"bike_id":"e6134458-396f-46c5-87ab-a79cf2b6424c","system_id":"levelo_inurba_marseille","lat":43.337444,"lon":5.374475,"is_reserved":false,"is_disabled":false,"rental_uris":{"android":"levelo://app?vid=e6134458-396f-46c5-87ab-a79cf2b6424c","ios":"levelo://app?vid=e6134458-396f-46c5-87ab-a79cf2b6424c"},"vehicle_type_id":"4","last_reported":1762330535,"current_range_meters":0,"station_id":"","pricing_plan_id":"cebpf4jnsgd1na2vs0mg"},{"bike_id":"0a0d4295-fe5b-4614-b2ca-f5579d5190b0","system_id":"levelo_inurba_marseille","lat":43.337444,"lon":5.374475,"is_reserved":false,"is_disabled":false,"rental_uris":{"android":"levelo://app?vid=0a0d4295-fe5b-4614-b2ca-f5579d5190b0","ios":"levelo://app?vid=0a0d4295-fe5b-4614-b2ca-f5579d5190b0"},"vehicle_type_id":"4","last_reported":1762330535,"current_range_meters":0,"station_id":"","pricing_plan_id":"cebpf4jnsgd1na2vs0mg"},{"bike_id":"16fb0734-0a65-4bda-9f80-e5e25e37315a","system_id":"levelo_inurba_marseille","lat":43.27901,"lon":5.39601,"is_reserved":false,"is_disabled":false,"rental_uris":{"android":"levelo://app?vid=16fb0734-0a65-4bda-9f80-e5e25e37315a","ios":"levelo://app?vid=16fb0734-0a65-4bda-9f80-e5e25e37315a"},"vehicle_type_id":"4","last_reported":1762330535,"current_range_meters":2800,"station_id":"ce4bhf92rcd13ifvqf40","pricing_plan_id":"cebpf4jnsgd1na2vs0mg"},{"bike_id":"91dfed3f-615a-42b2-a64a-fe486533e0e1","system_id":"levelo_inurba_marseille","lat":43.310238,"lon":5.375322,"is_reserved":false,"is_disabled":false,"rental_uris":{"android":"levelo://app?vid=91dfed3f-615a-42b2-a64a-fe486533e0e1","ios":"levelo://app?vid=91dfed3f-615a-42b2-a64a-fe486533e0e1"},"vehicle_type_id":"4","last_reported":1762330535,"current_range_meters":3200,"station_id":"","pricing_plan_id":"cebpf4jnsgd1na2vs0mg"},{"bike_id":"e316d8c0-567f-4794-97db-615dfaa55771","system_id":"levelo_inurba_marseille","lat":43.2953,"lon":5.37498,"is_reserved":false,"is_disabled":true,"rental_uris":{"android":"levelo://app?vid=e316d8c0-567f-4794-97db-615dfaa55771","ios":"levelo://app?vid=e316d8c0-567f-4794-97db-615dfaa55771"},"vehicle_type_id":"4","last_reported":1762330535,"current_range_meters":3200,"station_id":"ce4bgkp2rcd13ifvqbmg","pricing_plan_id":"cebpf4jnsgd1na2vs0mg"},{"bike_id":"f1e1b43b-191d-4e10-9e13-b6cc14e7fbed","system_id":"levelo_inurba_marseille","lat":43.30472,"lon":5.37899,"is_reserved":false,"is_disabled":false,"rental_uris":{"android":"levelo://app?vid=f1e1b43b-191d-4e10-9e13-b6cc14e7fbed","ios":"levelo://app?vid=f1e1b43b-191d-4e10-9e13-b6cc14e7fbed"},"vehicle_type_id":"4","last_reported":1762330535,"current_range_meters":3200,"station_id":"ce4bgup2rcd13ifvqcn0","pricing_plan_id":"cebpf4jnsgd1na2vs0mg"},{"bike_id":"2ff8c7c3-0513-4398-ba9b-a1a5f610099f","system_id":"levelo_inurba_marseille","lat":43.289312,"lon":5.366383,"is_reserved":false,"is_disabled":false,"rental_uris":{"android":"levelo://app?vid=2ff8c7c3-0513-4398-ba9b-a1a5f610099f","ios":"levelo://app?vid=2ff8c7c3-0513-4398-ba9b-a1a5f610099f"},"vehicle_type_id":"4","last_reported":1762330535,"current_range_meters":3200,"station_id":"ce4bhap2rcd13ifvqek0","pricing_plan_id":"cebpf4jnsgd1na2vs0mg"},{"bike_id":"6612957f-18d3-44a4-9718-b12f6a4c23bb","system_id":"levelo_inurba_marseille","lat":43.28462,"lon":5.359,"is_reserved":false,"is_disabled":false,"rental_uris":{"android":"levelo://app?vid=6612957f-18d3-44a4-9718-b12f6a4c23bb","ios":"levelo://app?vid=6612957f-18d3-44a4-9718-b12f6a4c23bb"},"vehicle_type_id":"4","last_reported":1762330535,"current_range_meters":3600,"station_id":"ce4bhah2rcd13ifvqei0","pricing_plan_id":"cebpf4jnsgd1na2vs0mg"},{"bike_id":"f0b14cfe-60b3-4573-80a3-1d31373cc742","system_id":"levelo_inurba_marseille","lat":43.27212,"lon":5.391857,"is_reserved":false,"is_disabled":false,"rental_uris":{"android":"levelo://app?vid=f0b14cfe-60b3-4573-80a3-1d31373cc742","ios":"levelo://app?vid=f0b14cfe-60b3-4573-80a3-1d31373cc742"},"vehicle_type_id":"4","last_reported":1762330535,"current_range_meters":3600,"station_id":"ce4bhhp2rcd13ifvqfm0","pricing_plan_id":"cebpf4jnsgd1na2vs0mg"},{"bike_id":"ecfeee11-0e27-4192-b18c-6c37d25427d3","system_id":"levelo_inurba_marseille","lat":43.30142,"lon":5.37406,"is_reserved":false,"is_disabled":false,"rental_uris":{"android":"levelo://app?vid=ecfeee11-0e27-4192-b18c-6c37d25427d3","ios":"levelo://app?vid=ecfeee11-0e27-4192-b18c-6c37d25427d3"},"vehicle_type_id":"4","last_reported":1762330535,"current_range_meters":3600,"station_id":"ce4bgs92rcd13ifvqcc0","pricing_plan_id":"cebpf4jnsgd1na2vs0mg"},{"bike_id":"cc5f10d6-d758-4dc2-94aa-adaed59c18b3","system_id":"levelo_inurba_marseille","lat":43.29799,"lon":5.38049,"is_reserved":false,"is_disabled":false,"rental_uris":{"android":"levelo://app?vid=cc5f10d6-d758-4dc2-94aa-adaed59c18b3","ios":"levelo://app?vid=cc5f10d6-d758-4dc2-94aa-adaed59c18b3"},"vehicle_type_id":"4","last_reported":1762330535,"current_range_meters":4000,"station_id":"ce4bgip2rcd13ifvqbb0","pricing_plan_id":"cebpf4jnsgd1na2vs0mg"},{"bike_id":"67842f6f-98fe-4358-b85e-7f04e0f0b59c","system_id":"levelo_inurba_marseille","lat":43.313499,"lon":5.379119,"is_reserved":false,"is_disabled":false,"rental_uris":{"android":"levelo://app?vid=67842f6f-98fe-4358-b85e-7f04e0f0b59c","ios":"levelo://app?vid=67842f6f-98fe-4358-b85e-7f04e0f0b59c"},"vehicle_type_id":"4","last_reported":1762330535,"current_range_meters":4000,"station_id":"","pricing_plan_id":"cebpf4jnsgd1na2vs0mg"},{"bike_id":"600e09c8-85b6-47a7-b3f7-8b6d916bb604","system_id":"levelo_inurba_marseille","lat":43.29041,"lon":5.3996,"is_reserved":false,"is_disabled":false,"rental_uris":{"android":"levelo://app?vid=600e09c8-85b6-47a7-b3f7-8b6d916bb604","ios":"levelo://app?vid=600e09c8-85b6-47a7-b3f7-8b6d916bb604"},"vehicle_type_id":"4","last_reported":1762330535,"current_range_meters":4000,"station_id":"ce4bh392rcd13ifvqdm0","pricing_plan_id":"cebpf4jnsgd1na2vs0mg"},{"bike_id":"4206fd1c-fca5-4468-81b6-1c50d2a4a589","system_id":"levelo_inurba_marseille","lat":43.29811,"lon":5.43833,"is_reserved":false,"is_disabled":false,"rental_uris":{"android":"levelo://app?vid=4206fd1c-fca5-4468-81b6-1c50d2a4a589","ios":"levelo://app?vid=4206fd1c-fca5-4468-81b6-1c50d2a4a589"},"vehicle_type_id":"4","last_reported":1762330535,"current_range_meters":4400,"station_id":"","pricing_plan_id":"cebpf4jnsgd1na2vs0mg"},{"bike_id":"7f29ade5-9aec-46be-81ed-ebced17b9b83","system_id":"levelo_inurba_marseille","lat":43.30159,"lon":5.38078,"is_reserved":false,"is_disabled":false,"rental_uris":{"android":"levelo://app?vid=7f29ade5-9aec-46be-81ed-ebced17b9b83","ios":"levelo://app?vid=7f29ade5-9aec-46be-81ed-ebced17b9b83"},"vehicle_type_id":"4","last_reported":1762330535,"current_range_meters":4400,"station_id":"ce4bgjp2rcd13ifvqbh0","pricing_plan_id":"cebpf4jnsgd1na2vs0mg"},{"bike_id":"beb80fbc-eef9-4d6f-86ca-5451a7fe5a6b","system_id":"levelo_inurba_marseille","lat":43.2897,"lon":5.37832,"is_reserved":false,"is_disabled":false,"rental_uris":{"android":"levelo://app?vid=beb80fbc-eef9-4d6f-86ca-5451a7fe5a6b","ios":"levelo://app?vid=beb80fbc-eef9-4d6f-86ca-5451a7fe5a6b"},"vehicle_type_id":"4","last_reported":1762330535,"current_range_meters":4400,"station_id":"ce4bh9p2rcd13ifvqed0","pricing_plan_id":"cebpf4jnsgd1na2vs0mg"},{"bike_id":"dbaf0552-9bc0-4ff1-b187-b62838757d43","system_id":"levelo_inurba_marseille","lat":43.24081,"lon":5.37755,"is_reserved":false,"is_disabled":false,"rental_uris":{"android":"levelo://app?vid=dbaf0552-9bc0-4ff1-b187-b62838757d43","ios":"levelo://app?vid=dbaf0552-9bc0-4ff1-b187-b62838757d43"},"vehicle_type_id":"4","last_reported":1762330535,"current_range_meters":4400,"station_id":"ce4bhnp2rcd13ifvqgvg","pricing_plan_id":"cebpf4jnsgd1na2vs0mg"},{"bike_id":"eb18d2a1-f8b3-4279-b380-67bc412ea72d","system_id":"levelo_inurba_marseille","lat":43.27669,"lon":5.38871,"is_reserved":false,"is_disabled":false,"rental_uris":{"android":"levelo://app?vid=eb18d2a1-f8b3-4279-b380-67bc412ea72d","ios":"levelo://app?vid=eb18d2a1-f8b3-4279-b380-67bc412ea72d"},"vehicle_type_id":"4","last_reported":1762330535,"current_range_meters":4400,"station_id":"ce4bhi12rcd13ifvqfo0","pricing_plan_id":"cebpf4jnsgd1na2vs0mg"},{"bike_id":"f5b0d07c-4ca2-424f-8922-e8beb57ab2c9","system_id":"levelo_inurba_marseille","lat":43.29228,"lon":5.36061,"is_reserved":false,"is_disabled":false,"rental_uris":{"android":"levelo://app?vid=f5b0d07c-4ca2-424f-8922-e8beb57ab2c9","ios":"levelo://app?vid=f5b0d07c-4ca2-424f-8922-e8beb57ab2c9"},"vehicle_type_id":"4","last_reported":1762330535,"current_range_meters":4400,"station_id":"ce4bhbh2rcd13ifvqeqg","pricing_plan_id":"cebpf4jnsgd1na2vs0mg"},{"bike_id":"7ad1bdd8-2aea-44e7-aeb9-45eba750bc81","system_id":"levelo_inurba_marseille","lat":43.292665,"lon":5.38446,"is_reserved":false,"is_disabled":false,"rental_uris":{"android":"levelo://app?vid=7ad1bdd8-2aea-44e7-aeb9-45eba750bc81","ios":"levelo://app?vid=7ad1bdd8-2aea-44e7-aeb9-45eba750bc81"},"vehicle_type_id":"4","last_reported":1762330535,"current_range_meters":4400,"station_id":"ce4bh692rcd13ifvqea0","pricing_plan_id":"cebpf4jnsgd1na2vs0mg"},{"bike_id":"3fff9ed6-b883-45c3-b97c-e1c1e8fd4ca2","system_id":"levelo_inurba_marseille","lat":43.28535,"lon":5.44087,"is_reserved":false,"is_disabled":false,"rental_uris":{"android":"levelo://app?vid=3fff9ed6-b883-45c3-b97c-e1c1e8fd4ca2","ios":"levelo://app?vid=3fff9ed6-b883-45c3-b97c-e1c1e8fd4ca2"},"vehicle_type_id":"4","last_reported":1762330535,"current_range_meters":4800,"station_id":"st_d3j3df2ikq2c7380ej80","pricing_plan_id":"cebpf4jnsgd1na2vs0mg"},{"bike_id":"c60e8407-a46b-467e-8651-b73ec98e0bca","system_id":"levelo_inurba_marseille","lat":43.30546,"lon":5.36554,"is_reserved":false,"is_disabled":false,"rental_uris":{"android":"levelo://app?vid=c60e8407-a46b-467e-8651-b73ec98e0bca","ios":"levelo://app?vid=c60e8407-a46b-467e-8651-b73ec98e0bca"},"vehicle_type_id":"4","last_reported":1762330535,"current_range_meters":4800,"station_id":"ce4bgs12rcd13ifvqcag","pricing_plan_id":"cebpf4jnsgd1na2vs0mg"},{"bike_id":"e790ba64-68df-430d-9d44-78fcb17153b9","system_id":"levelo_inurba_marseille","lat":43.2257,"lon":5.4162,"is_reserved":false,"is_disabled":false,"rental_uris":{"android":"levelo://app?vid=e790ba64-68df-430d-9d44-78fcb17153b9","ios":"levelo://app?vid=e790ba64-68df-430d-9d44-78fcb17153b9"},"vehicle_type_id":"4","last_reported":1762330535,"current_range_meters":4800,"station_id":"st_d2o4gvlbi1j2169b742g","pricing_plan_id":"cebpf4jnsgd1na2vs0mg"},{"bike_id":"6b584dfc-9ae5-43a1-9b6e-c68f93817c95","system_id":"levelo_inurba_marseille","lat":43.27938,"lon":5.41044,"is_reserved":false,"is_disabled":false,"rental_uris":{"android":"levelo://app?vid=6b584dfc-9ae5-43a1-9b6e-c68f93817c95","ios":"levelo://app?vid=6b584dfc-9ae5-43a1-9b6e-c68f93817c95"},"vehicle_type_id":"4","last_reported":1762330535,"current_range_meters":5600,"station_id":"ce4bhnp2rcd13ifvqh0g","pricing_plan_id":"cebpf4jnsgd1na2vs0mg"},{"bike_id":"1a0bc260-bbd3-4903-a2ea-d84dfd6323ef","system_id":"levelo_inurba_marseille","lat":43.29621,"lon":5.37152,"is_reserved":false,"is_disabled":false,"rental_uris":{"android":"levelo://app?vid=1a0bc260-bbd3-4903-a2ea-d84dfd6323ef","ios":"levelo://app?vid=1a0bc260-bbd3-4903-a2ea-d84dfd6323ef"},"vehicle_type_id":"4","last_reported":1762330535,"current_range_meters":5600,"station_id":"ce4bgnh2rcd13ifvqc0g","pricing_plan_id":"cebpf4jnsgd1na2vs0mg"},{"bike_id":"b7274164-d104-4569-8e8d-d56b2a397565","system_id":"levelo_inurba_marseille","lat":43.284859,"lon":5.483877,"is_reserved":false,"is_disabled":false,"rental_uris":{"android":"levelo://app?vid=b7274164-d104-4569-8e8d-d56b2a397565","ios":"levelo://app?vid=b7274164-d104-4569-8e8d-d56b2a397565"},"vehicle_type_id":"4","last_reported":1762330535,"current_range_meters":5600,"station_id":"st_d3svhcjqgbts73a3dn0g","pricing_plan_id":"cebpf4jnsgd1na2vs0mg"},{"bike_id":"c675496f-5095-4b26-bc0d-b55c94865fac","system_id":"levelo_inurba_marseille","lat":43.22559,"lon":5.41625,"is_reserved":false,"is_disabled":false,"rental_uris":{"android":"levelo://app?vid=c675496f-5095-4b26-bc0d-b55c94865fac","ios":"levelo://app?vid=c675496f-5095-4b26-bc0d-b55c94865fac"},"vehicle_type_id":"4","last_reported":1762330535,"current_range_meters":5600,"station_id":"st_d2o4gvlbi1j2169b742g","pricing_plan_id":"cebpf4jnsgd1na2vs0mg"},{"bike_id":"f9ed55fe-5c18-4aac-95b2-748b671abdc6","system_id":"levelo_inurba_marseille","lat":43.25942,"lon":5.40899,"is_reserved":false,"is_disabled":true,"rental_uris":{"android":"levelo://app?vid=f9ed55fe-5c18-4aac-95b2-748b671abdc6","ios":"levelo://app?vid=f9ed55fe-5c18-4aac-95b2-748b671abdc6"},"vehicle_type_id":"4","last_reported":1762330535,"current_range_meters":5600,"station_id":"ce4bhm92rcd13ifvqglg","pricing_plan_id":"cebpf4jnsgd1na2vs0mg"},{"bike_id":"8ee55554-1986-472b-af1d-8f480f3c6d04","system_id":"levelo_inurba_marseille","lat":43.25931,"lon":5.40909,"is_reserved":false,"is_disabled":true,"rental_uris":{"android":"levelo://app?vid=8ee55554-1986-472b-af1d-8f480f3c6d04","ios":"levelo://app?vid=8ee55554-1986-472b-af1d-8f480f3c6d04"},"vehicle_type_id":"4","last_reported":1762330535,"current_range_meters":6000,"station_id":"ce4bhm92rcd13ifvqglg","pricing_plan_id":"cebpf4jnsgd1na2vs0mg"},{"bike_id":"eacd690c-765d-48ea-b055-50457d293f61","system_id":"levelo_inurba_marseille","lat":43.30205,"lon":5.39463,"is_reserved":false,"is_disabled":false,"rental_uris":{"android":"levelo://app?vid=eacd690c-765d-48ea-b055-50457d293f61","ios":"levelo://app?vid=eacd690c-765d-48ea-b055-50457d293f61"},"vehicle_type_id":"4","last_reported":1762330535,"current_range_meters":6000,"station_id":"ce4bh0p2rcd13ifvqd70","pricing_plan_id":"cebpf4jnsgd1na2vs0mg"},{"bike_id":"2463ae75-92d1-4c1f-a1c6-a55d98ec3bb0","system_id":"levelo_inurba_marseille","lat":43.23152,"lon":5.43716,"is_reserved":false,"is_disabled":false,"rental_uris":{"android":"levelo://app?vid=2463ae75-92d1-4c1f-a1c6-a55d98ec3bb0","ios":"levelo://app?vid=2463ae75-92d1-4c1f-a1c6-a55d98ec3bb0"},"vehicle_type_id":"4","last_reported":1762330535,"current_range_meters":6000,"station_id":"ce4bhmp2rcd13ifvqgog","pricing_plan_id":"cebpf4jnsgd1na2vs0mg"},{"bike_id":"421e2334-9867-4fec-a365-eec771e9b746","system_id":"levelo_inurba_marseille","lat":43.240687,"lon":5.377618,"is_reserved":false,"is_disabled":false,"rental_uris":{"android":"levelo://app?vid=421e2334-9867-4fec-a365-eec771e9b746","ios":"levelo://app?vid=421e2334-9867-4fec-a365-eec771e9b746"},"vehicle_type_id":"4","last_reported":1762330535,"current_range_meters":6000,"station_id":"ce4bhnp2rcd13ifvqgvg","pricing_plan_id":"cebpf4jnsgd1na2vs0mg"},{"bike_id":"28b85111-1e3c-4e94-9d4a-5a837507bfee","system_id":"levelo_inurba_marseille","lat":43.29717,"lon":5.42649,"is_reserved":false,"is_disabled":false,"rental_uris":{"android":"levelo://app?vid=28b85111-1e3c-4e94-9d4a-5a837507bfee","ios":"levelo://app?vid=28b85111-1e3c-4e94-9d4a-5a837507bfee"},"vehicle_type_id":"4","last_reported":1762330535,"current_range_meters":6400,"station_id":"","pricing_plan_id":"cebpf4jnsgd1na2vs0mg"},{"bike_id":"ad3085a4-8628-436d-b4d3-76e53772e7a9","system_id":"levelo_inurba_marseille","lat":43.28339,"lon":5.39827,"is_reserved":false,"is_disabled":false,"rental_uris":{"android":"levelo://app?vid=ad3085a4-8628-436d-b4d3-76e53772e7a9","ios":"levelo://app?vid=ad3085a4-8628-436d-b4d3-76e53772e7a9"},"vehicle_type_id":"4","last_reported":1762330535,"current_range_meters":6400,"station_id":"","pricing_plan_id":"cebpf4jnsgd1na2vs0mg"},{"bike_id":"d58c04bf-db81-4e35-92df-8023899cca70","system_id":"levelo_inurba_marseille","lat":43.29044,"lon":5.38118,"is_reserved":false,"is_disabled":false,"rental_uris":{"android":"levelo://app?vid=d58c04bf-db81-4e35-92df-8023899cca70","ios":"levelo://app?vid=d58c04bf-db81-4e35-92df-8023899cca70"},"vehicle_type_id":"4","last_reported":1762330535,"current_range_meters":6400,"station_id":"ce4bh4p2rcd13ifvqe1g","pricing_plan_id":"cebpf4jnsgd1na2vs0mg"},{"bike_id":"aa245444-6a34-4efe-9949-e29bca990e53","system_id":"levelo_inurba_marseille","lat":43.21747,"lon":5.34614,"is_reserved":false,"is_disabled":false,"rental_uris":{"android":"levelo://app?vid=aa245444-6a34-4efe-9949-e29bca990e53","ios":"levelo://app?vid=aa245444-6a34-4efe-9949-e29bca990e53"},"vehicle_type_id":"4","last_reported":1762330535,"current_range_meters":6800,"station_id":"st_cvj6r9ubvosntc0bgbag","pricing_plan_id":"cebpf4jnsgd1na2vs0mg"},{"bike_id":"214cbcb4-ad17-4b63-962d-308fedd81613","system_id":"levelo_inurba_marseille","lat":43.309479,"lon":5.390207,"is_reserved":false,"is_disabled":false,"rental_uris":{"android":"levelo://app?vid=214cbcb4-ad17-4b63-962d-308fedd81613","ios":"levelo://app?vid=214cbcb4-ad17-4b63-962d-308fedd81613"},"vehicle_type_id":"4","last_reported":1762330535,"current_range_meters":6800,"station_id":"ce4bgup2rcd13ifvqco0","pricing_plan_id":"cebpf4jnsgd1na2vs0mg"},{"bike_id":"610496fb-dd48-4b87-b9d3-9e79312f0b9c","system_id":"levelo_inurba_marseille","lat":43.33589,"lon":5.40988,"is_reserved":false,"is_disabled":false,"rental_uris":{"android":"levelo://app?vid=610496fb-dd48-4b87-b9d3-9e79312f0b9c","ios":"levelo://app?vid=610496fb-dd48-4b87-b9d3-9e79312f0b9c"},"vehicle_type_id":"4","last_reported":1762330535,"current_range_meters":6800,"station_id":"ce4bhqh2rcd13ifvqhmg","pricing_plan_id":"cebpf4jnsgd1na2vs0mg"},{"bike_id":"b2edbec7-9959-4a3c-90f0-6e77723c6b7d","system_id":"levelo_inurba_marseille","lat":43.31733,"lon":5.42403,"is_reserved":false,"is_disabled":false,"rental_uris":{"android":"levelo://app?vid=b2edbec7-9959-4a3c-90f0-6e77723c6b7d","ios":"levelo://app?vid=b2edbec7-9959-4a3c-90f0-6e77723c6b7d"},"vehicle_type_id":"4","last_reported":1762330535,"current_range_meters":6800,"station_id":"ce4bhp92rcd13ifvqhbg","pricing_plan_id":"cebpf4jnsgd1na2vs0mg"},{"bike_id":"37237c9a-9a84-494f-90d6-19a0db836ee2","system_id":"levelo_inurba_marseille","lat":43.304582,"lon":5.379147,"is_reserved":false,"is_disabled":false,"rental_uris":{"android":"levelo://app?vid=37237c9a-9a84-494f-90d6-19a0db836ee2","ios":"levelo://app?vid=37237c9a-9a84-494f-90d6-19a0db836ee2"},"vehicle_type_id":"4","last_reported":1762330535,"current_range_meters":6800,"station_id":"ce4bgup2rcd13ifvqcn0","pricing_plan_id":"cebpf4jnsgd1na2vs0mg"},{"bike_id":"954b26d2-6e00-4e5a-973c-87979b824a23","system_id":"levelo_inurba_marseille","lat":43.297081,"lon":5.37693,"is_reserved":false,"is_disabled":false,"rental_uris":{"android":"levelo://app?vid=954b26d2-6e00-4e5a-973c-87979b824a23","ios":"levelo://app?vid=954b26d2-6e00-4e5a-973c-87979b824a23"},"vehicle_type_id":"4","last_reported":1762330535,"current_range_meters":7200,"station_id":"ce4bgkh2rcd13ifvqbl0","pricing_plan_id":"cebpf4jnsgd1na2vs0mg"},{"bike_id":"c745baa2-7f9c-4c5c-813e-da0e4745b082","system_id":"levelo_inurba_marseille","lat":43.32538,"lon":5.41428,"is_reserved":false,"is_disabled":false,"rental_uris":{"android":"levelo://app?vid=c745baa2-7f9c-4c5c-813e-da0e4745b082","ios":"levelo://app?vid=c745baa2-7f9c-4c5c-813e-da0e4745b082"},"vehicle_type_id":"4","last_reported":1762330535,"current_range_meters":7200,"station_id":"ce4bhq12rcd13ifvqhhg","pricing_plan_id":"cebpf4jnsgd1na2vs0mg"},{"bike_id":"3800314d-6410-4feb-bd76-28cb0729c673","system_id":"levelo_inurba_marseille","lat":43.30337,"lon":5.40078,"is_reserved":false,"is_disabled":false,"rental_uris":{"android":"levelo://app?vid=3800314d-6410-4feb-bd76-28cb0729c673","ios":"levelo://app?vid=3800314d-6410-4feb-bd76-28cb0729c673"},"vehicle_type_id":"4","last_reported":1762330535,"current_range_meters":7200,"station_id":"","pricing_plan_id":"cebpf4jnsgd1na2vs0mg"},{"bike_id":"86c0f716-adc6-4d92-acb1-f61051c05c50","system_id":"levelo_inurba_marseille","lat":43.231895,"lon":5.399926,"is_reserved":false,"is_disabled":false,"rental_uris":{"android":"levelo://app?vid=86c0f716-adc6-4d92-acb1-f61051c05c50","ios":"levelo://app?vid=86c0f716-adc6-4d92-acb1-f61051c05c50"},"vehicle_type_id":"4","last_reported":1762330535,"current_range_meters":7200,"station_id":"ce4bhn12rcd13ifvqgqg","pricing_plan_id":"cebpf4jnsgd1na2vs0mg"},{"bike_id":"92b6888e-1c12-48a0-9d6c-3c1c914ab8af","system_id":"levelo_inurba_marseille","lat":43.24075,"lon":5.37759,"is_reserved":false,"is_disabled":false,"rental_uris":{"android":"levelo://app?vid=92b6888e-1c12-48a0-9d6c-3c1c914ab8af","ios":"levelo://app?vid=92b6888e-1c12-48a0-9d6c-3c1c914ab8af"},"vehicle_type_id":"4","last_reported":1762330535,"current_range_meters":7200,"station_id":"ce4bhnp2rcd13ifvqgvg","pricing_plan_id":"cebpf4jnsgd1na2vs0mg"},{"bike_id":"7114bad6-8482-4ab0-a9c4-9f9284c696cc","system_id":"levelo_inurba_marseille","lat":43.27936,"lon":5.38696,"is_reserved":false,"is_disabled":false,"rental_uris":{"android":"levelo://app?vid=7114bad6-8482-4ab0-a9c4-9f9284c696cc","ios":"levelo://app?vid=7114bad6-8482-4ab0-a9c4-9f9284c696cc"},"vehicle_type_id":"4","last_reported":1762330535,"current_range_meters":7200,"station_id":"","pricing_plan_id":"cebpf4jnsgd1na2vs0mg"},{"bike_id":"f558d479-ce57-4cf0-a0fa-5a549c753dc8","system_id":"levelo_inurba_marseille","lat":43.230648,"lon":5.354933,"is_reserved":false,"is_disabled":false,"rental_uris":{"android":"levelo://app?vid=f558d479-ce57-4cf0-a0fa-5a549c753dc8","ios":"levelo://app?vid=f558d479-ce57-4cf0-a0fa-5a549c753dc8"},"vehicle_type_id":"4","last_reported":1762330535,"current_range_meters":8000,"station_id":"cpo3342slgdg3j2ifvpg","pricing_plan_id":"cebpf4jnsgd1na2vs0mg"},{"bike_id":"4e786d68-3ff2-4bab-82bf-93559ecf1f9d","system_id":"levelo_inurba_marseille","lat":43.27995,"lon":5.40004,"is_reserved":false,"is_disabled":false,"rental_uris":{"android":"levelo://app?vid=4e786d68-3ff2-4bab-82bf-93559ecf1f9d","ios":"levelo://app?vid=4e786d68-3ff2-4bab-82bf-93559ecf1f9d"},"vehicle_type_id":"4","last_reported":1762330535,"current_range_meters":8000,"station_id":"ce4bho92rcd13ifvqh4g","pricing_plan_id":"cebpf4jnsgd1na2vs0mg"},{"bike_id":"815cba29-2a27-45a8-8e19-212c64e14bb2","system_id":"levelo_inurba_marseille","lat":43.27313,"lon":5.39064,"is_reserved":false,"is_disabled":false,"rental_uris":{"android":"levelo://app?vid=815cba29-2a27-45a8-8e19-212c64e14bb2","ios":"levelo://app?vid=815cba29-2a27-45a8-8e19-212c64e14bb2"},"vehicle_type_id":"4","last_reported":1762330535,"current_range_meters":8000,"station_id":"ce4bhgp2rcd13ifvqfe0","pricing_plan_id":"cebpf4jnsgd1na2vs0mg"},{"bike_id":"0e3aee91-b2d2-407f-a8df-b69fa0cb561b","system_id":"levelo_inurba_marseille","lat":43.31347,"lon":5.36717,"is_reserved":false,"is_disabled":false,"rental_uris":{"android":"levelo://app?vid=0e3aee91-b2d2-407f-a8df-b69fa0cb561b","ios":"levelo://app?vid=0e3aee91-b2d2-407f-a8df-b69fa0cb561b"},"vehicle_type_id":"4","last_reported":1762330535,"current_range_meters":8400,"station_id":"ce4bgr92rcd13ifvqc6g","pricing_plan_id":"cebpf4jnsgd1na2vs0mg"},{"bike_id":"a48d331b-4354-4057-87ba-dc627a7fae39","system_id":"levelo_inurba_marseille","lat":43.246343,"lon":5.431506,"is_reserved":false,"is_disabled":false,"rental_uris":{"android":"levelo://app?vid=a48d331b-4354-4057-87ba-dc627a7fae39","ios":"levelo://app?vid=a48d331b-4354-4057-87ba-dc627a7fae39"},"vehicle_type_id":"4","last_reported":1762330535,"current_range_meters":8400,"station_id":"st_d2m6c4gdas8pm72e190g","pricing_plan_id":"cebpf4jnsgd1na2vs0mg"},{"bike_id":"ca027186-72c6-4358-8d7a-70b219e6273a","system_id":"levelo_inurba_marseille","lat":43.35162,"lon":5.3847,"is_reserved":false,"is_disabled":false,"rental_uris":{"android":"levelo://app?vid=ca027186-72c6-4358-8d7a-70b219e6273a","ios":"levelo://app?vid=ca027186-72c6-4358-8d7a-70b219e6273a"},"vehicle_type_id":"4","last_reported":1762330535,"current_range_meters":8400,"station_id":"","pricing_plan_id":"cebpf4jnsgd1na2vs0mg"},{"bike_id":"111f2c8e-49ec-4d8f-93f5-9bbe65b2fdcc","system_id":"levelo_inurba_marseille","lat":43.23183,"lon":5.35554,"is_reserved":false,"is_disabled":true,"rental_uris":{"android":"levelo://app?vid=111f2c8e-49ec-4d8f-93f5-9bbe65b2fdcc","ios":"levelo://app?vid=111f2c8e-49ec-4d8f-93f5-9bbe65b2fdcc"},"vehicle_type_id":"4","last_reported":1762330535,"current_range_meters":8400,"station_id":"ce4bhu92rcd13ifvqi70","pricing_plan_id":"cebpf4jnsgd1na2vs0mg"},{"bike_id":"00c1f6e9-ea3f-463a-8377-e0454dcc37fc","system_id":"levelo_inurba_marseille","lat":43.29612,"lon":5.38091,"is_reserved":false,"is_disabled":false,"rental_uris":{"android":"levelo://app?vid=00c1f6e9-ea3f-463a-8377-e0454dcc37fc","ios":"levelo://app?vid=00c1f6e9-ea3f-463a-8377-e0454dcc37fc"},"vehicle_type_id":"4","last_reported":1762330535,"current_range_meters":8400,"station_id":"ce4bgl12rcd13ifvqbo0","pricing_plan_id":"cebpf4jnsgd1na2vs0mg"},{"bike_id":"aacf42e0-2f18-4200-a64b-11d1f88c92f0","system_id":"levelo_inurba_marseille","lat":43.292671,"lon":5.37626,"is_reserved":false,"is_disabled":true,"rental_uris":{"android":"levelo://app?vid=aacf42e0-2f18-4200-a64b-11d1f88c92f0","ios":"levelo://app?vid=aacf42e0-2f18-4200-a64b-11d1f88c92f0"},"vehicle_type_id":"4","last_reported":1762330535,"current_range_meters":8800,"station_id":"ce4bgi12rcd13ifvqb80","pricing_plan_id":"cebpf4jnsgd1na2vs0mg"},{"bike_id":"ce6203a6-98c0-4d2e-9f3f-db9b8917d782","system_id":"levelo_inurba_marseille","lat":43.30141,"lon":5.37396,"is_reserved":false,"is_disabled":false,"rental_uris":{"android":"levelo://app?vid=ce6203a6-98c0-4d2e-9f3f-db9b8917d782","ios":"levelo://app?vid=ce6203a6-98c0-4d2e-9f3f-db9b8917d782"},"vehicle_type_id":"4","last_reported":1762330535,"current_range_meters":8800,"station_id":"ce4bgs92rcd13ifvqcc0","pricing_plan_id":"cebpf4jnsgd1na2vs0mg"},{"bike_id":"7fb70f59-1a9f-40fe-9ecf-ab6c1979b780","system_id":"levelo_inurba_marseille","lat":43.29041,"lon":5.39961,"is_reserved":false,"is_disabled":true,"rental_uris":{"android":"levelo://app?vid=7fb70f59-1a9f-40fe-9ecf-ab6c1979b780","ios":"levelo://app?vid=7fb70f59-1a9f-40fe-9ecf-ab6c1979b780"},"vehicle_type_id":"4","last_reported":1762330535,"current_range_meters":8800,"station_id":"ce4bh392rcd13ifvqdm0","pricing_plan_id":"cebpf4jnsgd1na2vs0mg"},{"bike_id":"1155ac34-1aa3-4d54-a4b6-f1c4c83aef8b","system_id":"levelo_inurba_marseille","lat":43.30534,"lon":5.3671,"is_reserved":false,"is_disabled":false,"rental_uris":{"android":"levelo://app?vid=1155ac34-1aa3-4d54-a4b6-f1c4c83aef8b","ios":"levelo://app?vid=1155ac34-1aa3-4d54-a4b6-f1c4c83aef8b"},"vehicle_type_id":"4","last_reported":1762330535,"current_range_meters":8800,"station_id":"ce4bgrp2rcd13ifvqc9g","pricing_plan_id":"cebpf4jnsgd1na2vs0mg"},{"bike_id":"3370eb98-f89e-4b22-8689-7f186f274bd3","system_id":"levelo_inurba_marseille","lat":43.24085,"lon":5.37759,"is_reserved":false,"is_disabled":false,"rental_uris":{"android":"levelo://app?vid=3370eb98-f89e-4b22-8689-7f186f274bd3","ios":"levelo://app?vid=3370eb98-f89e-4b22-8689-7f186f274bd3"},"vehicle_type_id":"4","last_reported":1762330535,"current_range_meters":8800,"station_id":"ce4bhnp2rcd13ifvqgvg","pricing_plan_id":"cebpf4jnsgd1na2vs0mg"},{"bike_id":"dcf2d859-2bac-4942-a2af-403cf29bb62c","system_id":"levelo_inurba_marseille","lat":43.3134,"lon":5.36725,"is_reserved":false,"is_disabled":false,"rental_uris":{"android":"levelo://app?vid=dcf2d859-2bac-4942-a2af-403cf29bb62c","ios":"levelo://app?vid=dcf2d859-2bac-4942-a2af-403cf29bb62c"},"vehicle_type_id":"4","last_reported":1762330535,"current_range_meters":8800,"station_id":"ce4bgr92rcd13ifvqc6g","pricing_plan_id":"cebpf4jnsgd1na2vs0mg"},{"bike_id":"8625fd71-52f7-4d25-987b-6e76164035a5","system_id":"levelo_inurba_marseille","lat":43.30785,"lon":5.40529,"is_reserved":false,"is_disabled":false,"rental_uris":{"android":"levelo://app?vid=8625fd71-52f7-4d25-987b-6e76164035a5","ios":"levelo://app?vid=8625fd71-52f7-4d25-987b-6e76164035a5"},"vehicle_type_id":"4","last_reported":1762330535,"current_range_meters":8800,"station_id":"","pricing_plan_id":"cebpf4jnsgd1na2vs0mg"},{"bike_id":"c1beedde-8653-41fa-8e30-eaf9966b7e3e","system_id":"levelo_inurba_marseille","lat":43.296814,"lon":5.372913,"is_reserved":false,"is_disabled":false,"rental_uris":{"android":"levelo://app?vid=c1beedde-8653-41fa-8e30-eaf9966b7e3e","ios":"levelo://app?vid=c1beedde-8653-41fa-8e30-eaf9966b7e3e"},"vehicle_type_id":"4","last_reported":1762330535,"current_range_meters":8800,"station_id":"ce4bgk12rcd13ifvqbj0","pricing_plan_id":"cebpf4jnsgd1na2vs0mg"},{"bike_id":"ee9ad92e-c7f2-4353-84cf-27e977e19315","system_id":"levelo_inurba_marseille","lat":43.22569,"lon":5.41623,"is_reserved":false,"is_disabled":false,"rental_uris":{"android":"levelo://app?vid=ee9ad92e-c7f2-4353-84cf-27e977e19315","ios":"levelo://app?vid=ee9ad92e-c7f2-4353-84cf-27e977e19315"},"vehicle_type_id":"4","last_reported":1762330535,"current_range_meters":8800,"station_id":"st_d2o4gvlbi1j2169b742g","pricing_plan_id":"cebpf4jnsgd1na2vs0mg"},{"bike_id":"68d146d0-a1e1-4df2-bed0-1d4c93812841","system_id":"levelo_inurba_marseille","lat":43.29846,"lon":5.40855,"is_reserved":false,"is_disabled":false,"rental_uris":{"android":"levelo://app?vid=68d146d0-a1e1-4df2-bed0-1d4c93812841","ios":"levelo://app?vid=68d146d0-a1e1-4df2-bed0-1d4c93812841"},"vehicle_type_id":"4","last_reported":1762330535,"current_range_meters":9200,"station_id":"","pricing_plan_id":"cebpf4jnsgd1na2vs0mg"},{"bike_id":"449c9fa2-15d4-42cd-af8b-a11a24d43106","system_id":"levelo_inurba_marseille","lat":43.29794,"lon":5.38101,"is_reserved":false,"is_disabled":false,"rental_uris":{"android":"levelo://app?vid=449c9fa2-15d4-42cd-af8b-a11a24d43106","ios":"levelo://app?vid=449c9fa2-15d4-42cd-af8b-a11a24d43106"},"vehicle_type_id":"4","last_reported":1762330535,"current_range_meters":9200,"station_id":"ce4bgip2rcd13ifvqbb0","pricing_plan_id":"cebpf4jnsgd1na2vs0mg"},{"bike_id":"7b12dbf9-45fb-4d49-905b-39e62167f2d6","system_id":"levelo_inurba_marseille","lat":43.302076,"lon":5.394618,"is_reserved":false,"is_disabled":true,"rental_uris":{"android":"levelo://app?vid=7b12dbf9-45fb-4d49-905b-39e62167f2d6","ios":"levelo://app?vid=7b12dbf9-45fb-4d49-905b-39e62167f2d6"},"vehicle_type_id":"4","last_reported":1762330535,"current_range_meters":9200,"station_id":"","pricing_plan_id":"cebpf4jnsgd1na2vs0mg"},{"bike_id":"58b9e0a5-957a-43c8-b168-272d9a536430","system_id":"levelo_inurba_marseille","lat":43.29452,"lon":5.37408,"is_reserved":false,"is_disabled":false,"rental_uris":{"android":"levelo://app?vid=58b9e0a5-957a-43c8-b168-272d9a536430","ios":"levelo://app?vid=58b9e0a5-957a-43c8-b168-272d9a536430"},"vehicle_type_id":"4","last_reported":1762330535,"current_range_meters":9200,"station_id":"ce4bgnh2rcd13ifvqc0g","pricing_plan_id":"cebpf4jnsgd1na2vs0mg"},{"bike_id":"eed78698-4705-4f36-b1cc-c3cc31682f5d","system_id":"levelo_inurba_marseille","lat":43.3341,"lon":5.41952,"is_reserved":false,"is_disabled":false,"rental_uris":{"android":"levelo://app?vid=eed78698-4705-4f36-b1cc-c3cc31682f5d","ios":"levelo://app?vid=eed78698-4705-4f36-b1cc-c3cc31682f5d"},"vehicle_type_id":"4","last_reported":1762330535,"current_range_meters":9200,"station_id":"","pricing_plan_id":"cebpf4jnsgd1na2vs0mg"},{"bike_id":"7228b17a-cbbb-425b-8c1a-ca5276c1a7b6","system_id":"levelo_inurba_marseille","lat":43.34143,"lon":5.40898,"is_reserved":false,"is_disabled":false,"rental_uris":{"android":"levelo://app?vid=7228b17a-cbbb-425b-8c1a-ca5276c1a7b6","ios":"levelo://app?vid=7228b17a-cbbb-425b-8c1a-ca5276c1a7b6"},"vehicle_type_id":"4","last_reported":1762330535,"current_range_meters":9200,"station_id":"ce4bhqh2rcd13ifvqhlg","pricing_plan_id":"cebpf4jnsgd1na2vs0mg"},{"bike_id":"2f1e40ac-a206-4716-ae78-665d98a9dec1","system_id":"levelo_inurba_marseille","lat":43.30692,"lon":5.39275,"is_reserved":false,"is_disabled":false,"rental_uris":{"android":"levelo://app?vid=2f1e40ac-a206-4716-ae78-665d98a9dec1","ios":"levelo://app?vid=2f1e40ac-a206-4716-ae78-665d98a9dec1"},"vehicle_type_id":"4","last_reported":1762330535,"current_range_meters":9200,"station_id":"","pricing_plan_id":"cebpf4jnsgd1na2vs0mg"},{"bike_id":"15900d44-0dc9-4273-ab27-5c9ef40511e7","system_id":"levelo_inurba_marseille","lat":43.31339,"lon":5.36726,"is_reserved":false,"is_disabled":false,"rental_uris":{"android":"levelo://app?vid=15900d44-0dc9-4273-ab27-5c9ef40511e7","ios":"levelo://app?vid=15900d44-0dc9-4273-ab27-5c9ef40511e7"},"vehicle_type_id":"4","last_reported":1762330535,"current_range_meters":9200,"station_id":"ce4bgr92rcd13ifvqc6g","pricing_plan_id":"cebpf4jnsgd1na2vs0mg"},{"bike_id":"cd9c6c8f-813a-4b2c-b0c7-7a3265cb2fa0","system_id":"levelo_inurba_marseille","lat":43.24233,"lon":5.39324,"is_reserved":false,"is_disabled":false,"rental_uris":{"android":"levelo://app?vid=cd9c6c8f-813a-4b2c-b0c7-7a3265cb2fa0","ios":"levelo://app?vid=cd9c6c8f-813a-4b2c-b0c7-7a3265cb2fa0"},"vehicle_type_id":"4","last_reported":1762330535,"current_range_meters":9600,"station_id":"","pricing_plan_id":"cebpf4jnsgd1na2vs0mg"},{"bike_id":"824ca8fc-97e4-4c9a-b121-2fea63e1bee2","system_id":"levelo_inurba_marseille","lat":43.32107,"lon":5.36764,"is_reserved":false,"is_disabled":false,"rental_uris":{"android":"levelo://app?vid=824ca8fc-97e4-4c9a-b121-2fea63e1bee2","ios":"levelo://app?vid=824ca8fc-97e4-4c9a-b121-2fea63e1bee2"},"vehicle_type_id":"4","last_reported":1762330535,"current_range_meters":9600,"station_id":"ce4bhrh2rcd13ifvqhug","pricing_plan_id":"cebpf4jnsgd1na2vs0mg"},{"bike_id":"17698df3-e0ce-4d85-90e5-b2c76ceb41c3","system_id":"levelo_inurba_marseille","lat":43.32289,"lon":5.38266,"is_reserved":false,"is_disabled":false,"rental_uris":{"android":"levelo://app?vid=17698df3-e0ce-4d85-90e5-b2c76ceb41c3","ios":"levelo://app?vid=17698df3-e0ce-4d85-90e5-b2c76ceb41c3"},"vehicle_type_id":"4","last_reported":1762330535,"current_range_meters":9600,"station_id":"ce4bhr12rcd13ifvqhqg","pricing_plan_id":"cebpf4jnsgd1na2vs0mg"},{"bike_id":"ad483091-7411-4e16-8cc4-09042e8161f5","system_id":"levelo_inurba_marseille","lat":43.273468,"lon":5.385179,"is_reserved":false,"is_disabled":true,"rental_uris":{"android":"levelo://app?vid=ad483091-7411-4e16-8cc4-09042e8161f5","ios":"levelo://app?vid=ad483091-7411-4e16-8cc4-09042e8161f5"},"vehicle_type_id":"4","last_reported":1762330535,"current_range_meters":9600,"station_id":"","pricing_plan_id":"cebpf4jnsgd1na2vs0mg"},{"bike_id":"96a2ec32-00dd-4e11-9599-b24267248a8a","system_id":"levelo_inurba_marseille","lat":43.31356,"lon":5.3671,"is_reserved":false,"is_disabled":false,"rental_uris":{"android":"levelo://app?vid=96a2ec32-00dd-4e11-9599-b24267248a8a","ios":"levelo://app?vid=96a2ec32-00dd-4e11-9599-b24267248a8a"},"vehicle_type_id":"4","last_reported":1762330535,"current_range_meters":9600,"station_id":"ce4bgr92rcd13ifvqc6g","pricing_plan_id":"cebpf4jnsgd1na2vs0mg"},{"bike_id":"a521fcff-f853-479f-9f42-e2a64f0e3073","system_id":"levelo_inurba_marseille","lat":43.25753,"lon":5.41115,"is_reserved":false,"is_disabled":false,"rental_uris":{"android":"levelo://app?vid=a521fcff-f853-479f-9f42-e2a64f0e3073","ios":"levelo://app?vid=a521fcff-f853-479f-9f42-e2a64f0e3073"},"vehicle_type_id":"4","last_reported":1762330535,"current_range_meters":10000,"station_id":"","pricing_plan_id":"cebpf4jnsgd1na2vs0mg"},{"bike_id":"9a927517-8d0a-4f13-9128-9855e1f39229","system_id":"levelo_inurba_marseille","lat":43.32114,"lon":5.36763,"is_reserved":false,"is_disabled":false,"rental_uris":{"android":"levelo://app?vid=9a927517-8d0a-4f13-9128-9855e1f39229","ios":"levelo://app?vid=9a927517-8d0a-4f13-9128-9855e1f39229"},"vehicle_type_id":"4","last_reported":1762330535,"current_range_meters":10000,"station_id":"ce4bhrh2rcd13ifvqhug","pricing_plan_id":"cebpf4jnsgd1na2vs0mg"},{"bike_id":"92775789-142e-484d-9972-40c0fd7ff85c","system_id":"levelo_inurba_marseille","lat":43.3091,"lon":5.36824,"is_reserved":false,"is_disabled":false,"rental_uris":{"android":"levelo://app?vid=92775789-142e-484d-9972-40c0fd7ff85c","ios":"levelo://app?vid=92775789-142e-484d-9972-40c0fd7ff85c"},"vehicle_type_id":"4","last_reported":1762330535,"current_range_meters":10000,"station_id":"ce4bgn92rcd13ifvqbvg","pricing_plan_id":"cebpf4jnsgd1na2vs0mg"},{"bike_id":"93a4db4d-1bba-4287-acbf-f8d08aa1e988","system_id":"levelo_inurba_marseille","lat":43.24643,"lon":5.43122,"is_reserved":false,"is_disabled":false,"rental_uris":{"android":"levelo://app?vid=93a4db4d-1bba-4287-acbf-f8d08aa1e988","ios":"levelo://app?vid=93a4db4d-1bba-4287-acbf-f8d08aa1e988"},"vehicle_type_id":"4","last_reported":1762330535,"current_range_meters":10800,"station_id":"st_d2m6c4gdas8pm72e190g","pricing_plan_id":"cebpf4jnsgd1na2vs0mg"},{"bike_id":"61a5f595-d6ab-4501-8205-2048318312f0","system_id":"levelo_inurba_marseille","lat":43.337444,"lon":5.374475,"is_reserved":false,"is_disabled":false,"rental_uris":{"android":"levelo://app?vid=61a5f595-d6ab-4501-8205-2048318312f0","ios":"levelo://app?vid=61a5f595-d6ab-4501-8205-2048318312f0"},"vehicle_type_id":"4","last_reported":1762330535,"current_range_meters":10800,"station_id":"","pricing_plan_id":"cebpf4jnsgd1na2vs0mg"},{"bike_id":"36dadbf7-a228-4f6f-8b08-391008b68693","system_id":"levelo_inurba_marseille","lat":43.34531,"lon":5.36869,"is_reserved":false,"is_disabled":false,"rental_uris":{"android":"levelo://app?vid=36dadbf7-a228-4f6f-8b08-391008b68693","ios":"levelo://app?vid=36dadbf7-a228-4f6f-8b08-391008b68693"},"vehicle_type_id":"4","last_reported":1762330535,"current_range_meters":10800,"station_id":"","pricing_plan_id":"cebpf4jnsgd1na2vs0mg"},{"bike_id":"17bbf34e-30a3-48ae-89a7-101afb24d19d","system_id":"levelo_inurba_marseille","lat":43.2956,"lon":5.381621,"is_reserved":false,"is_disabled":false,"rental_uris":{"android":"levelo://app?vid=17bbf34e-30a3-48ae-89a7-101afb24d19d","ios":"levelo://app?vid=17bbf34e-30a3-48ae-89a7-101afb24d19d"},"vehicle_type_id":"4","last_reported":1762330535,"current_range_meters":10800,"station_id":"","pricing_plan_id":"cebpf4jnsgd1na2vs0mg"},{"bike_id":"ae16f70d-019b-479a-a1c9-d9eb9a0b8810","system_id":"levelo_inurba_marseille","lat":43.33716,"lon":5.39199,"is_reserved":false,"is_disabled":false,"rental_uris":{"android":"levelo://app?vid=ae16f70d-019b-479a-a1c9-d9eb9a0b8810","ios":"levelo://app?vid=ae16f70d-019b-479a-a1c9-d9eb9a0b8810"},"vehicle_type_id":"4","last_reported":1762330535,"current_range_meters":10800,"station_id":"ce4bhr92rcd13ifvqhsg","pricing_plan_id":"cebpf4jnsgd1na2vs0mg"},{"bike_id":"d0f051af-6ad2-4c61-ba0d-217ee02ae488","system_id":"levelo_inurba_marseille","lat":43.30494,"lon":5.37917,"is_reserved":false,"is_disabled":false,"rental_uris":{"android":"levelo://app?vid=d0f051af-6ad2-4c61-ba0d-217ee02ae488","ios":"levelo://app?vid=d0f051af-6ad2-4c61-ba0d-217ee02ae488"},"vehicle_type_id":"4","last_reported":1762330535,"current_range_meters":10800,"station_id":"ce4bgup2rcd13ifvqcn0","pricing_plan_id":"cebpf4jnsgd1na2vs0mg"},{"bike_id":"1af250b1-f20d-43a6-b023-0debb5f25884","system_id":"levelo_inurba_marseille","lat":43.295504,"lon":5.422936,"is_reserved":false,"is_disabled":false,"rental_uris":{"android":"levelo://app?vid=1af250b1-f20d-43a6-b023-0debb5f25884","ios":"levelo://app?vid=1af250b1-f20d-43a6-b023-0debb5f25884"},"vehicle_type_id":"4","last_reported":1762330535,"current_range_meters":10800,"station_id":"ce4bhph2rcd13ifvqhdg","pricing_plan_id":"cebpf4jnsgd1na2vs0mg"},{"bike_id":"28069767-84bb-4c35-b19c-b38cef0c3a3a","system_id":"levelo_inurba_marseille","lat":43.27358,"lon":5.42409,"is_reserved":false,"is_disabled":false,"rental_uris":{"android":"levelo://app?vid=28069767-84bb-4c35-b19c-b38cef0c3a3a","ios":"levelo://app?vid=28069767-84bb-4c35-b19c-b38cef0c3a3a"},"vehicle_type_id":"4","last_reported":1762330535,"current_range_meters":10800,"station_id":"","pricing_plan_id":"cebpf4jnsgd1na2vs0mg"},{"bike_id":"cd3ea18b-2831-4bf5-9010-9bcb277e326d","system_id":"levelo_inurba_marseille","lat":43.304754,"lon":5.379074,"is_reserved":false,"is_disabled":false,"rental_uris":{"android":"levelo://app?vid=cd3ea18b-2831-4bf5-9010-9bcb277e326d","ios":"levelo://app?vid=cd3ea18b-2831-4bf5-9010-9bcb277e326d"},"vehicle_type_id":"4","last_reported":1762330535,"current_range_meters":10800,"station_id":"ce4bgup2rcd13ifvqcn0","pricing_plan_id":"cebpf4jnsgd1na2vs0mg"},{"bike_id":"a0c3d33c-b582-4a0f-ad21-bc24a9cd1048","system_id":"levelo_inurba_marseille","lat":43.26782,"lon":5.39417,"is_reserved":false,"is_disabled":false,"rental_uris":{"android":"levelo://app?vid=a0c3d33c-b582-4a0f-ad21-bc24a9cd1048","ios":"levelo://app?vid=a0c3d33c-b582-4a0f-ad21-bc24a9cd1048"},"vehicle_type_id":"4","last_reported":1762330535,"current_range_meters":10800,"station_id":"ce4bhh12rcd13ifvqfg0","pricing_plan_id":"cebpf4jnsgd1na2vs0mg"},{"bike_id":"b5d05e65-bf31-4c28-83ae-fdb4691d295d","system_id":"levelo_inurba_marseille","lat":43.2257,"lon":5.41629,"is_reserved":false,"is_disabled":false,"rental_uris":{"android":"levelo://app?vid=b5d05e65-bf31-4c28-83ae-fdb4691d295d","ios":"levelo://app?vid=b5d05e65-bf31-4c28-83ae-fdb4691d295d"},"vehicle_type_id":"4","last_reported":1762330535,"current_range_meters":10800,"station_id":"st_d2o4gvlbi1j2169b742g","pricing_plan_id":"cebpf4jnsgd1na2vs0mg"},{"bike_id":"cd948c4a-cbe2-4258-b6be-4862856c0886","system_id":"levelo_inurba_marseille","lat":43.29017,"lon":5.3999,"is_reserved":false,"is_disabled":false,"rental_uris":{"android":"levelo://app?vid=cd948c4a-cbe2-4258-b6be-4862856c0886","ios":"levelo://app?vid=cd948c4a-cbe2-4258-b6be-4862856c0886"},"vehicle_type_id":"4","last_reported":1762330535,"current_range_meters":11200,"station_id":"ce4bh392rcd13ifvqdm0","pricing_plan_id":"cebpf4jnsgd1na2vs0mg"},{"bike_id":"ffa09e43-06f0-4fdf-8444-99998243b633","system_id":"levelo_inurba_marseille","lat":43.26687,"lon":5.38279,"is_reserved":false,"is_disabled":false,"rental_uris":{"android":"levelo://app?vid=ffa09e43-06f0-4fdf-8444-99998243b633","ios":"levelo://app?vid=ffa09e43-06f0-4fdf-8444-99998243b633"},"vehicle_type_id":"4","last_reported":1762330535,"current_range_meters":11200,"station_id":"ce4bhg92rcd13ifvqf90","pricing_plan_id":"cebpf4jnsgd1na2vs0mg"},{"bike_id":"47de9693-398c-4078-bb2e-bf0d38c76c57","system_id":"levelo_inurba_marseille","lat":43.28491,"lon":5.38796,"is_reserved":false,"is_disabled":false,"rental_uris":{"android":"levelo://app?vid=47de9693-398c-4078-bb2e-bf0d38c76c57","ios":"levelo://app?vid=47de9693-398c-4078-bb2e-bf0d38c76c57"},"vehicle_type_id":"4","last_reported":1762330535,"current_range_meters":11200,"station_id":"","pricing_plan_id":"cebpf4jnsgd1na2vs0mg"},{"bike_id":"d92d3f3d-0a96-47d4-a677-8edd8751bee3","system_id":"levelo_inurba_marseille","lat":43.29625,"lon":5.37171,"is_reserved":false,"is_disabled":false,"rental_uris":{"android":"levelo://app?vid=d92d3f3d-0a96-47d4-a677-8edd8751bee3","ios":"levelo://app?vid=d92d3f3d-0a96-47d4-a677-8edd8751bee3"},"vehicle_type_id":"4","last_reported":1762330535,"current_range_meters":11200,"station_id":"ce4bgnh2rcd13ifvqc0g","pricing_plan_id":"cebpf4jnsgd1na2vs0mg"},{"bike_id":"ea4f4b84-78b0-4180-a7f8-ecb8c6182713","system_id":"levelo_inurba_marseille","lat":43.2953,"lon":5.36104,"is_reserved":false,"is_disabled":true,"rental_uris":{"android":"levelo://app?vid=ea4f4b84-78b0-4180-a7f8-ecb8c6182713","ios":"levelo://app?vid=ea4f4b84-78b0-4180-a7f8-ecb8c6182713"},"vehicle_type_id":"4","last_reported":1762330535,"current_range_meters":11200,"station_id":"","pricing_plan_id":"cebpf4jnsgd1na2vs0mg"},{"bike_id":"d4e9c572-0207-4b11-9136-2b8e1e5dfb0c","system_id":"levelo_inurba_marseille","lat":43.3211,"lon":5.36752,"is_reserved":false,"is_disabled":false,"rental_uris":{"android":"levelo://app?vid=d4e9c572-0207-4b11-9136-2b8e1e5dfb0c","ios":"levelo://app?vid=d4e9c572-0207-4b11-9136-2b8e1e5dfb0c"},"vehicle_type_id":"4","last_reported":1762330535,"current_range_meters":11200,"station_id":"ce4bhrh2rcd13ifvqhug","pricing_plan_id":"cebpf4jnsgd1na2vs0mg"},{"bike_id":"8929c7b7-3bea-4ba1-a6e5-2b73b73a37c5","system_id":"levelo_inurba_marseille","lat":43.24077,"lon":5.37754,"is_reserved":false,"is_disabled":false,"rental_uris":{"android":"levelo://app?vid=8929c7b7-3bea-4ba1-a6e5-2b73b73a37c5","ios":"levelo://app?vid=8929c7b7-3bea-4ba1-a6e5-2b73b73a37c5"},"vehicle_type_id":"4","last_reported":1762330535,"current_range_meters":11200,"station_id":"ce4bhnp2rcd13ifvqgvg","pricing_plan_id":"cebpf4jnsgd1na2vs0mg"},{"bike_id":"a20fcab2-b751-4584-a402-d2391f0a1e45","system_id":"levelo_inurba_marseille","lat":43.23149,"lon":5.43718,"is_reserved":false,"is_disabled":false,"rental_uris":{"android":"levelo://app?vid=a20fcab2-b751-4584-a402-d2391f0a1e45","ios":"levelo://app?vid=a20fcab2-b751-4584-a402-d2391f0a1e45"},"vehicle_type_id":"4","last_reported":1762330535,"current_range_meters":11600,"station_id":"ce4bhmp2rcd13ifvqgog","pricing_plan_id":"cebpf4jnsgd1na2vs0mg"},{"bike_id":"9de1ea12-df0c-4af8-853d-d2f2fa88f9c2","system_id":"levelo_inurba_marseille","lat":43.272076,"lon":5.391894,"is_reserved":false,"is_disabled":false,"rental_uris":{"android":"levelo://app?vid=9de1ea12-df0c-4af8-853d-d2f2fa88f9c2","ios":"levelo://app?vid=9de1ea12-df0c-4af8-853d-d2f2fa88f9c2"},"vehicle_type_id":"4","last_reported":1762330535,"current_range_meters":11600,"station_id":"ce4bhhp2rcd13ifvqfm0","pricing_plan_id":"cebpf4jnsgd1na2vs0mg"},{"bike_id":"20340dd6-6c1d-4c04-b15c-bb2bb27e6c8a","system_id":"levelo_inurba_marseille","lat":43.29924,"lon":5.38153,"is_reserved":false,"is_disabled":false,"rental_uris":{"android":"levelo://app?vid=20340dd6-6c1d-4c04-b15c-bb2bb27e6c8a","ios":"levelo://app?vid=20340dd6-6c1d-4c04-b15c-bb2bb27e6c8a"},"vehicle_type_id":"4","last_reported":1762330535,"current_range_meters":11600,"station_id":"ce4bgj12rcd13ifvqbc0","pricing_plan_id":"cebpf4jnsgd1na2vs0mg"},{"bike_id":"86776e7e-3a20-437b-82b0-84bf6a2dbd44","system_id":"levelo_inurba_marseille","lat":43.301949,"lon":5.366584,"is_reserved":false,"is_disabled":false,"rental_uris":{"android":"levelo://app?vid=86776e7e-3a20-437b-82b0-84bf6a2dbd44","ios":"levelo://app?vid=86776e7e-3a20-437b-82b0-84bf6a2dbd44"},"vehicle_type_id":"4","last_reported":1762330535,"current_range_meters":11600,"station_id":"ce4bgrh2rcd13ifvqc8g","pricing_plan_id":"cebpf4jnsgd1na2vs0mg"},{"bike_id":"5582a8d9-46f0-49c2-9ca5-655bbb3fc679","system_id":"levelo_inurba_marseille","lat":43.28693,"lon":5.39993,"is_reserved":false,"is_disabled":false,"rental_uris":{"android":"levelo://app?vid=5582a8d9-46f0-49c2-9ca5-655bbb3fc679","ios":"levelo://app?vid=5582a8d9-46f0-49c2-9ca5-655bbb3fc679"},"vehicle_type_id":"4","last_reported":1762330535,"current_range_meters":11600,"station_id":"ce4bho92rcd13ifvqh3g","pricing_plan_id":"cebpf4jnsgd1na2vs0mg"},{"bike_id":"e2e2dbf4-0cda-4148-a90a-9b08180db2a7","system_id":"levelo_inurba_marseille","lat":43.32464,"lon":5.36572,"is_reserved":false,"is_disabled":false,"rental_uris":{"android":"levelo://app?vid=e2e2dbf4-0cda-4148-a90a-9b08180db2a7","ios":"levelo://app?vid=e2e2dbf4-0cda-4148-a90a-9b08180db2a7"},"vehicle_type_id":"4","last_reported":1762330535,"current_range_meters":11600,"station_id":"ce4bhs12rcd13ifvqhvg","pricing_plan_id":"cebpf4jnsgd1na2vs0mg"},{"bike_id":"5f3847f7-decc-4798-9891-5d62d98e3bd4","system_id":"levelo_inurba_marseille","lat":43.3014,"lon":5.3807,"is_reserved":false,"is_disabled":false,"rental_uris":{"android":"levelo://app?vid=5f3847f7-decc-4798-9891-5d62d98e3bd4","ios":"levelo://app?vid=5f3847f7-decc-4798-9891-5d62d98e3bd4"},"vehicle_type_id":"4","last_reported":1762330535,"current_range_meters":11600,"station_id":"ce4bgjp2rcd13ifvqbh0","pricing_plan_id":"cebpf4jnsgd1na2vs0mg"},{"bike_id":"56c85e38-643a-4a70-9c37-ffd50f7e9186","system_id":"levelo_inurba_marseille","lat":43.29049,"lon":5.39937,"is_reserved":false,"is_disabled":false,"rental_uris":{"android":"levelo://app?vid=56c85e38-643a-4a70-9c37-ffd50f7e9186","ios":"levelo://app?vid=56c85e38-643a-4a70-9c37-ffd50f7e9186"},"vehicle_type_id":"4","last_reported":1762330535,"current_range_meters":12000,"station_id":"ce4bh392rcd13ifvqdm0","pricing_plan_id":"cebpf4jnsgd1na2vs0mg"},{"bike_id":"dceb4beb-6bb5-4225-ae7e-d3c4b9815bbe","system_id":"levelo_inurba_marseille","lat":43.28482,"lon":5.48395,"is_reserved":false,"is_disabled":false,"rental_uris":{"android":"levelo://app?vid=dceb4beb-6bb5-4225-ae7e-d3c4b9815bbe","ios":"levelo://app?vid=dceb4beb-6bb5-4225-ae7e-d3c4b9815bbe"},"vehicle_type_id":"4","last_reported":1762330535,"current_range_meters":12000,"station_id":"st_d3svhcjqgbts73a3dn0g","pricing_plan_id":"cebpf4jnsgd1na2vs0mg"},{"bike_id":"7f7ec003-db3b-4709-8604-efcdff6b58f6","system_id":"levelo_inurba_marseille","lat":43.25865,"lon":5.39898,"is_reserved":false,"is_disabled":true,"rental_uris":{"android":"levelo://app?vid=7f7ec003-db3b-4709-8604-efcdff6b58f6","ios":"levelo://app?vid=7f7ec003-db3b-4709-8604-efcdff6b58f6"},"vehicle_type_id":"4","last_reported":1762330535,"current_range_meters":12000,"station_id":"ce4bhl92rcd13ifvqghg","pricing_plan_id":"cebpf4jnsgd1na2vs0mg"},{"bike_id":"a432a034-45ef-4989-ae92-70addb508dd2","system_id":"levelo_inurba_marseille","lat":43.314996,"lon":5.374723,"is_reserved":false,"is_disabled":false,"rental_uris":{"android":"levelo://app?vid=a432a034-45ef-4989-ae92-70addb508dd2","ios":"levelo://app?vid=a432a034-45ef-4989-ae92-70addb508dd2"},"vehicle_type_id":"4","last_reported":1762330535,"current_range_meters":12000,"station_id":"","pricing_plan_id":"cebpf4jnsgd1na2vs0mg"},{"bike_id":"a200a1f1-76a6-4a82-b9de-8e690f6c9643","system_id":"levelo_inurba_marseille","lat":43.30468,"lon":5.37913,"is_reserved":false,"is_disabled":true,"rental_uris":{"android":"levelo://app?vid=a200a1f1-76a6-4a82-b9de-8e690f6c9643","ios":"levelo://app?vid=a200a1f1-76a6-4a82-b9de-8e690f6c9643"},"vehicle_type_id":"4","last_reported":1762330535,"current_range_meters":12000,"station_id":"ce4bgup2rcd13ifvqcn0","pricing_plan_id":"cebpf4jnsgd1na2vs0mg"},{"bike_id":"d9fd7bb5-fd79-41f8-b907-8d24aff88403","system_id":"levelo_inurba_marseille","lat":43.30282,"lon":5.39911,"is_reserved":false,"is_disabled":false,"rental_uris":{"android":"levelo://app?vid=d9fd7bb5-fd79-41f8-b907-8d24aff88403","ios":"levelo://app?vid=d9fd7bb5-fd79-41f8-b907-8d24aff88403"},"vehicle_type_id":"4","last_reported":1762330535,"current_range_meters":12000,"station_id":"","pricing_plan_id":"cebpf4jnsgd1na2vs0mg"},{"bike_id":"8a80570e-bf7a-4811-b6f7-f7bef821bdac","system_id":"levelo_inurba_marseille","lat":43.309435,"lon":5.390253,"is_reserved":false,"is_disabled":false,"rental_uris":{"android":"levelo://app?vid=8a80570e-bf7a-4811-b6f7-f7bef821bdac","ios":"levelo://app?vid=8a80570e-bf7a-4811-b6f7-f7bef821bdac"},"vehicle_type_id":"4","last_reported":1762330535,"current_range_meters":12000,"station_id":"ce4bgkp2rcd13ifvqbmg","pricing_plan_id":"cebpf4jnsgd1na2vs0mg"},{"bike_id":"bbdf050b-1e86-428f-9e04-3c2a8ae0ab07","system_id":"levelo_inurba_marseille","lat":43.30534,"lon":5.36553,"is_reserved":false,"is_disabled":false,"rental_uris":{"android":"levelo://app?vid=bbdf050b-1e86-428f-9e04-3c2a8ae0ab07","ios":"levelo://app?vid=bbdf050b-1e86-428f-9e04-3c2a8ae0ab07"},"vehicle_type_id":"4","last_reported":1762330535,"current_range_meters":12000,"station_id":"ce4bgs12rcd13ifvqcag","pricing_plan_id":"cebpf4jnsgd1na2vs0mg"},{"bike_id":"e4b19c5d-a6c4-4399-828a-d5953060b7aa","system_id":"levelo_inurba_marseille","lat":43.323648,"lon":5.367546,"is_reserved":false,"is_disabled":false,"rental_uris":{"android":"levelo://app?vid=e4b19c5d-a6c4-4399-828a-d5953060b7aa","ios":"levelo://app?vid=e4b19c5d-a6c4-4399-828a-d5953060b7aa"},"vehicle_type_id":"4","last_reported":1762330535,"current_range_meters":12000,"station_id":"ce4bhsh2rcd13ifvqi2g","pricing_plan_id":"cebpf4jnsgd1na2vs0mg"},{"bike_id":"37d838b7-b11b-477d-a0b8-104cf02771a9","system_id":"levelo_inurba_marseille","lat":43.287314,"lon":5.360824,"is_reserved":false,"is_disabled":true,"rental_uris":{"android":"levelo://app?vid=37d838b7-b11b-477d-a0b8-104cf02771a9","ios":"levelo://app?vid=37d838b7-b11b-477d-a0b8-104cf02771a9"},"vehicle_type_id":"4","last_reported":1762330535,"current_range_meters":12400,"station_id":"cki0cbj6b192h4jlfktg","pricing_plan_id":"cebpf4jnsgd1na2vs0mg"},{"bike_id":"4b24dbba-41a5-4ecf-ade9-ac15d69f3a39","system_id":"levelo_inurba_marseille","lat":43.30277,"lon":5.37689,"is_reserved":false,"is_disabled":false,"rental_uris":{"android":"levelo://app?vid=4b24dbba-41a5-4ecf-ade9-ac15d69f3a39","ios":"levelo://app?vid=4b24dbba-41a5-4ecf-ade9-ac15d69f3a39"},"vehicle_type_id":"4","last_reported":1762330535,"current_range_meters":12400,"station_id":"ce4bguh2rcd13ifvqcj0","pricing_plan_id":"cebpf4jnsgd1na2vs0mg"},{"bike_id":"866650fe-4a3c-4f5a-a052-87a6d039dab0","system_id":"levelo_inurba_marseille","lat":43.2904,"lon":5.39985,"is_reserved":false,"is_disabled":false,"rental_uris":{"android":"levelo://app?vid=866650fe-4a3c-4f5a-a052-87a6d039dab0","ios":"levelo://app?vid=866650fe-4a3c-4f5a-a052-87a6d039dab0"},"vehicle_type_id":"4","last_reported":1762330535,"current_range_meters":12400,"station_id":"ce4bh392rcd13ifvqdm0","pricing_plan_id":"cebpf4jnsgd1na2vs0mg"},{"bike_id":"1c65ff7a-5df1-438c-9cb7-2366dd467bad","system_id":"levelo_inurba_marseille","lat":43.30457,"lon":5.37906,"is_reserved":false,"is_disabled":false,"rental_uris":{"android":"levelo://app?vid=1c65ff7a-5df1-438c-9cb7-2366dd467bad","ios":"levelo://app?vid=1c65ff7a-5df1-438c-9cb7-2366dd467bad"},"vehicle_type_id":"4","last_reported":1762330535,"current_range_meters":12400,"station_id":"ce4bgup2rcd13ifvqcn0","pricing_plan_id":"cebpf4jnsgd1na2vs0mg"},{"bike_id":"787ae1e0-5549-4d57-89d0-d46e5f57b20a","system_id":"levelo_inurba_marseille","lat":43.28157,"lon":5.42643,"is_reserved":false,"is_disabled":false,"rental_uris":{"android":"levelo://app?vid=787ae1e0-5549-4d57-89d0-d46e5f57b20a","ios":"levelo://app?vid=787ae1e0-5549-4d57-89d0-d46e5f57b20a"},"vehicle_type_id":"4","last_reported":1762330535,"current_range_meters":12400,"station_id":"ce4bhnh2rcd13ifvqgug","pricing_plan_id":"cebpf4jnsgd1na2vs0mg"},{"bike_id":"ba2938fb-1ec4-425e-b6e5-c82904ce08fe","system_id":"levelo_inurba_marseille","lat":43.24622,"lon":5.43117,"is_reserved":false,"is_disabled":true,"rental_uris":{"android":"levelo://app?vid=ba2938fb-1ec4-425e-b6e5-c82904ce08fe","ios":"levelo://app?vid=ba2938fb-1ec4-425e-b6e5-c82904ce08fe"},"vehicle_type_id":"4","last_reported":1762330535,"current_range_meters":12400,"station_id":"st_d2m6c4gdas8pm72e190g","pricing_plan_id":"cebpf4jnsgd1na2vs0mg"},{"bike_id":"e7002296-a724-4792-9c77-9aa7da662e7d","system_id":"levelo_inurba_marseille","lat":43.29752,"lon":5.36248,"is_reserved":false,"is_disabled":false,"rental_uris":{"android":"levelo://app?vid=e7002296-a724-4792-9c77-9aa7da662e7d","ios":"levelo://app?vid=e7002296-a724-4792-9c77-9aa7da662e7d"},"vehicle_type_id":"4","last_reported":1762330535,"current_range_meters":12400,"station_id":"","pricing_plan_id":"cebpf4jnsgd1na2vs0mg"},{"bike_id":"b8950634-601f-4b1a-a8ca-9ac75a365486","system_id":"levelo_inurba_marseille","lat":43.30465,"lon":5.37908,"is_reserved":false,"is_disabled":false,"rental_uris":{"android":"levelo://app?vid=b8950634-601f-4b1a-a8ca-9ac75a365486","ios":"levelo://app?vid=b8950634-601f-4b1a-a8ca-9ac75a365486"},"vehicle_type_id":"4","last_reported":1762330535,"current_range_meters":12800,"station_id":"ce4bgup2rcd13ifvqcn0","pricing_plan_id":"cebpf4jnsgd1na2vs0mg"},{"bike_id":"7e8da862-2af0-47cd-9267-b7b5a54bf28d","system_id":"levelo_inurba_marseille","lat":43.229284,"lon":5.353841,"is_reserved":false,"is_disabled":false,"rental_uris":{"android":"levelo://app?vid=7e8da862-2af0-47cd-9267-b7b5a54bf28d","ios":"levelo://app?vid=7e8da862-2af0-47cd-9267-b7b5a54bf28d"},"vehicle_type_id":"4","last_reported":1762330535,"current_range_meters":12800,"station_id":"cpo3532slgdg3j2ikp40","pricing_plan_id":"cebpf4jnsgd1na2vs0mg"},{"bike_id":"f0592f78-49c8-456a-9cb2-79cc08057180","system_id":"levelo_inurba_marseille","lat":43.31352,"lon":5.36705,"is_reserved":false,"is_disabled":false,"rental_uris":{"android":"levelo://app?vid=f0592f78-49c8-456a-9cb2-79cc08057180","ios":"levelo://app?vid=f0592f78-49c8-456a-9cb2-79cc08057180"},"vehicle_type_id":"4","last_reported":1762330535,"current_range_meters":12800,"station_id":"ce4bgr92rcd13ifvqc6g","pricing_plan_id":"cebpf4jnsgd1na2vs0mg"},{"bike_id":"95667a99-bb27-4fab-bcc4-0039bce1b456","system_id":"levelo_inurba_marseille","lat":43.26934,"lon":5.38907,"is_reserved":false,"is_disabled":false,"rental_uris":{"android":"levelo://app?vid=95667a99-bb27-4fab-bcc4-0039bce1b456","ios":"levelo://app?vid=95667a99-bb27-4fab-bcc4-0039bce1b456"},"vehicle_type_id":"4","last_reported":1762330535,"current_range_meters":12800,"station_id":"ce4bhhh2rcd13ifvqfl0","pricing_plan_id":"cebpf4jnsgd1na2vs0mg"},{"bike_id":"55fce558-aa0a-45fa-9ef5-8099470900c5","system_id":"levelo_inurba_marseille","lat":43.29228,"lon":5.36068,"is_reserved":false,"is_disabled":false,"rental_uris":{"android":"levelo://app?vid=55fce558-aa0a-45fa-9ef5-8099470900c5","ios":"levelo://app?vid=55fce558-aa0a-45fa-9ef5-8099470900c5"},"vehicle_type_id":"4","last_reported":1762330535,"current_range_meters":12800,"station_id":"ce4bhbh2rcd13ifvqeqg","pricing_plan_id":"cebpf4jnsgd1na2vs0mg"},{"bike_id":"7c8c77e6-611f-4f5e-8374-da326e1729a3","system_id":"levelo_inurba_marseille","lat":43.29826,"lon":5.44059,"is_reserved":false,"is_disabled":false,"rental_uris":{"android":"levelo://app?vid=7c8c77e6-611f-4f5e-8374-da326e1729a3","ios":"levelo://app?vid=7c8c77e6-611f-4f5e-8374-da326e1729a3"},"vehicle_type_id":"4","last_reported":1762330535,"current_range_meters":12800,"station_id":"st_d3jp68qikq2c7381ktn0","pricing_plan_id":"cebpf4jnsgd1na2vs0mg"},{"bike_id":"765b9661-2b24-4c0f-a9fb-732d7409b10c","system_id":"levelo_inurba_marseille","lat":43.21615,"lon":5.34431,"is_reserved":false,"is_disabled":false,"rental_uris":{"android":"levelo://app?vid=765b9661-2b24-4c0f-a9fb-732d7409b10c","ios":"levelo://app?vid=765b9661-2b24-4c0f-a9fb-732d7409b10c"},"vehicle_type_id":"4","last_reported":1762330535,"current_range_meters":13600,"station_id":"","pricing_plan_id":"cebpf4jnsgd1na2vs0mg"},{"bike_id":"d16911f9-0093-4796-bbbd-eb912eeb6174","system_id":"levelo_inurba_marseille","lat":43.25936,"lon":5.40906,"is_reserved":false,"is_disabled":false,"rental_uris":{"android":"levelo://app?vid=d16911f9-0093-4796-bbbd-eb912eeb6174","ios":"levelo://app?vid=d16911f9-0093-4796-bbbd-eb912eeb6174"},"vehicle_type_id":"4","last_reported":1762330535,"current_range_meters":13600,"station_id":"ce4bhm92rcd13ifvqglg","pricing_plan_id":"cebpf4jnsgd1na2vs0mg"},{"bike_id":"e2104b6a-7e12-4a20-ae1b-cf4b446d5e26","system_id":"levelo_inurba_marseille","lat":43.284786,"lon":5.483988,"is_reserved":false,"is_disabled":false,"rental_uris":{"android":"levelo://app?vid=e2104b6a-7e12-4a20-ae1b-cf4b446d5e26","ios":"levelo://app?vid=e2104b6a-7e12-4a20-ae1b-cf4b446d5e26"},"vehicle_type_id":"4","last_reported":1762330535,"current_range_meters":13600,"station_id":"st_d3svhcjqgbts73a3dn0g","pricing_plan_id":"cebpf4jnsgd1na2vs0mg"},{"bike_id":"bacb9c52-ae0d-48f0-aa92-6c038e31315d","system_id":"levelo_inurba_marseille","lat":43.292793,"lon":5.387668,"is_reserved":false,"is_disabled":false,"rental_uris":{"android":"levelo://app?vid=bacb9c52-ae0d-48f0-aa92-6c038e31315d","ios":"levelo://app?vid=bacb9c52-ae0d-48f0-aa92-6c038e31315d"},"vehicle_type_id":"4","last_reported":1762330535,"current_range_meters":13600,"station_id":"","pricing_plan_id":"cebpf4jnsgd1na2vs0mg"},{"bike_id":"bcc138ed-a420-49ce-bd09-2812d40d19ee","system_id":"levelo_inurba_marseille","lat":43.24082,"lon":5.37765,"is_reserved":false,"is_disabled":false,"rental_uris":{"android":"levelo://app?vid=bcc138ed-a420-49ce-bd09-2812d40d19ee","ios":"levelo://app?vid=bcc138ed-a420-49ce-bd09-2812d40d19ee"},"vehicle_type_id":"4","last_reported":1762330535,"current_range_meters":13600,"station_id":"ce4bhnp2rcd13ifvqgvg","pricing_plan_id":"cebpf4jnsgd1na2vs0mg"},{"bike_id":"8574468f-faf7-4a61-977f-90a5896c01c9","system_id":"levelo_inurba_marseille","lat":43.265526,"lon":5.413194,"is_reserved":false,"is_disabled":false,"rental_uris":{"android":"levelo://app?vid=8574468f-faf7-4a61-977f-90a5896c01c9","ios":"levelo://app?vid=8574468f-faf7-4a61-977f-90a5896c01c9"},"vehicle_type_id":"4","last_reported":1762330535,"current_range_meters":14000,"station_id":"","pricing_plan_id":"cebpf4jnsgd1na2vs0mg"},{"bike_id":"e458a04e-8648-405c-ad83-b53d61f3e64a","system_id":"levelo_inurba_marseille","lat":43.22914,"lon":5.35373,"is_reserved":false,"is_disabled":false,"rental_uris":{"android":"levelo://app?vid=e458a04e-8648-405c-ad83-b53d61f3e64a","ios":"levelo://app?vid=e458a04e-8648-405c-ad83-b53d61f3e64a"},"vehicle_type_id":"4","last_reported":1762330535,"current_range_meters":14000,"station_id":"cpo3532slgdg3j2ikp40","pricing_plan_id":"cebpf4jnsgd1na2vs0mg"},{"bike_id":"10760b76-3da0-47f3-8292-34aed5acc9d0","system_id":"levelo_inurba_marseille","lat":43.27934,"lon":5.41045,"is_reserved":false,"is_disabled":true,"rental_uris":{"android":"levelo://app?vid=10760b76-3da0-47f3-8292-34aed5acc9d0","ios":"levelo://app?vid=10760b76-3da0-47f3-8292-34aed5acc9d0"},"vehicle_type_id":"4","last_reported":1762330535,"current_range_meters":14000,"station_id":"ce4bhnp2rcd13ifvqh0g","pricing_plan_id":"cebpf4jnsgd1na2vs0mg"},{"bike_id":"e1305c1a-941b-4b4f-a464-7a071ae57d43","system_id":"levelo_inurba_marseille","lat":43.28939,"lon":5.3963,"is_reserved":false,"is_disabled":false,"rental_uris":{"android":"levelo://app?vid=e1305c1a-941b-4b4f-a464-7a071ae57d43","ios":"levelo://app?vid=e1305c1a-941b-4b4f-a464-7a071ae57d43"},"vehicle_type_id":"4","last_reported":1762330535,"current_range_meters":14000,"station_id":"ce4bh3h2rcd13ifvqdn0","pricing_plan_id":"cebpf4jnsgd1na2vs0mg"},{"bike_id":"d47980af-6a27-4877-b694-0fcefd40990a","system_id":"levelo_inurba_marseille","lat":43.30466,"lon":5.37903,"is_reserved":false,"is_disabled":false,"rental_uris":{"android":"levelo://app?vid=d47980af-6a27-4877-b694-0fcefd40990a","ios":"levelo://app?vid=d47980af-6a27-4877-b694-0fcefd40990a"},"vehicle_type_id":"4","last_reported":1762330535,"current_range_meters":14000,"station_id":"ce4bgup2rcd13ifvqcn0","pricing_plan_id":"cebpf4jnsgd1na2vs0mg"},{"bike_id":"e60801da-7358-49ba-8be7-98cca1d33922","system_id":"levelo_inurba_marseille","lat":43.30131,"lon":5.39859,"is_reserved":false,"is_disabled":false,"rental_uris":{"android":"levelo://app?vid=e60801da-7358-49ba-8be7-98cca1d33922","ios":"levelo://app?vid=e60801da-7358-49ba-8be7-98cca1d33922"},"vehicle_type_id":"4","last_reported":1762330535,"current_range_meters":14000,"station_id":"ce4bh0h2rcd13ifvqd40","pricing_plan_id":"cebpf4jnsgd1na2vs0mg"},{"bike_id":"6711fa61-ff7f-4360-9488-f8a02bac74fb","system_id":"levelo_inurba_marseille","lat":43.28184,"lon":5.42654,"is_reserved":false,"is_disabled":false,"rental_uris":{"android":"levelo://app?vid=6711fa61-ff7f-4360-9488-f8a02bac74fb","ios":"levelo://app?vid=6711fa61-ff7f-4360-9488-f8a02bac74fb"},"vehicle_type_id":"4","last_reported":1762330535,"current_range_meters":14000,"station_id":"ce4bhnh2rcd13ifvqgug","pricing_plan_id":"cebpf4jnsgd1na2vs0mg"},{"bike_id":"85b01de7-4f6b-4521-bb9e-c159e0fde0dc","system_id":"levelo_inurba_marseille","lat":43.26664,"lon":5.38255,"is_reserved":false,"is_disabled":false,"rental_uris":{"android":"levelo://app?vid=85b01de7-4f6b-4521-bb9e-c159e0fde0dc","ios":"levelo://app?vid=85b01de7-4f6b-4521-bb9e-c159e0fde0dc"},"vehicle_type_id":"4","last_reported":1762330535,"current_range_meters":14000,"station_id":"ce4bhg92rcd13ifvqf90","pricing_plan_id":"cebpf4jnsgd1na2vs0mg"},{"bike_id":"2ecf69a5-dd5a-4797-a967-76411d68b0f1","system_id":"levelo_inurba_marseille","lat":43.25935,"lon":5.40908,"is_reserved":false,"is_disabled":false,"rental_uris":{"android":"levelo://app?vid=2ecf69a5-dd5a-4797-a967-76411d68b0f1","ios":"levelo://app?vid=2ecf69a5-dd5a-4797-a967-76411d68b0f1"},"vehicle_type_id":"4","last_reported":1762330535,"current_range_meters":14000,"station_id":"ce4bhm92rcd13ifvqglg","pricing_plan_id":"cebpf4jnsgd1na2vs0mg"},{"bike_id":"bef502ec-a58f-4728-94b2-ed450611dc42","system_id":"levelo_inurba_marseille","lat":43.29044,"lon":5.39942,"is_reserved":false,"is_disabled":false,"rental_uris":{"android":"levelo://app?vid=bef502ec-a58f-4728-94b2-ed450611dc42","ios":"levelo://app?vid=bef502ec-a58f-4728-94b2-ed450611dc42"},"vehicle_type_id":"4","last_reported":1762330535,"current_range_meters":14000,"station_id":"ce4bh392rcd13ifvqdm0","pricing_plan_id":"cebpf4jnsgd1na2vs0mg"},{"bike_id":"460958aa-abb4-46e7-a2e3-909165861081","system_id":"levelo_inurba_marseille","lat":43.29847,"lon":5.36272,"is_reserved":false,"is_disabled":false,"rental_uris":{"android":"levelo://app?vid=460958aa-abb4-46e7-a2e3-909165861081","ios":"levelo://app?vid=460958aa-abb4-46e7-a2e3-909165861081"},"vehicle_type_id":"4","last_reported":1762330535,"current_range_meters":14000,"station_id":"ce4bgpp2rcd13ifvqc3g","pricing_plan_id":"cebpf4jnsgd1na2vs0mg"},{"bike_id":"5f93c904-b9ec-4f25-8b7b-6c7a835949a0","system_id":"levelo_inurba_marseille","lat":43.25933,"lon":5.40886,"is_reserved":false,"is_disabled":false,"rental_uris":{"android":"levelo://app?vid=5f93c904-b9ec-4f25-8b7b-6c7a835949a0","ios":"levelo://app?vid=5f93c904-b9ec-4f25-8b7b-6c7a835949a0"},"vehicle_type_id":"4","last_reported":1762330535,"current_range_meters":14400,"station_id":"ce4bhm92rcd13ifvqglg","pricing_plan_id":"cebpf4jnsgd1na2vs0mg"},{"bike_id":"acc99740-4fbd-42e5-a4bf-0ab707d51086","system_id":"levelo_inurba_marseille","lat":43.301319,"lon":5.398725,"is_reserved":false,"is_disabled":false,"rental_uris":{"android":"levelo://app?vid=acc99740-4fbd-42e5-a4bf-0ab707d51086","ios":"levelo://app?vid=acc99740-4fbd-42e5-a4bf-0ab707d51086"},"vehicle_type_id":"4","last_reported":1762330535,"current_range_meters":14400,"station_id":"","pricing_plan_id":"cebpf4jnsgd1na2vs0mg"},{"bike_id":"b9fd5a1b-fd04-4b24-a46a-4d2a6504e33d","system_id":"levelo_inurba_marseille","lat":43.32777,"lon":5.42437,"is_reserved":false,"is_disabled":false,"rental_uris":{"android":"levelo://app?vid=b9fd5a1b-fd04-4b24-a46a-4d2a6504e33d","ios":"levelo://app?vid=b9fd5a1b-fd04-4b24-a46a-4d2a6504e33d"},"vehicle_type_id":"4","last_reported":1762330535,"current_range_meters":14400,"station_id":"","pricing_plan_id":"cebpf4jnsgd1na2vs0mg"},{"bike_id":"8dcca48b-f36b-4574-ac35-0f04b245352c","system_id":"levelo_inurba_marseille","lat":43.307953,"lon":5.435225,"is_reserved":false,"is_disabled":false,"rental_uris":{"android":"levelo://app?vid=8dcca48b-f36b-4574-ac35-0f04b245352c","ios":"levelo://app?vid=8dcca48b-f36b-4574-ac35-0f04b245352c"},"vehicle_type_id":"4","last_reported":1762330535,"current_range_meters":14400,"station_id":"","pricing_plan_id":"cebpf4jnsgd1na2vs0mg"},{"bike_id":"ffc9e399-721b-4c53-8950-99f258696b5a","system_id":"levelo_inurba_marseille","lat":43.32294,"lon":5.38271,"is_reserved":false,"is_disabled":false,"rental_uris":{"android":"levelo://app?vid=ffc9e399-721b-4c53-8950-99f258696b5a","ios":"levelo://app?vid=ffc9e399-721b-4c53-8950-99f258696b5a"},"vehicle_type_id":"4","last_reported":1762330535,"current_range_meters":14400,"station_id":"ce4bhr12rcd13ifvqhqg","pricing_plan_id":"cebpf4jnsgd1na2vs0mg"},{"bike_id":"a887b1cd-286a-477e-b7f7-98653ff5555e","system_id":"levelo_inurba_marseille","lat":43.26709,"lon":5.41207,"is_reserved":false,"is_disabled":false,"rental_uris":{"android":"levelo://app?vid=a887b1cd-286a-477e-b7f7-98653ff5555e","ios":"levelo://app?vid=a887b1cd-286a-477e-b7f7-98653ff5555e"},"vehicle_type_id":"4","last_reported":1762330535,"current_range_meters":14800,"station_id":"","pricing_plan_id":"cebpf4jnsgd1na2vs0mg"},{"bike_id":"cdb34d18-daf3-4f02-8b47-6ae8d62050cb","system_id":"levelo_inurba_marseille","lat":43.32478,"lon":5.36574,"is_reserved":false,"is_disabled":false,"rental_uris":{"android":"levelo://app?vid=cdb34d18-daf3-4f02-8b47-6ae8d62050cb","ios":"levelo://app?vid=cdb34d18-daf3-4f02-8b47-6ae8d62050cb"},"vehicle_type_id":"4","last_reported":1762330535,"current_range_meters":14800,"station_id":"ce4bhs12rcd13ifvqhvg","pricing_plan_id":"cebpf4jnsgd1na2vs0mg"},{"bike_id":"2821c9ce-5a17-4c43-af5c-8560dd5fb1f8","system_id":"levelo_inurba_marseille","lat":43.240657,"lon":5.377534,"is_reserved":false,"is_disabled":false,"rental_uris":{"android":"levelo://app?vid=2821c9ce-5a17-4c43-af5c-8560dd5fb1f8","ios":"levelo://app?vid=2821c9ce-5a17-4c43-af5c-8560dd5fb1f8"},"vehicle_type_id":"4","last_reported":1762330535,"current_range_meters":14800,"station_id":"ce4bhnp2rcd13ifvqgvg","pricing_plan_id":"cebpf4jnsgd1na2vs0mg"},{"bike_id":"c2ab50fe-a113-42d6-85c2-9be22ea12653","system_id":"levelo_inurba_marseille","lat":43.25929,"lon":5.40919,"is_reserved":false,"is_disabled":false,"rental_uris":{"android":"levelo://app?vid=c2ab50fe-a113-42d6-85c2-9be22ea12653","ios":"levelo://app?vid=c2ab50fe-a113-42d6-85c2-9be22ea12653"},"vehicle_type_id":"4","last_reported":1762330535,"current_range_meters":14800,"station_id":"ce4bhm92rcd13ifvqglg","pricing_plan_id":"cebpf4jnsgd1na2vs0mg"},{"bike_id":"ab9b2bcc-ea75-449d-adbb-4add292d38c4","system_id":"levelo_inurba_marseille","lat":43.34793,"lon":5.37365,"is_reserved":false,"is_disabled":false,"rental_uris":{"android":"levelo://app?vid=ab9b2bcc-ea75-449d-adbb-4add292d38c4","ios":"levelo://app?vid=ab9b2bcc-ea75-449d-adbb-4add292d38c4"},"vehicle_type_id":"4","last_reported":1762330535,"current_range_meters":14800,"station_id":"","pricing_plan_id":"cebpf4jnsgd1na2vs0mg"},{"bike_id":"64b15090-9f63-43a1-8bbb-9c3758a02b43","system_id":"levelo_inurba_marseille","lat":43.30534,"lon":5.36554,"is_reserved":false,"is_disabled":false,"rental_uris":{"android":"levelo://app?vid=64b15090-9f63-43a1-8bbb-9c3758a02b43","ios":"levelo://app?vid=64b15090-9f63-43a1-8bbb-9c3758a02b43"},"vehicle_type_id":"4","last_reported":1762330535,"current_range_meters":14800,"station_id":"ce4bgs12rcd13ifvqcag","pricing_plan_id":"cebpf4jnsgd1na2vs0mg"},{"bike_id":"1b4a955f-9b04-47b6-8346-bcfdc6800fb1","system_id":"levelo_inurba_marseille","lat":43.31755,"lon":5.39026,"is_reserved":false,"is_disabled":false,"rental_uris":{"android":"levelo://app?vid=1b4a955f-9b04-47b6-8346-bcfdc6800fb1","ios":"levelo://app?vid=1b4a955f-9b04-47b6-8346-bcfdc6800fb1"},"vehicle_type_id":"4","last_reported":1762330535,"current_range_meters":15200,"station_id":"ce4bhqp2rcd13ifvqhng","pricing_plan_id":"cebpf4jnsgd1na2vs0mg"},{"bike_id":"d10b7544-124b-4f72-8bd0-6f0ddfb26ce5","system_id":"levelo_inurba_marseille","lat":43.29005,"lon":5.35614,"is_reserved":false,"is_disabled":false,"rental_uris":{"android":"levelo://app?vid=d10b7544-124b-4f72-8bd0-6f0ddfb26ce5","ios":"levelo://app?vid=d10b7544-124b-4f72-8bd0-6f0ddfb26ce5"},"vehicle_type_id":"4","last_reported":1762330535,"current_range_meters":15200,"station_id":"ce4bhb92rcd13ifvqen0","pricing_plan_id":"cebpf4jnsgd1na2vs0mg"},{"bike_id":"76cf0c24-6522-432f-bd72-7e66d285faa0","system_id":"levelo_inurba_marseille","lat":43.24081,"lon":5.37757,"is_reserved":false,"is_disabled":false,"rental_uris":{"android":"levelo://app?vid=76cf0c24-6522-432f-bd72-7e66d285faa0","ios":"levelo://app?vid=76cf0c24-6522-432f-bd72-7e66d285faa0"},"vehicle_type_id":"4","last_reported":1762330535,"current_range_meters":15200,"station_id":"ce4bhnp2rcd13ifvqgvg","pricing_plan_id":"cebpf4jnsgd1na2vs0mg"},{"bike_id":"13857a14-98c2-4173-b500-1e54697d4f51","system_id":"levelo_inurba_marseille","lat":43.24663,"lon":5.38161,"is_reserved":false,"is_disabled":false,"rental_uris":{"android":"levelo://app?vid=13857a14-98c2-4173-b500-1e54697d4f51","ios":"levelo://app?vid=13857a14-98c2-4173-b500-1e54697d4f51"},"vehicle_type_id":"4","last_reported":1762330535,"current_range_meters":15200,"station_id":"ce4bhih2rcd13ifvqfr0","pricing_plan_id":"cebpf4jnsgd1na2vs0mg"},{"bike_id":"94b06f3e-9c43-404e-899a-d1e48d6d7a76","system_id":"levelo_inurba_marseille","lat":43.287102,"lon":5.399967,"is_reserved":false,"is_disabled":false,"rental_uris":{"android":"levelo://app?vid=94b06f3e-9c43-404e-899a-d1e48d6d7a76","ios":"levelo://app?vid=94b06f3e-9c43-404e-899a-d1e48d6d7a76"},"vehicle_type_id":"4","last_reported":1762330535,"current_range_meters":16000,"station_id":"ce4bho92rcd13ifvqh3g","pricing_plan_id":"cebpf4jnsgd1na2vs0mg"},{"bike_id":"e97b80ef-96fd-4d5a-8b05-859bf80ed9b8","system_id":"levelo_inurba_marseille","lat":43.28004,"lon":5.41664,"is_reserved":false,"is_disabled":false,"rental_uris":{"android":"levelo://app?vid=e97b80ef-96fd-4d5a-8b05-859bf80ed9b8","ios":"levelo://app?vid=e97b80ef-96fd-4d5a-8b05-859bf80ed9b8"},"vehicle_type_id":"4","last_reported":1762330535,"current_range_meters":16000,"station_id":"ce4bho12rcd13ifvqh1g","pricing_plan_id":"cebpf4jnsgd1na2vs0mg"},{"bike_id":"bcb3c39b-ec48-48ef-9eac-eb8b71840959","system_id":"levelo_inurba_marseille","lat":43.33757,"lon":5.37464,"is_reserved":false,"is_disabled":false,"rental_uris":{"android":"levelo://app?vid=bcb3c39b-ec48-48ef-9eac-eb8b71840959","ios":"levelo://app?vid=bcb3c39b-ec48-48ef-9eac-eb8b71840959"},"vehicle_type_id":"4","last_reported":1762330535,"current_range_meters":16000,"station_id":"","pricing_plan_id":"cebpf4jnsgd1na2vs0mg"},{"bike_id":"f7e6e093-6e87-4296-a038-778845d5c128","system_id":"levelo_inurba_marseille","lat":43.29923,"lon":5.38148,"is_reserved":false,"is_disabled":false,"rental_uris":{"android":"levelo://app?vid=f7e6e093-6e87-4296-a038-778845d5c128","ios":"levelo://app?vid=f7e6e093-6e87-4296-a038-778845d5c128"},"vehicle_type_id":"4","last_reported":1762330535,"current_range_meters":16000,"station_id":"ce4bgj12rcd13ifvqbc0","pricing_plan_id":"cebpf4jnsgd1na2vs0mg"},{"bike_id":"425ec651-6346-4bfe-8059-03f768d0ec30","system_id":"levelo_inurba_marseille","lat":43.27815,"lon":5.40715,"is_reserved":false,"is_disabled":true,"rental_uris":{"android":"levelo://app?vid=425ec651-6346-4bfe-8059-03f768d0ec30","ios":"levelo://app?vid=425ec651-6346-4bfe-8059-03f768d0ec30"},"vehicle_type_id":"4","last_reported":1762330535,"current_range_meters":16000,"station_id":"ce4bhnh2rcd13ifvqgtg","pricing_plan_id":"cebpf4jnsgd1na2vs0mg"},{"bike_id":"389ca07e-e3c9-430f-850d-3a86e9fc776a","system_id":"levelo_inurba_marseille","lat":43.31348,"lon":5.36723,"is_reserved":false,"is_disabled":false,"rental_uris":{"android":"levelo://app?vid=389ca07e-e3c9-430f-850d-3a86e9fc776a","ios":"levelo://app?vid=389ca07e-e3c9-430f-850d-3a86e9fc776a"},"vehicle_type_id":"4","last_reported":1762330535,"current_range_meters":16000,"station_id":"ce4bgr92rcd13ifvqc6g","pricing_plan_id":"cebpf4jnsgd1na2vs0mg"},{"bike_id":"01dac5f4-266b-419a-a9bd-a94574c64697","system_id":"levelo_inurba_marseille","lat":43.26679,"lon":5.38248,"is_reserved":false,"is_disabled":false,"rental_uris":{"android":"levelo://app?vid=01dac5f4-266b-419a-a9bd-a94574c64697","ios":"levelo://app?vid=01dac5f4-266b-419a-a9bd-a94574c64697"},"vehicle_type_id":"4","last_reported":1762330535,"current_range_meters":16000,"station_id":"ce4bhg92rcd13ifvqf90","pricing_plan_id":"cebpf4jnsgd1na2vs0mg"},{"bike_id":"0a567e7b-a8c7-4700-b2e5-90b665b67c4d","system_id":"levelo_inurba_marseille","lat":43.2618,"lon":5.40516,"is_reserved":false,"is_disabled":false,"rental_uris":{"android":"levelo://app?vid=0a567e7b-a8c7-4700-b2e5-90b665b67c4d","ios":"levelo://app?vid=0a567e7b-a8c7-4700-b2e5-90b665b67c4d"},"vehicle_type_id":"4","last_reported":1762330535,"current_range_meters":16000,"station_id":"ce4bhmh2rcd13ifvqgmg","pricing_plan_id":"cebpf4jnsgd1na2vs0mg"},{"bike_id":"a1c138a1-8318-48dc-991c-18aadad1f637","system_id":"levelo_inurba_marseille","lat":43.25727,"lon":5.41105,"is_reserved":false,"is_disabled":false,"rental_uris":{"android":"levelo://app?vid=a1c138a1-8318-48dc-991c-18aadad1f637","ios":"levelo://app?vid=a1c138a1-8318-48dc-991c-18aadad1f637"},"vehicle_type_id":"4","last_reported":1762330535,"current_range_meters":16000,"station_id":"ce4bhkp2rcd13ifvqgd0","pricing_plan_id":"cebpf4jnsgd1na2vs0mg"},{"bike_id":"d24c48c5-08ca-44f3-8bb6-adc271a3a69b","system_id":"levelo_inurba_marseille","lat":43.27941,"lon":5.41038,"is_reserved":false,"is_disabled":false,"rental_uris":{"android":"levelo://app?vid=d24c48c5-08ca-44f3-8bb6-adc271a3a69b","ios":"levelo://app?vid=d24c48c5-08ca-44f3-8bb6-adc271a3a69b"},"vehicle_type_id":"4","last_reported":1762330535,"current_range_meters":16400,"station_id":"ce4bhnp2rcd13ifvqh0g","pricing_plan_id":"cebpf4jnsgd1na2vs0mg"},{"bike_id":"68d5c92f-1f0d-4d06-a7dc-4f57a7975119","system_id":"levelo_inurba_marseille","lat":43.24074,"lon":5.37753,"is_reserved":false,"is_disabled":false,"rental_uris":{"android":"levelo://app?vid=68d5c92f-1f0d-4d06-a7dc-4f57a7975119","ios":"levelo://app?vid=68d5c92f-1f0d-4d06-a7dc-4f57a7975119"},"vehicle_type_id":"4","last_reported":1762330535,"current_range_meters":16400,"station_id":"ce4bhnp2rcd13ifvqgvg","pricing_plan_id":"cebpf4jnsgd1na2vs0mg"},{"bike_id":"9f42320e-716a-463d-a0ac-defefad10bcf","system_id":"levelo_inurba_marseille","lat":43.24173,"lon":5.397296,"is_reserved":false,"is_disabled":false,"rental_uris":{"android":"levelo://app?vid=9f42320e-716a-463d-a0ac-defefad10bcf","ios":"levelo://app?vid=9f42320e-716a-463d-a0ac-defefad10bcf"},"vehicle_type_id":"4","last_reported":1762330535,"current_range_meters":16400,"station_id":"ce4bhn12rcd13ifvqgpg","pricing_plan_id":"cebpf4jnsgd1na2vs0mg"},{"bike_id":"42d2792a-88bd-48e5-afe0-4b6400cd337a","system_id":"levelo_inurba_marseille","lat":43.31678,"lon":5.38197,"is_reserved":false,"is_disabled":false,"rental_uris":{"android":"levelo://app?vid=42d2792a-88bd-48e5-afe0-4b6400cd337a","ios":"levelo://app?vid=42d2792a-88bd-48e5-afe0-4b6400cd337a"},"vehicle_type_id":"4","last_reported":1762330535,"current_range_meters":16400,"station_id":"","pricing_plan_id":"cebpf4jnsgd1na2vs0mg"},{"bike_id":"27aefe03-bbd2-43d3-8d72-3a7105da9194","system_id":"levelo_inurba_marseille","lat":43.31356,"lon":5.37911,"is_reserved":false,"is_disabled":false,"rental_uris":{"android":"levelo://app?vid=27aefe03-bbd2-43d3-8d72-3a7105da9194","ios":"levelo://app?vid=27aefe03-bbd2-43d3-8d72-3a7105da9194"},"vehicle_type_id":"4","last_reported":1762330535,"current_range_meters":16400,"station_id":"","pricing_plan_id":"cebpf4jnsgd1na2vs0mg"},{"bike_id":"81dcc136-dea2-46c0-98af-42dbdee92b54","system_id":"levelo_inurba_marseille","lat":43.2848,"lon":5.48408,"is_reserved":false,"is_disabled":false,"rental_uris":{"android":"levelo://app?vid=81dcc136-dea2-46c0-98af-42dbdee92b54","ios":"levelo://app?vid=81dcc136-dea2-46c0-98af-42dbdee92b54"},"vehicle_type_id":"4","last_reported":1762330535,"current_range_meters":16400,"station_id":"","pricing_plan_id":"cebpf4jnsgd1na2vs0mg"},{"bike_id":"2e47e188-bbe5-4ff5-aaaa-46e834021df0","system_id":"levelo_inurba_marseille","lat":43.24663,"lon":5.38161,"is_reserved":false,"is_disabled":false,"rental_uris":{"android":"levelo://app?vid=2e47e188-bbe5-4ff5-aaaa-46e834021df0","ios":"levelo://app?vid=2e47e188-bbe5-4ff5-aaaa-46e834021df0"},"vehicle_type_id":"4","last_reported":1762330535,"current_range_meters":16400,"station_id":"ce4bhih2rcd13ifvqfr0","pricing_plan_id":"cebpf4jnsgd1na2vs0mg"},{"bike_id":"baf56fd1-d80d-4c2e-a11f-6f0881ce3265","system_id":"levelo_inurba_marseille","lat":43.25604,"lon":5.38979,"is_reserved":false,"is_disabled":false,"rental_uris":{"android":"levelo://app?vid=baf56fd1-d80d-4c2e-a11f-6f0881ce3265","ios":"levelo://app?vid=baf56fd1-d80d-4c2e-a11f-6f0881ce3265"},"vehicle_type_id":"4","last_reported":1762330535,"current_range_meters":16400,"station_id":"","pricing_plan_id":"cebpf4jnsgd1na2vs0mg"},{"bike_id":"33838fb9-bb75-4da5-b208-713d4ed8c2ca","system_id":"levelo_inurba_marseille","lat":43.25729,"lon":5.41085,"is_reserved":false,"is_disabled":false,"rental_uris":{"android":"levelo://app?vid=33838fb9-bb75-4da5-b208-713d4ed8c2ca","ios":"levelo://app?vid=33838fb9-bb75-4da5-b208-713d4ed8c2ca"},"vehicle_type_id":"4","last_reported":1762330535,"current_range_meters":16800,"station_id":"ce4bhkp2rcd13ifvqgd0","pricing_plan_id":"cebpf4jnsgd1na2vs0mg"},{"bike_id":"830f285e-9472-432f-bc0c-4c8b0a0d3321","system_id":"levelo_inurba_marseille","lat":43.305367,"lon":5.365576,"is_reserved":false,"is_disabled":true,"rental_uris":{"android":"levelo://app?vid=830f285e-9472-432f-bc0c-4c8b0a0d3321","ios":"levelo://app?vid=830f285e-9472-432f-bc0c-4c8b0a0d3321"},"vehicle_type_id":"4","last_reported":1762330535,"current_range_meters":16800,"station_id":"","pricing_plan_id":"cebpf4jnsgd1na2vs0mg"},{"bike_id":"813d84df-d28e-442a-86a4-2693a3f1117d","system_id":"levelo_inurba_marseille","lat":43.230515,"lon":5.354966,"is_reserved":false,"is_disabled":false,"rental_uris":{"android":"levelo://app?vid=813d84df-d28e-442a-86a4-2693a3f1117d","ios":"levelo://app?vid=813d84df-d28e-442a-86a4-2693a3f1117d"},"vehicle_type_id":"4","last_reported":1762330535,"current_range_meters":16800,"station_id":"cpo3342slgdg3j2ifvpg","pricing_plan_id":"cebpf4jnsgd1na2vs0mg"},{"bike_id":"bd84767d-9a60-4b3b-a598-7f2c790c16f1","system_id":"levelo_inurba_marseille","lat":43.26494,"lon":5.39555,"is_reserved":false,"is_disabled":true,"rental_uris":{"android":"levelo://app?vid=bd84767d-9a60-4b3b-a598-7f2c790c16f1","ios":"levelo://app?vid=bd84767d-9a60-4b3b-a598-7f2c790c16f1"},"vehicle_type_id":"4","last_reported":1762330535,"current_range_meters":16800,"station_id":"ce4bhi12rcd13ifvqfq0","pricing_plan_id":"cebpf4jnsgd1na2vs0mg"},{"bike_id":"cff64f4e-5f37-43ea-ae7e-1ca574864a38","system_id":"levelo_inurba_marseille","lat":43.32447,"lon":5.42774,"is_reserved":false,"is_disabled":false,"rental_uris":{"android":"levelo://app?vid=cff64f4e-5f37-43ea-ae7e-1ca574864a38","ios":"levelo://app?vid=cff64f4e-5f37-43ea-ae7e-1ca574864a38"},"vehicle_type_id":"4","last_reported":1762330535,"current_range_meters":16800,"station_id":"","pricing_plan_id":"cebpf4jnsgd1na2vs0mg"},{"bike_id":"c6d2dafc-fb2c-4b82-8b78-f3d7d347211b","system_id":"levelo_inurba_marseille","lat":43.32362,"lon":5.36754,"is_reserved":false,"is_disabled":false,"rental_uris":{"android":"levelo://app?vid=c6d2dafc-fb2c-4b82-8b78-f3d7d347211b","ios":"levelo://app?vid=c6d2dafc-fb2c-4b82-8b78-f3d7d347211b"},"vehicle_type_id":"4","last_reported":1762330535,"current_range_meters":16800,"station_id":"ce4bhsh2rcd13ifvqi2g","pricing_plan_id":"cebpf4jnsgd1na2vs0mg"},{"bike_id":"27ed55e5-d518-4de2-a405-17c3ee665e6b","system_id":"levelo_inurba_marseille","lat":43.278235,"lon":5.391752,"is_reserved":false,"is_disabled":true,"rental_uris":{"android":"levelo://app?vid=27ed55e5-d518-4de2-a405-17c3ee665e6b","ios":"levelo://app?vid=27ed55e5-d518-4de2-a405-17c3ee665e6b"},"vehicle_type_id":"4","last_reported":1762330535,"current_range_meters":16800,"station_id":"ce4bhjp2rcd13ifvqga0","pricing_plan_id":"cebpf4jnsgd1na2vs0mg"},{"bike_id":"b7c86d98-e0e5-47b8-8c43-a90a2fb4199d","system_id":"levelo_inurba_marseille","lat":43.27909,"lon":5.39583,"is_reserved":false,"is_disabled":false,"rental_uris":{"android":"levelo://app?vid=b7c86d98-e0e5-47b8-8c43-a90a2fb4199d","ios":"levelo://app?vid=b7c86d98-e0e5-47b8-8c43-a90a2fb4199d"},"vehicle_type_id":"4","last_reported":1762330535,"current_range_meters":16800,"station_id":"ce4bhf92rcd13ifvqf40","pricing_plan_id":"cebpf4jnsgd1na2vs0mg"},{"bike_id":"ca46fdbd-ac89-432a-9c58-507605a7d54c","system_id":"levelo_inurba_marseille","lat":43.29269,"lon":5.37629,"is_reserved":false,"is_disabled":false,"rental_uris":{"android":"levelo://app?vid=ca46fdbd-ac89-432a-9c58-507605a7d54c","ios":"levelo://app?vid=ca46fdbd-ac89-432a-9c58-507605a7d54c"},"vehicle_type_id":"4","last_reported":1762330535,"current_range_meters":16800,"station_id":"ce4bgi12rcd13ifvqb80","pricing_plan_id":"cebpf4jnsgd1na2vs0mg"},{"bike_id":"183aea80-8dbe-4056-98be-d2037192cb58","system_id":"levelo_inurba_marseille","lat":43.24085,"lon":5.37746,"is_reserved":false,"is_disabled":false,"rental_uris":{"android":"levelo://app?vid=183aea80-8dbe-4056-98be-d2037192cb58","ios":"levelo://app?vid=183aea80-8dbe-4056-98be-d2037192cb58"},"vehicle_type_id":"4","last_reported":1762330535,"current_range_meters":16800,"station_id":"ce4bhnp2rcd13ifvqgvg","pricing_plan_id":"cebpf4jnsgd1na2vs0mg"},{"bike_id":"839fa246-305f-4118-81fc-fd008f6607f9","system_id":"levelo_inurba_marseille","lat":43.3128,"lon":5.40158,"is_reserved":false,"is_disabled":true,"rental_uris":{"android":"levelo://app?vid=839fa246-305f-4118-81fc-fd008f6607f9","ios":"levelo://app?vid=839fa246-305f-4118-81fc-fd008f6607f9"},"vehicle_type_id":"4","last_reported":1762330535,"current_range_meters":16800,"station_id":"ce4bh092rcd13ifvqd30","pricing_plan_id":"cebpf4jnsgd1na2vs0mg"},{"bike_id":"c620d4f7-5cd2-42f0-8b3d-e9ad5a882a10","system_id":"levelo_inurba_marseille","lat":43.30913,"lon":5.36848,"is_reserved":false,"is_disabled":false,"rental_uris":{"android":"levelo://app?vid=c620d4f7-5cd2-42f0-8b3d-e9ad5a882a10","ios":"levelo://app?vid=c620d4f7-5cd2-42f0-8b3d-e9ad5a882a10"},"vehicle_type_id":"4","last_reported":1762330535,"current_range_meters":17200,"station_id":"ce4bgn92rcd13ifvqbvg","pricing_plan_id":"cebpf4jnsgd1na2vs0mg"},{"bike_id":"ee7b4a2a-327b-4f7c-88c2-d8bb993ed935","system_id":"levelo_inurba_marseille","lat":43.2594,"lon":5.409,"is_reserved":false,"is_disabled":false,"rental_uris":{"android":"levelo://app?vid=ee7b4a2a-327b-4f7c-88c2-d8bb993ed935","ios":"levelo://app?vid=ee7b4a2a-327b-4f7c-88c2-d8bb993ed935"},"vehicle_type_id":"4","last_reported":1762330535,"current_range_meters":17200,"station_id":"ce4bhm92rcd13ifvqglg","pricing_plan_id":"cebpf4jnsgd1na2vs0mg"},{"bike_id":"e0b72d23-e7b9-4a83-92b2-9b2473018146","system_id":"levelo_inurba_marseille","lat":43.267845,"lon":5.394144,"is_reserved":false,"is_disabled":false,"rental_uris":{"android":"levelo://app?vid=e0b72d23-e7b9-4a83-92b2-9b2473018146","ios":"levelo://app?vid=e0b72d23-e7b9-4a83-92b2-9b2473018146"},"vehicle_type_id":"4","last_reported":1762330535,"current_range_meters":17200,"station_id":"ce4bhh12rcd13ifvqfg0","pricing_plan_id":"cebpf4jnsgd1na2vs0mg"},{"bike_id":"44b57c2f-9838-4b67-a1ad-808c9ea33602","system_id":"levelo_inurba_marseille","lat":43.31333,"lon":5.39691,"is_reserved":false,"is_disabled":false,"rental_uris":{"android":"levelo://app?vid=44b57c2f-9838-4b67-a1ad-808c9ea33602","ios":"levelo://app?vid=44b57c2f-9838-4b67-a1ad-808c9ea33602"},"vehicle_type_id":"4","last_reported":1762330535,"current_range_meters":17200,"station_id":"ce4bgvp2rcd13ifvqcu0","pricing_plan_id":"cebpf4jnsgd1na2vs0mg"},{"bike_id":"e946e9ec-a4d2-434a-b465-1ffc5a3e6b52","system_id":"levelo_inurba_marseille","lat":43.25923,"lon":5.40892,"is_reserved":false,"is_disabled":false,"rental_uris":{"android":"levelo://app?vid=e946e9ec-a4d2-434a-b465-1ffc5a3e6b52","ios":"levelo://app?vid=e946e9ec-a4d2-434a-b465-1ffc5a3e6b52"},"vehicle_type_id":"4","last_reported":1762330535,"current_range_meters":17200,"station_id":"ce4bhm92rcd13ifvqglg","pricing_plan_id":"cebpf4jnsgd1na2vs0mg"},{"bike_id":"4b9b61f9-e84c-4648-b6f6-faf53029a4ee","system_id":"levelo_inurba_marseille","lat":43.27066,"lon":5.42273,"is_reserved":false,"is_disabled":false,"rental_uris":{"android":"levelo://app?vid=4b9b61f9-e84c-4648-b6f6-faf53029a4ee","ios":"levelo://app?vid=4b9b61f9-e84c-4648-b6f6-faf53029a4ee"},"vehicle_type_id":"4","last_reported":1762330535,"current_range_meters":17600,"station_id":"ce4bhk92rcd13ifvqgb0","pricing_plan_id":"cebpf4jnsgd1na2vs0mg"},{"bike_id":"af2ae1d2-fefe-4508-8541-cfc473e43cbc","system_id":"levelo_inurba_marseille","lat":43.3032,"lon":5.36901,"is_reserved":false,"is_disabled":false,"rental_uris":{"android":"levelo://app?vid=af2ae1d2-fefe-4508-8541-cfc473e43cbc","ios":"levelo://app?vid=af2ae1d2-fefe-4508-8541-cfc473e43cbc"},"vehicle_type_id":"4","last_reported":1762330535,"current_range_meters":17600,"station_id":"ce4bgqh2rcd13ifvqc5g","pricing_plan_id":"cebpf4jnsgd1na2vs0mg"},{"bike_id":"67c82d20-0380-42c3-82d6-d0651af171bb","system_id":"levelo_inurba_marseille","lat":43.23156,"lon":5.43704,"is_reserved":false,"is_disabled":false,"rental_uris":{"android":"levelo://app?vid=67c82d20-0380-42c3-82d6-d0651af171bb","ios":"levelo://app?vid=67c82d20-0380-42c3-82d6-d0651af171bb"},