{"last_updated":1727543196,"ttl":60,"version":"2.2","data":{"bikes":[{"bike_id":"a1a74e25-5fd5-4f5a-8288-5f67b8867db8","system_id":"levelo_inurba_marseille","lat":43.29589,"lon":5.38105,"is_reserved":false,"is_disabled":false,"rental_uris":{"android":"levelo://app?vid=a1a74e25-5fd5-4f5a-8288-5f67b8867db8","ios":"levelo://app?vid=a1a74e25-5fd5-4f5a-8288-5f67b8867db8"},"vehicle_type_id":"4","last_reported":1727543197,"current_range_meters":6400,"station_id":"ce4bgl12rcd13ifvqbo0","pricing_plan_id":"cebpf4jnsgd1na2vs0mg"},{"bike_id":"251df239-3ab7-4896-a306-6b115370097c","system_id":"levelo_inurba_marseille","lat":43.30936,"lon":5.40154,"is_reserved":false,"is_disabled":false,"rental_uris":{"android":"levelo://app?vid=251df239-3ab7-4896-a306-6b115370097c","ios":"levelo://app?vid=251df239-3ab7-4896-a306-6b115370097c"},"vehicle_type_id":"4","last_reported":1727543197,"current_range_meters":8000,"station_id":"ce4bgvp2rcd13ifvqct0","pricing_plan_id":"cebpf4jnsgd1na2vs0mg"},{"bike_id":"1be9b508-a7c6-4bdc-abe8-3a9460ea62e2","system_id":"levelo_inurba_marseille","lat":43.30239,"lon":5.40049,"is_reserved":false,"is_disabled":false,"rental_uris":{"android":"levelo://app?vid=1be9b508-a7c6-4bdc-abe8-3a9460ea62e2","ios":"levelo://app?vid=1be9b508-a7c6-4bdc-abe8-3a9460ea62e2"},"vehicle_type_id":"4","last_reported":1727543197,"current_range_meters":8400,"station_id":"ce4bgvh2rcd13ifvqcs0","pricing_plan_id":"cebpf4jnsgd1na2vs0mg"},{"bike_id":"409f8e56-7b05-4fc8-983d-fadc6468525f","system_id":"levelo_inurba_marseille","lat":43.28444,"lon":5.392025,"is_reserved":false,"is_disabled":false,"rental_uris":{"android":"levelo://app?vid=409f8e56-7b05-4fc8-983d-fadc6468525f","ios":"levelo://app?vid=409f8e56-7b05-4fc8-983d-fadc6468525f"},"vehicle_type_id":"4","last_reported":1727543197,"current_range_meters":39200,"station_id":"ce4bhoh2rcd13ifvqh5g","pricing_plan_id":"cebpf4jnsgd1na2vs0mg"},{"bike_id":"4a315350-ab5b-46d0-baf7-e1b0f22f1134","system_id":"levelo_inurba_marseille","lat":43.31703,"lon":5.37731,"is_reserved":false,"is_disabled":false,"rental_uris":{"android":"levelo://app?vid=4a315350-ab5b-46d0-baf7-e1b0f22f1134","ios":"levelo://app?vid=4a315350-ab5b-46d0-baf7-e1b0f22f1134"},"vehicle_type_id":"4","last_reported":1727543197,"current_range_meters":2000,"station_id":"ce4bgth2rcd13ifvqch0","pricing_plan_id":"cebpf4jnsgd1na2vs0mg"},{"bike_id":"0ea9e4c4-cc08-41d9-862d-a80f7d54740c","system_id":"levelo_inurba_marseille","lat":43.32295,"lon":5.38268,"is_reserved":false,"is_disabled":false,"rental_uris":{"android":"levelo://app?vid=0ea9e4c4-cc08-41d9-862d-a80f7d54740c","ios":"levelo://app?vid=0ea9e4c4-cc08-41d9-862d-a80f7d54740c"},"vehicle_type_id":"4","last_reported":1727543197,"current_range_meters":38800,"station_id":"ce4bhr12rcd13ifvqhqg","pricing_plan_id":"cebpf4jnsgd1na2vs0mg"},{"bike_id":"9acee893-4fa2-464a-8603-b340ae525654","system_id":"levelo_inurba_marseille","lat":43.275787,"lon":5.423273,"is_reserved":false,"is_disabled":false,"rental_uris":{"android":"levelo://app?vid=9acee893-4fa2-464a-8603-b340ae525654","ios":"levelo://app?vid=9acee893-4fa2-464a-8603-b340ae525654"},"vehicle_type_id":"4","last_reported":1727543197,"current_range_meters":12800,"station_id":"ce4bhn92rcd13ifvqgrg","pricing_plan_id":"cebpf4jnsgd1na2vs0mg"},{"bike_id":"477ca0cb-d08c-4e41-b8cc-17ce2853f24f","system_id":"levelo_inurba_marseille","lat":43.29018,"lon":5.3813,"is_reserved":false,"is_disabled":false,"rental_uris":{"android":"levelo://app?vid=477ca0cb-d08c-4e41-b8cc-17ce2853f24f","ios":"levelo://app?vid=477ca0cb-d08c-4e41-b8cc-17ce2853f24f"},"vehicle_type_id":"4","last_reported":1727543197,"current_range_meters":28000,"station_id":"ce4bh4p2rcd13ifvqe1g","pricing_plan_id":"cebpf4jnsgd1na2vs0mg"},{"bike_id":"bd43c024-e4cd-4ec7-bd17-c16dfcf9d3a7","system_id":"levelo_inurba_marseille","lat":43.255,"lon":5.37657,"is_reserved":false,"is_disabled":false,"rental_uris":{"android":"levelo://app?vid=bd43c024-e4cd-4ec7-bd17-c16dfcf9d3a7","ios":"levelo://app?vid=bd43c024-e4cd-4ec7-bd17-c16dfcf9d3a7"},"vehicle_type_id":"4","last_reported":1727543197,"current_range_meters":28400,"station_id":"ce4bhh12rcd13ifvqff0","pricing_plan_id":"cebpf4jnsgd1na2vs0mg"},{"bike_id":"e8f339a7-5e65-4275-8576-718fc09f5e43","system_id":"levelo_inurba_marseille","lat":43.27619,"lon":5.36105,"is_reserved":false,"is_disabled":false,"rental_uris":{"android":"levelo://app?vid=e8f339a7-5e65-4275-8576-718fc09f5e43","ios":"levelo://app?vid=e8f339a7-5e65-4275-8576-718fc09f5e43"},"vehicle_type_id":"4","last_reported":1727543197,"current_range_meters":14000,"station_id":"ce4bgj92rcd13ifvqbe0","pricing_plan_id":"cebpf4jnsgd1na2vs0mg"},{"bike_id":"0e3098ca-964a-4dca-a9df-f97cdd853eee","system_id":"levelo_inurba_marseille","lat":43.278992,"lon":5.407472,"is_reserved":false,"is_disabled":false,"rental_uris":{"android":"levelo://app?vid=0e3098ca-964a-4dca-a9df-f97cdd853eee","ios":"levelo://app?vid=0e3098ca-964a-4dca-a9df-f97cdd853eee"},"vehicle_type_id":"4","last_reported":1727543197,"current_range_meters":20400,"station_id":"ce4bhnh2rcd13ifvqgtg","pricing_plan_id":"cebpf4jnsgd1na2vs0mg"},{"bike_id":"30823bf3-8137-43d5-8237-29e6c69748d4","system_id":"levelo_inurba_marseille","lat":43.30886,"lon":5.37196,"is_reserved":false,"is_disabled":false,"rental_uris":{"android":"levelo://app?vid=30823bf3-8137-43d5-8237-29e6c69748d4","ios":"levelo://app?vid=30823bf3-8137-43d5-8237-29e6c69748d4"},"vehicle_type_id":"4","last_reported":1727543197,"current_range_meters":4400,"station_id":"ce4bguh2rcd13ifvqckg","pricing_plan_id":"cebpf4jnsgd1na2vs0mg"},{"bike_id":"7d54d53e-9465-4eb7-988f-3be552d17282","system_id":"levelo_inurba_marseille","lat":43.24997,"lon":5.38943,"is_reserved":false,"is_disabled":false,"rental_uris":{"android":"levelo://app?vid=7d54d53e-9465-4eb7-988f-3be552d17282","ios":"levelo://app?vid=7d54d53e-9465-4eb7-988f-3be552d17282"},"vehicle_type_id":"4","last_reported":1727543197,"current_range_meters":16400,"station_id":"ce4bhgp2rcd13ifvqfd0","pricing_plan_id":"cebpf4jnsgd1na2vs0mg"},{"bike_id":"9a47dcb1-61bb-411f-affb-55731480b4cc","system_id":"levelo_inurba_marseille","lat":43.2396,"lon":5.36647,"is_reserved":false,"is_disabled":false,"rental_uris":{"android":"levelo://app?vid=9a47dcb1-61bb-411f-affb-55731480b4cc","ios":"levelo://app?vid=9a47dcb1-61bb-411f-affb-55731480b4cc"},"vehicle_type_id":"4","last_reported":1727543197,"current_range_meters":38800,"station_id":"ce4bhi12rcd13ifvqfp0","pricing_plan_id":"cebpf4jnsgd1na2vs0mg"},{"bike_id":"96751444-78fd-41d2-bef3-d9da2db78f3a","system_id":"levelo_inurba_marseille","lat":43.28619,"lon":5.35104,"is_reserved":false,"is_disabled":false,"rental_uris":{"android":"levelo://app?vid=96751444-78fd-41d2-bef3-d9da2db78f3a","ios":"levelo://app?vid=96751444-78fd-41d2-bef3-d9da2db78f3a"},"vehicle_type_id":"4","last_reported":1727543197,"current_range_meters":8800,"station_id":"ce4bhch2rcd13ifvqeug","pricing_plan_id":"cebpf4jnsgd1na2vs0mg"},{"bike_id":"f63240a5-9260-4da2-b04a-81cb251a274d","system_id":"levelo_inurba_marseille","lat":43.29638,"lon":5.40595,"is_reserved":false,"is_disabled":false,"rental_uris":{"android":"levelo://app?vid=f63240a5-9260-4da2-b04a-81cb251a274d","ios":"levelo://app?vid=f63240a5-9260-4da2-b04a-81cb251a274d"},"vehicle_type_id":"4","last_reported":1727543197,"current_range_meters":36800,"station_id":"ce4bh0h2rcd13ifvqd60","pricing_plan_id":"cebpf4jnsgd1na2vs0mg"},{"bike_id":"48cda0b0-244d-4505-b693-61ec1701b78e","system_id":"levelo_inurba_marseille","lat":43.29364,"lon":5.38528,"is_reserved":false,"is_disabled":false,"rental_uris":{"android":"levelo://app?vid=48cda0b0-244d-4505-b693-61ec1701b78e","ios":"levelo://app?vid=48cda0b0-244d-4505-b693-61ec1701b78e"},"vehicle_type_id":"4","last_reported":1727543197,"current_range_meters":2800,"station_id":"","pricing_plan_id":"cebpf4jnsgd1na2vs0mg"},{"bike_id":"11e96dc0-f60a-427f-8c59-d952a776ed59","system_id":"levelo_inurba_marseille","lat":43.29522,"lon":5.38539,"is_reserved":false,"is_disabled":false,"rental_uris":{"android":"levelo://app?vid=11e96dc0-f60a-427f-8c59-d952a776ed59","ios":"levelo://app?vid=11e96dc0-f60a-427f-8c59-d952a776ed59"},"vehicle_type_id":"4","last_reported":1727543197,"current_range_meters":28400,"station_id":"ce4bgih2rcd13ifvqba0","pricing_plan_id":"cebpf4jnsgd1na2vs0mg"},{"bike_id":"e4e47c0d-39db-4e87-aa03-c44c40bcb4f1","system_id":"levelo_inurba_marseille","lat":43.292,"lon":5.393292,"is_reserved":false,"is_disabled":false,"rental_uris":{"android":"levelo://app?vid=e4e47c0d-39db-4e87-aa03-c44c40bcb4f1","ios":"levelo://app?vid=e4e47c0d-39db-4e87-aa03-c44c40bcb4f1"},"vehicle_type_id":"4","last_reported":1727543197,"current_range_meters":14400,"station_id":"ce4bh192rcd13ifvqdd0","pricing_plan_id":"cebpf4jnsgd1na2vs0mg"},{"bike_id":"7bdb6542-34d4-409e-96e4-4aeb97032ede","system_id":"levelo_inurba_marseille","lat":43.29553,"lon":5.42295,"is_reserved":false,"is_disabled":false,"rental_uris":{"android":"levelo://app?vid=7bdb6542-34d4-409e-96e4-4aeb97032ede","ios":"levelo://app?vid=7bdb6542-34d4-409e-96e4-4aeb97032ede"},"vehicle_type_id":"4","last_reported":1727543197,"current_range_meters":9200,"station_id":"ce4bhph2rcd13ifvqhdg","pricing_plan_id":"cebpf4jnsgd1na2vs0mg"},{"bike_id":"bcb69083-dbe2-42bd-b90c-8be948a5e31b","system_id":"levelo_inurba_marseille","lat":43.27969,"lon":5.38748,"is_reserved":false,"is_disabled":false,"rental_uris":{"android":"levelo://app?vid=bcb69083-dbe2-42bd-b90c-8be948a5e31b","ios":"levelo://app?vid=bcb69083-dbe2-42bd-b90c-8be948a5e31b"},"vehicle_type_id":"4","last_reported":1727543197,"current_range_meters":32000,"station_id":"ce4bhg12rcd13ifvqf80","pricing_plan_id":"cebpf4jnsgd1na2vs0mg"},{"bike_id":"8524a85f-8427-4a60-91b5-869fad39ff42","system_id":"levelo_inurba_marseille","lat":43.24996,"lon":5.38942,"is_reserved":false,"is_disabled":false,"rental_uris":{"android":"levelo://app?vid=8524a85f-8427-4a60-91b5-869fad39ff42","ios":"levelo://app?vid=8524a85f-8427-4a60-91b5-869fad39ff42"},"vehicle_type_id":"4","last_reported":1727543197,"current_range_meters":32400,"station_id":"ce4bhgp2rcd13ifvqfd0","pricing_plan_id":"cebpf4jnsgd1na2vs0mg"},{"bike_id":"67e81774-7bff-4904-b044-329477d62ffa","system_id":"levelo_inurba_marseille","lat":43.28719,"lon":5.37942,"is_reserved":false,"is_disabled":false,"rental_uris":{"android":"levelo://app?vid=67e81774-7bff-4904-b044-329477d62ffa","ios":"levelo://app?vid=67e81774-7bff-4904-b044-329477d62ffa"},"vehicle_type_id":"4","last_reported":1727543197,"current_range_meters":22800,"station_id":"ce4bh9p2rcd13ifvqec0","pricing_plan_id":"cebpf4jnsgd1na2vs0mg"},{"bike_id":"97a97e53-77ab-4e67-ba53-bd26240ba031","system_id":"levelo_inurba_marseille","lat":43.28468,"lon":5.35895,"is_reserved":false,"is_disabled":false,"rental_uris":{"android":"levelo://app?vid=97a97e53-77ab-4e67-ba53-bd26240ba031","ios":"levelo://app?vid=97a97e53-77ab-4e67-ba53-bd26240ba031"},"vehicle_type_id":"4","last_reported":1727543197,"current_range_meters":8800,"station_id":"ce4bhah2rcd13ifvqei0","pricing_plan_id":"cebpf4jnsgd1na2vs0mg"},{"bike_id":"1ce7c25b-6bd2-4b64-b4ae-543ea784fc5d","system_id":"levelo_inurba_marseille","lat":43.337444,"lon":5.374475,"is_reserved":false,"is_disabled":false,"rental_uris":{"android":"levelo://app?vid=1ce7c25b-6bd2-4b64-b4ae-543ea784fc5d","ios":"levelo://app?vid=1ce7c25b-6bd2-4b64-b4ae-543ea784fc5d"},"vehicle_type_id":"4","last_reported":1727543197,"current_range_meters":36400,"station_id":"","pricing_plan_id":"cebpf4jnsgd1na2vs0mg"},{"bike_id":"8a019057-df41-4cd9-8391-6e887f9eb193","system_id":"levelo_inurba_marseille","lat":43.29304,"lon":5.37172,"is_reserved":false,"is_disabled":false,"rental_uris":{"android":"levelo://app?vid=8a019057-df41-4cd9-8391-6e887f9eb193","ios":"levelo://app?vid=8a019057-df41-4cd9-8391-6e887f9eb193"},"vehicle_type_id":"4","last_reported":1727543197,"current_range_meters":9200,"station_id":"ce4bgh92rcd13ifvqb40","pricing_plan_id":"cebpf4jnsgd1na2vs0mg"},{"bike_id":"35a6ca74-a0b6-4f73-bcf2-e86397ec7a04","system_id":"levelo_inurba_marseille","lat":43.24811,"lon":5.37466,"is_reserved":false,"is_disabled":false,"rental_uris":{"android":"levelo://app?vid=35a6ca74-a0b6-4f73-bcf2-e86397ec7a04","ios":"levelo://app?vid=35a6ca74-a0b6-4f73-bcf2-e86397ec7a04"},"vehicle_type_id":"4","last_reported":1727543197,"current_range_meters":6800,"station_id":"ce4bhgh2rcd13ifvqfb0","pricing_plan_id":"cebpf4jnsgd1na2vs0mg"},{"bike_id":"8d5cd892-cd9c-41ac-b358-031fe079276e","system_id":"levelo_inurba_marseille","lat":43.305367,"lon":5.367222,"is_reserved":false,"is_disabled":false,"rental_uris":{"android":"levelo://app?vid=8d5cd892-cd9c-41ac-b358-031fe079276e","ios":"levelo://app?vid=8d5cd892-cd9c-41ac-b358-031fe079276e"},"vehicle_type_id":"4","last_reported":1727543197,"current_range_meters":19200,"station_id":"ce4bgrp2rcd13ifvqc9g","pricing_plan_id":"cebpf4jnsgd1na2vs0mg"},{"bike_id":"0c6a3edd-0259-43fd-a8d1-3d4bb6023605","system_id":"levelo_inurba_marseille","lat":43.24388,"lon":5.37051,"is_reserved":false,"is_disabled":false,"rental_uris":{"android":"levelo://app?vid=0c6a3edd-0259-43fd-a8d1-3d4bb6023605","ios":"levelo://app?vid=0c6a3edd-0259-43fd-a8d1-3d4bb6023605"},"vehicle_type_id":"4","last_reported":1727543197,"current_range_meters":38800,"station_id":"ce4bhhh2rcd13ifvqfk0","pricing_plan_id":"cebpf4jnsgd1na2vs0mg"},{"bike_id":"113e976b-71dd-465f-a68d-8442297e5960","system_id":"levelo_inurba_marseille","lat":43.295209,"lon":5.394011,"is_reserved":false,"is_disabled":false,"rental_uris":{"android":"levelo://app?vid=113e976b-71dd-465f-a68d-8442297e5960","ios":"levelo://app?vid=113e976b-71dd-465f-a68d-8442297e5960"},"vehicle_type_id":"4","last_reported":1727543197,"current_range_meters":38000,"station_id":"ce4bh292rcd13ifvqdf0","pricing_plan_id":"cebpf4jnsgd1na2vs0mg"},{"bike_id":"5593f3de-6033-4fd1-929d-5615bb53e77c","system_id":"levelo_inurba_marseille","lat":43.248138,"lon":5.374608,"is_reserved":false,"is_disabled":false,"rental_uris":{"android":"levelo://app?vid=5593f3de-6033-4fd1-929d-5615bb53e77c","ios":"levelo://app?vid=5593f3de-6033-4fd1-929d-5615bb53e77c"},"vehicle_type_id":"4","last_reported":1727543197,"current_range_meters":7200,"station_id":"ce4bhgh2rcd13ifvqfb0","pricing_plan_id":"cebpf4jnsgd1na2vs0mg"},{"bike_id":"30084e07-e74a-40d4-b4f5-6b087f5969f5","system_id":"levelo_inurba_marseille","lat":43.27073,"lon":5.42278,"is_reserved":false,"is_disabled":false,"rental_uris":{"android":"levelo://app?vid=30084e07-e74a-40d4-b4f5-6b087f5969f5","ios":"levelo://app?vid=30084e07-e74a-40d4-b4f5-6b087f5969f5"},"vehicle_type_id":"4","last_reported":1727543197,"current_range_meters":30800,"station_id":"ce4bhk92rcd13ifvqgb0","pricing_plan_id":"cebpf4jnsgd1na2vs0mg"},{"bike_id":"6b0e3b67-3daf-4b03-8aa0-99e6c8dc5e62","system_id":"levelo_inurba_marseille","lat":43.28154,"lon":5.42643,"is_reserved":false,"is_disabled":false,"rental_uris":{"android":"levelo://app?vid=6b0e3b67-3daf-4b03-8aa0-99e6c8dc5e62","ios":"levelo://app?vid=6b0e3b67-3daf-4b03-8aa0-99e6c8dc5e62"},"vehicle_type_id":"4","last_reported":1727543197,"current_range_meters":20000,"station_id":"ce4bhnh2rcd13ifvqgug","pricing_plan_id":"cebpf4jnsgd1na2vs0mg"},{"bike_id":"dbbde342-f3d2-411d-8ddf-f177e831a40b","system_id":"levelo_inurba_marseille","lat":43.26598,"lon":5.39336,"is_reserved":false,"is_disabled":false,"rental_uris":{"android":"levelo://app?vid=dbbde342-f3d2-411d-8ddf-f177e831a40b","ios":"levelo://app?vid=dbbde342-f3d2-411d-8ddf-f177e831a40b"},"vehicle_type_id":"4","last_reported":1727543197,"current_range_meters":7200,"station_id":"","pricing_plan_id":"cebpf4jnsgd1na2vs0mg"},{"bike_id":"de5eb6dd-993f-40d2-b6d8-2d51085f3360","system_id":"levelo_inurba_marseille","lat":43.25578,"lon":5.38234,"is_reserved":false,"is_disabled":false,"rental_uris":{"android":"levelo://app?vid=de5eb6dd-993f-40d2-b6d8-2d51085f3360","ios":"levelo://app?vid=de5eb6dd-993f-40d2-b6d8-2d51085f3360"},"vehicle_type_id":"4","last_reported":1727543197,"current_range_meters":24000,"station_id":"ce4bhih2rcd13ifvqfs0","pricing_plan_id":"cebpf4jnsgd1na2vs0mg"},{"bike_id":"6a52f468-9bf5-46c2-819d-2c732c18128e","system_id":"levelo_inurba_marseille","lat":43.2396,"lon":5.36629,"is_reserved":false,"is_disabled":false,"rental_uris":{"android":"levelo://app?vid=6a52f468-9bf5-46c2-819d-2c732c18128e","ios":"levelo://app?vid=6a52f468-9bf5-46c2-819d-2c732c18128e"},"vehicle_type_id":"4","last_reported":1727543197,"current_range_meters":38800,"station_id":"ce4bhi12rcd13ifvqfp0","pricing_plan_id":"cebpf4jnsgd1na2vs0mg"},{"bike_id":"305fd8d9-5d52-4443-b99f-43a47406e444","system_id":"levelo_inurba_marseille","lat":43.30198,"lon":5.36616,"is_reserved":false,"is_disabled":false,"rental_uris":{"android":"levelo://app?vid=305fd8d9-5d52-4443-b99f-43a47406e444","ios":"levelo://app?vid=305fd8d9-5d52-4443-b99f-43a47406e444"},"vehicle_type_id":"4","last_reported":1727543197,"current_range_meters":31200,"station_id":"ce4bgrh2rcd13ifvqc8g","pricing_plan_id":"cebpf4jnsgd1na2vs0mg"},{"bike_id":"67b9eb05-c36e-4582-9b61-98d56d57348d","system_id":"levelo_inurba_marseille","lat":43.26058,"lon":5.39397,"is_reserved":false,"is_disabled":false,"rental_uris":{"android":"levelo://app?vid=67b9eb05-c36e-4582-9b61-98d56d57348d","ios":"levelo://app?vid=67b9eb05-c36e-4582-9b61-98d56d57348d"},"vehicle_type_id":"4","last_reported":1727543197,"current_range_meters":36800,"station_id":"ce4bhh92rcd13ifvqfj0","pricing_plan_id":"cebpf4jnsgd1na2vs0mg"},{"bike_id":"5e8aca01-0f4e-4162-a12a-f053d895f3b3","system_id":"levelo_inurba_marseille","lat":43.2804,"lon":5.36954,"is_reserved":false,"is_disabled":false,"rental_uris":{"android":"levelo://app?vid=5e8aca01-0f4e-4162-a12a-f053d895f3b3","ios":"levelo://app?vid=5e8aca01-0f4e-4162-a12a-f053d895f3b3"},"vehicle_type_id":"4","last_reported":1727543197,"current_range_meters":38800,"station_id":"ce4bha12rcd13ifvqef0","pricing_plan_id":"cebpf4jnsgd1na2vs0mg"},{"bike_id":"cfe1b40a-7d54-4403-9f00-26c271750aac","system_id":"levelo_inurba_marseille","lat":43.24545,"lon":5.39531,"is_reserved":false,"is_disabled":false,"rental_uris":{"android":"levelo://app?vid=cfe1b40a-7d54-4403-9f00-26c271750aac","ios":"levelo://app?vid=cfe1b40a-7d54-4403-9f00-26c271750aac"},"vehicle_type_id":"4","last_reported":1727543197,"current_range_meters":38800,"station_id":"ce4bhlp2rcd13ifvqgjg","pricing_plan_id":"cebpf4jnsgd1na2vs0mg"},{"bike_id":"c731dec1-70eb-48f0-9511-87e768437680","system_id":"levelo_inurba_marseille","lat":43.31277,"lon":5.40164,"is_reserved":false,"is_disabled":false,"rental_uris":{"android":"levelo://app?vid=c731dec1-70eb-48f0-9511-87e768437680","ios":"levelo://app?vid=c731dec1-70eb-48f0-9511-87e768437680"},"vehicle_type_id":"4","last_reported":1727543197,"current_range_meters":35600,"station_id":"ce4bh092rcd13ifvqd30","pricing_plan_id":"cebpf4jnsgd1na2vs0mg"},{"bike_id":"c47b7dfd-0594-4552-8d2a-3fdb32d47594","system_id":"levelo_inurba_marseille","lat":43.30953,"lon":5.39029,"is_reserved":false,"is_disabled":false,"rental_uris":{"android":"levelo://app?vid=c47b7dfd-0594-4552-8d2a-3fdb32d47594","ios":"levelo://app?vid=c47b7dfd-0594-4552-8d2a-3fdb32d47594"},"vehicle_type_id":"4","last_reported":1727543197,"current_range_meters":32000,"station_id":"ce4bgup2rcd13ifvqco0","pricing_plan_id":"cebpf4jnsgd1na2vs0mg"},{"bike_id":"70d08ff5-32c3-4b16-8596-00268e0e2098","system_id":"levelo_inurba_marseille","lat":43.28616,"lon":5.35108,"is_reserved":false,"is_disabled":false,"rental_uris":{"android":"levelo://app?vid=70d08ff5-32c3-4b16-8596-00268e0e2098","ios":"levelo://app?vid=70d08ff5-32c3-4b16-8596-00268e0e2098"},"vehicle_type_id":"4","last_reported":1727543197,"current_range_meters":37600,"station_id":"ce4bhch2rcd13ifvqeug","pricing_plan_id":"cebpf4jnsgd1na2vs0mg"},{"bike_id":"0568c567-b1f5-4d37-a0e9-83b1906a1f0b","system_id":"levelo_inurba_marseille","lat":43.2919,"lon":5.35817,"is_reserved":false,"is_disabled":false,"rental_uris":{"android":"levelo://app?vid=0568c567-b1f5-4d37-a0e9-83b1906a1f0b","ios":"levelo://app?vid=0568c567-b1f5-4d37-a0e9-83b1906a1f0b"},"vehicle_type_id":"4","last_reported":1727543197,"current_range_meters":3600,"station_id":"ce4bhb12rcd13ifvqel0","pricing_plan_id":"cebpf4jnsgd1na2vs0mg"},{"bike_id":"d8e39119-8071-4591-9c9f-95589d42449d","system_id":"levelo_inurba_marseille","lat":43.28705,"lon":5.374,"is_reserved":false,"is_disabled":false,"rental_uris":{"android":"levelo://app?vid=d8e39119-8071-4591-9c9f-95589d42449d","ios":"levelo://app?vid=d8e39119-8071-4591-9c9f-95589d42449d"},"vehicle_type_id":"4","last_reported":1727543197,"current_range_meters":27600,"station_id":"ce4bh3p2rcd13ifvqdq0","pricing_plan_id":"cebpf4jnsgd1na2vs0mg"},{"bike_id":"e1ae5095-a31b-450c-acdf-f378f111cc7a","system_id":"levelo_inurba_marseille","lat":43.30178,"lon":5.36613,"is_reserved":false,"is_disabled":false,"rental_uris":{"android":"levelo://app?vid=e1ae5095-a31b-450c-acdf-f378f111cc7a","ios":"levelo://app?vid=e1ae5095-a31b-450c-acdf-f378f111cc7a"},"vehicle_type_id":"4","last_reported":1727543197,"current_range_meters":20800,"station_id":"ce4bgrh2rcd13ifvqc8g","pricing_plan_id":"cebpf4jnsgd1na2vs0mg"},{"bike_id":"34f37300-2932-4474-8f8b-ad0ac2259c28","system_id":"levelo_inurba_marseille","lat":43.3059,"lon":5.39359,"is_reserved":false,"is_disabled":false,"rental_uris":{"android":"levelo://app?vid=34f37300-2932-4474-8f8b-ad0ac2259c28","ios":"levelo://app?vid=34f37300-2932-4474-8f8b-ad0ac2259c28"},"vehicle_type_id":"4","last_reported":1727543197,"current_range_meters":14800,"station_id":"ce4bh0p2rcd13ifvqd80","pricing_plan_id":"cebpf4jnsgd1na2vs0mg"},{"bike_id":"86d261f1-f6dd-4ae0-9588-054f5287a485","system_id":"levelo_inurba_marseille","lat":43.29519,"lon":5.39048,"is_reserved":false,"is_disabled":false,"rental_uris":{"android":"levelo://app?vid=86d261f1-f6dd-4ae0-9588-054f5287a485","ios":"levelo://app?vid=86d261f1-f6dd-4ae0-9588-054f5287a485"},"vehicle_type_id":"4","last_reported":1727543197,"current_range_meters":20800,"station_id":"ce4bh3p2rcd13ifvqdp0","pricing_plan_id":"cebpf4jnsgd1na2vs0mg"},{"bike_id":"cf2a99f0-171d-46e2-b5f9-b8e518581e33","system_id":"levelo_inurba_marseille","lat":43.23961,"lon":5.366287,"is_reserved":false,"is_disabled":false,"rental_uris":{"android":"levelo://app?vid=cf2a99f0-171d-46e2-b5f9-b8e518581e33","ios":"levelo://app?vid=cf2a99f0-171d-46e2-b5f9-b8e518581e33"},"vehicle_type_id":"4","last_reported":1727543197,"current_range_meters":36800,"station_id":"ce4bhi12rcd13ifvqfp0","pricing_plan_id":"cebpf4jnsgd1na2vs0mg"},{"bike_id":"061bd422-f808-4795-8d03-8071b8a929fb","system_id":"levelo_inurba_marseille","lat":43.300873,"lon":5.365951,"is_reserved":false,"is_disabled":false,"rental_uris":{"android":"levelo://app?vid=061bd422-f808-4795-8d03-8071b8a929fb","ios":"levelo://app?vid=061bd422-f808-4795-8d03-8071b8a929fb"},"vehicle_type_id":"4","last_reported":1727543197,"current_range_meters":31200,"station_id":"ce4bgrh2rcd13ifvqc8g","pricing_plan_id":"cebpf4jnsgd1na2vs0mg"},{"bike_id":"af27e55c-9092-4f57-a5c6-7251428e651f","system_id":"levelo_inurba_marseille","lat":43.23199,"lon":5.35547,"is_reserved":false,"is_disabled":false,"rental_uris":{"android":"levelo://app?vid=af27e55c-9092-4f57-a5c6-7251428e651f","ios":"levelo://app?vid=af27e55c-9092-4f57-a5c6-7251428e651f"},"vehicle_type_id":"4","last_reported":1727543197,"current_range_meters":14800,"station_id":"ce4bhu92rcd13ifvqi70","pricing_plan_id":"cebpf4jnsgd1na2vs0mg"},{"bike_id":"fdb61897-97d0-4689-adc4-02e79ee31d57","system_id":"levelo_inurba_marseille","lat":43.23959,"lon":5.36624,"is_reserved":false,"is_disabled":false,"rental_uris":{"android":"levelo://app?vid=fdb61897-97d0-4689-adc4-02e79ee31d57","ios":"levelo://app?vid=fdb61897-97d0-4689-adc4-02e79ee31d57"},"vehicle_type_id":"4","last_reported":1727543197,"current_range_meters":38800,"station_id":"ce4bhi12rcd13ifvqfp0","pricing_plan_id":"cebpf4jnsgd1na2vs0mg"},{"bike_id":"52f17877-110a-422d-89ae-fdeda162e6f3","system_id":"levelo_inurba_marseille","lat":43.23959,"lon":5.36629,"is_reserved":false,"is_disabled":false,"rental_uris":{"android":"levelo://app?vid=52f17877-110a-422d-89ae-fdeda162e6f3","ios":"levelo://app?vid=52f17877-110a-422d-89ae-fdeda162e6f3"},"vehicle_type_id":"4","last_reported":1727543197,"current_range_meters":10800,"station_id":"ce4bhi12rcd13ifvqfp0","pricing_plan_id":"cebpf4jnsgd1na2vs0mg"},{"bike_id":"7a8f28c6-ab6f-49c3-b59d-8e597cfc4655","system_id":"levelo_inurba_marseille","lat":43.33724,"lon":5.39177,"is_reserved":false,"is_disabled":false,"rental_uris":{"android":"levelo://app?vid=7a8f28c6-ab6f-49c3-b59d-8e597cfc4655","ios":"levelo://app?vid=7a8f28c6-ab6f-49c3-b59d-8e597cfc4655"},"vehicle_type_id":"4","last_reported":1727543197,"current_range_meters":23200,"station_id":"ce4bhr92rcd13ifvqhsg","pricing_plan_id":"cebpf4jnsgd1na2vs0mg"},{"bike_id":"a5dfdf15-cd4d-44ef-8773-9581105a7fbb","system_id":"levelo_inurba_marseille","lat":43.28076,"lon":5.39665,"is_reserved":false,"is_disabled":false,"rental_uris":{"android":"levelo://app?vid=a5dfdf15-cd4d-44ef-8773-9581105a7fbb","ios":"levelo://app?vid=a5dfdf15-cd4d-44ef-8773-9581105a7fbb"},"vehicle_type_id":"4","last_reported":1727543197,"current_range_meters":3600,"station_id":"ce4bho12rcd13ifvqh2g","pricing_plan_id":"cebpf4jnsgd1na2vs0mg"},{"bike_id":"8706dbad-74a1-4401-bd4a-b4ae01455ac4","system_id":"levelo_inurba_marseille","lat":43.27622,"lon":5.36109,"is_reserved":false,"is_disabled":false,"rental_uris":{"android":"levelo://app?vid=8706dbad-74a1-4401-bd4a-b4ae01455ac4","ios":"levelo://app?vid=8706dbad-74a1-4401-bd4a-b4ae01455ac4"},"vehicle_type_id":"4","last_reported":1727543197,"current_range_meters":21600,"station_id":"ce4bgj92rcd13ifvqbe0","pricing_plan_id":"cebpf4jnsgd1na2vs0mg"},{"bike_id":"7d739b4b-22ab-442e-91eb-99f38aeaca84","system_id":"levelo_inurba_marseille","lat":43.28466,"lon":5.35896,"is_reserved":false,"is_disabled":false,"rental_uris":{"android":"levelo://app?vid=7d739b4b-22ab-442e-91eb-99f38aeaca84","ios":"levelo://app?vid=7d739b4b-22ab-442e-91eb-99f38aeaca84"},"vehicle_type_id":"4","last_reported":1727543197,"current_range_meters":22000,"station_id":"ce4bhah2rcd13ifvqei0","pricing_plan_id":"cebpf4jnsgd1na2vs0mg"},{"bike_id":"9e0e602a-711e-4e75-a4b3-f0d70db8f823","system_id":"levelo_inurba_marseille","lat":43.23964,"lon":5.36631,"is_reserved":false,"is_disabled":false,"rental_uris":{"android":"levelo://app?vid=9e0e602a-711e-4e75-a4b3-f0d70db8f823","ios":"levelo://app?vid=9e0e602a-711e-4e75-a4b3-f0d70db8f823"},"vehicle_type_id":"4","last_reported":1727543197,"current_range_meters":19200,"station_id":"ce4bhi12rcd13ifvqfp0","pricing_plan_id":"cebpf4jnsgd1na2vs0mg"},{"bike_id":"0c2b7437-4cb0-4130-8cd7-57c6b1e13086","system_id":"levelo_inurba_marseille","lat":43.31278,"lon":5.40177,"is_reserved":false,"is_disabled":false,"rental_uris":{"android":"levelo://app?vid=0c2b7437-4cb0-4130-8cd7-57c6b1e13086","ios":"levelo://app?vid=0c2b7437-4cb0-4130-8cd7-57c6b1e13086"},"vehicle_type_id":"4","last_reported":1727543197,"current_range_meters":6800,"station_id":"ce4bh092rcd13ifvqd30","pricing_plan_id":"cebpf4jnsgd1na2vs0mg"},{"bike_id":"b39bca7b-2d92-4d3b-80ea-584a93fabcbd","system_id":"levelo_inurba_marseille","lat":43.31725,"lon":5.424,"is_reserved":false,"is_disabled":false,"rental_uris":{"android":"levelo://app?vid=b39bca7b-2d92-4d3b-80ea-584a93fabcbd","ios":"levelo://app?vid=b39bca7b-2d92-4d3b-80ea-584a93fabcbd"},"vehicle_type_id":"4","last_reported":1727543197,"current_range_meters":22400,"station_id":"ce4bhp92rcd13ifvqhbg","pricing_plan_id":"cebpf4jnsgd1na2vs0mg"},{"bike_id":"78ae8c70-8860-4898-8aab-3d709ac468d5","system_id":"levelo_inurba_marseille","lat":43.29873,"lon":5.39736,"is_reserved":false,"is_disabled":false,"rental_uris":{"android":"levelo://app?vid=78ae8c70-8860-4898-8aab-3d709ac468d5","ios":"levelo://app?vid=78ae8c70-8860-4898-8aab-3d709ac468d5"},"vehicle_type_id":"4","last_reported":1727543197,"current_range_meters":24800,"station_id":"ce4bh0h2rcd13ifvqd50","pricing_plan_id":"cebpf4jnsgd1na2vs0mg"},{"bike_id":"79446ac5-9152-4d54-ba2d-34b299a7cd16","system_id":"levelo_inurba_marseille","lat":43.29309,"lon":5.37177,"is_reserved":false,"is_disabled":false,"rental_uris":{"android":"levelo://app?vid=79446ac5-9152-4d54-ba2d-34b299a7cd16","ios":"levelo://app?vid=79446ac5-9152-4d54-ba2d-34b299a7cd16"},"vehicle_type_id":"4","last_reported":1727543197,"current_range_meters":32800,"station_id":"ce4bgh92rcd13ifvqb40","pricing_plan_id":"cebpf4jnsgd1na2vs0mg"},{"bike_id":"67f10b04-27c2-4902-8b8e-506c4ac38649","system_id":"levelo_inurba_marseille","lat":43.29911,"lon":5.37481,"is_reserved":false,"is_disabled":false,"rental_uris":{"android":"levelo://app?vid=67f10b04-27c2-4902-8b8e-506c4ac38649","ios":"levelo://app?vid=67f10b04-27c2-4902-8b8e-506c4ac38649"},"vehicle_type_id":"4","last_reported":1727543197,"current_range_meters":31200,"station_id":"ce4bgjh2rcd13ifvqbg0","pricing_plan_id":"cebpf4jnsgd1na2vs0mg"},{"bike_id":"8bcd771f-6ba8-4e95-b4f9-e79f143fe869","system_id":"levelo_inurba_marseille","lat":43.29313,"lon":5.37459,"is_reserved":false,"is_disabled":false,"rental_uris":{"android":"levelo://app?vid=8bcd771f-6ba8-4e95-b4f9-e79f143fe869","ios":"levelo://app?vid=8bcd771f-6ba8-4e95-b4f9-e79f143fe869"},"vehicle_type_id":"4","last_reported":1727543197,"current_range_meters":22000,"station_id":"ce4bgi12rcd13ifvqb70","pricing_plan_id":"cebpf4jnsgd1na2vs0mg"},{"bike_id":"68ac8aaf-d7d6-417b-ac9f-3084c80a8726","system_id":"levelo_inurba_marseille","lat":43.300577,"lon":5.396651,"is_reserved":false,"is_disabled":false,"rental_uris":{"android":"levelo://app?vid=68ac8aaf-d7d6-417b-ac9f-3084c80a8726","ios":"levelo://app?vid=68ac8aaf-d7d6-417b-ac9f-3084c80a8726"},"vehicle_type_id":"4","last_reported":1727543197,"current_range_meters":9600,"station_id":"ce4bh0h2rcd13ifvqd50","pricing_plan_id":"cebpf4jnsgd1na2vs0mg"},{"bike_id":"57fe0184-8a96-44f9-9771-760121da5aad","system_id":"levelo_inurba_marseille","lat":43.28677,"lon":5.38674,"is_reserved":false,"is_disabled":false,"rental_uris":{"android":"levelo://app?vid=57fe0184-8a96-44f9-9771-760121da5aad","ios":"levelo://app?vid=57fe0184-8a96-44f9-9771-760121da5aad"},"vehicle_type_id":"4","last_reported":1727543197,"current_range_meters":10800,"station_id":"ce4bh492rcd13ifvqdug","pricing_plan_id":"cebpf4jnsgd1na2vs0mg"},{"bike_id":"8c0c434c-89a6-42b1-b7ef-34f62da18be8","system_id":"levelo_inurba_marseille","lat":43.28616,"lon":5.35108,"is_reserved":false,"is_disabled":false,"rental_uris":{"android":"levelo://app?vid=8c0c434c-89a6-42b1-b7ef-34f62da18be8","ios":"levelo://app?vid=8c0c434c-89a6-42b1-b7ef-34f62da18be8"},"vehicle_type_id":"4","last_reported":1727543197,"current_range_meters":28400,"station_id":"ce4bhch2rcd13ifvqeug","pricing_plan_id":"cebpf4jnsgd1na2vs0mg"},{"bike_id":"258e025d-f605-4338-84a0-17f713af0b8d","system_id":"levelo_inurba_marseille","lat":43.24806,"lon":5.37452,"is_reserved":false,"is_disabled":false,"rental_uris":{"android":"levelo://app?vid=258e025d-f605-4338-84a0-17f713af0b8d","ios":"levelo://app?vid=258e025d-f605-4338-84a0-17f713af0b8d"},"vehicle_type_id":"4","last_reported":1727543197,"current_range_meters":38800,"station_id":"ce4bhgh2rcd13ifvqfb0","pricing_plan_id":"cebpf4jnsgd1na2vs0mg"},{"bike_id":"46451405-296c-4f1d-8655-e99e83ef87b7","system_id":"levelo_inurba_marseille","lat":43.312408,"lon":5.380776,"is_reserved":false,"is_disabled":false,"rental_uris":{"android":"levelo://app?vid=46451405-296c-4f1d-8655-e99e83ef87b7","ios":"levelo://app?vid=46451405-296c-4f1d-8655-e99e83ef87b7"},"vehicle_type_id":"4","last_reported":1727543197,"current_range_meters":10800,"station_id":"ce4bhqp2rcd13ifvqhng","pricing_plan_id":"cebpf4jnsgd1na2vs0mg"},{"bike_id":"1f313afb-1cf8-4bb7-8831-2c9f193c2d0c","system_id":"levelo_inurba_marseille","lat":43.24807,"lon":5.37457,"is_reserved":false,"is_disabled":false,"rental_uris":{"android":"levelo://app?vid=1f313afb-1cf8-4bb7-8831-2c9f193c2d0c","ios":"levelo://app?vid=1f313afb-1cf8-4bb7-8831-2c9f193c2d0c"},"vehicle_type_id":"4","last_reported":1727543197,"current_range_meters":38800,"station_id":"ce4bhgh2rcd13ifvqfb0","pricing_plan_id":"cebpf4jnsgd1na2vs0mg"},{"bike_id":"a63d4449-4f5a-4f1c-9a3c-27c8d74bd2a3","system_id":"levelo_inurba_marseille","lat":43.2439,"lon":5.37066,"is_reserved":false,"is_disabled":false,"rental_uris":{"android":"levelo://app?vid=a63d4449-4f5a-4f1c-9a3c-27c8d74bd2a3","ios":"levelo://app?vid=a63d4449-4f5a-4f1c-9a3c-27c8d74bd2a3"},"vehicle_type_id":"4","last_reported":1727543197,"current_range_meters":14800,"station_id":"ce4bhhh2rcd13ifvqfk0","pricing_plan_id":"cebpf4jnsgd1na2vs0mg"},{"bike_id":"f5ce1dd5-1b7f-45b6-982e-c09f98017d75","system_id":"levelo_inurba_marseille","lat":43.313599,"lon":5.384903,"is_reserved":false,"is_disabled":false,"rental_uris":{"android":"levelo://app?vid=f5ce1dd5-1b7f-45b6-982e-c09f98017d75","ios":"levelo://app?vid=f5ce1dd5-1b7f-45b6-982e-c09f98017d75"},"vehicle_type_id":"4","last_reported":1727543197,"current_range_meters":30000,"station_id":"ce4bgt92rcd13ifvqcf0","pricing_plan_id":"cebpf4jnsgd1na2vs0mg"},{"bike_id":"982e227b-9f08-4cfa-88eb-fdc06dcf73a3","system_id":"levelo_inurba_marseille","lat":43.2885,"lon":5.35851,"is_reserved":false,"is_disabled":false,"rental_uris":{"android":"levelo://app?vid=982e227b-9f08-4cfa-88eb-fdc06dcf73a3","ios":"levelo://app?vid=982e227b-9f08-4cfa-88eb-fdc06dcf73a3"},"vehicle_type_id":"4","last_reported":1727543197,"current_range_meters":19200,"station_id":"ce4bhb12rcd13ifvqem0","pricing_plan_id":"cebpf4jnsgd1na2vs0mg"},{"bike_id":"bc7dc6a9-589f-4649-9e06-6ce7434d3293","system_id":"levelo_inurba_marseille","lat":43.2866,"lon":5.36351,"is_reserved":false,"is_disabled":false,"rental_uris":{"android":"levelo://app?vid=bc7dc6a9-589f-4649-9e06-6ce7434d3293","ios":"levelo://app?vid=bc7dc6a9-589f-4649-9e06-6ce7434d3293"},"vehicle_type_id":"4","last_reported":1727543197,"current_range_meters":24800,"station_id":"ce4bhah2rcd13ifvqej0","pricing_plan_id":"cebpf4jnsgd1na2vs0mg"},{"bike_id":"f8cd1665-2182-42bb-993d-799437deb95c","system_id":"levelo_inurba_marseille","lat":43.2319,"lon":5.355677,"is_reserved":false,"is_disabled":false,"rental_uris":{"android":"levelo://app?vid=f8cd1665-2182-42bb-993d-799437deb95c","ios":"levelo://app?vid=f8cd1665-2182-42bb-993d-799437deb95c"},"vehicle_type_id":"4","last_reported":1727543197,"current_range_meters":7200,"station_id":"ce4bhu92rcd13ifvqi70","pricing_plan_id":"cebpf4jnsgd1na2vs0mg"},{"bike_id":"8cb188db-56d1-4e00-b44d-e5a201a21d6e","system_id":"levelo_inurba_marseille","lat":43.26193,"lon":5.374458,"is_reserved":false,"is_disabled":false,"rental_uris":{"android":"levelo://app?vid=8cb188db-56d1-4e00-b44d-e5a201a21d6e","ios":"levelo://app?vid=8cb188db-56d1-4e00-b44d-e5a201a21d6e"},"vehicle_type_id":"4","last_reported":1727543197,"current_range_meters":32000,"station_id":"ce4bhgp2rcd13ifvqfc0","pricing_plan_id":"cebpf4jnsgd1na2vs0mg"},{"bike_id":"866038b6-135f-4d3b-95ac-dec3bfe4bca9","system_id":"levelo_inurba_marseille","lat":43.327003,"lon":5.408006,"is_reserved":false,"is_disabled":false,"rental_uris":{"android":"levelo://app?vid=866038b6-135f-4d3b-95ac-dec3bfe4bca9","ios":"levelo://app?vid=866038b6-135f-4d3b-95ac-dec3bfe4bca9"},"vehicle_type_id":"4","last_reported":1727543197,"current_range_meters":16400,"station_id":"ce4bhpp2rcd13ifvqhgg","pricing_plan_id":"cebpf4jnsgd1na2vs0mg"},{"bike_id":"c20aa169-0982-4da6-8a27-37e8c5a04ddc","system_id":"levelo_inurba_marseille","lat":43.24393,"lon":5.37066,"is_reserved":false,"is_disabled":false,"rental_uris":{"android":"levelo://app?vid=c20aa169-0982-4da6-8a27-37e8c5a04ddc","ios":"levelo://app?vid=c20aa169-0982-4da6-8a27-37e8c5a04ddc"},"vehicle_type_id":"4","last_reported":1727543197,"current_range_meters":28800,"station_id":"ce4bhhh2rcd13ifvqfk0","pricing_plan_id":"cebpf4jnsgd1na2vs0mg"},{"bike_id":"90a6fc74-64c2-47e3-af54-b9efe7d64c09","system_id":"levelo_inurba_marseille","lat":43.24683,"lon":5.38212,"is_reserved":false,"is_disabled":false,"rental_uris":{"android":"levelo://app?vid=90a6fc74-64c2-47e3-af54-b9efe7d64c09","ios":"levelo://app?vid=90a6fc74-64c2-47e3-af54-b9efe7d64c09"},"vehicle_type_id":"4","last_reported":1727543197,"current_range_meters":36800,"station_id":"ce4bhlh2rcd13ifvqgig","pricing_plan_id":"cebpf4jnsgd1na2vs0mg"},{"bike_id":"7a461302-f167-4111-92d7-631e3861ed34","system_id":"levelo_inurba_marseille","lat":43.26568,"lon":5.39017,"is_reserved":false,"is_disabled":false,"rental_uris":{"android":"levelo://app?vid=7a461302-f167-4111-92d7-631e3861ed34","ios":"levelo://app?vid=7a461302-f167-4111-92d7-631e3861ed34"},"vehicle_type_id":"4","last_reported":1727543197,"current_range_meters":25600,"station_id":"ce4bhe12rcd13ifvqf30","pricing_plan_id":"cebpf4jnsgd1na2vs0mg"},{"bike_id":"68d58ba5-1730-4af3-868b-3c8f9cfb77e6","system_id":"levelo_inurba_marseille","lat":43.30935,"lon":5.40152,"is_reserved":false,"is_disabled":false,"rental_uris":{"android":"levelo://app?vid=68d58ba5-1730-4af3-868b-3c8f9cfb77e6","ios":"levelo://app?vid=68d58ba5-1730-4af3-868b-3c8f9cfb77e6"},"vehicle_type_id":"4","last_reported":1727543197,"current_range_meters":2000,"station_id":"ce4bgvp2rcd13ifvqct0","pricing_plan_id":"cebpf4jnsgd1na2vs0mg"},{"bike_id":"98cb64c4-b057-4980-ac8c-eaa93863987c","system_id":"levelo_inurba_marseille","lat":43.31274,"lon":5.40178,"is_reserved":false,"is_disabled":false,"rental_uris":{"android":"levelo://app?vid=98cb64c4-b057-4980-ac8c-eaa93863987c","ios":"levelo://app?vid=98cb64c4-b057-4980-ac8c-eaa93863987c"},"vehicle_type_id":"4","last_reported":1727543197,"current_range_meters":28800,"station_id":"ce4bh092rcd13ifvqd30","pricing_plan_id":"cebpf4jnsgd1na2vs0mg"},{"bike_id":"be3d43c6-d695-4955-ad9b-57392bb76d57","system_id":"levelo_inurba_marseille","lat":43.30953,"lon":5.39037,"is_reserved":false,"is_disabled":false,"rental_uris":{"android":"levelo://app?vid=be3d43c6-d695-4955-ad9b-57392bb76d57","ios":"levelo://app?vid=be3d43c6-d695-4955-ad9b-57392bb76d57"},"vehicle_type_id":"4","last_reported":1727543197,"current_range_meters":26800,"station_id":"ce4bgup2rcd13ifvqco0","pricing_plan_id":"cebpf4jnsgd1na2vs0mg"},{"bike_id":"f663f295-c346-4c5d-8e25-19d433cb2d87","system_id":"levelo_inurba_marseille","lat":43.30926,"lon":5.40145,"is_reserved":false,"is_disabled":false,"rental_uris":{"android":"levelo://app?vid=f663f295-c346-4c5d-8e25-19d433cb2d87","ios":"levelo://app?vid=f663f295-c346-4c5d-8e25-19d433cb2d87"},"vehicle_type_id":"4","last_reported":1727543197,"current_range_meters":10000,"station_id":"ce4bgvp2rcd13ifvqct0","pricing_plan_id":"cebpf4jnsgd1na2vs0mg"},{"bike_id":"3b170ecf-4bbb-421f-886d-94818fba1de8","system_id":"levelo_inurba_marseille","lat":43.28489,"lon":5.40031,"is_reserved":false,"is_disabled":false,"rental_uris":{"android":"levelo://app?vid=3b170ecf-4bbb-421f-886d-94818fba1de8","ios":"levelo://app?vid=3b170ecf-4bbb-421f-886d-94818fba1de8"},"vehicle_type_id":"4","last_reported":1727543197,"current_range_meters":36800,"station_id":"ce4bh2h2rcd13ifvqdh0","pricing_plan_id":"cebpf4jnsgd1na2vs0mg"},{"bike_id":"8bda29df-62ae-4746-b0e6-96b3feebbbb0","system_id":"levelo_inurba_marseille","lat":43.29029,"lon":5.38663,"is_reserved":false,"is_disabled":false,"rental_uris":{"android":"levelo://app?vid=8bda29df-62ae-4746-b0e6-96b3feebbbb0","ios":"levelo://app?vid=8bda29df-62ae-4746-b0e6-96b3feebbbb0"},"vehicle_type_id":"4","last_reported":1727543197,"current_range_meters":8400,"station_id":"ce4bh4p2rcd13ifvqe0g","pricing_plan_id":"cebpf4jnsgd1na2vs0mg"},{"bike_id":"53100dda-70bc-456e-a6bd-080fc1b3a164","system_id":"levelo_inurba_marseille","lat":43.30097,"lon":5.39086,"is_reserved":false,"is_disabled":false,"rental_uris":{"android":"levelo://app?vid=53100dda-70bc-456e-a6bd-080fc1b3a164","ios":"levelo://app?vid=53100dda-70bc-456e-a6bd-080fc1b3a164"},"vehicle_type_id":"4","last_reported":1727543197,"current_range_meters":38800,"station_id":"ce4bh192rcd13ifvqdb0","pricing_plan_id":"cebpf4jnsgd1na2vs0mg"},{"bike_id":"1b5c59f8-89a9-4e46-93f7-af2461aa251a","system_id":"levelo_inurba_marseille","lat":43.23964,"lon":5.36629,"is_reserved":false,"is_disabled":false,"rental_uris":{"android":"levelo://app?vid=1b5c59f8-89a9-4e46-93f7-af2461aa251a","ios":"levelo://app?vid=1b5c59f8-89a9-4e46-93f7-af2461aa251a"},"vehicle_type_id":"4","last_reported":1727543197,"current_range_meters":9600,"station_id":"ce4bhi12rcd13ifvqfp0","pricing_plan_id":"cebpf4jnsgd1na2vs0mg"},{"bike_id":"7655525e-5912-4059-b3ef-a558b144a0af","system_id":"levelo_inurba_marseille","lat":43.30301,"lon":5.39219,"is_reserved":false,"is_disabled":false,"rental_uris":{"android":"levelo://app?vid=7655525e-5912-4059-b3ef-a558b144a0af","ios":"levelo://app?vid=7655525e-5912-4059-b3ef-a558b144a0af"},"vehicle_type_id":"4","last_reported":1727543197,"current_range_meters":25200,"station_id":"ce4bgkh2rcd13ifvqbk0","pricing_plan_id":"cebpf4jnsgd1na2vs0mg"},{"bike_id":"7a2bc5d1-ed6f-4b69-a9f8-7f2805836db2","system_id":"levelo_inurba_marseille","lat":43.26209,"lon":5.37443,"is_reserved":false,"is_disabled":false,"rental_uris":{"android":"levelo://app?vid=7a2bc5d1-ed6f-4b69-a9f8-7f2805836db2","ios":"levelo://app?vid=7a2bc5d1-ed6f-4b69-a9f8-7f2805836db2"},"vehicle_type_id":"4","last_reported":1727543197,"current_range_meters":24800,"station_id":"ce4bhgp2rcd13ifvqfc0","pricing_plan_id":"cebpf4jnsgd1na2vs0mg"},{"bike_id":"06ee09f6-9559-44dd-86ba-558612a476a8","system_id":"levelo_inurba_marseille","lat":43.28038,"lon":5.36957,"is_reserved":false,"is_disabled":false,"rental_uris":{"android":"levelo://app?vid=06ee09f6-9559-44dd-86ba-558612a476a8","ios":"levelo://app?vid=06ee09f6-9559-44dd-86ba-558612a476a8"},"vehicle_type_id":"4","last_reported":1727543197,"current_range_meters":16800,"station_id":"ce4bha12rcd13ifvqef0","pricing_plan_id":"cebpf4jnsgd1na2vs0mg"},{"bike_id":"d2050c85-c29a-4ee3-81e1-e7e7c304d8f1","system_id":"levelo_inurba_marseille","lat":43.3054,"lon":5.3671,"is_reserved":false,"is_disabled":false,"rental_uris":{"android":"levelo://app?vid=d2050c85-c29a-4ee3-81e1-e7e7c304d8f1","ios":"levelo://app?vid=d2050c85-c29a-4ee3-81e1-e7e7c304d8f1"},"vehicle_type_id":"4","last_reported":1727543197,"current_range_meters":36800,"station_id":"ce4bgrp2rcd13ifvqc9g","pricing_plan_id":"cebpf4jnsgd1na2vs0mg"},{"bike_id":"fff7ca58-9a03-4aea-a8e5-eccdf53b0b4b","system_id":"levelo_inurba_marseille","lat":43.2844,"lon":5.39191,"is_reserved":false,"is_disabled":false,"rental_uris":{"android":"levelo://app?vid=fff7ca58-9a03-4aea-a8e5-eccdf53b0b4b","ios":"levelo://app?vid=fff7ca58-9a03-4aea-a8e5-eccdf53b0b4b"},"vehicle_type_id":"4","last_reported":1727543197,"current_range_meters":38000,"station_id":"ce4bhoh2rcd13ifvqh5g","pricing_plan_id":"cebpf4jnsgd1na2vs0mg"},{"bike_id":"eb35b74a-e100-4849-baf8-86135e114bef","system_id":"levelo_inurba_marseille","lat":43.23157,"lon":5.437,"is_reserved":false,"is_disabled":false,"rental_uris":{"android":"levelo://app?vid=eb35b74a-e100-4849-baf8-86135e114bef","ios":"levelo://app?vid=eb35b74a-e100-4849-baf8-86135e114bef"},"vehicle_type_id":"4","last_reported":1727543197,"current_range_meters":36800,"station_id":"ce4bhmp2rcd13ifvqgog","pricing_plan_id":"cebpf4jnsgd1na2vs0mg"},{"bike_id":"5c3b8ee2-9428-4552-b70d-3573fc8d8649","system_id":"levelo_inurba_marseille","lat":43.23152,"lon":5.43723,"is_reserved":false,"is_disabled":false,"rental_uris":{"android":"levelo://app?vid=5c3b8ee2-9428-4552-b70d-3573fc8d8649","ios":"levelo://app?vid=5c3b8ee2-9428-4552-b70d-3573fc8d8649"},"vehicle_type_id":"4","last_reported":1727543197,"current_range_meters":8000,"station_id":"ce4bhg12rcd13ifvqf80","pricing_plan_id":"cebpf4jnsgd1na2vs0mg"},{"bike_id":"b7edec61-05a9-4448-8725-131f3fa0925d","system_id":"levelo_inurba_marseille","lat":43.30137,"lon":5.37427,"is_reserved":false,"is_disabled":false,"rental_uris":{"android":"levelo://app?vid=b7edec61-05a9-4448-8725-131f3fa0925d","ios":"levelo://app?vid=b7edec61-05a9-4448-8725-131f3fa0925d"},"vehicle_type_id":"4","last_reported":1727543197,"current_range_meters":38800,"station_id":"ce4bgs92rcd13ifvqcc0","pricing_plan_id":"cebpf4jnsgd1na2vs0mg"},{"bike_id":"a9692ede-f9e0-463d-a9c9-4b3cbe161cf3","system_id":"levelo_inurba_marseille","lat":43.31684,"lon":5.40477,"is_reserved":false,"is_disabled":false,"rental_uris":{"android":"levelo://app?vid=a9692ede-f9e0-463d-a9c9-4b3cbe161cf3","ios":"levelo://app?vid=a9692ede-f9e0-463d-a9c9-4b3cbe161cf3"},"vehicle_type_id":"4","last_reported":1727543197,"current_range_meters":16400,"station_id":"ce4bh012rcd13ifvqd00","pricing_plan_id":"cebpf4jnsgd1na2vs0mg"},{"bike_id":"ce73810f-853e-4182-b96b-dcd52955b1d4","system_id":"levelo_inurba_marseille","lat":43.231506,"lon":5.437258,"is_reserved":false,"is_disabled":false,"rental_uris":{"android":"levelo://app?vid=ce73810f-853e-4182-b96b-dcd52955b1d4","ios":"levelo://app?vid=ce73810f-853e-4182-b96b-dcd52955b1d4"},"vehicle_type_id":"4","last_reported":1727543197,"current_range_meters":22400,"station_id":"ce4bhmp2rcd13ifvqgog","pricing_plan_id":"cebpf4jnsgd1na2vs0mg"},{"bike_id":"ceda1303-8e1d-4d6f-8792-80ce6a3025d5","system_id":"levelo_inurba_marseille","lat":43.31722,"lon":5.43678,"is_reserved":false,"is_disabled":false,"rental_uris":{"android":"levelo://app?vid=ceda1303-8e1d-4d6f-8792-80ce6a3025d5","ios":"levelo://app?vid=ceda1303-8e1d-4d6f-8792-80ce6a3025d5"},"vehicle_type_id":"4","last_reported":1727543197,"current_range_meters":5600,"station_id":"ce4bhp92rcd13ifvqhcg","pricing_plan_id":"cebpf4jnsgd1na2vs0mg"},{"bike_id":"8eb5911f-c95e-4f31-a6d6-b3cd459f46bc","system_id":"levelo_inurba_marseille","lat":43.32481,"lon":5.36561,"is_reserved":false,"is_disabled":false,"rental_uris":{"android":"levelo://app?vid=8eb5911f-c95e-4f31-a6d6-b3cd459f46bc","ios":"levelo://app?vid=8eb5911f-c95e-4f31-a6d6-b3cd459f46bc"},"vehicle_type_id":"4","last_reported":1727543197,"current_range_meters":17200,"station_id":"ce4bhs12rcd13ifvqhvg","pricing_plan_id":"cebpf4jnsgd1na2vs0mg"},{"bike_id":"747f18f4-67bb-4a92-9d90-484751577311","system_id":"levelo_inurba_marseille","lat":43.2863,"lon":5.35105,"is_reserved":false,"is_disabled":false,"rental_uris":{"android":"levelo://app?vid=747f18f4-67bb-4a92-9d90-484751577311","ios":"levelo://app?vid=747f18f4-67bb-4a92-9d90-484751577311"},"vehicle_type_id":"4","last_reported":1727543197,"current_range_meters":28800,"station_id":"ce4bhch2rcd13ifvqeug","pricing_plan_id":"cebpf4jnsgd1na2vs0mg"},{"bike_id":"99550dfc-5a03-4d51-af9c-250afb4fd8ba","system_id":"levelo_inurba_marseille","lat":43.27617,"lon":5.3611,"is_reserved":false,"is_disabled":false,"rental_uris":{"android":"levelo://app?vid=99550dfc-5a03-4d51-af9c-250afb4fd8ba","ios":"levelo://app?vid=99550dfc-5a03-4d51-af9c-250afb4fd8ba"},"vehicle_type_id":"4","last_reported":1727543197,"current_range_meters":10000,"station_id":"ce4bgj92rcd13ifvqbe0","pricing_plan_id":"cebpf4jnsgd1na2vs0mg"},{"bike_id":"673c3b95-16f3-4a0c-912a-1d861d9664de","system_id":"levelo_inurba_marseille","lat":43.29004,"lon":5.35619,"is_reserved":false,"is_disabled":false,"rental_uris":{"android":"levelo://app?vid=673c3b95-16f3-4a0c-912a-1d861d9664de","ios":"levelo://app?vid=673c3b95-16f3-4a0c-912a-1d861d9664de"},"vehicle_type_id":"4","last_reported":1727543197,"current_range_meters":24800,"station_id":"ce4bhb92rcd13ifvqen0","pricing_plan_id":"cebpf4jnsgd1na2vs0mg"},{"bike_id":"d9b0248e-4fe9-4b6d-8c8d-c5e07ed87016","system_id":"levelo_inurba_marseille","lat":43.2955,"lon":5.42291,"is_reserved":false,"is_disabled":false,"rental_uris":{"android":"levelo://app?vid=d9b0248e-4fe9-4b6d-8c8d-c5e07ed87016","ios":"levelo://app?vid=d9b0248e-4fe9-4b6d-8c8d-c5e07ed87016"},"vehicle_type_id":"4","last_reported":1727543197,"current_range_meters":22000,"station_id":"ce4bhph2rcd13ifvqhdg","pricing_plan_id":"cebpf4jnsgd1na2vs0mg"},{"bike_id":"3b713495-6c82-4b43-acac-3dc64df8ec5a","system_id":"levelo_inurba_marseille","lat":43.2978,"lon":5.39333,"is_reserved":false,"is_disabled":false,"rental_uris":{"android":"levelo://app?vid=3b713495-6c82-4b43-acac-3dc64df8ec5a","ios":"levelo://app?vid=3b713495-6c82-4b43-acac-3dc64df8ec5a"},"vehicle_type_id":"4","last_reported":1727543197,"current_range_meters":33200,"station_id":"chh1huq6cuj3fo74tm60","pricing_plan_id":"cebpf4jnsgd1na2vs0mg"},{"bike_id":"9efdf05c-571e-4c3a-a0bf-af0e0fbc032d","system_id":"levelo_inurba_marseille","lat":43.25092,"lon":5.39515,"is_reserved":false,"is_disabled":false,"rental_uris":{"android":"levelo://app?vid=9efdf05c-571e-4c3a-a0bf-af0e0fbc032d","ios":"levelo://app?vid=9efdf05c-571e-4c3a-a0bf-af0e0fbc032d"},"vehicle_type_id":"4","last_reported":1727543197,"current_range_meters":23200,"station_id":"ce4bhm12rcd13ifvqgkg","pricing_plan_id":"cebpf4jnsgd1na2vs0mg"},{"bike_id":"d31f8daa-636d-44cc-87f9-977814eb38d0","system_id":"levelo_inurba_marseille","lat":43.3055,"lon":5.36715,"is_reserved":false,"is_disabled":false,"rental_uris":{"android":"levelo://app?vid=d31f8daa-636d-44cc-87f9-977814eb38d0","ios":"levelo://app?vid=d31f8daa-636d-44cc-87f9-977814eb38d0"},"vehicle_type_id":"4","last_reported":1727543197,"current_range_meters":24800,"station_id":"ce4bgrp2rcd13ifvqc9g","pricing_plan_id":"cebpf4jnsgd1na2vs0mg"},{"bike_id":"6b4676b4-342a-4c1f-a13d-81e6837280ad","system_id":"levelo_inurba_marseille","lat":43.31894,"lon":5.40736,"is_reserved":false,"is_disabled":false,"rental_uris":{"android":"levelo://app?vid=6b4676b4-342a-4c1f-a13d-81e6837280ad","ios":"levelo://app?vid=6b4676b4-342a-4c1f-a13d-81e6837280ad"},"vehicle_type_id":"4","last_reported":1727543197,"current_range_meters":33600,"station_id":"ce4bhq12rcd13ifvqhig","pricing_plan_id":"cebpf4jnsgd1na2vs0mg"},{"bike_id":"8537bd26-c143-480b-ac7c-86d2b5338011","system_id":"levelo_inurba_marseille","lat":43.26207,"lon":5.37448,"is_reserved":false,"is_disabled":false,"rental_uris":{"android":"levelo://app?vid=8537bd26-c143-480b-ac7c-86d2b5338011","ios":"levelo://app?vid=8537bd26-c143-480b-ac7c-86d2b5338011"},"vehicle_type_id":"4","last_reported":1727543197,"current_range_meters":6800,"station_id":"ce4bhgp2rcd13ifvqfc0","pricing_plan_id":"cebpf4jnsgd1na2vs0mg"},{"bike_id":"0701cf2a-674c-4c9d-af1e-6650acbaaf74","system_id":"levelo_inurba_marseille","lat":43.28376,"lon":5.37298,"is_reserved":false,"is_disabled":false,"rental_uris":{"android":"levelo://app?vid=0701cf2a-674c-4c9d-af1e-6650acbaaf74","ios":"levelo://app?vid=0701cf2a-674c-4c9d-af1e-6650acbaaf74"},"vehicle_type_id":"4","last_reported":1727543197,"current_range_meters":15200,"station_id":"","pricing_plan_id":"cebpf4jnsgd1na2vs0mg"},{"bike_id":"4a2b3099-b3a7-4872-8384-c1ded8c76e41","system_id":"levelo_inurba_marseille","lat":43.25716,"lon":5.41125,"is_reserved":false,"is_disabled":false,"rental_uris":{"android":"levelo://app?vid=4a2b3099-b3a7-4872-8384-c1ded8c76e41","ios":"levelo://app?vid=4a2b3099-b3a7-4872-8384-c1ded8c76e41"},"vehicle_type_id":"4","last_reported":1727543197,"current_range_meters":7200,"station_id":"ce4bhkp2rcd13ifvqgd0","pricing_plan_id":"cebpf4jnsgd1na2vs0mg"},{"bike_id":"d86317a1-328b-47fe-b46d-82282492c3b2","system_id":"levelo_inurba_marseille","lat":43.28153,"lon":5.42647,"is_reserved":false,"is_disabled":false,"rental_uris":{"android":"levelo://app?vid=d86317a1-328b-47fe-b46d-82282492c3b2","ios":"levelo://app?vid=d86317a1-328b-47fe-b46d-82282492c3b2"},"vehicle_type_id":"4","last_reported":1727543197,"current_range_meters":32800,"station_id":"ce4bhnh2rcd13ifvqgug","pricing_plan_id":"cebpf4jnsgd1na2vs0mg"},{"bike_id":"bbf835fa-62c9-4884-a98b-1287a581ac8d","system_id":"levelo_inurba_marseille","lat":43.281036,"lon":5.378244,"is_reserved":false,"is_disabled":false,"rental_uris":{"android":"levelo://app?vid=bbf835fa-62c9-4884-a98b-1287a581ac8d","ios":"levelo://app?vid=bbf835fa-62c9-4884-a98b-1287a581ac8d"},"vehicle_type_id":"4","last_reported":1727543197,"current_range_meters":16000,"station_id":"ce4bh2p2rcd13ifvqdi0","pricing_plan_id":"cebpf4jnsgd1na2vs0mg"},{"bike_id":"6cdca13d-24d1-4302-912a-54d18c748242","system_id":"levelo_inurba_marseille","lat":43.31083,"lon":5.40132,"is_reserved":false,"is_disabled":false,"rental_uris":{"android":"levelo://app?vid=6cdca13d-24d1-4302-912a-54d18c748242","ios":"levelo://app?vid=6cdca13d-24d1-4302-912a-54d18c748242"},"vehicle_type_id":"4","last_reported":1727543197,"current_range_meters":8400,"station_id":"","pricing_plan_id":"cebpf4jnsgd1na2vs0mg"},{"bike_id":"324f89f8-18a2-4035-a9d0-767c7fe682b1","system_id":"levelo_inurba_marseille","lat":43.29586,"lon":5.37501,"is_reserved":false,"is_disabled":false,"rental_uris":{"android":"levelo://app?vid=324f89f8-18a2-4035-a9d0-767c7fe682b1","ios":"levelo://app?vid=324f89f8-18a2-4035-a9d0-767c7fe682b1"},"vehicle_type_id":"4","last_reported":1727543197,"current_range_meters":39200,"station_id":"ce4bgh92rcd13ifvqb50","pricing_plan_id":"cebpf4jnsgd1na2vs0mg"},{"bike_id":"4b1bc82a-fe6e-4ded-b578-3d2d202b8a25","system_id":"levelo_inurba_marseille","lat":43.27817,"lon":5.40719,"is_reserved":false,"is_disabled":false,"rental_uris":{"android":"levelo://app?vid=4b1bc82a-fe6e-4ded-b578-3d2d202b8a25","ios":"levelo://app?vid=4b1bc82a-fe6e-4ded-b578-3d2d202b8a25"},"vehicle_type_id":"4","last_reported":1727543197,"current_range_meters":30800,"station_id":"ce4bhnh2rcd13ifvqgtg","pricing_plan_id":"cebpf4jnsgd1na2vs0mg"},{"bike_id":"ca7f0a51-ec6b-44a9-84e1-edecee7f43b7","system_id":"levelo_inurba_marseille","lat":43.30543,"lon":5.36702,"is_reserved":false,"is_disabled":false,"rental_uris":{"android":"levelo://app?vid=ca7f0a51-ec6b-44a9-84e1-edecee7f43b7","ios":"levelo://app?vid=ca7f0a51-ec6b-44a9-84e1-edecee7f43b7"},"vehicle_type_id":"4","last_reported":1727543197,"current_range_meters":36800,"station_id":"ce4bgrp2rcd13ifvqc9g","pricing_plan_id":"cebpf4jnsgd1na2vs0mg"},{"bike_id":"da2e7afb-45a7-4193-9960-716c0aa1657b","system_id":"levelo_inurba_marseille","lat":43.32293,"lon":5.38271,"is_reserved":false,"is_disabled":false,"rental_uris":{"android":"levelo://app?vid=da2e7afb-45a7-4193-9960-716c0aa1657b","ios":"levelo://app?vid=da2e7afb-45a7-4193-9960-716c0aa1657b"},"vehicle_type_id":"4","last_reported":1727543197,"current_range_meters":39200,"station_id":"ce4bhr12rcd13ifvqhqg","pricing_plan_id":"cebpf4jnsgd1na2vs0mg"},{"bike_id":"f1e84656-68f5-4f04-806f-787e030e7ed2","system_id":"levelo_inurba_marseille","lat":43.26201,"lon":5.37935,"is_reserved":false,"is_disabled":false,"rental_uris":{"android":"levelo://app?vid=f1e84656-68f5-4f04-806f-787e030e7ed2","ios":"levelo://app?vid=f1e84656-68f5-4f04-806f-787e030e7ed2"},"vehicle_type_id":"4","last_reported":1727543197,"current_range_meters":36400,"station_id":"ce4bhjp2rcd13ifvqg90","pricing_plan_id":"cebpf4jnsgd1na2vs0mg"},{"bike_id":"461e340d-39c6-4038-afc1-a90ec854c734","system_id":"levelo_inurba_marseille","lat":43.29572,"lon":5.37514,"is_reserved":false,"is_disabled":false,"rental_uris":{"android":"levelo://app?vid=461e340d-39c6-4038-afc1-a90ec854c734","ios":"levelo://app?vid=461e340d-39c6-4038-afc1-a90ec854c734"},"vehicle_type_id":"4","last_reported":1727543197,"current_range_meters":19200,"station_id":"ce4bgh92rcd13ifvqb50","pricing_plan_id":"cebpf4jnsgd1na2vs0mg"},{"bike_id":"3407da71-e9f5-4375-9956-506983640a2f","system_id":"levelo_inurba_marseille","lat":43.289948,"lon":5.375874,"is_reserved":false,"is_disabled":false,"rental_uris":{"android":"levelo://app?vid=3407da71-e9f5-4375-9956-506983640a2f","ios":"levelo://app?vid=3407da71-e9f5-4375-9956-506983640a2f"},"vehicle_type_id":"4","last_reported":1727543197,"current_range_meters":28000,"station_id":"ce4bh692rcd13ifvqe90","pricing_plan_id":"cebpf4jnsgd1na2vs0mg"},{"bike_id":"65e8893b-28f1-41e5-bad0-fe455fcd275f","system_id":"levelo_inurba_marseille","lat":43.26487,"lon":5.39546,"is_reserved":false,"is_disabled":false,"rental_uris":{"android":"levelo://app?vid=65e8893b-28f1-41e5-bad0-fe455fcd275f","ios":"levelo://app?vid=65e8893b-28f1-41e5-bad0-fe455fcd275f"},"vehicle_type_id":"4","last_reported":1727543197,"current_range_meters":25200,"station_id":"ce4bhi12rcd13ifvqfq0","pricing_plan_id":"cebpf4jnsgd1na2vs0mg"},{"bike_id":"402d9dc1-e833-4ba5-b5e0-91363ab2c1c2","system_id":"levelo_inurba_marseille","lat":43.24665,"lon":5.38162,"is_reserved":false,"is_disabled":false,"rental_uris":{"android":"levelo://app?vid=402d9dc1-e833-4ba5-b5e0-91363ab2c1c2","ios":"levelo://app?vid=402d9dc1-e833-4ba5-b5e0-91363ab2c1c2"},"vehicle_type_id":"4","last_reported":1727543197,"current_range_meters":26800,"station_id":"ce4bhih2rcd13ifvqfr0","pricing_plan_id":"cebpf4jnsgd1na2vs0mg"},{"bike_id":"b28f6603-bc3e-48a0-85f1-4a516aa60728","system_id":"levelo_inurba_marseille","lat":43.29703,"lon":5.3661,"is_reserved":false,"is_disabled":false,"rental_uris":{"android":"levelo://app?vid=b28f6603-bc3e-48a0-85f1-4a516aa60728","ios":"levelo://app?vid=b28f6603-bc3e-48a0-85f1-4a516aa60728"},"vehicle_type_id":"4","last_reported":1727543197,"current_range_meters":30400,"station_id":"ce4bgn12rcd13ifvqbt0","pricing_plan_id":"cebpf4jnsgd1na2vs0mg"},{"bike_id":"d683260e-cf35-4f18-b4a8-e7e6cd00a9bd","system_id":"levelo_inurba_marseille","lat":43.24993,"lon":5.38949,"is_reserved":false,"is_disabled":false,"rental_uris":{"android":"levelo://app?vid=d683260e-cf35-4f18-b4a8-e7e6cd00a9bd","ios":"levelo://app?vid=d683260e-cf35-4f18-b4a8-e7e6cd00a9bd"},"vehicle_type_id":"4","last_reported":1727543197,"current_range_meters":23200,"station_id":"ce4bhgp2rcd13ifvqfd0","pricing_plan_id":"cebpf4jnsgd1na2vs0mg"},{"bike_id":"b219ffa8-062f-4555-aee7-940d50357d55","system_id":"levelo_inurba_marseille","lat":43.32536,"lon":5.41446,"is_reserved":false,"is_disabled":false,"rental_uris":{"android":"levelo://app?vid=b219ffa8-062f-4555-aee7-940d50357d55","ios":"levelo://app?vid=b219ffa8-062f-4555-aee7-940d50357d55"},"vehicle_type_id":"4","last_reported":1727543197,"current_range_meters":37600,"station_id":"ce4bhq12rcd13ifvqhhg","pricing_plan_id":"cebpf4jnsgd1na2vs0mg"},{"bike_id":"275b0a25-1a9f-498c-9202-be550b06c3de","system_id":"levelo_inurba_marseille","lat":43.32291,"lon":5.38279,"is_reserved":false,"is_disabled":false,"rental_uris":{"android":"levelo://app?vid=275b0a25-1a9f-498c-9202-be550b06c3de","ios":"levelo://app?vid=275b0a25-1a9f-498c-9202-be550b06c3de"},"vehicle_type_id":"4","last_reported":1727543197,"current_range_meters":38400,"station_id":"ce4bhr12rcd13ifvqhqg","pricing_plan_id":"cebpf4jnsgd1na2vs0mg"},{"bike_id":"a840744e-f5ba-493b-a121-a825bd5d67de","system_id":"levelo_inurba_marseille","lat":43.27373,"lon":5.36267,"is_reserved":false,"is_disabled":false,"rental_uris":{"android":"levelo://app?vid=a840744e-f5ba-493b-a121-a825bd5d67de","ios":"levelo://app?vid=a840744e-f5ba-493b-a121-a825bd5d67de"},"vehicle_type_id":"4","last_reported":1727543197,"current_range_meters":38800,"station_id":"ce4bhbh2rcd13ifvqeo0","pricing_plan_id":"cebpf4jnsgd1na2vs0mg"},{"bike_id":"e0448498-1923-4013-96e2-5aec4fc93af7","system_id":"levelo_inurba_marseille","lat":43.24804,"lon":5.37454,"is_reserved":false,"is_disabled":false,"rental_uris":{"android":"levelo://app?vid=e0448498-1923-4013-96e2-5aec4fc93af7","ios":"levelo://app?vid=e0448498-1923-4013-96e2-5aec4fc93af7"},"vehicle_type_id":"4","last_reported":1727543197,"current_range_meters":38400,"station_id":"ce4bhgh2rcd13ifvqfb0","pricing_plan_id":"cebpf4jnsgd1na2vs0mg"},{"bike_id":"7291a136-cbdc-4993-afd4-52959b93adad","system_id":"levelo_inurba_marseille","lat":43.28314,"lon":5.38253,"is_reserved":false,"is_disabled":false,"rental_uris":{"android":"levelo://app?vid=7291a136-cbdc-4993-afd4-52959b93adad","ios":"levelo://app?vid=7291a136-cbdc-4993-afd4-52959b93adad"},"vehicle_type_id":"4","last_reported":1727543197,"current_range_meters":34000,"station_id":"ce4bh412rcd13ifvqdr0","pricing_plan_id":"cebpf4jnsgd1na2vs0mg"},{"bike_id":"0c3f0369-7cdf-4cba-a0db-09435ab8c8da","system_id":"levelo_inurba_marseille","lat":43.23183,"lon":5.4,"is_reserved":false,"is_disabled":false,"rental_uris":{"android":"levelo://app?vid=0c3f0369-7cdf-4cba-a0db-09435ab8c8da","ios":"levelo://app?vid=0c3f0369-7cdf-4cba-a0db-09435ab8c8da"},"vehicle_type_id":"4","last_reported":1727543197,"current_range_meters":30000,"station_id":"ce4bhn12rcd13ifvqgqg","pricing_plan_id":"cebpf4jnsgd1na2vs0mg"},{"bike_id":"28aa05d9-f8ae-4640-8dc4-58681496dc4c","system_id":"levelo_inurba_marseille","lat":43.256982,"lon":5.411022,"is_reserved":false,"is_disabled":false,"rental_uris":{"android":"levelo://app?vid=28aa05d9-f8ae-4640-8dc4-58681496dc4c","ios":"levelo://app?vid=28aa05d9-f8ae-4640-8dc4-58681496dc4c"},"vehicle_type_id":"4","last_reported":1727543197,"current_range_meters":28800,"station_id":"ce4bhkp2rcd13ifvqgd0","pricing_plan_id":"cebpf4jnsgd1na2vs0mg"},{"bike_id":"5a82e63b-00bc-4dd6-999c-0f820645be1c","system_id":"levelo_inurba_marseille","lat":43.31362,"lon":5.38495,"is_reserved":false,"is_disabled":false,"rental_uris":{"android":"levelo://app?vid=5a82e63b-00bc-4dd6-999c-0f820645be1c","ios":"levelo://app?vid=5a82e63b-00bc-4dd6-999c-0f820645be1c"},"vehicle_type_id":"4","last_reported":1727543197,"current_range_meters":6400,"station_id":"ce4bgt92rcd13ifvqcf0","pricing_plan_id":"cebpf4jnsgd1na2vs0mg"},{"bike_id":"24b1bb68-e28a-44be-b7ed-e0b5f174df43","system_id":"levelo_inurba_marseille","lat":43.29303,"lon":5.37177,"is_reserved":false,"is_disabled":false,"rental_uris":{"android":"levelo://app?vid=24b1bb68-e28a-44be-b7ed-e0b5f174df43","ios":"levelo://app?vid=24b1bb68-e28a-44be-b7ed-e0b5f174df43"},"vehicle_type_id":"4","last_reported":1727543197,"current_range_meters":38800,"station_id":"ce4bgh92rcd13ifvqb40","pricing_plan_id":"cebpf4jnsgd1na2vs0mg"},{"bike_id":"4bc85d15-1aa6-4aa1-9a94-ffd023aff9e1","system_id":"levelo_inurba_marseille","lat":43.254974,"lon":5.376511,"is_reserved":false,"is_disabled":false,"rental_uris":{"android":"levelo://app?vid=4bc85d15-1aa6-4aa1-9a94-ffd023aff9e1","ios":"levelo://app?vid=4bc85d15-1aa6-4aa1-9a94-ffd023aff9e1"},"vehicle_type_id":"4","last_reported":1727543197,"current_range_meters":36800,"station_id":"ce4bhh12rcd13ifvqff0","pricing_plan_id":"cebpf4jnsgd1na2vs0mg"},{"bike_id":"d8e32f1c-4c32-4777-922d-4d90b15b71c7","system_id":"levelo_inurba_marseille","lat":43.30863,"lon":5.3685,"is_reserved":false,"is_disabled":false,"rental_uris":{"android":"levelo://app?vid=d8e32f1c-4c32-4777-922d-4d90b15b71c7","ios":"levelo://app?vid=d8e32f1c-4c32-4777-922d-4d90b15b71c7"},"vehicle_type_id":"4","last_reported":1727543197,"current_range_meters":8400,"station_id":"ce4bgn92rcd13ifvqbvg","pricing_plan_id":"cebpf4jnsgd1na2vs0mg"},{"bike_id":"ceefafc3-c6b0-4ae0-b6c9-2dea6ef501b6","system_id":"levelo_inurba_marseille","lat":43.25112,"lon":5.40322,"is_reserved":false,"is_disabled":false,"rental_uris":{"android":"levelo://app?vid=ceefafc3-c6b0-4ae0-b6c9-2dea6ef501b6","ios":"levelo://app?vid=ceefafc3-c6b0-4ae0-b6c9-2dea6ef501b6"},"vehicle_type_id":"4","last_reported":1727543197,"current_range_meters":4000,"station_id":"ce4bhlh2rcd13ifvqgig","pricing_plan_id":"cebpf4jnsgd1na2vs0mg"},{"bike_id":"b470945e-f45c-4291-ac95-d7061c9aab44","system_id":"levelo_inurba_marseille","lat":43.27377,"lon":5.41219,"is_reserved":false,"is_disabled":false,"rental_uris":{"android":"levelo://app?vid=b470945e-f45c-4291-ac95-d7061c9aab44","ios":"levelo://app?vid=b470945e-f45c-4291-ac95-d7061c9aab44"},"vehicle_type_id":"4","last_reported":1727543197,"current_range_meters":27600,"station_id":"","pricing_plan_id":"cebpf4jnsgd1na2vs0mg"},{"bike_id":"5f57d3b2-e1a1-4ce1-b739-6bd02cdfe7db","system_id":"levelo_inurba_marseille","lat":43.29969,"lon":5.38488,"is_reserved":false,"is_disabled":false,"rental_uris":{"android":"levelo://app?vid=5f57d3b2-e1a1-4ce1-b739-6bd02cdfe7db","ios":"levelo://app?vid=5f57d3b2-e1a1-4ce1-b739-6bd02cdfe7db"},"vehicle_type_id":"4","last_reported":1727543197,"current_range_meters":1600,"station_id":"ce4bgj92rcd13ifvqbd0","pricing_plan_id":"cebpf4jnsgd1na2vs0mg"},{"bike_id":"ba48508c-4bf3-4e93-b06c-a1aca97b82ff","system_id":"levelo_inurba_marseille","lat":43.26555,"lon":5.37285,"is_reserved":false,"is_disabled":false,"rental_uris":{"android":"levelo://app?vid=ba48508c-4bf3-4e93-b06c-a1aca97b82ff","ios":"levelo://app?vid=ba48508c-4bf3-4e93-b06c-a1aca97b82ff"},"vehicle_type_id":"4","last_reported":1727543197,"current_range_meters":6400,"station_id":"ce4bhg12rcd13ifvqf70","pricing_plan_id":"cebpf4jnsgd1na2vs0mg"},{"bike_id":"9026801e-b5b2-4b8d-8247-a09c24c535b6","system_id":"levelo_inurba_marseille","lat":43.28082,"lon":5.39663,"is_reserved":false,"is_disabled":false,"rental_uris":{"android":"levelo://app?vid=9026801e-b5b2-4b8d-8247-a09c24c535b6","ios":"levelo://app?vid=9026801e-b5b2-4b8d-8247-a09c24c535b6"},"vehicle_type_id":"4","last_reported":1727543197,"current_range_meters":16400,"station_id":"ce4bho12rcd13ifvqh2g","pricing_plan_id":"cebpf4jnsgd1na2vs0mg"},{"bike_id":"e4361fa2-90d9-45ff-9d8a-e7b112f4e011","system_id":"levelo_inurba_marseille","lat":43.28538,"lon":5.39149,"is_reserved":false,"is_disabled":false,"rental_uris":{"android":"levelo://app?vid=e4361fa2-90d9-45ff-9d8a-e7b112f4e011","ios":"levelo://app?vid=e4361fa2-90d9-45ff-9d8a-e7b112f4e011"},"vehicle_type_id":"4","last_reported":1727543197,"current_range_meters":32000,"station_id":"ce4bh3p2rcd13ifvqdp0","pricing_plan_id":"cebpf4jnsgd1na2vs0mg"},{"bike_id":"b3cc67d9-bd7a-4f33-84d8-c4ba3e328624","system_id":"levelo_inurba_marseille","lat":43.24546,"lon":5.39521,"is_reserved":false,"is_disabled":false,"rental_uris":{"android":"levelo://app?vid=b3cc67d9-bd7a-4f33-84d8-c4ba3e328624","ios":"levelo://app?vid=b3cc67d9-bd7a-4f33-84d8-c4ba3e328624"},"vehicle_type_id":"4","last_reported":1727543197,"current_range_meters":17600,"station_id":"ce4bhlp2rcd13ifvqgjg","pricing_plan_id":"cebpf4jnsgd1na2vs0mg"},{"bike_id":"ed34738a-b351-427b-b7f5-6065bf966755","system_id":"levelo_inurba_marseille","lat":43.28463,"lon":5.35892,"is_reserved":false,"is_disabled":false,"rental_uris":{"android":"levelo://app?vid=ed34738a-b351-427b-b7f5-6065bf966755","ios":"levelo://app?vid=ed34738a-b351-427b-b7f5-6065bf966755"},"vehicle_type_id":"4","last_reported":1727543197,"current_range_meters":4000,"station_id":"ce4bhah2rcd13ifvqei0","pricing_plan_id":"cebpf4jnsgd1na2vs0mg"},{"bike_id":"65f828c7-d12b-47c9-87f8-27b2e7121317","system_id":"levelo_inurba_marseille","lat":43.249973,"lon":5.389302,"is_reserved":false,"is_disabled":false,"rental_uris":{"android":"levelo://app?vid=65f828c7-d12b-47c9-87f8-27b2e7121317","ios":"levelo://app?vid=65f828c7-d12b-47c9-87f8-27b2e7121317"},"vehicle_type_id":"4","last_reported":1727543197,"current_range_meters":12800,"station_id":"ce4bhgp2rcd13ifvqfd0","pricing_plan_id":"cebpf4jnsgd1na2vs0mg"},{"bike_id":"cab45fd0-efbe-42f4-815f-9d32eba24a97","system_id":"levelo_inurba_marseille","lat":43.27899,"lon":5.41209,"is_reserved":false,"is_disabled":false,"rental_uris":{"android":"levelo://app?vid=cab45fd0-efbe-42f4-815f-9d32eba24a97","ios":"levelo://app?vid=cab45fd0-efbe-42f4-815f-9d32eba24a97"},"vehicle_type_id":"4","last_reported":1727543197,"current_range_meters":18000,"station_id":"","pricing_plan_id":"cebpf4jnsgd1na2vs0mg"},{"bike_id":"6eff8d2d-61fa-4715-9388-b30a052d3e98","system_id":"levelo_inurba_marseille","lat":43.337444,"lon":5.374475,"is_reserved":false,"is_disabled":false,"rental_uris":{"android":"levelo://app?vid=6eff8d2d-61fa-4715-9388-b30a052d3e98","ios":"levelo://app?vid=6eff8d2d-61fa-4715-9388-b30a052d3e98"},"vehicle_type_id":"4","last_reported":1727543197,"current_range_meters":32000,"station_id":"","pricing_plan_id":"cebpf4jnsgd1na2vs0mg"},{"bike_id":"0220669e-521a-4139-a412-08b842831111","system_id":"levelo_inurba_marseille","lat":43.29878,"lon":5.38909,"is_reserved":false,"is_disabled":false,"rental_uris":{"android":"levelo://app?vid=0220669e-521a-4139-a412-08b842831111","ios":"levelo://app?vid=0220669e-521a-4139-a412-08b842831111"},"vehicle_type_id":"4","last_reported":1727543197,"current_range_meters":8000,"station_id":"ce4bh392rcd13ifvqdl0","pricing_plan_id":"cebpf4jnsgd1na2vs0mg"},{"bike_id":"c47d44c5-111c-4dd5-9b4c-b916a4d194f5","system_id":"levelo_inurba_marseille","lat":43.25723,"lon":5.41114,"is_reserved":false,"is_disabled":false,"rental_uris":{"android":"levelo://app?vid=c47d44c5-111c-4dd5-9b4c-b916a4d194f5","ios":"levelo://app?vid=c47d44c5-111c-4dd5-9b4c-b916a4d194f5"},"vehicle_type_id":"4","last_reported":1727543197,"current_range_meters":4000,"station_id":"ce4bhkp2rcd13ifvqgd0","pricing_plan_id":"cebpf4jnsgd1na2vs0mg"},{"bike_id":"49103c36-092f-43a6-a665-96ac4218adb8","system_id":"levelo_inurba_marseille","lat":43.32294,"lon":5.38271,"is_reserved":false,"is_disabled":false,"rental_uris":{"android":"levelo://app?vid=49103c36-092f-43a6-a665-96ac4218adb8","ios":"levelo://app?vid=49103c36-092f-43a6-a665-96ac4218adb8"},"vehicle_type_id":"4","last_reported":1727543197,"current_range_meters":39200,"station_id":"ce4bhr12rcd13ifvqhqg","pricing_plan_id":"cebpf4jnsgd1na2vs0mg"},{"bike_id":"543f11b5-3997-4aed-9947-1dd9a0c70485","system_id":"levelo_inurba_marseille","lat":43.26782,"lon":5.39416,"is_reserved":false,"is_disabled":false,"rental_uris":{"android":"levelo://app?vid=543f11b5-3997-4aed-9947-1dd9a0c70485","ios":"levelo://app?vid=543f11b5-3997-4aed-9947-1dd9a0c70485"},"vehicle_type_id":"4","last_reported":1727543197,"current_range_meters":38800,"station_id":"ce4bhh12rcd13ifvqfg0","pricing_plan_id":"cebpf4jnsgd1na2vs0mg"},{"bike_id":"6f0f9c32-de70-4574-9b89-cca29ab0554e","system_id":"levelo_inurba_marseille","lat":43.337444,"lon":5.374475,"is_reserved":false,"is_disabled":false,"rental_uris":{"android":"levelo://app?vid=6f0f9c32-de70-4574-9b89-cca29ab0554e","ios":"levelo://app?vid=6f0f9c32-de70-4574-9b89-cca29ab0554e"},"vehicle_type_id":"4","last_reported":1727543197,"current_range_meters":30000,"station_id":"","pricing_plan_id":"cebpf4jnsgd1na2vs0mg"},{"bike_id":"44839918-e841-4578-a34d-4d8014b09bc8","system_id":"levelo_inurba_marseille","lat":43.31229,"lon":5.36871,"is_reserved":false,"is_disabled":false,"rental_uris":{"android":"levelo://app?vid=44839918-e841-4578-a34d-4d8014b09bc8","ios":"levelo://app?vid=44839918-e841-4578-a34d-4d8014b09bc8"},"vehicle_type_id":"4","last_reported":1727543197,"current_range_meters":38800,"station_id":"ce4bgl92rcd13ifvqbq0","pricing_plan_id":"cebpf4jnsgd1na2vs0mg"},{"bike_id":"fecd1f7a-fcd4-42bd-9449-f81c3865d9cc","system_id":"levelo_inurba_marseille","lat":43.27369,"lon":5.36276,"is_reserved":false,"is_disabled":false,"rental_uris":{"android":"levelo://app?vid=fecd1f7a-fcd4-42bd-9449-f81c3865d9cc","ios":"levelo://app?vid=fecd1f7a-fcd4-42bd-9449-f81c3865d9cc"},"vehicle_type_id":"4","last_reported":1727543197,"current_range_meters":38800,"station_id":"ce4bhbh2rcd13ifvqeo0","pricing_plan_id":"cebpf4jnsgd1na2vs0mg"},{"bike_id":"0687a646-be72-47a3-8907-22e0afb02a46","system_id":"levelo_inurba_marseille","lat":43.23949,"lon":5.36646,"is_reserved":false,"is_disabled":false,"rental_uris":{"android":"levelo://app?vid=0687a646-be72-47a3-8907-22e0afb02a46","ios":"levelo://app?vid=0687a646-be72-47a3-8907-22e0afb02a46"},"vehicle_type_id":"4","last_reported":1727543197,"current_range_meters":35600,"station_id":"ce4bhi12rcd13ifvqfp0","pricing_plan_id":"cebpf4jnsgd1na2vs0mg"},{"bike_id":"cd00f807-363f-44a3-a6d4-09923ffae01c","system_id":"levelo_inurba_marseille","lat":43.28844,"lon":5.39311,"is_reserved":false,"is_disabled":false,"rental_uris":{"android":"levelo://app?vid=cd00f807-363f-44a3-a6d4-09923ffae01c","ios":"levelo://app?vid=cd00f807-363f-44a3-a6d4-09923ffae01c"},"vehicle_type_id":"4","last_reported":1727543197,"current_range_meters":6000,"station_id":"ce4bh2p2rcd13ifvqdi0","pricing_plan_id":"cebpf4jnsgd1na2vs0mg"},{"bike_id":"1d6acec8-8b8f-4282-85cc-168d88725624","system_id":"levelo_inurba_marseille","lat":43.29006,"lon":5.3561,"is_reserved":false,"is_disabled":false,"rental_uris":{"android":"levelo://app?vid=1d6acec8-8b8f-4282-85cc-168d88725624","ios":"levelo://app?vid=1d6acec8-8b8f-4282-85cc-168d88725624"},"vehicle_type_id":"4","last_reported":1727543197,"current_range_meters":17600,"station_id":"ce4bhb92rcd13ifvqen0","pricing_plan_id":"cebpf4jnsgd1na2vs0mg"},{"bike_id":"90c05d40-f5db-4a12-95b3-f8d41ae2e51b","system_id":"levelo_inurba_marseille","lat":43.32377,"lon":5.3892,"is_reserved":false,"is_disabled":false,"rental_uris":{"android":"levelo://app?vid=90c05d40-f5db-4a12-95b3-f8d41ae2e51b","ios":"levelo://app?vid=90c05d40-f5db-4a12-95b3-f8d41ae2e51b"},"vehicle_type_id":"4","last_reported":1727543197,"current_range_meters":33600,"station_id":"ce4bhqp2rcd13ifvqhog","pricing_plan_id":"cebpf4jnsgd1na2vs0mg"},{"bike_id":"ae2fb749-8ab6-4d3c-86ee-082de7ae621f","system_id":"levelo_inurba_marseille","lat":43.302765,"lon":5.400859,"is_reserved":false,"is_disabled":false,"rental_uris":{"android":"levelo://app?vid=ae2fb749-8ab6-4d3c-86ee-082de7ae621f","ios":"levelo://app?vid=ae2fb749-8ab6-4d3c-86ee-082de7ae621f"},"vehicle_type_id":"4","last_reported":1727543197,"current_range_meters":22000,"station_id":"ce4bgvh2rcd13ifvqcs0","pricing_plan_id":"cebpf4jnsgd1na2vs0mg"},{"bike_id":"c60b9931-cee1-4d67-8d25-11c8fb3ef247","system_id":"levelo_inurba_marseille","lat":43.27815,"lon":5.4071,"is_reserved":false,"is_disabled":false,"rental_uris":{"android":"levelo://app?vid=c60b9931-cee1-4d67-8d25-11c8fb3ef247","ios":"levelo://app?vid=c60b9931-cee1-4d67-8d25-11c8fb3ef247"},"vehicle_type_id":"4","last_reported":1727543197,"current_range_meters":31200,"station_id":"ce4bhnh2rcd13ifvqgtg","pricing_plan_id":"cebpf4jnsgd1na2vs0mg"},{"bike_id":"12241df9-d61c-4256-b083-f12b0424b7f1","system_id":"levelo_inurba_marseille","lat":43.29618,"lon":5.37158,"is_reserved":false,"is_disabled":false,"rental_uris":{"android":"levelo://app?vid=12241df9-d61c-4256-b083-f12b0424b7f1","ios":"levelo://app?vid=12241df9-d61c-4256-b083-f12b0424b7f1"},"vehicle_type_id":"4","last_reported":1727543197,"current_range_meters":11600,"station_id":"ce4bgnh2rcd13ifvqc0g","pricing_plan_id":"cebpf4jnsgd1na2vs0mg"},{"bike_id":"9fcb71b8-23d8-4fcd-abcf-98182e2b2bbc","system_id":"levelo_inurba_marseille","lat":43.2804,"lon":5.36945,"is_reserved":false,"is_disabled":false,"rental_uris":{"android":"levelo://app?vid=9fcb71b8-23d8-4fcd-abcf-98182e2b2bbc","ios":"levelo://app?vid=9fcb71b8-23d8-4fcd-abcf-98182e2b2bbc"},"vehicle_type_id":"4","last_reported":1727543197,"current_range_meters":34800,"station_id":"ce4bha12rcd13ifvqef0","pricing_plan_id":"cebpf4jnsgd1na2vs0mg"},{"bike_id":"3357c55b-6f49-4ceb-ad5b-5378b86c00e0","system_id":"levelo_inurba_marseille","lat":43.26816,"lon":5.41113,"is_reserved":false,"is_disabled":false,"rental_uris":{"android":"levelo://app?vid=3357c55b-6f49-4ceb-ad5b-5378b86c00e0","ios":"levelo://app?vid=3357c55b-6f49-4ceb-ad5b-5378b86c00e0"},"vehicle_type_id":"4","last_reported":1727543197,"current_range_meters":21600,"station_id":"","pricing_plan_id":"cebpf4jnsgd1na2vs0mg"},{"bike_id":"849e1fe8-8df0-4784-b3d0-e73b25bc4f4c","system_id":"levelo_inurba_marseille","lat":43.24996,"lon":5.38947,"is_reserved":false,"is_disabled":false,"rental_uris":{"android":"levelo://app?vid=849e1fe8-8df0-4784-b3d0-e73b25bc4f4c","ios":"levelo://app?vid=849e1fe8-8df0-4784-b3d0-e73b25bc4f4c"},"vehicle_type_id":"4","last_reported":1727543197,"current_range_meters":38800,"station_id":"ce4bhgp2rcd13ifvqfd0","pricing_plan_id":"cebpf4jnsgd1na2vs0mg"},{"bike_id":"9d933d2a-f72c-492c-ae3d-eb238dac3442","system_id":"levelo_inurba_marseille","lat":43.317589,"lon":5.390251,"is_reserved":false,"is_disabled":false,"rental_uris":{"android":"levelo://app?vid=9d933d2a-f72c-492c-ae3d-eb238dac3442","ios":"levelo://app?vid=9d933d2a-f72c-492c-ae3d-eb238dac3442"},"vehicle_type_id":"4","last_reported":1727543197,"current_range_meters":17200,"station_id":"ce4bhqp2rcd13ifvqhng","pricing_plan_id":"cebpf4jnsgd1na2vs0mg"},{"bike_id":"8f63cccd-8861-408a-b05e-fdc8a3c250e2","system_id":"levelo_inurba_marseille","lat":43.27067,"lon":5.42291,"is_reserved":false,"is_disabled":false,"rental_uris":{"android":"levelo://app?vid=8f63cccd-8861-408a-b05e-fdc8a3c250e2","ios":"levelo://app?vid=8f63cccd-8861-408a-b05e-fdc8a3c250e2"},"vehicle_type_id":"4","last_reported":1727543197,"current_range_meters":12000,"station_id":"ce4bhk92rcd13ifvqgb0","pricing_plan_id":"cebpf4jnsgd1na2vs0mg"},{"bike_id":"e5bd2914-0215-454b-ab0f-a0a9bc9b6ac8","system_id":"levelo_inurba_marseille","lat":43.29685,"lon":5.37302,"is_reserved":false,"is_disabled":false,"rental_uris":{"android":"levelo://app?vid=e5bd2914-0215-454b-ab0f-a0a9bc9b6ac8","ios":"levelo://app?vid=e5bd2914-0215-454b-ab0f-a0a9bc9b6ac8"},"vehicle_type_id":"4","last_reported":1727543197,"current_range_meters":38800,"station_id":"ce4bgk12rcd13ifvqbj0","pricing_plan_id":"cebpf4jnsgd1na2vs0mg"},{"bike_id":"56b79065-fdd3-4ea0-9c9e-f67f44dae97e","system_id":"levelo_inurba_marseille","lat":43.26682,"lon":5.38273,"is_reserved":false,"is_disabled":false,"rental_uris":{"android":"levelo://app?vid=56b79065-fdd3-4ea0-9c9e-f67f44dae97e","ios":"levelo://app?vid=56b79065-fdd3-4ea0-9c9e-f67f44dae97e"},"vehicle_type_id":"4","last_reported":1727543197,"current_range_meters":19600,"station_id":"ce4bhg92rcd13ifvqf90","pricing_plan_id":"cebpf4jnsgd1na2vs0mg"},{"bike_id":"4ced7e61-0929-481f-8875-e2cf90f386a5","system_id":"levelo_inurba_marseille","lat":43.25733,"lon":5.41113,"is_reserved":false,"is_disabled":false,"rental_uris":{"android":"levelo://app?vid=4ced7e61-0929-481f-8875-e2cf90f386a5","ios":"levelo://app?vid=4ced7e61-0929-481f-8875-e2cf90f386a5"},"vehicle_type_id":"4","last_reported":1727543197,"current_range_meters":13600,"station_id":"ce4bhkp2rcd13ifvqgd0","pricing_plan_id":"cebpf4jnsgd1na2vs0mg"},{"bike_id":"4b7d072d-b721-4e2c-bc68-b737fc5f8319","system_id":"levelo_inurba_marseille","lat":43.29592,"lon":5.38103,"is_reserved":false,"is_disabled":false,"rental_uris":{"android":"levelo://app?vid=4b7d072d-b721-4e2c-bc68-b737fc5f8319","ios":"levelo://app?vid=4b7d072d-b721-4e2c-bc68-b737fc5f8319"},"vehicle_type_id":"4","last_reported":1727543197,"current_range_meters":6800,"station_id":"ce4bgl12rcd13ifvqbo0","pricing_plan_id":"cebpf4jnsgd1na2vs0mg"},{"bike_id":"9b525755-88ce-4be3-9123-cf072c458eba","system_id":"levelo_inurba_marseille","lat":43.29027,"lon":5.39966,"is_reserved":false,"is_disabled":false,"rental_uris":{"android":"levelo://app?vid=9b525755-88ce-4be3-9123-cf072c458eba","ios":"levelo://app?vid=9b525755-88ce-4be3-9123-cf072c458eba"},"vehicle_type_id":"4","last_reported":1727543197,"current_range_meters":16800,"station_id":"ce4bh392rcd13ifvqdm0","pricing_plan_id":"cebpf4jnsgd1na2vs0mg"},{"bike_id":"e1aa580c-775b-4460-b0ed-09b0a6837967","system_id":"levelo_inurba_marseille","lat":43.30949,"lon":5.39028,"is_reserved":false,"is_disabled":false,"rental_uris":{"android":"levelo://app?vid=e1aa580c-775b-4460-b0ed-09b0a6837967","ios":"levelo://app?vid=e1aa580c-775b-4460-b0ed-09b0a6837967"},"vehicle_type_id":"4","last_reported":1727543197,"current_range_meters":30400,"station_id":"ce4bgup2rcd13ifvqco0","pricing_plan_id":"cebpf4jnsgd1na2vs0mg"},{"bike_id":"34548dfe-459f-4ff2-996f-a3c759f92b02","system_id":"levelo_inurba_marseille","lat":43.29028,"lon":5.38653,"is_reserved":false,"is_disabled":false,"rental_uris":{"android":"levelo://app?vid=34548dfe-459f-4ff2-996f-a3c759f92b02","ios":"levelo://app?vid=34548dfe-459f-4ff2-996f-a3c759f92b02"},"vehicle_type_id":"4","last_reported":1727543197,"current_range_meters":27200,"station_id":"ce4bh4p2rcd13ifvqe0g","pricing_plan_id":"cebpf4jnsgd1na2vs0mg"},{"bike_id":"ae420688-5730-4c04-90f7-fb439220597f","system_id":"levelo_inurba_marseille","lat":43.337444,"lon":5.374475,"is_reserved":false,"is_disabled":false,"rental_uris":{"android":"levelo://app?vid=ae420688-5730-4c04-90f7-fb439220597f","ios":"levelo://app?vid=ae420688-5730-4c04-90f7-fb439220597f"},"vehicle_type_id":"4","last_reported":1727543197,"current_range_meters":32800,"station_id":"","pricing_plan_id":"cebpf4jnsgd1na2vs0mg"},{"bike_id":"9a668431-f956-4202-95ab-93a8ecbbcb0b","system_id":"levelo_inurba_marseille","lat":43.31687,"lon":5.4048,"is_reserved":false,"is_disabled":false,"rental_uris":{"android":"levelo://app?vid=9a668431-f956-4202-95ab-93a8ecbbcb0b","ios":"levelo://app?vid=9a668431-f956-4202-95ab-93a8ecbbcb0b"},"vehicle_type_id":"4","last_reported":1727543197,"current_range_meters":20000,"station_id":"ce4bh012rcd13ifvqd00","pricing_plan_id":"cebpf4jnsgd1na2vs0mg"},{"bike_id":"f602a99a-8945-4d4f-8888-b097e0039ba6","system_id":"levelo_inurba_marseille","lat":43.29608,"lon":5.40019,"is_reserved":false,"is_disabled":false,"rental_uris":{"android":"levelo://app?vid=f602a99a-8945-4d4f-8888-b097e0039ba6","ios":"levelo://app?vid=f602a99a-8945-4d4f-8888-b097e0039ba6"},"vehicle_type_id":"4","last_reported":1727543197,"current_range_meters":26000,"station_id":"ce4bh312rcd13ifvqdj0","pricing_plan_id":"cebpf4jnsgd1na2vs0mg"},{"bike_id":"86a71ee8-d43f-4ebe-bee2-169dfe2232ae","system_id":"levelo_inurba_marseille","lat":43.23961,"lon":5.36637,"is_reserved":false,"is_disabled":false,"rental_uris":{"android":"levelo://app?vid=86a71ee8-d43f-4ebe-bee2-169dfe2232ae","ios":"levelo://app?vid=86a71ee8-d43f-4ebe-bee2-169dfe2232ae"},"vehicle_type_id":"4","last_reported":1727543197,"current_range_meters":38000,"station_id":"ce4bhi12rcd13ifvqfp0","pricing_plan_id":"cebpf4jnsgd1na2vs0mg"},{"bike_id":"2aa95e35-181d-4561-8dc4-88cecaab12ea","system_id":"levelo_inurba_marseille","lat":43.29604,"lon":5.38674,"is_reserved":false,"is_disabled":false,"rental_uris":{"android":"levelo://app?vid=2aa95e35-181d-4561-8dc4-88cecaab12ea","ios":"levelo://app?vid=2aa95e35-181d-4561-8dc4-88cecaab12ea"},"vehicle_type_id":"4","last_reported":1727543197,"current_range_meters":2000,"station_id":"","pricing_plan_id":"cebpf4jnsgd1na2vs0mg"},{"bike_id":"37594777-31d5-446f-8a12-556e42cadd36","system_id":"levelo_inurba_marseille","lat":43.30172,"lon":5.36613,"is_reserved":false,"is_disabled":false,"rental_uris":{"android":"levelo://app?vid=37594777-31d5-446f-8a12-556e42cadd36","ios":"levelo://app?vid=37594777-31d5-446f-8a12-556e42cadd36"},"vehicle_type_id":"4","last_reported":1727543197,"current_range_meters":8400,"station_id":"ce4bgrh2rcd13ifvqc8g","pricing_plan_id":"cebpf4jnsgd1na2vs0mg"},{"bike_id":"111833b8-f75c-40c2-be80-510b4024e677","system_id":"levelo_inurba_marseille","lat":43.33025,"lon":5.39051,"is_reserved":false,"is_disabled":false,"rental_uris":{"android":"levelo://app?vid=111833b8-f75c-40c2-be80-510b4024e677","ios":"levelo://app?vid=111833b8-f75c-40c2-be80-510b4024e677"},"vehicle_type_id":"4","last_reported":1727543197,"current_range_meters":18000,"station_id":"ce4bhr92rcd13ifvqhrg","pricing_plan_id":"cebpf4jnsgd1na2vs0mg"},{"bike_id":"2120281d-853d-4458-aec2-de006de68b30","system_id":"levelo_inurba_marseille","lat":43.25584,"lon":5.38224,"is_reserved":false,"is_disabled":false,"rental_uris":{"android":"levelo://app?vid=2120281d-853d-4458-aec2-de006de68b30","ios":"levelo://app?vid=2120281d-853d-4458-aec2-de006de68b30"},"vehicle_type_id":"4","last_reported":1727543197,"current_range_meters":7200,"station_id":"ce4bhih2rcd13ifvqfs0","pricing_plan_id":"cebpf4jnsgd1na2vs0mg"},{"bike_id":"2ad02678-e7c4-4b67-9cb9-02cba4320869","system_id":"levelo_inurba_marseille","lat":43.29007,"lon":5.35614,"is_reserved":false,"is_disabled":false,"rental_uris":{"android":"levelo://app?vid=2ad02678-e7c4-4b67-9cb9-02cba4320869","ios":"levelo://app?vid=2ad02678-e7c4-4b67-9cb9-02cba4320869"},"vehicle_type_id":"4","last_reported":1727543197,"current_range_meters":16800,"station_id":"ce4bhb92rcd13ifvqen0","pricing_plan_id":"cebpf4jnsgd1na2vs0mg"},{"bike_id":"3238da3f-c1e1-4e79-8882-9d0471fd019d","system_id":"levelo_inurba_marseille","lat":43.25006,"lon":5.38932,"is_reserved":false,"is_disabled":false,"rental_uris":{"android":"levelo://app?vid=3238da3f-c1e1-4e79-8882-9d0471fd019d","ios":"levelo://app?vid=3238da3f-c1e1-4e79-8882-9d0471fd019d"},"vehicle_type_id":"4","last_reported":1727543197,"current_range_meters":38800,"station_id":"ce4bhgp2rcd13ifvqfd0","pricing_plan_id":"cebpf4jnsgd1na2vs0mg"},{"bike_id":"8a0e042a-826a-4100-b05e-b74cd1b30fb8","system_id":"levelo_inurba_marseille","lat":43.29906,"lon":5.43684,"is_reserved":false,"is_disabled":false,"rental_uris":{"android":"levelo://app?vid=8a0e042a-826a-4100-b05e-b74cd1b30fb8","ios":"levelo://app?vid=8a0e042a-826a-4100-b05e-b74cd1b30fb8"},"vehicle_type_id":"4","last_reported":1727543197,"current_range_meters":38800,"station_id":"ce4bhpp2rcd13ifvqhfg","pricing_plan_id":"cebpf4jnsgd1na2vs0mg"},{"bike_id":"fd48f9dd-469b-4575-9798-9ec8976ef2a2","system_id":"levelo_inurba_marseille","lat":43.2917,"lon":5.3717,"is_reserved":false,"is_disabled":false,"rental_uris":{"android":"levelo://app?vid=fd48f9dd-469b-4575-9798-9ec8976ef2a2","ios":"levelo://app?vid=fd48f9dd-469b-4575-9798-9ec8976ef2a2"},"vehicle_type_id":"4","last_reported":1727543197,"current_range_meters":6800,"station_id":"ce4bha92rcd13ifvqeh0","pricing_plan_id":"cebpf4jnsgd1na2vs0mg"},{"bike_id":"3a1dc3dd-1746-4f97-a7a9-72b03a705ddd","system_id":"levelo_inurba_marseille","lat":43.25082,"lon":5.3952,"is_reserved":false,"is_disabled":false,"rental_uris":{"android":"levelo://app?vid=3a1dc3dd-1746-4f97-a7a9-72b03a705ddd","ios":"levelo://app?vid=3a1dc3dd-1746-4f97-a7a9-72b03a705ddd"},"vehicle_type_id":"4","last_reported":1727543197,"current_range_meters":10000,"station_id":"ce4bhm12rcd13ifvqgkg","pricing_plan_id":"cebpf4jnsgd1na2vs0mg"},{"bike_id":"80046b3f-c9c2-4f7b-ae88-29d7e08c6fce","system_id":"levelo_inurba_marseille","lat":43.23961,"lon":5.36629,"is_reserved":false,"is_disabled":false,"rental_uris":{"android":"levelo://app?vid=80046b3f-c9c2-4f7b-ae88-29d7e08c6fce","ios":"levelo://app?vid=80046b3f-c9c2-4f7b-ae88-29d7e08c6fce"},"vehicle_type_id":"4","last_reported":1727543197,"current_range_meters":13600,"station_id":"ce4bhi12rcd13ifvqfp0","pricing_plan_id":"cebpf4jnsgd1na2vs0mg"},{"bike_id":"4d318b26-d482-4682-9243-230890c1826a","system_id":"levelo_inurba_marseille","lat":43.25825,"lon":5.3944,"is_reserved":false,"is_disabled":false,"rental_uris":{"android":"levelo://app?vid=4d318b26-d482-4682-9243-230890c1826a","ios":"levelo://app?vid=4d318b26-d482-4682-9243-230890c1826a"},"vehicle_type_id":"4","last_reported":1727543197,"current_range_meters":38800,"station_id":"ce4bhip2rcd13ifvqft0","pricing_plan_id":"cebpf4jnsgd1na2vs0mg"},{"bike_id":"d2bc34c9-69f4-42db-a91e-3b2607a279df","system_id":"levelo_inurba_marseille","lat":43.29022,"lon":5.38146,"is_reserved":false,"is_disabled":false,"rental_uris":{"android":"levelo://app?vid=d2bc34c9-69f4-42db-a91e-3b2607a279df","ios":"levelo://app?vid=d2bc34c9-69f4-42db-a91e-3b2607a279df"},"vehicle_type_id":"4","last_reported":1727543197,"current_range_meters":38800,"station_id":"ce4bh4p2rcd13ifvqe1g","pricing_plan_id":"cebpf4jnsgd1na2vs0mg"},{"bike_id":"5c9bd508-eaa5-417a-938a-fd9637d0a52a","system_id":"levelo_inurba_marseille","lat":43.31364,"lon":5.38498,"is_reserved":false,"is_disabled":false,"rental_uris":{"android":"levelo://app?vid=5c9bd508-eaa5-417a-938a-fd9637d0a52a","ios":"levelo://app?vid=5c9bd508-eaa5-417a-938a-fd9637d0a52a"},"vehicle_type_id":"4","last_reported":1727543197,"current_range_meters":20400,"station_id":"ce4bgt92rcd13ifvqcf0","pricing_plan_id":"cebpf4jnsgd1na2vs0mg"},{"bike_id":"fe4ab254-a1e3-4c19-8e7f-47e70b3ce2a7","system_id":"levelo_inurba_marseille","lat":43.29615,"lon":5.37727,"is_reserved":false,"is_disabled":false,"rental_uris":{"android":"levelo://app?vid=fe4ab254-a1e3-4c19-8e7f-47e70b3ce2a7","ios":"levelo://app?vid=fe4ab254-a1e3-4c19-8e7f-47e70b3ce2a7"},"vehicle_type_id":"4","last_reported":1727543197,"current_range_meters":36400,"station_id":"ce4bgi92rcd13ifvqb90","pricing_plan_id":"cebpf4jnsgd1na2vs0mg"},{"bike_id":"cff56c54-d505-4a49-bacd-23e79cfc82b7","system_id":"levelo_inurba_marseille","lat":43.23961,"lon":5.36621,"is_reserved":false,"is_disabled":false,"rental_uris":{"android":"levelo://app?vid=cff56c54-d505-4a49-bacd-23e79cfc82b7","ios":"levelo://app?vid=cff56c54-d505-4a49-bacd-23e79cfc82b7"},"vehicle_type_id":"4","last_reported":1727543197,"current_range_meters":34800,"station_id":"ce4bhi12rcd13ifvqfp0","pricing_plan_id":"cebpf4jnsgd1na2vs0mg"},{"bike_id":"00d2080a-5ef2-4920-bfb9-15d495b47ce4","system_id":"levelo_inurba_marseille","lat":43.29037,"lon":5.35913,"is_reserved":false,"is_disabled":false,"rental_uris":{"android":"levelo://app?vid=00d2080a-5ef2-4920-bfb9-15d495b47ce4","ios":"levelo://app?vid=00d2080a-5ef2-4920-bfb9-15d495b47ce4"},"vehicle_type_id":"4","last_reported":1727543197,"current_range_meters":30800,"station_id":"ce4bha92rcd13ifvqeg0","pricing_plan_id":"cebpf4jnsgd1na2vs0mg"},{"bike_id":"f2dfe2b2-df65-4a40-a6d7-ded1e815a1f8","system_id":"levelo_inurba_marseille","lat":43.28929,"lon":5.36393,"is_reserved":false,"is_disabled":false,"rental_uris":{"android":"levelo://app?vid=f2dfe2b2-df65-4a40-a6d7-ded1e815a1f8","ios":"levelo://app?vid=f2dfe2b2-df65-4a40-a6d7-ded1e815a1f8"},"vehicle_type_id":"4","last_reported":1727543197,"current_range_meters":38800,"station_id":"ce4bhc92rcd13ifvqetg","pricing_plan_id":"cebpf4jnsgd1na2vs0mg"},{"bike_id":"f076525c-6e03-4249-858d-da1c9b5511d0","system_id":"levelo_inurba_marseille","lat":43.31234,"lon":5.36873,"is_reserved":false,"is_disabled":false,"rental_uris":{"android":"levelo://app?vid=f076525c-6e03-4249-858d-da1c9b5511d0","ios":"levelo://app?vid=f076525c-6e03-4249-858d-da1c9b5511d0"},"vehicle_type_id":"4","last_reported":1727543197,"current_range_meters":23200,"station_id":"ce4bgl92rcd13ifvqbq0","pricing_plan_id":"cebpf4jnsgd1na2vs0mg"},{"bike_id":"b7120a03-a845-455d-a80f-e508887e251e","system_id":"levelo_inurba_marseille","lat":43.28467,"lon":5.38416,"is_reserved":false,"is_disabled":false,"rental_uris":{"android":"levelo://app?vid=b7120a03-a845-455d-a80f-e508887e251e","ios":"levelo://app?vid=b7120a03-a845-455d-a80f-e508887e251e"},"vehicle_type_id":"4","last_reported":1727543197,"current_range_meters":5600,"station_id":"ce4bh512rcd13ifvqe3g","pricing_plan_id":"cebpf4jnsgd1na2vs0mg"},{"bike_id":"0249ad36-c90f-4758-95e6-a40bb4773fac","system_id":"levelo_inurba_marseille","lat":43.30543,"lon":5.36722,"is_reserved":false,"is_disabled":false,"rental_uris":{"android":"levelo://app?vid=0249ad36-c90f-4758-95e6-a40bb4773fac","ios":"levelo://app?vid=0249ad36-c90f-4758-95e6-a40bb4773fac"},"vehicle_type_id":"4","last_reported":1727543197,"current_range_meters":16800,"station_id":"ce4bgrp2rcd13ifvqc9g","pricing_plan_id":"cebpf4jnsgd1na2vs0mg"},{"bike_id":"3ebc134a-3bb4-4e77-a627-6cdc46e4e4b9","system_id":"levelo_inurba_marseille","lat":43.30652,"lon":5.40101,"is_reserved":false,"is_disabled":false,"rental_uris":{"android":"levelo://app?vid=3ebc134a-3bb4-4e77-a627-6cdc46e4e4b9","ios":"levelo://app?vid=3ebc134a-3bb4-4e77-a627-6cdc46e4e4b9"},"vehicle_type_id":"4","last_reported":1727543197,"current_range_meters":38400,"station_id":"ce4bh112rcd13ifvqda0","pricing_plan_id":"cebpf4jnsgd1na2vs0mg"},{"bike_id":"72f04bea-87ff-462d-a51f-4ab9221a2163","system_id":"levelo_inurba_marseille","lat":43.23956,"lon":5.36644,"is_reserved":false,"is_disabled":false,"rental_uris":{"android":"levelo://app?vid=72f04bea-87ff-462d-a51f-4ab9221a2163","ios":"levelo://app?vid=72f04bea-87ff-462d-a51f-4ab9221a2163"},"vehicle_type_id":"4","last_reported":1727543197,"current_range_meters":29600,"station_id":"ce4bhi12rcd13ifvqfp0","pricing_plan_id":"cebpf4jnsgd1na2vs0mg"},{"bike_id":"aceb3ce3-8ae3-4cec-8d17-bb7f48fa559a","system_id":"levelo_inurba_marseille","lat":43.30603,"lon":5.37222,"is_reserved":false,"is_disabled":false,"rental_uris":{"android":"levelo://app?vid=aceb3ce3-8ae3-4cec-8d17-bb7f48fa559a","ios":"levelo://app?vid=aceb3ce3-8ae3-4cec-8d17-bb7f48fa559a"},"vehicle_type_id":"4","last_reported":1727543197,"current_range_meters":32000,"station_id":"ce4bgqh2rcd13ifvqc4g","pricing_plan_id":"cebpf4jnsgd1na2vs0mg"},{"bike_id":"fb531919-d081-4dfd-8564-d0a4b6d4f505","system_id":"levelo_inurba_marseille","lat":43.30257,"lon":5.40061,"is_reserved":false,"is_disabled":false,"rental_uris":{"android":"levelo://app?vid=fb531919-d081-4dfd-8564-d0a4b6d4f505","ios":"levelo://app?vid=fb531919-d081-4dfd-8564-d0a4b6d4f505"},"vehicle_type_id":"4","last_reported":1727543197,"current_range_meters":38800,"station_id":"ce4bgvh2rcd13ifvqcs0","pricing_plan_id":"cebpf4jnsgd1na2vs0mg"},{"bike_id":"3c6529e8-9ff7-415e-8a23-d669c98f504d","system_id":"levelo_inurba_marseille","lat":43.28015,"lon":5.3693,"is_reserved":false,"is_disabled":false,"rental_uris":{"android":"levelo://app?vid=3c6529e8-9ff7-415e-8a23-d669c98f504d","ios":"levelo://app?vid=3c6529e8-9ff7-415e-8a23-d669c98f504d"},"vehicle_type_id":"4","last_reported":1727543197,"current_range_meters":23200,"station_id":"ce4bha12rcd13ifvqef0","pricing_plan_id":"cebpf4jnsgd1na2vs0mg"},{"bike_id":"30bbd07d-1b9d-40ab-b6e3-3c5f175eb13f","system_id":"levelo_inurba_marseille","lat":43.27214,"lon":5.39184,"is_reserved":false,"is_disabled":false,"rental_uris":{"android":"levelo://app?vid=30bbd07d-1b9d-40ab-b6e3-3c5f175eb13f","ios":"levelo://app?vid=30bbd07d-1b9d-40ab-b6e3-3c5f175eb13f"},"vehicle_type_id":"4","last_reported":1727543197,"current_range_meters":27600,"station_id":"ce4bhhp2rcd13ifvqfm0","pricing_plan_id":"cebpf4jnsgd1na2vs0mg"},{"bike_id":"b0c31863-9489-4555-8c14-cc83b377024c","system_id":"levelo_inurba_marseille","lat":43.26039,"lon":5.38199,"is_reserved":false,"is_disabled":false,"rental_uris":{"android":"levelo://app?vid=b0c31863-9489-4555-8c14-cc83b377024c","ios":"levelo://app?vid=b0c31863-9489-4555-8c14-cc83b377024c"},"vehicle_type_id":"4","last_reported":1727543197,"current_range_meters":28400,"station_id":"","pricing_plan_id":"cebpf4jnsgd1na2vs0mg"},{"bike_id":"c5780541-b30d-4d72-9466-9846f9352508","system_id":"levelo_inurba_marseille","lat":43.24392,"lon":5.37068,"is_reserved":false,"is_disabled":false,"rental_uris":{"android":"levelo://app?vid=c5780541-b30d-4d72-9466-9846f9352508","ios":"levelo://app?vid=c5780541-b30d-4d72-9466-9846f9352508"},"vehicle_type_id":"4","last_reported":1727543197,"current_range_meters":33600,"station_id":"ce4bhhh2rcd13ifvqfk0","pricing_plan_id":"cebpf4jnsgd1na2vs0mg"},{"bike_id":"94624c09-c951-4d45-897f-2e3fcfd08c64","system_id":"levelo_inurba_marseille","lat":43.29268,"lon":5.38454,"is_reserved":false,"is_disabled":false,"rental_uris":{"android":"levelo://app?vid=94624c09-c951-4d45-897f-2e3fcfd08c64","ios":"levelo://app?vid=94624c09-c951-4d45-897f-2e3fcfd08c64"},"vehicle_type_id":"4","last_reported":1727543197,"current_range_meters":16000,"station_id":"ce4bh692rcd13ifvqea0","pricing_plan_id":"cebpf4jnsgd1na2vs0mg"},{"bike_id":"4fa1a447-bf12-4761-845c-2f57b44ce8dd","system_id":"levelo_inurba_marseille","lat":43.248118,"lon":5.374616,"is_reserved":false,"is_disabled":false,"rental_uris":{"android":"levelo://app?vid=4fa1a447-bf12-4761-845c-2f57b44ce8dd","ios":"levelo://app?vid=4fa1a447-bf12-4761-845c-2f57b44ce8dd"},"vehicle_type_id":"4","last_reported":1727543197,"current_range_meters":2000,"station_id":"ce4bhgh2rcd13ifvqfb0","pricing_plan_id":"cebpf4jnsgd1na2vs0mg"},{"bike_id":"a2d66a49-0e54-4bc3-b75a-a203d00b7e08","system_id":"levelo_inurba_marseille","lat":43.27379,"lon":5.36264,"is_reserved":false,"is_disabled":false,"rental_uris":{"android":"levelo://app?vid=a2d66a49-0e54-4bc3-b75a-a203d00b7e08","ios":"levelo://app?vid=a2d66a49-0e54-4bc3-b75a-a203d00b7e08"},"vehicle_type_id":"4","last_reported":1727543197,"current_range_meters":39200,"station_id":"ce4bhbh2rcd13ifvqeo0","pricing_plan_id":"cebpf4jnsgd1na2vs0mg"},{"bike_id":"c15d6e4b-4e48-46fe-983d-a7cf23a4e7af","system_id":"levelo_inurba_marseille","lat":43.24653,"lon":5.38904,"is_reserved":false,"is_disabled":false,"rental_uris":{"android":"levelo://app?vid=c15d6e4b-4e48-46fe-983d-a7cf23a4e7af","ios":"levelo://app?vid=c15d6e4b-4e48-46fe-983d-a7cf23a4e7af"},"vehicle_type_id":"4","last_reported":1727543197,"current_range_meters":15200,"station_id":"ce4bhg12rcd13ifvqf60","pricing_plan_id":"cebpf4jnsgd1na2vs0mg"},{"bike_id":"e90ba492-d7e8-477f-b25b-3d8512584c05","system_id":"levelo_inurba_marseille","lat":43.29578,"lon":5.399765,"is_reserved":false,"is_disabled":false,"rental_uris":{"android":"levelo://app?vid=e90ba492-d7e8-477f-b25b-3d8512584c05","ios":"levelo://app?vid=e90ba492-d7e8-477f-b25b-3d8512584c05"},"vehicle_type_id":"4","last_reported":1727543197,"current_range_meters":23200,"station_id":"ce4bh312rcd13ifvqdj0","pricing_plan_id":"cebpf4jnsgd1na2vs0mg"},{"bike_id":"c981955f-cc5a-4102-9950-c2fb35d351a8","system_id":"levelo_inurba_marseille","lat":43.24812,"lon":5.3746,"is_reserved":false,"is_disabled":false,"rental_uris":{"android":"levelo://app?vid=c981955f-cc5a-4102-9950-c2fb35d351a8","ios":"levelo://app?vid=c981955f-cc5a-4102-9950-c2fb35d351a8"},"vehicle_type_id":"4","last_reported":1727543197,"current_range_meters":26800,"station_id":"ce4bhgh2rcd13ifvqfb0","pricing_plan_id":"cebpf4jnsgd1na2vs0mg"},{"bike_id":"cc189bdb-be15-4ec1-9a90-3ed3ce93f053","system_id":"levelo_inurba_marseille","lat":43.34072,"lon":5.42048,"is_reserved":false,"is_disabled":false,"rental_uris":{"android":"levelo://app?vid=cc189bdb-be15-4ec1-9a90-3ed3ce93f053","ios":"levelo://app?vid=cc189bdb-be15-4ec1-9a90-3ed3ce93f053"},"vehicle_type_id":"4","last_reported":1727543197,"current_range_meters":33200,"station_id":"","pricing_plan_id":"cebpf4jnsgd1na2vs0mg"},{"bike_id":"2a44f500-8cf3-4e97-8837-0e0b58e1c01a","system_id":"levelo_inurba_marseille","lat":43.29964,"lon":5.38498,"is_reserved":false,"is_disabled":false,"rental_uris":{"android":"levelo://app?vid=2a44f500-8cf3-4e97-8837-0e0b58e1c01a","ios":"levelo://app?vid=2a44f500-8cf3-4e97-8837-0e0b58e1c01a"},"vehicle_type_id":"4","last_reported":1727543197,"current_range_meters":17200,"station_id":"ce4bgj92rcd13ifvqbd0","pricing_plan_id":"cebpf4jnsgd1na2vs0mg"},{"bike_id":"3a1d5f9a-ea5c-4aae-b1f1-3d2e9c094cff","system_id":"levelo_inurba_marseille","lat":43.26215,"lon":5.3744,"is_reserved":false,"is_disabled":false,"rental_uris":{"android":"levelo://app?vid=3a1d5f9a-ea5c-4aae-b1f1-3d2e9c094cff","ios":"levelo://app?vid=3a1d5f9a-ea5c-4aae-b1f1-3d2e9c094cff"},"vehicle_type_id":"4","last_reported":1727543197,"current_range_meters":38800,"station_id":"ce4bhgp2rcd13ifvqfc0","pricing_plan_id":"cebpf4jnsgd1na2vs0mg"},{"bike_id":"18c34b2d-145e-4326-baa7-8821921f0e99","system_id":"levelo_inurba_marseille","lat":43.24992,"lon":5.38945,"is_reserved":false,"is_disabled":false,"rental_uris":{"android":"levelo://app?vid=18c34b2d-145e-4326-baa7-8821921f0e99","ios":"levelo://app?vid=18c34b2d-145e-4326-baa7-8821921f0e99"},"vehicle_type_id":"4","last_reported":1727543197,"current_range_meters":13600,"station_id":"ce4bhgp2rcd13ifvqfd0","pricing_plan_id":"cebpf4jnsgd1na2vs0mg"},{"bike_id":"5d5a76cf-b385-40f2-b609-439e6ff2e253","system_id":"levelo_inurba_marseille","lat":43.32291,"lon":5.38273,"is_reserved":false,"is_disabled":false,"rental_uris":{"android":"levelo://app?vid=5d5a76cf-b385-40f2-b609-439e6ff2e253","ios":"levelo://app?vid=5d5a76cf-b385-40f2-b609-439e6ff2e253"},"vehicle_type_id":"4","last_reported":1727543197,"current_range_meters":34800,"station_id":"ce4bhr12rcd13ifvqhqg","pricing_plan_id":"cebpf4jnsgd1na2vs0mg"},{"bike_id":"54f21ac0-f21c-4374-bbb0-418e60bfb2c9","system_id":"levelo_inurba_marseille","lat":43.28155,"lon":5.42649,"is_reserved":false,"is_disabled":false,"rental_uris":{"android":"levelo://app?vid=54f21ac0-f21c-4374-bbb0-418e60bfb2c9","ios":"levelo://app?vid=54f21ac0-f21c-4374-bbb0-418e60bfb2c9"},"vehicle_type_id":"4","last_reported":1727543197,"current_range_meters":32400,"station_id":"ce4bhnh2rcd13ifvqgug","pricing_plan_id":"cebpf4jnsgd1na2vs0mg"},{"bike_id":"4655ee1c-92f5-4e61-ba50-5b57ef7514bc","system_id":"levelo_inurba_marseille","lat":43.32289,"lon":5.38276,"is_reserved":false,"is_disabled":false,"rental_uris":{"android":"levelo://app?vid=4655ee1c-92f5-4e61-ba50-5b57ef7514bc","ios":"levelo://app?vid=4655ee1c-92f5-4e61-ba50-5b57ef7514bc"},"vehicle_type_id":"4","last_reported":1727543197,"current_range_meters":37600,"station_id":"ce4bhr12rcd13ifvqhqg","pricing_plan_id":"cebpf4jnsgd1na2vs0mg"},{"bike_id":"1226e213-5da0-44a0-9afa-ea06a0537936","system_id":"levelo_inurba_marseille","lat":43.23191,"lon":5.39988,"is_reserved":false,"is_disabled":false,"rental_uris":{"android":"levelo://app?vid=1226e213-5da0-44a0-9afa-ea06a0537936","ios":"levelo://app?vid=1226e213-5da0-44a0-9afa-ea06a0537936"},"vehicle_type_id":"4","last_reported":1727543197,"current_range_meters":38000,"station_id":"ce4bhn12rcd13ifvqgqg","pricing_plan_id":"cebpf4jnsgd1na2vs0mg"},