{"last_updated":1725387096,"ttl":30,"version":"2.2","data":{"bikes":[{"bike_id":"d216d590-4956-422b-80c6-0933a5be237e","system_id":"levelo_inurba_marseille","lat":43.312239,"lon":5.368562,"is_reserved":false,"is_disabled":false,"rental_uris":{"android":"levelo://app?vid=d216d590-4956-422b-80c6-0933a5be237e","ios":"levelo://app?vid=d216d590-4956-422b-80c6-0933a5be237e"},"vehicle_type_id":"4","last_reported":1725387096,"current_range_meters":2400,"station_id":"ce4bgl92rcd13ifvqbq0","pricing_plan_id":"cebpf4jnsgd1na2vs0mg"},{"bike_id":"2f6ea9d5-e258-452f-9d6c-9d4b723ef072","system_id":"levelo_inurba_marseille","lat":43.312239,"lon":5.368562,"is_reserved":false,"is_disabled":false,"rental_uris":{"android":"levelo://app?vid=2f6ea9d5-e258-452f-9d6c-9d4b723ef072","ios":"levelo://app?vid=2f6ea9d5-e258-452f-9d6c-9d4b723ef072"},"vehicle_type_id":"4","last_reported":1725387096,"current_range_meters":0,"station_id":"ce4bgl92rcd13ifvqbq0","pricing_plan_id":"cebpf4jnsgd1na2vs0mg"},{"bike_id":"ee5cbb54-1361-4629-9a3b-9a251186b243","system_id":"levelo_inurba_marseille","lat":43.309076,"lon":5.368465,"is_reserved":false,"is_disabled":false,"rental_uris":{"android":"levelo://app?vid=ee5cbb54-1361-4629-9a3b-9a251186b243","ios":"levelo://app?vid=ee5cbb54-1361-4629-9a3b-9a251186b243"},"vehicle_type_id":"4","last_reported":1725387096,"current_range_meters":800,"station_id":"ce4bgn92rcd13ifvqbvg","pricing_plan_id":"cebpf4jnsgd1na2vs0mg"},{"bike_id":"30a82e1a-66e2-4753-bd7d-f9ef52a44028","system_id":"levelo_inurba_marseille","lat":43.309039,"lon":5.371797,"is_reserved":false,"is_disabled":false,"rental_uris":{"android":"levelo://app?vid=30a82e1a-66e2-4753-bd7d-f9ef52a44028","ios":"levelo://app?vid=30a82e1a-66e2-4753-bd7d-f9ef52a44028"},"vehicle_type_id":"4","last_reported":1725387096,"current_range_meters":12800,"station_id":"ce4bguh2rcd13ifvqckg","pricing_plan_id":"cebpf4jnsgd1na2vs0mg"},{"bike_id":"dee6175e-cd0d-4691-a44c-a092974e28b5","system_id":"levelo_inurba_marseille","lat":43.31806,"lon":5.36935,"is_reserved":false,"is_disabled":false,"rental_uris":{"android":"levelo://app?vid=dee6175e-cd0d-4691-a44c-a092974e28b5","ios":"levelo://app?vid=dee6175e-cd0d-4691-a44c-a092974e28b5"},"vehicle_type_id":"4","last_reported":1725387096,"current_range_meters":6800,"station_id":"","pricing_plan_id":"cebpf4jnsgd1na2vs0mg"},{"bike_id":"13ddead7-8cc6-4a17-91ea-60c2d8db7810","system_id":"levelo_inurba_marseille","lat":43.305712,"lon":5.365641,"is_reserved":false,"is_disabled":false,"rental_uris":{"android":"levelo://app?vid=13ddead7-8cc6-4a17-91ea-60c2d8db7810","ios":"levelo://app?vid=13ddead7-8cc6-4a17-91ea-60c2d8db7810"},"vehicle_type_id":"4","last_reported":1725387096,"current_range_meters":0,"station_id":"ce4bgs12rcd13ifvqcag","pricing_plan_id":"cebpf4jnsgd1na2vs0mg"},{"bike_id":"d04a523f-7efc-4440-ad33-51a694b4dd35","system_id":"levelo_inurba_marseille","lat":43.305712,"lon":5.365641,"is_reserved":false,"is_disabled":false,"rental_uris":{"android":"levelo://app?vid=d04a523f-7efc-4440-ad33-51a694b4dd35","ios":"levelo://app?vid=d04a523f-7efc-4440-ad33-51a694b4dd35"},"vehicle_type_id":"4","last_reported":1725387096,"current_range_meters":1200,"station_id":"ce4bgs12rcd13ifvqcag","pricing_plan_id":"cebpf4jnsgd1na2vs0mg"},{"bike_id":"bc882ead-8929-4a61-802b-3dbc4324bb8a","system_id":"levelo_inurba_marseille","lat":43.30615,"lon":5.37229,"is_reserved":false,"is_disabled":false,"rental_uris":{"android":"levelo://app?vid=bc882ead-8929-4a61-802b-3dbc4324bb8a","ios":"levelo://app?vid=bc882ead-8929-4a61-802b-3dbc4324bb8a"},"vehicle_type_id":"4","last_reported":1725387096,"current_range_meters":0,"station_id":"ce4bgqh2rcd13ifvqc4g","pricing_plan_id":"cebpf4jnsgd1na2vs0mg"},{"bike_id":"acf15d7e-c2da-46ab-b513-4f685c1e152b","system_id":"levelo_inurba_marseille","lat":43.305989,"lon":5.37225,"is_reserved":false,"is_disabled":false,"rental_uris":{"android":"levelo://app?vid=acf15d7e-c2da-46ab-b513-4f685c1e152b","ios":"levelo://app?vid=acf15d7e-c2da-46ab-b513-4f685c1e152b"},"vehicle_type_id":"4","last_reported":1725387096,"current_range_meters":12800,"station_id":"ce4bgqh2rcd13ifvqc4g","pricing_plan_id":"cebpf4jnsgd1na2vs0mg"},{"bike_id":"ba084356-e092-4519-8108-3d9fc187d6fb","system_id":"levelo_inurba_marseille","lat":43.311125,"lon":5.377624,"is_reserved":false,"is_disabled":false,"rental_uris":{"android":"levelo://app?vid=ba084356-e092-4519-8108-3d9fc187d6fb","ios":"levelo://app?vid=ba084356-e092-4519-8108-3d9fc187d6fb"},"vehicle_type_id":"4","last_reported":1725387096,"current_range_meters":18000,"station_id":"ce4bgt92rcd13ifvqcg0","pricing_plan_id":"cebpf4jnsgd1na2vs0mg"},{"bike_id":"d7e88441-ae0c-433c-98be-8755ba4d0515","system_id":"levelo_inurba_marseille","lat":43.311131,"lon":5.377651,"is_reserved":false,"is_disabled":false,"rental_uris":{"android":"levelo://app?vid=d7e88441-ae0c-433c-98be-8755ba4d0515","ios":"levelo://app?vid=d7e88441-ae0c-433c-98be-8755ba4d0515"},"vehicle_type_id":"4","last_reported":1725387096,"current_range_meters":18400,"station_id":"ce4bgt92rcd13ifvqcg0","pricing_plan_id":"cebpf4jnsgd1na2vs0mg"},{"bike_id":"5bc58a69-47d4-4f53-b20a-26d4187edb6a","system_id":"levelo_inurba_marseille","lat":43.311131,"lon":5.377651,"is_reserved":false,"is_disabled":false,"rental_uris":{"android":"levelo://app?vid=5bc58a69-47d4-4f53-b20a-26d4187edb6a","ios":"levelo://app?vid=5bc58a69-47d4-4f53-b20a-26d4187edb6a"},"vehicle_type_id":"4","last_reported":1725387096,"current_range_meters":6400,"station_id":"ce4bgt92rcd13ifvqcg0","pricing_plan_id":"cebpf4jnsgd1na2vs0mg"},{"bike_id":"abcc5620-2db8-42f3-9dc5-c95b476a53b5","system_id":"levelo_inurba_marseille","lat":43.31005,"lon":5.37726,"is_reserved":false,"is_disabled":false,"rental_uris":{"android":"levelo://app?vid=abcc5620-2db8-42f3-9dc5-c95b476a53b5","ios":"levelo://app?vid=abcc5620-2db8-42f3-9dc5-c95b476a53b5"},"vehicle_type_id":"4","last_reported":1725387096,"current_range_meters":20000,"station_id":"","pricing_plan_id":"cebpf4jnsgd1na2vs0mg"},{"bike_id":"e6588140-5c2c-4a8e-b146-b43d9d478d42","system_id":"levelo_inurba_marseille","lat":43.317557,"lon":5.390173,"is_reserved":false,"is_disabled":false,"rental_uris":{"android":"levelo://app?vid=e6588140-5c2c-4a8e-b146-b43d9d478d42","ios":"levelo://app?vid=e6588140-5c2c-4a8e-b146-b43d9d478d42"},"vehicle_type_id":"4","last_reported":1725387096,"current_range_meters":3200,"station_id":"ce4bhqp2rcd13ifvqhng","pricing_plan_id":"cebpf4jnsgd1na2vs0mg"},{"bike_id":"9c327a20-65e6-4cf7-8165-169bb977067e","system_id":"levelo_inurba_marseille","lat":43.301396,"lon":5.387812,"is_reserved":false,"is_disabled":false,"rental_uris":{"android":"levelo://app?vid=9c327a20-65e6-4cf7-8165-169bb977067e","ios":"levelo://app?vid=9c327a20-65e6-4cf7-8165-169bb977067e"},"vehicle_type_id":"4","last_reported":1725387096,"current_range_meters":12000,"station_id":"ce4bghh2rcd13ifvqb60","pricing_plan_id":"cebpf4jnsgd1na2vs0mg"},{"bike_id":"e8e71965-0a71-4311-b978-463b1ff43a31","system_id":"levelo_inurba_marseille","lat":43.30786,"lon":5.3801,"is_reserved":false,"is_disabled":false,"rental_uris":{"android":"levelo://app?vid=e8e71965-0a71-4311-b978-463b1ff43a31","ios":"levelo://app?vid=e8e71965-0a71-4311-b978-463b1ff43a31"},"vehicle_type_id":"4","last_reported":1725387096,"current_range_meters":1600,"station_id":"","pricing_plan_id":"cebpf4jnsgd1na2vs0mg"},{"bike_id":"512b69a6-ad4e-4d62-95f2-bfaf7bb5d204","system_id":"levelo_inurba_marseille","lat":43.301939,"lon":5.366286,"is_reserved":false,"is_disabled":false,"rental_uris":{"android":"levelo://app?vid=512b69a6-ad4e-4d62-95f2-bfaf7bb5d204","ios":"levelo://app?vid=512b69a6-ad4e-4d62-95f2-bfaf7bb5d204"},"vehicle_type_id":"4","last_reported":1725387096,"current_range_meters":24000,"station_id":"ce4bgrh2rcd13ifvqc8g","pricing_plan_id":"cebpf4jnsgd1na2vs0mg"},{"bike_id":"04e5e423-03b0-4db9-8f97-f1724d364241","system_id":"levelo_inurba_marseille","lat":43.308012,"lon":5.381511,"is_reserved":false,"is_disabled":false,"rental_uris":{"android":"levelo://app?vid=04e5e423-03b0-4db9-8f97-f1724d364241","ios":"levelo://app?vid=04e5e423-03b0-4db9-8f97-f1724d364241"},"vehicle_type_id":"4","last_reported":1725387096,"current_range_meters":1200,"station_id":"ce4bgt12rcd13ifvqce0","pricing_plan_id":"cebpf4jnsgd1na2vs0mg"},{"bike_id":"209dec20-6a2d-45a4-8fbc-c33604d6c388","system_id":"levelo_inurba_marseille","lat":43.324771,"lon":5.36557,"is_reserved":false,"is_disabled":false,"rental_uris":{"android":"levelo://app?vid=209dec20-6a2d-45a4-8fbc-c33604d6c388","ios":"levelo://app?vid=209dec20-6a2d-45a4-8fbc-c33604d6c388"},"vehicle_type_id":"4","last_reported":1725387096,"current_range_meters":11200,"station_id":"ce4bhs12rcd13ifvqhvg","pricing_plan_id":"cebpf4jnsgd1na2vs0mg"},{"bike_id":"055cb0b8-7c85-4836-86f6-21f330bc0d60","system_id":"levelo_inurba_marseille","lat":43.324771,"lon":5.36557,"is_reserved":false,"is_disabled":false,"rental_uris":{"android":"levelo://app?vid=055cb0b8-7c85-4836-86f6-21f330bc0d60","ios":"levelo://app?vid=055cb0b8-7c85-4836-86f6-21f330bc0d60"},"vehicle_type_id":"4","last_reported":1725387096,"current_range_meters":15200,"station_id":"ce4bhs12rcd13ifvqhvg","pricing_plan_id":"cebpf4jnsgd1na2vs0mg"},{"bike_id":"acd3f792-b89f-470c-8000-42301b0066b0","system_id":"levelo_inurba_marseille","lat":43.324771,"lon":5.36557,"is_reserved":false,"is_disabled":false,"rental_uris":{"android":"levelo://app?vid=acd3f792-b89f-470c-8000-42301b0066b0","ios":"levelo://app?vid=acd3f792-b89f-470c-8000-42301b0066b0"},"vehicle_type_id":"4","last_reported":1725387096,"current_range_meters":1600,"station_id":"ce4bhs12rcd13ifvqhvg","pricing_plan_id":"cebpf4jnsgd1na2vs0mg"},{"bike_id":"c1f37e38-afda-43be-809f-fbb7ad420795","system_id":"levelo_inurba_marseille","lat":43.32482,"lon":5.36572,"is_reserved":false,"is_disabled":false,"rental_uris":{"android":"levelo://app?vid=c1f37e38-afda-43be-809f-fbb7ad420795","ios":"levelo://app?vid=c1f37e38-afda-43be-809f-fbb7ad420795"},"vehicle_type_id":"4","last_reported":1725387096,"current_range_meters":0,"station_id":"ce4bhs12rcd13ifvqhvg","pricing_plan_id":"cebpf4jnsgd1na2vs0mg"},{"bike_id":"81f89127-3c15-4b94-b6fa-cafe332f7932","system_id":"levelo_inurba_marseille","lat":43.32486,"lon":5.36575,"is_reserved":false,"is_disabled":false,"rental_uris":{"android":"levelo://app?vid=81f89127-3c15-4b94-b6fa-cafe332f7932","ios":"levelo://app?vid=81f89127-3c15-4b94-b6fa-cafe332f7932"},"vehicle_type_id":"4","last_reported":1725387096,"current_range_meters":0,"station_id":"ce4bhs12rcd13ifvqhvg","pricing_plan_id":"cebpf4jnsgd1na2vs0mg"},{"bike_id":"4b479cd7-36b6-49d7-b600-2bdd31ebf73e","system_id":"levelo_inurba_marseille","lat":43.310804,"lon":5.38359,"is_reserved":false,"is_disabled":false,"rental_uris":{"android":"levelo://app?vid=4b479cd7-36b6-49d7-b600-2bdd31ebf73e","ios":"levelo://app?vid=4b479cd7-36b6-49d7-b600-2bdd31ebf73e"},"vehicle_type_id":"4","last_reported":1725387096,"current_range_meters":23200,"station_id":"ce4bgv92rcd13ifvqcr0","pricing_plan_id":"cebpf4jnsgd1na2vs0mg"},{"bike_id":"7ae6333a-14b0-444e-9826-c4717591a8ab","system_id":"levelo_inurba_marseille","lat":43.310804,"lon":5.38359,"is_reserved":false,"is_disabled":false,"rental_uris":{"android":"levelo://app?vid=7ae6333a-14b0-444e-9826-c4717591a8ab","ios":"levelo://app?vid=7ae6333a-14b0-444e-9826-c4717591a8ab"},"vehicle_type_id":"4","last_reported":1725387096,"current_range_meters":0,"station_id":"ce4bgv92rcd13ifvqcr0","pricing_plan_id":"cebpf4jnsgd1na2vs0mg"},{"bike_id":"6240613f-32ae-49d0-ac14-6fcd92dc8bdf","system_id":"levelo_inurba_marseille","lat":43.325297,"lon":5.36796,"is_reserved":false,"is_disabled":false,"rental_uris":{"android":"levelo://app?vid=6240613f-32ae-49d0-ac14-6fcd92dc8bdf","ios":"levelo://app?vid=6240613f-32ae-49d0-ac14-6fcd92dc8bdf"},"vehicle_type_id":"4","last_reported":1725387096,"current_range_meters":16800,"station_id":"","pricing_plan_id":"cebpf4jnsgd1na2vs0mg"},{"bike_id":"7bc38d31-0ad8-460f-875d-0f087792d8c5","system_id":"levelo_inurba_marseille","lat":43.319935,"lon":5.381699,"is_reserved":false,"is_disabled":false,"rental_uris":{"android":"levelo://app?vid=7bc38d31-0ad8-460f-875d-0f087792d8c5","ios":"levelo://app?vid=7bc38d31-0ad8-460f-875d-0f087792d8c5"},"vehicle_type_id":"4","last_reported":1725387096,"current_range_meters":12000,"station_id":"ce4bhr12rcd13ifvqhpg","pricing_plan_id":"cebpf4jnsgd1na2vs0mg"},{"bike_id":"b3f4448e-8923-48a1-820c-a5a8746ea50f","system_id":"levelo_inurba_marseille","lat":43.319935,"lon":5.381699,"is_reserved":false,"is_disabled":false,"rental_uris":{"android":"levelo://app?vid=b3f4448e-8923-48a1-820c-a5a8746ea50f","ios":"levelo://app?vid=b3f4448e-8923-48a1-820c-a5a8746ea50f"},"vehicle_type_id":"4","last_reported":1725387096,"current_range_meters":3200,"station_id":"ce4bhr12rcd13ifvqhpg","pricing_plan_id":"cebpf4jnsgd1na2vs0mg"},{"bike_id":"ed5f3721-5e85-4f21-8f36-d5f900343311","system_id":"levelo_inurba_marseille","lat":43.313571,"lon":5.384829,"is_reserved":false,"is_disabled":false,"rental_uris":{"android":"levelo://app?vid=ed5f3721-5e85-4f21-8f36-d5f900343311","ios":"levelo://app?vid=ed5f3721-5e85-4f21-8f36-d5f900343311"},"vehicle_type_id":"4","last_reported":1725387096,"current_range_meters":5600,"station_id":"ce4bgt92rcd13ifvqcf0","pricing_plan_id":"cebpf4jnsgd1na2vs0mg"},{"bike_id":"7c5ad923-6026-4f28-8d4a-78e790f99645","system_id":"levelo_inurba_marseille","lat":43.29985,"lon":5.37182,"is_reserved":false,"is_disabled":false,"rental_uris":{"android":"levelo://app?vid=7c5ad923-6026-4f28-8d4a-78e790f99645","ios":"levelo://app?vid=7c5ad923-6026-4f28-8d4a-78e790f99645"},"vehicle_type_id":"4","last_reported":1725387096,"current_range_meters":0,"station_id":"ce4bgr92rcd13ifvqc7g","pricing_plan_id":"cebpf4jnsgd1na2vs0mg"},{"bike_id":"7e77b995-8ced-4ca9-85d8-dbab05f568fa","system_id":"levelo_inurba_marseille","lat":43.299222,"lon":5.365554,"is_reserved":false,"is_disabled":false,"rental_uris":{"android":"levelo://app?vid=7e77b995-8ced-4ca9-85d8-dbab05f568fa","ios":"levelo://app?vid=7e77b995-8ced-4ca9-85d8-dbab05f568fa"},"vehicle_type_id":"4","last_reported":1725387096,"current_range_meters":5200,"station_id":"ce4bgm92rcd13ifvqbr0","pricing_plan_id":"cebpf4jnsgd1na2vs0mg"},{"bike_id":"385017f2-9cc4-4e10-85f4-47a94b9e55d2","system_id":"levelo_inurba_marseille","lat":43.299724,"lon":5.371829,"is_reserved":false,"is_disabled":false,"rental_uris":{"android":"levelo://app?vid=385017f2-9cc4-4e10-85f4-47a94b9e55d2","ios":"levelo://app?vid=385017f2-9cc4-4e10-85f4-47a94b9e55d2"},"vehicle_type_id":"4","last_reported":1725387096,"current_range_meters":18800,"station_id":"ce4bgr92rcd13ifvqc7g","pricing_plan_id":"cebpf4jnsgd1na2vs0mg"},{"bike_id":"b05a3fe5-1524-4c3a-bb09-142a84e2ca56","system_id":"levelo_inurba_marseille","lat":43.32014,"lon":5.38241,"is_reserved":false,"is_disabled":false,"rental_uris":{"android":"levelo://app?vid=b05a3fe5-1524-4c3a-bb09-142a84e2ca56","ios":"levelo://app?vid=b05a3fe5-1524-4c3a-bb09-142a84e2ca56"},"vehicle_type_id":"4","last_reported":1725387096,"current_range_meters":9600,"station_id":"","pricing_plan_id":"cebpf4jnsgd1na2vs0mg"},{"bike_id":"068af13e-814a-49ea-aa08-2e767438d510","system_id":"levelo_inurba_marseille","lat":43.299222,"lon":5.365554,"is_reserved":false,"is_disabled":false,"rental_uris":{"android":"levelo://app?vid=068af13e-814a-49ea-aa08-2e767438d510","ios":"levelo://app?vid=068af13e-814a-49ea-aa08-2e767438d510"},"vehicle_type_id":"4","last_reported":1725387096,"current_range_meters":8400,"station_id":"ce4bgm92rcd13ifvqbr0","pricing_plan_id":"cebpf4jnsgd1na2vs0mg"},{"bike_id":"98004554-5cba-4377-88ea-185a2f2ebc23","system_id":"levelo_inurba_marseille","lat":43.299724,"lon":5.371829,"is_reserved":false,"is_disabled":false,"rental_uris":{"android":"levelo://app?vid=98004554-5cba-4377-88ea-185a2f2ebc23","ios":"levelo://app?vid=98004554-5cba-4377-88ea-185a2f2ebc23"},"vehicle_type_id":"4","last_reported":1725387096,"current_range_meters":0,"station_id":"ce4bgr92rcd13ifvqc7g","pricing_plan_id":"cebpf4jnsgd1na2vs0mg"},{"bike_id":"1e802b8f-0fba-4ab6-a085-d78a0e5ee6b3","system_id":"levelo_inurba_marseille","lat":43.29891,"lon":5.36539,"is_reserved":false,"is_disabled":false,"rental_uris":{"android":"levelo://app?vid=1e802b8f-0fba-4ab6-a085-d78a0e5ee6b3","ios":"levelo://app?vid=1e802b8f-0fba-4ab6-a085-d78a0e5ee6b3"},"vehicle_type_id":"4","last_reported":1725387096,"current_range_meters":6000,"station_id":"ce4bgm92rcd13ifvqbr0","pricing_plan_id":"cebpf4jnsgd1na2vs0mg"},{"bike_id":"1b4dc3af-78fa-4f78-9854-0ce2bc55062e","system_id":"levelo_inurba_marseille","lat":43.299724,"lon":5.371829,"is_reserved":false,"is_disabled":false,"rental_uris":{"android":"levelo://app?vid=1b4dc3af-78fa-4f78-9854-0ce2bc55062e","ios":"levelo://app?vid=1b4dc3af-78fa-4f78-9854-0ce2bc55062e"},"vehicle_type_id":"4","last_reported":1725387096,"current_range_meters":18000,"station_id":"ce4bgr92rcd13ifvqc7g","pricing_plan_id":"cebpf4jnsgd1na2vs0mg"},{"bike_id":"8fbd9efe-da79-4294-adcb-e1a493235aff","system_id":"levelo_inurba_marseille","lat":43.299243,"lon":5.374807,"is_reserved":false,"is_disabled":false,"rental_uris":{"android":"levelo://app?vid=8fbd9efe-da79-4294-adcb-e1a493235aff","ios":"levelo://app?vid=8fbd9efe-da79-4294-adcb-e1a493235aff"},"vehicle_type_id":"4","last_reported":1725387096,"current_range_meters":26800,"station_id":"ce4bgjh2rcd13ifvqbg0","pricing_plan_id":"cebpf4jnsgd1na2vs0mg"},{"bike_id":"6c4e5b82-d683-4b0d-aa62-137d2db2a527","system_id":"levelo_inurba_marseille","lat":43.299243,"lon":5.37481,"is_reserved":false,"is_disabled":false,"rental_uris":{"android":"levelo://app?vid=6c4e5b82-d683-4b0d-aa62-137d2db2a527","ios":"levelo://app?vid=6c4e5b82-d683-4b0d-aa62-137d2db2a527"},"vehicle_type_id":"4","last_reported":1725387096,"current_range_meters":28000,"station_id":"ce4bgjh2rcd13ifvqbg0","pricing_plan_id":"cebpf4jnsgd1na2vs0mg"},{"bike_id":"f5c956d6-3b21-4ae9-bfe0-e404ee0782df","system_id":"levelo_inurba_marseille","lat":43.301417,"lon":5.3809,"is_reserved":false,"is_disabled":false,"rental_uris":{"android":"levelo://app?vid=f5c956d6-3b21-4ae9-bfe0-e404ee0782df","ios":"levelo://app?vid=f5c956d6-3b21-4ae9-bfe0-e404ee0782df"},"vehicle_type_id":"4","last_reported":1725387096,"current_range_meters":0,"station_id":"ce4bgjp2rcd13ifvqbh0","pricing_plan_id":"cebpf4jnsgd1na2vs0mg"},{"bike_id":"c83c37b6-e2f9-4d00-8f8a-732c909f4e55","system_id":"levelo_inurba_marseille","lat":43.301417,"lon":5.3809,"is_reserved":false,"is_disabled":false,"rental_uris":{"android":"levelo://app?vid=c83c37b6-e2f9-4d00-8f8a-732c909f4e55","ios":"levelo://app?vid=c83c37b6-e2f9-4d00-8f8a-732c909f4e55"},"vehicle_type_id":"4","last_reported":1725387096,"current_range_meters":0,"station_id":"ce4bgjp2rcd13ifvqbh0","pricing_plan_id":"cebpf4jnsgd1na2vs0mg"},{"bike_id":"bf6729b4-19ab-475f-8ec5-ca2b61de6991","system_id":"levelo_inurba_marseille","lat":43.322872,"lon":5.382756,"is_reserved":false,"is_disabled":false,"rental_uris":{"android":"levelo://app?vid=bf6729b4-19ab-475f-8ec5-ca2b61de6991","ios":"levelo://app?vid=bf6729b4-19ab-475f-8ec5-ca2b61de6991"},"vehicle_type_id":"4","last_reported":1725387096,"current_range_meters":12000,"station_id":"ce4bhr12rcd13ifvqhqg","pricing_plan_id":"cebpf4jnsgd1na2vs0mg"},{"bike_id":"3301428e-72a9-4d22-8559-74f34a4287b4","system_id":"levelo_inurba_marseille","lat":43.322872,"lon":5.382756,"is_reserved":false,"is_disabled":false,"rental_uris":{"android":"levelo://app?vid=3301428e-72a9-4d22-8559-74f34a4287b4","ios":"levelo://app?vid=3301428e-72a9-4d22-8559-74f34a4287b4"},"vehicle_type_id":"4","last_reported":1725387096,"current_range_meters":18800,"station_id":"ce4bhr12rcd13ifvqhqg","pricing_plan_id":"cebpf4jnsgd1na2vs0mg"},{"bike_id":"05b511fa-f167-444d-b53c-6c24818c0b91","system_id":"levelo_inurba_marseille","lat":43.297163,"lon":5.365866,"is_reserved":false,"is_disabled":false,"rental_uris":{"android":"levelo://app?vid=05b511fa-f167-444d-b53c-6c24818c0b91","ios":"levelo://app?vid=05b511fa-f167-444d-b53c-6c24818c0b91"},"vehicle_type_id":"4","last_reported":1725387096,"current_range_meters":18000,"station_id":"ce4bgn12rcd13ifvqbt0","pricing_plan_id":"cebpf4jnsgd1na2vs0mg"},{"bike_id":"b79fa6ff-6874-491e-ad94-2ba6bd81afd9","system_id":"levelo_inurba_marseille","lat":43.32878,"lon":5.36534,"is_reserved":false,"is_disabled":false,"rental_uris":{"android":"levelo://app?vid=b79fa6ff-6874-491e-ad94-2ba6bd81afd9","ios":"levelo://app?vid=b79fa6ff-6874-491e-ad94-2ba6bd81afd9"},"vehicle_type_id":"4","last_reported":1725387096,"current_range_meters":800,"station_id":"","pricing_plan_id":"cebpf4jnsgd1na2vs0mg"},{"bike_id":"8a8887de-5c7d-4b1c-91b2-78e9c920b48d","system_id":"levelo_inurba_marseille","lat":43.2968,"lon":5.37291,"is_reserved":false,"is_disabled":false,"rental_uris":{"android":"levelo://app?vid=8a8887de-5c7d-4b1c-91b2-78e9c920b48d","ios":"levelo://app?vid=8a8887de-5c7d-4b1c-91b2-78e9c920b48d"},"vehicle_type_id":"4","last_reported":1725387096,"current_range_meters":31200,"station_id":"ce4bgk12rcd13ifvqbj0","pricing_plan_id":"cebpf4jnsgd1na2vs0mg"},{"bike_id":"52fb6cb2-164b-4999-9b06-cc255cc8b259","system_id":"levelo_inurba_marseille","lat":43.303527,"lon":5.385784,"is_reserved":false,"is_disabled":false,"rental_uris":{"android":"levelo://app?vid=52fb6cb2-164b-4999-9b06-cc255cc8b259","ios":"levelo://app?vid=52fb6cb2-164b-4999-9b06-cc255cc8b259"},"vehicle_type_id":"4","last_reported":1725387096,"current_range_meters":23200,"station_id":"","pricing_plan_id":"cebpf4jnsgd1na2vs0mg"},{"bike_id":"b3cfbb3a-722d-4ea5-a206-47f2d54bd0f3","system_id":"levelo_inurba_marseille","lat":43.296131,"lon":5.370791,"is_reserved":false,"is_disabled":false,"rental_uris":{"android":"levelo://app?vid=b3cfbb3a-722d-4ea5-a206-47f2d54bd0f3","ios":"levelo://app?vid=b3cfbb3a-722d-4ea5-a206-47f2d54bd0f3"},"vehicle_type_id":"4","last_reported":1725387096,"current_range_meters":1600,"station_id":"ce4bgnh2rcd13ifvqc0g","pricing_plan_id":"cebpf4jnsgd1na2vs0mg"},{"bike_id":"55f03ab6-4816-405c-b1aa-c47b3c9b5fed","system_id":"levelo_inurba_marseille","lat":43.299028,"lon":5.381509,"is_reserved":false,"is_disabled":false,"rental_uris":{"android":"levelo://app?vid=55f03ab6-4816-405c-b1aa-c47b3c9b5fed","ios":"levelo://app?vid=55f03ab6-4816-405c-b1aa-c47b3c9b5fed"},"vehicle_type_id":"4","last_reported":1725387096,"current_range_meters":0,"station_id":"ce4bgj12rcd13ifvqbc0","pricing_plan_id":"cebpf4jnsgd1na2vs0mg"},{"bike_id":"ac06e218-f846-487e-bfe4-b3f9c8d064c6","system_id":"levelo_inurba_marseille","lat":43.30953,"lon":5.39024,"is_reserved":false,"is_disabled":false,"rental_uris":{"android":"levelo://app?vid=ac06e218-f846-487e-bfe4-b3f9c8d064c6","ios":"levelo://app?vid=ac06e218-f846-487e-bfe4-b3f9c8d064c6"},"vehicle_type_id":"4","last_reported":1725387096,"current_range_meters":0,"station_id":"ce4bgup2rcd13ifvqco0","pricing_plan_id":"cebpf4jnsgd1na2vs0mg"},{"bike_id":"89162f16-5a51-4b57-877c-5bbfb85811ea","system_id":"levelo_inurba_marseille","lat":43.299028,"lon":5.381509,"is_reserved":false,"is_disabled":false,"rental_uris":{"android":"levelo://app?vid=89162f16-5a51-4b57-877c-5bbfb85811ea","ios":"levelo://app?vid=89162f16-5a51-4b57-877c-5bbfb85811ea"},"vehicle_type_id":"4","last_reported":1725387096,"current_range_meters":31200,"station_id":"ce4bgj12rcd13ifvqbc0","pricing_plan_id":"cebpf4jnsgd1na2vs0mg"},{"bike_id":"a041e7ba-467e-4a54-a72b-b6562aef5b7f","system_id":"levelo_inurba_marseille","lat":43.317557,"lon":5.390173,"is_reserved":false,"is_disabled":false,"rental_uris":{"android":"levelo://app?vid=a041e7ba-467e-4a54-a72b-b6562aef5b7f","ios":"levelo://app?vid=a041e7ba-467e-4a54-a72b-b6562aef5b7f"},"vehicle_type_id":"4","last_reported":1725387096,"current_range_meters":29600,"station_id":"ce4bhqp2rcd13ifvqhng","pricing_plan_id":"cebpf4jnsgd1na2vs0mg"},{"bike_id":"a26b8354-14d1-4810-b72a-b5d5617ac526","system_id":"levelo_inurba_marseille","lat":43.317557,"lon":5.390173,"is_reserved":false,"is_disabled":false,"rental_uris":{"android":"levelo://app?vid=a26b8354-14d1-4810-b72a-b5d5617ac526","ios":"levelo://app?vid=a26b8354-14d1-4810-b72a-b5d5617ac526"},"vehicle_type_id":"4","last_reported":1725387096,"current_range_meters":8000,"station_id":"ce4bhqp2rcd13ifvqhng","pricing_plan_id":"cebpf4jnsgd1na2vs0mg"},{"bike_id":"b8ecbb44-eee6-4421-be24-b6db115822ef","system_id":"levelo_inurba_marseille","lat":43.32575,"lon":5.38337,"is_reserved":false,"is_disabled":false,"rental_uris":{"android":"levelo://app?vid=b8ecbb44-eee6-4421-be24-b6db115822ef","ios":"levelo://app?vid=b8ecbb44-eee6-4421-be24-b6db115822ef"},"vehicle_type_id":"4","last_reported":1725387096,"current_range_meters":28400,"station_id":"","pricing_plan_id":"cebpf4jnsgd1na2vs0mg"},{"bike_id":"9544af8a-50e6-421a-a5a1-28696cbb11fa","system_id":"levelo_inurba_marseille","lat":43.304278,"lon":5.388868,"is_reserved":false,"is_disabled":false,"rental_uris":{"android":"levelo://app?vid=9544af8a-50e6-421a-a5a1-28696cbb11fa","ios":"levelo://app?vid=9544af8a-50e6-421a-a5a1-28696cbb11fa"},"vehicle_type_id":"4","last_reported":1725387096,"current_range_meters":31200,"station_id":"ce4bgk12rcd13ifvqbi0","pricing_plan_id":"cebpf4jnsgd1na2vs0mg"},{"bike_id":"a5e17c62-6a1e-4dbd-b2b0-8359879d09c5","system_id":"levelo_inurba_marseille","lat":43.30438,"lon":5.38886,"is_reserved":false,"is_disabled":false,"rental_uris":{"android":"levelo://app?vid=a5e17c62-6a1e-4dbd-b2b0-8359879d09c5","ios":"levelo://app?vid=a5e17c62-6a1e-4dbd-b2b0-8359879d09c5"},"vehicle_type_id":"4","last_reported":1725387096,"current_range_meters":21600,"station_id":"ce4bgk12rcd13ifvqbi0","pricing_plan_id":"cebpf4jnsgd1na2vs0mg"},{"bike_id":"66db5b7e-dc13-44de-ae76-88b62ab29e65","system_id":"levelo_inurba_marseille","lat":43.304274,"lon":5.388873,"is_reserved":false,"is_disabled":false,"rental_uris":{"android":"levelo://app?vid=66db5b7e-dc13-44de-ae76-88b62ab29e65","ios":"levelo://app?vid=66db5b7e-dc13-44de-ae76-88b62ab29e65"},"vehicle_type_id":"4","last_reported":1725387096,"current_range_meters":22800,"station_id":"ce4bgk12rcd13ifvqbi0","pricing_plan_id":"cebpf4jnsgd1na2vs0mg"},{"bike_id":"cda9c42d-b39a-4aca-b0de-9ca0f5bfb475","system_id":"levelo_inurba_marseille","lat":43.296277,"lon":5.377108,"is_reserved":false,"is_disabled":false,"rental_uris":{"android":"levelo://app?vid=cda9c42d-b39a-4aca-b0de-9ca0f5bfb475","ios":"levelo://app?vid=cda9c42d-b39a-4aca-b0de-9ca0f5bfb475"},"vehicle_type_id":"4","last_reported":1725387096,"current_range_meters":16000,"station_id":"ce4bgi92rcd13ifvqb90","pricing_plan_id":"cebpf4jnsgd1na2vs0mg"},{"bike_id":"d2b58ab0-d8c1-47eb-bd8a-9a9bea6f6f9d","system_id":"levelo_inurba_marseille","lat":43.296263,"lon":5.377094,"is_reserved":false,"is_disabled":false,"rental_uris":{"android":"levelo://app?vid=d2b58ab0-d8c1-47eb-bd8a-9a9bea6f6f9d","ios":"levelo://app?vid=d2b58ab0-d8c1-47eb-bd8a-9a9bea6f6f9d"},"vehicle_type_id":"4","last_reported":1725387096,"current_range_meters":6400,"station_id":"ce4bgi92rcd13ifvqb90","pricing_plan_id":"cebpf4jnsgd1na2vs0mg"},{"bike_id":"56bab783-152d-41fb-93f1-ceabb05129c5","system_id":"levelo_inurba_marseille","lat":43.304403,"lon":5.389397,"is_reserved":false,"is_disabled":false,"rental_uris":{"android":"levelo://app?vid=56bab783-152d-41fb-93f1-ceabb05129c5","ios":"levelo://app?vid=56bab783-152d-41fb-93f1-ceabb05129c5"},"vehicle_type_id":"4","last_reported":1725387096,"current_range_meters":0,"station_id":"","pricing_plan_id":"cebpf4jnsgd1na2vs0mg"},{"bike_id":"8e07c832-aca8-4c6f-814d-b1485d3f730e","system_id":"levelo_inurba_marseille","lat":43.29967,"lon":5.3851,"is_reserved":false,"is_disabled":false,"rental_uris":{"android":"levelo://app?vid=8e07c832-aca8-4c6f-814d-b1485d3f730e","ios":"levelo://app?vid=8e07c832-aca8-4c6f-814d-b1485d3f730e"},"vehicle_type_id":"4","last_reported":1725387096,"current_range_meters":0,"station_id":"ce4bgj92rcd13ifvqbd0","pricing_plan_id":"cebpf4jnsgd1na2vs0mg"},{"bike_id":"492c04dd-dacc-4fcb-9cd0-c90e91b91b68","system_id":"levelo_inurba_marseille","lat":43.30145,"lon":5.38777,"is_reserved":false,"is_disabled":false,"rental_uris":{"android":"levelo://app?vid=492c04dd-dacc-4fcb-9cd0-c90e91b91b68","ios":"levelo://app?vid=492c04dd-dacc-4fcb-9cd0-c90e91b91b68"},"vehicle_type_id":"4","last_reported":1725387096,"current_range_meters":0,"station_id":"ce4bghh2rcd13ifvqb60","pricing_plan_id":"cebpf4jnsgd1na2vs0mg"},{"bike_id":"158017a6-9260-4a81-8310-08a690009b22","system_id":"levelo_inurba_marseille","lat":43.301396,"lon":5.387812,"is_reserved":false,"is_disabled":false,"rental_uris":{"android":"levelo://app?vid=158017a6-9260-4a81-8310-08a690009b22","ios":"levelo://app?vid=158017a6-9260-4a81-8310-08a690009b22"},"vehicle_type_id":"4","last_reported":1725387096,"current_range_meters":28000,"station_id":"ce4bghh2rcd13ifvqb60","pricing_plan_id":"cebpf4jnsgd1na2vs0mg"},{"bike_id":"cbf2a808-c1fb-48d8-aee5-e026035e8edc","system_id":"levelo_inurba_marseille","lat":43.301396,"lon":5.387812,"is_reserved":false,"is_disabled":false,"rental_uris":{"android":"levelo://app?vid=cbf2a808-c1fb-48d8-aee5-e026035e8edc","ios":"levelo://app?vid=cbf2a808-c1fb-48d8-aee5-e026035e8edc"},"vehicle_type_id":"4","last_reported":1725387096,"current_range_meters":0,"station_id":"ce4bghh2rcd13ifvqb60","pricing_plan_id":"cebpf4jnsgd1na2vs0mg"},{"bike_id":"10f69fe8-7773-460f-8cbc-84d5043d302b","system_id":"levelo_inurba_marseille","lat":43.32387,"lon":5.38914,"is_reserved":false,"is_disabled":false,"rental_uris":{"android":"levelo://app?vid=10f69fe8-7773-460f-8cbc-84d5043d302b","ios":"levelo://app?vid=10f69fe8-7773-460f-8cbc-84d5043d302b"},"vehicle_type_id":"4","last_reported":1725387096,"current_range_meters":28800,"station_id":"ce4bhqp2rcd13ifvqhog","pricing_plan_id":"cebpf4jnsgd1na2vs0mg"},{"bike_id":"ae63636c-b41e-437f-9c17-eb6f39679ee0","system_id":"levelo_inurba_marseille","lat":43.292749,"lon":5.368398,"is_reserved":false,"is_disabled":false,"rental_uris":{"android":"levelo://app?vid=ae63636c-b41e-437f-9c17-eb6f39679ee0","ios":"levelo://app?vid=ae63636c-b41e-437f-9c17-eb6f39679ee0"},"vehicle_type_id":"4","last_reported":1725387096,"current_range_meters":1600,"station_id":"ce4bhbp2rcd13ifvqesg","pricing_plan_id":"cebpf4jnsgd1na2vs0mg"},{"bike_id":"d665fcc1-8a6c-42b9-b90e-5a262c1560a1","system_id":"levelo_inurba_marseille","lat":43.292749,"lon":5.368398,"is_reserved":false,"is_disabled":false,"rental_uris":{"android":"levelo://app?vid=d665fcc1-8a6c-42b9-b90e-5a262c1560a1","ios":"levelo://app?vid=d665fcc1-8a6c-42b9-b90e-5a262c1560a1"},"vehicle_type_id":"4","last_reported":1725387096,"current_range_meters":9600,"station_id":"ce4bhbp2rcd13ifvqesg","pricing_plan_id":"cebpf4jnsgd1na2vs0mg"},{"bike_id":"6cb81c16-0e2b-4454-aa9b-43fbee753a15","system_id":"levelo_inurba_marseille","lat":43.292749,"lon":5.368402,"is_reserved":false,"is_disabled":false,"rental_uris":{"android":"levelo://app?vid=6cb81c16-0e2b-4454-aa9b-43fbee753a15","ios":"levelo://app?vid=6cb81c16-0e2b-4454-aa9b-43fbee753a15"},"vehicle_type_id":"4","last_reported":1725387096,"current_range_meters":27200,"station_id":"ce4bhbp2rcd13ifvqesg","pricing_plan_id":"cebpf4jnsgd1na2vs0mg"},{"bike_id":"b2f07f06-b4ce-4be1-a73d-f8453c07ee0f","system_id":"levelo_inurba_marseille","lat":43.292749,"lon":5.368402,"is_reserved":false,"is_disabled":false,"rental_uris":{"android":"levelo://app?vid=b2f07f06-b4ce-4be1-a73d-f8453c07ee0f","ios":"levelo://app?vid=b2f07f06-b4ce-4be1-a73d-f8453c07ee0f"},"vehicle_type_id":"4","last_reported":1725387096,"current_range_meters":0,"station_id":"ce4bhbp2rcd13ifvqesg","pricing_plan_id":"cebpf4jnsgd1na2vs0mg"},{"bike_id":"0477cbbc-fd27-4be9-8a6f-f2731702071d","system_id":"levelo_inurba_marseille","lat":43.29734,"lon":5.385397,"is_reserved":false,"is_disabled":false,"rental_uris":{"android":"levelo://app?vid=0477cbbc-fd27-4be9-8a6f-f2731702071d","ios":"levelo://app?vid=0477cbbc-fd27-4be9-8a6f-f2731702071d"},"vehicle_type_id":"4","last_reported":1725387096,"current_range_meters":0,"station_id":"","pricing_plan_id":"cebpf4jnsgd1na2vs0mg"},{"bike_id":"f385fbfc-c9fa-4540-a70e-f5cd1bfe0027","system_id":"levelo_inurba_marseille","lat":43.29304,"lon":5.37451,"is_reserved":false,"is_disabled":false,"rental_uris":{"android":"levelo://app?vid=f385fbfc-c9fa-4540-a70e-f5cd1bfe0027","ios":"levelo://app?vid=f385fbfc-c9fa-4540-a70e-f5cd1bfe0027"},"vehicle_type_id":"4","last_reported":1725387096,"current_range_meters":0,"station_id":"ce4bgi12rcd13ifvqb70","pricing_plan_id":"cebpf4jnsgd1na2vs0mg"},{"bike_id":"e36ffac7-7c35-4188-88f6-00b1045764e1","system_id":"levelo_inurba_marseille","lat":43.293009,"lon":5.374584,"is_reserved":false,"is_disabled":false,"rental_uris":{"android":"levelo://app?vid=e36ffac7-7c35-4188-88f6-00b1045764e1","ios":"levelo://app?vid=e36ffac7-7c35-4188-88f6-00b1045764e1"},"vehicle_type_id":"4","last_reported":1725387096,"current_range_meters":2400,"station_id":"ce4bgi12rcd13ifvqb70","pricing_plan_id":"cebpf4jnsgd1na2vs0mg"},{"bike_id":"fbcc2e7b-e926-4e03-bcb7-db842247b0ee","system_id":"levelo_inurba_marseille","lat":43.305994,"lon":5.393687,"is_reserved":false,"is_disabled":false,"rental_uris":{"android":"levelo://app?vid=fbcc2e7b-e926-4e03-bcb7-db842247b0ee","ios":"levelo://app?vid=fbcc2e7b-e926-4e03-bcb7-db842247b0ee"},"vehicle_type_id":"4","last_reported":1725387096,"current_range_meters":30400,"station_id":"ce4bh0p2rcd13ifvqd80","pricing_plan_id":"cebpf4jnsgd1na2vs0mg"},{"bike_id":"440d4d3c-8a25-4370-a668-558220726d2d","system_id":"levelo_inurba_marseille","lat":43.305994,"lon":5.393687,"is_reserved":false,"is_disabled":false,"rental_uris":{"android":"levelo://app?vid=440d4d3c-8a25-4370-a668-558220726d2d","ios":"levelo://app?vid=440d4d3c-8a25-4370-a668-558220726d2d"},"vehicle_type_id":"4","last_reported":1725387096,"current_range_meters":32000,"station_id":"ce4bh0p2rcd13ifvqd80","pricing_plan_id":"cebpf4jnsgd1na2vs0mg"},{"bike_id":"b2d7d240-c539-45fd-b371-66d94baf32e9","system_id":"levelo_inurba_marseille","lat":43.305994,"lon":5.393687,"is_reserved":false,"is_disabled":false,"rental_uris":{"android":"levelo://app?vid=b2d7d240-c539-45fd-b371-66d94baf32e9","ios":"levelo://app?vid=b2d7d240-c539-45fd-b371-66d94baf32e9"},"vehicle_type_id":"4","last_reported":1725387096,"current_range_meters":6400,"station_id":"ce4bh0p2rcd13ifvqd80","pricing_plan_id":"cebpf4jnsgd1na2vs0mg"},{"bike_id":"2edc192a-6294-4134-a2a9-481ef2ee4aac","system_id":"levelo_inurba_marseille","lat":43.305994,"lon":5.393687,"is_reserved":false,"is_disabled":false,"rental_uris":{"android":"levelo://app?vid=2edc192a-6294-4134-a2a9-481ef2ee4aac","ios":"levelo://app?vid=2edc192a-6294-4134-a2a9-481ef2ee4aac"},"vehicle_type_id":"4","last_reported":1725387096,"current_range_meters":3200,"station_id":"ce4bh0p2rcd13ifvqd80","pricing_plan_id":"cebpf4jnsgd1na2vs0mg"},{"bike_id":"6af6b24b-0941-45dd-933b-3bea42306789","system_id":"levelo_inurba_marseille","lat":43.305994,"lon":5.393687,"is_reserved":false,"is_disabled":false,"rental_uris":{"android":"levelo://app?vid=6af6b24b-0941-45dd-933b-3bea42306789","ios":"levelo://app?vid=6af6b24b-0941-45dd-933b-3bea42306789"},"vehicle_type_id":"4","last_reported":1725387096,"current_range_meters":6400,"station_id":"ce4bh0p2rcd13ifvqd80","pricing_plan_id":"cebpf4jnsgd1na2vs0mg"},{"bike_id":"a6841d26-9844-4518-ba75-8738d24d5fe8","system_id":"levelo_inurba_marseille","lat":43.305994,"lon":5.393687,"is_reserved":false,"is_disabled":false,"rental_uris":{"android":"levelo://app?vid=a6841d26-9844-4518-ba75-8738d24d5fe8","ios":"levelo://app?vid=a6841d26-9844-4518-ba75-8738d24d5fe8"},"vehicle_type_id":"4","last_reported":1725387096,"current_range_meters":31200,"station_id":"ce4bh0p2rcd13ifvqd80","pricing_plan_id":"cebpf4jnsgd1na2vs0mg"},{"bike_id":"876a8726-7c73-4648-8d99-90c2b950bb95","system_id":"levelo_inurba_marseille","lat":43.305994,"lon":5.393687,"is_reserved":false,"is_disabled":false,"rental_uris":{"android":"levelo://app?vid=876a8726-7c73-4648-8d99-90c2b950bb95","ios":"levelo://app?vid=876a8726-7c73-4648-8d99-90c2b950bb95"},"vehicle_type_id":"4","last_reported":1725387096,"current_range_meters":12000,"station_id":"ce4bh0p2rcd13ifvqd80","pricing_plan_id":"cebpf4jnsgd1na2vs0mg"},{"bike_id":"8ba171c9-90bc-41c6-9625-442696e7d50d","system_id":"levelo_inurba_marseille","lat":43.302992,"lon":5.392136,"is_reserved":false,"is_disabled":false,"rental_uris":{"android":"levelo://app?vid=8ba171c9-90bc-41c6-9625-442696e7d50d","ios":"levelo://app?vid=8ba171c9-90bc-41c6-9625-442696e7d50d"},"vehicle_type_id":"4","last_reported":1725387096,"current_range_meters":0,"station_id":"ce4bgkh2rcd13ifvqbk0","pricing_plan_id":"cebpf4jnsgd1na2vs0mg"},{"bike_id":"f2b61339-1f30-497c-8011-b7066e23ccd4","system_id":"levelo_inurba_marseille","lat":43.303002,"lon":5.392142,"is_reserved":false,"is_disabled":false,"rental_uris":{"android":"levelo://app?vid=f2b61339-1f30-497c-8011-b7066e23ccd4","ios":"levelo://app?vid=f2b61339-1f30-497c-8011-b7066e23ccd4"},"vehicle_type_id":"4","last_reported":1725387096,"current_range_meters":2000,"station_id":"ce4bgkh2rcd13ifvqbk0","pricing_plan_id":"cebpf4jnsgd1na2vs0mg"},{"bike_id":"f8c77d52-5394-49e5-983c-5cf8cecc9557","system_id":"levelo_inurba_marseille","lat":43.303002,"lon":5.392142,"is_reserved":false,"is_disabled":false,"rental_uris":{"android":"levelo://app?vid=f8c77d52-5394-49e5-983c-5cf8cecc9557","ios":"levelo://app?vid=f8c77d52-5394-49e5-983c-5cf8cecc9557"},"vehicle_type_id":"4","last_reported":1725387096,"current_range_meters":0,"station_id":"ce4bgkh2rcd13ifvqbk0","pricing_plan_id":"cebpf4jnsgd1na2vs0mg"},{"bike_id":"df68f96b-d57e-4c67-b94b-e05d69f916a3","system_id":"levelo_inurba_marseille","lat":43.303002,"lon":5.392142,"is_reserved":false,"is_disabled":false,"rental_uris":{"android":"levelo://app?vid=df68f96b-d57e-4c67-b94b-e05d69f916a3","ios":"levelo://app?vid=df68f96b-d57e-4c67-b94b-e05d69f916a3"},"vehicle_type_id":"4","last_reported":1725387096,"current_range_meters":18400,"station_id":"ce4bgkh2rcd13ifvqbk0","pricing_plan_id":"cebpf4jnsgd1na2vs0mg"},{"bike_id":"3ff667ff-b156-41b6-b5b6-afdd68ddec5c","system_id":"levelo_inurba_marseille","lat":43.302992,"lon":5.392136,"is_reserved":false,"is_disabled":false,"rental_uris":{"android":"levelo://app?vid=3ff667ff-b156-41b6-b5b6-afdd68ddec5c","ios":"levelo://app?vid=3ff667ff-b156-41b6-b5b6-afdd68ddec5c"},"vehicle_type_id":"4","last_reported":1725387096,"current_range_meters":2400,"station_id":"ce4bgkh2rcd13ifvqbk0","pricing_plan_id":"cebpf4jnsgd1na2vs0mg"},{"bike_id":"b510cd6b-158b-4b3a-8eeb-a01f62e80e72","system_id":"levelo_inurba_marseille","lat":43.30296,"lon":5.39206,"is_reserved":false,"is_disabled":false,"rental_uris":{"android":"levelo://app?vid=b510cd6b-158b-4b3a-8eeb-a01f62e80e72","ios":"levelo://app?vid=b510cd6b-158b-4b3a-8eeb-a01f62e80e72"},"vehicle_type_id":"4","last_reported":1725387096,"current_range_meters":0,"station_id":"ce4bgkh2rcd13ifvqbk0","pricing_plan_id":"cebpf4jnsgd1na2vs0mg"},{"bike_id":"4bb58fac-ea46-465a-9663-5e1ea9e2f54e","system_id":"levelo_inurba_marseille","lat":43.302992,"lon":5.392136,"is_reserved":false,"is_disabled":false,"rental_uris":{"android":"levelo://app?vid=4bb58fac-ea46-465a-9663-5e1ea9e2f54e","ios":"levelo://app?vid=4bb58fac-ea46-465a-9663-5e1ea9e2f54e"},"vehicle_type_id":"4","last_reported":1725387096,"current_range_meters":0,"station_id":"ce4bgkh2rcd13ifvqbk0","pricing_plan_id":"cebpf4jnsgd1na2vs0mg"},{"bike_id":"f8f65af2-6ee9-4400-9faf-749d516912e6","system_id":"levelo_inurba_marseille","lat":43.2936,"lon":5.37835,"is_reserved":false,"is_disabled":false,"rental_uris":{"android":"levelo://app?vid=f8f65af2-6ee9-4400-9faf-749d516912e6","ios":"levelo://app?vid=f8f65af2-6ee9-4400-9faf-749d516912e6"},"vehicle_type_id":"4","last_reported":1725387096,"current_range_meters":0,"station_id":"ce4bgjh2rcd13ifvqbf0","pricing_plan_id":"cebpf4jnsgd1na2vs0mg"},{"bike_id":"779c2737-83f6-4d8a-a5e8-526164c1173f","system_id":"levelo_inurba_marseille","lat":43.292311,"lon":5.360731,"is_reserved":false,"is_disabled":false,"rental_uris":{"android":"levelo://app?vid=779c2737-83f6-4d8a-a5e8-526164c1173f","ios":"levelo://app?vid=779c2737-83f6-4d8a-a5e8-526164c1173f"},"vehicle_type_id":"4","last_reported":1725387096,"current_range_meters":0,"station_id":"ce4bhbh2rcd13ifvqeqg","pricing_plan_id":"cebpf4jnsgd1na2vs0mg"},{"bike_id":"b2f1f47d-53bf-431c-9db5-f77fce765ee9","system_id":"levelo_inurba_marseille","lat":43.292311,"lon":5.360731,"is_reserved":false,"is_disabled":false,"rental_uris":{"android":"levelo://app?vid=b2f1f47d-53bf-431c-9db5-f77fce765ee9","ios":"levelo://app?vid=b2f1f47d-53bf-431c-9db5-f77fce765ee9"},"vehicle_type_id":"4","last_reported":1725387096,"current_range_meters":31200,"station_id":"ce4bhbh2rcd13ifvqeqg","pricing_plan_id":"cebpf4jnsgd1na2vs0mg"},{"bike_id":"6909dd54-d216-4be2-b271-38c82e63c44b","system_id":"levelo_inurba_marseille","lat":43.292311,"lon":5.360731,"is_reserved":false,"is_disabled":false,"rental_uris":{"android":"levelo://app?vid=6909dd54-d216-4be2-b271-38c82e63c44b","ios":"levelo://app?vid=6909dd54-d216-4be2-b271-38c82e63c44b"},"vehicle_type_id":"4","last_reported":1725387096,"current_range_meters":31200,"station_id":"ce4bhbh2rcd13ifvqeqg","pricing_plan_id":"cebpf4jnsgd1na2vs0mg"},{"bike_id":"59b43048-16ff-4052-a090-dc168e9000f5","system_id":"levelo_inurba_marseille","lat":43.33373,"lon":5.3664,"is_reserved":false,"is_disabled":false,"rental_uris":{"android":"levelo://app?vid=59b43048-16ff-4052-a090-dc168e9000f5","ios":"levelo://app?vid=59b43048-16ff-4052-a090-dc168e9000f5"},"vehicle_type_id":"4","last_reported":1725387096,"current_range_meters":22400,"station_id":"","pricing_plan_id":"cebpf4jnsgd1na2vs0mg"},{"bike_id":"9e9a05b8-2637-46d4-9412-2dec9622c346","system_id":"levelo_inurba_marseille","lat":43.30085,"lon":5.390856,"is_reserved":false,"is_disabled":false,"rental_uris":{"android":"levelo://app?vid=9e9a05b8-2637-46d4-9412-2dec9622c346","ios":"levelo://app?vid=9e9a05b8-2637-46d4-9412-2dec9622c346"},"vehicle_type_id":"4","last_reported":1725387096,"current_range_meters":9600,"station_id":"ce4bh192rcd13ifvqdb0","pricing_plan_id":"cebpf4jnsgd1na2vs0mg"},{"bike_id":"a38b8a7b-bbeb-4a35-b48f-4eba9cf91bda","system_id":"levelo_inurba_marseille","lat":43.29221,"lon":5.36055,"is_reserved":false,"is_disabled":false,"rental_uris":{"android":"levelo://app?vid=a38b8a7b-bbeb-4a35-b48f-4eba9cf91bda","ios":"levelo://app?vid=a38b8a7b-bbeb-4a35-b48f-4eba9cf91bda"},"vehicle_type_id":"4","last_reported":1725387096,"current_range_meters":31200,"station_id":"ce4bhbh2rcd13ifvqeqg","pricing_plan_id":"cebpf4jnsgd1na2vs0mg"},{"bike_id":"0ce2b6ee-4953-4b0d-af00-f906e88857a0","system_id":"levelo_inurba_marseille","lat":43.298764,"lon":5.388973,"is_reserved":false,"is_disabled":false,"rental_uris":{"android":"levelo://app?vid=0ce2b6ee-4953-4b0d-af00-f906e88857a0","ios":"levelo://app?vid=0ce2b6ee-4953-4b0d-af00-f906e88857a0"},"vehicle_type_id":"4","last_reported":1725387096,"current_range_meters":18000,"station_id":"ce4bh392rcd13ifvqdl0","pricing_plan_id":"cebpf4jnsgd1na2vs0mg"},{"bike_id":"ac1db90e-2555-46bf-a73b-130da8921de3","system_id":"levelo_inurba_marseille","lat":43.298764,"lon":5.388973,"is_reserved":false,"is_disabled":false,"rental_uris":{"android":"levelo://app?vid=ac1db90e-2555-46bf-a73b-130da8921de3","ios":"levelo://app?vid=ac1db90e-2555-46bf-a73b-130da8921de3"},"vehicle_type_id":"4","last_reported":1725387096,"current_range_meters":7200,"station_id":"ce4bh392rcd13ifvqdl0","pricing_plan_id":"cebpf4jnsgd1na2vs0mg"},{"bike_id":"210eed7b-7a65-464c-93c9-50cef9f2b145","system_id":"levelo_inurba_marseille","lat":43.29878,"lon":5.38907,"is_reserved":false,"is_disabled":false,"rental_uris":{"android":"levelo://app?vid=210eed7b-7a65-464c-93c9-50cef9f2b145","ios":"levelo://app?vid=210eed7b-7a65-464c-93c9-50cef9f2b145"},"vehicle_type_id":"4","last_reported":1725387096,"current_range_meters":0,"station_id":"ce4bh392rcd13ifvqdl0","pricing_plan_id":"cebpf4jnsgd1na2vs0mg"},{"bike_id":"7d3e8ce5-4801-4cd4-997d-eb5d9afd99bb","system_id":"levelo_inurba_marseille","lat":43.29163,"lon":5.37156,"is_reserved":false,"is_disabled":false,"rental_uris":{"android":"levelo://app?vid=7d3e8ce5-4801-4cd4-997d-eb5d9afd99bb","ios":"levelo://app?vid=7d3e8ce5-4801-4cd4-997d-eb5d9afd99bb"},"vehicle_type_id":"4","last_reported":1725387096,"current_range_meters":0,"station_id":"ce4bha92rcd13ifvqeh0","pricing_plan_id":"cebpf4jnsgd1na2vs0mg"},{"bike_id":"8d0f04a0-bc6e-4637-9b94-a093c580c955","system_id":"levelo_inurba_marseille","lat":43.29159,"lon":5.37157,"is_reserved":false,"is_disabled":false,"rental_uris":{"android":"levelo://app?vid=8d0f04a0-bc6e-4637-9b94-a093c580c955","ios":"levelo://app?vid=8d0f04a0-bc6e-4637-9b94-a093c580c955"},"vehicle_type_id":"4","last_reported":1725387096,"current_range_meters":0,"station_id":"ce4bha92rcd13ifvqeh0","pricing_plan_id":"cebpf4jnsgd1na2vs0mg"},{"bike_id":"04be60dc-b02a-4362-af40-5d22011bb714","system_id":"levelo_inurba_marseille","lat":43.309038,"lon":5.396546,"is_reserved":false,"is_disabled":false,"rental_uris":{"android":"levelo://app?vid=04be60dc-b02a-4362-af40-5d22011bb714","ios":"levelo://app?vid=04be60dc-b02a-4362-af40-5d22011bb714"},"vehicle_type_id":"4","last_reported":1725387096,"current_range_meters":10400,"station_id":"ce4bh012rcd13ifvqcv0","pricing_plan_id":"cebpf4jnsgd1na2vs0mg"},{"bike_id":"f5c7bd1c-a681-4358-9e76-d1817ed0c1cf","system_id":"levelo_inurba_marseille","lat":43.313291,"lon":5.396838,"is_reserved":false,"is_disabled":false,"rental_uris":{"android":"levelo://app?vid=f5c7bd1c-a681-4358-9e76-d1817ed0c1cf","ios":"levelo://app?vid=f5c7bd1c-a681-4358-9e76-d1817ed0c1cf"},"vehicle_type_id":"4","last_reported":1725387096,"current_range_meters":19600,"station_id":"ce4bgvp2rcd13ifvqcu0","pricing_plan_id":"cebpf4jnsgd1na2vs0mg"},{"bike_id":"f7539413-4f3e-45d9-8f61-a909e5d057d4","system_id":"levelo_inurba_marseille","lat":43.30889,"lon":5.39655,"is_reserved":false,"is_disabled":false,"rental_uris":{"android":"levelo://app?vid=f7539413-4f3e-45d9-8f61-a909e5d057d4","ios":"levelo://app?vid=f7539413-4f3e-45d9-8f61-a909e5d057d4"},"vehicle_type_id":"4","last_reported":1725387096,"current_range_meters":0,"station_id":"ce4bh012rcd13ifvqcv0","pricing_plan_id":"cebpf4jnsgd1na2vs0mg"},{"bike_id":"bce50e60-b8db-416b-8d73-0dd104accff8","system_id":"levelo_inurba_marseille","lat":43.309038,"lon":5.396546,"is_reserved":false,"is_disabled":false,"rental_uris":{"android":"levelo://app?vid=bce50e60-b8db-416b-8d73-0dd104accff8","ios":"levelo://app?vid=bce50e60-b8db-416b-8d73-0dd104accff8"},"vehicle_type_id":"4","last_reported":1725387096,"current_range_meters":9200,"station_id":"ce4bh012rcd13ifvqcv0","pricing_plan_id":"cebpf4jnsgd1na2vs0mg"},{"bike_id":"815a3e21-f2e8-4fb1-b56d-11da7557f7f6","system_id":"levelo_inurba_marseille","lat":43.29528,"lon":5.38538,"is_reserved":false,"is_disabled":false,"rental_uris":{"android":"levelo://app?vid=815a3e21-f2e8-4fb1-b56d-11da7557f7f6","ios":"levelo://app?vid=815a3e21-f2e8-4fb1-b56d-11da7557f7f6"},"vehicle_type_id":"4","last_reported":1725387096,"current_range_meters":30400,"station_id":"ce4bgih2rcd13ifvqba0","pricing_plan_id":"cebpf4jnsgd1na2vs0mg"},{"bike_id":"50ba255b-8ba1-49ed-bab0-4a3f4415b890","system_id":"levelo_inurba_marseille","lat":43.302008,"lon":5.394694,"is_reserved":false,"is_disabled":false,"rental_uris":{"android":"levelo://app?vid=50ba255b-8ba1-49ed-bab0-4a3f4415b890","ios":"levelo://app?vid=50ba255b-8ba1-49ed-bab0-4a3f4415b890"},"vehicle_type_id":"4","last_reported":1725387096,"current_range_meters":0,"station_id":"ce4bh0p2rcd13ifvqd70","pricing_plan_id":"cebpf4jnsgd1na2vs0mg"},{"bike_id":"5a95b26a-d894-448a-b251-bca03e487828","system_id":"levelo_inurba_marseille","lat":43.29043,"lon":5.37567,"is_reserved":false,"is_disabled":false,"rental_uris":{"android":"levelo://app?vid=5a95b26a-d894-448a-b251-bca03e487828","ios":"levelo://app?vid=5a95b26a-d894-448a-b251-bca03e487828"},"vehicle_type_id":"4","last_reported":1725387096,"current_range_meters":0,"station_id":"ce4bh692rcd13ifvqe90","pricing_plan_id":"cebpf4jnsgd1na2vs0mg"},{"bike_id":"eb608c70-5c96-4821-8ac9-2ae38a17b132","system_id":"levelo_inurba_marseille","lat":43.290319,"lon":5.375732,"is_reserved":false,"is_disabled":false,"rental_uris":{"android":"levelo://app?vid=eb608c70-5c96-4821-8ac9-2ae38a17b132","ios":"levelo://app?vid=eb608c70-5c96-4821-8ac9-2ae38a17b132"},"vehicle_type_id":"4","last_reported":1725387096,"current_range_meters":1200,"station_id":"ce4bh692rcd13ifvqe90","pricing_plan_id":"cebpf4jnsgd1na2vs0mg"},{"bike_id":"fe314f32-e7dd-43fe-9eec-911f58045f57","system_id":"levelo_inurba_marseille","lat":43.29417,"lon":5.38626,"is_reserved":false,"is_disabled":false,"rental_uris":{"android":"levelo://app?vid=fe314f32-e7dd-43fe-9eec-911f58045f57","ios":"levelo://app?vid=fe314f32-e7dd-43fe-9eec-911f58045f57"},"vehicle_type_id":"4","last_reported":1725387096,"current_range_meters":0,"station_id":"ce4bh2h2rcd13ifvqdh0","pricing_plan_id":"cebpf4jnsgd1na2vs0mg"},{"bike_id":"6b097b94-9955-45bf-b0dc-93cb650cd248","system_id":"levelo_inurba_marseille","lat":43.289503,"lon":5.36398,"is_reserved":false,"is_disabled":false,"rental_uris":{"android":"levelo://app?vid=6b097b94-9955-45bf-b0dc-93cb650cd248","ios":"levelo://app?vid=6b097b94-9955-45bf-b0dc-93cb650cd248"},"vehicle_type_id":"4","last_reported":1725387096,"current_range_meters":0,"station_id":"ce4bhc92rcd13ifvqetg","pricing_plan_id":"cebpf4jnsgd1na2vs0mg"},{"bike_id":"6a4463ca-fc9e-4d05-a3ad-4cb5bad4610e","system_id":"levelo_inurba_marseille","lat":43.289468,"lon":5.363719,"is_reserved":false,"is_disabled":false,"rental_uris":{"android":"levelo://app?vid=6a4463ca-fc9e-4d05-a3ad-4cb5bad4610e","ios":"levelo://app?vid=6a4463ca-fc9e-4d05-a3ad-4cb5bad4610e"},"vehicle_type_id":"4","last_reported":1725387096,"current_range_meters":0,"station_id":"ce4bhc92rcd13ifvqetg","pricing_plan_id":"cebpf4jnsgd1na2vs0mg"},{"bike_id":"f39ab6b8-de45-4613-9787-da5830b19155","system_id":"levelo_inurba_marseille","lat":43.28947,"lon":5.36391,"is_reserved":false,"is_disabled":false,"rental_uris":{"android":"levelo://app?vid=f39ab6b8-de45-4613-9787-da5830b19155","ios":"levelo://app?vid=f39ab6b8-de45-4613-9787-da5830b19155"},"vehicle_type_id":"4","last_reported":1725387096,"current_range_meters":0,"station_id":"ce4bhc92rcd13ifvqetg","pricing_plan_id":"cebpf4jnsgd1na2vs0mg"},{"bike_id":"ad34ebca-6519-44b8-9288-a68800adc4cc","system_id":"levelo_inurba_marseille","lat":43.289184,"lon":5.366408,"is_reserved":false,"is_disabled":false,"rental_uris":{"android":"levelo://app?vid=ad34ebca-6519-44b8-9288-a68800adc4cc","ios":"levelo://app?vid=ad34ebca-6519-44b8-9288-a68800adc4cc"},"vehicle_type_id":"4","last_reported":1725387096,"current_range_meters":30400,"station_id":"ce4bhap2rcd13ifvqek0","pricing_plan_id":"cebpf4jnsgd1na2vs0mg"},{"bike_id":"ee963a5c-b9fa-410a-90bd-c3d46c55e4f3","system_id":"levelo_inurba_marseille","lat":43.289184,"lon":5.366408,"is_reserved":false,"is_disabled":false,"rental_uris":{"android":"levelo://app?vid=ee963a5c-b9fa-410a-90bd-c3d46c55e4f3","ios":"levelo://app?vid=ee963a5c-b9fa-410a-90bd-c3d46c55e4f3"},"vehicle_type_id":"4","last_reported":1725387096,"current_range_meters":6800,"station_id":"ce4bhap2rcd13ifvqek0","pricing_plan_id":"cebpf4jnsgd1na2vs0mg"},{"bike_id":"f808943d-80d6-4908-8386-8af4704175b9","system_id":"levelo_inurba_marseille","lat":43.289184,"lon":5.366408,"is_reserved":false,"is_disabled":false,"rental_uris":{"android":"levelo://app?vid=f808943d-80d6-4908-8386-8af4704175b9","ios":"levelo://app?vid=f808943d-80d6-4908-8386-8af4704175b9"},"vehicle_type_id":"4","last_reported":1725387096,"current_range_meters":19200,"station_id":"ce4bhap2rcd13ifvqek0","pricing_plan_id":"cebpf4jnsgd1na2vs0mg"},{"bike_id":"33834c0d-5438-42e6-aa89-7f5f63c54728","system_id":"levelo_inurba_marseille","lat":43.289184,"lon":5.366408,"is_reserved":false,"is_disabled":false,"rental_uris":{"android":"levelo://app?vid=33834c0d-5438-42e6-aa89-7f5f63c54728","ios":"levelo://app?vid=33834c0d-5438-42e6-aa89-7f5f63c54728"},"vehicle_type_id":"4","last_reported":1725387096,"current_range_meters":0,"station_id":"ce4bhap2rcd13ifvqek0","pricing_plan_id":"cebpf4jnsgd1na2vs0mg"},{"bike_id":"bf44e58d-b334-4abf-9bb5-cb7c785d90c4","system_id":"levelo_inurba_marseille","lat":43.289184,"lon":5.366408,"is_reserved":false,"is_disabled":false,"rental_uris":{"android":"levelo://app?vid=bf44e58d-b334-4abf-9bb5-cb7c785d90c4","ios":"levelo://app?vid=bf44e58d-b334-4abf-9bb5-cb7c785d90c4"},"vehicle_type_id":"4","last_reported":1725387096,"current_range_meters":0,"station_id":"ce4bhap2rcd13ifvqek0","pricing_plan_id":"cebpf4jnsgd1na2vs0mg"},{"bike_id":"701e9b1a-4fd7-43b5-b777-7d0b8dae2e11","system_id":"levelo_inurba_marseille","lat":43.289184,"lon":5.366408,"is_reserved":false,"is_disabled":false,"rental_uris":{"android":"levelo://app?vid=701e9b1a-4fd7-43b5-b777-7d0b8dae2e11","ios":"levelo://app?vid=701e9b1a-4fd7-43b5-b777-7d0b8dae2e11"},"vehicle_type_id":"4","last_reported":1725387096,"current_range_meters":21200,"station_id":"ce4bhap2rcd13ifvqek0","pricing_plan_id":"cebpf4jnsgd1na2vs0mg"},{"bike_id":"da054b08-1d40-4845-8901-d63d323404d1","system_id":"levelo_inurba_marseille","lat":43.289468,"lon":5.363719,"is_reserved":false,"is_disabled":false,"rental_uris":{"android":"levelo://app?vid=da054b08-1d40-4845-8901-d63d323404d1","ios":"levelo://app?vid=da054b08-1d40-4845-8901-d63d323404d1"},"vehicle_type_id":"4","last_reported":1725387096,"current_range_meters":12000,"station_id":"ce4bhc92rcd13ifvqetg","pricing_plan_id":"cebpf4jnsgd1na2vs0mg"},{"bike_id":"b2fb4fc8-e971-4124-a2a2-2b1d9b8a670a","system_id":"levelo_inurba_marseille","lat":43.2927,"lon":5.38444,"is_reserved":false,"is_disabled":false,"rental_uris":{"android":"levelo://app?vid=b2fb4fc8-e971-4124-a2a2-2b1d9b8a670a","ios":"levelo://app?vid=b2fb4fc8-e971-4124-a2a2-2b1d9b8a670a"},"vehicle_type_id":"4","last_reported":1725387096,"current_range_meters":26800,"station_id":"","pricing_plan_id":"cebpf4jnsgd1na2vs0mg"},{"bike_id":"bbb69a22-0cc9-4d97-811b-b0d940361ed7","system_id":"levelo_inurba_marseille","lat":43.292642,"lon":5.384254,"is_reserved":false,"is_disabled":false,"rental_uris":{"android":"levelo://app?vid=bbb69a22-0cc9-4d97-811b-b0d940361ed7","ios":"levelo://app?vid=bbb69a22-0cc9-4d97-811b-b0d940361ed7"},"vehicle_type_id":"4","last_reported":1725387096,"current_range_meters":17200,"station_id":"ce4bh692rcd13ifvqea0","pricing_plan_id":"cebpf4jnsgd1na2vs0mg"},{"bike_id":"05b93f5a-ee9d-4861-9779-573ea52817d7","system_id":"levelo_inurba_marseille","lat":43.29266,"lon":5.38444,"is_reserved":false,"is_disabled":false,"rental_uris":{"android":"levelo://app?vid=05b93f5a-ee9d-4861-9779-573ea52817d7","ios":"levelo://app?vid=05b93f5a-ee9d-4861-9779-573ea52817d7"},"vehicle_type_id":"4","last_reported":1725387096,"current_range_meters":0,"station_id":"ce4bh692rcd13ifvqea0","pricing_plan_id":"cebpf4jnsgd1na2vs0mg"},{"bike_id":"ca253939-f239-4a25-9335-a57cfeee4dcb","system_id":"levelo_inurba_marseille","lat":43.29266,"lon":5.38444,"is_reserved":false,"is_disabled":false,"rental_uris":{"android":"levelo://app?vid=ca253939-f239-4a25-9335-a57cfeee4dcb","ios":"levelo://app?vid=ca253939-f239-4a25-9335-a57cfeee4dcb"},"vehicle_type_id":"4","last_reported":1725387096,"current_range_meters":0,"station_id":"ce4bh692rcd13ifvqea0","pricing_plan_id":"cebpf4jnsgd1na2vs0mg"},{"bike_id":"f9705ae1-dbd4-49c7-b692-e6f3e8afa83f","system_id":"levelo_inurba_marseille","lat":43.292642,"lon":5.384254,"is_reserved":false,"is_disabled":false,"rental_uris":{"android":"levelo://app?vid=f9705ae1-dbd4-49c7-b692-e6f3e8afa83f","ios":"levelo://app?vid=f9705ae1-dbd4-49c7-b692-e6f3e8afa83f"},"vehicle_type_id":"4","last_reported":1725387096,"current_range_meters":0,"station_id":"ce4bh692rcd13ifvqea0","pricing_plan_id":"cebpf4jnsgd1na2vs0mg"},{"bike_id":"3566f756-2075-47d6-b623-2b88c9ad80f8","system_id":"levelo_inurba_marseille","lat":43.29264,"lon":5.38445,"is_reserved":false,"is_disabled":false,"rental_uris":{"android":"levelo://app?vid=3566f756-2075-47d6-b623-2b88c9ad80f8","ios":"levelo://app?vid=3566f756-2075-47d6-b623-2b88c9ad80f8"},"vehicle_type_id":"4","last_reported":1725387096,"current_range_meters":0,"station_id":"ce4bh692rcd13ifvqea0","pricing_plan_id":"cebpf4jnsgd1na2vs0mg"},{"bike_id":"2e500f74-a830-4a77-9e55-3fc3135e4652","system_id":"levelo_inurba_marseille","lat":43.290103,"lon":5.356114,"is_reserved":false,"is_disabled":false,"rental_uris":{"android":"levelo://app?vid=2e500f74-a830-4a77-9e55-3fc3135e4652","ios":"levelo://app?vid=2e500f74-a830-4a77-9e55-3fc3135e4652"},"vehicle_type_id":"4","last_reported":1725387096,"current_range_meters":10000,"station_id":"ce4bhb92rcd13ifvqen0","pricing_plan_id":"cebpf4jnsgd1na2vs0mg"},{"bike_id":"2106e532-5276-4441-b532-0b804b933d5e","system_id":"levelo_inurba_marseille","lat":43.290103,"lon":5.356114,"is_reserved":false,"is_disabled":false,"rental_uris":{"android":"levelo://app?vid=2106e532-5276-4441-b532-0b804b933d5e","ios":"levelo://app?vid=2106e532-5276-4441-b532-0b804b933d5e"},"vehicle_type_id":"4","last_reported":1725387096,"current_range_meters":12800,"station_id":"ce4bhb92rcd13ifvqen0","pricing_plan_id":"cebpf4jnsgd1na2vs0mg"},{"bike_id":"d4c5b3b1-e468-4da3-8e40-798b34698f68","system_id":"levelo_inurba_marseille","lat":43.290104,"lon":5.356111,"is_reserved":false,"is_disabled":false,"rental_uris":{"android":"levelo://app?vid=d4c5b3b1-e468-4da3-8e40-798b34698f68","ios":"levelo://app?vid=d4c5b3b1-e468-4da3-8e40-798b34698f68"},"vehicle_type_id":"4","last_reported":1725387096,"current_range_meters":0,"station_id":"ce4bhb92rcd13ifvqen0","pricing_plan_id":"cebpf4jnsgd1na2vs0mg"},{"bike_id":"33f272b2-6323-4786-8fdf-6d6a825ca712","system_id":"levelo_inurba_marseille","lat":43.290103,"lon":5.356114,"is_reserved":false,"is_disabled":false,"rental_uris":{"android":"levelo://app?vid=33f272b2-6323-4786-8fdf-6d6a825ca712","ios":"levelo://app?vid=33f272b2-6323-4786-8fdf-6d6a825ca712"},"vehicle_type_id":"4","last_reported":1725387096,"current_range_meters":21200,"station_id":"ce4bhb92rcd13ifvqen0","pricing_plan_id":"cebpf4jnsgd1na2vs0mg"},{"bike_id":"0aa2adcd-cb63-4470-ae4d-7b8105d1f23c","system_id":"levelo_inurba_marseille","lat":43.290104,"lon":5.356111,"is_reserved":false,"is_disabled":false,"rental_uris":{"android":"levelo://app?vid=0aa2adcd-cb63-4470-ae4d-7b8105d1f23c","ios":"levelo://app?vid=0aa2adcd-cb63-4470-ae4d-7b8105d1f23c"},"vehicle_type_id":"4","last_reported":1725387096,"current_range_meters":11200,"station_id":"ce4bhb92rcd13ifvqen0","pricing_plan_id":"cebpf4jnsgd1na2vs0mg"},{"bike_id":"b2cad73d-73af-42b9-9131-86ac4ec2eb04","system_id":"levelo_inurba_marseille","lat":43.290103,"lon":5.356114,"is_reserved":false,"is_disabled":false,"rental_uris":{"android":"levelo://app?vid=b2cad73d-73af-42b9-9131-86ac4ec2eb04","ios":"levelo://app?vid=b2cad73d-73af-42b9-9131-86ac4ec2eb04"},"vehicle_type_id":"4","last_reported":1725387096,"current_range_meters":29200,"station_id":"ce4bhb92rcd13ifvqen0","pricing_plan_id":"cebpf4jnsgd1na2vs0mg"},{"bike_id":"4135f048-2281-4ceb-94da-f878c045f5d4","system_id":"levelo_inurba_marseille","lat":43.29096,"lon":5.38149,"is_reserved":false,"is_disabled":false,"rental_uris":{"android":"levelo://app?vid=4135f048-2281-4ceb-94da-f878c045f5d4","ios":"levelo://app?vid=4135f048-2281-4ceb-94da-f878c045f5d4"},"vehicle_type_id":"4","last_reported":1725387096,"current_range_meters":0,"station_id":"ce4bh512rcd13ifvqe2g","pricing_plan_id":"cebpf4jnsgd1na2vs0mg"},{"bike_id":"0abb0059-5960-4c73-92f2-69d091ee6f7b","system_id":"levelo_inurba_marseille","lat":43.294162,"lon":5.386292,"is_reserved":false,"is_disabled":false,"rental_uris":{"android":"levelo://app?vid=0abb0059-5960-4c73-92f2-69d091ee6f7b","ios":"levelo://app?vid=0abb0059-5960-4c73-92f2-69d091ee6f7b"},"vehicle_type_id":"4","last_reported":1725387096,"current_range_meters":10800,"station_id":"ce4bh2h2rcd13ifvqdh0","pricing_plan_id":"cebpf4jnsgd1na2vs0mg"},{"bike_id":"515c69c8-0c6a-43bc-a335-56fc2bd52520","system_id":"levelo_inurba_marseille","lat":43.297815,"lon":5.393548,"is_reserved":false,"is_disabled":false,"rental_uris":{"android":"levelo://app?vid=515c69c8-0c6a-43bc-a335-56fc2bd52520","ios":"levelo://app?vid=515c69c8-0c6a-43bc-a335-56fc2bd52520"},"vehicle_type_id":"4","last_reported":1725387096,"current_range_meters":15600,"station_id":"chh1huq6cuj3fo74tm60","pricing_plan_id":"cebpf4jnsgd1na2vs0mg"},{"bike_id":"46bd723f-f193-4ef0-b1ab-95127dacdbea","system_id":"levelo_inurba_marseille","lat":43.29534,"lon":5.390317,"is_reserved":false,"is_disabled":false,"rental_uris":{"android":"levelo://app?vid=46bd723f-f193-4ef0-b1ab-95127dacdbea","ios":"levelo://app?vid=46bd723f-f193-4ef0-b1ab-95127dacdbea"},"vehicle_type_id":"4","last_reported":1725387096,"current_range_meters":0,"station_id":"ce4bh3p2rcd13ifvqdp0","pricing_plan_id":"cebpf4jnsgd1na2vs0mg"},{"bike_id":"3713b7c6-0d7e-4544-8057-357999a71cdc","system_id":"levelo_inurba_marseille","lat":43.29529,"lon":5.39029,"is_reserved":false,"is_disabled":false,"rental_uris":{"android":"levelo://app?vid=3713b7c6-0d7e-4544-8057-357999a71cdc","ios":"levelo://app?vid=3713b7c6-0d7e-4544-8057-357999a71cdc"},"vehicle_type_id":"4","last_reported":1725387096,"current_range_meters":1200,"station_id":"ce4bh3p2rcd13ifvqdp0","pricing_plan_id":"cebpf4jnsgd1na2vs0mg"},{"bike_id":"2936c493-43dd-48b8-b2b7-69814c603405","system_id":"levelo_inurba_marseille","lat":43.310692,"lon":5.400328,"is_reserved":false,"is_disabled":false,"rental_uris":{"android":"levelo://app?vid=2936c493-43dd-48b8-b2b7-69814c603405","ios":"levelo://app?vid=2936c493-43dd-48b8-b2b7-69814c603405"},"vehicle_type_id":"4","last_reported":1725387096,"current_range_meters":0,"station_id":"","pricing_plan_id":"cebpf4jnsgd1na2vs0mg"},{"bike_id":"0c436c36-d5bd-434a-abae-bd5db3dfd1d2","system_id":"levelo_inurba_marseille","lat":43.295169,"lon":5.390426,"is_reserved":false,"is_disabled":false,"rental_uris":{"android":"levelo://app?vid=0c436c36-d5bd-434a-abae-bd5db3dfd1d2","ios":"levelo://app?vid=0c436c36-d5bd-434a-abae-bd5db3dfd1d2"},"vehicle_type_id":"4","last_reported":1725387096,"current_range_meters":9600,"station_id":"ce4bh3p2rcd13ifvqdp0","pricing_plan_id":"cebpf4jnsgd1na2vs0mg"},{"bike_id":"f2ca32ec-9bea-4d8d-8325-8840e1ad59c5","system_id":"levelo_inurba_marseille","lat":43.297815,"lon":5.393548,"is_reserved":false,"is_disabled":false,"rental_uris":{"android":"levelo://app?vid=f2ca32ec-9bea-4d8d-8325-8840e1ad59c5","ios":"levelo://app?vid=f2ca32ec-9bea-4d8d-8325-8840e1ad59c5"},"vehicle_type_id":"4","last_reported":1725387096,"current_range_meters":22800,"station_id":"chh1huq6cuj3fo74tm60","pricing_plan_id":"cebpf4jnsgd1na2vs0mg"},{"bike_id":"a3111919-322d-4ecc-a5d9-8211c2043b3f","system_id":"levelo_inurba_marseille","lat":43.29768,"lon":5.39335,"is_reserved":false,"is_disabled":false,"rental_uris":{"android":"levelo://app?vid=a3111919-322d-4ecc-a5d9-8211c2043b3f","ios":"levelo://app?vid=a3111919-322d-4ecc-a5d9-8211c2043b3f"},"vehicle_type_id":"4","last_reported":1725387096,"current_range_meters":2800,"station_id":"chh1huq6cuj3fo74tm60","pricing_plan_id":"cebpf4jnsgd1na2vs0mg"},{"bike_id":"90f45e91-48a8-4156-9692-888515543217","system_id":"levelo_inurba_marseille","lat":43.33019,"lon":5.39044,"is_reserved":false,"is_disabled":false,"rental_uris":{"android":"levelo://app?vid=90f45e91-48a8-4156-9692-888515543217","ios":"levelo://app?vid=90f45e91-48a8-4156-9692-888515543217"},"vehicle_type_id":"4","last_reported":1725387096,"current_range_meters":0,"station_id":"ce4bhr92rcd13ifvqhrg","pricing_plan_id":"cebpf4jnsgd1na2vs0mg"},{"bike_id":"c4891c7d-9066-45bc-b64d-4f9ab02bbaf3","system_id":"levelo_inurba_marseille","lat":43.33024,"lon":5.39038,"is_reserved":false,"is_disabled":false,"rental_uris":{"android":"levelo://app?vid=c4891c7d-9066-45bc-b64d-4f9ab02bbaf3","ios":"levelo://app?vid=c4891c7d-9066-45bc-b64d-4f9ab02bbaf3"},"vehicle_type_id":"4","last_reported":1725387096,"current_range_meters":0,"station_id":"ce4bhr92rcd13ifvqhrg","pricing_plan_id":"cebpf4jnsgd1na2vs0mg"},{"bike_id":"c29e3bf2-5385-4e1d-8dd7-eeaac68d094a","system_id":"levelo_inurba_marseille","lat":43.330442,"lon":5.389148,"is_reserved":false,"is_disabled":false,"rental_uris":{"android":"levelo://app?vid=c29e3bf2-5385-4e1d-8dd7-eeaac68d094a","ios":"levelo://app?vid=c29e3bf2-5385-4e1d-8dd7-eeaac68d094a"},"vehicle_type_id":"4","last_reported":1725387096,"current_range_meters":30800,"station_id":"ce4bhr92rcd13ifvqhrg","pricing_plan_id":"cebpf4jnsgd1na2vs0mg"},{"bike_id":"6a3154b7-6f19-455d-b739-b37587da3804","system_id":"levelo_inurba_marseille","lat":43.33021,"lon":5.39043,"is_reserved":false,"is_disabled":false,"rental_uris":{"android":"levelo://app?vid=6a3154b7-6f19-455d-b739-b37587da3804","ios":"levelo://app?vid=6a3154b7-6f19-455d-b739-b37587da3804"},"vehicle_type_id":"4","last_reported":1725387096,"current_range_meters":0,"station_id":"ce4bhr92rcd13ifvqhrg","pricing_plan_id":"cebpf4jnsgd1na2vs0mg"},{"bike_id":"22ef025b-0c30-4111-a83f-9d47448b4786","system_id":"levelo_inurba_marseille","lat":43.295169,"lon":5.390426,"is_reserved":false,"is_disabled":false,"rental_uris":{"android":"levelo://app?vid=22ef025b-0c30-4111-a83f-9d47448b4786","ios":"levelo://app?vid=22ef025b-0c30-4111-a83f-9d47448b4786"},"vehicle_type_id":"4","last_reported":1725387096,"current_range_meters":1200,"station_id":"ce4bh3p2rcd13ifvqdp0","pricing_plan_id":"cebpf4jnsgd1na2vs0mg"},{"bike_id":"dad3742e-a759-463a-b086-3fa3c0d5d9c8","system_id":"levelo_inurba_marseille","lat":43.295169,"lon":5.390426,"is_reserved":false,"is_disabled":false,"rental_uris":{"android":"levelo://app?vid=dad3742e-a759-463a-b086-3fa3c0d5d9c8","ios":"levelo://app?vid=dad3742e-a759-463a-b086-3fa3c0d5d9c8"},"vehicle_type_id":"4","last_reported":1725387096,"current_range_meters":24000,"station_id":"ce4bh3p2rcd13ifvqdp0","pricing_plan_id":"cebpf4jnsgd1na2vs0mg"},{"bike_id":"edd42b2c-2743-4474-a9f8-4e91a843d033","system_id":"levelo_inurba_marseille","lat":43.310667,"lon":5.400842,"is_reserved":false,"is_disabled":false,"rental_uris":{"android":"levelo://app?vid=edd42b2c-2743-4474-a9f8-4e91a843d033","ios":"levelo://app?vid=edd42b2c-2743-4474-a9f8-4e91a843d033"},"vehicle_type_id":"4","last_reported":1725387096,"current_range_meters":20000,"station_id":"","pricing_plan_id":"cebpf4jnsgd1na2vs0mg"},{"bike_id":"c89f101e-6c2d-4814-a0ae-57e0035b0296","system_id":"levelo_inurba_marseille","lat":43.290094,"lon":5.381264,"is_reserved":false,"is_disabled":false,"rental_uris":{"android":"levelo://app?vid=c89f101e-6c2d-4814-a0ae-57e0035b0296","ios":"levelo://app?vid=c89f101e-6c2d-4814-a0ae-57e0035b0296"},"vehicle_type_id":"4","last_reported":1725387096,"current_range_meters":0,"station_id":"ce4bh4p2rcd13ifvqe1g","pricing_plan_id":"cebpf4jnsgd1na2vs0mg"},{"bike_id":"8264e6c5-a0d8-48ce-8891-e6f6f41d0cc4","system_id":"levelo_inurba_marseille","lat":43.28856,"lon":5.358371,"is_reserved":false,"is_disabled":false,"rental_uris":{"android":"levelo://app?vid=8264e6c5-a0d8-48ce-8891-e6f6f41d0cc4","ios":"levelo://app?vid=8264e6c5-a0d8-48ce-8891-e6f6f41d0cc4"},"vehicle_type_id":"4","last_reported":1725387096,"current_range_meters":0,"station_id":"ce4bhb12rcd13ifvqem0","pricing_plan_id":"cebpf4jnsgd1na2vs0mg"},{"bike_id":"9c559cef-03c3-423a-823d-5f2b781686cf","system_id":"levelo_inurba_marseille","lat":43.28856,"lon":5.358371,"is_reserved":false,"is_disabled":false,"rental_uris":{"android":"levelo://app?vid=9c559cef-03c3-423a-823d-5f2b781686cf","ios":"levelo://app?vid=9c559cef-03c3-423a-823d-5f2b781686cf"},"vehicle_type_id":"4","last_reported":1725387096,"current_range_meters":28800,"station_id":"ce4bhb12rcd13ifvqem0","pricing_plan_id":"cebpf4jnsgd1na2vs0mg"},{"bike_id":"128c8025-d2e4-4fcc-92e1-302c0f87c26c","system_id":"levelo_inurba_marseille","lat":43.312609,"lon":5.401662,"is_reserved":false,"is_disabled":false,"rental_uris":{"android":"levelo://app?vid=128c8025-d2e4-4fcc-92e1-302c0f87c26c","ios":"levelo://app?vid=128c8025-d2e4-4fcc-92e1-302c0f87c26c"},"vehicle_type_id":"4","last_reported":1725387096,"current_range_meters":7200,"station_id":"ce4bh092rcd13ifvqd30","pricing_plan_id":"cebpf4jnsgd1na2vs0mg"},{"bike_id":"56374aed-132c-4d7a-b1ee-350695c52474","system_id":"levelo_inurba_marseille","lat":43.30933,"lon":5.40147,"is_reserved":false,"is_disabled":false,"rental_uris":{"android":"levelo://app?vid=56374aed-132c-4d7a-b1ee-350695c52474","ios":"levelo://app?vid=56374aed-132c-4d7a-b1ee-350695c52474"},"vehicle_type_id":"4","last_reported":1725387096,"current_range_meters":20000,"station_id":"ce4bgvp2rcd13ifvqct0","pricing_plan_id":"cebpf4jnsgd1na2vs0mg"},{"bike_id":"43cd6c29-9c55-4e75-8ea4-f61cb59669a6","system_id":"levelo_inurba_marseille","lat":43.306476,"lon":5.400826,"is_reserved":false,"is_disabled":false,"rental_uris":{"android":"levelo://app?vid=43cd6c29-9c55-4e75-8ea4-f61cb59669a6","ios":"levelo://app?vid=43cd6c29-9c55-4e75-8ea4-f61cb59669a6"},"vehicle_type_id":"4","last_reported":1725387096,"current_range_meters":0,"station_id":"ce4bh112rcd13ifvqda0","pricing_plan_id":"cebpf4jnsgd1na2vs0mg"},{"bike_id":"2c567034-35fa-4bde-8d2b-0025244dd920","system_id":"levelo_inurba_marseille","lat":43.33757,"lon":5.37478,"is_reserved":false,"is_disabled":false,"rental_uris":{"android":"levelo://app?vid=2c567034-35fa-4bde-8d2b-0025244dd920","ios":"levelo://app?vid=2c567034-35fa-4bde-8d2b-0025244dd920"},"vehicle_type_id":"4","last_reported":1725387096,"current_range_meters":7600,"station_id":"","pricing_plan_id":"cebpf4jnsgd1na2vs0mg"},{"bike_id":"d3ea3af9-6b11-47d4-8df1-656e45234040","system_id":"levelo_inurba_marseille","lat":43.33761,"lon":5.37475,"is_reserved":false,"is_disabled":false,"rental_uris":{"android":"levelo://app?vid=d3ea3af9-6b11-47d4-8df1-656e45234040","ios":"levelo://app?vid=d3ea3af9-6b11-47d4-8df1-656e45234040"},"vehicle_type_id":"4","last_reported":1725387096,"current_range_meters":26800,"station_id":"","pricing_plan_id":"cebpf4jnsgd1na2vs0mg"},{"bike_id":"37400299-fa49-466e-a35c-fea3b52b7cc5","system_id":"levelo_inurba_marseille","lat":43.30642,"lon":5.401031,"is_reserved":false,"is_disabled":false,"rental_uris":{"android":"levelo://app?vid=37400299-fa49-466e-a35c-fea3b52b7cc5","ios":"levelo://app?vid=37400299-fa49-466e-a35c-fea3b52b7cc5"},"vehicle_type_id":"4","last_reported":1725387096,"current_range_meters":15200,"station_id":"ce4bh112rcd13ifvqda0","pricing_plan_id":"cebpf4jnsgd1na2vs0mg"},{"bike_id":"b329e76f-5320-4a71-8892-296580dce30d","system_id":"levelo_inurba_marseille","lat":43.337639,"lon":5.374874,"is_reserved":false,"is_disabled":false,"rental_uris":{"android":"levelo://app?vid=b329e76f-5320-4a71-8892-296580dce30d","ios":"levelo://app?vid=b329e76f-5320-4a71-8892-296580dce30d"},"vehicle_type_id":"4","last_reported":1725387096,"current_range_meters":24000,"station_id":"","pricing_plan_id":"cebpf4jnsgd1na2vs0mg"},{"bike_id":"faafe71e-1b94-44fc-a69d-26ac65d5d819","system_id":"levelo_inurba_marseille","lat":43.33768,"lon":5.37488,"is_reserved":false,"is_disabled":false,"rental_uris":{"android":"levelo://app?vid=faafe71e-1b94-44fc-a69d-26ac65d5d819","ios":"levelo://app?vid=faafe71e-1b94-44fc-a69d-26ac65d5d819"},"vehicle_type_id":"4","last_reported":1725387096,"current_range_meters":2800,"station_id":"","pricing_plan_id":"cebpf4jnsgd1na2vs0mg"},{"bike_id":"281719cb-7acf-4023-b42e-a39b91262c6f","system_id":"levelo_inurba_marseille","lat":43.33771,"lon":5.37477,"is_reserved":false,"is_disabled":false,"rental_uris":{"android":"levelo://app?vid=281719cb-7acf-4023-b42e-a39b91262c6f","ios":"levelo://app?vid=281719cb-7acf-4023-b42e-a39b91262c6f"},"vehicle_type_id":"4","last_reported":1725387096,"current_range_meters":9200,"station_id":"","pricing_plan_id":"cebpf4jnsgd1na2vs0mg"},{"bike_id":"03474385-dbc1-4cc4-a539-cd9a48df96b4","system_id":"levelo_inurba_marseille","lat":43.301117,"lon":5.398795,"is_reserved":false,"is_disabled":false,"rental_uris":{"android":"levelo://app?vid=03474385-dbc1-4cc4-a539-cd9a48df96b4","ios":"levelo://app?vid=03474385-dbc1-4cc4-a539-cd9a48df96b4"},"vehicle_type_id":"4","last_reported":1725387096,"current_range_meters":2000,"station_id":"ce4bh0h2rcd13ifvqd40","pricing_plan_id":"cebpf4jnsgd1na2vs0mg"},{"bike_id":"c4d6f2ef-f71c-4e55-abec-3380fd786d83","system_id":"levelo_inurba_marseille","lat":43.301117,"lon":5.398795,"is_reserved":false,"is_disabled":false,"rental_uris":{"android":"levelo://app?vid=c4d6f2ef-f71c-4e55-abec-3380fd786d83","ios":"levelo://app?vid=c4d6f2ef-f71c-4e55-abec-3380fd786d83"},"vehicle_type_id":"4","last_reported":1725387096,"current_range_meters":800,"station_id":"ce4bh0h2rcd13ifvqd40","pricing_plan_id":"cebpf4jnsgd1na2vs0mg"},{"bike_id":"3afc3d5d-2107-4687-8aee-3679c81c2342","system_id":"levelo_inurba_marseille","lat":43.301117,"lon":5.398795,"is_reserved":false,"is_disabled":false,"rental_uris":{"android":"levelo://app?vid=3afc3d5d-2107-4687-8aee-3679c81c2342","ios":"levelo://app?vid=3afc3d5d-2107-4687-8aee-3679c81c2342"},"vehicle_type_id":"4","last_reported":1725387096,"current_range_meters":12400,"station_id":"ce4bh0h2rcd13ifvqd40","pricing_plan_id":"cebpf4jnsgd1na2vs0mg"},{"bike_id":"866b0b41-f0a8-44f1-b01e-a41a31ecbf5f","system_id":"levelo_inurba_marseille","lat":43.30142,"lon":5.39867,"is_reserved":false,"is_disabled":false,"rental_uris":{"android":"levelo://app?vid=866b0b41-f0a8-44f1-b01e-a41a31ecbf5f","ios":"levelo://app?vid=866b0b41-f0a8-44f1-b01e-a41a31ecbf5f"},"vehicle_type_id":"4","last_reported":1725387096,"current_range_meters":0,"station_id":"ce4bh0h2rcd13ifvqd40","pricing_plan_id":"cebpf4jnsgd1na2vs0mg"},{"bike_id":"0e44faca-8397-4d40-bf2b-12c40ea54e7e","system_id":"levelo_inurba_marseille","lat":43.301117,"lon":5.398795,"is_reserved":false,"is_disabled":false,"rental_uris":{"android":"levelo://app?vid=0e44faca-8397-4d40-bf2b-12c40ea54e7e","ios":"levelo://app?vid=0e44faca-8397-4d40-bf2b-12c40ea54e7e"},"vehicle_type_id":"4","last_reported":1725387096,"current_range_meters":27600,"station_id":"ce4bh0h2rcd13ifvqd40","pricing_plan_id":"cebpf4jnsgd1na2vs0mg"},{"bike_id":"0a948ae2-26bc-432d-ba6d-dd428de31810","system_id":"levelo_inurba_marseille","lat":43.30122,"lon":5.3987,"is_reserved":false,"is_disabled":false,"rental_uris":{"android":"levelo://app?vid=0a948ae2-26bc-432d-ba6d-dd428de31810","ios":"levelo://app?vid=0a948ae2-26bc-432d-ba6d-dd428de31810"},"vehicle_type_id":"4","last_reported":1725387096,"current_range_meters":0,"station_id":"ce4bh0h2rcd13ifvqd40","pricing_plan_id":"cebpf4jnsgd1na2vs0mg"},{"bike_id":"c086a545-c299-4168-a945-db97c231a046","system_id":"levelo_inurba_marseille","lat":43.28727,"lon":5.36078,"is_reserved":false,"is_disabled":false,"rental_uris":{"android":"levelo://app?vid=c086a545-c299-4168-a945-db97c231a046","ios":"levelo://app?vid=c086a545-c299-4168-a945-db97c231a046"},"vehicle_type_id":"4","last_reported":1725387096,"current_range_meters":5600,"station_id":"cki0cbj6b192h4jlfktg","pricing_plan_id":"cebpf4jnsgd1na2vs0mg"},{"bike_id":"f0a8a08c-6e52-4fb1-8eef-806b73c71f70","system_id":"levelo_inurba_marseille","lat":43.28727,"lon":5.36078,"is_reserved":false,"is_disabled":false,"rental_uris":{"android":"levelo://app?vid=f0a8a08c-6e52-4fb1-8eef-806b73c71f70","ios":"levelo://app?vid=f0a8a08c-6e52-4fb1-8eef-806b73c71f70"},"vehicle_type_id":"4","last_reported":1725387096,"current_range_meters":26800,"station_id":"cki0cbj6b192h4jlfktg","pricing_plan_id":"cebpf4jnsgd1na2vs0mg"},{"bike_id":"859bb818-f7c6-488a-b494-666b22fc4715","system_id":"levelo_inurba_marseille","lat":43.301268,"lon":5.398868,"is_reserved":false,"is_disabled":false,"rental_uris":{"android":"levelo://app?vid=859bb818-f7c6-488a-b494-666b22fc4715","ios":"levelo://app?vid=859bb818-f7c6-488a-b494-666b22fc4715"},"vehicle_type_id":"4","last_reported":1725387096,"current_range_meters":6800,"station_id":"ce4bh0h2rcd13ifvqd40","pricing_plan_id":"cebpf4jnsgd1na2vs0mg"},{"bike_id":"70ed43a5-eda9-42c4-a594-ca5264a6cefc","system_id":"levelo_inurba_marseille","lat":43.298681,"lon":5.397225,"is_reserved":false,"is_disabled":false,"rental_uris":{"android":"levelo://app?vid=70ed43a5-eda9-42c4-a594-ca5264a6cefc","ios":"levelo://app?vid=70ed43a5-eda9-42c4-a594-ca5264a6cefc"},"vehicle_type_id":"4","last_reported":1725387096,"current_range_meters":0,"station_id":"ce4bh0h2rcd13ifvqd50","pricing_plan_id":"cebpf4jnsgd1na2vs0mg"},{"bike_id":"4ec4dde4-15c4-403e-af82-6544eb12a5b6","system_id":"levelo_inurba_marseille","lat":43.295196,"lon":5.39397,"is_reserved":false,"is_disabled":false,"rental_uris":{"android":"levelo://app?vid=4ec4dde4-15c4-403e-af82-6544eb12a5b6","ios":"levelo://app?vid=4ec4dde4-15c4-403e-af82-6544eb12a5b6"},"vehicle_type_id":"4","last_reported":1725387096,"current_range_meters":9200,"station_id":"ce4bh292rcd13ifvqdf0","pricing_plan_id":"cebpf4jnsgd1na2vs0mg"},{"bike_id":"3c919bee-c337-40ee-84a3-e0ca529bd388","system_id":"levelo_inurba_marseille","lat":43.298681,"lon":5.397225,"is_reserved":false,"is_disabled":false,"rental_uris":{"android":"levelo://app?vid=3c919bee-c337-40ee-84a3-e0ca529bd388","ios":"levelo://app?vid=3c919bee-c337-40ee-84a3-e0ca529bd388"},"vehicle_type_id":"4","last_reported":1725387096,"current_range_meters":22000,"station_id":"ce4bh0h2rcd13ifvqd50","pricing_plan_id":"cebpf4jnsgd1na2vs0mg"},{"bike_id":"6d132103-8bce-4da9-9ebe-299e8065d70e","system_id":"levelo_inurba_marseille","lat":43.298681,"lon":5.397225,"is_reserved":false,"is_disabled":false,"rental_uris":{"android":"levelo://app?vid=6d132103-8bce-4da9-9ebe-299e8065d70e","ios":"levelo://app?vid=6d132103-8bce-4da9-9ebe-299e8065d70e"},"vehicle_type_id":"4","last_reported":1725387096,"current_range_meters":11600,"station_id":"ce4bh0h2rcd13ifvqd50","pricing_plan_id":"cebpf4jnsgd1na2vs0mg"},{"bike_id":"990d2cdf-9c51-4375-b719-59a55a5ca65a","system_id":"levelo_inurba_marseille","lat":43.298681,"lon":5.397225,"is_reserved":false,"is_disabled":false,"rental_uris":{"android":"levelo://app?vid=990d2cdf-9c51-4375-b719-59a55a5ca65a","ios":"levelo://app?vid=990d2cdf-9c51-4375-b719-59a55a5ca65a"},"vehicle_type_id":"4","last_reported":1725387096,"current_range_meters":24000,"station_id":"ce4bh0h2rcd13ifvqd50","pricing_plan_id":"cebpf4jnsgd1na2vs0mg"},{"bike_id":"4b2390e8-667a-4e92-86fb-afc856ab3868","system_id":"levelo_inurba_marseille","lat":43.298681,"lon":5.397225,"is_reserved":false,"is_disabled":false,"rental_uris":{"android":"levelo://app?vid=4b2390e8-667a-4e92-86fb-afc856ab3868","ios":"levelo://app?vid=4b2390e8-667a-4e92-86fb-afc856ab3868"},"vehicle_type_id":"4","last_reported":1725387096,"current_range_meters":0,"station_id":"ce4bh0h2rcd13ifvqd50","pricing_plan_id":"cebpf4jnsgd1na2vs0mg"},{"bike_id":"37344092-344c-42f6-9ae0-506a279e7a42","system_id":"levelo_inurba_marseille","lat":43.298681,"lon":5.397225,"is_reserved":false,"is_disabled":false,"rental_uris":{"android":"levelo://app?vid=37344092-344c-42f6-9ae0-506a279e7a42","ios":"levelo://app?vid=37344092-344c-42f6-9ae0-506a279e7a42"},"vehicle_type_id":"4","last_reported":1725387096,"current_range_meters":14400,"station_id":"ce4bh0h2rcd13ifvqd50","pricing_plan_id":"cebpf4jnsgd1na2vs0mg"},{"bike_id":"e392dd9c-56c3-47c2-b23f-9bd2db60b582","system_id":"levelo_inurba_marseille","lat":43.327284,"lon":5.397158,"is_reserved":false,"is_disabled":false,"rental_uris":{"android":"levelo://app?vid=e392dd9c-56c3-47c2-b23f-9bd2db60b582","ios":"levelo://app?vid=e392dd9c-56c3-47c2-b23f-9bd2db60b582"},"vehicle_type_id":"4","last_reported":1725387096,"current_range_meters":29600,"station_id":"","pricing_plan_id":"cebpf4jnsgd1na2vs0mg"},{"bike_id":"ed7b97c5-971e-467d-b11e-ce829710a63b","system_id":"levelo_inurba_marseille","lat":43.290345,"lon":5.38646,"is_reserved":false,"is_disabled":false,"rental_uris":{"android":"levelo://app?vid=ed7b97c5-971e-467d-b11e-ce829710a63b","ios":"levelo://app?vid=ed7b97c5-971e-467d-b11e-ce829710a63b"},"vehicle_type_id":"4","last_reported":1725387096,"current_range_meters":0,"station_id":"ce4bh4p2rcd13ifvqe0g","pricing_plan_id":"cebpf4jnsgd1na2vs0mg"},{"bike_id":"617fdf9d-6e5e-449c-b4ab-7146fb4105ea","system_id":"levelo_inurba_marseille","lat":43.290336,"lon":5.386425,"is_reserved":false,"is_disabled":false,"rental_uris":{"android":"levelo://app?vid=617fdf9d-6e5e-449c-b4ab-7146fb4105ea","ios":"levelo://app?vid=617fdf9d-6e5e-449c-b4ab-7146fb4105ea"},"vehicle_type_id":"4","last_reported":1725387096,"current_range_meters":27200,"station_id":"ce4bh4p2rcd13ifvqe0g","pricing_plan_id":"cebpf4jnsgd1na2vs0mg"},{"bike_id":"9d1efafe-1e1c-460c-9d38-1398b3cd3329","system_id":"levelo_inurba_marseille","lat":43.29029,"lon":5.38643,"is_reserved":false,"is_disabled":false,"rental_uris":{"android":"levelo://app?vid=9d1efafe-1e1c-460c-9d38-1398b3cd3329","ios":"levelo://app?vid=9d1efafe-1e1c-460c-9d38-1398b3cd3329"},"vehicle_type_id":"4","last_reported":1725387096,"current_range_meters":0,"station_id":"ce4bh4p2rcd13ifvqe0g","pricing_plan_id":"cebpf4jnsgd1na2vs0mg"},{"bike_id":"62575cc2-5f27-4b3a-9833-cbab70ec4ec7","system_id":"levelo_inurba_marseille","lat":43.290336,"lon":5.386425,"is_reserved":false,"is_disabled":false,"rental_uris":{"android":"levelo://app?vid=62575cc2-5f27-4b3a-9833-cbab70ec4ec7","ios":"levelo://app?vid=62575cc2-5f27-4b3a-9833-cbab70ec4ec7"},"vehicle_type_id":"4","last_reported":1725387096,"current_range_meters":1200,"station_id":"ce4bh4p2rcd13ifvqe0g","pricing_plan_id":"cebpf4jnsgd1na2vs0mg"},{"bike_id":"44ebf490-0e96-4cd9-bc79-9b630a217e75","system_id":"levelo_inurba_marseille","lat":43.290259,"lon":5.386488,"is_reserved":false,"is_disabled":false,"rental_uris":{"android":"levelo://app?vid=44ebf490-0e96-4cd9-bc79-9b630a217e75","ios":"levelo://app?vid=44ebf490-0e96-4cd9-bc79-9b630a217e75"},"vehicle_type_id":"4","last_reported":1725387096,"current_range_meters":0,"station_id":"ce4bh4p2rcd13ifvqe0g","pricing_plan_id":"cebpf4jnsgd1na2vs0mg"},{"bike_id":"a46863b1-ad0b-4d2e-8ad3-8f393224b498","system_id":"levelo_inurba_marseille","lat":43.30255,"lon":5.40076,"is_reserved":false,"is_disabled":false,"rental_uris":{"android":"levelo://app?vid=a46863b1-ad0b-4d2e-8ad3-8f393224b498","ios":"levelo://app?vid=a46863b1-ad0b-4d2e-8ad3-8f393224b498"},"vehicle_type_id":"4","last_reported":1725387096,"current_range_meters":0,"station_id":"ce4bgvh2rcd13ifvqcs0","pricing_plan_id":"cebpf4jnsgd1na2vs0mg"},{"bike_id":"b6b316f8-3e4a-4c0e-b79f-e3158f6695d1","system_id":"levelo_inurba_marseille","lat":43.30231,"lon":5.40065,"is_reserved":false,"is_disabled":false,"rental_uris":{"android":"levelo://app?vid=b6b316f8-3e4a-4c0e-b79f-e3158f6695d1","ios":"levelo://app?vid=b6b316f8-3e4a-4c0e-b79f-e3158f6695d1"},"vehicle_type_id":"4","last_reported":1725387096,"current_range_meters":0,"station_id":"ce4bgvh2rcd13ifvqcs0","pricing_plan_id":"cebpf4jnsgd1na2vs0mg"},{"bike_id":"6b4cf1ef-9860-4efb-8e34-b15343697758","system_id":"levelo_inurba_marseille","lat":43.286039,"lon":5.370679,"is_reserved":false,"is_disabled":false,"rental_uris":{"android":"levelo://app?vid=6b4cf1ef-9860-4efb-8e34-b15343697758","ios":"levelo://app?vid=6b4cf1ef-9860-4efb-8e34-b15343697758"},"vehicle_type_id":"4","last_reported":1725387096,"current_range_meters":11200,"station_id":"ce4bht12rcd13ifvqi60","pricing_plan_id":"cebpf4jnsgd1na2vs0mg"},{"bike_id":"3c99e44f-5078-4951-837a-717e1bd6f7dd","system_id":"levelo_inurba_marseille","lat":43.286039,"lon":5.370679,"is_reserved":false,"is_disabled":false,"rental_uris":{"android":"levelo://app?vid=3c99e44f-5078-4951-837a-717e1bd6f7dd","ios":"levelo://app?vid=3c99e44f-5078-4951-837a-717e1bd6f7dd"},"vehicle_type_id":"4","last_reported":1725387096,"current_range_meters":11200,"station_id":"ce4bht12rcd13ifvqi60","pricing_plan_id":"cebpf4jnsgd1na2vs0mg"},{"bike_id":"9d95e709-e87b-487e-9897-5249db75379a","system_id":"levelo_inurba_marseille","lat":43.286039,"lon":5.370679,"is_reserved":false,"is_disabled":false,"rental_uris":{"android":"levelo://app?vid=9d95e709-e87b-487e-9897-5249db75379a","ios":"levelo://app?vid=9d95e709-e87b-487e-9897-5249db75379a"},"vehicle_type_id":"4","last_reported":1725387096,"current_range_meters":0,"station_id":"ce4bht12rcd13ifvqi60","pricing_plan_id":"cebpf4jnsgd1na2vs0mg"},{"bike_id":"08cd1a04-26b9-407e-bafd-0653467f7251","system_id":"levelo_inurba_marseille","lat":43.287185,"lon":5.379373,"is_reserved":false,"is_disabled":false,"rental_uris":{"android":"levelo://app?vid=08cd1a04-26b9-407e-bafd-0653467f7251","ios":"levelo://app?vid=08cd1a04-26b9-407e-bafd-0653467f7251"},"vehicle_type_id":"4","last_reported":1725387096,"current_range_meters":0,"station_id":"ce4bh9p2rcd13ifvqec0","pricing_plan_id":"cebpf4jnsgd1na2vs0mg"},{"bike_id":"2be6819c-c632-4162-9d01-083c5272666b","system_id":"levelo_inurba_marseille","lat":43.327369,"lon":5.398854,"is_reserved":false,"is_disabled":false,"rental_uris":{"android":"levelo://app?vid=2be6819c-c632-4162-9d01-083c5272666b","ios":"levelo://app?vid=2be6819c-c632-4162-9d01-083c5272666b"},"vehicle_type_id":"4","last_reported":1725387096,"current_range_meters":5200,"station_id":"","pricing_plan_id":"cebpf4jnsgd1na2vs0mg"},{"bike_id":"422e8a59-69b8-4c22-8feb-1abbba7c5e7f","system_id":"levelo_inurba_marseille","lat":43.316828,"lon":5.404723,"is_reserved":false,"is_disabled":false,"rental_uris":{"android":"levelo://app?vid=422e8a59-69b8-4c22-8feb-1abbba7c5e7f","ios":"levelo://app?vid=422e8a59-69b8-4c22-8feb-1abbba7c5e7f"},"vehicle_type_id":"4","last_reported":1725387096,"current_range_meters":0,"station_id":"ce4bh012rcd13ifvqd00","pricing_plan_id":"cebpf4jnsgd1na2vs0mg"},{"bike_id":"27f90e48-0f77-46c0-8be1-12994cc87bfb","system_id":"levelo_inurba_marseille","lat":43.30311,"lon":5.40313,"is_reserved":false,"is_disabled":false,"rental_uris":{"android":"levelo://app?vid=27f90e48-0f77-46c0-8be1-12994cc87bfb","ios":"levelo://app?vid=27f90e48-0f77-46c0-8be1-12994cc87bfb"},"vehicle_type_id":"4","last_reported":1725387096,"current_range_meters":0,"station_id":"","pricing_plan_id":"cebpf4jnsgd1na2vs0mg"},{"bike_id":"8af1b438-0389-4b31-afb0-1a12884ed8f9","system_id":"levelo_inurba_marseille","lat":43.291994,"lon":5.392907,"is_reserved":false,"is_disabled":false,"rental_uris":{"android":"levelo://app?vid=8af1b438-0389-4b31-afb0-1a12884ed8f9","ios":"levelo://app?vid=8af1b438-0389-4b31-afb0-1a12884ed8f9"},"vehicle_type_id":"4","last_reported":1725387096,"current_range_meters":0,"station_id":"ce4bh192rcd13ifvqdd0","pricing_plan_id":"cebpf4jnsgd1na2vs0mg"},{"bike_id":"881b0057-bf5b-4ea2-b466-01d3850c3d2e","system_id":"levelo_inurba_marseille","lat":43.284538,"lon":5.358657,"is_reserved":false,"is_disabled":false,"rental_uris":{"android":"levelo://app?vid=881b0057-bf5b-4ea2-b466-01d3850c3d2e","ios":"levelo://app?vid=881b0057-bf5b-4ea2-b466-01d3850c3d2e"},"vehicle_type_id":"4","last_reported":1725387096,"current_range_meters":5200,"station_id":"ce4bhah2rcd13ifvqei0","pricing_plan_id":"cebpf4jnsgd1na2vs0mg"},{"bike_id":"33524c74-3072-4f32-840b-dfc0211a46c4","system_id":"levelo_inurba_marseille","lat":43.284538,"lon":5.358657,"is_reserved":false,"is_disabled":false,"rental_uris":{"android":"levelo://app?vid=33524c74-3072-4f32-840b-dfc0211a46c4","ios":"levelo://app?vid=33524c74-3072-4f32-840b-dfc0211a46c4"},"vehicle_type_id":"4","last_reported":1725387096,"current_range_meters":1200,"station_id":"ce4bhah2rcd13ifvqei0","pricing_plan_id":"cebpf4jnsgd1na2vs0mg"},{"bike_id":"4ea1747d-29e3-41b9-adf3-4c6445878ba2","system_id":"levelo_inurba_marseille","lat":43.284538,"lon":5.358657,"is_reserved":false,"is_disabled":false,"rental_uris":{"android":"levelo://app?vid=4ea1747d-29e3-41b9-adf3-4c6445878ba2","ios":"levelo://app?vid=4ea1747d-29e3-41b9-adf3-4c6445878ba2"},"vehicle_type_id":"4","last_reported":1725387096,"current_range_meters":25600,"station_id":"ce4bhah2rcd13ifvqei0","pricing_plan_id":"cebpf4jnsgd1na2vs0mg"},{"bike_id":"cb0e1773-86d4-4784-89db-ea24de153866","system_id":"levelo_inurba_marseille","lat":43.284534,"lon":5.358662,"is_reserved":false,"is_disabled":false,"rental_uris":{"android":"levelo://app?vid=cb0e1773-86d4-4784-89db-ea24de153866","ios":"levelo://app?vid=cb0e1773-86d4-4784-89db-ea24de153866"},"vehicle_type_id":"4","last_reported":1725387096,"current_range_meters":0,"station_id":"ce4bhah2rcd13ifvqei0","pricing_plan_id":"cebpf4jnsgd1na2vs0mg"},{"bike_id":"31ef9303-bead-4f94-a349-836af19453be","system_id":"levelo_inurba_marseille","lat":43.303256,"lon":5.404389,"is_reserved":false,"is_disabled":false,"rental_uris":{"android":"levelo://app?vid=31ef9303-bead-4f94-a349-836af19453be","ios":"levelo://app?vid=31ef9303-bead-4f94-a349-836af19453be"},"vehicle_type_id":"4","last_reported":1725387096,"current_range_meters":0,"station_id":"ce4bh012rcd13ifvqd10","pricing_plan_id":"cebpf4jnsgd1na2vs0mg"},{"bike_id":"abdcf3f3-ce08-418c-ac89-b76e8423ea24","system_id":"levelo_inurba_marseille","lat":43.284534,"lon":5.358662,"is_reserved":false,"is_disabled":false,"rental_uris":{"android":"levelo://app?vid=abdcf3f3-ce08-418c-ac89-b76e8423ea24","ios":"levelo://app?vid=abdcf3f3-ce08-418c-ac89-b76e8423ea24"},"vehicle_type_id":"4","last_reported":1725387096,"current_range_meters":0,"station_id":"ce4bhah2rcd13ifvqei0","pricing_plan_id":"cebpf4jnsgd1na2vs0mg"},{"bike_id":"86d23611-b67f-4516-9625-2ba89bdad50b","system_id":"levelo_inurba_marseille","lat":43.294314,"lon":5.397498,"is_reserved":false,"is_disabled":false,"rental_uris":{"android":"levelo://app?vid=86d23611-b67f-4516-9625-2ba89bdad50b","ios":"levelo://app?vid=86d23611-b67f-4516-9625-2ba89bdad50b"},"vehicle_type_id":"4","last_reported":1725387096,"current_range_meters":25200,"station_id":"ce4bh3h2rcd13ifvqdo0","pricing_plan_id":"cebpf4jnsgd1na2vs0mg"},{"bike_id":"1397a1de-2985-45c1-b017-b4dde590d851","system_id":"levelo_inurba_marseille","lat":43.303256,"lon":5.404389,"is_reserved":false,"is_disabled":false,"rental_uris":{"android":"levelo://app?vid=1397a1de-2985-45c1-b017-b4dde590d851","ios":"levelo://app?vid=1397a1de-2985-45c1-b017-b4dde590d851"},"vehicle_type_id":"4","last_reported":1725387096,"current_range_meters":23600,"station_id":"ce4bh012rcd13ifvqd10","pricing_plan_id":"cebpf4jnsgd1na2vs0mg"},{"bike_id":"33e076d7-4f98-4cec-a135-97ac2475b2a2","system_id":"levelo_inurba_marseille","lat":43.30322,"lon":5.40442,"is_reserved":false,"is_disabled":false,"rental_uris":{"android":"levelo://app?vid=33e076d7-4f98-4cec-a135-97ac2475b2a2","ios":"levelo://app?vid=33e076d7-4f98-4cec-a135-97ac2475b2a2"},"vehicle_type_id":"4","last_reported":1725387096,"current_range_meters":0,"station_id":"","pricing_plan_id":"cebpf4jnsgd1na2vs0mg"},{"bike_id":"f05f7e7b-f027-498f-a372-fb457af3dff5","system_id":"levelo_inurba_marseille","lat":43.294314,"lon":5.397498,"is_reserved":false,"is_disabled":false,"rental_uris":{"android":"levelo://app?vid=f05f7e7b-f027-498f-a372-fb457af3dff5","ios":"levelo://app?vid=f05f7e7b-f027-498f-a372-fb457af3dff5"},"vehicle_type_id":"4","last_reported":1725387096,"current_range_meters":26000,"station_id":"ce4bh3h2rcd13ifvqdo0","pricing_plan_id":"cebpf4jnsgd1na2vs0mg"},{"bike_id":"63639d1f-013d-4dd7-a4d9-bc378353846b","system_id":"levelo_inurba_marseille","lat":43.28619,"lon":5.35108,"is_reserved":false,"is_disabled":false,"rental_uris":{"android":"levelo://app?vid=63639d1f-013d-4dd7-a4d9-bc378353846b","ios":"levelo://app?vid=63639d1f-013d-4dd7-a4d9-bc378353846b"},"vehicle_type_id":"4","last_reported":1725387096,"current_range_meters":19200,"station_id":"ce4bhch2rcd13ifvqeug","pricing_plan_id":"cebpf4jnsgd1na2vs0mg"},{"bike_id":"f6dc974a-f5ff-47a0-bd7f-9e614f3454e6","system_id":"levelo_inurba_marseille","lat":43.28619,"lon":5.35106,"is_reserved":false,"is_disabled":false,"rental_uris":{"android":"levelo://app?vid=f6dc974a-f5ff-47a0-bd7f-9e614f3454e6","ios":"levelo://app?vid=f6dc974a-f5ff-47a0-bd7f-9e614f3454e6"},"vehicle_type_id":"4","last_reported":1725387096,"current_range_meters":31200,"station_id":"ce4bhch2rcd13ifvqeug","pricing_plan_id":"cebpf4jnsgd1na2vs0mg"},{"bike_id":"eb434af7-ebb4-43ae-bb6b-d0f3f0ad07cf","system_id":"levelo_inurba_marseille","lat":43.28618,"lon":5.35108,"is_reserved":false,"is_disabled":false,"rental_uris":{"android":"levelo://app?vid=eb434af7-ebb4-43ae-bb6b-d0f3f0ad07cf","ios":"levelo://app?vid=eb434af7-ebb4-43ae-bb6b-d0f3f0ad07cf"},"vehicle_type_id":"4","last_reported":1725387096,"current_range_meters":11200,"station_id":"ce4bhch2rcd13ifvqeug","pricing_plan_id":"cebpf4jnsgd1na2vs0mg"},{"bike_id":"6cb39af0-3197-4aa3-b16a-d99c9a3b4877","system_id":"levelo_inurba_marseille","lat":43.286182,"lon":5.351034,"is_reserved":false,"is_disabled":false,"rental_uris":{"android":"levelo://app?vid=6cb39af0-3197-4aa3-b16a-d99c9a3b4877","ios":"levelo://app?vid=6cb39af0-3197-4aa3-b16a-d99c9a3b4877"},"vehicle_type_id":"4","last_reported":1725387096,"current_range_meters":25200,"station_id":"ce4bhch2rcd13ifvqeug","pricing_plan_id":"cebpf4jnsgd1na2vs0mg"},{"bike_id":"eecfe13f-e832-4545-9f3d-4b394675a4ba","system_id":"levelo_inurba_marseille","lat":43.28615,"lon":5.35105,"is_reserved":false,"is_disabled":false,"rental_uris":{"android":"levelo://app?vid=eecfe13f-e832-4545-9f3d-4b394675a4ba","ios":"levelo://app?vid=eecfe13f-e832-4545-9f3d-4b394675a4ba"},"vehicle_type_id":"4","last_reported":1725387096,"current_range_meters":1200,"station_id":"ce4bhch2rcd13ifvqeug","pricing_plan_id":"cebpf4jnsgd1na2vs0mg"},{"bike_id":"82bcc7f4-6705-4762-9577-22f5771c5aa0","system_id":"levelo_inurba_marseille","lat":43.29575,"lon":5.3996,"is_reserved":false,"is_disabled":false,"rental_uris":{"android":"levelo://app?vid=82bcc7f4-6705-4762-9577-22f5771c5aa0","ios":"levelo://app?vid=82bcc7f4-6705-4762-9577-22f5771c5aa0"},"vehicle_type_id":"4","last_reported":1725387096,"current_range_meters":0,"station_id":"ce4bh312rcd13ifvqdj0","pricing_plan_id":"cebpf4jnsgd1na2vs0mg"},{"bike_id":"f9593f87-9202-480a-9f64-7321ca7040f7","system_id":"levelo_inurba_marseille","lat":43.295713,"lon":5.399639,"is_reserved":false,"is_disabled":false,"rental_uris":{"android":"levelo://app?vid=f9593f87-9202-480a-9f64-7321ca7040f7","ios":"levelo://app?vid=f9593f87-9202-480a-9f64-7321ca7040f7"},"vehicle_type_id":"4","last_reported":1725387096,"current_range_meters":14000,"station_id":"ce4bh312rcd13ifvqdj0","pricing_plan_id":"cebpf4jnsgd1na2vs0mg"},{"bike_id":"1b2fce08-799c-4364-b86e-ca17beff323d","system_id":"levelo_inurba_marseille","lat":43.283998,"lon":5.375062,"is_reserved":false,"is_disabled":false,"rental_uris":{"android":"levelo://app?vid=1b2fce08-799c-4364-b86e-ca17beff323d","ios":"levelo://app?vid=1b2fce08-799c-4364-b86e-ca17beff323d"},"vehicle_type_id":"4","last_reported":1725387096,"current_range_meters":28400,"station_id":"ce4bh412rcd13ifvqds0","pricing_plan_id":"cebpf4jnsgd1na2vs0mg"},{"bike_id":"0705acd6-fe28-4b71-acdf-f0808b1660e0","system_id":"levelo_inurba_marseille","lat":43.283998,"lon":5.375062,"is_reserved":false,"is_disabled":false,"rental_uris":{"android":"levelo://app?vid=0705acd6-fe28-4b71-acdf-f0808b1660e0","ios":"levelo://app?vid=0705acd6-fe28-4b71-acdf-f0808b1660e0"},"vehicle_type_id":"4","last_reported":1725387096,"current_range_meters":4000,"station_id":"ce4bh412rcd13ifvqds0","pricing_plan_id":"cebpf4jnsgd1na2vs0mg"},{"bike_id":"e38d0d11-9fdc-4607-85af-5d1356e05433","system_id":"levelo_inurba_marseille","lat":43.295713,"lon":5.399639,"is_reserved":false,"is_disabled":false,"rental_uris":{"android":"levelo://app?vid=e38d0d11-9fdc-4607-85af-5d1356e05433","ios":"levelo://app?vid=e38d0d11-9fdc-4607-85af-5d1356e05433"},"vehicle_type_id":"4","last_reported":1725387096,"current_range_meters":8000,"station_id":"ce4bh312rcd13ifvqdj0","pricing_plan_id":"cebpf4jnsgd1na2vs0mg"},{"bike_id":"0e4dd7f3-f59c-4db8-bf18-ddd2392dac47","system_id":"levelo_inurba_marseille","lat":43.295713,"lon":5.399639,"is_reserved":false,"is_disabled":false,"rental_uris":{"android":"levelo://app?vid=0e4dd7f3-f59c-4db8-bf18-ddd2392dac47","ios":"levelo://app?vid=0e4dd7f3-f59c-4db8-bf18-ddd2392dac47"},"vehicle_type_id":"4","last_reported":1725387096,"current_range_meters":6800,"station_id":"ce4bh312rcd13ifvqdj0","pricing_plan_id":"cebpf4jnsgd1na2vs0mg"},{"bike_id":"85b9adf1-bf95-4ece-ac87-f528b5f5dcb3","system_id":"levelo_inurba_marseille","lat":43.28674,"lon":5.38675,"is_reserved":false,"is_disabled":false,"rental_uris":{"android":"levelo://app?vid=85b9adf1-bf95-4ece-ac87-f528b5f5dcb3","ios":"levelo://app?vid=85b9adf1-bf95-4ece-ac87-f528b5f5dcb3"},"vehicle_type_id":"4","last_reported":1725387096,"current_range_meters":0,"station_id":"ce4bh492rcd13ifvqdug","pricing_plan_id":"cebpf4jnsgd1na2vs0mg"},{"bike_id":"070ff47a-6308-456e-a7fe-17a9c28494de","system_id":"levelo_inurba_marseille","lat":43.28666,"lon":5.3866,"is_reserved":false,"is_disabled":false,"rental_uris":{"android":"levelo://app?vid=070ff47a-6308-456e-a7fe-17a9c28494de","ios":"levelo://app?vid=070ff47a-6308-456e-a7fe-17a9c28494de"},"vehicle_type_id":"4","last_reported":1725387096,"current_range_meters":0,"station_id":"ce4bh492rcd13ifvqdug","pricing_plan_id":"cebpf4jnsgd1na2vs0mg"},{"bike_id":"1c4d4931-79a5-4d7a-9865-4c73c56e932c","system_id":"levelo_inurba_marseille","lat":43.28665,"lon":5.386613,"is_reserved":false,"is_disabled":false,"rental_uris":{"android":"levelo://app?vid=1c4d4931-79a5-4d7a-9865-4c73c56e932c","ios":"levelo://app?vid=1c4d4931-79a5-4d7a-9865-4c73c56e932c"},"vehicle_type_id":"4","last_reported":1725387096,"current_range_meters":0,"station_id":"ce4bh492rcd13ifvqdug","pricing_plan_id":"cebpf4jnsgd1na2vs0mg"},{"bike_id":"56530c1b-26b2-4cf6-a3ba-5a244969e499","system_id":"levelo_inurba_marseille","lat":43.286595,"lon":5.386795,"is_reserved":false,"is_disabled":false,"rental_uris":{"android":"levelo://app?vid=56530c1b-26b2-4cf6-a3ba-5a244969e499","ios":"levelo://app?vid=56530c1b-26b2-4cf6-a3ba-5a244969e499"},"vehicle_type_id":"4","last_reported":1725387096,"current_range_meters":12000,"station_id":"ce4bh492rcd13ifvqdug","pricing_plan_id":"cebpf4jnsgd1na2vs0mg"},{"bike_id":"39fd1e50-d122-465a-b193-04b75d09cd71","system_id":"levelo_inurba_marseille","lat":43.323383,"lon":5.406181,"is_reserved":false,"is_disabled":false,"rental_uris":{"android":"levelo://app?vid=39fd1e50-d122-465a-b193-04b75d09cd71","ios":"levelo://app?vid=39fd1e50-d122-465a-b193-04b75d09cd71"},"vehicle_type_id":"4","last_reported":1725387096,"current_range_meters":0,"station_id":"ce4bhq92rcd13ifvqhjg","pricing_plan_id":"cebpf4jnsgd1na2vs0mg"},{"bike_id":"8a24086c-16ff-476c-8f9a-e67734478cea","system_id":"levelo_inurba_marseille","lat":43.323464,"lon":5.406297,"is_reserved":false,"is_disabled":false,"rental_uris":{"android":"levelo://app?vid=8a24086c-16ff-476c-8f9a-e67734478cea","ios":"levelo://app?vid=8a24086c-16ff-476c-8f9a-e67734478cea"},"vehicle_type_id":"4","last_reported":1725387096,"current_range_meters":15600,"station_id":"ce4bhq92rcd13ifvqhjg","pricing_plan_id":"cebpf4jnsgd1na2vs0mg"},{"bike_id":"447d0503-e93e-4b76-9b78-61159177cb50","system_id":"levelo_inurba_marseille","lat":43.3403,"lon":5.34876,"is_reserved":false,"is_disabled":false,"rental_uris":{"android":"levelo://app?vid=447d0503-e93e-4b76-9b78-61159177cb50","ios":"levelo://app?vid=447d0503-e93e-4b76-9b78-61159177cb50"},"vehicle_type_id":"4","last_reported":1725387096,"current_range_meters":13200,"station_id":"","pricing_plan_id":"cebpf4jnsgd1na2vs0mg"},{"bike_id":"ea76ca1b-1ae1-4816-97a3-674cc4d3874b","system_id":"levelo_inurba_marseille","lat":43.337168,"lon":5.391825,"is_reserved":false,"is_disabled":false,"rental_uris":{"android":"levelo://app?vid=ea76ca1b-1ae1-4816-97a3-674cc4d3874b","ios":"levelo://app?vid=ea76ca1b-1ae1-4816-97a3-674cc4d3874b"},"vehicle_type_id":"4","last_reported":1725387096,"current_range_meters":7600,"station_id":"ce4bhr92rcd13ifvqhsg","pricing_plan_id":"cebpf4jnsgd1na2vs0mg"},{"bike_id":"21d193b5-e51e-42b0-b860-82d7f42710d9","system_id":"levelo_inurba_marseille","lat":43.284793,"lon":5.384113,"is_reserved":false,"is_disabled":false,"rental_uris":{"android":"levelo://app?vid=21d193b5-e51e-42b0-b860-82d7f42710d9","ios":"levelo://app?vid=21d193b5-e51e-42b0-b860-82d7f42710d9"},"vehicle_type_id":"4","last_reported":1725387096,"current_range_meters":23200,"station_id":"ce4bh512rcd13ifvqe3g","pricing_plan_id":"cebpf4jnsgd1na2vs0mg"},{"bike_id":"c7916a43-5647-4808-b399-660a9f6b8a5d","system_id":"levelo_inurba_marseille","lat":43.297946,"lon":5.404063,"is_reserved":false,"is_disabled":false,"rental_uris":{"android":"levelo://app?vid=c7916a43-5647-4808-b399-660a9f6b8a5d","ios":"levelo://app?vid=c7916a43-5647-4808-b399-660a9f6b8a5d"},