{"last_updated":1728817599,"ttl":60,"version":"2.2","data":{"bikes":[{"bike_id":"a88cc3d5-4214-4799-a463-c01d33dbb23e","system_id":"levelo_inurba_marseille","lat":43.25008,"lon":5.38916,"is_reserved":false,"is_disabled":false,"rental_uris":{"android":"levelo://app?vid=a88cc3d5-4214-4799-a463-c01d33dbb23e","ios":"levelo://app?vid=a88cc3d5-4214-4799-a463-c01d33dbb23e"},"vehicle_type_id":"4","last_reported":1728817600,"current_range_meters":16400,"station_id":"ce4bhgp2rcd13ifvqfd0","pricing_plan_id":"cebpf4jnsgd1na2vs0mg"},{"bike_id":"8a36bb65-dd05-437f-adaf-66c35c91f8ff","system_id":"levelo_inurba_marseille","lat":43.24172,"lon":5.36399,"is_reserved":false,"is_disabled":false,"rental_uris":{"android":"levelo://app?vid=8a36bb65-dd05-437f-adaf-66c35c91f8ff","ios":"levelo://app?vid=8a36bb65-dd05-437f-adaf-66c35c91f8ff"},"vehicle_type_id":"4","last_reported":1728817600,"current_range_meters":36000,"station_id":"cpo36qri1sfpv3e86is0","pricing_plan_id":"cebpf4jnsgd1na2vs0mg"},{"bike_id":"d885d96e-d926-4227-9eec-639d1069044e","system_id":"levelo_inurba_marseille","lat":43.23197,"lon":5.35555,"is_reserved":false,"is_disabled":false,"rental_uris":{"android":"levelo://app?vid=d885d96e-d926-4227-9eec-639d1069044e","ios":"levelo://app?vid=d885d96e-d926-4227-9eec-639d1069044e"},"vehicle_type_id":"4","last_reported":1728817600,"current_range_meters":13600,"station_id":"ce4bhu92rcd13ifvqi70","pricing_plan_id":"cebpf4jnsgd1na2vs0mg"},{"bike_id":"f2d8b749-4dbc-4d66-a0f4-61b41648b43c","system_id":"levelo_inurba_marseille","lat":43.24663,"lon":5.38164,"is_reserved":false,"is_disabled":false,"rental_uris":{"android":"levelo://app?vid=f2d8b749-4dbc-4d66-a0f4-61b41648b43c","ios":"levelo://app?vid=f2d8b749-4dbc-4d66-a0f4-61b41648b43c"},"vehicle_type_id":"4","last_reported":1728817600,"current_range_meters":24800,"station_id":"ce4bhih2rcd13ifvqfr0","pricing_plan_id":"cebpf4jnsgd1na2vs0mg"},{"bike_id":"480c36bc-dd66-41df-b09a-76735c76211b","system_id":"levelo_inurba_marseille","lat":43.27995,"lon":5.41656,"is_reserved":false,"is_disabled":false,"rental_uris":{"android":"levelo://app?vid=480c36bc-dd66-41df-b09a-76735c76211b","ios":"levelo://app?vid=480c36bc-dd66-41df-b09a-76735c76211b"},"vehicle_type_id":"4","last_reported":1728817600,"current_range_meters":36400,"station_id":"ce4bho12rcd13ifvqh1g","pricing_plan_id":"cebpf4jnsgd1na2vs0mg"},{"bike_id":"dbfddb3f-95bd-47ff-9803-5f8b572040d3","system_id":"levelo_inurba_marseille","lat":43.29358,"lon":5.37841,"is_reserved":false,"is_disabled":false,"rental_uris":{"android":"levelo://app?vid=dbfddb3f-95bd-47ff-9803-5f8b572040d3","ios":"levelo://app?vid=dbfddb3f-95bd-47ff-9803-5f8b572040d3"},"vehicle_type_id":"4","last_reported":1728817600,"current_range_meters":28000,"station_id":"ce4bgjh2rcd13ifvqbf0","pricing_plan_id":"cebpf4jnsgd1na2vs0mg"},{"bike_id":"0cd993dc-190c-4d56-bce5-0c30cce473ad","system_id":"levelo_inurba_marseille","lat":43.33021,"lon":5.39034,"is_reserved":false,"is_disabled":false,"rental_uris":{"android":"levelo://app?vid=0cd993dc-190c-4d56-bce5-0c30cce473ad","ios":"levelo://app?vid=0cd993dc-190c-4d56-bce5-0c30cce473ad"},"vehicle_type_id":"4","last_reported":1728817600,"current_range_meters":38800,"station_id":"ce4bhr92rcd13ifvqhrg","pricing_plan_id":"cebpf4jnsgd1na2vs0mg"},{"bike_id":"e49be7dd-1e95-4af1-8431-31f4173ce85d","system_id":"levelo_inurba_marseille","lat":43.32109,"lon":5.36758,"is_reserved":false,"is_disabled":false,"rental_uris":{"android":"levelo://app?vid=e49be7dd-1e95-4af1-8431-31f4173ce85d","ios":"levelo://app?vid=e49be7dd-1e95-4af1-8431-31f4173ce85d"},"vehicle_type_id":"4","last_reported":1728817600,"current_range_meters":37600,"station_id":"ce4bhrh2rcd13ifvqhug","pricing_plan_id":"cebpf4jnsgd1na2vs0mg"},{"bike_id":"61432fa4-e69a-43e1-a752-60da459a1e2e","system_id":"levelo_inurba_marseille","lat":43.337275,"lon":5.391855,"is_reserved":false,"is_disabled":false,"rental_uris":{"android":"levelo://app?vid=61432fa4-e69a-43e1-a752-60da459a1e2e","ios":"levelo://app?vid=61432fa4-e69a-43e1-a752-60da459a1e2e"},"vehicle_type_id":"4","last_reported":1728817600,"current_range_meters":32400,"station_id":"ce4bhr92rcd13ifvqhsg","pricing_plan_id":"cebpf4jnsgd1na2vs0mg"},{"bike_id":"c38b0dbf-048e-4a60-9083-4aead275433a","system_id":"levelo_inurba_marseille","lat":43.27178,"lon":5.40994,"is_reserved":false,"is_disabled":false,"rental_uris":{"android":"levelo://app?vid=c38b0dbf-048e-4a60-9083-4aead275433a","ios":"levelo://app?vid=c38b0dbf-048e-4a60-9083-4aead275433a"},"vehicle_type_id":"4","last_reported":1728817600,"current_range_meters":38800,"station_id":"ce4bhl12rcd13ifvqgf0","pricing_plan_id":"cebpf4jnsgd1na2vs0mg"},{"bike_id":"b26e96e1-4330-44cb-985a-c96ff3359907","system_id":"levelo_inurba_marseille","lat":43.30151,"lon":5.3808,"is_reserved":false,"is_disabled":false,"rental_uris":{"android":"levelo://app?vid=b26e96e1-4330-44cb-985a-c96ff3359907","ios":"levelo://app?vid=b26e96e1-4330-44cb-985a-c96ff3359907"},"vehicle_type_id":"4","last_reported":1728817600,"current_range_meters":31200,"station_id":"ce4bgjp2rcd13ifvqbh0","pricing_plan_id":"cebpf4jnsgd1na2vs0mg"},{"bike_id":"c5c33660-077d-4f97-b2f0-40691ac09116","system_id":"levelo_inurba_marseille","lat":43.2439,"lon":5.37064,"is_reserved":false,"is_disabled":false,"rental_uris":{"android":"levelo://app?vid=c5c33660-077d-4f97-b2f0-40691ac09116","ios":"levelo://app?vid=c5c33660-077d-4f97-b2f0-40691ac09116"},"vehicle_type_id":"4","last_reported":1728817600,"current_range_meters":34000,"station_id":"ce4bhhh2rcd13ifvqfk0","pricing_plan_id":"cebpf4jnsgd1na2vs0mg"},{"bike_id":"931d1f9c-4cb2-40a2-a856-914a1c55fcf3","system_id":"levelo_inurba_marseille","lat":43.24571,"lon":5.41662,"is_reserved":false,"is_disabled":false,"rental_uris":{"android":"levelo://app?vid=931d1f9c-4cb2-40a2-a856-914a1c55fcf3","ios":"levelo://app?vid=931d1f9c-4cb2-40a2-a856-914a1c55fcf3"},"vehicle_type_id":"4","last_reported":1728817600,"current_range_meters":7200,"station_id":"","pricing_plan_id":"cebpf4jnsgd1na2vs0mg"},{"bike_id":"48a7fd46-a888-41b2-95ef-d2e418c4e1f8","system_id":"levelo_inurba_marseille","lat":43.2931,"lon":5.37187,"is_reserved":false,"is_disabled":false,"rental_uris":{"android":"levelo://app?vid=48a7fd46-a888-41b2-95ef-d2e418c4e1f8","ios":"levelo://app?vid=48a7fd46-a888-41b2-95ef-d2e418c4e1f8"},"vehicle_type_id":"4","last_reported":1728817600,"current_range_meters":8000,"station_id":"ce4bgh92rcd13ifvqb40","pricing_plan_id":"cebpf4jnsgd1na2vs0mg"},{"bike_id":"a063da35-5769-4ebf-88db-55e91253fc16","system_id":"levelo_inurba_marseille","lat":43.28366,"lon":5.38629,"is_reserved":false,"is_disabled":false,"rental_uris":{"android":"levelo://app?vid=a063da35-5769-4ebf-88db-55e91253fc16","ios":"levelo://app?vid=a063da35-5769-4ebf-88db-55e91253fc16"},"vehicle_type_id":"4","last_reported":1728817600,"current_range_meters":36800,"station_id":"ce4bh492rcd13ifvqdvg","pricing_plan_id":"cebpf4jnsgd1na2vs0mg"},{"bike_id":"84d3eb40-5f3f-4005-9650-06677b924c65","system_id":"levelo_inurba_marseille","lat":43.28867,"lon":5.373395,"is_reserved":false,"is_disabled":false,"rental_uris":{"android":"levelo://app?vid=84d3eb40-5f3f-4005-9650-06677b924c65","ios":"levelo://app?vid=84d3eb40-5f3f-4005-9650-06677b924c65"},"vehicle_type_id":"4","last_reported":1728817600,"current_range_meters":18000,"station_id":"ce4bgh92rcd13ifvqb40","pricing_plan_id":"cebpf4jnsgd1na2vs0mg"},{"bike_id":"56529199-b18a-4213-b005-2f4cf2a5c278","system_id":"levelo_inurba_marseille","lat":43.29226,"lon":5.36061,"is_reserved":false,"is_disabled":false,"rental_uris":{"android":"levelo://app?vid=56529199-b18a-4213-b005-2f4cf2a5c278","ios":"levelo://app?vid=56529199-b18a-4213-b005-2f4cf2a5c278"},"vehicle_type_id":"4","last_reported":1728817600,"current_range_meters":21600,"station_id":"ce4bhbh2rcd13ifvqeqg","pricing_plan_id":"cebpf4jnsgd1na2vs0mg"},{"bike_id":"80ccdb87-c225-40c6-871c-76b9a75a2603","system_id":"levelo_inurba_marseille","lat":43.27558,"lon":5.38416,"is_reserved":false,"is_disabled":false,"rental_uris":{"android":"levelo://app?vid=80ccdb87-c225-40c6-871c-76b9a75a2603","ios":"levelo://app?vid=80ccdb87-c225-40c6-871c-76b9a75a2603"},"vehicle_type_id":"4","last_reported":1728817600,"current_range_meters":38800,"station_id":"ce4bhh92rcd13ifvqfi0","pricing_plan_id":"cebpf4jnsgd1na2vs0mg"},{"bike_id":"dee41c9d-caa5-4b3f-857d-6226540d0c76","system_id":"levelo_inurba_marseille","lat":43.2905,"lon":5.359,"is_reserved":false,"is_disabled":false,"rental_uris":{"android":"levelo://app?vid=dee41c9d-caa5-4b3f-857d-6226540d0c76","ios":"levelo://app?vid=dee41c9d-caa5-4b3f-857d-6226540d0c76"},"vehicle_type_id":"4","last_reported":1728817600,"current_range_meters":37600,"station_id":"ce4bha92rcd13ifvqeg0","pricing_plan_id":"cebpf4jnsgd1na2vs0mg"},{"bike_id":"6905c5d3-8624-4dea-b3a0-3fea8278ff35","system_id":"levelo_inurba_marseille","lat":43.2956,"lon":5.42283,"is_reserved":false,"is_disabled":false,"rental_uris":{"android":"levelo://app?vid=6905c5d3-8624-4dea-b3a0-3fea8278ff35","ios":"levelo://app?vid=6905c5d3-8624-4dea-b3a0-3fea8278ff35"},"vehicle_type_id":"4","last_reported":1728817600,"current_range_meters":9600,"station_id":"ce4bhph2rcd13ifvqhdg","pricing_plan_id":"cebpf4jnsgd1na2vs0mg"},{"bike_id":"86b146c1-399c-485f-bcc4-f7be66774c7b","system_id":"levelo_inurba_marseille","lat":43.29221,"lon":5.36051,"is_reserved":false,"is_disabled":false,"rental_uris":{"android":"levelo://app?vid=86b146c1-399c-485f-bcc4-f7be66774c7b","ios":"levelo://app?vid=86b146c1-399c-485f-bcc4-f7be66774c7b"},"vehicle_type_id":"4","last_reported":1728817600,"current_range_meters":30800,"station_id":"ce4bhbh2rcd13ifvqeqg","pricing_plan_id":"cebpf4jnsgd1na2vs0mg"},{"bike_id":"3b6c471d-09b5-4db4-9db1-1c3b3df2bce4","system_id":"levelo_inurba_marseille","lat":43.29911,"lon":5.3814,"is_reserved":false,"is_disabled":false,"rental_uris":{"android":"levelo://app?vid=3b6c471d-09b5-4db4-9db1-1c3b3df2bce4","ios":"levelo://app?vid=3b6c471d-09b5-4db4-9db1-1c3b3df2bce4"},"vehicle_type_id":"4","last_reported":1728817600,"current_range_meters":32000,"station_id":"ce4bgj12rcd13ifvqbc0","pricing_plan_id":"cebpf4jnsgd1na2vs0mg"},{"bike_id":"08282b8a-ca2c-4681-843b-56f3c5b1a75c","system_id":"levelo_inurba_marseille","lat":43.29579,"lon":5.36738,"is_reserved":false,"is_disabled":false,"rental_uris":{"android":"levelo://app?vid=08282b8a-ca2c-4681-843b-56f3c5b1a75c","ios":"levelo://app?vid=08282b8a-ca2c-4681-843b-56f3c5b1a75c"},"vehicle_type_id":"4","last_reported":1728817600,"current_range_meters":27600,"station_id":"ce4bgph2rcd13ifvqc2g","pricing_plan_id":"cebpf4jnsgd1na2vs0mg"},{"bike_id":"9676e4b0-9ad0-4ef8-b540-605fa5da6083","system_id":"levelo_inurba_marseille","lat":43.30602,"lon":5.37218,"is_reserved":false,"is_disabled":false,"rental_uris":{"android":"levelo://app?vid=9676e4b0-9ad0-4ef8-b540-605fa5da6083","ios":"levelo://app?vid=9676e4b0-9ad0-4ef8-b540-605fa5da6083"},"vehicle_type_id":"4","last_reported":1728817600,"current_range_meters":31200,"station_id":"ce4bgqh2rcd13ifvqc4g","pricing_plan_id":"cebpf4jnsgd1na2vs0mg"},{"bike_id":"6b2daff3-9851-4dff-9081-e0ec010599e4","system_id":"levelo_inurba_marseille","lat":43.314515,"lon":5.37384,"is_reserved":false,"is_disabled":false,"rental_uris":{"android":"levelo://app?vid=6b2daff3-9851-4dff-9081-e0ec010599e4","ios":"levelo://app?vid=6b2daff3-9851-4dff-9081-e0ec010599e4"},"vehicle_type_id":"4","last_reported":1728817600,"current_range_meters":32800,"station_id":"","pricing_plan_id":"cebpf4jnsgd1na2vs0mg"},{"bike_id":"3f3b7010-e9d4-41f2-a1b3-8178a2b81157","system_id":"levelo_inurba_marseille","lat":43.24672,"lon":5.38169,"is_reserved":false,"is_disabled":false,"rental_uris":{"android":"levelo://app?vid=3f3b7010-e9d4-41f2-a1b3-8178a2b81157","ios":"levelo://app?vid=3f3b7010-e9d4-41f2-a1b3-8178a2b81157"},"vehicle_type_id":"4","last_reported":1728817600,"current_range_meters":11600,"station_id":"ce4bhih2rcd13ifvqfr0","pricing_plan_id":"cebpf4jnsgd1na2vs0mg"},{"bike_id":"f8fd929e-ef12-4998-8e1d-12522bd05de2","system_id":"levelo_inurba_marseille","lat":43.33024,"lon":5.3904,"is_reserved":false,"is_disabled":false,"rental_uris":{"android":"levelo://app?vid=f8fd929e-ef12-4998-8e1d-12522bd05de2","ios":"levelo://app?vid=f8fd929e-ef12-4998-8e1d-12522bd05de2"},"vehicle_type_id":"4","last_reported":1728817600,"current_range_meters":38000,"station_id":"ce4bhr92rcd13ifvqhrg","pricing_plan_id":"cebpf4jnsgd1na2vs0mg"},{"bike_id":"02ce7391-a945-4a10-9c54-c841b5ef35ec","system_id":"levelo_inurba_marseille","lat":43.29221,"lon":5.36043,"is_reserved":false,"is_disabled":false,"rental_uris":{"android":"levelo://app?vid=02ce7391-a945-4a10-9c54-c841b5ef35ec","ios":"levelo://app?vid=02ce7391-a945-4a10-9c54-c841b5ef35ec"},"vehicle_type_id":"4","last_reported":1728817600,"current_range_meters":28400,"station_id":"ce4bhbh2rcd13ifvqeqg","pricing_plan_id":"cebpf4jnsgd1na2vs0mg"},{"bike_id":"7fd1cae2-c0ec-41e3-baae-0e095464e86c","system_id":"levelo_inurba_marseille","lat":43.29528,"lon":5.39961,"is_reserved":false,"is_disabled":false,"rental_uris":{"android":"levelo://app?vid=7fd1cae2-c0ec-41e3-baae-0e095464e86c","ios":"levelo://app?vid=7fd1cae2-c0ec-41e3-baae-0e095464e86c"},"vehicle_type_id":"4","last_reported":1728817600,"current_range_meters":11200,"station_id":"ce4bh312rcd13ifvqdj0","pricing_plan_id":"cebpf4jnsgd1na2vs0mg"},{"bike_id":"fa08456f-0316-46ca-b497-6c7d63a7f841","system_id":"levelo_inurba_marseille","lat":43.23196,"lon":5.35547,"is_reserved":false,"is_disabled":false,"rental_uris":{"android":"levelo://app?vid=fa08456f-0316-46ca-b497-6c7d63a7f841","ios":"levelo://app?vid=fa08456f-0316-46ca-b497-6c7d63a7f841"},"vehicle_type_id":"4","last_reported":1728817600,"current_range_meters":35600,"station_id":"ce4bhu92rcd13ifvqi70","pricing_plan_id":"cebpf4jnsgd1na2vs0mg"},{"bike_id":"af72dc5b-e02f-4efa-8cbd-41822bfef337","system_id":"levelo_inurba_marseille","lat":43.27995,"lon":5.40012,"is_reserved":false,"is_disabled":false,"rental_uris":{"android":"levelo://app?vid=af72dc5b-e02f-4efa-8cbd-41822bfef337","ios":"levelo://app?vid=af72dc5b-e02f-4efa-8cbd-41822bfef337"},"vehicle_type_id":"4","last_reported":1728817600,"current_range_meters":38800,"station_id":"ce4bho92rcd13ifvqh4g","pricing_plan_id":"cebpf4jnsgd1na2vs0mg"},{"bike_id":"86851483-6460-4f2a-8d92-b3b47e5c55aa","system_id":"levelo_inurba_marseille","lat":43.23969,"lon":5.36615,"is_reserved":false,"is_disabled":false,"rental_uris":{"android":"levelo://app?vid=86851483-6460-4f2a-8d92-b3b47e5c55aa","ios":"levelo://app?vid=86851483-6460-4f2a-8d92-b3b47e5c55aa"},"vehicle_type_id":"4","last_reported":1728817600,"current_range_meters":40000,"station_id":"ce4bhi12rcd13ifvqfp0","pricing_plan_id":"cebpf4jnsgd1na2vs0mg"},{"bike_id":"900d410e-a263-4441-80a1-af67345a66d2","system_id":"levelo_inurba_marseille","lat":43.24391,"lon":5.37062,"is_reserved":false,"is_disabled":false,"rental_uris":{"android":"levelo://app?vid=900d410e-a263-4441-80a1-af67345a66d2","ios":"levelo://app?vid=900d410e-a263-4441-80a1-af67345a66d2"},"vehicle_type_id":"4","last_reported":1728817600,"current_range_meters":12400,"station_id":"ce4bhhh2rcd13ifvqfk0","pricing_plan_id":"cebpf4jnsgd1na2vs0mg"},{"bike_id":"e80b8432-a948-4e0f-bc1a-140358f69ef8","system_id":"levelo_inurba_marseille","lat":43.27992,"lon":5.41664,"is_reserved":false,"is_disabled":false,"rental_uris":{"android":"levelo://app?vid=e80b8432-a948-4e0f-bc1a-140358f69ef8","ios":"levelo://app?vid=e80b8432-a948-4e0f-bc1a-140358f69ef8"},"vehicle_type_id":"4","last_reported":1728817600,"current_range_meters":38000,"station_id":"ce4bho12rcd13ifvqh1g","pricing_plan_id":"cebpf4jnsgd1na2vs0mg"},{"bike_id":"a9a9a4b5-5c49-474f-8f41-09f9027f45b4","system_id":"levelo_inurba_marseille","lat":43.22935,"lon":5.35376,"is_reserved":false,"is_disabled":false,"rental_uris":{"android":"levelo://app?vid=a9a9a4b5-5c49-474f-8f41-09f9027f45b4","ios":"levelo://app?vid=a9a9a4b5-5c49-474f-8f41-09f9027f45b4"},"vehicle_type_id":"4","last_reported":1728817600,"current_range_meters":17200,"station_id":"cpo3532slgdg3j2ikp40","pricing_plan_id":"cebpf4jnsgd1na2vs0mg"},{"bike_id":"38c56935-31bf-4689-904d-16cf318c07ca","system_id":"levelo_inurba_marseille","lat":43.29065,"lon":5.37152,"is_reserved":false,"is_disabled":false,"rental_uris":{"android":"levelo://app?vid=38c56935-31bf-4689-904d-16cf318c07ca","ios":"levelo://app?vid=38c56935-31bf-4689-904d-16cf318c07ca"},"vehicle_type_id":"4","last_reported":1728817600,"current_range_meters":26800,"station_id":"ce4bh5p2rcd13ifvqe4g","pricing_plan_id":"cebpf4jnsgd1na2vs0mg"},{"bike_id":"0fac29b2-e07d-4418-8053-b96bc0e7e6b9","system_id":"levelo_inurba_marseille","lat":43.27986,"lon":5.41667,"is_reserved":false,"is_disabled":false,"rental_uris":{"android":"levelo://app?vid=0fac29b2-e07d-4418-8053-b96bc0e7e6b9","ios":"levelo://app?vid=0fac29b2-e07d-4418-8053-b96bc0e7e6b9"},"vehicle_type_id":"4","last_reported":1728817600,"current_range_meters":32000,"station_id":"ce4bho12rcd13ifvqh1g","pricing_plan_id":"cebpf4jnsgd1na2vs0mg"},{"bike_id":"09d2bb1f-5d1f-49bd-85b4-e76cdd19f52d","system_id":"levelo_inurba_marseille","lat":43.29578,"lon":5.36743,"is_reserved":false,"is_disabled":false,"rental_uris":{"android":"levelo://app?vid=09d2bb1f-5d1f-49bd-85b4-e76cdd19f52d","ios":"levelo://app?vid=09d2bb1f-5d1f-49bd-85b4-e76cdd19f52d"},"vehicle_type_id":"4","last_reported":1728817600,"current_range_meters":32000,"station_id":"ce4bgph2rcd13ifvqc2g","pricing_plan_id":"cebpf4jnsgd1na2vs0mg"},{"bike_id":"777ea66e-9e4e-45a9-b448-b95c37d4a8c2","system_id":"levelo_inurba_marseille","lat":43.29031,"lon":5.37563,"is_reserved":false,"is_disabled":false,"rental_uris":{"android":"levelo://app?vid=777ea66e-9e4e-45a9-b448-b95c37d4a8c2","ios":"levelo://app?vid=777ea66e-9e4e-45a9-b448-b95c37d4a8c2"},"vehicle_type_id":"4","last_reported":1728817600,"current_range_meters":8800,"station_id":"ce4bh692rcd13ifvqe90","pricing_plan_id":"cebpf4jnsgd1na2vs0mg"},{"bike_id":"df64c0b2-4ea7-44b1-a149-83a62a17537f","system_id":"levelo_inurba_marseille","lat":43.31344,"lon":5.36719,"is_reserved":false,"is_disabled":false,"rental_uris":{"android":"levelo://app?vid=df64c0b2-4ea7-44b1-a149-83a62a17537f","ios":"levelo://app?vid=df64c0b2-4ea7-44b1-a149-83a62a17537f"},"vehicle_type_id":"4","last_reported":1728817600,"current_range_meters":27600,"station_id":"ce4bgr92rcd13ifvqc6g","pricing_plan_id":"cebpf4jnsgd1na2vs0mg"},{"bike_id":"1524c40f-295c-48fc-9f12-f28baf1612ab","system_id":"levelo_inurba_marseille","lat":43.27422,"lon":5.39415,"is_reserved":false,"is_disabled":false,"rental_uris":{"android":"levelo://app?vid=1524c40f-295c-48fc-9f12-f28baf1612ab","ios":"levelo://app?vid=1524c40f-295c-48fc-9f12-f28baf1612ab"},"vehicle_type_id":"4","last_reported":1728817600,"current_range_meters":14800,"station_id":"ce4bhdp2rcd13ifvqf20","pricing_plan_id":"cebpf4jnsgd1na2vs0mg"},{"bike_id":"8e7e8b1e-a7b5-4372-94f7-42c9be8c1dff","system_id":"levelo_inurba_marseille","lat":43.29797,"lon":5.40393,"is_reserved":false,"is_disabled":false,"rental_uris":{"android":"levelo://app?vid=8e7e8b1e-a7b5-4372-94f7-42c9be8c1dff","ios":"levelo://app?vid=8e7e8b1e-a7b5-4372-94f7-42c9be8c1dff"},"vehicle_type_id":"4","last_reported":1728817600,"current_range_meters":35600,"station_id":"ce4bh112rcd13ifvqd90","pricing_plan_id":"cebpf4jnsgd1na2vs0mg"},{"bike_id":"dfb57d83-f09c-4d99-93f3-9ced42edf39b","system_id":"levelo_inurba_marseille","lat":43.25872,"lon":5.39891,"is_reserved":false,"is_disabled":false,"rental_uris":{"android":"levelo://app?vid=dfb57d83-f09c-4d99-93f3-9ced42edf39b","ios":"levelo://app?vid=dfb57d83-f09c-4d99-93f3-9ced42edf39b"},"vehicle_type_id":"4","last_reported":1728817600,"current_range_meters":32000,"station_id":"ce4bhl92rcd13ifvqghg","pricing_plan_id":"cebpf4jnsgd1na2vs0mg"},{"bike_id":"3e4f306a-0193-49a5-ae54-ea2787574907","system_id":"levelo_inurba_marseille","lat":43.24391,"lon":5.37067,"is_reserved":false,"is_disabled":false,"rental_uris":{"android":"levelo://app?vid=3e4f306a-0193-49a5-ae54-ea2787574907","ios":"levelo://app?vid=3e4f306a-0193-49a5-ae54-ea2787574907"},"vehicle_type_id":"4","last_reported":1728817600,"current_range_meters":36400,"station_id":"ce4bhhh2rcd13ifvqfk0","pricing_plan_id":"cebpf4jnsgd1na2vs0mg"},{"bike_id":"15c9ec7f-d6f1-4977-b1bb-d59ba7e51931","system_id":"levelo_inurba_marseille","lat":43.26062,"lon":5.39393,"is_reserved":false,"is_disabled":false,"rental_uris":{"android":"levelo://app?vid=15c9ec7f-d6f1-4977-b1bb-d59ba7e51931","ios":"levelo://app?vid=15c9ec7f-d6f1-4977-b1bb-d59ba7e51931"},"vehicle_type_id":"4","last_reported":1728817600,"current_range_meters":40000,"station_id":"ce4bhh92rcd13ifvqfj0","pricing_plan_id":"cebpf4jnsgd1na2vs0mg"},{"bike_id":"3d4016e9-aebd-45a3-bdfa-a0a06f506920","system_id":"levelo_inurba_marseille","lat":43.2958,"lon":5.36738,"is_reserved":false,"is_disabled":false,"rental_uris":{"android":"levelo://app?vid=3d4016e9-aebd-45a3-bdfa-a0a06f506920","ios":"levelo://app?vid=3d4016e9-aebd-45a3-bdfa-a0a06f506920"},"vehicle_type_id":"4","last_reported":1728817600,"current_range_meters":18800,"station_id":"ce4bgph2rcd13ifvqc2g","pricing_plan_id":"cebpf4jnsgd1na2vs0mg"},{"bike_id":"42ce3ab5-0bc1-4eb0-8c3e-bb032bb59bff","system_id":"levelo_inurba_marseille","lat":43.26199,"lon":5.37927,"is_reserved":false,"is_disabled":false,"rental_uris":{"android":"levelo://app?vid=42ce3ab5-0bc1-4eb0-8c3e-bb032bb59bff","ios":"levelo://app?vid=42ce3ab5-0bc1-4eb0-8c3e-bb032bb59bff"},"vehicle_type_id":"4","last_reported":1728817600,"current_range_meters":3200,"station_id":"ce4bhjp2rcd13ifvqg90","pricing_plan_id":"cebpf4jnsgd1na2vs0mg"},{"bike_id":"4c0834d4-84bc-495c-be12-56ee7c260400","system_id":"levelo_inurba_marseille","lat":43.27825,"lon":5.3921,"is_reserved":false,"is_disabled":false,"rental_uris":{"android":"levelo://app?vid=4c0834d4-84bc-495c-be12-56ee7c260400","ios":"levelo://app?vid=4c0834d4-84bc-495c-be12-56ee7c260400"},"vehicle_type_id":"4","last_reported":1728817600,"current_range_meters":33200,"station_id":"ce4bhjp2rcd13ifvqga0","pricing_plan_id":"cebpf4jnsgd1na2vs0mg"},{"bike_id":"774b9370-3bf2-4c55-80cf-7077c629a1e3","system_id":"levelo_inurba_marseille","lat":43.22145,"lon":5.34573,"is_reserved":false,"is_disabled":false,"rental_uris":{"android":"levelo://app?vid=774b9370-3bf2-4c55-80cf-7077c629a1e3","ios":"levelo://app?vid=774b9370-3bf2-4c55-80cf-7077c629a1e3"},"vehicle_type_id":"4","last_reported":1728817600,"current_range_meters":5600,"station_id":"ce4bhgh2rcd13ifvqfb0","pricing_plan_id":"cebpf4jnsgd1na2vs0mg"},{"bike_id":"1faf5929-d207-48dc-8def-a8b0678810d5","system_id":"levelo_inurba_marseille","lat":43.29226,"lon":5.36052,"is_reserved":false,"is_disabled":false,"rental_uris":{"android":"levelo://app?vid=1faf5929-d207-48dc-8def-a8b0678810d5","ios":"levelo://app?vid=1faf5929-d207-48dc-8def-a8b0678810d5"},"vehicle_type_id":"4","last_reported":1728817600,"current_range_meters":36400,"station_id":"ce4bhbh2rcd13ifvqeqg","pricing_plan_id":"cebpf4jnsgd1na2vs0mg"},{"bike_id":"cec1e807-225d-4073-b5be-e6b643c96f31","system_id":"levelo_inurba_marseille","lat":43.24999,"lon":5.38925,"is_reserved":false,"is_disabled":false,"rental_uris":{"android":"levelo://app?vid=cec1e807-225d-4073-b5be-e6b643c96f31","ios":"levelo://app?vid=cec1e807-225d-4073-b5be-e6b643c96f31"},"vehicle_type_id":"4","last_reported":1728817600,"current_range_meters":14400,"station_id":"ce4bhgp2rcd13ifvqfd0","pricing_plan_id":"cebpf4jnsgd1na2vs0mg"},{"bike_id":"0c5a1e5b-223f-4823-b9d2-d0b796dd3e79","system_id":"levelo_inurba_marseille","lat":43.27998,"lon":5.40016,"is_reserved":false,"is_disabled":false,"rental_uris":{"android":"levelo://app?vid=0c5a1e5b-223f-4823-b9d2-d0b796dd3e79","ios":"levelo://app?vid=0c5a1e5b-223f-4823-b9d2-d0b796dd3e79"},"vehicle_type_id":"4","last_reported":1728817600,"current_range_meters":38000,"station_id":"ce4bho92rcd13ifvqh4g","pricing_plan_id":"cebpf4jnsgd1na2vs0mg"},{"bike_id":"674e7fd9-b1f1-454c-b50e-05eb1ea389d0","system_id":"levelo_inurba_marseille","lat":43.255046,"lon":5.376488,"is_reserved":false,"is_disabled":false,"rental_uris":{"android":"levelo://app?vid=674e7fd9-b1f1-454c-b50e-05eb1ea389d0","ios":"levelo://app?vid=674e7fd9-b1f1-454c-b50e-05eb1ea389d0"},"vehicle_type_id":"4","last_reported":1728817600,"current_range_meters":33200,"station_id":"ce4bh2p2rcd13ifvqdi0","pricing_plan_id":"cebpf4jnsgd1na2vs0mg"},{"bike_id":"fce64ce7-88b3-471b-aac0-f30f3e66d244","system_id":"levelo_inurba_marseille","lat":43.25083,"lon":5.39512,"is_reserved":false,"is_disabled":false,"rental_uris":{"android":"levelo://app?vid=fce64ce7-88b3-471b-aac0-f30f3e66d244","ios":"levelo://app?vid=fce64ce7-88b3-471b-aac0-f30f3e66d244"},"vehicle_type_id":"4","last_reported":1728817600,"current_range_meters":30800,"station_id":"ce4bhm12rcd13ifvqgkg","pricing_plan_id":"cebpf4jnsgd1na2vs0mg"},{"bike_id":"bcc16aa6-76b9-4712-a4bf-35edf3a33a60","system_id":"levelo_inurba_marseille","lat":43.30608,"lon":5.37227,"is_reserved":false,"is_disabled":false,"rental_uris":{"android":"levelo://app?vid=bcc16aa6-76b9-4712-a4bf-35edf3a33a60","ios":"levelo://app?vid=bcc16aa6-76b9-4712-a4bf-35edf3a33a60"},"vehicle_type_id":"4","last_reported":1728817600,"current_range_meters":3600,"station_id":"ce4bgqh2rcd13ifvqc4g","pricing_plan_id":"cebpf4jnsgd1na2vs0mg"},{"bike_id":"3545951b-894d-4495-afdf-84cb7b3b25b3","system_id":"levelo_inurba_marseille","lat":43.23196,"lon":5.35545,"is_reserved":false,"is_disabled":false,"rental_uris":{"android":"levelo://app?vid=3545951b-894d-4495-afdf-84cb7b3b25b3","ios":"levelo://app?vid=3545951b-894d-4495-afdf-84cb7b3b25b3"},"vehicle_type_id":"4","last_reported":1728817600,"current_range_meters":36800,"station_id":"ce4bhu92rcd13ifvqi70","pricing_plan_id":"cebpf4jnsgd1na2vs0mg"},{"bike_id":"94b5b3e5-1466-4cd8-b5b3-d5cbebabce80","system_id":"levelo_inurba_marseille","lat":43.23965,"lon":5.3663,"is_reserved":false,"is_disabled":false,"rental_uris":{"android":"levelo://app?vid=94b5b3e5-1466-4cd8-b5b3-d5cbebabce80","ios":"levelo://app?vid=94b5b3e5-1466-4cd8-b5b3-d5cbebabce80"},"vehicle_type_id":"4","last_reported":1728817600,"current_range_meters":6800,"station_id":"ce4bhi12rcd13ifvqfp0","pricing_plan_id":"cebpf4jnsgd1na2vs0mg"},{"bike_id":"af9ba5d4-9e14-4e79-a5d5-f4346f64dd14","system_id":"levelo_inurba_marseille","lat":43.25106,"lon":5.40321,"is_reserved":false,"is_disabled":false,"rental_uris":{"android":"levelo://app?vid=af9ba5d4-9e14-4e79-a5d5-f4346f64dd14","ios":"levelo://app?vid=af9ba5d4-9e14-4e79-a5d5-f4346f64dd14"},"vehicle_type_id":"4","last_reported":1728817600,"current_range_meters":22800,"station_id":"ce4bhlh2rcd13ifvqgig","pricing_plan_id":"cebpf4jnsgd1na2vs0mg"},{"bike_id":"19767c7e-4ed0-457f-bcde-dbef8a4b6308","system_id":"levelo_inurba_marseille","lat":43.24386,"lon":5.3706,"is_reserved":false,"is_disabled":false,"rental_uris":{"android":"levelo://app?vid=19767c7e-4ed0-457f-bcde-dbef8a4b6308","ios":"levelo://app?vid=19767c7e-4ed0-457f-bcde-dbef8a4b6308"},"vehicle_type_id":"4","last_reported":1728817600,"current_range_meters":33200,"station_id":"ce4bhhh2rcd13ifvqfk0","pricing_plan_id":"cebpf4jnsgd1na2vs0mg"},{"bike_id":"881e6bee-2b33-4728-8242-c7937ce7e2dd","system_id":"levelo_inurba_marseille","lat":43.28419,"lon":5.34978,"is_reserved":false,"is_disabled":false,"rental_uris":{"android":"levelo://app?vid=881e6bee-2b33-4728-8242-c7937ce7e2dd","ios":"levelo://app?vid=881e6bee-2b33-4728-8242-c7937ce7e2dd"},"vehicle_type_id":"4","last_reported":1728817600,"current_range_meters":8800,"station_id":"ce4bhbh2rcd13ifvqepg","pricing_plan_id":"cebpf4jnsgd1na2vs0mg"},{"bike_id":"ddd8071c-e197-43f6-b7d5-51b8315e08bd","system_id":"levelo_inurba_marseille","lat":43.23206,"lon":5.35555,"is_reserved":false,"is_disabled":false,"rental_uris":{"android":"levelo://app?vid=ddd8071c-e197-43f6-b7d5-51b8315e08bd","ios":"levelo://app?vid=ddd8071c-e197-43f6-b7d5-51b8315e08bd"},"vehicle_type_id":"4","last_reported":1728817600,"current_range_meters":15200,"station_id":"ce4bhu92rcd13ifvqi70","pricing_plan_id":"cebpf4jnsgd1na2vs0mg"},{"bike_id":"6bd13d82-f155-4f47-a46d-1bea849ea499","system_id":"levelo_inurba_marseille","lat":43.28268,"lon":5.35071,"is_reserved":false,"is_disabled":false,"rental_uris":{"android":"levelo://app?vid=6bd13d82-f155-4f47-a46d-1bea849ea499","ios":"levelo://app?vid=6bd13d82-f155-4f47-a46d-1bea849ea499"},"vehicle_type_id":"4","last_reported":1728817600,"current_range_meters":34000,"station_id":"ce4bhbp2rcd13ifvqerg","pricing_plan_id":"cebpf4jnsgd1na2vs0mg"},{"bike_id":"25ed2710-8c35-44e6-81fd-8fc7cf6b54a8","system_id":"levelo_inurba_marseille","lat":43.274948,"lon":5.424466,"is_reserved":false,"is_disabled":false,"rental_uris":{"android":"levelo://app?vid=25ed2710-8c35-44e6-81fd-8fc7cf6b54a8","ios":"levelo://app?vid=25ed2710-8c35-44e6-81fd-8fc7cf6b54a8"},"vehicle_type_id":"4","last_reported":1728817600,"current_range_meters":21600,"station_id":"ce4bhn92rcd13ifvqgrg","pricing_plan_id":"cebpf4jnsgd1na2vs0mg"},{"bike_id":"3568bb6a-ff56-4932-b065-3f63a3c1d59e","system_id":"levelo_inurba_marseille","lat":43.26806,"lon":5.40261,"is_reserved":false,"is_disabled":false,"rental_uris":{"android":"levelo://app?vid=3568bb6a-ff56-4932-b065-3f63a3c1d59e","ios":"levelo://app?vid=3568bb6a-ff56-4932-b065-3f63a3c1d59e"},"vehicle_type_id":"4","last_reported":1728817600,"current_range_meters":38000,"station_id":"ce501612rcd8frsf0b60","pricing_plan_id":"cebpf4jnsgd1na2vs0mg"},{"bike_id":"85482c86-edc2-493a-a3a9-3820de066abd","system_id":"levelo_inurba_marseille","lat":43.2923,"lon":5.36057,"is_reserved":false,"is_disabled":false,"rental_uris":{"android":"levelo://app?vid=85482c86-edc2-493a-a3a9-3820de066abd","ios":"levelo://app?vid=85482c86-edc2-493a-a3a9-3820de066abd"},"vehicle_type_id":"4","last_reported":1728817600,"current_range_meters":31200,"station_id":"ce4bhbh2rcd13ifvqeqg","pricing_plan_id":"cebpf4jnsgd1na2vs0mg"},{"bike_id":"f4efecdf-6616-4a34-b007-1cf2a324a7a2","system_id":"levelo_inurba_marseille","lat":43.30607,"lon":5.3723,"is_reserved":false,"is_disabled":false,"rental_uris":{"android":"levelo://app?vid=f4efecdf-6616-4a34-b007-1cf2a324a7a2","ios":"levelo://app?vid=f4efecdf-6616-4a34-b007-1cf2a324a7a2"},"vehicle_type_id":"4","last_reported":1728817600,"current_range_meters":30400,"station_id":"ce4bgqh2rcd13ifvqc4g","pricing_plan_id":"cebpf4jnsgd1na2vs0mg"},{"bike_id":"5f568f46-d53d-4e63-8382-b11342632333","system_id":"levelo_inurba_marseille","lat":43.30325,"lon":5.40436,"is_reserved":false,"is_disabled":false,"rental_uris":{"android":"levelo://app?vid=5f568f46-d53d-4e63-8382-b11342632333","ios":"levelo://app?vid=5f568f46-d53d-4e63-8382-b11342632333"},"vehicle_type_id":"4","last_reported":1728817600,"current_range_meters":4400,"station_id":"ce4bh012rcd13ifvqd10","pricing_plan_id":"cebpf4jnsgd1na2vs0mg"},{"bike_id":"12202b11-bbbd-45ba-9f81-2f5642aaedde","system_id":"levelo_inurba_marseille","lat":43.28275,"lon":5.35067,"is_reserved":false,"is_disabled":false,"rental_uris":{"android":"levelo://app?vid=12202b11-bbbd-45ba-9f81-2f5642aaedde","ios":"levelo://app?vid=12202b11-bbbd-45ba-9f81-2f5642aaedde"},"vehicle_type_id":"4","last_reported":1728817600,"current_range_meters":10800,"station_id":"ce4bhbp2rcd13ifvqerg","pricing_plan_id":"cebpf4jnsgd1na2vs0mg"},{"bike_id":"da7ab6e6-9c7e-498a-91ae-891476cbdc9a","system_id":"levelo_inurba_marseille","lat":43.29851,"lon":5.36284,"is_reserved":false,"is_disabled":false,"rental_uris":{"android":"levelo://app?vid=da7ab6e6-9c7e-498a-91ae-891476cbdc9a","ios":"levelo://app?vid=da7ab6e6-9c7e-498a-91ae-891476cbdc9a"},"vehicle_type_id":"4","last_reported":1728817600,"current_range_meters":28000,"station_id":"ce4bgpp2rcd13ifvqc3g","pricing_plan_id":"cebpf4jnsgd1na2vs0mg"},{"bike_id":"109d18b6-bfcf-4cff-85dc-bd512ce6fb2f","system_id":"levelo_inurba_marseille","lat":43.23476,"lon":5.35978,"is_reserved":false,"is_disabled":false,"rental_uris":{"android":"levelo://app?vid=109d18b6-bfcf-4cff-85dc-bd512ce6fb2f","ios":"levelo://app?vid=109d18b6-bfcf-4cff-85dc-bd512ce6fb2f"},"vehicle_type_id":"4","last_reported":1728817600,"current_range_meters":8000,"station_id":"","pricing_plan_id":"cebpf4jnsgd1na2vs0mg"},{"bike_id":"5ff3d339-72da-4776-b2cf-e167c0812418","system_id":"levelo_inurba_marseille","lat":43.2318,"lon":5.39994,"is_reserved":false,"is_disabled":false,"rental_uris":{"android":"levelo://app?vid=5ff3d339-72da-4776-b2cf-e167c0812418","ios":"levelo://app?vid=5ff3d339-72da-4776-b2cf-e167c0812418"},"vehicle_type_id":"4","last_reported":1728817600,"current_range_meters":12000,"station_id":"ce4bhn12rcd13ifvqgqg","pricing_plan_id":"cebpf4jnsgd1na2vs0mg"},{"bike_id":"e3cd8953-9e5a-44ad-a5cd-debf49a539ae","system_id":"levelo_inurba_marseille","lat":43.21255,"lon":5.3544,"is_reserved":false,"is_disabled":false,"rental_uris":{"android":"levelo://app?vid=e3cd8953-9e5a-44ad-a5cd-debf49a539ae","ios":"levelo://app?vid=e3cd8953-9e5a-44ad-a5cd-debf49a539ae"},"vehicle_type_id":"4","last_reported":1728817600,"current_range_meters":21600,"station_id":"","pricing_plan_id":"cebpf4jnsgd1na2vs0mg"},{"bike_id":"9f2b9d96-f8c3-46d3-8195-e763a27ceec3","system_id":"levelo_inurba_marseille","lat":43.26198,"lon":5.37929,"is_reserved":false,"is_disabled":false,"rental_uris":{"android":"levelo://app?vid=9f2b9d96-f8c3-46d3-8195-e763a27ceec3","ios":"levelo://app?vid=9f2b9d96-f8c3-46d3-8195-e763a27ceec3"},"vehicle_type_id":"4","last_reported":1728817600,"current_range_meters":19200,"station_id":"ce4bhjp2rcd13ifvqg90","pricing_plan_id":"cebpf4jnsgd1na2vs0mg"},{"bike_id":"744d7d46-a030-452d-827a-600610e2a098","system_id":"levelo_inurba_marseille","lat":43.23185,"lon":5.39995,"is_reserved":false,"is_disabled":false,"rental_uris":{"android":"levelo://app?vid=744d7d46-a030-452d-827a-600610e2a098","ios":"levelo://app?vid=744d7d46-a030-452d-827a-600610e2a098"},"vehicle_type_id":"4","last_reported":1728817600,"current_range_meters":34800,"station_id":"ce4bhn12rcd13ifvqgqg","pricing_plan_id":"cebpf4jnsgd1na2vs0mg"},{"bike_id":"3ad26764-d662-44e6-ab69-89add263f157","system_id":"levelo_inurba_marseille","lat":43.308624,"lon":5.371977,"is_reserved":false,"is_disabled":false,"rental_uris":{"android":"levelo://app?vid=3ad26764-d662-44e6-ab69-89add263f157","ios":"levelo://app?vid=3ad26764-d662-44e6-ab69-89add263f157"},"vehicle_type_id":"4","last_reported":1728817600,"current_range_meters":27200,"station_id":"ce4bguh2rcd13ifvqckg","pricing_plan_id":"cebpf4jnsgd1na2vs0mg"},{"bike_id":"e6a8aec1-d448-48fb-b2d3-480453e7edf3","system_id":"levelo_inurba_marseille","lat":43.31707,"lon":5.39825,"is_reserved":false,"is_disabled":false,"rental_uris":{"android":"levelo://app?vid=e6a8aec1-d448-48fb-b2d3-480453e7edf3","ios":"levelo://app?vid=e6a8aec1-d448-48fb-b2d3-480453e7edf3"},"vehicle_type_id":"4","last_reported":1728817600,"current_range_meters":4800,"station_id":"","pricing_plan_id":"cebpf4jnsgd1na2vs0mg"},{"bike_id":"644ec339-933f-4af3-b4eb-3d59c6e50ed0","system_id":"levelo_inurba_marseille","lat":43.28265,"lon":5.35064,"is_reserved":false,"is_disabled":false,"rental_uris":{"android":"levelo://app?vid=644ec339-933f-4af3-b4eb-3d59c6e50ed0","ios":"levelo://app?vid=644ec339-933f-4af3-b4eb-3d59c6e50ed0"},"vehicle_type_id":"4","last_reported":1728817600,"current_range_meters":3200,"station_id":"ce4bhbp2rcd13ifvqerg","pricing_plan_id":"cebpf4jnsgd1na2vs0mg"},{"bike_id":"d786daa7-6195-4ad4-9d67-6b3a9d97ab5c","system_id":"levelo_inurba_marseille","lat":43.24388,"lon":5.37062,"is_reserved":false,"is_disabled":false,"rental_uris":{"android":"levelo://app?vid=d786daa7-6195-4ad4-9d67-6b3a9d97ab5c","ios":"levelo://app?vid=d786daa7-6195-4ad4-9d67-6b3a9d97ab5c"},"vehicle_type_id":"4","last_reported":1728817600,"current_range_meters":6800,"station_id":"ce4bhhh2rcd13ifvqfk0","pricing_plan_id":"cebpf4jnsgd1na2vs0mg"},{"bike_id":"92c1af36-5649-40f5-84ed-a7b062884571","system_id":"levelo_inurba_marseille","lat":43.2397,"lon":5.36622,"is_reserved":false,"is_disabled":false,"rental_uris":{"android":"levelo://app?vid=92c1af36-5649-40f5-84ed-a7b062884571","ios":"levelo://app?vid=92c1af36-5649-40f5-84ed-a7b062884571"},"vehicle_type_id":"4","last_reported":1728817600,"current_range_meters":29600,"station_id":"ce4bhi12rcd13ifvqfp0","pricing_plan_id":"cebpf4jnsgd1na2vs0mg"},{"bike_id":"3b75fe99-810f-40ef-9f84-d5b1cf667dc9","system_id":"levelo_inurba_marseille","lat":43.23147,"lon":5.43707,"is_reserved":false,"is_disabled":false,"rental_uris":{"android":"levelo://app?vid=3b75fe99-810f-40ef-9f84-d5b1cf667dc9","ios":"levelo://app?vid=3b75fe99-810f-40ef-9f84-d5b1cf667dc9"},"vehicle_type_id":"4","last_reported":1728817600,"current_range_meters":25200,"station_id":"ce4bhmp2rcd13ifvqgog","pricing_plan_id":"cebpf4jnsgd1na2vs0mg"},{"bike_id":"6cb5b02c-2401-484a-8b7d-b4d2106d6b08","system_id":"levelo_inurba_marseille","lat":43.23193,"lon":5.35554,"is_reserved":false,"is_disabled":false,"rental_uris":{"android":"levelo://app?vid=6cb5b02c-2401-484a-8b7d-b4d2106d6b08","ios":"levelo://app?vid=6cb5b02c-2401-484a-8b7d-b4d2106d6b08"},"vehicle_type_id":"4","last_reported":1728817600,"current_range_meters":26000,"station_id":"ce4bhu92rcd13ifvqi70","pricing_plan_id":"cebpf4jnsgd1na2vs0mg"},{"bike_id":"f7dd1dc7-fa4b-4758-aac5-4419d54d56ad","system_id":"levelo_inurba_marseille","lat":43.31761,"lon":5.39014,"is_reserved":false,"is_disabled":false,"rental_uris":{"android":"levelo://app?vid=f7dd1dc7-fa4b-4758-aac5-4419d54d56ad","ios":"levelo://app?vid=f7dd1dc7-fa4b-4758-aac5-4419d54d56ad"},"vehicle_type_id":"4","last_reported":1728817600,"current_range_meters":38800,"station_id":"ce4bhqp2rcd13ifvqhng","pricing_plan_id":"cebpf4jnsgd1na2vs0mg"},{"bike_id":"ab10680f-4906-45ae-b7ae-6d94c40d115a","system_id":"levelo_inurba_marseille","lat":43.25089,"lon":5.39523,"is_reserved":false,"is_disabled":false,"rental_uris":{"android":"levelo://app?vid=ab10680f-4906-45ae-b7ae-6d94c40d115a","ios":"levelo://app?vid=ab10680f-4906-45ae-b7ae-6d94c40d115a"},"vehicle_type_id":"4","last_reported":1728817600,"current_range_meters":33600,"station_id":"ce4bhm12rcd13ifvqgkg","pricing_plan_id":"cebpf4jnsgd1na2vs0mg"},{"bike_id":"921eb451-a108-4fbf-a5fa-bf0205374997","system_id":"levelo_inurba_marseille","lat":43.26058,"lon":5.39399,"is_reserved":false,"is_disabled":false,"rental_uris":{"android":"levelo://app?vid=921eb451-a108-4fbf-a5fa-bf0205374997","ios":"levelo://app?vid=921eb451-a108-4fbf-a5fa-bf0205374997"},"vehicle_type_id":"4","last_reported":1728817600,"current_range_meters":34000,"station_id":"ce4bhh92rcd13ifvqfj0","pricing_plan_id":"cebpf4jnsgd1na2vs0mg"},{"bike_id":"b1748c98-4862-4749-80ca-b35ba1e76c34","system_id":"levelo_inurba_marseille","lat":43.29579,"lon":5.37829,"is_reserved":false,"is_disabled":false,"rental_uris":{"android":"levelo://app?vid=b1748c98-4862-4749-80ca-b35ba1e76c34","ios":"levelo://app?vid=b1748c98-4862-4749-80ca-b35ba1e76c34"},"vehicle_type_id":"4","last_reported":1728817600,"current_range_meters":34800,"station_id":"","pricing_plan_id":"cebpf4jnsgd1na2vs0mg"},{"bike_id":"85fa6471-3499-4f70-bc04-c9294ef762a6","system_id":"levelo_inurba_marseille","lat":43.29021,"lon":5.38626,"is_reserved":false,"is_disabled":false,"rental_uris":{"android":"levelo://app?vid=85fa6471-3499-4f70-bc04-c9294ef762a6","ios":"levelo://app?vid=85fa6471-3499-4f70-bc04-c9294ef762a6"},"vehicle_type_id":"4","last_reported":1728817600,"current_range_meters":38800,"station_id":"ce4bh4p2rcd13ifvqe0g","pricing_plan_id":"cebpf4jnsgd1na2vs0mg"},{"bike_id":"6d3db2f4-b32c-4b2e-8abe-ebd08ccc61f5","system_id":"levelo_inurba_marseille","lat":43.26192,"lon":5.3745,"is_reserved":false,"is_disabled":false,"rental_uris":{"android":"levelo://app?vid=6d3db2f4-b32c-4b2e-8abe-ebd08ccc61f5","ios":"levelo://app?vid=6d3db2f4-b32c-4b2e-8abe-ebd08ccc61f5"},"vehicle_type_id":"4","last_reported":1728817600,"current_range_meters":33200,"station_id":"ce4bhgp2rcd13ifvqfc0","pricing_plan_id":"cebpf4jnsgd1na2vs0mg"},{"bike_id":"2edda28c-52b9-4f6b-a2b5-1178a3430847","system_id":"levelo_inurba_marseille","lat":43.29564,"lon":5.37511,"is_reserved":false,"is_disabled":false,"rental_uris":{"android":"levelo://app?vid=2edda28c-52b9-4f6b-a2b5-1178a3430847","ios":"levelo://app?vid=2edda28c-52b9-4f6b-a2b5-1178a3430847"},"vehicle_type_id":"4","last_reported":1728817600,"current_range_meters":32000,"station_id":"ce4bgh92rcd13ifvqb50","pricing_plan_id":"cebpf4jnsgd1na2vs0mg"},{"bike_id":"93c67bb6-f3a7-4124-b0e0-cae02a19fde7","system_id":"levelo_inurba_marseille","lat":43.29559,"lon":5.42288,"is_reserved":false,"is_disabled":false,"rental_uris":{"android":"levelo://app?vid=93c67bb6-f3a7-4124-b0e0-cae02a19fde7","ios":"levelo://app?vid=93c67bb6-f3a7-4124-b0e0-cae02a19fde7"},"vehicle_type_id":"4","last_reported":1728817600,"current_range_meters":37600,"station_id":"ce4bhph2rcd13ifvqhdg","pricing_plan_id":"cebpf4jnsgd1na2vs0mg"},{"bike_id":"1c7f46ab-9878-4239-9653-d4c2bf952d47","system_id":"levelo_inurba_marseille","lat":43.27061,"lon":5.40259,"is_reserved":false,"is_disabled":false,"rental_uris":{"android":"levelo://app?vid=1c7f46ab-9878-4239-9653-d4c2bf952d47","ios":"levelo://app?vid=1c7f46ab-9878-4239-9653-d4c2bf952d47"},"vehicle_type_id":"4","last_reported":1728817600,"current_range_meters":38800,"station_id":"ce4bhk92rcd13ifvqgc0","pricing_plan_id":"cebpf4jnsgd1na2vs0mg"},{"bike_id":"f463bffd-395b-45c4-87b1-620a763388ae","system_id":"levelo_inurba_marseille","lat":43.25862,"lon":5.39904,"is_reserved":false,"is_disabled":false,"rental_uris":{"android":"levelo://app?vid=f463bffd-395b-45c4-87b1-620a763388ae","ios":"levelo://app?vid=f463bffd-395b-45c4-87b1-620a763388ae"},"vehicle_type_id":"4","last_reported":1728817600,"current_range_meters":32400,"station_id":"ce4bhl92rcd13ifvqghg","pricing_plan_id":"cebpf4jnsgd1na2vs0mg"},{"bike_id":"9d671549-67ad-4eb0-ace0-50f59d8a0c79","system_id":"levelo_inurba_marseille","lat":43.31109,"lon":5.38064,"is_reserved":false,"is_disabled":false,"rental_uris":{"android":"levelo://app?vid=9d671549-67ad-4eb0-ace0-50f59d8a0c79","ios":"levelo://app?vid=9d671549-67ad-4eb0-ace0-50f59d8a0c79"},"vehicle_type_id":"4","last_reported":1728817600,"current_range_meters":24800,"station_id":"ce4bgt92rcd13ifvqcf0","pricing_plan_id":"cebpf4jnsgd1na2vs0mg"},{"bike_id":"019140ae-e316-4d6f-a884-a5f5edd517e4","system_id":"levelo_inurba_marseille","lat":43.29221,"lon":5.36045,"is_reserved":false,"is_disabled":false,"rental_uris":{"android":"levelo://app?vid=019140ae-e316-4d6f-a884-a5f5edd517e4","ios":"levelo://app?vid=019140ae-e316-4d6f-a884-a5f5edd517e4"},"vehicle_type_id":"4","last_reported":1728817600,"current_range_meters":29600,"station_id":"ce4bhbh2rcd13ifvqeqg","pricing_plan_id":"cebpf4jnsgd1na2vs0mg"},{"bike_id":"e5b364f2-ecec-4b88-8573-479de4acf7fa","system_id":"levelo_inurba_marseille","lat":43.29009,"lon":5.35605,"is_reserved":false,"is_disabled":false,"rental_uris":{"android":"levelo://app?vid=e5b364f2-ecec-4b88-8573-479de4acf7fa","ios":"levelo://app?vid=e5b364f2-ecec-4b88-8573-479de4acf7fa"},"vehicle_type_id":"4","last_reported":1728817600,"current_range_meters":10800,"station_id":"ce4bhb92rcd13ifvqen0","pricing_plan_id":"cebpf4jnsgd1na2vs0mg"},{"bike_id":"25e59862-8a09-482d-b3a5-7138deb4afc5","system_id":"levelo_inurba_marseille","lat":43.2306,"lon":5.35491,"is_reserved":false,"is_disabled":false,"rental_uris":{"android":"levelo://app?vid=25e59862-8a09-482d-b3a5-7138deb4afc5","ios":"levelo://app?vid=25e59862-8a09-482d-b3a5-7138deb4afc5"},"vehicle_type_id":"4","last_reported":1728817600,"current_range_meters":6000,"station_id":"cpo3342slgdg3j2ifvpg","pricing_plan_id":"cebpf4jnsgd1na2vs0mg"},{"bike_id":"11f3ba84-f0a8-4aaa-8ae2-a4cd79be7de4","system_id":"levelo_inurba_marseille","lat":43.25726,"lon":5.41107,"is_reserved":false,"is_disabled":false,"rental_uris":{"android":"levelo://app?vid=11f3ba84-f0a8-4aaa-8ae2-a4cd79be7de4","ios":"levelo://app?vid=11f3ba84-f0a8-4aaa-8ae2-a4cd79be7de4"},"vehicle_type_id":"4","last_reported":1728817600,"current_range_meters":24400,"station_id":"ce4bhkp2rcd13ifvqgd0","pricing_plan_id":"cebpf4jnsgd1na2vs0mg"},{"bike_id":"0ff65dc1-4d3f-451e-8384-1e7a75d3c7ae","system_id":"levelo_inurba_marseille","lat":43.305542,"lon":5.365623,"is_reserved":false,"is_disabled":false,"rental_uris":{"android":"levelo://app?vid=0ff65dc1-4d3f-451e-8384-1e7a75d3c7ae","ios":"levelo://app?vid=0ff65dc1-4d3f-451e-8384-1e7a75d3c7ae"},"vehicle_type_id":"4","last_reported":1728817600,"current_range_meters":29600,"station_id":"ce4bgs12rcd13ifvqcag","pricing_plan_id":"cebpf4jnsgd1na2vs0mg"},{"bike_id":"4f5333fa-3838-4e8f-a035-eeb1d47f3ae0","system_id":"levelo_inurba_marseille","lat":43.23058,"lon":5.35491,"is_reserved":false,"is_disabled":false,"rental_uris":{"android":"levelo://app?vid=4f5333fa-3838-4e8f-a035-eeb1d47f3ae0","ios":"levelo://app?vid=4f5333fa-3838-4e8f-a035-eeb1d47f3ae0"},"vehicle_type_id":"4","last_reported":1728817600,"current_range_meters":19200,"station_id":"cpo3342slgdg3j2ifvpg","pricing_plan_id":"cebpf4jnsgd1na2vs0mg"},{"bike_id":"b933402b-d1ca-49a8-bbf7-fb19281d941c","system_id":"levelo_inurba_marseille","lat":43.23192,"lon":5.35547,"is_reserved":false,"is_disabled":false,"rental_uris":{"android":"levelo://app?vid=b933402b-d1ca-49a8-bbf7-fb19281d941c","ios":"levelo://app?vid=b933402b-d1ca-49a8-bbf7-fb19281d941c"},"vehicle_type_id":"4","last_reported":1728817600,"current_range_meters":16000,"station_id":"ce4bhu92rcd13ifvqi70","pricing_plan_id":"cebpf4jnsgd1na2vs0mg"},{"bike_id":"0c1ecff5-69ed-46a2-bcca-316b26b87952","system_id":"levelo_inurba_marseille","lat":43.25575,"lon":5.38231,"is_reserved":false,"is_disabled":false,"rental_uris":{"android":"levelo://app?vid=0c1ecff5-69ed-46a2-bcca-316b26b87952","ios":"levelo://app?vid=0c1ecff5-69ed-46a2-bcca-316b26b87952"},"vehicle_type_id":"4","last_reported":1728817600,"current_range_meters":31200,"station_id":"ce4bhih2rcd13ifvqfs0","pricing_plan_id":"cebpf4jnsgd1na2vs0mg"},{"bike_id":"748d91ed-7543-45eb-a0a9-9a1d730c3800","system_id":"levelo_inurba_marseille","lat":43.31219,"lon":5.3685,"is_reserved":false,"is_disabled":false,"rental_uris":{"android":"levelo://app?vid=748d91ed-7543-45eb-a0a9-9a1d730c3800","ios":"levelo://app?vid=748d91ed-7543-45eb-a0a9-9a1d730c3800"},"vehicle_type_id":"4","last_reported":1728817600,"current_range_meters":30400,"station_id":"ce4bgl92rcd13ifvqbq0","pricing_plan_id":"cebpf4jnsgd1na2vs0mg"},{"bike_id":"a5989fc6-7f99-4285-99f4-331f457b8817","system_id":"levelo_inurba_marseille","lat":43.25114,"lon":5.40321,"is_reserved":false,"is_disabled":false,"rental_uris":{"android":"levelo://app?vid=a5989fc6-7f99-4285-99f4-331f457b8817","ios":"levelo://app?vid=a5989fc6-7f99-4285-99f4-331f457b8817"},"vehicle_type_id":"4","last_reported":1728817600,"current_range_meters":18800,"station_id":"ce4bhlh2rcd13ifvqgig","pricing_plan_id":"cebpf4jnsgd1na2vs0mg"},{"bike_id":"d8b1ce1d-838b-48bb-86eb-0245b55493ec","system_id":"levelo_inurba_marseille","lat":43.29849,"lon":5.36289,"is_reserved":false,"is_disabled":false,"rental_uris":{"android":"levelo://app?vid=d8b1ce1d-838b-48bb-86eb-0245b55493ec","ios":"levelo://app?vid=d8b1ce1d-838b-48bb-86eb-0245b55493ec"},"vehicle_type_id":"4","last_reported":1728817600,"current_range_meters":31200,"station_id":"ce4bgpp2rcd13ifvqc3g","pricing_plan_id":"cebpf4jnsgd1na2vs0mg"},{"bike_id":"13b61a53-be74-4255-808f-180d84fd9a0a","system_id":"levelo_inurba_marseille","lat":43.31887,"lon":5.40743,"is_reserved":false,"is_disabled":false,"rental_uris":{"android":"levelo://app?vid=13b61a53-be74-4255-808f-180d84fd9a0a","ios":"levelo://app?vid=13b61a53-be74-4255-808f-180d84fd9a0a"},"vehicle_type_id":"4","last_reported":1728817600,"current_range_meters":38800,"station_id":"ce4bhq12rcd13ifvqhig","pricing_plan_id":"cebpf4jnsgd1na2vs0mg"},{"bike_id":"9102945c-2215-441a-9f88-496bdd170b7a","system_id":"levelo_inurba_marseille","lat":43.22932,"lon":5.35375,"is_reserved":false,"is_disabled":false,"rental_uris":{"android":"levelo://app?vid=9102945c-2215-441a-9f88-496bdd170b7a","ios":"levelo://app?vid=9102945c-2215-441a-9f88-496bdd170b7a"},"vehicle_type_id":"4","last_reported":1728817600,"current_range_meters":32800,"station_id":"cpo3532slgdg3j2ikp40","pricing_plan_id":"cebpf4jnsgd1na2vs0mg"},{"bike_id":"9d0e307c-cca0-4b29-be05-f1dd1610130d","system_id":"levelo_inurba_marseille","lat":43.243935,"lon":5.370575,"is_reserved":false,"is_disabled":false,"rental_uris":{"android":"levelo://app?vid=9d0e307c-cca0-4b29-be05-f1dd1610130d","ios":"levelo://app?vid=9d0e307c-cca0-4b29-be05-f1dd1610130d"},"vehicle_type_id":"4","last_reported":1728817600,"current_range_meters":6000,"station_id":"ce4bhhh2rcd13ifvqfk0","pricing_plan_id":"cebpf4jnsgd1na2vs0mg"},{"bike_id":"a80b3ec3-8ad2-484d-9326-63d5d725e170","system_id":"levelo_inurba_marseille","lat":43.29559,"lon":5.42296,"is_reserved":false,"is_disabled":false,"rental_uris":{"android":"levelo://app?vid=a80b3ec3-8ad2-484d-9326-63d5d725e170","ios":"levelo://app?vid=a80b3ec3-8ad2-484d-9326-63d5d725e170"},"vehicle_type_id":"4","last_reported":1728817600,"current_range_meters":28800,"station_id":"ce4bhph2rcd13ifvqhdg","pricing_plan_id":"cebpf4jnsgd1na2vs0mg"},{"bike_id":"0a5699d7-d571-409b-ab5c-b900d43b527c","system_id":"levelo_inurba_marseille","lat":43.2511,"lon":5.40322,"is_reserved":false,"is_disabled":false,"rental_uris":{"android":"levelo://app?vid=0a5699d7-d571-409b-ab5c-b900d43b527c","ios":"levelo://app?vid=0a5699d7-d571-409b-ab5c-b900d43b527c"},"vehicle_type_id":"4","last_reported":1728817600,"current_range_meters":11600,"station_id":"ce4bhlh2rcd13ifvqgig","pricing_plan_id":"cebpf4jnsgd1na2vs0mg"},{"bike_id":"ad384203-41b2-41a3-bdd9-e89e71f4a9b5","system_id":"levelo_inurba_marseille","lat":43.24387,"lon":5.37053,"is_reserved":false,"is_disabled":false,"rental_uris":{"android":"levelo://app?vid=ad384203-41b2-41a3-bdd9-e89e71f4a9b5","ios":"levelo://app?vid=ad384203-41b2-41a3-bdd9-e89e71f4a9b5"},"vehicle_type_id":"4","last_reported":1728817600,"current_range_meters":17200,"station_id":"ce4bhhh2rcd13ifvqfk0","pricing_plan_id":"cebpf4jnsgd1na2vs0mg"},{"bike_id":"b4971d6c-9cfe-4bb0-aeda-5cdeacd0c89e","system_id":"levelo_inurba_marseille","lat":43.24387,"lon":5.37062,"is_reserved":false,"is_disabled":false,"rental_uris":{"android":"levelo://app?vid=b4971d6c-9cfe-4bb0-aeda-5cdeacd0c89e","ios":"levelo://app?vid=b4971d6c-9cfe-4bb0-aeda-5cdeacd0c89e"},"vehicle_type_id":"4","last_reported":1728817600,"current_range_meters":18800,"station_id":"ce4bhhh2rcd13ifvqfk0","pricing_plan_id":"cebpf4jnsgd1na2vs0mg"},{"bike_id":"38eee9a4-2c4a-4e98-96cd-12d62982e315","system_id":"levelo_inurba_marseille","lat":43.29606,"lon":5.38112,"is_reserved":false,"is_disabled":false,"rental_uris":{"android":"levelo://app?vid=38eee9a4-2c4a-4e98-96cd-12d62982e315","ios":"levelo://app?vid=38eee9a4-2c4a-4e98-96cd-12d62982e315"},"vehicle_type_id":"4","last_reported":1728817600,"current_range_meters":35600,"station_id":"ce4bgl12rcd13ifvqbo0","pricing_plan_id":"cebpf4jnsgd1na2vs0mg"},{"bike_id":"b4fe1d59-1668-49e9-a57c-545f7c068a36","system_id":"levelo_inurba_marseille","lat":43.28576,"lon":5.39498,"is_reserved":false,"is_disabled":false,"rental_uris":{"android":"levelo://app?vid=b4fe1d59-1668-49e9-a57c-545f7c068a36","ios":"levelo://app?vid=b4fe1d59-1668-49e9-a57c-545f7c068a36"},"vehicle_type_id":"4","last_reported":1728817600,"current_range_meters":27200,"station_id":"ce4bh292rcd13ifvqdg0","pricing_plan_id":"cebpf4jnsgd1na2vs0mg"},{"bike_id":"1a2908b9-1d50-4335-839e-6846caa15b18","system_id":"levelo_inurba_marseille","lat":43.27905,"lon":5.38009,"is_reserved":false,"is_disabled":false,"rental_uris":{"android":"levelo://app?vid=1a2908b9-1d50-4335-839e-6846caa15b18","ios":"levelo://app?vid=1a2908b9-1d50-4335-839e-6846caa15b18"},"vehicle_type_id":"4","last_reported":1728817600,"current_range_meters":26800,"station_id":"ce4bhf92rcd13ifvqf50","pricing_plan_id":"cebpf4jnsgd1na2vs0mg"},{"bike_id":"2ac07c82-6d1a-486c-a46b-f0f2e4293c37","system_id":"levelo_inurba_marseille","lat":43.24804,"lon":5.37452,"is_reserved":false,"is_disabled":false,"rental_uris":{"android":"levelo://app?vid=2ac07c82-6d1a-486c-a46b-f0f2e4293c37","ios":"levelo://app?vid=2ac07c82-6d1a-486c-a46b-f0f2e4293c37"},"vehicle_type_id":"4","last_reported":1728817600,"current_range_meters":36800,"station_id":"ce4bhgh2rcd13ifvqfb0","pricing_plan_id":"cebpf4jnsgd1na2vs0mg"},{"bike_id":"b07d947f-da80-474c-85d5-8ab68230fd90","system_id":"levelo_inurba_marseille","lat":43.33737,"lon":5.39193,"is_reserved":false,"is_disabled":false,"rental_uris":{"android":"levelo://app?vid=b07d947f-da80-474c-85d5-8ab68230fd90","ios":"levelo://app?vid=b07d947f-da80-474c-85d5-8ab68230fd90"},"vehicle_type_id":"4","last_reported":1728817600,"current_range_meters":17600,"station_id":"ce4bhr92rcd13ifvqhsg","pricing_plan_id":"cebpf4jnsgd1na2vs0mg"},{"bike_id":"d04f65da-962b-4a4a-8276-6bc7d4c0035c","system_id":"levelo_inurba_marseille","lat":43.24665,"lon":5.38167,"is_reserved":false,"is_disabled":false,"rental_uris":{"android":"levelo://app?vid=d04f65da-962b-4a4a-8276-6bc7d4c0035c","ios":"levelo://app?vid=d04f65da-962b-4a4a-8276-6bc7d4c0035c"},"vehicle_type_id":"4","last_reported":1728817600,"current_range_meters":28400,"station_id":"ce4bhih2rcd13ifvqfr0","pricing_plan_id":"cebpf4jnsgd1na2vs0mg"},{"bike_id":"8383f4a1-0e79-4716-b544-eb04dd70dc43","system_id":"levelo_inurba_marseille","lat":43.29777,"lon":5.39343,"is_reserved":false,"is_disabled":false,"rental_uris":{"android":"levelo://app?vid=8383f4a1-0e79-4716-b544-eb04dd70dc43","ios":"levelo://app?vid=8383f4a1-0e79-4716-b544-eb04dd70dc43"},"vehicle_type_id":"4","last_reported":1728817600,"current_range_meters":36800,"station_id":"chh1huq6cuj3fo74tm60","pricing_plan_id":"cebpf4jnsgd1na2vs0mg"},{"bike_id":"40b91560-e1ce-46e8-ba99-11495578adfb","system_id":"levelo_inurba_marseille","lat":43.299622,"lon":5.384877,"is_reserved":false,"is_disabled":false,"rental_uris":{"android":"levelo://app?vid=40b91560-e1ce-46e8-ba99-11495578adfb","ios":"levelo://app?vid=40b91560-e1ce-46e8-ba99-11495578adfb"},"vehicle_type_id":"4","last_reported":1728817600,"current_range_meters":3200,"station_id":"ce4bgj92rcd13ifvqbd0","pricing_plan_id":"cebpf4jnsgd1na2vs0mg"},{"bike_id":"5d1bd124-f7b9-4efc-8ac6-4a05d4a99454","system_id":"levelo_inurba_marseille","lat":43.29209,"lon":5.35786,"is_reserved":false,"is_disabled":false,"rental_uris":{"android":"levelo://app?vid=5d1bd124-f7b9-4efc-8ac6-4a05d4a99454","ios":"levelo://app?vid=5d1bd124-f7b9-4efc-8ac6-4a05d4a99454"},"vehicle_type_id":"4","last_reported":1728817600,"current_range_meters":24400,"station_id":"ce4bhb12rcd13ifvqel0","pricing_plan_id":"cebpf4jnsgd1na2vs0mg"},{"bike_id":"73fb4fa9-dc78-4fa7-8b15-772b35193805","system_id":"levelo_inurba_marseille","lat":43.26937,"lon":5.38912,"is_reserved":false,"is_disabled":false,"rental_uris":{"android":"levelo://app?vid=73fb4fa9-dc78-4fa7-8b15-772b35193805","ios":"levelo://app?vid=73fb4fa9-dc78-4fa7-8b15-772b35193805"},"vehicle_type_id":"4","last_reported":1728817600,"current_range_meters":27200,"station_id":"ce4bhhh2rcd13ifvqfl0","pricing_plan_id":"cebpf4jnsgd1na2vs0mg"},{"bike_id":"c9dce647-3d8c-41ef-9e19-2e94543ef6ef","system_id":"levelo_inurba_marseille","lat":43.29564,"lon":5.39962,"is_reserved":false,"is_disabled":false,"rental_uris":{"android":"levelo://app?vid=c9dce647-3d8c-41ef-9e19-2e94543ef6ef","ios":"levelo://app?vid=c9dce647-3d8c-41ef-9e19-2e94543ef6ef"},"vehicle_type_id":"4","last_reported":1728817600,"current_range_meters":38800,"station_id":"ce4bh312rcd13ifvqdj0","pricing_plan_id":"cebpf4jnsgd1na2vs0mg"},{"bike_id":"17289d87-c34f-4ba9-ac47-6067514ef77e","system_id":"levelo_inurba_marseille","lat":43.26058,"lon":5.39396,"is_reserved":false,"is_disabled":false,"rental_uris":{"android":"levelo://app?vid=17289d87-c34f-4ba9-ac47-6067514ef77e","ios":"levelo://app?vid=17289d87-c34f-4ba9-ac47-6067514ef77e"},"vehicle_type_id":"4","last_reported":1728817600,"current_range_meters":38800,"station_id":"ce4bhh92rcd13ifvqfj0","pricing_plan_id":"cebpf4jnsgd1na2vs0mg"},{"bike_id":"e1f9486c-3843-42a6-aacd-4c828c67520a","system_id":"levelo_inurba_marseille","lat":43.23052,"lon":5.35494,"is_reserved":false,"is_disabled":false,"rental_uris":{"android":"levelo://app?vid=e1f9486c-3843-42a6-aacd-4c828c67520a","ios":"levelo://app?vid=e1f9486c-3843-42a6-aacd-4c828c67520a"},"vehicle_type_id":"4","last_reported":1728817600,"current_range_meters":30800,"station_id":"cpo3342slgdg3j2ifvpg","pricing_plan_id":"cebpf4jnsgd1na2vs0mg"},{"bike_id":"0ed02b61-0f38-4602-830b-cbdfd1c7723f","system_id":"levelo_inurba_marseille","lat":43.2922,"lon":5.36055,"is_reserved":false,"is_disabled":false,"rental_uris":{"android":"levelo://app?vid=0ed02b61-0f38-4602-830b-cbdfd1c7723f","ios":"levelo://app?vid=0ed02b61-0f38-4602-830b-cbdfd1c7723f"},"vehicle_type_id":"4","last_reported":1728817600,"current_range_meters":32000,"station_id":"ce4bhbh2rcd13ifvqeqg","pricing_plan_id":"cebpf4jnsgd1na2vs0mg"},{"bike_id":"17f0a58b-fa96-470d-a1b0-89c2a0c2bfbe","system_id":"levelo_inurba_marseille","lat":43.23193,"lon":5.35556,"is_reserved":false,"is_disabled":false,"rental_uris":{"android":"levelo://app?vid=17f0a58b-fa96-470d-a1b0-89c2a0c2bfbe","ios":"levelo://app?vid=17f0a58b-fa96-470d-a1b0-89c2a0c2bfbe"},"vehicle_type_id":"4","last_reported":1728817600,"current_range_meters":17200,"station_id":"ce4bhu92rcd13ifvqi70","pricing_plan_id":"cebpf4jnsgd1na2vs0mg"},{"bike_id":"09e01336-7f59-4158-bf89-f51ecba70614","system_id":"levelo_inurba_marseille","lat":43.26956,"lon":5.38629,"is_reserved":false,"is_disabled":false,"rental_uris":{"android":"levelo://app?vid=09e01336-7f59-4158-bf89-f51ecba70614","ios":"levelo://app?vid=09e01336-7f59-4158-bf89-f51ecba70614"},"vehicle_type_id":"4","last_reported":1728817600,"current_range_meters":37600,"station_id":"ce4bhh92rcd13ifvqfh0","pricing_plan_id":"cebpf4jnsgd1na2vs0mg"},{"bike_id":"9767619a-3281-47be-939c-b6e115d5bcf9","system_id":"levelo_inurba_marseille","lat":43.27995,"lon":5.40005,"is_reserved":false,"is_disabled":false,"rental_uris":{"android":"levelo://app?vid=9767619a-3281-47be-939c-b6e115d5bcf9","ios":"levelo://app?vid=9767619a-3281-47be-939c-b6e115d5bcf9"},"vehicle_type_id":"4","last_reported":1728817600,"current_range_meters":36800,"station_id":"ce4bho92rcd13ifvqh4g","pricing_plan_id":"cebpf4jnsgd1na2vs0mg"},{"bike_id":"e002dae1-a37c-4dfc-a077-a4603f13c3a5","system_id":"levelo_inurba_marseille","lat":43.282623,"lon":5.350528,"is_reserved":false,"is_disabled":false,"rental_uris":{"android":"levelo://app?vid=e002dae1-a37c-4dfc-a077-a4603f13c3a5","ios":"levelo://app?vid=e002dae1-a37c-4dfc-a077-a4603f13c3a5"},"vehicle_type_id":"4","last_reported":1728817600,"current_range_meters":28000,"station_id":"ce4bhbp2rcd13ifvqerg","pricing_plan_id":"cebpf4jnsgd1na2vs0mg"},{"bike_id":"0383fd16-e9b8-4410-b536-493a9708d1c6","system_id":"levelo_inurba_marseille","lat":43.33023,"lon":5.39042,"is_reserved":false,"is_disabled":false,"rental_uris":{"android":"levelo://app?vid=0383fd16-e9b8-4410-b536-493a9708d1c6","ios":"levelo://app?vid=0383fd16-e9b8-4410-b536-493a9708d1c6"},"vehicle_type_id":"4","last_reported":1728817600,"current_range_meters":40000,"station_id":"ce4bhr92rcd13ifvqhrg","pricing_plan_id":"cebpf4jnsgd1na2vs0mg"},{"bike_id":"b25409bc-df4d-476a-893e-c6a5838692b2","system_id":"levelo_inurba_marseille","lat":43.23193,"lon":5.35554,"is_reserved":false,"is_disabled":false,"rental_uris":{"android":"levelo://app?vid=b25409bc-df4d-476a-893e-c6a5838692b2","ios":"levelo://app?vid=b25409bc-df4d-476a-893e-c6a5838692b2"},"vehicle_type_id":"4","last_reported":1728817600,"current_range_meters":38800,"station_id":"ce4bhu92rcd13ifvqi70","pricing_plan_id":"cebpf4jnsgd1na2vs0mg"},{"bike_id":"c0ba6486-f212-4dcc-9e9d-0bcd4174be5f","system_id":"levelo_inurba_marseille","lat":43.25939,"lon":5.409,"is_reserved":false,"is_disabled":false,"rental_uris":{"android":"levelo://app?vid=c0ba6486-f212-4dcc-9e9d-0bcd4174be5f","ios":"levelo://app?vid=c0ba6486-f212-4dcc-9e9d-0bcd4174be5f"},"vehicle_type_id":"4","last_reported":1728817600,"current_range_meters":20400,"station_id":"ce4bhm92rcd13ifvqglg","pricing_plan_id":"cebpf4jnsgd1na2vs0mg"},{"bike_id":"8fb2b431-bcb9-46ba-80fb-e26e84592fc5","system_id":"levelo_inurba_marseille","lat":43.23193,"lon":5.35543,"is_reserved":false,"is_disabled":false,"rental_uris":{"android":"levelo://app?vid=8fb2b431-bcb9-46ba-80fb-e26e84592fc5","ios":"levelo://app?vid=8fb2b431-bcb9-46ba-80fb-e26e84592fc5"},"vehicle_type_id":"4","last_reported":1728817600,"current_range_meters":27600,"station_id":"ce4bhu92rcd13ifvqi70","pricing_plan_id":"cebpf4jnsgd1na2vs0mg"},{"bike_id":"d737c553-9bf5-4503-9920-f6b5ee4d74c4","system_id":"levelo_inurba_marseille","lat":43.33024,"lon":5.39036,"is_reserved":false,"is_disabled":false,"rental_uris":{"android":"levelo://app?vid=d737c553-9bf5-4503-9920-f6b5ee4d74c4","ios":"levelo://app?vid=d737c553-9bf5-4503-9920-f6b5ee4d74c4"},"vehicle_type_id":"4","last_reported":1728817600,"current_range_meters":35200,"station_id":"ce4bhr92rcd13ifvqhrg","pricing_plan_id":"cebpf4jnsgd1na2vs0mg"},{"bike_id":"eff5589a-39dc-445f-9af2-e1a39607a448","system_id":"levelo_inurba_marseille","lat":43.2782,"lon":5.39211,"is_reserved":false,"is_disabled":false,"rental_uris":{"android":"levelo://app?vid=eff5589a-39dc-445f-9af2-e1a39607a448","ios":"levelo://app?vid=eff5589a-39dc-445f-9af2-e1a39607a448"},"vehicle_type_id":"4","last_reported":1728817600,"current_range_meters":38400,"station_id":"ce4bhjp2rcd13ifvqga0","pricing_plan_id":"cebpf4jnsgd1na2vs0mg"},{"bike_id":"e2f25126-29b7-4581-a4fe-9e458716fb1d","system_id":"levelo_inurba_marseille","lat":43.23964,"lon":5.36621,"is_reserved":false,"is_disabled":false,"rental_uris":{"android":"levelo://app?vid=e2f25126-29b7-4581-a4fe-9e458716fb1d","ios":"levelo://app?vid=e2f25126-29b7-4581-a4fe-9e458716fb1d"},"vehicle_type_id":"4","last_reported":1728817600,"current_range_meters":24400,"station_id":"ce4bhi12rcd13ifvqfp0","pricing_plan_id":"cebpf4jnsgd1na2vs0mg"},{"bike_id":"f9299ab5-265b-4147-a6f9-c2f4b5d294ef","system_id":"levelo_inurba_marseille","lat":43.2407,"lon":5.37764,"is_reserved":false,"is_disabled":false,"rental_uris":{"android":"levelo://app?vid=f9299ab5-265b-4147-a6f9-c2f4b5d294ef","ios":"levelo://app?vid=f9299ab5-265b-4147-a6f9-c2f4b5d294ef"},"vehicle_type_id":"4","last_reported":1728817600,"current_range_meters":36400,"station_id":"ce4bhnp2rcd13ifvqgvg","pricing_plan_id":"cebpf4jnsgd1na2vs0mg"},{"bike_id":"6746abcb-d28b-4802-b21a-150ec671a4ca","system_id":"levelo_inurba_marseille","lat":43.23195,"lon":5.35551,"is_reserved":false,"is_disabled":false,"rental_uris":{"android":"levelo://app?vid=6746abcb-d28b-4802-b21a-150ec671a4ca","ios":"levelo://app?vid=6746abcb-d28b-4802-b21a-150ec671a4ca"},"vehicle_type_id":"4","last_reported":1728817600,"current_range_meters":22800,"station_id":"ce4bhu92rcd13ifvqi70","pricing_plan_id":"cebpf4jnsgd1na2vs0mg"},{"bike_id":"32cbd345-8d11-4856-815c-aa56ec3e21d4","system_id":"levelo_inurba_marseille","lat":43.269263,"lon":5.388538,"is_reserved":false,"is_disabled":false,"rental_uris":{"android":"levelo://app?vid=32cbd345-8d11-4856-815c-aa56ec3e21d4","ios":"levelo://app?vid=32cbd345-8d11-4856-815c-aa56ec3e21d4"},"vehicle_type_id":"4","last_reported":1728817600,"current_range_meters":38800,"station_id":"ce4bhhh2rcd13ifvqfl0","pricing_plan_id":"cebpf4jnsgd1na2vs0mg"},{"bike_id":"b1776727-0345-40c7-b686-8f8148aa1999","system_id":"levelo_inurba_marseille","lat":43.22934,"lon":5.35377,"is_reserved":false,"is_disabled":false,"rental_uris":{"android":"levelo://app?vid=b1776727-0345-40c7-b686-8f8148aa1999","ios":"levelo://app?vid=b1776727-0345-40c7-b686-8f8148aa1999"},"vehicle_type_id":"4","last_reported":1728817600,"current_range_meters":17600,"station_id":"cpo3532slgdg3j2ikp40","pricing_plan_id":"cebpf4jnsgd1na2vs0mg"},{"bike_id":"094b29e5-79f8-4fb1-afe4-cbfbbb1b9cd4","system_id":"levelo_inurba_marseille","lat":43.23182,"lon":5.3998,"is_reserved":false,"is_disabled":false,"rental_uris":{"android":"levelo://app?vid=094b29e5-79f8-4fb1-afe4-cbfbbb1b9cd4","ios":"levelo://app?vid=094b29e5-79f8-4fb1-afe4-cbfbbb1b9cd4"},"vehicle_type_id":"4","last_reported":1728817600,"current_range_meters":39200,"station_id":"ce4bhn12rcd13ifvqgqg","pricing_plan_id":"cebpf4jnsgd1na2vs0mg"},{"bike_id":"c0419195-57e5-40c7-aa7c-a5c918a82dd1","system_id":"levelo_inurba_marseille","lat":43.25088,"lon":5.39524,"is_reserved":false,"is_disabled":false,"rental_uris":{"android":"levelo://app?vid=c0419195-57e5-40c7-aa7c-a5c918a82dd1","ios":"levelo://app?vid=c0419195-57e5-40c7-aa7c-a5c918a82dd1"},"vehicle_type_id":"4","last_reported":1728817600,"current_range_meters":24800,"station_id":"ce4bhm12rcd13ifvqgkg","pricing_plan_id":"cebpf4jnsgd1na2vs0mg"},{"bike_id":"718821b3-f433-4b42-8896-e3339bd34641","system_id":"levelo_inurba_marseille","lat":43.295138,"lon":5.375079,"is_reserved":false,"is_disabled":false,"rental_uris":{"android":"levelo://app?vid=718821b3-f433-4b42-8896-e3339bd34641","ios":"levelo://app?vid=718821b3-f433-4b42-8896-e3339bd34641"},"vehicle_type_id":"4","last_reported":1728817600,"current_range_meters":24800,"station_id":"ce4bhb92rcd13ifvqen0","pricing_plan_id":"cebpf4jnsgd1na2vs0mg"},{"bike_id":"81cd8990-7350-4041-b029-a704423aeae9","system_id":"levelo_inurba_marseille","lat":43.24666,"lon":5.38169,"is_reserved":false,"is_disabled":false,"rental_uris":{"android":"levelo://app?vid=81cd8990-7350-4041-b029-a704423aeae9","ios":"levelo://app?vid=81cd8990-7350-4041-b029-a704423aeae9"},"vehicle_type_id":"4","last_reported":1728817600,"current_range_meters":24800,"station_id":"ce4bhih2rcd13ifvqfr0","pricing_plan_id":"cebpf4jnsgd1na2vs0mg"},{"bike_id":"8df76210-c1cb-4a21-b1a3-10b5629722e8","system_id":"levelo_inurba_marseille","lat":43.23176,"lon":5.39995,"is_reserved":false,"is_disabled":false,"rental_uris":{"android":"levelo://app?vid=8df76210-c1cb-4a21-b1a3-10b5629722e8","ios":"levelo://app?vid=8df76210-c1cb-4a21-b1a3-10b5629722e8"},"vehicle_type_id":"4","last_reported":1728817600,"current_range_meters":38800,"station_id":"ce4bhn12rcd13ifvqgqg","pricing_plan_id":"cebpf4jnsgd1na2vs0mg"},{"bike_id":"e184a16c-e55c-462b-82b1-156bc42af4b4","system_id":"levelo_inurba_marseille","lat":43.28151,"lon":5.42644,"is_reserved":false,"is_disabled":false,"rental_uris":{"android":"levelo://app?vid=e184a16c-e55c-462b-82b1-156bc42af4b4","ios":"levelo://app?vid=e184a16c-e55c-462b-82b1-156bc42af4b4"},"vehicle_type_id":"4","last_reported":1728817600,"current_range_meters":38800,"station_id":"ce4bhnh2rcd13ifvqgug","pricing_plan_id":"cebpf4jnsgd1na2vs0mg"},{"bike_id":"a9d8d00f-2b10-40cd-af9b-04b4ae45f2bc","system_id":"levelo_inurba_marseille","lat":43.24386,"lon":5.37054,"is_reserved":false,"is_disabled":false,"rental_uris":{"android":"levelo://app?vid=a9d8d00f-2b10-40cd-af9b-04b4ae45f2bc","ios":"levelo://app?vid=a9d8d00f-2b10-40cd-af9b-04b4ae45f2bc"},"vehicle_type_id":"4","last_reported":1728817600,"current_range_meters":23200,"station_id":"ce4bhhh2rcd13ifvqfk0","pricing_plan_id":"cebpf4jnsgd1na2vs0mg"},{"bike_id":"494e2c4d-0060-4d2d-90a2-763cc20439ef","system_id":"levelo_inurba_marseille","lat":43.2947,"lon":5.37452,"is_reserved":false,"is_disabled":false,"rental_uris":{"android":"levelo://app?vid=494e2c4d-0060-4d2d-90a2-763cc20439ef","ios":"levelo://app?vid=494e2c4d-0060-4d2d-90a2-763cc20439ef"},"vehicle_type_id":"4","last_reported":1728817600,"current_range_meters":31200,"station_id":"ce4bgkp2rcd13ifvqbmg","pricing_plan_id":"cebpf4jnsgd1na2vs0mg"},{"bike_id":"3e2b4898-bb26-41ed-a70c-2a474867ed24","system_id":"levelo_inurba_marseille","lat":43.24802,"lon":5.37452,"is_reserved":false,"is_disabled":false,"rental_uris":{"android":"levelo://app?vid=3e2b4898-bb26-41ed-a70c-2a474867ed24","ios":"levelo://app?vid=3e2b4898-bb26-41ed-a70c-2a474867ed24"},"vehicle_type_id":"4","last_reported":1728817600,"current_range_meters":24000,"station_id":"ce4bhgh2rcd13ifvqfb0","pricing_plan_id":"cebpf4jnsgd1na2vs0mg"},{"bike_id":"49799a82-784b-40c7-9ab3-3d2a23696762","system_id":"levelo_inurba_marseille","lat":43.29222,"lon":5.3606,"is_reserved":false,"is_disabled":false,"rental_uris":{"android":"levelo://app?vid=49799a82-784b-40c7-9ab3-3d2a23696762","ios":"levelo://app?vid=49799a82-784b-40c7-9ab3-3d2a23696762"},"vehicle_type_id":"4","last_reported":1728817600,"current_range_meters":38800,"station_id":"ce4bhbh2rcd13ifvqeqg","pricing_plan_id":"cebpf4jnsgd1na2vs0mg"},{"bike_id":"e53d9dac-6d16-4334-ad56-d0d38fcf4eb7","system_id":"levelo_inurba_marseille","lat":43.2798,"lon":5.41804,"is_reserved":false,"is_disabled":false,"rental_uris":{"android":"levelo://app?vid=e53d9dac-6d16-4334-ad56-d0d38fcf4eb7","ios":"levelo://app?vid=e53d9dac-6d16-4334-ad56-d0d38fcf4eb7"},"vehicle_type_id":"4","last_reported":1728817600,"current_range_meters":24800,"station_id":"","pricing_plan_id":"cebpf4jnsgd1na2vs0mg"},{"bike_id":"aee00608-37bd-4ca5-b0d6-6d7a899e70ce","system_id":"levelo_inurba_marseille","lat":43.30782,"lon":5.3764,"is_reserved":false,"is_disabled":false,"rental_uris":{"android":"levelo://app?vid=aee00608-37bd-4ca5-b0d6-6d7a899e70ce","ios":"levelo://app?vid=aee00608-37bd-4ca5-b0d6-6d7a899e70ce"},"vehicle_type_id":"4","last_reported":1728817600,"current_range_meters":22800,"station_id":"ce4bgv92rcd13ifvqcq0","pricing_plan_id":"cebpf4jnsgd1na2vs0mg"},{"bike_id":"9cc32ba6-dc1f-4637-a0b2-8450aee57f05","system_id":"levelo_inurba_marseille","lat":43.28424,"lon":5.34978,"is_reserved":false,"is_disabled":false,"rental_uris":{"android":"levelo://app?vid=9cc32ba6-dc1f-4637-a0b2-8450aee57f05","ios":"levelo://app?vid=9cc32ba6-dc1f-4637-a0b2-8450aee57f05"},"vehicle_type_id":"4","last_reported":1728817600,"current_range_meters":25600,"station_id":"ce4bhbh2rcd13ifvqepg","pricing_plan_id":"cebpf4jnsgd1na2vs0mg"},{"bike_id":"6900adde-a0f5-4f22-a2bc-bbff897084ba","system_id":"levelo_inurba_marseille","lat":43.29266,"lon":5.3843,"is_reserved":false,"is_disabled":false,"rental_uris":{"android":"levelo://app?vid=6900adde-a0f5-4f22-a2bc-bbff897084ba","ios":"levelo://app?vid=6900adde-a0f5-4f22-a2bc-bbff897084ba"},"vehicle_type_id":"4","last_reported":1728817600,"current_range_meters":16800,"station_id":"ce4bh692rcd13ifvqea0","pricing_plan_id":"cebpf4jnsgd1na2vs0mg"},{"bike_id":"66291fba-e44f-44a7-97a1-2836262f92d9","system_id":"levelo_inurba_marseille","lat":43.29308,"lon":5.37174,"is_reserved":false,"is_disabled":false,"rental_uris":{"android":"levelo://app?vid=66291fba-e44f-44a7-97a1-2836262f92d9","ios":"levelo://app?vid=66291fba-e44f-44a7-97a1-2836262f92d9"},"vehicle_type_id":"4","last_reported":1728817600,"current_range_meters":18800,"station_id":"ce4bgh92rcd13ifvqb40","pricing_plan_id":"cebpf4jnsgd1na2vs0mg"},{"bike_id":"39942204-12a4-498c-b8b7-5f502c179832","system_id":"levelo_inurba_marseille","lat":43.30464,"lon":5.37908,"is_reserved":false,"is_disabled":false,"rental_uris":{"android":"levelo://app?vid=39942204-12a4-498c-b8b7-5f502c179832","ios":"levelo://app?vid=39942204-12a4-498c-b8b7-5f502c179832"},"vehicle_type_id":"4","last_reported":1728817600,"current_range_meters":2000,"station_id":"ce4bgup2rcd13ifvqcn0","pricing_plan_id":"cebpf4jnsgd1na2vs0mg"},{"bike_id":"c167cdf7-5aed-449a-bdd2-8f515812e27f","system_id":"levelo_inurba_marseille","lat":43.29032,"lon":5.37567,"is_reserved":false,"is_disabled":false,"rental_uris":{"android":"levelo://app?vid=c167cdf7-5aed-449a-bdd2-8f515812e27f","ios":"levelo://app?vid=c167cdf7-5aed-449a-bdd2-8f515812e27f"},"vehicle_type_id":"4","last_reported":1728817600,"current_range_meters":35600,"station_id":"ce4bh692rcd13ifvqe90","pricing_plan_id":"cebpf4jnsgd1na2vs0mg"},{"bike_id":"cdde71fa-933f-47ef-8a23-39142a076aea","system_id":"levelo_inurba_marseille","lat":43.29557,"lon":5.42284,"is_reserved":false,"is_disabled":false,"rental_uris":{"android":"levelo://app?vid=cdde71fa-933f-47ef-8a23-39142a076aea","ios":"levelo://app?vid=cdde71fa-933f-47ef-8a23-39142a076aea"},"vehicle_type_id":"4","last_reported":1728817600,"current_range_meters":38800,"station_id":"ce4bhph2rcd13ifvqhdg","pricing_plan_id":"cebpf4jnsgd1na2vs0mg"},{"bike_id":"2c4c4fdd-4be3-40ba-ae9f-53b1d6165fc5","system_id":"levelo_inurba_marseille","lat":43.28844,"lon":5.35829,"is_reserved":false,"is_disabled":false,"rental_uris":{"android":"levelo://app?vid=2c4c4fdd-4be3-40ba-ae9f-53b1d6165fc5","ios":"levelo://app?vid=2c4c4fdd-4be3-40ba-ae9f-53b1d6165fc5"},"vehicle_type_id":"4","last_reported":1728817600,"current_range_meters":8000,"station_id":"ce4bhb12rcd13ifvqem0","pricing_plan_id":"cebpf4jnsgd1na2vs0mg"},{"bike_id":"b8b767ac-d6e5-4925-a768-f60f008e85ca","system_id":"levelo_inurba_marseille","lat":43.29225,"lon":5.36058,"is_reserved":false,"is_disabled":false,"rental_uris":{"android":"levelo://app?vid=b8b767ac-d6e5-4925-a768-f60f008e85ca","ios":"levelo://app?vid=b8b767ac-d6e5-4925-a768-f60f008e85ca"},"vehicle_type_id":"4","last_reported":1728817600,"current_range_meters":39200,"station_id":"ce4bhbh2rcd13ifvqeqg","pricing_plan_id":"cebpf4jnsgd1na2vs0mg"},{"bike_id":"7a7603ca-a4d6-43d9-80cb-5defbf910cb6","system_id":"levelo_inurba_marseille","lat":43.2408,"lon":5.37751,"is_reserved":false,"is_disabled":false,"rental_uris":{"android":"levelo://app?vid=7a7603ca-a4d6-43d9-80cb-5defbf910cb6","ios":"levelo://app?vid=7a7603ca-a4d6-43d9-80cb-5defbf910cb6"},"vehicle_type_id":"4","last_reported":1728817600,"current_range_meters":12000,"station_id":"ce4bhnp2rcd13ifvqgvg","pricing_plan_id":"cebpf4jnsgd1na2vs0mg"},{"bike_id":"c9a2b2be-a745-44b1-817d-d76fe9dd7f63","system_id":"levelo_inurba_marseille","lat":43.30961,"lon":5.3903,"is_reserved":false,"is_disabled":false,"rental_uris":{"android":"levelo://app?vid=c9a2b2be-a745-44b1-817d-d76fe9dd7f63","ios":"levelo://app?vid=c9a2b2be-a745-44b1-817d-d76fe9dd7f63"},"vehicle_type_id":"4","last_reported":1728817600,"current_range_meters":38800,"station_id":"ce4bgup2rcd13ifvqco0","pricing_plan_id":"cebpf4jnsgd1na2vs0mg"},{"bike_id":"f5f4bcc9-b87f-44ae-b45e-8fc105691959","system_id":"levelo_inurba_marseille","lat":43.325672,"lon":5.399877,"is_reserved":false,"is_disabled":false,"rental_uris":{"android":"levelo://app?vid=f5f4bcc9-b87f-44ae-b45e-8fc105691959","ios":"levelo://app?vid=f5f4bcc9-b87f-44ae-b45e-8fc105691959"},"vehicle_type_id":"4","last_reported":1728817600,"current_range_meters":16400,"station_id":"","pricing_plan_id":"cebpf4jnsgd1na2vs0mg"},{"bike_id":"d04c3a25-9e86-42a0-833a-b06bd4f0b4bd","system_id":"levelo_inurba_marseille","lat":43.2325,"lon":5.40005,"is_reserved":false,"is_disabled":false,"rental_uris":{"android":"levelo://app?vid=d04c3a25-9e86-42a0-833a-b06bd4f0b4bd","ios":"levelo://app?vid=d04c3a25-9e86-42a0-833a-b06bd4f0b4bd"},"vehicle_type_id":"4","last_reported":1728817600,"current_range_meters":18000,"station_id":"ce4bhn12rcd13ifvqgqg","pricing_plan_id":"cebpf4jnsgd1na2vs0mg"},{"bike_id":"49316722-f5ca-469e-b328-cdeaebfb0c7f","system_id":"levelo_inurba_marseille","lat":43.23958,"lon":5.36632,"is_reserved":false,"is_disabled":false,"rental_uris":{"android":"levelo://app?vid=49316722-f5ca-469e-b328-cdeaebfb0c7f","ios":"levelo://app?vid=49316722-f5ca-469e-b328-cdeaebfb0c7f"},"vehicle_type_id":"4","last_reported":1728817600,"current_range_meters":6000,"station_id":"ce4bhi12rcd13ifvqfp0","pricing_plan_id":"cebpf4jnsgd1na2vs0mg"},{"bike_id":"b7103f21-af74-4255-83a3-f5c792655377","system_id":"levelo_inurba_marseille","lat":43.3054,"lon":5.36556,"is_reserved":false,"is_disabled":false,"rental_uris":{"android":"levelo://app?vid=b7103f21-af74-4255-83a3-f5c792655377","ios":"levelo://app?vid=b7103f21-af74-4255-83a3-f5c792655377"},"vehicle_type_id":"4","last_reported":1728817600,"current_range_meters":20400,"station_id":"ce4bgs12rcd13ifvqcag","pricing_plan_id":"cebpf4jnsgd1na2vs0mg"},{"bike_id":"05fc7462-45f1-45e4-b094-d7f235cbf287","system_id":"levelo_inurba_marseille","lat":43.30206,"lon":5.39455,"is_reserved":false,"is_disabled":false,"rental_uris":{"android":"levelo://app?vid=05fc7462-45f1-45e4-b094-d7f235cbf287","ios":"levelo://app?vid=05fc7462-45f1-45e4-b094-d7f235cbf287"},"vehicle_type_id":"4","last_reported":1728817600,"current_range_meters":39200,"station_id":"ce4bh0p2rcd13ifvqd70","pricing_plan_id":"cebpf4jnsgd1na2vs0mg"},{"bike_id":"a8845487-5cae-4cbf-980b-f567ff1cb577","system_id":"levelo_inurba_marseille","lat":43.30156,"lon":5.38079,"is_reserved":false,"is_disabled":false,"rental_uris":{"android":"levelo://app?vid=a8845487-5cae-4cbf-980b-f567ff1cb577","ios":"levelo://app?vid=a8845487-5cae-4cbf-980b-f567ff1cb577"},"vehicle_type_id":"4","last_reported":1728817600,"current_range_meters":38800,"station_id":"ce4bgjp2rcd13ifvqbh0","pricing_plan_id":"cebpf4jnsgd1na2vs0mg"},{"bike_id":"a61f567b-1bfc-44e5-ba3c-64c1af9482c5","system_id":"levelo_inurba_marseille","lat":43.30144,"lon":5.38075,"is_reserved":false,"is_disabled":false,"rental_uris":{"android":"levelo://app?vid=a61f567b-1bfc-44e5-ba3c-64c1af9482c5","ios":"levelo://app?vid=a61f567b-1bfc-44e5-ba3c-64c1af9482c5"},"vehicle_type_id":"4","last_reported":1728817600,"current_range_meters":26800,"station_id":"ce4bgjp2rcd13ifvqbh0","pricing_plan_id":"cebpf4jnsgd1na2vs0mg"},{"bike_id":"7b20509d-3e68-45a9-908c-1764325c91a4","system_id":"levelo_inurba_marseille","lat":43.23191,"lon":5.35569,"is_reserved":false,"is_disabled":false,"rental_uris":{"android":"levelo://app?vid=7b20509d-3e68-45a9-908c-1764325c91a4","ios":"levelo://app?vid=7b20509d-3e68-45a9-908c-1764325c91a4"},"vehicle_type_id":"4","last_reported":1728817600,"current_range_meters":5600,"station_id":"ce4bhu92rcd13ifvqi70","pricing_plan_id":"cebpf4jnsgd1na2vs0mg"},{"bike_id":"aad69708-28ac-43e6-945e-619f5a7c6bfd","system_id":"levelo_inurba_marseille","lat":43.33781,"lon":5.37443,"is_reserved":false,"is_disabled":false,"rental_uris":{"android":"levelo://app?vid=aad69708-28ac-43e6-945e-619f5a7c6bfd","ios":"levelo://app?vid=aad69708-28ac-43e6-945e-619f5a7c6bfd"},"vehicle_type_id":"4","last_reported":1728817600,"current_range_meters":33600,"station_id":"","pricing_plan_id":"cebpf4jnsgd1na2vs0mg"},{"bike_id":"97292afb-75f8-4372-8e62-8b346250dfce","system_id":"levelo_inurba_marseille","lat":43.265768,"lon":5.394844,"is_reserved":false,"is_disabled":false,"rental_uris":{"android":"levelo://app?vid=97292afb-75f8-4372-8e62-8b346250dfce","ios":"levelo://app?vid=97292afb-75f8-4372-8e62-8b346250dfce"},"vehicle_type_id":"4","last_reported":1728817600,"current_range_meters":3600,"station_id":"ce4bhk92rcd13ifvqgb0","pricing_plan_id":"cebpf4jnsgd1na2vs0mg"},{"bike_id":"e53a035d-faea-4db0-b754-4b419f7ae012","system_id":"levelo_inurba_marseille","lat":43.27049,"lon":5.40261,"is_reserved":false,"is_disabled":false,"rental_uris":{"android":"levelo://app?vid=e53a035d-faea-4db0-b754-4b419f7ae012","ios":"levelo://app?vid=e53a035d-faea-4db0-b754-4b419f7ae012"},"vehicle_type_id":"4","last_reported":1728817600,"current_range_meters":15200,"station_id":"ce4bhk92rcd13ifvqgc0","pricing_plan_id":"cebpf4jnsgd1na2vs0mg"},{"bike_id":"71cf7286-1207-48ea-9905-84e8b1d59926","system_id":"levelo_inurba_marseille","lat":43.23155,"lon":5.43702,"is_reserved":false,"is_disabled":false,"rental_uris":{"android":"levelo://app?vid=71cf7286-1207-48ea-9905-84e8b1d59926","ios":"levelo://app?vid=71cf7286-1207-48ea-9905-84e8b1d59926"},"vehicle_type_id":"4","last_reported":1728817600,"current_range_meters":32000,"station_id":"ce4bhmp2rcd13ifvqgog","pricing_plan_id":"cebpf4jnsgd1na2vs0mg"},{"bike_id":"73b8eaa2-dcf6-4f77-a983-e1c04e9b935b","system_id":"levelo_inurba_marseille","lat":43.28659,"lon":5.3636,"is_reserved":false,"is_disabled":false,"rental_uris":{"android":"levelo://app?vid=73b8eaa2-dcf6-4f77-a983-e1c04e9b935b","ios":"levelo://app?vid=73b8eaa2-dcf6-4f77-a983-e1c04e9b935b"},"vehicle_type_id":"4","last_reported":1728817600,"current_range_meters":14400,"station_id":"ce4bhah2rcd13ifvqej0","pricing_plan_id":"cebpf4jnsgd1na2vs0mg"},{"bike_id":"08dcee72-42fb-4bea-b663-b225d8d1b4c5","system_id":"levelo_inurba_marseille","lat":43.27829,"lon":5.39201,"is_reserved":false,"is_disabled":false,"rental_uris":{"android":"levelo://app?vid=08dcee72-42fb-4bea-b663-b225d8d1b4c5","ios":"levelo://app?vid=08dcee72-42fb-4bea-b663-b225d8d1b4c5"},"vehicle_type_id":"4","last_reported":1728817600,"current_range_meters":38800,"station_id":"ce4bhjp2rcd13ifvqga0","pricing_plan_id":"cebpf4jnsgd1na2vs0mg"},{"bike_id":"9b63e08c-92a9-474f-94c2-a5402b510f01","system_id":"levelo_inurba_marseille","lat":43.2319,"lon":5.35556,"is_reserved":false,"is_disabled":false,"rental_uris":{"android":"levelo://app?vid=9b63e08c-92a9-474f-94c2-a5402b510f01","ios":"levelo://app?vid=9b63e08c-92a9-474f-94c2-a5402b510f01"},"vehicle_type_id":"4","last_reported":1728817600,"current_range_meters":3600,"station_id":"ce4bhu92rcd13ifvqi70","pricing_plan_id":"cebpf4jnsgd1na2vs0mg"},{"bike_id":"8509fa5d-c6d9-4cb2-b4b1-4f2065b2666e","system_id":"levelo_inurba_marseille","lat":43.28344,"lon":5.41016,"is_reserved":false,"is_disabled":false,"rental_uris":{"android":"levelo://app?vid=8509fa5d-c6d9-4cb2-b4b1-4f2065b2666e","ios":"levelo://app?vid=8509fa5d-c6d9-4cb2-b4b1-4f2065b2666e"},"vehicle_type_id":"4","last_reported":1728817600,"current_range_meters":3600,"station_id":"","pricing_plan_id":"cebpf4jnsgd1na2vs0mg"},{"bike_id":"16a14b49-4758-47c2-8aba-768c60fbef18","system_id":"levelo_inurba_marseille","lat":43.24186,"lon":5.3972,"is_reserved":false,"is_disabled":false,"rental_uris":{"android":"levelo://app?vid=16a14b49-4758-47c2-8aba-768c60fbef18","ios":"levelo://app?vid=16a14b49-4758-47c2-8aba-768c60fbef18"},"vehicle_type_id":"4","last_reported":1728817600,"current_range_meters":28800,"station_id":"ce4bhn12rcd13ifvqgpg","pricing_plan_id":"cebpf4jnsgd1na2vs0mg"},{"bike_id":"e3aa3716-a10d-4f3e-a476-384878a14b23","system_id":"levelo_inurba_marseille","lat":43.30433,"lon":5.38888,"is_reserved":false,"is_disabled":false,"rental_uris":{"android":"levelo://app?vid=e3aa3716-a10d-4f3e-a476-384878a14b23","ios":"levelo://app?vid=e3aa3716-a10d-4f3e-a476-384878a14b23"},"vehicle_type_id":"4","last_reported":1728817600,"current_range_meters":33200,"station_id":"ce4bgk12rcd13ifvqbi0","pricing_plan_id":"cebpf4jnsgd1na2vs0mg"},{"bike_id":"f9deceb6-28a5-4114-9300-91a207614eec","system_id":"levelo_inurba_marseille","lat":43.24662,"lon":5.38167,"is_reserved":false,"is_disabled":false,"rental_uris":{"android":"levelo://app?vid=f9deceb6-28a5-4114-9300-91a207614eec","ios":"levelo://app?vid=f9deceb6-28a5-4114-9300-91a207614eec"},"vehicle_type_id":"4","last_reported":1728817600,"current_range_meters":18800,"station_id":"ce4bhih2rcd13ifvqfr0","pricing_plan_id":"cebpf4jnsgd1na2vs0mg"},{"bike_id":"3add033c-36b0-431c-abe8-7db17eff9b54","system_id":"levelo_inurba_marseille","lat":43.25491,"lon":5.37644,"is_reserved":false,"is_disabled":false,"rental_uris":{"android":"levelo://app?vid=3add033c-36b0-431c-abe8-7db17eff9b54","ios":"levelo://app?vid=3add033c-36b0-431c-abe8-7db17eff9b54"},"vehicle_type_id":"4","last_reported":1728817600,"current_range_meters":36800,"station_id":"ce4bhh12rcd13ifvqff0","pricing_plan_id":"cebpf4jnsgd1na2vs0mg"},{"bike_id":"59ab9f80-ee47-4934-9c6d-860d40c6c71e","system_id":"levelo_inurba_marseille","lat":43.32066,"lon":5.41547,"is_reserved":false,"is_disabled":false,"rental_uris":{"android":"levelo://app?vid=59ab9f80-ee47-4934-9c6d-860d40c6c71e","ios":"levelo://app?vid=59ab9f80-ee47-4934-9c6d-860d40c6c71e"},"vehicle_type_id":"4","last_reported":1728817600,"current_range_meters":9600,"station_id":"ce4bhq92rcd13ifvqhkg","pricing_plan_id":"cebpf4jnsgd1na2vs0mg"},{"bike_id":"152e98bb-1551-4eeb-9e40-8143aa1bccc5","system_id":"levelo_inurba_marseille","lat":43.2706,"lon":5.40264,"is_reserved":false,"is_disabled":false,"rental_uris":{"android":"levelo://app?vid=152e98bb-1551-4eeb-9e40-8143aa1bccc5","ios":"levelo://app?vid=152e98bb-1551-4eeb-9e40-8143aa1bccc5"},"vehicle_type_id":"4","last_reported":1728817600,"current_range_meters":27200,"station_id":"ce4bhk92rcd13ifvqgc0","pricing_plan_id":"cebpf4jnsgd1na2vs0mg"},{"bike_id":"27311a75-ebb6-43d6-9fb5-f3ba72a10e0e","system_id":"levelo_inurba_marseille","lat":43.29908,"lon":5.43663,"is_reserved":false,"is_disabled":false,"rental_uris":{"android":"levelo://app?vid=27311a75-ebb6-43d6-9fb5-f3ba72a10e0e","ios":"levelo://app?vid=27311a75-ebb6-43d6-9fb5-f3ba72a10e0e"},"vehicle_type_id":"4","last_reported":1728817600,"current_range_meters":17600,"station_id":"ce4bhpp2rcd13ifvqhfg","pricing_plan_id":"cebpf4jnsgd1na2vs0mg"},{"bike_id":"a0e83e15-eb74-4615-b9e7-343a62851465","system_id":"levelo_inurba_marseille","lat":43.25117,"lon":5.40315,"is_reserved":false,"is_disabled":false,"rental_uris":{"android":"levelo://app?vid=a0e83e15-eb74-4615-b9e7-343a62851465","ios":"levelo://app?vid=a0e83e15-eb74-4615-b9e7-343a62851465"},"vehicle_type_id":"4","last_reported":1728817600,"current_range_meters":38800,"station_id":"ce4bhlh2rcd13ifvqgig","pricing_plan_id":"cebpf4jnsgd1na2vs0mg"},{"bike_id":"548ece93-b992-4a67-934b-806990f12ec0","system_id":"levelo_inurba_marseille","lat":43.29964,"lon":5.38494,"is_reserved":false,"is_disabled":false,"rental_uris":{"android":"levelo://app?vid=548ece93-b992-4a67-934b-806990f12ec0","ios":"levelo://app?vid=548ece93-b992-4a67-934b-806990f12ec0"},"vehicle_type_id":"4","last_reported":1728817600,"current_range_meters":26800,"station_id":"ce4bgj92rcd13ifvqbd0","pricing_plan_id":"cebpf4jnsgd1na2vs0mg"},{"bike_id":"992944b9-d550-41f2-8b48-4c62892e4026","system_id":"levelo_inurba_marseille","lat":43.29223,"lon":5.36071,"is_reserved":false,"is_disabled":false,"rental_uris":{"android":"levelo://app?vid=992944b9-d550-41f2-8b48-4c62892e4026","ios":"levelo://app?vid=992944b9-d550-41f2-8b48-4c62892e4026"},"vehicle_type_id":"4","last_reported":1728817600,"current_range_meters":38800,"station_id":"ce4bhbh2rcd13ifvqeqg","pricing_plan_id":"cebpf4jnsgd1na2vs0mg"},{"bike_id":"4e28be52-5ccc-4188-b6d4-f6fd8ee4c8c3","system_id":"levelo_inurba_marseille","lat":43.22935,"lon":5.35375,"is_reserved":false,"is_disabled":false,"rental_uris":{"android":"levelo://app?vid=4e28be52-5ccc-4188-b6d4-f6fd8ee4c8c3","ios":"levelo://app?vid=4e28be52-5ccc-4188-b6d4-f6fd8ee4c8c3"},"vehicle_type_id":"4","last_reported":1728817600,"current_range_meters":20800,"station_id":"cpo3532slgdg3j2ikp40","pricing_plan_id":"cebpf4jnsgd1na2vs0mg"},{"bike_id":"eb05ecaa-6a97-434f-9e0e-36d3b3230ae7","system_id":"levelo_inurba_marseille","lat":43.24646,"lon":5.38889,"is_reserved":false,"is_disabled":false,"rental_uris":{"android":"levelo://app?vid=eb05ecaa-6a97-434f-9e0e-36d3b3230ae7","ios":"levelo://app?vid=eb05ecaa-6a97-434f-9e0e-36d3b3230ae7"},"vehicle_type_id":"4","last_reported":1728817600,"current_range_meters":28800,"station_id":"ce4bhg12rcd13ifvqf60","pricing_plan_id":"cebpf4jnsgd1na2vs0mg"},{"bike_id":"be362dab-09bb-4610-a83d-44e44280a165","system_id":"levelo_inurba_marseille","lat":43.23061,"lon":5.35489,"is_reserved":false,"is_disabled":false,"rental_uris":{"android":"levelo://app?vid=be362dab-09bb-4610-a83d-44e44280a165","ios":"levelo://app?vid=be362dab-09bb-4610-a83d-44e44280a165"},"vehicle_type_id":"4","last_reported":1728817600,"current_range_meters":18000,"station_id":"cpo3342slgdg3j2ifvpg","pricing_plan_id":"cebpf4jnsgd1na2vs0mg"},{"bike_id":"e8e67314-6554-4667-8e79-1d379f315bcb","system_id":"levelo_inurba_marseille","lat":43.29265,"lon":5.38442,"is_reserved":false,"is_disabled":false,"rental_uris":{"android":"levelo://app?vid=e8e67314-6554-4667-8e79-1d379f315bcb","ios":"levelo://app?vid=e8e67314-6554-4667-8e79-1d379f315bcb"},"vehicle_type_id":"4","last_reported":1728817600,"current_range_meters":7200,"station_id":"ce4bh692rcd13ifvqea0","pricing_plan_id":"cebpf4jnsgd1na2vs0mg"},{"bike_id":"42e30dff-7037-42ea-bd07-d639bb7cdb2e","system_id":"levelo_inurba_marseille","lat":43.290802,"lon":5.37176,"is_reserved":false,"is_disabled":false,"rental_uris":{"android":"levelo://app?vid=42e30dff-7037-42ea-bd07-d639bb7cdb2e","ios":"levelo://app?vid=42e30dff-7037-42ea-bd07-d639bb7cdb2e"},"vehicle_type_id":"4","last_reported":1728817600,"current_range_meters":34800,"station_id":"ce4bgph2rcd13ifvqc2g","pricing_plan_id":"cebpf4jnsgd1na2vs0mg"},{"bike_id":"c125659c-958d-46e0-903b-368579960dd5","system_id":"levelo_inurba_marseille","lat":43.24389,"lon":5.37052,"is_reserved":false,"is_disabled":false,"rental_uris":{"android":"levelo://app?vid=c125659c-958d-46e0-903b-368579960dd5","ios":"levelo://app?vid=c125659c-958d-46e0-903b-368579960dd5"},"vehicle_type_id":"4","last_reported":1728817600,"current_range_meters":28000,"station_id":"ce4bhhh2rcd13ifvqfk0","pricing_plan_id":"cebpf4jnsgd1na2vs0mg"},{"bike_id":"19c5f0f7-4a1b-494a-a3bd-e614e7434efe","system_id":"levelo_inurba_marseille","lat":43.251032,"lon":5.40324,"is_reserved":false,"is_disabled":false,"rental_uris":{"android":"levelo://app?vid=19c5f0f7-4a1b-494a-a3bd-e614e7434efe","ios":"levelo://app?vid=19c5f0f7-4a1b-494a-a3bd-e614e7434efe"},"vehicle_type_id":"4","last_reported":1728817600,"current_range_meters":24800,"station_id":"ce4bhlh2rcd13ifvqgig","pricing_plan_id":"cebpf4jnsgd1na2vs0mg"},{"bike_id":"51397a06-4aa6-4537-8b53-47367b527c2d","system_id":"levelo_inurba_marseille","lat":43.27816,"lon":5.40716,"is_reserved":false,"is_disabled":false,"rental_uris":{"android":"levelo://app?vid=51397a06-4aa6-4537-8b53-47367b527c2d","ios":"levelo://app?vid=51397a06-4aa6-4537-8b53-47367b527c2d"},"vehicle_type_id":"4","last_reported":1728817600,"current_range_meters":37600,"station_id":"ce4bhnh2rcd13ifvqgtg","pricing_plan_id":"cebpf4jnsgd1na2vs0mg"},{"bike_id":"3caf68e8-3d29-4273-afe3-ba07e63f6407","system_id":"levelo_inurba_marseille","lat":43.23053,"lon":5.35492,"is_reserved":false,"is_disabled":false,"rental_uris":{"android":"levelo://app?vid=3caf68e8-3d29-4273-afe3-ba07e63f6407","ios":"levelo://app?vid=3caf68e8-3d29-4273-afe3-ba07e63f6407"},"vehicle_type_id":"4","last_reported":1728817600,"current_range_meters":7200,"station_id":"cpo3342slgdg3j2ifvpg","pricing_plan_id":"cebpf4jnsgd1na2vs0mg"},{"bike_id":"5a87e280-d6b8-4d4d-92d3-a2c3a72ef59b","system_id":"levelo_inurba_marseille","lat":43.3415,"lon":5.40898,"is_reserved":false,"is_disabled":false,"rental_uris":{"android":"levelo://app?vid=5a87e280-d6b8-4d4d-92d3-a2c3a72ef59b","ios":"levelo://app?vid=5a87e280-d6b8-4d4d-92d3-a2c3a72ef59b"},"vehicle_type_id":"4","last_reported":1728817600,"current_range_meters":29600,"station_id":"ce4bhqh2rcd13ifvqhlg","pricing_plan_id":"cebpf4jnsgd1na2vs0mg"},{"bike_id":"960b21e2-de7d-440b-8ba3-c7afa00f554e","system_id":"levelo_inurba_marseille","lat":43.29286,"lon":5.36849,"is_reserved":false,"is_disabled":false,"rental_uris":{"android":"levelo://app?vid=960b21e2-de7d-440b-8ba3-c7afa00f554e","ios":"levelo://app?vid=960b21e2-de7d-440b-8ba3-c7afa00f554e"},"vehicle_type_id":"4","last_reported":1728817600,"current_range_meters":23200,"station_id":"ce4bhbp2rcd13ifvqesg","pricing_plan_id":"cebpf4jnsgd1na2vs0mg"},{"bike_id":"c5a187db-e278-4e0a-b184-28c59c5e6a1a","system_id":"levelo_inurba_marseille","lat":43.32542,"lon":5.41442,"is_reserved":false,"is_disabled":false,"rental_uris":{"android":"levelo://app?vid=c5a187db-e278-4e0a-b184-28c59c5e6a1a","ios":"levelo://app?vid=c5a187db-e278-4e0a-b184-28c59c5e6a1a"},"vehicle_type_id":"4","last_reported":1728817600,"current_range_meters":37600,"station_id":"ce4bhq12rcd13ifvqhhg","pricing_plan_id":"cebpf4jnsgd1na2vs0mg"},{"bike_id":"cba59919-95e6-42ff-83c9-6bcf45674d60","system_id":"levelo_inurba_marseille","lat":43.32288,"lon":5.38267,"is_reserved":false,"is_disabled":false,"rental_uris":{"android":"levelo://app?vid=cba59919-95e6-42ff-83c9-6bcf45674d60","ios":"levelo://app?vid=cba59919-95e6-42ff-83c9-6bcf45674d60"},"vehicle_type_id":"4","last_reported":1728817600,"current_range_meters":38800,"station_id":"ce4bhr12rcd13ifvqhqg","pricing_plan_id":"cebpf4jnsgd1na2vs0mg"},{"bike_id":"2fad698d-3496-49f2-a113-fe3d80ccd98a","system_id":"levelo_inurba_marseille","lat":43.30164,"lon":5.38074,"is_reserved":false,"is_disabled":false,"rental_uris":{"android":"levelo://app?vid=2fad698d-3496-49f2-a113-fe3d80ccd98a","ios":"levelo://app?vid=2fad698d-3496-49f2-a113-fe3d80ccd98a"},"vehicle_type_id":"4","last_reported":1728817600,"current_range_meters":38800,"station_id":"ce4bgjp2rcd13ifvqbh0","pricing_plan_id":"cebpf4jnsgd1na2vs0mg"},{"bike_id":"ba65d7da-3cfa-46ef-8ad4-b869441c6f75","system_id":"levelo_inurba_marseille","lat":43.26942,"lon":5.4025,"is_reserved":false,"is_disabled":false,"rental_uris":{"android":"levelo://app?vid=ba65d7da-3cfa-46ef-8ad4-b869441c6f75","ios":"levelo://app?vid=ba65d7da-3cfa-46ef-8ad4-b869441c6f75"},"vehicle_type_id":"4","last_reported":1728817600,"current_range_meters":8800,"station_id":"cjm6bp8fraef2m0cb0m0","pricing_plan_id":"cebpf4jnsgd1na2vs0mg"},{"bike_id":"610bfb8b-3e91-4e90-b1f9-7f3d953e2cb4","system_id":"levelo_inurba_marseille","lat":43.24393,"lon":5.37066,"is_reserved":false,"is_disabled":false,"rental_uris":{"android":"levelo://app?vid=610bfb8b-3e91-4e90-b1f9-7f3d953e2cb4","ios":"levelo://app?vid=610bfb8b-3e91-4e90-b1f9-7f3d953e2cb4"},"vehicle_type_id":"4","last_reported":1728817600,"current_range_meters":22400,"station_id":"ce4bhhh2rcd13ifvqfk0","pricing_plan_id":"cebpf4jnsgd1na2vs0mg"},{"bike_id":"42006aa6-7aec-4704-bb84-014f53bba7f6","system_id":"levelo_inurba_marseille","lat":43.33026,"lon":5.39038,"is_reserved":false,"is_disabled":false,"rental_uris":{"android":"levelo://app?vid=42006aa6-7aec-4704-bb84-014f53bba7f6","ios":"levelo://app?vid=42006aa6-7aec-4704-bb84-014f53bba7f6"},"vehicle_type_id":"4","last_reported":1728817600,"current_range_meters":30000,"station_id":"ce4bhr92rcd13ifvqhrg","pricing_plan_id":"cebpf4jnsgd1na2vs0mg"},{"bike_id":"647bac96-d218-47f5-8924-439a651635df","system_id":"levelo_inurba_marseille","lat":43.26487,"lon":5.39548,"is_reserved":false,"is_disabled":false,"rental_uris":{"android":"levelo://app?vid=647bac96-d218-47f5-8924-439a651635df","ios":"levelo://app?vid=647bac96-d218-47f5-8924-439a651635df"},"vehicle_type_id":"4","last_reported":1728817600,"current_range_meters":3600,"station_id":"ce4bhi12rcd13ifvqfq0","pricing_plan_id":"cebpf4jnsgd1na2vs0mg"},{"bike_id":"b0685f0b-a65d-412f-9834-673d98a45357","system_id":"levelo_inurba_marseille","lat":43.23195,"lon":5.35544,"is_reserved":false,"is_disabled":false,"rental_uris":{"android":"levelo://app?vid=b0685f0b-a65d-412f-9834-673d98a45357","ios":"levelo://app?vid=b0685f0b-a65d-412f-9834-673d98a45357"},"vehicle_type_id":"4","last_reported":1728817600,"current_range_meters":16400,"station_id":"ce4bhu92rcd13ifvqi70","pricing_plan_id":"cebpf4jnsgd1na2vs0mg"},{"bike_id":"de511b08-20cb-4c36-bbd7-f8a8394049a3","system_id":"levelo_inurba_marseille","lat":43.29897,"lon":5.4366,"is_reserved":false,"is_disabled":false,"rental_uris":{"android":"levelo://app?vid=de511b08-20cb-4c36-bbd7-f8a8394049a3","ios":"levelo://app?vid=de511b08-20cb-4c36-bbd7-f8a8394049a3"},"vehicle_type_id":"4","last_reported":1728817600,"current_range_meters":18000,"station_id":"ce4bhpp2rcd13ifvqhfg","pricing_plan_id":"cebpf4jnsgd1na2vs0mg"},{"bike_id":"f71a0b8b-26c6-4269-91c9-34f818f4738d","system_id":"levelo_inurba_marseille","lat":43.25005,"lon":5.38938,"is_reserved":false,"is_disabled":false,"rental_uris":{"android":"levelo://app?vid=f71a0b8b-26c6-4269-91c9-34f818f4738d","ios":"levelo://app?vid=f71a0b8b-26c6-4269-91c9-34f818f4738d"},"vehicle_type_id":"4","last_reported":1728817600,"current_range_meters":19600,"station_id":"ce4bhgp2rcd13ifvqfd0","pricing_plan_id":"cebpf4jnsgd1na2vs0mg"},{"bike_id":"7edd2459-5e51-495d-b56b-6c5f0eb2214d","system_id":"levelo_inurba_marseille","lat":43.295898,"lon":5.380909,"is_reserved":false,"is_disabled":false,"rental_uris":{"android":"levelo://app?vid=7edd2459-5e51-495d-b56b-6c5f0eb2214d","ios":"levelo://app?vid=7edd2459-5e51-495d-b56b-6c5f0eb2214d"},"vehicle_type_id":"4","last_reported":1728817600,"current_range_meters":23200,"station_id":"ce4bh0p2rcd13ifvqd80","pricing_plan_id":"cebpf4jnsgd1na2vs0mg"},{"bike_id":"1ae36fd0-99ad-4e19-806f-4defcbb6689a","system_id":"levelo_inurba_marseille","lat":43.29224,"lon":5.36066,"is_reserved":false,"is_disabled":false,"rental_uris":{"android":"levelo://app?vid=1ae36fd0-99ad-4e19-806f-4defcbb6689a","ios":"levelo://app?vid=1ae36fd0-99ad-4e19-806f-4defcbb6689a"},"vehicle_type_id":"4","last_reported":1728817600,"current_range_meters":33600,"station_id":"ce4bhbh2rcd13ifvqeqg","pricing_plan_id":"cebpf4jnsgd1na2vs0mg"},{"bike_id":"462a3896-9d65-4e0e-98f4-e59d9ad14514","system_id":"levelo_inurba_marseille","lat":43.27058,"lon":5.40266,"is_reserved":false,"is_disabled":false,"rental_uris":{"android":"levelo://app?vid=462a3896-9d65-4e0e-98f4-e59d9ad14514","ios":"levelo://app?vid=462a3896-9d65-4e0e-98f4-e59d9ad14514"},"vehicle_type_id":"4","last_reported":1728817600,"current_range_meters":36800,"station_id":"ce4bhk92rcd13ifvqgc0","pricing_plan_id":"cebpf4jnsgd1na2vs0mg"},{"bike_id":"8eb5e8c7-5ba5-4d04-9248-917b20970616","system_id":"levelo_inurba_marseille","lat":43.24171,"lon":5.36401,"is_reserved":false,"is_disabled":false,"rental_uris":{"android":"levelo://app?vid=8eb5e8c7-5ba5-4d04-9248-917b20970616","ios":"levelo://app?vid=8eb5e8c7-5ba5-4d04-9248-917b20970616"},"vehicle_type_id":"4","last_reported":1728817600,"current_range_meters":34000,"station_id":"cpo36qri1sfpv3e86is0","pricing_plan_id":"cebpf4jnsgd1na2vs0mg"},{"bike_id":"ffe18575-c5a7-4518-9b5f-80196caff6bc","system_id":"levelo_inurba_marseille","lat":43.29908,"lon":5.38136,"is_reserved":false,"is_disabled":false,"rental_uris":{"android":"levelo://app?vid=ffe18575-c5a7-4518-9b5f-80196caff6bc","ios":"levelo://app?vid=ffe18575-c5a7-4518-9b5f-80196caff6bc"},"vehicle_type_id":"4","last_reported":1728817600,"current_range_meters":30800,"station_id":"ce4bgj12rcd13ifvqbc0","pricing_plan_id":"cebpf4jnsgd1na2vs0mg"},{"bike_id":"adf7f252-dbc1-459a-8043-ad1f1eca0157","system_id":"levelo_inurba_marseille","lat":43.33723,"lon":5.39177,"is_reserved":false,"is_disabled":false,"rental_uris":{"android":"levelo://app?vid=adf7f252-dbc1-459a-8043-ad1f1eca0157","ios":"levelo://app?vid=adf7f252-dbc1-459a-8043-ad1f1eca0157"},"vehicle_type_id":"4","last_reported":1728817600,"current_range_meters":34800,"station_id":"ce4bhr92rcd13ifvqhsg","pricing_plan_id":"cebpf4jnsgd1na2vs0mg"},{"bike_id":"b7445c84-e5bc-445c-88c7-5391b8967656","system_id":"levelo_inurba_marseille","lat":43.2587,"lon":5.39896,"is_reserved":false,"is_disabled":false,"rental_uris":{"android":"levelo://app?vid=b7445c84-e5bc-445c-88c7-5391b8967656","ios":"levelo://app?vid=b7445c84-e5bc-445c-88c7-5391b8967656"},"vehicle_type_id":"4","last_reported":1728817600,"current_range_meters":38800,"station_id":"ce4bhl92rcd13ifvqghg","pricing_plan_id":"cebpf4jnsgd1na2vs0mg"},{"bike_id":"0b4afb29-37be-41d6-88fa-21e23bce8b94","system_id":"levelo_inurba_marseille","lat":43.24167,"lon":5.36405,"is_reserved":false,"is_disabled":false,"rental_uris":{"android":"levelo://app?vid=0b4afb29-37be-41d6-88fa-21e23bce8b94","ios":"levelo://app?vid=0b4afb29-37be-41d6-88fa-21e23bce8b94"},"vehicle_type_id":"4","last_reported":1728817600,"current_range_meters":12000,"station_id":"cpo36qri1sfpv3e86is0","pricing_plan_id":"cebpf4jnsgd1na2vs0mg"},{"bike_id":"7368293e-5deb-41c7-9a13-c579bb677748","system_id":"levelo_inurba_marseille","lat":43.2828,"lon":5.35072,"is_reserved":false,"is_disabled":false,"rental_uris":{"android":"levelo://app?vid=7368293e-5deb-41c7-9a13-c579bb677748","ios":"levelo://app?vid=7368293e-5deb-41c7-9a13-c579bb677748"},"vehicle_type_id":"4","last_reported":1728817600,"current_range_meters":30400,"station_id":"ce4bhbp2rcd13ifvqerg","pricing_plan_id":"cebpf4jnsgd1na2vs0mg"},{"bike_id":"550b297d-613f-4e87-abf0-f9df85d74e69","system_id":"levelo_inurba_marseille","lat":43.2903,"lon":5.38635,"is_reserved":false,"is_disabled":false,"rental_uris":{"android":"levelo://app?vid=550b297d-613f-4e87-abf0-f9df85d74e69","ios":"levelo://app?vid=550b297d-613f-4e87-abf0-f9df85d74e69"},"vehicle_type_id":"4","last_reported":1728817600,"current_range_meters":28400,"station_id":"ce4bh4p2rcd13ifvqe0g","pricing_plan_id":"cebpf4jnsgd1na2vs0mg"},{"bike_id":"e12cfa40-a007-4b37-a4ab-ca80d746c598","system_id":"levelo_inurba_marseille","lat":43.26777,"lon":5.39423,"is_reserved":false,"is_disabled":false,"rental_uris":{"android":"levelo://app?vid=e12cfa40-a007-4b37-a4ab-ca80d746c598","ios":"levelo://app?vid=e12cfa40-a007-4b37-a4ab-ca80d746c598"},"vehicle_type_id":"4","last_reported":1728817600,"current_range_meters":38800,"station_id":"ce4bhh12rcd13ifvqfg0","pricing_plan_id":"cebpf4jnsgd1na2vs0mg"},