{"last_updated":1740672764,"ttl":60,"version":"2.2","data":{"bikes":[{"bike_id":"b3e5945d-06c2-4d85-a121-3567f32a3b42","system_id":"levelo_inurba_marseille","lat":43.29201,"lon":5.357926,"is_reserved":false,"is_disabled":false,"rental_uris":{"android":"levelo://app?vid=b3e5945d-06c2-4d85-a121-3567f32a3b42","ios":"levelo://app?vid=b3e5945d-06c2-4d85-a121-3567f32a3b42"},"vehicle_type_id":"4","last_reported":1740672764,"current_range_meters":2800,"station_id":"ce4bh9p2rcd13ifvqec0","pricing_plan_id":"cebpf4jnsgd1na2vs0mg"},{"bike_id":"90ee3222-d5ed-4386-a184-6a76944b1f49","system_id":"levelo_inurba_marseille","lat":43.24176,"lon":5.39708,"is_reserved":false,"is_disabled":false,"rental_uris":{"android":"levelo://app?vid=90ee3222-d5ed-4386-a184-6a76944b1f49","ios":"levelo://app?vid=90ee3222-d5ed-4386-a184-6a76944b1f49"},"vehicle_type_id":"4","last_reported":1740672764,"current_range_meters":3200,"station_id":"ce4bhn12rcd13ifvqgpg","pricing_plan_id":"cebpf4jnsgd1na2vs0mg"},{"bike_id":"b5368874-e19e-4e33-8e44-b3ac25e43af6","system_id":"levelo_inurba_marseille","lat":43.31314,"lon":5.37082,"is_reserved":false,"is_disabled":false,"rental_uris":{"android":"levelo://app?vid=b5368874-e19e-4e33-8e44-b3ac25e43af6","ios":"levelo://app?vid=b5368874-e19e-4e33-8e44-b3ac25e43af6"},"vehicle_type_id":"4","last_reported":1740672764,"current_range_meters":3200,"station_id":"","pricing_plan_id":"cebpf4jnsgd1na2vs0mg"},{"bike_id":"10d00703-8272-4375-85e3-a2b8a51bc69b","system_id":"levelo_inurba_marseille","lat":43.30263,"lon":5.39402,"is_reserved":false,"is_disabled":false,"rental_uris":{"android":"levelo://app?vid=10d00703-8272-4375-85e3-a2b8a51bc69b","ios":"levelo://app?vid=10d00703-8272-4375-85e3-a2b8a51bc69b"},"vehicle_type_id":"4","last_reported":1740672764,"current_range_meters":1600,"station_id":"","pricing_plan_id":"cebpf4jnsgd1na2vs0mg"},{"bike_id":"0500f48a-7d69-4fdc-a52a-018bd3852b70","system_id":"levelo_inurba_marseille","lat":43.28458,"lon":5.35883,"is_reserved":false,"is_disabled":false,"rental_uris":{"android":"levelo://app?vid=0500f48a-7d69-4fdc-a52a-018bd3852b70","ios":"levelo://app?vid=0500f48a-7d69-4fdc-a52a-018bd3852b70"},"vehicle_type_id":"4","last_reported":1740672764,"current_range_meters":3200,"station_id":"ce4bhah2rcd13ifvqei0","pricing_plan_id":"cebpf4jnsgd1na2vs0mg"},{"bike_id":"c01e38fb-356e-44ab-8ea6-74e446ca29e4","system_id":"levelo_inurba_marseille","lat":43.27938,"lon":5.41043,"is_reserved":false,"is_disabled":false,"rental_uris":{"android":"levelo://app?vid=c01e38fb-356e-44ab-8ea6-74e446ca29e4","ios":"levelo://app?vid=c01e38fb-356e-44ab-8ea6-74e446ca29e4"},"vehicle_type_id":"4","last_reported":1740672764,"current_range_meters":3600,"station_id":"ce4bhnp2rcd13ifvqh0g","pricing_plan_id":"cebpf4jnsgd1na2vs0mg"},{"bike_id":"7b067921-4258-45d6-95f7-8efb5f482fb9","system_id":"levelo_inurba_marseille","lat":43.25821,"lon":5.39441,"is_reserved":false,"is_disabled":false,"rental_uris":{"android":"levelo://app?vid=7b067921-4258-45d6-95f7-8efb5f482fb9","ios":"levelo://app?vid=7b067921-4258-45d6-95f7-8efb5f482fb9"},"vehicle_type_id":"4","last_reported":1740672764,"current_range_meters":4000,"station_id":"ce4bhip2rcd13ifvqft0","pricing_plan_id":"cebpf4jnsgd1na2vs0mg"},{"bike_id":"c373d756-42c2-4f4a-8b69-7a4261595445","system_id":"levelo_inurba_marseille","lat":43.30608,"lon":5.37234,"is_reserved":false,"is_disabled":false,"rental_uris":{"android":"levelo://app?vid=c373d756-42c2-4f4a-8b69-7a4261595445","ios":"levelo://app?vid=c373d756-42c2-4f4a-8b69-7a4261595445"},"vehicle_type_id":"4","last_reported":1740672764,"current_range_meters":4000,"station_id":"ce4bgqh2rcd13ifvqc4g","pricing_plan_id":"cebpf4jnsgd1na2vs0mg"},{"bike_id":"c2f4fad4-bac6-4a10-896e-2464f8ea6020","system_id":"levelo_inurba_marseille","lat":43.29026,"lon":5.38643,"is_reserved":false,"is_disabled":false,"rental_uris":{"android":"levelo://app?vid=c2f4fad4-bac6-4a10-896e-2464f8ea6020","ios":"levelo://app?vid=c2f4fad4-bac6-4a10-896e-2464f8ea6020"},"vehicle_type_id":"4","last_reported":1740672764,"current_range_meters":3600,"station_id":"ce4bh4p2rcd13ifvqe0g","pricing_plan_id":"cebpf4jnsgd1na2vs0mg"},{"bike_id":"54c31ebb-3951-40cd-a63d-6a7618eddad9","system_id":"levelo_inurba_marseille","lat":43.26062,"lon":5.39383,"is_reserved":false,"is_disabled":false,"rental_uris":{"android":"levelo://app?vid=54c31ebb-3951-40cd-a63d-6a7618eddad9","ios":"levelo://app?vid=54c31ebb-3951-40cd-a63d-6a7618eddad9"},"vehicle_type_id":"4","last_reported":1740672764,"current_range_meters":4000,"station_id":"ce4bhh92rcd13ifvqfj0","pricing_plan_id":"cebpf4jnsgd1na2vs0mg"},{"bike_id":"7e4bed0b-8740-4590-beec-ad7e19dc893a","system_id":"levelo_inurba_marseille","lat":43.28455,"lon":5.358813,"is_reserved":false,"is_disabled":false,"rental_uris":{"android":"levelo://app?vid=7e4bed0b-8740-4590-beec-ad7e19dc893a","ios":"levelo://app?vid=7e4bed0b-8740-4590-beec-ad7e19dc893a"},"vehicle_type_id":"4","last_reported":1740672764,"current_range_meters":4000,"station_id":"ce4bhah2rcd13ifvqei0","pricing_plan_id":"cebpf4jnsgd1na2vs0mg"},{"bike_id":"e4e7d22b-f8a1-4857-8d96-bad1307ff50d","system_id":"levelo_inurba_marseille","lat":43.33015,"lon":5.3905,"is_reserved":false,"is_disabled":false,"rental_uris":{"android":"levelo://app?vid=e4e7d22b-f8a1-4857-8d96-bad1307ff50d","ios":"levelo://app?vid=e4e7d22b-f8a1-4857-8d96-bad1307ff50d"},"vehicle_type_id":"4","last_reported":1740672764,"current_range_meters":6000,"station_id":"ce4bhr92rcd13ifvqhrg","pricing_plan_id":"cebpf4jnsgd1na2vs0mg"},{"bike_id":"33a17f3e-3a04-4c14-a79c-88d030811c6a","system_id":"levelo_inurba_marseille","lat":43.29073,"lon":5.3718,"is_reserved":false,"is_disabled":false,"rental_uris":{"android":"levelo://app?vid=33a17f3e-3a04-4c14-a79c-88d030811c6a","ios":"levelo://app?vid=33a17f3e-3a04-4c14-a79c-88d030811c6a"},"vehicle_type_id":"4","last_reported":1740672764,"current_range_meters":3600,"station_id":"ce4bh5p2rcd13ifvqe4g","pricing_plan_id":"cebpf4jnsgd1na2vs0mg"},{"bike_id":"2cf540bb-8f88-4901-afe8-0f3af0e32e50","system_id":"levelo_inurba_marseille","lat":43.28368,"lon":5.38637,"is_reserved":false,"is_disabled":false,"rental_uris":{"android":"levelo://app?vid=2cf540bb-8f88-4901-afe8-0f3af0e32e50","ios":"levelo://app?vid=2cf540bb-8f88-4901-afe8-0f3af0e32e50"},"vehicle_type_id":"4","last_reported":1740672764,"current_range_meters":4400,"station_id":"ce4bh492rcd13ifvqdvg","pricing_plan_id":"cebpf4jnsgd1na2vs0mg"},{"bike_id":"dd204952-a29a-403d-b2be-ae52722814ec","system_id":"levelo_inurba_marseille","lat":43.28466,"lon":5.35895,"is_reserved":false,"is_disabled":false,"rental_uris":{"android":"levelo://app?vid=dd204952-a29a-403d-b2be-ae52722814ec","ios":"levelo://app?vid=dd204952-a29a-403d-b2be-ae52722814ec"},"vehicle_type_id":"4","last_reported":1740672764,"current_range_meters":4400,"station_id":"ce4bhah2rcd13ifvqei0","pricing_plan_id":"cebpf4jnsgd1na2vs0mg"},{"bike_id":"b6a7336f-cc96-4275-9afd-007243be5dca","system_id":"levelo_inurba_marseille","lat":43.28568,"lon":5.39492,"is_reserved":false,"is_disabled":false,"rental_uris":{"android":"levelo://app?vid=b6a7336f-cc96-4275-9afd-007243be5dca","ios":"levelo://app?vid=b6a7336f-cc96-4275-9afd-007243be5dca"},"vehicle_type_id":"4","last_reported":1740672764,"current_range_meters":3200,"station_id":"ce4bh292rcd13ifvqdg0","pricing_plan_id":"cebpf4jnsgd1na2vs0mg"},{"bike_id":"c9a04cba-80d8-4402-ae88-01de21397ee8","system_id":"levelo_inurba_marseille","lat":43.27966,"lon":5.41626,"is_reserved":false,"is_disabled":false,"rental_uris":{"android":"levelo://app?vid=c9a04cba-80d8-4402-ae88-01de21397ee8","ios":"levelo://app?vid=c9a04cba-80d8-4402-ae88-01de21397ee8"},"vehicle_type_id":"4","last_reported":1740672764,"current_range_meters":4400,"station_id":"ce4bho12rcd13ifvqh1g","pricing_plan_id":"cebpf4jnsgd1na2vs0mg"},{"bike_id":"60bd98b9-162e-4101-80e4-14ffcd5b022d","system_id":"levelo_inurba_marseille","lat":43.30303,"lon":5.36876,"is_reserved":false,"is_disabled":false,"rental_uris":{"android":"levelo://app?vid=60bd98b9-162e-4101-80e4-14ffcd5b022d","ios":"levelo://app?vid=60bd98b9-162e-4101-80e4-14ffcd5b022d"},"vehicle_type_id":"4","last_reported":1740672764,"current_range_meters":4400,"station_id":"ce4bgqh2rcd13ifvqc5g","pricing_plan_id":"cebpf4jnsgd1na2vs0mg"},{"bike_id":"c76038e7-2eb4-479f-a47d-c7b0103eddda","system_id":"levelo_inurba_marseille","lat":43.286982,"lon":5.373883,"is_reserved":false,"is_disabled":false,"rental_uris":{"android":"levelo://app?vid=c76038e7-2eb4-479f-a47d-c7b0103eddda","ios":"levelo://app?vid=c76038e7-2eb4-479f-a47d-c7b0103eddda"},"vehicle_type_id":"4","last_reported":1740672764,"current_range_meters":4400,"station_id":"ce4bh3p2rcd13ifvqdq0","pricing_plan_id":"cebpf4jnsgd1na2vs0mg"},{"bike_id":"15946abd-bf80-4efc-8c53-8ffa9f3253ce","system_id":"levelo_inurba_marseille","lat":43.28683,"lon":5.38664,"is_reserved":false,"is_disabled":false,"rental_uris":{"android":"levelo://app?vid=15946abd-bf80-4efc-8c53-8ffa9f3253ce","ios":"levelo://app?vid=15946abd-bf80-4efc-8c53-8ffa9f3253ce"},"vehicle_type_id":"4","last_reported":1740672764,"current_range_meters":4800,"station_id":"ce4bh492rcd13ifvqdug","pricing_plan_id":"cebpf4jnsgd1na2vs0mg"},{"bike_id":"9c551860-8edd-442c-83bb-3ae954f80aaf","system_id":"levelo_inurba_marseille","lat":43.28418,"lon":5.34986,"is_reserved":false,"is_disabled":false,"rental_uris":{"android":"levelo://app?vid=9c551860-8edd-442c-83bb-3ae954f80aaf","ios":"levelo://app?vid=9c551860-8edd-442c-83bb-3ae954f80aaf"},"vehicle_type_id":"4","last_reported":1740672764,"current_range_meters":4800,"station_id":"ce4bhbh2rcd13ifvqepg","pricing_plan_id":"cebpf4jnsgd1na2vs0mg"},{"bike_id":"a2c85ab7-1e06-4246-89e2-5126635f3241","system_id":"levelo_inurba_marseille","lat":43.25583,"lon":5.38235,"is_reserved":false,"is_disabled":false,"rental_uris":{"android":"levelo://app?vid=a2c85ab7-1e06-4246-89e2-5126635f3241","ios":"levelo://app?vid=a2c85ab7-1e06-4246-89e2-5126635f3241"},"vehicle_type_id":"4","last_reported":1740672764,"current_range_meters":4800,"station_id":"ce4bhih2rcd13ifvqfs0","pricing_plan_id":"cebpf4jnsgd1na2vs0mg"},{"bike_id":"ac18968f-dd87-40e3-96c0-70db05ce8a3d","system_id":"levelo_inurba_marseille","lat":43.30309,"lon":5.36878,"is_reserved":false,"is_disabled":false,"rental_uris":{"android":"levelo://app?vid=ac18968f-dd87-40e3-96c0-70db05ce8a3d","ios":"levelo://app?vid=ac18968f-dd87-40e3-96c0-70db05ce8a3d"},"vehicle_type_id":"4","last_reported":1740672764,"current_range_meters":4800,"station_id":"ce4bgqh2rcd13ifvqc5g","pricing_plan_id":"cebpf4jnsgd1na2vs0mg"},{"bike_id":"a34c93b5-e011-4dc7-99ff-8244a905d1ef","system_id":"levelo_inurba_marseille","lat":43.29265,"lon":5.38448,"is_reserved":false,"is_disabled":false,"rental_uris":{"android":"levelo://app?vid=a34c93b5-e011-4dc7-99ff-8244a905d1ef","ios":"levelo://app?vid=a34c93b5-e011-4dc7-99ff-8244a905d1ef"},"vehicle_type_id":"4","last_reported":1740672764,"current_range_meters":5600,"station_id":"ce4bh692rcd13ifvqea0","pricing_plan_id":"cebpf4jnsgd1na2vs0mg"},{"bike_id":"8053a0c8-714f-416c-9b7b-084cbd4af263","system_id":"levelo_inurba_marseille","lat":43.30125,"lon":5.39826,"is_reserved":false,"is_disabled":false,"rental_uris":{"android":"levelo://app?vid=8053a0c8-714f-416c-9b7b-084cbd4af263","ios":"levelo://app?vid=8053a0c8-714f-416c-9b7b-084cbd4af263"},"vehicle_type_id":"4","last_reported":1740672764,"current_range_meters":2800,"station_id":"ce4bh0h2rcd13ifvqd40","pricing_plan_id":"cebpf4jnsgd1na2vs0mg"},{"bike_id":"092b0d68-169c-490d-badc-b4ee337f9380","system_id":"levelo_inurba_marseille","lat":43.29188,"lon":5.39309,"is_reserved":false,"is_disabled":false,"rental_uris":{"android":"levelo://app?vid=092b0d68-169c-490d-badc-b4ee337f9380","ios":"levelo://app?vid=092b0d68-169c-490d-badc-b4ee337f9380"},"vehicle_type_id":"4","last_reported":1740672764,"current_range_meters":6000,"station_id":"ce4bh192rcd13ifvqdd0","pricing_plan_id":"cebpf4jnsgd1na2vs0mg"},{"bike_id":"cede3cd9-b287-4e84-a051-2feb15a3c91a","system_id":"levelo_inurba_marseille","lat":43.3042,"lon":5.41283,"is_reserved":false,"is_disabled":false,"rental_uris":{"android":"levelo://app?vid=cede3cd9-b287-4e84-a051-2feb15a3c91a","ios":"levelo://app?vid=cede3cd9-b287-4e84-a051-2feb15a3c91a"},"vehicle_type_id":"4","last_reported":1740672764,"current_range_meters":6000,"station_id":"ce4bhop2rcd13ifvqh8g","pricing_plan_id":"cebpf4jnsgd1na2vs0mg"},{"bike_id":"66261a81-f859-4dee-b45c-4f7b9bc8eab5","system_id":"levelo_inurba_marseille","lat":43.27842,"lon":5.39211,"is_reserved":false,"is_disabled":false,"rental_uris":{"android":"levelo://app?vid=66261a81-f859-4dee-b45c-4f7b9bc8eab5","ios":"levelo://app?vid=66261a81-f859-4dee-b45c-4f7b9bc8eab5"},"vehicle_type_id":"4","last_reported":1740672764,"current_range_meters":6000,"station_id":"ce4bhjp2rcd13ifvqga0","pricing_plan_id":"cebpf4jnsgd1na2vs0mg"},{"bike_id":"1d78a876-5b71-4ce9-8831-8d730335be9f","system_id":"levelo_inurba_marseille","lat":43.2731,"lon":5.39077,"is_reserved":false,"is_disabled":false,"rental_uris":{"android":"levelo://app?vid=1d78a876-5b71-4ce9-8831-8d730335be9f","ios":"levelo://app?vid=1d78a876-5b71-4ce9-8831-8d730335be9f"},"vehicle_type_id":"4","last_reported":1740672764,"current_range_meters":6000,"station_id":"ce4bhgp2rcd13ifvqfe0","pricing_plan_id":"cebpf4jnsgd1na2vs0mg"},{"bike_id":"c6cb7573-2753-4147-8f1a-c552c41c610f","system_id":"levelo_inurba_marseille","lat":43.26785,"lon":5.39415,"is_reserved":false,"is_disabled":true,"rental_uris":{"android":"levelo://app?vid=c6cb7573-2753-4147-8f1a-c552c41c610f","ios":"levelo://app?vid=c6cb7573-2753-4147-8f1a-c552c41c610f"},"vehicle_type_id":"4","last_reported":1740672764,"current_range_meters":6800,"station_id":"ce4bhh12rcd13ifvqfg0","pricing_plan_id":"cebpf4jnsgd1na2vs0mg"},{"bike_id":"e3c15cd4-9fdc-4708-b345-8bff02fd5763","system_id":"levelo_inurba_marseille","lat":43.28421,"lon":5.34988,"is_reserved":false,"is_disabled":false,"rental_uris":{"android":"levelo://app?vid=e3c15cd4-9fdc-4708-b345-8bff02fd5763","ios":"levelo://app?vid=e3c15cd4-9fdc-4708-b345-8bff02fd5763"},"vehicle_type_id":"4","last_reported":1740672764,"current_range_meters":6400,"station_id":"ce4bhbh2rcd13ifvqepg","pricing_plan_id":"cebpf4jnsgd1na2vs0mg"},{"bike_id":"973b1edd-75cd-4272-ab28-7c1482b254bb","system_id":"levelo_inurba_marseille","lat":43.26202,"lon":5.37927,"is_reserved":false,"is_disabled":false,"rental_uris":{"android":"levelo://app?vid=973b1edd-75cd-4272-ab28-7c1482b254bb","ios":"levelo://app?vid=973b1edd-75cd-4272-ab28-7c1482b254bb"},"vehicle_type_id":"4","last_reported":1740672764,"current_range_meters":6400,"station_id":"ce4bhjp2rcd13ifvqg90","pricing_plan_id":"cebpf4jnsgd1na2vs0mg"},{"bike_id":"698e8821-6db4-4b0a-a0fc-81441643da35","system_id":"levelo_inurba_marseille","lat":43.29272,"lon":5.38454,"is_reserved":false,"is_disabled":false,"rental_uris":{"android":"levelo://app?vid=698e8821-6db4-4b0a-a0fc-81441643da35","ios":"levelo://app?vid=698e8821-6db4-4b0a-a0fc-81441643da35"},"vehicle_type_id":"4","last_reported":1740672764,"current_range_meters":6400,"station_id":"ce4bh692rcd13ifvqea0","pricing_plan_id":"cebpf4jnsgd1na2vs0mg"},{"bike_id":"da3c4fb5-c137-4b78-a6d7-9e67786b17b0","system_id":"levelo_inurba_marseille","lat":43.31379,"lon":5.3674,"is_reserved":false,"is_disabled":false,"rental_uris":{"android":"levelo://app?vid=da3c4fb5-c137-4b78-a6d7-9e67786b17b0","ios":"levelo://app?vid=da3c4fb5-c137-4b78-a6d7-9e67786b17b0"},"vehicle_type_id":"4","last_reported":1740672764,"current_range_meters":6800,"station_id":"","pricing_plan_id":"cebpf4jnsgd1na2vs0mg"},{"bike_id":"e5de573c-b6a8-4316-beb5-25b221a5bf42","system_id":"levelo_inurba_marseille","lat":43.32337,"lon":5.40623,"is_reserved":false,"is_disabled":false,"rental_uris":{"android":"levelo://app?vid=e5de573c-b6a8-4316-beb5-25b221a5bf42","ios":"levelo://app?vid=e5de573c-b6a8-4316-beb5-25b221a5bf42"},"vehicle_type_id":"4","last_reported":1740672764,"current_range_meters":6400,"station_id":"ce4bhq92rcd13ifvqhjg","pricing_plan_id":"cebpf4jnsgd1na2vs0mg"},{"bike_id":"cbafbf1b-dc69-49e8-9dc0-554970c2116b","system_id":"levelo_inurba_marseille","lat":43.22939,"lon":5.35377,"is_reserved":false,"is_disabled":false,"rental_uris":{"android":"levelo://app?vid=cbafbf1b-dc69-49e8-9dc0-554970c2116b","ios":"levelo://app?vid=cbafbf1b-dc69-49e8-9dc0-554970c2116b"},"vehicle_type_id":"4","last_reported":1740672764,"current_range_meters":6400,"station_id":"cpo3532slgdg3j2ikp40","pricing_plan_id":"cebpf4jnsgd1na2vs0mg"},{"bike_id":"41c46dcc-a43e-424f-8fe7-22377b53ceea","system_id":"levelo_inurba_marseille","lat":43.3153,"lon":5.38048,"is_reserved":false,"is_disabled":false,"rental_uris":{"android":"levelo://app?vid=41c46dcc-a43e-424f-8fe7-22377b53ceea","ios":"levelo://app?vid=41c46dcc-a43e-424f-8fe7-22377b53ceea"},"vehicle_type_id":"4","last_reported":1740672764,"current_range_meters":7200,"station_id":"ce4bhsp2rcd13ifvqi50","pricing_plan_id":"cebpf4jnsgd1na2vs0mg"},{"bike_id":"b0c387ec-2543-4672-afa3-265f9bb34101","system_id":"levelo_inurba_marseille","lat":43.24663,"lon":5.38158,"is_reserved":false,"is_disabled":false,"rental_uris":{"android":"levelo://app?vid=b0c387ec-2543-4672-afa3-265f9bb34101","ios":"levelo://app?vid=b0c387ec-2543-4672-afa3-265f9bb34101"},"vehicle_type_id":"4","last_reported":1740672764,"current_range_meters":6800,"station_id":"ce4bhih2rcd13ifvqfr0","pricing_plan_id":"cebpf4jnsgd1na2vs0mg"},{"bike_id":"9b34dafb-f1e0-4648-95d2-e7a24322dbdd","system_id":"levelo_inurba_marseille","lat":43.28048,"lon":5.3696,"is_reserved":false,"is_disabled":false,"rental_uris":{"android":"levelo://app?vid=9b34dafb-f1e0-4648-95d2-e7a24322dbdd","ios":"levelo://app?vid=9b34dafb-f1e0-4648-95d2-e7a24322dbdd"},"vehicle_type_id":"4","last_reported":1740672764,"current_range_meters":6400,"station_id":"ce4bha12rcd13ifvqef0","pricing_plan_id":"cebpf4jnsgd1na2vs0mg"},{"bike_id":"f51ad1c2-9f21-41f7-8e95-c5c03b4303a8","system_id":"levelo_inurba_marseille","lat":43.25829,"lon":5.39436,"is_reserved":false,"is_disabled":false,"rental_uris":{"android":"levelo://app?vid=f51ad1c2-9f21-41f7-8e95-c5c03b4303a8","ios":"levelo://app?vid=f51ad1c2-9f21-41f7-8e95-c5c03b4303a8"},"vehicle_type_id":"4","last_reported":1740672764,"current_range_meters":6800,"station_id":"ce4bhip2rcd13ifvqft0","pricing_plan_id":"cebpf4jnsgd1na2vs0mg"},{"bike_id":"3b37eacb-6092-44c8-8fc7-001ca6b7be4f","system_id":"levelo_inurba_marseille","lat":43.29534,"lon":5.42239,"is_reserved":false,"is_disabled":false,"rental_uris":{"android":"levelo://app?vid=3b37eacb-6092-44c8-8fc7-001ca6b7be4f","ios":"levelo://app?vid=3b37eacb-6092-44c8-8fc7-001ca6b7be4f"},"vehicle_type_id":"4","last_reported":1740672764,"current_range_meters":6800,"station_id":"ce4bhph2rcd13ifvqhdg","pricing_plan_id":"cebpf4jnsgd1na2vs0mg"},{"bike_id":"47200c3d-3b78-42fa-9717-ba7a61340aa2","system_id":"levelo_inurba_marseille","lat":43.27986,"lon":5.3874,"is_reserved":false,"is_disabled":false,"rental_uris":{"android":"levelo://app?vid=47200c3d-3b78-42fa-9717-ba7a61340aa2","ios":"levelo://app?vid=47200c3d-3b78-42fa-9717-ba7a61340aa2"},"vehicle_type_id":"4","last_reported":1740672764,"current_range_meters":4000,"station_id":"ce4bhg12rcd13ifvqf80","pricing_plan_id":"cebpf4jnsgd1na2vs0mg"},{"bike_id":"e090bc49-8ef2-4eb3-9984-f60d6b0bccd3","system_id":"levelo_inurba_marseille","lat":43.29929,"lon":5.36541,"is_reserved":false,"is_disabled":false,"rental_uris":{"android":"levelo://app?vid=e090bc49-8ef2-4eb3-9984-f60d6b0bccd3","ios":"levelo://app?vid=e090bc49-8ef2-4eb3-9984-f60d6b0bccd3"},"vehicle_type_id":"4","last_reported":1740672764,"current_range_meters":7200,"station_id":"ce4bgm92rcd13ifvqbr0","pricing_plan_id":"cebpf4jnsgd1na2vs0mg"},{"bike_id":"3696e539-08e6-44f9-a0c4-3148758c8512","system_id":"levelo_inurba_marseille","lat":43.30843,"lon":5.41101,"is_reserved":false,"is_disabled":false,"rental_uris":{"android":"levelo://app?vid=3696e539-08e6-44f9-a0c4-3148758c8512","ios":"levelo://app?vid=3696e539-08e6-44f9-a0c4-3148758c8512"},"vehicle_type_id":"4","last_reported":1740672764,"current_range_meters":7200,"station_id":"ce4bgvp2rcd13ifvqct0","pricing_plan_id":"cebpf4jnsgd1na2vs0mg"},{"bike_id":"9db1fd83-8a93-4dde-b1d7-810b85c4aad3","system_id":"levelo_inurba_marseille","lat":43.28668,"lon":5.36353,"is_reserved":false,"is_disabled":false,"rental_uris":{"android":"levelo://app?vid=9db1fd83-8a93-4dde-b1d7-810b85c4aad3","ios":"levelo://app?vid=9db1fd83-8a93-4dde-b1d7-810b85c4aad3"},"vehicle_type_id":"4","last_reported":1740672764,"current_range_meters":7200,"station_id":"ce4bhah2rcd13ifvqej0","pricing_plan_id":"cebpf4jnsgd1na2vs0mg"},{"bike_id":"f4d7921b-6bed-40da-8699-088bb60ac291","system_id":"levelo_inurba_marseille","lat":43.280362,"lon":5.36952,"is_reserved":false,"is_disabled":false,"rental_uris":{"android":"levelo://app?vid=f4d7921b-6bed-40da-8699-088bb60ac291","ios":"levelo://app?vid=f4d7921b-6bed-40da-8699-088bb60ac291"},"vehicle_type_id":"4","last_reported":1740672764,"current_range_meters":7200,"station_id":"ce4bhhh2rcd13ifvqfk0","pricing_plan_id":"cebpf4jnsgd1na2vs0mg"},{"bike_id":"5308634e-5c9b-479e-8d53-f817c1db25af","system_id":"levelo_inurba_marseille","lat":43.311157,"lon":5.378117,"is_reserved":false,"is_disabled":false,"rental_uris":{"android":"levelo://app?vid=5308634e-5c9b-479e-8d53-f817c1db25af","ios":"levelo://app?vid=5308634e-5c9b-479e-8d53-f817c1db25af"},"vehicle_type_id":"4","last_reported":1740672764,"current_range_meters":6400,"station_id":"ce4bgip2rcd13ifvqbb0","pricing_plan_id":"cebpf4jnsgd1na2vs0mg"},{"bike_id":"62cdd847-146e-41f8-ad2b-99ec5c17a794","system_id":"levelo_inurba_marseille","lat":43.30542,"lon":5.384307,"is_reserved":false,"is_disabled":false,"rental_uris":{"android":"levelo://app?vid=62cdd847-146e-41f8-ad2b-99ec5c17a794","ios":"levelo://app?vid=62cdd847-146e-41f8-ad2b-99ec5c17a794"},"vehicle_type_id":"4","last_reported":1740672764,"current_range_meters":13600,"station_id":"ce4bh392rcd13ifvqdl0","pricing_plan_id":"cebpf4jnsgd1na2vs0mg"},{"bike_id":"930a3dd7-36b9-4a7c-9b3e-3a9238e993cf","system_id":"levelo_inurba_marseille","lat":43.302849,"lon":5.377159,"is_reserved":false,"is_disabled":false,"rental_uris":{"android":"levelo://app?vid=930a3dd7-36b9-4a7c-9b3e-3a9238e993cf","ios":"levelo://app?vid=930a3dd7-36b9-4a7c-9b3e-3a9238e993cf"},"vehicle_type_id":"4","last_reported":1740672764,"current_range_meters":7200,"station_id":"ce4bh2p2rcd13ifvqdi0","pricing_plan_id":"cebpf4jnsgd1na2vs0mg"},{"bike_id":"1e52c8ba-8410-4500-9038-f7c715160ef5","system_id":"levelo_inurba_marseille","lat":43.30886,"lon":5.39651,"is_reserved":false,"is_disabled":false,"rental_uris":{"android":"levelo://app?vid=1e52c8ba-8410-4500-9038-f7c715160ef5","ios":"levelo://app?vid=1e52c8ba-8410-4500-9038-f7c715160ef5"},"vehicle_type_id":"4","last_reported":1740672764,"current_range_meters":7200,"station_id":"ce4bh012rcd13ifvqcv0","pricing_plan_id":"cebpf4jnsgd1na2vs0mg"},{"bike_id":"f0333f81-6f9d-4206-a285-bd6e4b0dbfc4","system_id":"levelo_inurba_marseille","lat":43.32367,"lon":5.38886,"is_reserved":false,"is_disabled":false,"rental_uris":{"android":"levelo://app?vid=f0333f81-6f9d-4206-a285-bd6e4b0dbfc4","ios":"levelo://app?vid=f0333f81-6f9d-4206-a285-bd6e4b0dbfc4"},"vehicle_type_id":"4","last_reported":1740672764,"current_range_meters":8000,"station_id":"ce4bhqp2rcd13ifvqhog","pricing_plan_id":"cebpf4jnsgd1na2vs0mg"},{"bike_id":"43229c1e-4bf8-4302-8f63-ab7667c2ea5c","system_id":"levelo_inurba_marseille","lat":43.27985,"lon":5.39546,"is_reserved":false,"is_disabled":false,"rental_uris":{"android":"levelo://app?vid=43229c1e-4bf8-4302-8f63-ab7667c2ea5c","ios":"levelo://app?vid=43229c1e-4bf8-4302-8f63-ab7667c2ea5c"},"vehicle_type_id":"4","last_reported":1740672764,"current_range_meters":8000,"station_id":"","pricing_plan_id":"cebpf4jnsgd1na2vs0mg"},{"bike_id":"3c14e765-d64f-45f6-b6cd-6502ce66bfb1","system_id":"levelo_inurba_marseille","lat":43.29199,"lon":5.39313,"is_reserved":false,"is_disabled":false,"rental_uris":{"android":"levelo://app?vid=3c14e765-d64f-45f6-b6cd-6502ce66bfb1","ios":"levelo://app?vid=3c14e765-d64f-45f6-b6cd-6502ce66bfb1"},"vehicle_type_id":"4","last_reported":1740672764,"current_range_meters":7200,"station_id":"ce4bh192rcd13ifvqdd0","pricing_plan_id":"cebpf4jnsgd1na2vs0mg"},{"bike_id":"01e82254-7548-4316-886a-7cf2fb683a5a","system_id":"levelo_inurba_marseille","lat":43.28416,"lon":5.34991,"is_reserved":false,"is_disabled":false,"rental_uris":{"android":"levelo://app?vid=01e82254-7548-4316-886a-7cf2fb683a5a","ios":"levelo://app?vid=01e82254-7548-4316-886a-7cf2fb683a5a"},"vehicle_type_id":"4","last_reported":1740672764,"current_range_meters":8000,"station_id":"ce4bhbh2rcd13ifvqepg","pricing_plan_id":"cebpf4jnsgd1na2vs0mg"},{"bike_id":"112c1a00-6aac-4e2f-86bc-844dc36c4f5c","system_id":"levelo_inurba_marseille","lat":43.31356,"lon":5.36735,"is_reserved":false,"is_disabled":false,"rental_uris":{"android":"levelo://app?vid=112c1a00-6aac-4e2f-86bc-844dc36c4f5c","ios":"levelo://app?vid=112c1a00-6aac-4e2f-86bc-844dc36c4f5c"},"vehicle_type_id":"4","last_reported":1740672764,"current_range_meters":8000,"station_id":"ce4bgr92rcd13ifvqc6g","pricing_plan_id":"cebpf4jnsgd1na2vs0mg"},{"bike_id":"85d22fb2-beca-412c-88c7-3067c93df546","system_id":"levelo_inurba_marseille","lat":43.28266,"lon":5.35061,"is_reserved":false,"is_disabled":false,"rental_uris":{"android":"levelo://app?vid=85d22fb2-beca-412c-88c7-3067c93df546","ios":"levelo://app?vid=85d22fb2-beca-412c-88c7-3067c93df546"},"vehicle_type_id":"4","last_reported":1740672764,"current_range_meters":8400,"station_id":"ce4bhbp2rcd13ifvqerg","pricing_plan_id":"cebpf4jnsgd1na2vs0mg"},{"bike_id":"8849fe5f-f932-4c20-a0b7-114214256af8","system_id":"levelo_inurba_marseille","lat":43.30882,"lon":5.37196,"is_reserved":false,"is_disabled":false,"rental_uris":{"android":"levelo://app?vid=8849fe5f-f932-4c20-a0b7-114214256af8","ios":"levelo://app?vid=8849fe5f-f932-4c20-a0b7-114214256af8"},"vehicle_type_id":"4","last_reported":1740672764,"current_range_meters":8000,"station_id":"ce4bguh2rcd13ifvqckg","pricing_plan_id":"cebpf4jnsgd1na2vs0mg"},{"bike_id":"3973b1c4-bff2-4838-a499-9e4c361a6fa0","system_id":"levelo_inurba_marseille","lat":43.28578,"lon":5.39494,"is_reserved":false,"is_disabled":false,"rental_uris":{"android":"levelo://app?vid=3973b1c4-bff2-4838-a499-9e4c361a6fa0","ios":"levelo://app?vid=3973b1c4-bff2-4838-a499-9e4c361a6fa0"},"vehicle_type_id":"4","last_reported":1740672764,"current_range_meters":8400,"station_id":"ce4bh292rcd13ifvqdg0","pricing_plan_id":"cebpf4jnsgd1na2vs0mg"},{"bike_id":"47be09ed-8c6e-4861-8736-e28ec76ce733","system_id":"levelo_inurba_marseille","lat":43.29431,"lon":5.3859,"is_reserved":false,"is_disabled":false,"rental_uris":{"android":"levelo://app?vid=47be09ed-8c6e-4861-8736-e28ec76ce733","ios":"levelo://app?vid=47be09ed-8c6e-4861-8736-e28ec76ce733"},"vehicle_type_id":"4","last_reported":1740672764,"current_range_meters":8400,"station_id":"ce4bh2h2rcd13ifvqdh0","pricing_plan_id":"cebpf4jnsgd1na2vs0mg"},{"bike_id":"f10f9796-7541-497b-b6e6-805f6c2689ac","system_id":"levelo_inurba_marseille","lat":43.24657,"lon":5.38174,"is_reserved":false,"is_disabled":false,"rental_uris":{"android":"levelo://app?vid=f10f9796-7541-497b-b6e6-805f6c2689ac","ios":"levelo://app?vid=f10f9796-7541-497b-b6e6-805f6c2689ac"},"vehicle_type_id":"4","last_reported":1740672764,"current_range_meters":8400,"station_id":"ce4bhih2rcd13ifvqfr0","pricing_plan_id":"cebpf4jnsgd1na2vs0mg"},{"bike_id":"ea8cb564-d405-42e3-911c-0afdd772ee76","system_id":"levelo_inurba_marseille","lat":43.32762,"lon":5.39203,"is_reserved":false,"is_disabled":false,"rental_uris":{"android":"levelo://app?vid=ea8cb564-d405-42e3-911c-0afdd772ee76","ios":"levelo://app?vid=ea8cb564-d405-42e3-911c-0afdd772ee76"},"vehicle_type_id":"4","last_reported":1740672764,"current_range_meters":2800,"station_id":"","pricing_plan_id":"cebpf4jnsgd1na2vs0mg"},{"bike_id":"df60e2c1-34de-46d2-b406-ec157fe3436b","system_id":"levelo_inurba_marseille","lat":43.2558,"lon":5.38229,"is_reserved":false,"is_disabled":false,"rental_uris":{"android":"levelo://app?vid=df60e2c1-34de-46d2-b406-ec157fe3436b","ios":"levelo://app?vid=df60e2c1-34de-46d2-b406-ec157fe3436b"},"vehicle_type_id":"4","last_reported":1740672764,"current_range_meters":8400,"station_id":"ce4bhih2rcd13ifvqfs0","pricing_plan_id":"cebpf4jnsgd1na2vs0mg"},{"bike_id":"0880d64b-6636-4449-9c99-4c4892b6bcb7","system_id":"levelo_inurba_marseille","lat":43.29578,"lon":5.37509,"is_reserved":false,"is_disabled":false,"rental_uris":{"android":"levelo://app?vid=0880d64b-6636-4449-9c99-4c4892b6bcb7","ios":"levelo://app?vid=0880d64b-6636-4449-9c99-4c4892b6bcb7"},"vehicle_type_id":"4","last_reported":1740672764,"current_range_meters":10000,"station_id":"ce4bgh92rcd13ifvqb50","pricing_plan_id":"cebpf4jnsgd1na2vs0mg"},{"bike_id":"361e5381-9dbf-4214-b37a-7215cbade8ed","system_id":"levelo_inurba_marseille","lat":43.25109,"lon":5.40324,"is_reserved":false,"is_disabled":false,"rental_uris":{"android":"levelo://app?vid=361e5381-9dbf-4214-b37a-7215cbade8ed","ios":"levelo://app?vid=361e5381-9dbf-4214-b37a-7215cbade8ed"},"vehicle_type_id":"4","last_reported":1740672764,"current_range_meters":8400,"station_id":"ce4bhlh2rcd13ifvqgig","pricing_plan_id":"cebpf4jnsgd1na2vs0mg"},{"bike_id":"7a1ecc6e-7250-4b67-a8e6-074da8a88ff4","system_id":"levelo_inurba_marseille","lat":43.26699,"lon":5.38261,"is_reserved":false,"is_disabled":false,"rental_uris":{"android":"levelo://app?vid=7a1ecc6e-7250-4b67-a8e6-074da8a88ff4","ios":"levelo://app?vid=7a1ecc6e-7250-4b67-a8e6-074da8a88ff4"},"vehicle_type_id":"4","last_reported":1740672764,"current_range_meters":8800,"station_id":"ce4bhg92rcd13ifvqf90","pricing_plan_id":"cebpf4jnsgd1na2vs0mg"},{"bike_id":"99729b3b-b9df-4abc-b37d-da4fc9e3dddc","system_id":"levelo_inurba_marseille","lat":43.305441,"lon":5.36557,"is_reserved":false,"is_disabled":false,"rental_uris":{"android":"levelo://app?vid=99729b3b-b9df-4abc-b37d-da4fc9e3dddc","ios":"levelo://app?vid=99729b3b-b9df-4abc-b37d-da4fc9e3dddc"},"vehicle_type_id":"4","last_reported":1740672764,"current_range_meters":8400,"station_id":"ce4bgup2rcd13ifvqcn0","pricing_plan_id":"cebpf4jnsgd1na2vs0mg"},{"bike_id":"c128186c-ab26-464d-a4aa-ec0f2f9ea5c4","system_id":"levelo_inurba_marseille","lat":43.22981,"lon":5.35434,"is_reserved":false,"is_disabled":false,"rental_uris":{"android":"levelo://app?vid=c128186c-ab26-464d-a4aa-ec0f2f9ea5c4","ios":"levelo://app?vid=c128186c-ab26-464d-a4aa-ec0f2f9ea5c4"},"vehicle_type_id":"4","last_reported":1740672764,"current_range_meters":8800,"station_id":"cpo3532slgdg3j2ikp40","pricing_plan_id":"cebpf4jnsgd1na2vs0mg"},{"bike_id":"c8a689b8-65ff-49cf-92bf-fdd5667b19d3","system_id":"levelo_inurba_marseille","lat":43.23201,"lon":5.35555,"is_reserved":false,"is_disabled":false,"rental_uris":{"android":"levelo://app?vid=c8a689b8-65ff-49cf-92bf-fdd5667b19d3","ios":"levelo://app?vid=c8a689b8-65ff-49cf-92bf-fdd5667b19d3"},"vehicle_type_id":"4","last_reported":1740672764,"current_range_meters":8800,"station_id":"ce4bhu92rcd13ifvqi70","pricing_plan_id":"cebpf4jnsgd1na2vs0mg"},{"bike_id":"a9dbd8d1-4851-4406-b390-a8d3a88c14ae","system_id":"levelo_inurba_marseille","lat":43.29103,"lon":5.38137,"is_reserved":false,"is_disabled":false,"rental_uris":{"android":"levelo://app?vid=a9dbd8d1-4851-4406-b390-a8d3a88c14ae","ios":"levelo://app?vid=a9dbd8d1-4851-4406-b390-a8d3a88c14ae"},"vehicle_type_id":"4","last_reported":1740672764,"current_range_meters":8800,"station_id":"ce4bh512rcd13ifvqe2g","pricing_plan_id":"cebpf4jnsgd1na2vs0mg"},{"bike_id":"76ba7a90-c94c-4489-9272-4c392111ae24","system_id":"levelo_inurba_marseille","lat":43.28863,"lon":5.35842,"is_reserved":false,"is_disabled":false,"rental_uris":{"android":"levelo://app?vid=76ba7a90-c94c-4489-9272-4c392111ae24","ios":"levelo://app?vid=76ba7a90-c94c-4489-9272-4c392111ae24"},"vehicle_type_id":"4","last_reported":1740672764,"current_range_meters":8800,"station_id":"ce4bhb12rcd13ifvqem0","pricing_plan_id":"cebpf4jnsgd1na2vs0mg"},{"bike_id":"5da1f7d2-c058-4478-8f67-4e8ef68a771f","system_id":"levelo_inurba_marseille","lat":43.29527,"lon":5.37503,"is_reserved":false,"is_disabled":false,"rental_uris":{"android":"levelo://app?vid=5da1f7d2-c058-4478-8f67-4e8ef68a771f","ios":"levelo://app?vid=5da1f7d2-c058-4478-8f67-4e8ef68a771f"},"vehicle_type_id":"4","last_reported":1740672764,"current_range_meters":9200,"station_id":"ce4bgkp2rcd13ifvqbmg","pricing_plan_id":"cebpf4jnsgd1na2vs0mg"},{"bike_id":"a364160a-4c3d-422d-a1ae-fb03fe4f60b7","system_id":"levelo_inurba_marseille","lat":43.2979,"lon":5.37111,"is_reserved":false,"is_disabled":false,"rental_uris":{"android":"levelo://app?vid=a364160a-4c3d-422d-a1ae-fb03fe4f60b7","ios":"levelo://app?vid=a364160a-4c3d-422d-a1ae-fb03fe4f60b7"},"vehicle_type_id":"4","last_reported":1740672764,"current_range_meters":9600,"station_id":"ce4bgop2rcd13ifvqc1g","pricing_plan_id":"cebpf4jnsgd1na2vs0mg"},{"bike_id":"305e0886-071b-4efd-8d43-98e19fe01c60","system_id":"levelo_inurba_marseille","lat":43.27681,"lon":5.38882,"is_reserved":false,"is_disabled":false,"rental_uris":{"android":"levelo://app?vid=305e0886-071b-4efd-8d43-98e19fe01c60","ios":"levelo://app?vid=305e0886-071b-4efd-8d43-98e19fe01c60"},"vehicle_type_id":"4","last_reported":1740672764,"current_range_meters":9200,"station_id":"ce4bhi12rcd13ifvqfo0","pricing_plan_id":"cebpf4jnsgd1na2vs0mg"},{"bike_id":"e65c0076-93f5-4c37-b281-dbdaf0440c85","system_id":"levelo_inurba_marseille","lat":43.26241,"lon":5.40474,"is_reserved":false,"is_disabled":false,"rental_uris":{"android":"levelo://app?vid=e65c0076-93f5-4c37-b281-dbdaf0440c85","ios":"levelo://app?vid=e65c0076-93f5-4c37-b281-dbdaf0440c85"},"vehicle_type_id":"4","last_reported":1740672764,"current_range_meters":9200,"station_id":"ce4bhmh2rcd13ifvqgmg","pricing_plan_id":"cebpf4jnsgd1na2vs0mg"},{"bike_id":"173bf811-da56-4349-a3ec-8d0b8c5bd064","system_id":"levelo_inurba_marseille","lat":43.255,"lon":5.3765,"is_reserved":false,"is_disabled":false,"rental_uris":{"android":"levelo://app?vid=173bf811-da56-4349-a3ec-8d0b8c5bd064","ios":"levelo://app?vid=173bf811-da56-4349-a3ec-8d0b8c5bd064"},"vehicle_type_id":"4","last_reported":1740672764,"current_range_meters":9200,"station_id":"ce4bhh12rcd13ifvqff0","pricing_plan_id":"cebpf4jnsgd1na2vs0mg"},{"bike_id":"8aeabf39-270a-490b-a78f-7285046f1db1","system_id":"levelo_inurba_marseille","lat":43.3054,"lon":5.36691,"is_reserved":false,"is_disabled":false,"rental_uris":{"android":"levelo://app?vid=8aeabf39-270a-490b-a78f-7285046f1db1","ios":"levelo://app?vid=8aeabf39-270a-490b-a78f-7285046f1db1"},"vehicle_type_id":"4","last_reported":1740672764,"current_range_meters":9200,"station_id":"ce4bgrp2rcd13ifvqc9g","pricing_plan_id":"cebpf4jnsgd1na2vs0mg"},{"bike_id":"3f0907b3-da2b-41a5-8662-a0489e1a0f25","system_id":"levelo_inurba_marseille","lat":43.32106,"lon":5.36779,"is_reserved":false,"is_disabled":false,"rental_uris":{"android":"levelo://app?vid=3f0907b3-da2b-41a5-8662-a0489e1a0f25","ios":"levelo://app?vid=3f0907b3-da2b-41a5-8662-a0489e1a0f25"},"vehicle_type_id":"4","last_reported":1740672764,"current_range_meters":9200,"station_id":"ce4bhrh2rcd13ifvqhug","pricing_plan_id":"cebpf4jnsgd1na2vs0mg"},{"bike_id":"745c5d38-332d-426b-8e7b-acb525d1c540","system_id":"levelo_inurba_marseille","lat":43.25086,"lon":5.39519,"is_reserved":false,"is_disabled":false,"rental_uris":{"android":"levelo://app?vid=745c5d38-332d-426b-8e7b-acb525d1c540","ios":"levelo://app?vid=745c5d38-332d-426b-8e7b-acb525d1c540"},"vehicle_type_id":"4","last_reported":1740672764,"current_range_meters":9600,"station_id":"ce4bhm12rcd13ifvqgkg","pricing_plan_id":"cebpf4jnsgd1na2vs0mg"},{"bike_id":"afd98e29-9e65-49b1-96e9-da6c0e62de76","system_id":"levelo_inurba_marseille","lat":43.292672,"lon":5.382062,"is_reserved":false,"is_disabled":false,"rental_uris":{"android":"levelo://app?vid=afd98e29-9e65-49b1-96e9-da6c0e62de76","ios":"levelo://app?vid=afd98e29-9e65-49b1-96e9-da6c0e62de76"},"vehicle_type_id":"4","last_reported":1740672764,"current_range_meters":9600,"station_id":"","pricing_plan_id":"cebpf4jnsgd1na2vs0mg"},{"bike_id":"82d64e81-8d40-4c80-b5b5-a958f80dbced","system_id":"levelo_inurba_marseille","lat":43.28418,"lon":5.34993,"is_reserved":false,"is_disabled":false,"rental_uris":{"android":"levelo://app?vid=82d64e81-8d40-4c80-b5b5-a958f80dbced","ios":"levelo://app?vid=82d64e81-8d40-4c80-b5b5-a958f80dbced"},"vehicle_type_id":"4","last_reported":1740672764,"current_range_meters":9600,"station_id":"ce4bhbh2rcd13ifvqepg","pricing_plan_id":"cebpf4jnsgd1na2vs0mg"},{"bike_id":"2c6f92e4-6049-4a85-a4de-0988f10f1cd9","system_id":"levelo_inurba_marseille","lat":43.27035,"lon":5.40238,"is_reserved":false,"is_disabled":false,"rental_uris":{"android":"levelo://app?vid=2c6f92e4-6049-4a85-a4de-0988f10f1cd9","ios":"levelo://app?vid=2c6f92e4-6049-4a85-a4de-0988f10f1cd9"},"vehicle_type_id":"4","last_reported":1740672764,"current_range_meters":8400,"station_id":"ce4bhk92rcd13ifvqgc0","pricing_plan_id":"cebpf4jnsgd1na2vs0mg"},{"bike_id":"e3f09542-33c5-4b1a-b794-36537b238d6b","system_id":"levelo_inurba_marseille","lat":43.2511,"lon":5.40321,"is_reserved":false,"is_disabled":false,"rental_uris":{"android":"levelo://app?vid=e3f09542-33c5-4b1a-b794-36537b238d6b","ios":"levelo://app?vid=e3f09542-33c5-4b1a-b794-36537b238d6b"},"vehicle_type_id":"4","last_reported":1740672764,"current_range_meters":9600,"station_id":"ce4bhlh2rcd13ifvqgig","pricing_plan_id":"cebpf4jnsgd1na2vs0mg"},{"bike_id":"e015c13c-5391-4750-b578-4f8eabb4dd41","system_id":"levelo_inurba_marseille","lat":43.29381,"lon":5.37861,"is_reserved":false,"is_disabled":false,"rental_uris":{"android":"levelo://app?vid=e015c13c-5391-4750-b578-4f8eabb4dd41","ios":"levelo://app?vid=e015c13c-5391-4750-b578-4f8eabb4dd41"},"vehicle_type_id":"4","last_reported":1740672764,"current_range_meters":9600,"station_id":"ce4bgjh2rcd13ifvqbf0","pricing_plan_id":"cebpf4jnsgd1na2vs0mg"},{"bike_id":"445a5f34-3c4e-4a76-ac08-f5bb840de5a0","system_id":"levelo_inurba_marseille","lat":43.28268,"lon":5.35066,"is_reserved":false,"is_disabled":false,"rental_uris":{"android":"levelo://app?vid=445a5f34-3c4e-4a76-ac08-f5bb840de5a0","ios":"levelo://app?vid=445a5f34-3c4e-4a76-ac08-f5bb840de5a0"},"vehicle_type_id":"4","last_reported":1740672764,"current_range_meters":9600,"station_id":"ce4bhbp2rcd13ifvqerg","pricing_plan_id":"cebpf4jnsgd1na2vs0mg"},{"bike_id":"396a288c-8674-4fbd-bef0-404a3b13df92","system_id":"levelo_inurba_marseille","lat":43.28265,"lon":5.3506,"is_reserved":false,"is_disabled":false,"rental_uris":{"android":"levelo://app?vid=396a288c-8674-4fbd-bef0-404a3b13df92","ios":"levelo://app?vid=396a288c-8674-4fbd-bef0-404a3b13df92"},"vehicle_type_id":"4","last_reported":1740672764,"current_range_meters":9600,"station_id":"ce4bhbp2rcd13ifvqerg","pricing_plan_id":"cebpf4jnsgd1na2vs0mg"},{"bike_id":"91f909e9-358e-43ed-a45f-822af931a978","system_id":"levelo_inurba_marseille","lat":43.23219,"lon":5.40359,"is_reserved":false,"is_disabled":false,"rental_uris":{"android":"levelo://app?vid=91f909e9-358e-43ed-a45f-822af931a978","ios":"levelo://app?vid=91f909e9-358e-43ed-a45f-822af931a978"},"vehicle_type_id":"4","last_reported":1740672764,"current_range_meters":9600,"station_id":"","pricing_plan_id":"cebpf4jnsgd1na2vs0mg"},{"bike_id":"770ae70b-22c8-4878-9559-54f37da87f6d","system_id":"levelo_inurba_marseille","lat":43.2319,"lon":5.35548,"is_reserved":false,"is_disabled":false,"rental_uris":{"android":"levelo://app?vid=770ae70b-22c8-4878-9559-54f37da87f6d","ios":"levelo://app?vid=770ae70b-22c8-4878-9559-54f37da87f6d"},"vehicle_type_id":"4","last_reported":1740672764,"current_range_meters":10000,"station_id":"ce4bhu92rcd13ifvqi70","pricing_plan_id":"cebpf4jnsgd1na2vs0mg"},{"bike_id":"b342e59e-3fe2-4e16-8a7e-0cf1dc0eef98","system_id":"levelo_inurba_marseille","lat":43.27618,"lon":5.36111,"is_reserved":false,"is_disabled":false,"rental_uris":{"android":"levelo://app?vid=b342e59e-3fe2-4e16-8a7e-0cf1dc0eef98","ios":"levelo://app?vid=b342e59e-3fe2-4e16-8a7e-0cf1dc0eef98"},"vehicle_type_id":"4","last_reported":1740672764,"current_range_meters":10800,"station_id":"ce4bgj92rcd13ifvqbe0","pricing_plan_id":"cebpf4jnsgd1na2vs0mg"},{"bike_id":"5e0e22b0-e973-48d0-8bed-a771273f721a","system_id":"levelo_inurba_marseille","lat":43.27373,"lon":5.36246,"is_reserved":false,"is_disabled":false,"rental_uris":{"android":"levelo://app?vid=5e0e22b0-e973-48d0-8bed-a771273f721a","ios":"levelo://app?vid=5e0e22b0-e973-48d0-8bed-a771273f721a"},"vehicle_type_id":"4","last_reported":1740672764,"current_range_meters":10000,"station_id":"ce4bhbh2rcd13ifvqeo0","pricing_plan_id":"cebpf4jnsgd1na2vs0mg"},{"bike_id":"03ecd382-3850-4874-86ef-0467a1a8c988","system_id":"levelo_inurba_marseille","lat":43.24182,"lon":5.39711,"is_reserved":false,"is_disabled":true,"rental_uris":{"android":"levelo://app?vid=03ecd382-3850-4874-86ef-0467a1a8c988","ios":"levelo://app?vid=03ecd382-3850-4874-86ef-0467a1a8c988"},"vehicle_type_id":"4","last_reported":1740672764,"current_range_meters":10000,"station_id":"ce4bhn12rcd13ifvqgpg","pricing_plan_id":"cebpf4jnsgd1na2vs0mg"},{"bike_id":"0684c9b8-68d1-4121-82b2-00c0eebe64db","system_id":"levelo_inurba_marseille","lat":43.27943,"lon":5.41046,"is_reserved":false,"is_disabled":false,"rental_uris":{"android":"levelo://app?vid=0684c9b8-68d1-4121-82b2-00c0eebe64db","ios":"levelo://app?vid=0684c9b8-68d1-4121-82b2-00c0eebe64db"},"vehicle_type_id":"4","last_reported":1740672764,"current_range_meters":10000,"station_id":"ce4bhnp2rcd13ifvqh0g","pricing_plan_id":"cebpf4jnsgd1na2vs0mg"},{"bike_id":"450ecd23-0924-4b3f-be95-6b3d085ead17","system_id":"levelo_inurba_marseille","lat":43.30257,"lon":5.40075,"is_reserved":false,"is_disabled":false,"rental_uris":{"android":"levelo://app?vid=450ecd23-0924-4b3f-be95-6b3d085ead17","ios":"levelo://app?vid=450ecd23-0924-4b3f-be95-6b3d085ead17"},"vehicle_type_id":"4","last_reported":1740672764,"current_range_meters":9600,"station_id":"ce4bgvh2rcd13ifvqcs0","pricing_plan_id":"cebpf4jnsgd1na2vs0mg"},{"bike_id":"ceada319-f43c-489f-8514-905ab74c8e1c","system_id":"levelo_inurba_marseille","lat":43.29915,"lon":5.37472,"is_reserved":false,"is_disabled":false,"rental_uris":{"android":"levelo://app?vid=ceada319-f43c-489f-8514-905ab74c8e1c","ios":"levelo://app?vid=ceada319-f43c-489f-8514-905ab74c8e1c"},"vehicle_type_id":"4","last_reported":1740672764,"current_range_meters":11200,"station_id":"ce4bgjh2rcd13ifvqbg0","pricing_plan_id":"cebpf4jnsgd1na2vs0mg"},{"bike_id":"577c9987-3613-457b-80a8-586667059604","system_id":"levelo_inurba_marseille","lat":43.25001,"lon":5.38938,"is_reserved":false,"is_disabled":false,"rental_uris":{"android":"levelo://app?vid=577c9987-3613-457b-80a8-586667059604","ios":"levelo://app?vid=577c9987-3613-457b-80a8-586667059604"},"vehicle_type_id":"4","last_reported":1740672764,"current_range_meters":10800,"station_id":"ce4bhgp2rcd13ifvqfd0","pricing_plan_id":"cebpf4jnsgd1na2vs0mg"},{"bike_id":"cd55dab6-f16f-477a-8396-951702ed9ff6","system_id":"levelo_inurba_marseille","lat":43.29579,"lon":5.3674,"is_reserved":false,"is_disabled":false,"rental_uris":{"android":"levelo://app?vid=cd55dab6-f16f-477a-8396-951702ed9ff6","ios":"levelo://app?vid=cd55dab6-f16f-477a-8396-951702ed9ff6"},"vehicle_type_id":"4","last_reported":1740672764,"current_range_meters":10000,"station_id":"ce4bgph2rcd13ifvqc2g","pricing_plan_id":"cebpf4jnsgd1na2vs0mg"},{"bike_id":"0bf3ac8e-ab1c-4ce8-8c93-cd92039c9639","system_id":"levelo_inurba_marseille","lat":43.29269,"lon":5.38437,"is_reserved":false,"is_disabled":false,"rental_uris":{"android":"levelo://app?vid=0bf3ac8e-ab1c-4ce8-8c93-cd92039c9639","ios":"levelo://app?vid=0bf3ac8e-ab1c-4ce8-8c93-cd92039c9639"},"vehicle_type_id":"4","last_reported":1740672764,"current_range_meters":10800,"station_id":"ce4bh692rcd13ifvqea0","pricing_plan_id":"cebpf4jnsgd1na2vs0mg"},{"bike_id":"a0248e67-d308-4e62-93f0-ca18afaf6053","system_id":"levelo_inurba_marseille","lat":43.31083,"lon":5.38359,"is_reserved":false,"is_disabled":false,"rental_uris":{"android":"levelo://app?vid=a0248e67-d308-4e62-93f0-ca18afaf6053","ios":"levelo://app?vid=a0248e67-d308-4e62-93f0-ca18afaf6053"},"vehicle_type_id":"4","last_reported":1740672764,"current_range_meters":11200,"station_id":"ce4bgv92rcd13ifvqcr0","pricing_plan_id":"cebpf4jnsgd1na2vs0mg"},{"bike_id":"7843fef8-fa6b-4b02-9a30-0d426bde2243","system_id":"levelo_inurba_marseille","lat":43.25001,"lon":5.38949,"is_reserved":false,"is_disabled":false,"rental_uris":{"android":"levelo://app?vid=7843fef8-fa6b-4b02-9a30-0d426bde2243","ios":"levelo://app?vid=7843fef8-fa6b-4b02-9a30-0d426bde2243"},"vehicle_type_id":"4","last_reported":1740672764,"current_range_meters":10800,"station_id":"ce4bhgp2rcd13ifvqfd0","pricing_plan_id":"cebpf4jnsgd1na2vs0mg"},{"bike_id":"e5c4159e-1b69-403c-900c-f56cee27c4b9","system_id":"levelo_inurba_marseille","lat":43.29005,"lon":5.35611,"is_reserved":false,"is_disabled":false,"rental_uris":{"android":"levelo://app?vid=e5c4159e-1b69-403c-900c-f56cee27c4b9","ios":"levelo://app?vid=e5c4159e-1b69-403c-900c-f56cee27c4b9"},"vehicle_type_id":"4","last_reported":1740672764,"current_range_meters":10800,"station_id":"ce4bhb92rcd13ifvqen0","pricing_plan_id":"cebpf4jnsgd1na2vs0mg"},{"bike_id":"47bbf5f9-00f7-4dd2-8788-3994b2efe63f","system_id":"levelo_inurba_marseille","lat":43.27071,"lon":5.42279,"is_reserved":false,"is_disabled":false,"rental_uris":{"android":"levelo://app?vid=47bbf5f9-00f7-4dd2-8788-3994b2efe63f","ios":"levelo://app?vid=47bbf5f9-00f7-4dd2-8788-3994b2efe63f"},"vehicle_type_id":"4","last_reported":1740672764,"current_range_meters":10800,"station_id":"ce4bhk92rcd13ifvqgb0","pricing_plan_id":"cebpf4jnsgd1na2vs0mg"},{"bike_id":"b11c0d62-51bf-4199-a640-4981d8fa23aa","system_id":"levelo_inurba_marseille","lat":43.25115,"lon":5.4033,"is_reserved":false,"is_disabled":false,"rental_uris":{"android":"levelo://app?vid=b11c0d62-51bf-4199-a640-4981d8fa23aa","ios":"levelo://app?vid=b11c0d62-51bf-4199-a640-4981d8fa23aa"},"vehicle_type_id":"4","last_reported":1740672764,"current_range_meters":10800,"station_id":"ce4bhlh2rcd13ifvqgig","pricing_plan_id":"cebpf4jnsgd1na2vs0mg"},{"bike_id":"65552d27-74af-4fbb-8cbc-2a29c98fc310","system_id":"levelo_inurba_marseille","lat":43.30416,"lon":5.41273,"is_reserved":false,"is_disabled":false,"rental_uris":{"android":"levelo://app?vid=65552d27-74af-4fbb-8cbc-2a29c98fc310","ios":"levelo://app?vid=65552d27-74af-4fbb-8cbc-2a29c98fc310"},"vehicle_type_id":"4","last_reported":1740672764,"current_range_meters":11200,"station_id":"ce4bhop2rcd13ifvqh8g","pricing_plan_id":"cebpf4jnsgd1na2vs0mg"},{"bike_id":"23cda5ab-0da5-4151-8aaa-122aee560d1e","system_id":"levelo_inurba_marseille","lat":43.31477,"lon":5.37309,"is_reserved":false,"is_disabled":false,"rental_uris":{"android":"levelo://app?vid=23cda5ab-0da5-4151-8aaa-122aee560d1e","ios":"levelo://app?vid=23cda5ab-0da5-4151-8aaa-122aee560d1e"},"vehicle_type_id":"4","last_reported":1740672764,"current_range_meters":11200,"station_id":"ce4bgt12rcd13ifvqcd0","pricing_plan_id":"cebpf4jnsgd1na2vs0mg"},{"bike_id":"19279233-c5eb-469b-b0e9-520848cd1c61","system_id":"levelo_inurba_marseille","lat":43.29193,"lon":5.3932,"is_reserved":false,"is_disabled":false,"rental_uris":{"android":"levelo://app?vid=19279233-c5eb-469b-b0e9-520848cd1c61","ios":"levelo://app?vid=19279233-c5eb-469b-b0e9-520848cd1c61"},"vehicle_type_id":"4","last_reported":1740672764,"current_range_meters":10800,"station_id":"ce4bh192rcd13ifvqdd0","pricing_plan_id":"cebpf4jnsgd1na2vs0mg"},{"bike_id":"17209f80-451e-4586-b620-381cc150687e","system_id":"levelo_inurba_marseille","lat":43.29872,"lon":5.38896,"is_reserved":false,"is_disabled":false,"rental_uris":{"android":"levelo://app?vid=17209f80-451e-4586-b620-381cc150687e","ios":"levelo://app?vid=17209f80-451e-4586-b620-381cc150687e"},"vehicle_type_id":"4","last_reported":1740672764,"current_range_meters":8000,"station_id":"ce4bh392rcd13ifvqdl0","pricing_plan_id":"cebpf4jnsgd1na2vs0mg"},{"bike_id":"b74a8faf-026b-4654-917b-d9a24c52eb79","system_id":"levelo_inurba_marseille","lat":43.29974,"lon":5.37166,"is_reserved":false,"is_disabled":false,"rental_uris":{"android":"levelo://app?vid=b74a8faf-026b-4654-917b-d9a24c52eb79","ios":"levelo://app?vid=b74a8faf-026b-4654-917b-d9a24c52eb79"},"vehicle_type_id":"4","last_reported":1740672764,"current_range_meters":8800,"station_id":"ce4bgr92rcd13ifvqc7g","pricing_plan_id":"cebpf4jnsgd1na2vs0mg"},{"bike_id":"ab16eb01-a151-4998-92ed-734e6fe3fbac","system_id":"levelo_inurba_marseille","lat":43.299074,"lon":5.375228,"is_reserved":false,"is_disabled":false,"rental_uris":{"android":"levelo://app?vid=ab16eb01-a151-4998-92ed-734e6fe3fbac","ios":"levelo://app?vid=ab16eb01-a151-4998-92ed-734e6fe3fbac"},"vehicle_type_id":"4","last_reported":1740672764,"current_range_meters":10800,"station_id":"chh1huq6cuj3fo74tm60","pricing_plan_id":"cebpf4jnsgd1na2vs0mg"},{"bike_id":"413bfb37-e76b-46df-ab6c-a6ef0d089e6c","system_id":"levelo_inurba_marseille","lat":43.27377,"lon":5.36249,"is_reserved":false,"is_disabled":false,"rental_uris":{"android":"levelo://app?vid=413bfb37-e76b-46df-ab6c-a6ef0d089e6c","ios":"levelo://app?vid=413bfb37-e76b-46df-ab6c-a6ef0d089e6c"},"vehicle_type_id":"4","last_reported":1740672764,"current_range_meters":11600,"station_id":"ce4bhbh2rcd13ifvqeo0","pricing_plan_id":"cebpf4jnsgd1na2vs0mg"},{"bike_id":"2837d85d-02af-49af-900a-3b751e6ef0d6","system_id":"levelo_inurba_marseille","lat":43.32112,"lon":5.36801,"is_reserved":false,"is_disabled":false,"rental_uris":{"android":"levelo://app?vid=2837d85d-02af-49af-900a-3b751e6ef0d6","ios":"levelo://app?vid=2837d85d-02af-49af-900a-3b751e6ef0d6"},"vehicle_type_id":"4","last_reported":1740672764,"current_range_meters":11600,"station_id":"ce4bhrh2rcd13ifvqhug","pricing_plan_id":"cebpf4jnsgd1na2vs0mg"},{"bike_id":"8b7f6907-1843-4ada-b10f-b8df4b5f0dc6","system_id":"levelo_inurba_marseille","lat":43.25583,"lon":5.38228,"is_reserved":false,"is_disabled":false,"rental_uris":{"android":"levelo://app?vid=8b7f6907-1843-4ada-b10f-b8df4b5f0dc6","ios":"levelo://app?vid=8b7f6907-1843-4ada-b10f-b8df4b5f0dc6"},"vehicle_type_id":"4","last_reported":1740672764,"current_range_meters":11600,"station_id":"ce4bhih2rcd13ifvqfs0","pricing_plan_id":"cebpf4jnsgd1na2vs0mg"},{"bike_id":"6bb3b6c8-22de-46c7-aa0d-282a4fb5b78c","system_id":"levelo_inurba_marseille","lat":43.26517,"lon":5.39533,"is_reserved":false,"is_disabled":false,"rental_uris":{"android":"levelo://app?vid=6bb3b6c8-22de-46c7-aa0d-282a4fb5b78c","ios":"levelo://app?vid=6bb3b6c8-22de-46c7-aa0d-282a4fb5b78c"},"vehicle_type_id":"4","last_reported":1740672764,"current_range_meters":11600,"station_id":"ce4bhi12rcd13ifvqfq0","pricing_plan_id":"cebpf4jnsgd1na2vs0mg"},{"bike_id":"8b12f042-66ff-4f72-8110-b87f1cf65c0b","system_id":"levelo_inurba_marseille","lat":43.33151,"lon":5.39564,"is_reserved":false,"is_disabled":false,"rental_uris":{"android":"levelo://app?vid=8b12f042-66ff-4f72-8110-b87f1cf65c0b","ios":"levelo://app?vid=8b12f042-66ff-4f72-8110-b87f1cf65c0b"},"vehicle_type_id":"4","last_reported":1740672764,"current_range_meters":12000,"station_id":"","pricing_plan_id":"cebpf4jnsgd1na2vs0mg"},{"bike_id":"d1c19e30-9464-4956-bfd9-8938b93b3166","system_id":"levelo_inurba_marseille","lat":43.24163,"lon":5.3973,"is_reserved":false,"is_disabled":false,"rental_uris":{"android":"levelo://app?vid=d1c19e30-9464-4956-bfd9-8938b93b3166","ios":"levelo://app?vid=d1c19e30-9464-4956-bfd9-8938b93b3166"},"vehicle_type_id":"4","last_reported":1740672764,"current_range_meters":11600,"station_id":"ce4bhn12rcd13ifvqgpg","pricing_plan_id":"cebpf4jnsgd1na2vs0mg"},{"bike_id":"57b98871-9fca-4364-9033-b7904a556b4b","system_id":"levelo_inurba_marseille","lat":43.31078,"lon":5.383547,"is_reserved":false,"is_disabled":false,"rental_uris":{"android":"levelo://app?vid=57b98871-9fca-4364-9033-b7904a556b4b","ios":"levelo://app?vid=57b98871-9fca-4364-9033-b7904a556b4b"},"vehicle_type_id":"4","last_reported":1740672764,"current_range_meters":11600,"station_id":"ce4bgv92rcd13ifvqcr0","pricing_plan_id":"cebpf4jnsgd1na2vs0mg"},{"bike_id":"907b990b-0a8a-4924-acec-37622f347ce1","system_id":"levelo_inurba_marseille","lat":43.286167,"lon":5.351063,"is_reserved":false,"is_disabled":false,"rental_uris":{"android":"levelo://app?vid=907b990b-0a8a-4924-acec-37622f347ce1","ios":"levelo://app?vid=907b990b-0a8a-4924-acec-37622f347ce1"},"vehicle_type_id":"4","last_reported":1740672764,"current_range_meters":7200,"station_id":"ce4bhch2rcd13ifvqeug","pricing_plan_id":"cebpf4jnsgd1na2vs0mg"},{"bike_id":"c9a9637e-a260-48ee-81c6-0a2c4db5ba1d","system_id":"levelo_inurba_marseille","lat":43.27071,"lon":5.42276,"is_reserved":false,"is_disabled":false,"rental_uris":{"android":"levelo://app?vid=c9a9637e-a260-48ee-81c6-0a2c4db5ba1d","ios":"levelo://app?vid=c9a9637e-a260-48ee-81c6-0a2c4db5ba1d"},"vehicle_type_id":"4","last_reported":1740672764,"current_range_meters":12000,"station_id":"ce4bhk92rcd13ifvqgb0","pricing_plan_id":"cebpf4jnsgd1na2vs0mg"},{"bike_id":"ff8b3a1b-3a82-4510-84f1-0f67b827bd92","system_id":"levelo_inurba_marseille","lat":43.27374,"lon":5.36261,"is_reserved":false,"is_disabled":false,"rental_uris":{"android":"levelo://app?vid=ff8b3a1b-3a82-4510-84f1-0f67b827bd92","ios":"levelo://app?vid=ff8b3a1b-3a82-4510-84f1-0f67b827bd92"},"vehicle_type_id":"4","last_reported":1740672764,"current_range_meters":12000,"station_id":"ce4bhbh2rcd13ifvqeo0","pricing_plan_id":"cebpf4jnsgd1na2vs0mg"},{"bike_id":"9c05c137-ce73-4888-83ec-51c9674942d3","system_id":"levelo_inurba_marseille","lat":43.31376,"lon":5.36689,"is_reserved":false,"is_disabled":false,"rental_uris":{"android":"levelo://app?vid=9c05c137-ce73-4888-83ec-51c9674942d3","ios":"levelo://app?vid=9c05c137-ce73-4888-83ec-51c9674942d3"},"vehicle_type_id":"4","last_reported":1740672764,"current_range_meters":12000,"station_id":"ce4bgr92rcd13ifvqc6g","pricing_plan_id":"cebpf4jnsgd1na2vs0mg"},{"bike_id":"0a3a40b9-ef61-4fd7-bbd9-c13123c4cf06","system_id":"levelo_inurba_marseille","lat":43.27621,"lon":5.36104,"is_reserved":false,"is_disabled":false,"rental_uris":{"android":"levelo://app?vid=0a3a40b9-ef61-4fd7-bbd9-c13123c4cf06","ios":"levelo://app?vid=0a3a40b9-ef61-4fd7-bbd9-c13123c4cf06"},"vehicle_type_id":"4","last_reported":1740672764,"current_range_meters":12000,"station_id":"ce4bgj92rcd13ifvqbe0","pricing_plan_id":"cebpf4jnsgd1na2vs0mg"},{"bike_id":"afae3fed-62bf-4d7b-acd3-9f9d7f96b3e6","system_id":"levelo_inurba_marseille","lat":43.29198,"lon":5.3932,"is_reserved":false,"is_disabled":false,"rental_uris":{"android":"levelo://app?vid=afae3fed-62bf-4d7b-acd3-9f9d7f96b3e6","ios":"levelo://app?vid=afae3fed-62bf-4d7b-acd3-9f9d7f96b3e6"},"vehicle_type_id":"4","last_reported":1740672764,"current_range_meters":12000,"station_id":"ce4bh192rcd13ifvqdd0","pricing_plan_id":"cebpf4jnsgd1na2vs0mg"},{"bike_id":"8d106a55-62e0-4c11-8627-92ac9349a131","system_id":"levelo_inurba_marseille","lat":43.33029,"lon":5.39049,"is_reserved":false,"is_disabled":false,"rental_uris":{"android":"levelo://app?vid=8d106a55-62e0-4c11-8627-92ac9349a131","ios":"levelo://app?vid=8d106a55-62e0-4c11-8627-92ac9349a131"},"vehicle_type_id":"4","last_reported":1740672764,"current_range_meters":12400,"station_id":"ce4bhr92rcd13ifvqhrg","pricing_plan_id":"cebpf4jnsgd1na2vs0mg"},{"bike_id":"fcaf2a33-a63b-447f-85e9-4ff37fb581b6","system_id":"levelo_inurba_marseille","lat":43.29526,"lon":5.39042,"is_reserved":false,"is_disabled":false,"rental_uris":{"android":"levelo://app?vid=fcaf2a33-a63b-447f-85e9-4ff37fb581b6","ios":"levelo://app?vid=fcaf2a33-a63b-447f-85e9-4ff37fb581b6"},"vehicle_type_id":"4","last_reported":1740672764,"current_range_meters":12400,"station_id":"ce4bh3p2rcd13ifvqdp0","pricing_plan_id":"cebpf4jnsgd1na2vs0mg"},{"bike_id":"b1abd704-283d-4f44-a6f6-c162360f7b32","system_id":"levelo_inurba_marseille","lat":43.3172,"lon":5.43717,"is_reserved":false,"is_disabled":false,"rental_uris":{"android":"levelo://app?vid=b1abd704-283d-4f44-a6f6-c162360f7b32","ios":"levelo://app?vid=b1abd704-283d-4f44-a6f6-c162360f7b32"},"vehicle_type_id":"4","last_reported":1740672764,"current_range_meters":12800,"station_id":"ce4bhp92rcd13ifvqhcg","pricing_plan_id":"cebpf4jnsgd1na2vs0mg"},{"bike_id":"6cedaf53-bc56-45d7-bcd1-f9329232a374","system_id":"levelo_inurba_marseille","lat":43.32292,"lon":5.38273,"is_reserved":false,"is_disabled":false,"rental_uris":{"android":"levelo://app?vid=6cedaf53-bc56-45d7-bcd1-f9329232a374","ios":"levelo://app?vid=6cedaf53-bc56-45d7-bcd1-f9329232a374"},"vehicle_type_id":"4","last_reported":1740672764,"current_range_meters":12000,"station_id":"ce4bhr12rcd13ifvqhqg","pricing_plan_id":"cebpf4jnsgd1na2vs0mg"},{"bike_id":"cd4d9049-abcc-431c-b86e-60bcc7e02934","system_id":"levelo_inurba_marseille","lat":43.29823,"lon":5.3638,"is_reserved":false,"is_disabled":false,"rental_uris":{"android":"levelo://app?vid=cd4d9049-abcc-431c-b86e-60bcc7e02934","ios":"levelo://app?vid=cd4d9049-abcc-431c-b86e-60bcc7e02934"},"vehicle_type_id":"4","last_reported":1740672764,"current_range_meters":12400,"station_id":"ce4bgpp2rcd13ifvqc3g","pricing_plan_id":"cebpf4jnsgd1na2vs0mg"},{"bike_id":"0f2abc8e-0846-42bf-87d9-061743ab7b4a","system_id":"levelo_inurba_marseille","lat":43.23202,"lon":5.35536,"is_reserved":false,"is_disabled":false,"rental_uris":{"android":"levelo://app?vid=0f2abc8e-0846-42bf-87d9-061743ab7b4a","ios":"levelo://app?vid=0f2abc8e-0846-42bf-87d9-061743ab7b4a"},"vehicle_type_id":"4","last_reported":1740672764,"current_range_meters":12400,"station_id":"ce4bhu92rcd13ifvqi70","pricing_plan_id":"cebpf4jnsgd1na2vs0mg"},{"bike_id":"e3d92921-05db-4e9d-bb66-c2ce1e6a7ad4","system_id":"levelo_inurba_marseille","lat":43.26204,"lon":5.37926,"is_reserved":false,"is_disabled":false,"rental_uris":{"android":"levelo://app?vid=e3d92921-05db-4e9d-bb66-c2ce1e6a7ad4","ios":"levelo://app?vid=e3d92921-05db-4e9d-bb66-c2ce1e6a7ad4"},"vehicle_type_id":"4","last_reported":1740672764,"current_range_meters":12400,"station_id":"ce4bhjp2rcd13ifvqg90","pricing_plan_id":"cebpf4jnsgd1na2vs0mg"},{"bike_id":"443370dd-f8b8-457a-b6f8-389b804ff6fc","system_id":"levelo_inurba_marseille","lat":43.32349,"lon":5.38897,"is_reserved":false,"is_disabled":false,"rental_uris":{"android":"levelo://app?vid=443370dd-f8b8-457a-b6f8-389b804ff6fc","ios":"levelo://app?vid=443370dd-f8b8-457a-b6f8-389b804ff6fc"},"vehicle_type_id":"4","last_reported":1740672764,"current_range_meters":12800,"station_id":"ce4bhqp2rcd13ifvqhog","pricing_plan_id":"cebpf4jnsgd1na2vs0mg"},{"bike_id":"f5fb6e33-19c7-4547-8cd5-e8c9636745b1","system_id":"levelo_inurba_marseille","lat":43.27905,"lon":5.38012,"is_reserved":false,"is_disabled":false,"rental_uris":{"android":"levelo://app?vid=f5fb6e33-19c7-4547-8cd5-e8c9636745b1","ios":"levelo://app?vid=f5fb6e33-19c7-4547-8cd5-e8c9636745b1"},"vehicle_type_id":"4","last_reported":1740672764,"current_range_meters":12000,"station_id":"ce4bhf92rcd13ifvqf50","pricing_plan_id":"cebpf4jnsgd1na2vs0mg"},{"bike_id":"d155a60d-e183-4f8b-b4af-d008a652110f","system_id":"levelo_inurba_marseille","lat":43.29843,"lon":5.36278,"is_reserved":false,"is_disabled":false,"rental_uris":{"android":"levelo://app?vid=d155a60d-e183-4f8b-b4af-d008a652110f","ios":"levelo://app?vid=d155a60d-e183-4f8b-b4af-d008a652110f"},"vehicle_type_id":"4","last_reported":1740672764,"current_range_meters":12800,"station_id":"ce4bgpp2rcd13ifvqc3g","pricing_plan_id":"cebpf4jnsgd1na2vs0mg"},{"bike_id":"3de9aeda-1f9a-4bbc-8b90-e02a49e56ca9","system_id":"levelo_inurba_marseille","lat":43.23193,"lon":5.35559,"is_reserved":false,"is_disabled":false,"rental_uris":{"android":"levelo://app?vid=3de9aeda-1f9a-4bbc-8b90-e02a49e56ca9","ios":"levelo://app?vid=3de9aeda-1f9a-4bbc-8b90-e02a49e56ca9"},"vehicle_type_id":"4","last_reported":1740672764,"current_range_meters":13600,"station_id":"ce4bhu92rcd13ifvqi70","pricing_plan_id":"cebpf4jnsgd1na2vs0mg"},{"bike_id":"0de4ecd5-8cf0-413a-b891-bfd7f33764d9","system_id":"levelo_inurba_marseille","lat":43.31996,"lon":5.38149,"is_reserved":false,"is_disabled":false,"rental_uris":{"android":"levelo://app?vid=0de4ecd5-8cf0-413a-b891-bfd7f33764d9","ios":"levelo://app?vid=0de4ecd5-8cf0-413a-b891-bfd7f33764d9"},"vehicle_type_id":"4","last_reported":1740672764,"current_range_meters":11200,"station_id":"ce4bhr12rcd13ifvqhpg","pricing_plan_id":"cebpf4jnsgd1na2vs0mg"},{"bike_id":"8dc9e8af-e2b6-45cc-90a3-34fd145b19e9","system_id":"levelo_inurba_marseille","lat":43.31698,"lon":5.37796,"is_reserved":false,"is_disabled":false,"rental_uris":{"android":"levelo://app?vid=8dc9e8af-e2b6-45cc-90a3-34fd145b19e9","ios":"levelo://app?vid=8dc9e8af-e2b6-45cc-90a3-34fd145b19e9"},"vehicle_type_id":"4","last_reported":1740672764,"current_range_meters":12800,"station_id":"ce4bgth2rcd13ifvqch0","pricing_plan_id":"cebpf4jnsgd1na2vs0mg"},{"bike_id":"fb70dea8-fe5e-4f29-a636-7a21a96df401","system_id":"levelo_inurba_marseille","lat":43.255807,"lon":5.382347,"is_reserved":false,"is_disabled":false,"rental_uris":{"android":"levelo://app?vid=fb70dea8-fe5e-4f29-a636-7a21a96df401","ios":"levelo://app?vid=fb70dea8-fe5e-4f29-a636-7a21a96df401"},"vehicle_type_id":"4","last_reported":1740672764,"current_range_meters":14000,"station_id":"ce4bhih2rcd13ifvqfs0","pricing_plan_id":"cebpf4jnsgd1na2vs0mg"},{"bike_id":"58f350d8-ccb4-4d78-8b4e-fff65cafbffa","system_id":"levelo_inurba_marseille","lat":43.2978,"lon":5.371,"is_reserved":false,"is_disabled":false,"rental_uris":{"android":"levelo://app?vid=58f350d8-ccb4-4d78-8b4e-fff65cafbffa","ios":"levelo://app?vid=58f350d8-ccb4-4d78-8b4e-fff65cafbffa"},"vehicle_type_id":"4","last_reported":1740672764,"current_range_meters":13600,"station_id":"ce4bgop2rcd13ifvqc1g","pricing_plan_id":"cebpf4jnsgd1na2vs0mg"},{"bike_id":"1393e48a-5096-48c2-8ef4-ef737b7b43ae","system_id":"levelo_inurba_marseille","lat":43.25087,"lon":5.39529,"is_reserved":false,"is_disabled":false,"rental_uris":{"android":"levelo://app?vid=1393e48a-5096-48c2-8ef4-ef737b7b43ae","ios":"levelo://app?vid=1393e48a-5096-48c2-8ef4-ef737b7b43ae"},"vehicle_type_id":"4","last_reported":1740672764,"current_range_meters":14000,"station_id":"ce4bhm12rcd13ifvqgkg","pricing_plan_id":"cebpf4jnsgd1na2vs0mg"},{"bike_id":"69737379-6e25-4faf-a169-8b9fd8d12db3","system_id":"levelo_inurba_marseille","lat":43.25496,"lon":5.37651,"is_reserved":false,"is_disabled":false,"rental_uris":{"android":"levelo://app?vid=69737379-6e25-4faf-a169-8b9fd8d12db3","ios":"levelo://app?vid=69737379-6e25-4faf-a169-8b9fd8d12db3"},"vehicle_type_id":"4","last_reported":1740672764,"current_range_meters":14000,"station_id":"ce4bhh12rcd13ifvqff0","pricing_plan_id":"cebpf4jnsgd1na2vs0mg"},{"bike_id":"3e77ecee-8d85-493f-9e63-cf7323c34875","system_id":"levelo_inurba_marseille","lat":43.31064,"lon":5.400951,"is_reserved":false,"is_disabled":false,"rental_uris":{"android":"levelo://app?vid=3e77ecee-8d85-493f-9e63-cf7323c34875","ios":"levelo://app?vid=3e77ecee-8d85-493f-9e63-cf7323c34875"},"vehicle_type_id":"4","last_reported":1740672764,"current_range_meters":14000,"station_id":"ce4bh092rcd13ifvqd30","pricing_plan_id":"cebpf4jnsgd1na2vs0mg"},{"bike_id":"9750b47d-790a-412a-877d-2d76b3350e12","system_id":"levelo_inurba_marseille","lat":43.28456,"lon":5.3589,"is_reserved":false,"is_disabled":false,"rental_uris":{"android":"levelo://app?vid=9750b47d-790a-412a-877d-2d76b3350e12","ios":"levelo://app?vid=9750b47d-790a-412a-877d-2d76b3350e12"},"vehicle_type_id":"4","last_reported":1740672764,"current_range_meters":14000,"station_id":"ce4bhah2rcd13ifvqei0","pricing_plan_id":"cebpf4jnsgd1na2vs0mg"},{"bike_id":"201b43e1-9166-4b93-9ecb-211bb1985890","system_id":"levelo_inurba_marseille","lat":43.32364,"lon":5.36781,"is_reserved":false,"is_disabled":false,"rental_uris":{"android":"levelo://app?vid=201b43e1-9166-4b93-9ecb-211bb1985890","ios":"levelo://app?vid=201b43e1-9166-4b93-9ecb-211bb1985890"},"vehicle_type_id":"4","last_reported":1740672764,"current_range_meters":14000,"station_id":"ce4bhsh2rcd13ifvqi2g","pricing_plan_id":"cebpf4jnsgd1na2vs0mg"},{"bike_id":"5169bf4e-5ac4-4560-9d3b-f48581611c45","system_id":"levelo_inurba_marseille","lat":43.25102,"lon":5.39529,"is_reserved":false,"is_disabled":false,"rental_uris":{"android":"levelo://app?vid=5169bf4e-5ac4-4560-9d3b-f48581611c45","ios":"levelo://app?vid=5169bf4e-5ac4-4560-9d3b-f48581611c45"},"vehicle_type_id":"4","last_reported":1740672764,"current_range_meters":14000,"station_id":"ce4bhm12rcd13ifvqgkg","pricing_plan_id":"cebpf4jnsgd1na2vs0mg"},{"bike_id":"3366b738-f65a-40e5-be9c-0cc45967115c","system_id":"levelo_inurba_marseille","lat":43.2468,"lon":5.38187,"is_reserved":false,"is_disabled":false,"rental_uris":{"android":"levelo://app?vid=3366b738-f65a-40e5-be9c-0cc45967115c","ios":"levelo://app?vid=3366b738-f65a-40e5-be9c-0cc45967115c"},"vehicle_type_id":"4","last_reported":1740672764,"current_range_meters":14000,"station_id":"ce4bhih2rcd13ifvqfr0","pricing_plan_id":"cebpf4jnsgd1na2vs0mg"},{"bike_id":"6bf62df5-9f2c-4676-be2e-3425368f3119","system_id":"levelo_inurba_marseille","lat":43.29331,"lon":5.38233,"is_reserved":false,"is_disabled":false,"rental_uris":{"android":"levelo://app?vid=6bf62df5-9f2c-4676-be2e-3425368f3119","ios":"levelo://app?vid=6bf62df5-9f2c-4676-be2e-3425368f3119"},"vehicle_type_id":"4","last_reported":1740672764,"current_range_meters":14000,"station_id":"","pricing_plan_id":"cebpf4jnsgd1na2vs0mg"},{"bike_id":"07a70f40-d064-434b-83aa-228acdf7dd53","system_id":"levelo_inurba_marseille","lat":43.23183,"lon":5.39988,"is_reserved":false,"is_disabled":false,"rental_uris":{"android":"levelo://app?vid=07a70f40-d064-434b-83aa-228acdf7dd53","ios":"levelo://app?vid=07a70f40-d064-434b-83aa-228acdf7dd53"},"vehicle_type_id":"4","last_reported":1740672764,"current_range_meters":14400,"station_id":"ce4bhn12rcd13ifvqgqg","pricing_plan_id":"cebpf4jnsgd1na2vs0mg"},{"bike_id":"d53fb70a-6708-4ff2-a2f4-4d1115ea53f1","system_id":"levelo_inurba_marseille","lat":43.29715,"lon":5.36605,"is_reserved":false,"is_disabled":false,"rental_uris":{"android":"levelo://app?vid=d53fb70a-6708-4ff2-a2f4-4d1115ea53f1","ios":"levelo://app?vid=d53fb70a-6708-4ff2-a2f4-4d1115ea53f1"},"vehicle_type_id":"4","last_reported":1740672764,"current_range_meters":14400,"station_id":"ce4bgn12rcd13ifvqbt0","pricing_plan_id":"cebpf4jnsgd1na2vs0mg"},{"bike_id":"d5aad3e8-02b2-476c-9f57-d3a9e8986c47","system_id":"levelo_inurba_marseille","lat":43.287,"lon":5.37398,"is_reserved":false,"is_disabled":false,"rental_uris":{"android":"levelo://app?vid=d5aad3e8-02b2-476c-9f57-d3a9e8986c47","ios":"levelo://app?vid=d5aad3e8-02b2-476c-9f57-d3a9e8986c47"},"vehicle_type_id":"4","last_reported":1740672764,"current_range_meters":16000,"station_id":"ce4bh3p2rcd13ifvqdq0","pricing_plan_id":"cebpf4jnsgd1na2vs0mg"},{"bike_id":"5b28cd77-a409-482f-8702-f764eef9151e","system_id":"levelo_inurba_marseille","lat":43.259313,"lon":5.40908,"is_reserved":false,"is_disabled":true,"rental_uris":{"android":"levelo://app?vid=5b28cd77-a409-482f-8702-f764eef9151e","ios":"levelo://app?vid=5b28cd77-a409-482f-8702-f764eef9151e"},"vehicle_type_id":"4","last_reported":1740672764,"current_range_meters":14800,"station_id":"ce4bhm92rcd13ifvqglg","pricing_plan_id":"cebpf4jnsgd1na2vs0mg"},{"bike_id":"2bc6b0c1-7127-4e48-b7f5-50a3d89bfd6a","system_id":"levelo_inurba_marseille","lat":43.30909,"lon":5.37242,"is_reserved":false,"is_disabled":false,"rental_uris":{"android":"levelo://app?vid=2bc6b0c1-7127-4e48-b7f5-50a3d89bfd6a","ios":"levelo://app?vid=2bc6b0c1-7127-4e48-b7f5-50a3d89bfd6a"},"vehicle_type_id":"4","last_reported":1740672764,"current_range_meters":14400,"station_id":"","pricing_plan_id":"cebpf4jnsgd1na2vs0mg"},{"bike_id":"7cf7b894-d393-4f1a-903c-6b57f99cdc54","system_id":"levelo_inurba_marseille","lat":43.26389,"lon":5.38437,"is_reserved":false,"is_disabled":false,"rental_uris":{"android":"levelo://app?vid=7cf7b894-d393-4f1a-903c-6b57f99cdc54","ios":"levelo://app?vid=7cf7b894-d393-4f1a-903c-6b57f99cdc54"},"vehicle_type_id":"4","last_reported":1740672764,"current_range_meters":14800,"station_id":"","pricing_plan_id":"cebpf4jnsgd1na2vs0mg"},{"bike_id":"1710d291-87ed-4dfc-815c-55a1fdcb49d0","system_id":"levelo_inurba_marseille","lat":43.26553,"lon":5.37278,"is_reserved":false,"is_disabled":false,"rental_uris":{"android":"levelo://app?vid=1710d291-87ed-4dfc-815c-55a1fdcb49d0","ios":"levelo://app?vid=1710d291-87ed-4dfc-815c-55a1fdcb49d0"},"vehicle_type_id":"4","last_reported":1740672764,"current_range_meters":14800,"station_id":"ce4bhg12rcd13ifvqf70","pricing_plan_id":"cebpf4jnsgd1na2vs0mg"},{"bike_id":"64fa9dac-7291-4281-b4d6-d60e9b89cc6e","system_id":"levelo_inurba_marseille","lat":43.301266,"lon":5.398532,"is_reserved":false,"is_disabled":false,"rental_uris":{"android":"levelo://app?vid=64fa9dac-7291-4281-b4d6-d60e9b89cc6e","ios":"levelo://app?vid=64fa9dac-7291-4281-b4d6-d60e9b89cc6e"},"vehicle_type_id":"4","last_reported":1740672764,"current_range_meters":14800,"station_id":"ce4bh0h2rcd13ifvqd40","pricing_plan_id":"cebpf4jnsgd1na2vs0mg"},{"bike_id":"20d08730-d04f-482a-9ed2-1d3e29b92784","system_id":"levelo_inurba_marseille","lat":43.32366,"lon":5.38882,"is_reserved":false,"is_disabled":false,"rental_uris":{"android":"levelo://app?vid=20d08730-d04f-482a-9ed2-1d3e29b92784","ios":"levelo://app?vid=20d08730-d04f-482a-9ed2-1d3e29b92784"},"vehicle_type_id":"4","last_reported":1740672764,"current_range_meters":14800,"station_id":"ce4bhqp2rcd13ifvqhog","pricing_plan_id":"cebpf4jnsgd1na2vs0mg"},{"bike_id":"6f08793c-0e13-4755-8250-eb14e46e9c0b","system_id":"levelo_inurba_marseille","lat":43.23179,"lon":5.39987,"is_reserved":false,"is_disabled":false,"rental_uris":{"android":"levelo://app?vid=6f08793c-0e13-4755-8250-eb14e46e9c0b","ios":"levelo://app?vid=6f08793c-0e13-4755-8250-eb14e46e9c0b"},"vehicle_type_id":"4","last_reported":1740672764,"current_range_meters":14800,"station_id":"ce4bhn12rcd13ifvqgqg","pricing_plan_id":"cebpf4jnsgd1na2vs0mg"},{"bike_id":"ef77bf7f-5b88-41c9-8d3b-c8c9c0447dd9","system_id":"levelo_inurba_marseille","lat":43.28079,"lon":5.35029,"is_reserved":false,"is_disabled":false,"rental_uris":{"android":"levelo://app?vid=ef77bf7f-5b88-41c9-8d3b-c8c9c0447dd9","ios":"levelo://app?vid=ef77bf7f-5b88-41c9-8d3b-c8c9c0447dd9"},"vehicle_type_id":"4","last_reported":1740672764,"current_range_meters":15200,"station_id":"","pricing_plan_id":"cebpf4jnsgd1na2vs0mg"},{"bike_id":"d4918d6a-5525-4be8-b0c4-7af64b54343d","system_id":"levelo_inurba_marseille","lat":43.24169,"lon":5.36403,"is_reserved":false,"is_disabled":false,"rental_uris":{"android":"levelo://app?vid=d4918d6a-5525-4be8-b0c4-7af64b54343d","ios":"levelo://app?vid=d4918d6a-5525-4be8-b0c4-7af64b54343d"},"vehicle_type_id":"4","last_reported":1740672764,"current_range_meters":15200,"station_id":"cpo36qri1sfpv3e86is0","pricing_plan_id":"cebpf4jnsgd1na2vs0mg"},{"bike_id":"0f665076-3e0b-47a6-8189-e37583df5925","system_id":"levelo_inurba_marseille","lat":43.29268,"lon":5.37611,"is_reserved":false,"is_disabled":false,"rental_uris":{"android":"levelo://app?vid=0f665076-3e0b-47a6-8189-e37583df5925","ios":"levelo://app?vid=0f665076-3e0b-47a6-8189-e37583df5925"},"vehicle_type_id":"4","last_reported":1740672764,"current_range_meters":15200,"station_id":"ce4bgi12rcd13ifvqb80","pricing_plan_id":"cebpf4jnsgd1na2vs0mg"},{"bike_id":"ffe554ba-eafb-4f14-8da1-1a15747a2162","system_id":"levelo_inurba_marseille","lat":43.31529,"lon":5.38038,"is_reserved":false,"is_disabled":false,"rental_uris":{"android":"levelo://app?vid=ffe554ba-eafb-4f14-8da1-1a15747a2162","ios":"levelo://app?vid=ffe554ba-eafb-4f14-8da1-1a15747a2162"},"vehicle_type_id":"4","last_reported":1740672764,"current_range_meters":16000,"station_id":"ce4bhsp2rcd13ifvqi50","pricing_plan_id":"cebpf4jnsgd1na2vs0mg"},{"bike_id":"9f9ae18c-42e6-42f9-a914-d7c3689b2424","system_id":"levelo_inurba_marseille","lat":43.25868,"lon":5.39906,"is_reserved":false,"is_disabled":false,"rental_uris":{"android":"levelo://app?vid=9f9ae18c-42e6-42f9-a914-d7c3689b2424","ios":"levelo://app?vid=9f9ae18c-42e6-42f9-a914-d7c3689b2424"},"vehicle_type_id":"4","last_reported":1740672764,"current_range_meters":16000,"station_id":"ce4bhl92rcd13ifvqghg","pricing_plan_id":"cebpf4jnsgd1na2vs0mg"},{"bike_id":"7562303f-eb2b-41bb-be54-db23a576d5e8","system_id":"levelo_inurba_marseille","lat":43.28621,"lon":5.35107,"is_reserved":false,"is_disabled":false,"rental_uris":{"android":"levelo://app?vid=7562303f-eb2b-41bb-be54-db23a576d5e8","ios":"levelo://app?vid=7562303f-eb2b-41bb-be54-db23a576d5e8"},"vehicle_type_id":"4","last_reported":1740672764,"current_range_meters":16000,"station_id":"ce4bhch2rcd13ifvqeug","pricing_plan_id":"cebpf4jnsgd1na2vs0mg"},{"bike_id":"e1a8ee5b-3bd1-4e34-9d45-b3fba6bd326f","system_id":"levelo_inurba_marseille","lat":43.29714,"lon":5.36618,"is_reserved":false,"is_disabled":false,"rental_uris":{"android":"levelo://app?vid=e1a8ee5b-3bd1-4e34-9d45-b3fba6bd326f","ios":"levelo://app?vid=e1a8ee5b-3bd1-4e34-9d45-b3fba6bd326f"},"vehicle_type_id":"4","last_reported":1740672764,"current_range_meters":16000,"station_id":"ce4bgn12rcd13ifvqbt0","pricing_plan_id":"cebpf4jnsgd1na2vs0mg"},{"bike_id":"a2035f8a-71d6-4907-9d48-9df7f337d1f0","system_id":"levelo_inurba_marseille","lat":43.314,"lon":5.36751,"is_reserved":false,"is_disabled":false,"rental_uris":{"android":"levelo://app?vid=a2035f8a-71d6-4907-9d48-9df7f337d1f0","ios":"levelo://app?vid=a2035f8a-71d6-4907-9d48-9df7f337d1f0"},"vehicle_type_id":"4","last_reported":1740672764,"current_range_meters":16000,"station_id":"","pricing_plan_id":"cebpf4jnsgd1na2vs0mg"},{"bike_id":"3f5e4c77-943b-4a46-b257-614bf13afec4","system_id":"levelo_inurba_marseille","lat":43.2417,"lon":5.36398,"is_reserved":false,"is_disabled":false,"rental_uris":{"android":"levelo://app?vid=3f5e4c77-943b-4a46-b257-614bf13afec4","ios":"levelo://app?vid=3f5e4c77-943b-4a46-b257-614bf13afec4"},"vehicle_type_id":"4","last_reported":1740672764,"current_range_meters":16000,"station_id":"cpo36qri1sfpv3e86is0","pricing_plan_id":"cebpf4jnsgd1na2vs0mg"},{"bike_id":"7933b0af-c841-449b-8174-a13a80d57c03","system_id":"levelo_inurba_marseille","lat":43.28484,"lon":5.38558,"is_reserved":false,"is_disabled":false,"rental_uris":{"android":"levelo://app?vid=7933b0af-c841-449b-8174-a13a80d57c03","ios":"levelo://app?vid=7933b0af-c841-449b-8174-a13a80d57c03"},"vehicle_type_id":"4","last_reported":1740672764,"current_range_meters":16000,"station_id":"ce4bh8p2rcd13ifvqeb0","pricing_plan_id":"cebpf4jnsgd1na2vs0mg"},{"bike_id":"87f4694a-7002-40c0-9a0e-2123fd36309b","system_id":"levelo_inurba_marseille","lat":43.2903,"lon":5.35608,"is_reserved":false,"is_disabled":false,"rental_uris":{"android":"levelo://app?vid=87f4694a-7002-40c0-9a0e-2123fd36309b","ios":"levelo://app?vid=87f4694a-7002-40c0-9a0e-2123fd36309b"},"vehicle_type_id":"4","last_reported":1740672764,"current_range_meters":16000,"station_id":"ce4bhb92rcd13ifvqen0","pricing_plan_id":"cebpf4jnsgd1na2vs0mg"},{"bike_id":"7176439f-8af6-4f04-a9f9-b9a92d932624","system_id":"levelo_inurba_marseille","lat":43.26808,"lon":5.40273,"is_reserved":false,"is_disabled":false,"rental_uris":{"android":"levelo://app?vid=7176439f-8af6-4f04-a9f9-b9a92d932624","ios":"levelo://app?vid=7176439f-8af6-4f04-a9f9-b9a92d932624"},"vehicle_type_id":"4","last_reported":1740672764,"current_range_meters":16000,"station_id":"ce501612rcd8frsf0b60","pricing_plan_id":"cebpf4jnsgd1na2vs0mg"},{"bike_id":"43d6aa6f-20c7-4a1b-bcb8-31b660876567","system_id":"levelo_inurba_marseille","lat":43.26556,"lon":5.37289,"is_reserved":false,"is_disabled":false,"rental_uris":{"android":"levelo://app?vid=43d6aa6f-20c7-4a1b-bcb8-31b660876567","ios":"levelo://app?vid=43d6aa6f-20c7-4a1b-bcb8-31b660876567"},"vehicle_type_id":"4","last_reported":1740672764,"current_range_meters":16400,"station_id":"ce4bhg12rcd13ifvqf70","pricing_plan_id":"cebpf4jnsgd1na2vs0mg"},{"bike_id":"13c9d9cf-4771-4bf1-9baf-9f5004d5f3c1","system_id":"levelo_inurba_marseille","lat":43.29004,"lon":5.35612,"is_reserved":false,"is_disabled":false,"rental_uris":{"android":"levelo://app?vid=13c9d9cf-4771-4bf1-9baf-9f5004d5f3c1","ios":"levelo://app?vid=13c9d9cf-4771-4bf1-9baf-9f5004d5f3c1"},"vehicle_type_id":"4","last_reported":1740672764,"current_range_meters":16400,"station_id":"ce4bhb92rcd13ifvqen0","pricing_plan_id":"cebpf4jnsgd1na2vs0mg"},{"bike_id":"1671f8f8-09b0-46a5-8e98-886861631e8a","system_id":"levelo_inurba_marseille","lat":43.292,"lon":5.35806,"is_reserved":false,"is_disabled":false,"rental_uris":{"android":"levelo://app?vid=1671f8f8-09b0-46a5-8e98-886861631e8a","ios":"levelo://app?vid=1671f8f8-09b0-46a5-8e98-886861631e8a"},"vehicle_type_id":"4","last_reported":1740672764,"current_range_meters":16400,"station_id":"ce4bhb12rcd13ifvqel0","pricing_plan_id":"cebpf4jnsgd1na2vs0mg"},{"bike_id":"54e4cf82-2db6-4081-9372-72a8b5dcedf8","system_id":"levelo_inurba_marseille","lat":43.2439,"lon":5.37061,"is_reserved":false,"is_disabled":false,"rental_uris":{"android":"levelo://app?vid=54e4cf82-2db6-4081-9372-72a8b5dcedf8","ios":"levelo://app?vid=54e4cf82-2db6-4081-9372-72a8b5dcedf8"},"vehicle_type_id":"4","last_reported":1740672764,"current_range_meters":14400,"station_id":"ce4bhhh2rcd13ifvqfk0","pricing_plan_id":"cebpf4jnsgd1na2vs0mg"},{"bike_id":"aa419ad5-9400-46b4-bb4c-3ef707237ea7","system_id":"levelo_inurba_marseille","lat":43.30416,"lon":5.4128,"is_reserved":false,"is_disabled":false,"rental_uris":{"android":"levelo://app?vid=aa419ad5-9400-46b4-bb4c-3ef707237ea7","ios":"levelo://app?vid=aa419ad5-9400-46b4-bb4c-3ef707237ea7"},"vehicle_type_id":"4","last_reported":1740672764,"current_range_meters":16400,"station_id":"ce4bhop2rcd13ifvqh8g","pricing_plan_id":"cebpf4jnsgd1na2vs0mg"},{"bike_id":"883b1ad5-4aed-4ff5-b13c-ad2c87249827","system_id":"levelo_inurba_marseille","lat":43.24807,"lon":5.37456,"is_reserved":false,"is_disabled":false,"rental_uris":{"android":"levelo://app?vid=883b1ad5-4aed-4ff5-b13c-ad2c87249827","ios":"levelo://app?vid=883b1ad5-4aed-4ff5-b13c-ad2c87249827"},"vehicle_type_id":"4","last_reported":1740672764,"current_range_meters":17200,"station_id":"ce4bhg12rcd13ifvqf60","pricing_plan_id":"cebpf4jnsgd1na2vs0mg"},{"bike_id":"ea2b38be-0aa0-443d-add1-f08f454896e3","system_id":"levelo_inurba_marseille","lat":43.24187,"lon":5.387724,"is_reserved":false,"is_disabled":false,"rental_uris":{"android":"levelo://app?vid=ea2b38be-0aa0-443d-add1-f08f454896e3","ios":"levelo://app?vid=ea2b38be-0aa0-443d-add1-f08f454896e3"},"vehicle_type_id":"4","last_reported":1740672764,"current_range_meters":17200,"station_id":"ce4bhgh2rcd13ifvqfb0","pricing_plan_id":"cebpf4jnsgd1na2vs0mg"},{"bike_id":"c0b94e29-5e1a-4026-ad79-b2dfcb7a9e31","system_id":"levelo_inurba_marseille","lat":43.30886,"lon":5.37191,"is_reserved":false,"is_disabled":false,"rental_uris":{"android":"levelo://app?vid=c0b94e29-5e1a-4026-ad79-b2dfcb7a9e31","ios":"levelo://app?vid=c0b94e29-5e1a-4026-ad79-b2dfcb7a9e31"},"vehicle_type_id":"4","last_reported":1740672764,"current_range_meters":16400,"station_id":"ce4bguh2rcd13ifvqckg","pricing_plan_id":"cebpf4jnsgd1na2vs0mg"},{"bike_id":"12367211-04f2-49b0-a68f-f3d687e5c9c9","system_id":"levelo_inurba_marseille","lat":43.26562,"lon":5.39011,"is_reserved":false,"is_disabled":false,"rental_uris":{"android":"levelo://app?vid=12367211-04f2-49b0-a68f-f3d687e5c9c9","ios":"levelo://app?vid=12367211-04f2-49b0-a68f-f3d687e5c9c9"},"vehicle_type_id":"4","last_reported":1740672764,"current_range_meters":16800,"station_id":"ce4bhe12rcd13ifvqf30","pricing_plan_id":"cebpf4jnsgd1na2vs0mg"},{"bike_id":"6c03af07-43d6-40b5-b0cf-7c33497afc57","system_id":"levelo_inurba_marseille","lat":43.28622,"lon":5.35095,"is_reserved":false,"is_disabled":false,"rental_uris":{"android":"levelo://app?vid=6c03af07-43d6-40b5-b0cf-7c33497afc57","ios":"levelo://app?vid=6c03af07-43d6-40b5-b0cf-7c33497afc57"},"vehicle_type_id":"4","last_reported":1740672764,"current_range_meters":17200,"station_id":"ce4bhch2rcd13ifvqeug","pricing_plan_id":"cebpf4jnsgd1na2vs0mg"},{"bike_id":"8d24a348-0c7d-4662-9626-0e10a20252ff","system_id":"levelo_inurba_marseille","lat":43.27318,"lon":5.39085,"is_reserved":false,"is_disabled":false,"rental_uris":{"android":"levelo://app?vid=8d24a348-0c7d-4662-9626-0e10a20252ff","ios":"levelo://app?vid=8d24a348-0c7d-4662-9626-0e10a20252ff"},"vehicle_type_id":"4","last_reported":1740672764,"current_range_meters":16800,"station_id":"ce4bhgp2rcd13ifvqfe0","pricing_plan_id":"cebpf4jnsgd1na2vs0mg"},{"bike_id":"1aea0dde-a7bb-4730-8e2c-695419b49399","system_id":"levelo_inurba_marseille","lat":43.32369,"lon":5.38885,"is_reserved":false,"is_disabled":false,"rental_uris":{"android":"levelo://app?vid=1aea0dde-a7bb-4730-8e2c-695419b49399","ios":"levelo://app?vid=1aea0dde-a7bb-4730-8e2c-695419b49399"},"vehicle_type_id":"4","last_reported":1740672764,"current_range_meters":17200,"station_id":"ce4bhqp2rcd13ifvqhog","pricing_plan_id":"cebpf4jnsgd1na2vs0mg"},{"bike_id":"b6ab9a61-8985-4d83-8f2e-45b4984d4c17","system_id":"levelo_inurba_marseille","lat":43.29244,"lon":5.3762,"is_reserved":false,"is_disabled":false,"rental_uris":{"android":"levelo://app?vid=b6ab9a61-8985-4d83-8f2e-45b4984d4c17","ios":"levelo://app?vid=b6ab9a61-8985-4d83-8f2e-45b4984d4c17"},"vehicle_type_id":"4","last_reported":1740672764,"current_range_meters":17200,"station_id":"ce4bgi12rcd13ifvqb80","pricing_plan_id":"cebpf4jnsgd1na2vs0mg"},{"bike_id":"367622df-8cff-4183-9f9a-9fb9cb463dab","system_id":"levelo_inurba_marseille","lat":43.30327,"lon":5.40435,"is_reserved":false,"is_disabled":false,"rental_uris":{"android":"levelo://app?vid=367622df-8cff-4183-9f9a-9fb9cb463dab","ios":"levelo://app?vid=367622df-8cff-4183-9f9a-9fb9cb463dab"},"vehicle_type_id":"4","last_reported":1740672764,"current_range_meters":17200,"station_id":"ce4bh012rcd13ifvqd10","pricing_plan_id":"cebpf4jnsgd1na2vs0mg"},{"bike_id":"6d428432-8be2-47ad-b84d-a58bf7f395bd","system_id":"levelo_inurba_marseille","lat":43.289466,"lon":5.364044,"is_reserved":false,"is_disabled":false,"rental_uris":{"android":"levelo://app?vid=6d428432-8be2-47ad-b84d-a58bf7f395bd","ios":"levelo://app?vid=6d428432-8be2-47ad-b84d-a58bf7f395bd"},"vehicle_type_id":"4","last_reported":1740672764,"current_range_meters":17200,"station_id":"ce4bhc92rcd13ifvqetg","pricing_plan_id":"cebpf4jnsgd1na2vs0mg"},{"bike_id":"347788db-bfcf-4e71-b35c-a65a5eb2a1f0","system_id":"levelo_inurba_marseille","lat":43.24681,"lon":5.38161,"is_reserved":false,"is_disabled":false,"rental_uris":{"android":"levelo://app?vid=347788db-bfcf-4e71-b35c-a65a5eb2a1f0","ios":"levelo://app?vid=347788db-bfcf-4e71-b35c-a65a5eb2a1f0"},"vehicle_type_id":"4","last_reported":1740672764,"current_range_meters":17200,"station_id":"ce4bhih2rcd13ifvqfr0","pricing_plan_id":"cebpf4jnsgd1na2vs0mg"},{"bike_id":"0669c6f9-11e2-4b7b-b5bb-978683a9657b","system_id":"levelo_inurba_marseille","lat":43.24651,"lon":5.38907,"is_reserved":false,"is_disabled":false,"rental_uris":{"android":"levelo://app?vid=0669c6f9-11e2-4b7b-b5bb-978683a9657b","ios":"levelo://app?vid=0669c6f9-11e2-4b7b-b5bb-978683a9657b"},"vehicle_type_id":"4","last_reported":1740672764,"current_range_meters":16800,"station_id":"ce4bhg12rcd13ifvqf60","pricing_plan_id":"cebpf4jnsgd1na2vs0mg"},{"bike_id":"51aa4d20-d640-43ec-8b74-f94b7901c2b9","system_id":"levelo_inurba_marseille","lat":43.28463,"lon":5.35889,"is_reserved":false,"is_disabled":false,"rental_uris":{"android":"levelo://app?vid=51aa4d20-d640-43ec-8b74-f94b7901c2b9","ios":"levelo://app?vid=51aa4d20-d640-43ec-8b74-f94b7901c2b9"},"vehicle_type_id":"4","last_reported":1740672764,"current_range_meters":17200,"station_id":"ce4bhah2rcd13ifvqei0","pricing_plan_id":"cebpf4jnsgd1na2vs0mg"},{"bike_id":"a9757b2e-0188-4e2f-9062-079c74f7d4d4","system_id":"levelo_inurba_marseille","lat":43.25593,"lon":5.38192,"is_reserved":false,"is_disabled":false,"rental_uris":{"android":"levelo://app?vid=a9757b2e-0188-4e2f-9062-079c74f7d4d4","ios":"levelo://app?vid=a9757b2e-0188-4e2f-9062-079c74f7d4d4"},"vehicle_type_id":"4","last_reported":1740672764,"current_range_meters":17200,"station_id":"ce4bhih2rcd13ifvqfs0","pricing_plan_id":"cebpf4jnsgd1na2vs0mg"},{"bike_id":"39d5d8ff-30a3-4d04-91b5-faf7a6bb6613","system_id":"levelo_inurba_marseille","lat":43.2558,"lon":5.38235,"is_reserved":false,"is_disabled":false,"rental_uris":{"android":"levelo://app?vid=39d5d8ff-30a3-4d04-91b5-faf7a6bb6613","ios":"levelo://app?vid=39d5d8ff-30a3-4d04-91b5-faf7a6bb6613"},"vehicle_type_id":"4","last_reported":1740672764,"current_range_meters":17200,"station_id":"ce4bhih2rcd13ifvqfs0","pricing_plan_id":"cebpf4jnsgd1na2vs0mg"},{"bike_id":"96aac338-5dc8-4dba-8295-b56fa5f98263","system_id":"levelo_inurba_marseille","lat":43.25079,"lon":5.39544,"is_reserved":false,"is_disabled":false,"rental_uris":{"android":"levelo://app?vid=96aac338-5dc8-4dba-8295-b56fa5f98263","ios":"levelo://app?vid=96aac338-5dc8-4dba-8295-b56fa5f98263"},"vehicle_type_id":"4","last_reported":1740672764,"current_range_meters":17200,"station_id":"ce4bhm12rcd13ifvqgkg","pricing_plan_id":"cebpf4jnsgd1na2vs0mg"},{"bike_id":"b441e3c5-6f4f-4306-99c0-fe1d0b9eec1b","system_id":"levelo_inurba_marseille","lat":43.32368,"lon":5.38881,"is_reserved":false,"is_disabled":false,"rental_uris":{"android":"levelo://app?vid=b441e3c5-6f4f-4306-99c0-fe1d0b9eec1b","ios":"levelo://app?vid=b441e3c5-6f4f-4306-99c0-fe1d0b9eec1b"},"vehicle_type_id":"4","last_reported":1740672764,"current_range_meters":17600,"station_id":"ce4bhqp2rcd13ifvqhog","pricing_plan_id":"cebpf4jnsgd1na2vs0mg"},{"bike_id":"6613423c-77e8-4902-8adf-28647a9c5f14","system_id":"levelo_inurba_marseille","lat":43.29007,"lon":5.35612,"is_reserved":false,"is_disabled":false,"rental_uris":{"android":"levelo://app?vid=6613423c-77e8-4902-8adf-28647a9c5f14","ios":"levelo://app?vid=6613423c-77e8-4902-8adf-28647a9c5f14"},"vehicle_type_id":"4","last_reported":1740672764,"current_range_meters":17200,"station_id":"ce4bhb92rcd13ifvqen0","pricing_plan_id":"cebpf4jnsgd1na2vs0mg"},{"bike_id":"24476cb6-9c12-4997-ab8d-8cfe9d8b4bb4","system_id":"levelo_inurba_marseille","lat":43.28637,"lon":5.35119,"is_reserved":false,"is_disabled":false,"rental_uris":{"android":"levelo://app?vid=24476cb6-9c12-4997-ab8d-8cfe9d8b4bb4","ios":"levelo://app?vid=24476cb6-9c12-4997-ab8d-8cfe9d8b4bb4"},"vehicle_type_id":"4","last_reported":1740672764,"current_range_meters":17600,"station_id":"ce4bhch2rcd13ifvqeug","pricing_plan_id":"cebpf4jnsgd1na2vs0mg"},{"bike_id":"24481060-5d76-4c45-8516-3e3eaacd3cc9","system_id":"levelo_inurba_marseille","lat":43.3053,"lon":5.36542,"is_reserved":false,"is_disabled":false,"rental_uris":{"android":"levelo://app?vid=24481060-5d76-4c45-8516-3e3eaacd3cc9","ios":"levelo://app?vid=24481060-5d76-4c45-8516-3e3eaacd3cc9"},"vehicle_type_id":"4","last_reported":1740672764,"current_range_meters":17600,"station_id":"ce4bgs12rcd13ifvqcag","pricing_plan_id":"cebpf4jnsgd1na2vs0mg"},{"bike_id":"0f8619b6-e92c-4e8b-b8ba-7619f28ffc79","system_id":"levelo_inurba_marseille","lat":43.23193,"lon":5.39994,"is_reserved":false,"is_disabled":false,"rental_uris":{"android":"levelo://app?vid=0f8619b6-e92c-4e8b-b8ba-7619f28ffc79","ios":"levelo://app?vid=0f8619b6-e92c-4e8b-b8ba-7619f28ffc79"},"vehicle_type_id":"4","last_reported":1740672764,"current_range_meters":17600,"station_id":"ce4bhn12rcd13ifvqgqg","pricing_plan_id":"cebpf4jnsgd1na2vs0mg"},{"bike_id":"e638250e-5e15-4842-919a-098bbb335a47","system_id":"levelo_inurba_marseille","lat":43.28723,"lon":5.37378,"is_reserved":false,"is_disabled":false,"rental_uris":{"android":"levelo://app?vid=e638250e-5e15-4842-919a-098bbb335a47","ios":"levelo://app?vid=e638250e-5e15-4842-919a-098bbb335a47"},"vehicle_type_id":"4","last_reported":1740672764,"current_range_meters":18000,"station_id":"ce4bh3p2rcd13ifvqdq0","pricing_plan_id":"cebpf4jnsgd1na2vs0mg"},{"bike_id":"219059dd-b376-42f3-99ab-25ba5ba520ba","system_id":"levelo_inurba_marseille","lat":43.28276,"lon":5.35073,"is_reserved":false,"is_disabled":false,"rental_uris":{"android":"levelo://app?vid=219059dd-b376-42f3-99ab-25ba5ba520ba","ios":"levelo://app?vid=219059dd-b376-42f3-99ab-25ba5ba520ba"},"vehicle_type_id":"4","last_reported":1740672764,"current_range_meters":17600,"station_id":"ce4bhbp2rcd13ifvqerg","pricing_plan_id":"cebpf4jnsgd1na2vs0mg"},{"bike_id":"c07e39c3-d5c6-40ad-b658-c3816368364b","system_id":"levelo_inurba_marseille","lat":43.292,"lon":5.3932,"is_reserved":false,"is_disabled":false,"rental_uris":{"android":"levelo://app?vid=c07e39c3-d5c6-40ad-b658-c3816368364b","ios":"levelo://app?vid=c07e39c3-d5c6-40ad-b658-c3816368364b"},"vehicle_type_id":"4","last_reported":1740672764,"current_range_meters":17600,"station_id":"ce4bh192rcd13ifvqdd0","pricing_plan_id":"cebpf4jnsgd1na2vs0mg"},{"bike_id":"ba6cfb0f-e1dd-495a-a82f-76e1db499b72","system_id":"levelo_inurba_marseille","lat":43.28856,"lon":5.39312,"is_reserved":false,"is_disabled":false,"rental_uris":{"android":"levelo://app?vid=ba6cfb0f-e1dd-495a-a82f-76e1db499b72","ios":"levelo://app?vid=ba6cfb0f-e1dd-495a-a82f-76e1db499b72"},"vehicle_type_id":"4","last_reported":1740672764,"current_range_meters":18800,"station_id":"ce4bh2p2rcd13ifvqdi0","pricing_plan_id":"cebpf4jnsgd1na2vs0mg"},{"bike_id":"1ec95ae8-47b1-46be-ab6f-633627e7d180","system_id":"levelo_inurba_marseille","lat":43.25084,"lon":5.39522,"is_reserved":false,"is_disabled":false,"rental_uris":{"android":"levelo://app?vid=1ec95ae8-47b1-46be-ab6f-633627e7d180","ios":"levelo://app?vid=1ec95ae8-47b1-46be-ab6f-633627e7d180"},"vehicle_type_id":"4","last_reported":1740672764,"current_range_meters":18800,"station_id":"ce4bhm12rcd13ifvqgkg","pricing_plan_id":"cebpf4jnsgd1na2vs0mg"},{"bike_id":"42613b90-f96e-41c5-8864-90dd1b35a09d","system_id":"levelo_inurba_marseille","lat":43.3236,"lon":5.36758,"is_reserved":false,"is_disabled":false,"rental_uris":{"android":"levelo://app?vid=42613b90-f96e-41c5-8864-90dd1b35a09d","ios":"levelo://app?vid=42613b90-f96e-41c5-8864-90dd1b35a09d"},"vehicle_type_id":"4","last_reported":1740672764,"current_range_meters":18000,"station_id":"ce4bhsh2rcd13ifvqi2g","pricing_plan_id":"cebpf4jnsgd1na2vs0mg"},{"bike_id":"7bcb50b9-2864-42f1-8bb1-e4b001469ac6","system_id":"levelo_inurba_marseille","lat":43.25578,"lon":5.38238,"is_reserved":false,"is_disabled":false,"rental_uris":{"android":"levelo://app?vid=7bcb50b9-2864-42f1-8bb1-e4b001469ac6","ios":"levelo://app?vid=7bcb50b9-2864-42f1-8bb1-e4b001469ac6"},"vehicle_type_id":"4","last_reported":1740672764,"current_range_meters":18800,"station_id":"ce4bhih2rcd13ifvqfs0","pricing_plan_id":"cebpf4jnsgd1na2vs0mg"},{"bike_id":"b089d5e9-b898-4c57-ad3c-3a5d23945397","system_id":"levelo_inurba_marseille","lat":43.28411,"lon":5.37514,"is_reserved":false,"is_disabled":false,"rental_uris":{"android":"levelo://app?vid=b089d5e9-b898-4c57-ad3c-3a5d23945397","ios":"levelo://app?vid=b089d5e9-b898-4c57-ad3c-3a5d23945397"},"vehicle_type_id":"4","last_reported":1740672764,"current_range_meters":18000,"station_id":"ce4bh412rcd13ifvqds0","pricing_plan_id":"cebpf4jnsgd1na2vs0mg"},{"bike_id":"4e1f0141-171e-4dda-959f-867f8c57ecc2","system_id":"levelo_inurba_marseille","lat":43.28383,"lon":5.38663,"is_reserved":false,"is_disabled":false,"rental_uris":{"android":"levelo://app?vid=4e1f0141-171e-4dda-959f-867f8c57ecc2","ios":"levelo://app?vid=4e1f0141-171e-4dda-959f-867f8c57ecc2"},"vehicle_type_id":"4","last_reported":1740672764,"current_range_meters":18000,"station_id":"ce4bh492rcd13ifvqdvg","pricing_plan_id":"cebpf4jnsgd1na2vs0mg"},{"bike_id":"09a08648-2d6f-4bd8-8ba2-f195a36f435c","system_id":"levelo_inurba_marseille","lat":43.29999,"lon":5.37431,"is_reserved":false,"is_disabled":false,"rental_uris":{"android":"levelo://app?vid=09a08648-2d6f-4bd8-8ba2-f195a36f435c","ios":"levelo://app?vid=09a08648-2d6f-4bd8-8ba2-f195a36f435c"},"vehicle_type_id":"4","last_reported":1740672764,"current_range_meters":18800,"station_id":"","pricing_plan_id":"cebpf4jnsgd1na2vs0mg"},{"bike_id":"8283dffc-17eb-41ea-981a-4c275b3e7eb9","system_id":"levelo_inurba_marseille","lat":43.29192,"lon":5.39317,"is_reserved":false,"is_disabled":false,"rental_uris":{"android":"levelo://app?vid=8283dffc-17eb-41ea-981a-4c275b3e7eb9","ios":"levelo://app?vid=8283dffc-17eb-41ea-981a-4c275b3e7eb9"},"vehicle_type_id":"4","last_reported":1740672764,"current_range_meters":18000,"station_id":"ce4bh192rcd13ifvqdd0","pricing_plan_id":"cebpf4jnsgd1na2vs0mg"},{"bike_id":"a76ac75d-f111-47b2-b332-55b20bb59711","system_id":"levelo_inurba_marseille","lat":43.2925,"lon":5.40905,"is_reserved":false,"is_disabled":false,"rental_uris":{"android":"levelo://app?vid=a76ac75d-f111-47b2-b332-55b20bb59711","ios":"levelo://app?vid=a76ac75d-f111-47b2-b332-55b20bb59711"},"vehicle_type_id":"4","last_reported":1740672764,"current_range_meters":18800,"station_id":"ce4bh192rcd13ifvqdc0","pricing_plan_id":"cebpf4jnsgd1na2vs0mg"},{"bike_id":"364b209e-752e-45ea-b26c-06b2552c1833","system_id":"levelo_inurba_marseille","lat":43.23189,"lon":5.35559,"is_reserved":false,"is_disabled":false,"rental_uris":{"android":"levelo://app?vid=364b209e-752e-45ea-b26c-06b2552c1833","ios":"levelo://app?vid=364b209e-752e-45ea-b26c-06b2552c1833"},"vehicle_type_id":"4","last_reported":1740672764,"current_range_meters":18800,"station_id":"ce4bhu92rcd13ifvqi70","pricing_plan_id":"cebpf4jnsgd1na2vs0mg"},{"bike_id":"3ee2bce9-f430-4420-98b1-75fc61921d0d","system_id":"levelo_inurba_marseille","lat":43.3053,"lon":5.3672,"is_reserved":false,"is_disabled":false,"rental_uris":{"android":"levelo://app?vid=3ee2bce9-f430-4420-98b1-75fc61921d0d","ios":"levelo://app?vid=3ee2bce9-f430-4420-98b1-75fc61921d0d"},"vehicle_type_id":"4","last_reported":1740672764,"current_range_meters":18800,"station_id":"ce4bgrp2rcd13ifvqc9g","pricing_plan_id":"cebpf4jnsgd1na2vs0mg"},{"bike_id":"d79774a6-7426-41ac-b7c6-85789974d608","system_id":"levelo_inurba_marseille","lat":43.25582,"lon":5.3823,"is_reserved":false,"is_disabled":false,"rental_uris":{"android":"levelo://app?vid=d79774a6-7426-41ac-b7c6-85789974d608","ios":"levelo://app?vid=d79774a6-7426-41ac-b7c6-85789974d608"},"vehicle_type_id":"4","last_reported":1740672764,"current_range_meters":18800,"station_id":"ce4bhih2rcd13ifvqfs0","pricing_plan_id":"cebpf4jnsgd1na2vs0mg"},{"bike_id":"dea01382-c5b2-474e-b5c7-c621d86044fb","system_id":"levelo_inurba_marseille","lat":43.3013,"lon":5.39843,"is_reserved":false,"is_disabled":false,"rental_uris":{"android":"levelo://app?vid=dea01382-c5b2-474e-b5c7-c621d86044fb","ios":"levelo://app?vid=dea01382-c5b2-474e-b5c7-c621d86044fb"},"vehicle_type_id":"4","last_reported":1740672764,"current_range_meters":20800,"station_id":"ce4bh0h2rcd13ifvqd40","pricing_plan_id":"cebpf4jnsgd1na2vs0mg"},{"bike_id":"49e9cdc7-76a5-4b66-ae2d-61c73beb73a8","system_id":"levelo_inurba_marseille","lat":43.24167,"lon":5.36424,"is_reserved":false,"is_disabled":false,"rental_uris":{"android":"levelo://app?vid=49e9cdc7-76a5-4b66-ae2d-61c73beb73a8","ios":"levelo://app?vid=49e9cdc7-76a5-4b66-ae2d-61c73beb73a8"},"vehicle_type_id":"4","last_reported":1740672764,"current_range_meters":18800,"station_id":"cpo36qri1sfpv3e86is0","pricing_plan_id":"cebpf4jnsgd1na2vs0mg"},{"bike_id":"e9bdbae0-8a4d-410d-ad63-99801402b176","system_id":"levelo_inurba_marseille","lat":43.232,"lon":5.35549,"is_reserved":false,"is_disabled":false,"rental_uris":{"android":"levelo://app?vid=e9bdbae0-8a4d-410d-ad63-99801402b176","ios":"levelo://app?vid=e9bdbae0-8a4d-410d-ad63-99801402b176"},"vehicle_type_id":"4","last_reported":1740672764,"current_range_meters":18800,"station_id":"ce4bhu92rcd13ifvqi70","pricing_plan_id":"cebpf4jnsgd1na2vs0mg"},{"bike_id":"480f3a54-f773-4d18-93d1-f8afa7b0f2dc","system_id":"levelo_inurba_marseille","lat":43.23211,"lon":5.35553,"is_reserved":false,"is_disabled":false,"rental_uris":{"android":"levelo://app?vid=480f3a54-f773-4d18-93d1-f8afa7b0f2dc","ios":"levelo://app?vid=480f3a54-f773-4d18-93d1-f8afa7b0f2dc"},"vehicle_type_id":"4","last_reported":1740672764,"current_range_meters":19200,"station_id":"ce4bhu92rcd13ifvqi70","pricing_plan_id":"cebpf4jnsgd1na2vs0mg"},{"bike_id":"03ad3760-4fe6-404e-8953-09a08dbe8936","system_id":"levelo_inurba_marseille","lat":43.29712,"lon":5.3662,"is_reserved":false,"is_disabled":false,"rental_uris":{"android":"levelo://app?vid=03ad3760-4fe6-404e-8953-09a08dbe8936","ios":"levelo://app?vid=03ad3760-4fe6-404e-8953-09a08dbe8936"},"vehicle_type_id":"4","last_reported":1740672764,"current_range_meters":19200,"station_id":"ce4bgn12rcd13ifvqbt0","pricing_plan_id":"cebpf4jnsgd1na2vs0mg"},{"bike_id":"95a48df2-41ec-4d84-994d-028fc0fae465","system_id":"levelo_inurba_marseille","lat":43.30436,"lon":5.38891,"is_reserved":false,"is_disabled":false,"rental_uris":{"android":"levelo://app?vid=95a48df2-41ec-4d84-994d-028fc0fae465","ios":"levelo://app?vid=95a48df2-41ec-4d84-994d-028fc0fae465"},"vehicle_type_id":"4","last_reported":1740672764,"current_range_meters":18800,"station_id":"ce4bgk12rcd13ifvqbi0","pricing_plan_id":"cebpf4jnsgd1na2vs0mg"},{"bike_id":"4180c4b7-849c-4682-b5dd-59f70dd898d2","system_id":"levelo_inurba_marseille","lat":43.24808,"lon":5.37453,"is_reserved":false,"is_disabled":false,"rental_uris":{"android":"levelo://app?vid=4180c4b7-849c-4682-b5dd-59f70dd898d2","ios":"levelo://app?vid=4180c4b7-849c-4682-b5dd-59f70dd898d2"},"vehicle_type_id":"4","last_reported":1740672764,"current_range_meters":19200,"station_id":"ce4bhgh2rcd13ifvqfb0","pricing_plan_id":"cebpf4jnsgd1na2vs0mg"},{"bike_id":"c4ff5cda-5a91-448f-ae8c-a73f6ff2ffd6","system_id":"levelo_inurba_marseille","lat":43.28579,"lon":5.39501,"is_reserved":false,"is_disabled":false,"rental_uris":{"android":"levelo://app?vid=c4ff5cda-5a91-448f-ae8c-a73f6ff2ffd6","ios":"levelo://app?vid=c4ff5cda-5a91-448f-ae8c-a73f6ff2ffd6"},"vehicle_type_id":"4","last_reported":1740672764,"current_range_meters":19200,"station_id":"ce4bh292rcd13ifvqdg0","pricing_plan_id":"cebpf4jnsgd1na2vs0mg"},{"bike_id":"b123f64b-f03a-4726-95b3-ef45e1ec376e","system_id":"levelo_inurba_marseille","lat":43.2841,"lon":5.37525,"is_reserved":false,"is_disabled":false,"rental_uris":{"android":"levelo://app?vid=b123f64b-f03a-4726-95b3-ef45e1ec376e","ios":"levelo://app?vid=b123f64b-f03a-4726-95b3-ef45e1ec376e"},"vehicle_type_id":"4","last_reported":1740672764,"current_range_meters":19200,"station_id":"ce4bh412rcd13ifvqds0","pricing_plan_id":"cebpf4jnsgd1na2vs0mg"},{"bike_id":"104bea41-0a7e-4445-aa7e-fe17c623059d","system_id":"levelo_inurba_marseille","lat":43.28944,"lon":5.36403,"is_reserved":false,"is_disabled":false,"rental_uris":{"android":"levelo://app?vid=104bea41-0a7e-4445-aa7e-fe17c623059d","ios":"levelo://app?vid=104bea41-0a7e-4445-aa7e-fe17c623059d"},"vehicle_type_id":"4","last_reported":1740672764,"current_range_meters":19200,"station_id":"ce4bhc92rcd13ifvqetg","pricing_plan_id":"cebpf4jnsgd1na2vs0mg"},{"bike_id":"56d5968e-6996-4163-8ce9-74dcd3703b80","system_id":"levelo_inurba_marseille","lat":43.29015,"lon":5.35615,"is_reserved":false,"is_disabled":false,"rental_uris":{"android":"levelo://app?vid=56d5968e-6996-4163-8ce9-74dcd3703b80","ios":"levelo://app?vid=56d5968e-6996-4163-8ce9-74dcd3703b80"},"vehicle_type_id":"4","last_reported":1740672764,"current_range_meters":19200,"station_id":"ce4bhb92rcd13ifvqen0","pricing_plan_id":"cebpf4jnsgd1na2vs0mg"},{"bike_id":"564fad80-404c-498b-95c9-9d01abe5a9da","system_id":"levelo_inurba_marseille","lat":43.26783,"lon":5.39418,"is_reserved":false,"is_disabled":false,"rental_uris":{"android":"levelo://app?vid=564fad80-404c-498b-95c9-9d01abe5a9da","ios":"levelo://app?vid=564fad80-404c-498b-95c9-9d01abe5a9da"},"vehicle_type_id":"4","last_reported":1740672764,"current_range_meters":19200,"station_id":"ce4bhh12rcd13ifvqfg0","pricing_plan_id":"cebpf4jnsgd1na2vs0mg"},{"bike_id":"98a598ba-3e00-4d1e-bf0a-249503687bf3","system_id":"levelo_inurba_marseille","lat":43.3052,"lon":5.36475,"is_reserved":false,"is_disabled":false,"rental_uris":{"android":"levelo://app?vid=98a598ba-3e00-4d1e-bf0a-249503687bf3","ios":"levelo://app?vid=98a598ba-3e00-4d1e-bf0a-249503687bf3"},"vehicle_type_id":"4","last_reported":1740672764,"current_range_meters":19200,"station_id":"","pricing_plan_id":"cebpf4jnsgd1na2vs0mg"},