{"last_updated":1745821380,"ttl":60,"version":"2.2","data":{"bikes":[{"bike_id":"a3196ee2-74a3-407e-b862-ae5b9196605e","system_id":"levelo_inurba_marseille","lat":43.26241,"lon":5.38777,"is_reserved":false,"is_disabled":false,"rental_uris":{"android":"levelo://app?vid=a3196ee2-74a3-407e-b862-ae5b9196605e","ios":"levelo://app?vid=a3196ee2-74a3-407e-b862-ae5b9196605e"},"vehicle_type_id":"4","last_reported":1745821380,"current_range_meters":2800,"station_id":"","pricing_plan_id":"cebpf4jnsgd1na2vs0mg"},{"bike_id":"f1c32247-5907-434f-9d9e-fa14c8d8e8b3","system_id":"levelo_inurba_marseille","lat":43.22931,"lon":5.35379,"is_reserved":false,"is_disabled":false,"rental_uris":{"android":"levelo://app?vid=f1c32247-5907-434f-9d9e-fa14c8d8e8b3","ios":"levelo://app?vid=f1c32247-5907-434f-9d9e-fa14c8d8e8b3"},"vehicle_type_id":"4","last_reported":1745821380,"current_range_meters":2800,"station_id":"cpo3532slgdg3j2ikp40","pricing_plan_id":"cebpf4jnsgd1na2vs0mg"},{"bike_id":"7e780a8e-3c07-46d2-bbe3-813914916988","system_id":"levelo_inurba_marseille","lat":43.31491,"lon":5.37312,"is_reserved":false,"is_disabled":false,"rental_uris":{"android":"levelo://app?vid=7e780a8e-3c07-46d2-bbe3-813914916988","ios":"levelo://app?vid=7e780a8e-3c07-46d2-bbe3-813914916988"},"vehicle_type_id":"4","last_reported":1745821380,"current_range_meters":3200,"station_id":"ce4bgt12rcd13ifvqcd0","pricing_plan_id":"cebpf4jnsgd1na2vs0mg"},{"bike_id":"308ce0d7-54d5-4aec-879f-da2149307f93","system_id":"levelo_inurba_marseille","lat":43.2252,"lon":5.34785,"is_reserved":false,"is_disabled":true,"rental_uris":{"android":"levelo://app?vid=308ce0d7-54d5-4aec-879f-da2149307f93","ios":"levelo://app?vid=308ce0d7-54d5-4aec-879f-da2149307f93"},"vehicle_type_id":"4","last_reported":1745821380,"current_range_meters":3600,"station_id":"st_cvj5dfep6f1abm77gieg","pricing_plan_id":"cebpf4jnsgd1na2vs0mg"},{"bike_id":"6d943d83-df2f-41fc-bb8f-a3f73ea659a5","system_id":"levelo_inurba_marseille","lat":43.30532,"lon":5.367,"is_reserved":false,"is_disabled":false,"rental_uris":{"android":"levelo://app?vid=6d943d83-df2f-41fc-bb8f-a3f73ea659a5","ios":"levelo://app?vid=6d943d83-df2f-41fc-bb8f-a3f73ea659a5"},"vehicle_type_id":"4","last_reported":1745821380,"current_range_meters":3600,"station_id":"ce4bgrp2rcd13ifvqc9g","pricing_plan_id":"cebpf4jnsgd1na2vs0mg"},{"bike_id":"a6bf1de2-7fc1-498a-baf6-103b332c2f4d","system_id":"levelo_inurba_marseille","lat":43.24182,"lon":5.3973,"is_reserved":false,"is_disabled":false,"rental_uris":{"android":"levelo://app?vid=a6bf1de2-7fc1-498a-baf6-103b332c2f4d","ios":"levelo://app?vid=a6bf1de2-7fc1-498a-baf6-103b332c2f4d"},"vehicle_type_id":"4","last_reported":1745821380,"current_range_meters":4000,"station_id":"ce4bhn12rcd13ifvqgpg","pricing_plan_id":"cebpf4jnsgd1na2vs0mg"},{"bike_id":"ddb99f1d-6f1d-4296-bde2-00ea42316cff","system_id":"levelo_inurba_marseille","lat":43.2408,"lon":5.37756,"is_reserved":false,"is_disabled":false,"rental_uris":{"android":"levelo://app?vid=ddb99f1d-6f1d-4296-bde2-00ea42316cff","ios":"levelo://app?vid=ddb99f1d-6f1d-4296-bde2-00ea42316cff"},"vehicle_type_id":"4","last_reported":1745821380,"current_range_meters":4000,"station_id":"ce4bhnp2rcd13ifvqgvg","pricing_plan_id":"cebpf4jnsgd1na2vs0mg"},{"bike_id":"dcf15a01-6840-4133-bc5b-5de56c121466","system_id":"levelo_inurba_marseille","lat":43.24079,"lon":5.37756,"is_reserved":false,"is_disabled":false,"rental_uris":{"android":"levelo://app?vid=dcf15a01-6840-4133-bc5b-5de56c121466","ios":"levelo://app?vid=dcf15a01-6840-4133-bc5b-5de56c121466"},"vehicle_type_id":"4","last_reported":1745821380,"current_range_meters":4000,"station_id":"ce4bhnp2rcd13ifvqgvg","pricing_plan_id":"cebpf4jnsgd1na2vs0mg"},{"bike_id":"042a36cf-a68c-4f02-8fbe-a3d4f36fa492","system_id":"levelo_inurba_marseille","lat":43.21198,"lon":5.35067,"is_reserved":false,"is_disabled":false,"rental_uris":{"android":"levelo://app?vid=042a36cf-a68c-4f02-8fbe-a3d4f36fa492","ios":"levelo://app?vid=042a36cf-a68c-4f02-8fbe-a3d4f36fa492"},"vehicle_type_id":"4","last_reported":1745821380,"current_range_meters":4000,"station_id":"st_cvj6sg6p6f1abm77japg","pricing_plan_id":"cebpf4jnsgd1na2vs0mg"},{"bike_id":"40169073-7ba9-4bc1-a2d3-7e0838ac0d26","system_id":"levelo_inurba_marseille","lat":43.240727,"lon":5.377573,"is_reserved":false,"is_disabled":false,"rental_uris":{"android":"levelo://app?vid=40169073-7ba9-4bc1-a2d3-7e0838ac0d26","ios":"levelo://app?vid=40169073-7ba9-4bc1-a2d3-7e0838ac0d26"},"vehicle_type_id":"4","last_reported":1745821380,"current_range_meters":4000,"station_id":"ce4bhnp2rcd13ifvqgvg","pricing_plan_id":"cebpf4jnsgd1na2vs0mg"},{"bike_id":"8d451640-89cb-45e0-ab07-dd499b578ecf","system_id":"levelo_inurba_marseille","lat":43.29031,"lon":5.39969,"is_reserved":false,"is_disabled":false,"rental_uris":{"android":"levelo://app?vid=8d451640-89cb-45e0-ab07-dd499b578ecf","ios":"levelo://app?vid=8d451640-89cb-45e0-ab07-dd499b578ecf"},"vehicle_type_id":"4","last_reported":1745821380,"current_range_meters":4400,"station_id":"ce4bh392rcd13ifvqdm0","pricing_plan_id":"cebpf4jnsgd1na2vs0mg"},{"bike_id":"c1b1b433-bcb9-4a7d-8963-3218bcdcba1e","system_id":"levelo_inurba_marseille","lat":43.23363,"lon":5.3607,"is_reserved":false,"is_disabled":false,"rental_uris":{"android":"levelo://app?vid=c1b1b433-bcb9-4a7d-8963-3218bcdcba1e","ios":"levelo://app?vid=c1b1b433-bcb9-4a7d-8963-3218bcdcba1e"},"vehicle_type_id":"4","last_reported":1745821380,"current_range_meters":4400,"station_id":"","pricing_plan_id":"cebpf4jnsgd1na2vs0mg"},{"bike_id":"a151af87-4631-4f6d-9b50-a04dd524e2d8","system_id":"levelo_inurba_marseille","lat":43.2925,"lon":5.37616,"is_reserved":false,"is_disabled":false,"rental_uris":{"android":"levelo://app?vid=a151af87-4631-4f6d-9b50-a04dd524e2d8","ios":"levelo://app?vid=a151af87-4631-4f6d-9b50-a04dd524e2d8"},"vehicle_type_id":"4","last_reported":1745821380,"current_range_meters":4400,"station_id":"ce4bgi12rcd13ifvqb80","pricing_plan_id":"cebpf4jnsgd1na2vs0mg"},{"bike_id":"6dfce707-29ae-4b35-a336-de5c1e641a79","system_id":"levelo_inurba_marseille","lat":43.25935,"lon":5.40914,"is_reserved":false,"is_disabled":false,"rental_uris":{"android":"levelo://app?vid=6dfce707-29ae-4b35-a336-de5c1e641a79","ios":"levelo://app?vid=6dfce707-29ae-4b35-a336-de5c1e641a79"},"vehicle_type_id":"4","last_reported":1745821380,"current_range_meters":4800,"station_id":"ce4bhm92rcd13ifvqglg","pricing_plan_id":"cebpf4jnsgd1na2vs0mg"},{"bike_id":"82016555-1022-467f-b7e9-084b6d838aac","system_id":"levelo_inurba_marseille","lat":43.255209,"lon":5.376171,"is_reserved":false,"is_disabled":false,"rental_uris":{"android":"levelo://app?vid=82016555-1022-467f-b7e9-084b6d838aac","ios":"levelo://app?vid=82016555-1022-467f-b7e9-084b6d838aac"},"vehicle_type_id":"4","last_reported":1745821380,"current_range_meters":4800,"station_id":"ce4bhh12rcd13ifvqff0","pricing_plan_id":"cebpf4jnsgd1na2vs0mg"},{"bike_id":"2d4820d4-569a-4ec0-b000-e82a960dd30b","system_id":"levelo_inurba_marseille","lat":43.23145,"lon":5.35514,"is_reserved":false,"is_disabled":true,"rental_uris":{"android":"levelo://app?vid=2d4820d4-569a-4ec0-b000-e82a960dd30b","ios":"levelo://app?vid=2d4820d4-569a-4ec0-b000-e82a960dd30b"},"vehicle_type_id":"4","last_reported":1745821380,"current_range_meters":4800,"station_id":"","pricing_plan_id":"cebpf4jnsgd1na2vs0mg"},{"bike_id":"b203106f-15ad-4224-a9bb-aef6d708468c","system_id":"levelo_inurba_marseille","lat":43.27504,"lon":5.42449,"is_reserved":false,"is_disabled":false,"rental_uris":{"android":"levelo://app?vid=b203106f-15ad-4224-a9bb-aef6d708468c","ios":"levelo://app?vid=b203106f-15ad-4224-a9bb-aef6d708468c"},"vehicle_type_id":"4","last_reported":1745821380,"current_range_meters":4800,"station_id":"ce4bhn92rcd13ifvqgrg","pricing_plan_id":"cebpf4jnsgd1na2vs0mg"},{"bike_id":"83246438-58c4-43ab-be52-9ecc136d10d9","system_id":"levelo_inurba_marseille","lat":43.27923,"lon":5.39592,"is_reserved":false,"is_disabled":false,"rental_uris":{"android":"levelo://app?vid=83246438-58c4-43ab-be52-9ecc136d10d9","ios":"levelo://app?vid=83246438-58c4-43ab-be52-9ecc136d10d9"},"vehicle_type_id":"4","last_reported":1745821380,"current_range_meters":4800,"station_id":"ce4bhf92rcd13ifvqf40","pricing_plan_id":"cebpf4jnsgd1na2vs0mg"},{"bike_id":"81159e63-3b35-42d5-8e59-a6400c53568e","system_id":"levelo_inurba_marseille","lat":43.217381,"lon":5.346215,"is_reserved":false,"is_disabled":false,"rental_uris":{"android":"levelo://app?vid=81159e63-3b35-42d5-8e59-a6400c53568e","ios":"levelo://app?vid=81159e63-3b35-42d5-8e59-a6400c53568e"},"vehicle_type_id":"4","last_reported":1745821380,"current_range_meters":5600,"station_id":"st_cvj6r9ubvosntc0bgbag","pricing_plan_id":"cebpf4jnsgd1na2vs0mg"},{"bike_id":"5e7994ff-43da-4f9a-9cbb-bc7b4cd53cd4","system_id":"levelo_inurba_marseille","lat":43.24083,"lon":5.37751,"is_reserved":false,"is_disabled":false,"rental_uris":{"android":"levelo://app?vid=5e7994ff-43da-4f9a-9cbb-bc7b4cd53cd4","ios":"levelo://app?vid=5e7994ff-43da-4f9a-9cbb-bc7b4cd53cd4"},"vehicle_type_id":"4","last_reported":1745821380,"current_range_meters":5600,"station_id":"ce4bhnp2rcd13ifvqgvg","pricing_plan_id":"cebpf4jnsgd1na2vs0mg"},{"bike_id":"c15df8fc-8cb9-4944-9a49-2df32e045cae","system_id":"levelo_inurba_marseille","lat":43.31365,"lon":5.36717,"is_reserved":false,"is_disabled":false,"rental_uris":{"android":"levelo://app?vid=c15df8fc-8cb9-4944-9a49-2df32e045cae","ios":"levelo://app?vid=c15df8fc-8cb9-4944-9a49-2df32e045cae"},"vehicle_type_id":"4","last_reported":1745821380,"current_range_meters":5600,"station_id":"ce4bgr92rcd13ifvqc6g","pricing_plan_id":"cebpf4jnsgd1na2vs0mg"},{"bike_id":"4a5edcf1-6727-4c60-8f88-19c6d2a1f8fa","system_id":"levelo_inurba_marseille","lat":43.22931,"lon":5.35373,"is_reserved":false,"is_disabled":false,"rental_uris":{"android":"levelo://app?vid=4a5edcf1-6727-4c60-8f88-19c6d2a1f8fa","ios":"levelo://app?vid=4a5edcf1-6727-4c60-8f88-19c6d2a1f8fa"},"vehicle_type_id":"4","last_reported":1745821380,"current_range_meters":5600,"station_id":"cpo3532slgdg3j2ikp40","pricing_plan_id":"cebpf4jnsgd1na2vs0mg"},{"bike_id":"28519469-55a8-45cb-8f5f-dbe6da9b0aff","system_id":"levelo_inurba_marseille","lat":43.25933,"lon":5.40895,"is_reserved":false,"is_disabled":false,"rental_uris":{"android":"levelo://app?vid=28519469-55a8-45cb-8f5f-dbe6da9b0aff","ios":"levelo://app?vid=28519469-55a8-45cb-8f5f-dbe6da9b0aff"},"vehicle_type_id":"4","last_reported":1745821380,"current_range_meters":5600,"station_id":"ce4bhm92rcd13ifvqglg","pricing_plan_id":"cebpf4jnsgd1na2vs0mg"},{"bike_id":"d803668a-3484-4fb4-8632-6b12a0889c3c","system_id":"levelo_inurba_marseille","lat":43.24072,"lon":5.37762,"is_reserved":false,"is_disabled":false,"rental_uris":{"android":"levelo://app?vid=d803668a-3484-4fb4-8632-6b12a0889c3c","ios":"levelo://app?vid=d803668a-3484-4fb4-8632-6b12a0889c3c"},"vehicle_type_id":"4","last_reported":1745821380,"current_range_meters":6000,"station_id":"ce4bhnp2rcd13ifvqgvg","pricing_plan_id":"cebpf4jnsgd1na2vs0mg"},{"bike_id":"974d6eff-e301-4fde-870a-baaf422326bb","system_id":"levelo_inurba_marseille","lat":43.289481,"lon":5.36399,"is_reserved":false,"is_disabled":false,"rental_uris":{"android":"levelo://app?vid=974d6eff-e301-4fde-870a-baaf422326bb","ios":"levelo://app?vid=974d6eff-e301-4fde-870a-baaf422326bb"},"vehicle_type_id":"4","last_reported":1745821380,"current_range_meters":6000,"station_id":"ce4bhc92rcd13ifvqetg","pricing_plan_id":"cebpf4jnsgd1na2vs0mg"},{"bike_id":"a5790896-f7ca-43e9-9809-20384f186d42","system_id":"levelo_inurba_marseille","lat":43.27053,"lon":5.40264,"is_reserved":false,"is_disabled":false,"rental_uris":{"android":"levelo://app?vid=a5790896-f7ca-43e9-9809-20384f186d42","ios":"levelo://app?vid=a5790896-f7ca-43e9-9809-20384f186d42"},"vehicle_type_id":"4","last_reported":1745821380,"current_range_meters":6000,"station_id":"ce4bhk92rcd13ifvqgc0","pricing_plan_id":"cebpf4jnsgd1na2vs0mg"},{"bike_id":"4e09e2f3-6329-4563-9a1f-79c5001029cb","system_id":"levelo_inurba_marseille","lat":43.3243,"lon":5.39145,"is_reserved":false,"is_disabled":true,"rental_uris":{"android":"levelo://app?vid=4e09e2f3-6329-4563-9a1f-79c5001029cb","ios":"levelo://app?vid=4e09e2f3-6329-4563-9a1f-79c5001029cb"},"vehicle_type_id":"4","last_reported":1745821380,"current_range_meters":6000,"station_id":"","pricing_plan_id":"cebpf4jnsgd1na2vs0mg"},{"bike_id":"cf6ec47c-bcb7-43da-a2f5-7144fabd8db5","system_id":"levelo_inurba_marseille","lat":43.231424,"lon":5.437224,"is_reserved":false,"is_disabled":false,"rental_uris":{"android":"levelo://app?vid=cf6ec47c-bcb7-43da-a2f5-7144fabd8db5","ios":"levelo://app?vid=cf6ec47c-bcb7-43da-a2f5-7144fabd8db5"},"vehicle_type_id":"4","last_reported":1745821380,"current_range_meters":6400,"station_id":"ce4bhmp2rcd13ifvqgog","pricing_plan_id":"cebpf4jnsgd1na2vs0mg"},{"bike_id":"4f237f57-7e6d-4454-a0e6-195d0a8fae7b","system_id":"levelo_inurba_marseille","lat":43.32467,"lon":5.43873,"is_reserved":false,"is_disabled":false,"rental_uris":{"android":"levelo://app?vid=4f237f57-7e6d-4454-a0e6-195d0a8fae7b","ios":"levelo://app?vid=4f237f57-7e6d-4454-a0e6-195d0a8fae7b"},"vehicle_type_id":"4","last_reported":1745821380,"current_range_meters":6400,"station_id":"","pricing_plan_id":"cebpf4jnsgd1na2vs0mg"},{"bike_id":"db1aa384-730c-4540-b8b2-8db9c5f576d1","system_id":"levelo_inurba_marseille","lat":43.29028,"lon":5.39976,"is_reserved":false,"is_disabled":false,"rental_uris":{"android":"levelo://app?vid=db1aa384-730c-4540-b8b2-8db9c5f576d1","ios":"levelo://app?vid=db1aa384-730c-4540-b8b2-8db9c5f576d1"},"vehicle_type_id":"4","last_reported":1745821380,"current_range_meters":4400,"station_id":"ce4bh392rcd13ifvqdm0","pricing_plan_id":"cebpf4jnsgd1na2vs0mg"},{"bike_id":"5ddba1f1-1747-4179-b91f-b8778028cd60","system_id":"levelo_inurba_marseille","lat":43.25612,"lon":5.41203,"is_reserved":false,"is_disabled":false,"rental_uris":{"android":"levelo://app?vid=5ddba1f1-1747-4179-b91f-b8778028cd60","ios":"levelo://app?vid=5ddba1f1-1747-4179-b91f-b8778028cd60"},"vehicle_type_id":"4","last_reported":1745821380,"current_range_meters":6400,"station_id":"","pricing_plan_id":"cebpf4jnsgd1na2vs0mg"},{"bike_id":"423ac3be-e8af-4784-a6fb-0787e3aef832","system_id":"levelo_inurba_marseille","lat":43.279968,"lon":5.400176,"is_reserved":false,"is_disabled":false,"rental_uris":{"android":"levelo://app?vid=423ac3be-e8af-4784-a6fb-0787e3aef832","ios":"levelo://app?vid=423ac3be-e8af-4784-a6fb-0787e3aef832"},"vehicle_type_id":"4","last_reported":1745821380,"current_range_meters":6000,"station_id":"ce4bho92rcd13ifvqh4g","pricing_plan_id":"cebpf4jnsgd1na2vs0mg"},{"bike_id":"647eceb0-396c-4b66-9b6a-15942a39bd89","system_id":"levelo_inurba_marseille","lat":43.24169,"lon":5.36419,"is_reserved":false,"is_disabled":false,"rental_uris":{"android":"levelo://app?vid=647eceb0-396c-4b66-9b6a-15942a39bd89","ios":"levelo://app?vid=647eceb0-396c-4b66-9b6a-15942a39bd89"},"vehicle_type_id":"4","last_reported":1745821380,"current_range_meters":6800,"station_id":"cpo36qri1sfpv3e86is0","pricing_plan_id":"cebpf4jnsgd1na2vs0mg"},{"bike_id":"ee4b8cc4-1bda-40d1-a6f9-1454781afd38","system_id":"levelo_inurba_marseille","lat":43.28683,"lon":5.3635,"is_reserved":false,"is_disabled":true,"rental_uris":{"android":"levelo://app?vid=ee4b8cc4-1bda-40d1-a6f9-1454781afd38","ios":"levelo://app?vid=ee4b8cc4-1bda-40d1-a6f9-1454781afd38"},"vehicle_type_id":"4","last_reported":1745821380,"current_range_meters":6800,"station_id":"ce4bhah2rcd13ifvqej0","pricing_plan_id":"cebpf4jnsgd1na2vs0mg"},{"bike_id":"c596ab54-4f89-4649-a442-12778ac8adc4","system_id":"levelo_inurba_marseille","lat":43.31714,"lon":5.43695,"is_reserved":false,"is_disabled":true,"rental_uris":{"android":"levelo://app?vid=c596ab54-4f89-4649-a442-12778ac8adc4","ios":"levelo://app?vid=c596ab54-4f89-4649-a442-12778ac8adc4"},"vehicle_type_id":"4","last_reported":1745821380,"current_range_meters":6800,"station_id":"ce4bhp92rcd13ifvqhcg","pricing_plan_id":"cebpf4jnsgd1na2vs0mg"},{"bike_id":"64d4c2a4-c8f7-4762-af83-98c376c7623f","system_id":"levelo_inurba_marseille","lat":43.21755,"lon":5.34597,"is_reserved":false,"is_disabled":false,"rental_uris":{"android":"levelo://app?vid=64d4c2a4-c8f7-4762-af83-98c376c7623f","ios":"levelo://app?vid=64d4c2a4-c8f7-4762-af83-98c376c7623f"},"vehicle_type_id":"4","last_reported":1745821380,"current_range_meters":6800,"station_id":"st_cvj6r9ubvosntc0bgbag","pricing_plan_id":"cebpf4jnsgd1na2vs0mg"},{"bike_id":"721ac694-ddc1-45a4-93fe-2aef08d4b564","system_id":"levelo_inurba_marseille","lat":43.24164,"lon":5.36443,"is_reserved":false,"is_disabled":false,"rental_uris":{"android":"levelo://app?vid=721ac694-ddc1-45a4-93fe-2aef08d4b564","ios":"levelo://app?vid=721ac694-ddc1-45a4-93fe-2aef08d4b564"},"vehicle_type_id":"4","last_reported":1745821380,"current_range_meters":6800,"station_id":"cpo36qri1sfpv3e86is0","pricing_plan_id":"cebpf4jnsgd1na2vs0mg"},{"bike_id":"dabeb7d9-4666-458f-aa43-8bae2163a31c","system_id":"levelo_inurba_marseille","lat":43.24076,"lon":5.37759,"is_reserved":false,"is_disabled":false,"rental_uris":{"android":"levelo://app?vid=dabeb7d9-4666-458f-aa43-8bae2163a31c","ios":"levelo://app?vid=dabeb7d9-4666-458f-aa43-8bae2163a31c"},"vehicle_type_id":"4","last_reported":1745821380,"current_range_meters":6800,"station_id":"ce4bhnp2rcd13ifvqgvg","pricing_plan_id":"cebpf4jnsgd1na2vs0mg"},{"bike_id":"345f45db-2b49-4f14-b5df-16d82f342237","system_id":"levelo_inurba_marseille","lat":43.3042,"lon":5.41289,"is_reserved":false,"is_disabled":false,"rental_uris":{"android":"levelo://app?vid=345f45db-2b49-4f14-b5df-16d82f342237","ios":"levelo://app?vid=345f45db-2b49-4f14-b5df-16d82f342237"},"vehicle_type_id":"4","last_reported":1745821380,"current_range_meters":6800,"station_id":"ce4bhop2rcd13ifvqh8g","pricing_plan_id":"cebpf4jnsgd1na2vs0mg"},{"bike_id":"d31e0f6c-29bf-41ad-a44b-3b5ed8cc3890","system_id":"levelo_inurba_marseille","lat":43.27495,"lon":5.42462,"is_reserved":false,"is_disabled":false,"rental_uris":{"android":"levelo://app?vid=d31e0f6c-29bf-41ad-a44b-3b5ed8cc3890","ios":"levelo://app?vid=d31e0f6c-29bf-41ad-a44b-3b5ed8cc3890"},"vehicle_type_id":"4","last_reported":1745821380,"current_range_meters":6800,"station_id":"ce4bhn92rcd13ifvqgrg","pricing_plan_id":"cebpf4jnsgd1na2vs0mg"},{"bike_id":"ab08e698-0e23-4805-8aaa-b39648eaffad","system_id":"levelo_inurba_marseille","lat":43.28457,"lon":5.38431,"is_reserved":false,"is_disabled":true,"rental_uris":{"android":"levelo://app?vid=ab08e698-0e23-4805-8aaa-b39648eaffad","ios":"levelo://app?vid=ab08e698-0e23-4805-8aaa-b39648eaffad"},"vehicle_type_id":"4","last_reported":1745821380,"current_range_meters":7200,"station_id":"ce4bh512rcd13ifvqe3g","pricing_plan_id":"cebpf4jnsgd1na2vs0mg"},{"bike_id":"8abf74ec-5bbf-4e1c-bd0e-cd0f7c214704","system_id":"levelo_inurba_marseille","lat":43.24078,"lon":5.37758,"is_reserved":false,"is_disabled":false,"rental_uris":{"android":"levelo://app?vid=8abf74ec-5bbf-4e1c-bd0e-cd0f7c214704","ios":"levelo://app?vid=8abf74ec-5bbf-4e1c-bd0e-cd0f7c214704"},"vehicle_type_id":"4","last_reported":1745821380,"current_range_meters":8000,"station_id":"ce4bhnp2rcd13ifvqgvg","pricing_plan_id":"cebpf4jnsgd1na2vs0mg"},{"bike_id":"7285c221-847b-46d9-b086-1b7053cfaa3d","system_id":"levelo_inurba_marseille","lat":43.24151,"lon":5.39756,"is_reserved":false,"is_disabled":false,"rental_uris":{"android":"levelo://app?vid=7285c221-847b-46d9-b086-1b7053cfaa3d","ios":"levelo://app?vid=7285c221-847b-46d9-b086-1b7053cfaa3d"},"vehicle_type_id":"4","last_reported":1745821380,"current_range_meters":8000,"station_id":"ce4bhn12rcd13ifvqgpg","pricing_plan_id":"cebpf4jnsgd1na2vs0mg"},{"bike_id":"fce68d24-7692-4e86-a15e-46a0d4a9889d","system_id":"levelo_inurba_marseille","lat":43.31493,"lon":5.37302,"is_reserved":false,"is_disabled":false,"rental_uris":{"android":"levelo://app?vid=fce68d24-7692-4e86-a15e-46a0d4a9889d","ios":"levelo://app?vid=fce68d24-7692-4e86-a15e-46a0d4a9889d"},"vehicle_type_id":"4","last_reported":1745821380,"current_range_meters":8000,"station_id":"ce4bgt12rcd13ifvqcd0","pricing_plan_id":"cebpf4jnsgd1na2vs0mg"},{"bike_id":"cd5002bd-e571-41f2-8ef4-b16c27da09d1","system_id":"levelo_inurba_marseille","lat":43.26135,"lon":5.38724,"is_reserved":false,"is_disabled":false,"rental_uris":{"android":"levelo://app?vid=cd5002bd-e571-41f2-8ef4-b16c27da09d1","ios":"levelo://app?vid=cd5002bd-e571-41f2-8ef4-b16c27da09d1"},"vehicle_type_id":"4","last_reported":1745821380,"current_range_meters":8000,"station_id":"","pricing_plan_id":"cebpf4jnsgd1na2vs0mg"},{"bike_id":"aae164b7-1114-49aa-b004-978d7030ee91","system_id":"levelo_inurba_marseille","lat":43.25013,"lon":5.3892,"is_reserved":false,"is_disabled":false,"rental_uris":{"android":"levelo://app?vid=aae164b7-1114-49aa-b004-978d7030ee91","ios":"levelo://app?vid=aae164b7-1114-49aa-b004-978d7030ee91"},"vehicle_type_id":"4","last_reported":1745821380,"current_range_meters":8000,"station_id":"ce4bhgp2rcd13ifvqfd0","pricing_plan_id":"cebpf4jnsgd1na2vs0mg"},{"bike_id":"0053b840-de47-4900-98aa-cc8575176b05","system_id":"levelo_inurba_marseille","lat":43.2416,"lon":5.36414,"is_reserved":false,"is_disabled":true,"rental_uris":{"android":"levelo://app?vid=0053b840-de47-4900-98aa-cc8575176b05","ios":"levelo://app?vid=0053b840-de47-4900-98aa-cc8575176b05"},"vehicle_type_id":"4","last_reported":1745821380,"current_range_meters":8400,"station_id":"cpo36qri1sfpv3e86is0","pricing_plan_id":"cebpf4jnsgd1na2vs0mg"},{"bike_id":"ae1d96a0-b0a2-41e1-be14-e78907f9338a","system_id":"levelo_inurba_marseille","lat":43.29521,"lon":5.39412,"is_reserved":false,"is_disabled":true,"rental_uris":{"android":"levelo://app?vid=ae1d96a0-b0a2-41e1-be14-e78907f9338a","ios":"levelo://app?vid=ae1d96a0-b0a2-41e1-be14-e78907f9338a"},"vehicle_type_id":"4","last_reported":1745821380,"current_range_meters":8400,"station_id":"ce4bh292rcd13ifvqdf0","pricing_plan_id":"cebpf4jnsgd1na2vs0mg"},{"bike_id":"23266d2c-888a-4107-b38b-9eeba7fbec21","system_id":"levelo_inurba_marseille","lat":43.30906,"lon":5.36842,"is_reserved":false,"is_disabled":false,"rental_uris":{"android":"levelo://app?vid=23266d2c-888a-4107-b38b-9eeba7fbec21","ios":"levelo://app?vid=23266d2c-888a-4107-b38b-9eeba7fbec21"},"vehicle_type_id":"4","last_reported":1745821380,"current_range_meters":8400,"station_id":"ce4bgn92rcd13ifvqbvg","pricing_plan_id":"cebpf4jnsgd1na2vs0mg"},{"bike_id":"574c21c3-5de9-4bfa-a3aa-ac4e3698f0a7","system_id":"levelo_inurba_marseille","lat":43.27221,"lon":5.39185,"is_reserved":false,"is_disabled":true,"rental_uris":{"android":"levelo://app?vid=574c21c3-5de9-4bfa-a3aa-ac4e3698f0a7","ios":"levelo://app?vid=574c21c3-5de9-4bfa-a3aa-ac4e3698f0a7"},"vehicle_type_id":"4","last_reported":1745821380,"current_range_meters":8400,"station_id":"ce4bhhp2rcd13ifvqfm0","pricing_plan_id":"cebpf4jnsgd1na2vs0mg"},{"bike_id":"554c7222-d609-4841-a832-33adb157bebb","system_id":"levelo_inurba_marseille","lat":43.2119,"lon":5.3507,"is_reserved":false,"is_disabled":false,"rental_uris":{"android":"levelo://app?vid=554c7222-d609-4841-a832-33adb157bebb","ios":"levelo://app?vid=554c7222-d609-4841-a832-33adb157bebb"},"vehicle_type_id":"4","last_reported":1745821380,"current_range_meters":8400,"station_id":"st_cvj6sg6p6f1abm77japg","pricing_plan_id":"cebpf4jnsgd1na2vs0mg"},{"bike_id":"58ba8c4a-bc22-45af-82dc-5513e7250598","system_id":"levelo_inurba_marseille","lat":43.30154,"lon":5.38089,"is_reserved":false,"is_disabled":false,"rental_uris":{"android":"levelo://app?vid=58ba8c4a-bc22-45af-82dc-5513e7250598","ios":"levelo://app?vid=58ba8c4a-bc22-45af-82dc-5513e7250598"},"vehicle_type_id":"4","last_reported":1745821380,"current_range_meters":8400,"station_id":"ce4bgjp2rcd13ifvqbh0","pricing_plan_id":"cebpf4jnsgd1na2vs0mg"},{"bike_id":"c38e2065-2181-4713-8f76-2ed7b65131f6","system_id":"levelo_inurba_marseille","lat":43.29024,"lon":5.38641,"is_reserved":false,"is_disabled":false,"rental_uris":{"android":"levelo://app?vid=c38e2065-2181-4713-8f76-2ed7b65131f6","ios":"levelo://app?vid=c38e2065-2181-4713-8f76-2ed7b65131f6"},"vehicle_type_id":"4","last_reported":1745821380,"current_range_meters":8400,"station_id":"ce4bh4p2rcd13ifvqe0g","pricing_plan_id":"cebpf4jnsgd1na2vs0mg"},{"bike_id":"91474842-32bf-45c2-856a-80fd91d22aa5","system_id":"levelo_inurba_marseille","lat":43.21193,"lon":5.35073,"is_reserved":false,"is_disabled":false,"rental_uris":{"android":"levelo://app?vid=91474842-32bf-45c2-856a-80fd91d22aa5","ios":"levelo://app?vid=91474842-32bf-45c2-856a-80fd91d22aa5"},"vehicle_type_id":"4","last_reported":1745821380,"current_range_meters":8400,"station_id":"st_cvj6sg6p6f1abm77japg","pricing_plan_id":"cebpf4jnsgd1na2vs0mg"},{"bike_id":"3a98c0df-de3e-40ca-9407-20a56af778c7","system_id":"levelo_inurba_marseille","lat":43.25114,"lon":5.40317,"is_reserved":false,"is_disabled":false,"rental_uris":{"android":"levelo://app?vid=3a98c0df-de3e-40ca-9407-20a56af778c7","ios":"levelo://app?vid=3a98c0df-de3e-40ca-9407-20a56af778c7"},"vehicle_type_id":"4","last_reported":1745821380,"current_range_meters":8800,"station_id":"ce4bhlh2rcd13ifvqgig","pricing_plan_id":"cebpf4jnsgd1na2vs0mg"},{"bike_id":"44530a1d-b48a-47f5-a929-63b20a3c24dc","system_id":"levelo_inurba_marseille","lat":43.24173,"lon":5.36401,"is_reserved":false,"is_disabled":false,"rental_uris":{"android":"levelo://app?vid=44530a1d-b48a-47f5-a929-63b20a3c24dc","ios":"levelo://app?vid=44530a1d-b48a-47f5-a929-63b20a3c24dc"},"vehicle_type_id":"4","last_reported":1745821380,"current_range_meters":8800,"station_id":"cpo36qri1sfpv3e86is0","pricing_plan_id":"cebpf4jnsgd1na2vs0mg"},{"bike_id":"64d31352-50a3-4adb-84a1-11a507a29b64","system_id":"levelo_inurba_marseille","lat":43.27494,"lon":5.42452,"is_reserved":false,"is_disabled":false,"rental_uris":{"android":"levelo://app?vid=64d31352-50a3-4adb-84a1-11a507a29b64","ios":"levelo://app?vid=64d31352-50a3-4adb-84a1-11a507a29b64"},"vehicle_type_id":"4","last_reported":1745821380,"current_range_meters":8800,"station_id":"ce4bhn92rcd13ifvqgrg","pricing_plan_id":"cebpf4jnsgd1na2vs0mg"},{"bike_id":"cc48d7b9-7994-4708-9aa3-7a9d38ecb2d6","system_id":"levelo_inurba_marseille","lat":43.23179,"lon":5.39986,"is_reserved":false,"is_disabled":false,"rental_uris":{"android":"levelo://app?vid=cc48d7b9-7994-4708-9aa3-7a9d38ecb2d6","ios":"levelo://app?vid=cc48d7b9-7994-4708-9aa3-7a9d38ecb2d6"},"vehicle_type_id":"4","last_reported":1745821380,"current_range_meters":8800,"station_id":"ce4bhn12rcd13ifvqgqg","pricing_plan_id":"cebpf4jnsgd1na2vs0mg"},{"bike_id":"21a5b78b-6652-49fa-a8ee-70531791ccf1","system_id":"levelo_inurba_marseille","lat":43.24895,"lon":5.42526,"is_reserved":false,"is_disabled":false,"rental_uris":{"android":"levelo://app?vid=21a5b78b-6652-49fa-a8ee-70531791ccf1","ios":"levelo://app?vid=21a5b78b-6652-49fa-a8ee-70531791ccf1"},"vehicle_type_id":"4","last_reported":1745821380,"current_range_meters":8800,"station_id":"","pricing_plan_id":"cebpf4jnsgd1na2vs0mg"},{"bike_id":"d36bcb26-7072-498d-945b-aa9e46a301ec","system_id":"levelo_inurba_marseille","lat":43.30148,"lon":5.38092,"is_reserved":false,"is_disabled":false,"rental_uris":{"android":"levelo://app?vid=d36bcb26-7072-498d-945b-aa9e46a301ec","ios":"levelo://app?vid=d36bcb26-7072-498d-945b-aa9e46a301ec"},"vehicle_type_id":"4","last_reported":1745821380,"current_range_meters":9200,"station_id":"ce4bgjp2rcd13ifvqbh0","pricing_plan_id":"cebpf4jnsgd1na2vs0mg"},{"bike_id":"7c5e27a0-d464-4473-a989-0d0e844477dd","system_id":"levelo_inurba_marseille","lat":43.29001,"lon":5.39958,"is_reserved":false,"is_disabled":false,"rental_uris":{"android":"levelo://app?vid=7c5e27a0-d464-4473-a989-0d0e844477dd","ios":"levelo://app?vid=7c5e27a0-d464-4473-a989-0d0e844477dd"},"vehicle_type_id":"4","last_reported":1745821380,"current_range_meters":8400,"station_id":"ce4bh392rcd13ifvqdm0","pricing_plan_id":"cebpf4jnsgd1na2vs0mg"},{"bike_id":"a2821e4b-6f3f-4af9-b90c-282961cf9824","system_id":"levelo_inurba_marseille","lat":43.23146,"lon":5.43723,"is_reserved":false,"is_disabled":false,"rental_uris":{"android":"levelo://app?vid=a2821e4b-6f3f-4af9-b90c-282961cf9824","ios":"levelo://app?vid=a2821e4b-6f3f-4af9-b90c-282961cf9824"},"vehicle_type_id":"4","last_reported":1745821380,"current_range_meters":9200,"station_id":"ce4bhmp2rcd13ifvqgog","pricing_plan_id":"cebpf4jnsgd1na2vs0mg"},{"bike_id":"a08e6535-7d97-4f82-b424-5e6daf2d2362","system_id":"levelo_inurba_marseille","lat":43.29507,"lon":5.39413,"is_reserved":false,"is_disabled":false,"rental_uris":{"android":"levelo://app?vid=a08e6535-7d97-4f82-b424-5e6daf2d2362","ios":"levelo://app?vid=a08e6535-7d97-4f82-b424-5e6daf2d2362"},"vehicle_type_id":"4","last_reported":1745821380,"current_range_meters":9200,"station_id":"ce4bh292rcd13ifvqdf0","pricing_plan_id":"cebpf4jnsgd1na2vs0mg"},{"bike_id":"e1b84f42-92bc-49b3-afbe-e0f83fe8369e","system_id":"levelo_inurba_marseille","lat":43.23196,"lon":5.39974,"is_reserved":false,"is_disabled":false,"rental_uris":{"android":"levelo://app?vid=e1b84f42-92bc-49b3-afbe-e0f83fe8369e","ios":"levelo://app?vid=e1b84f42-92bc-49b3-afbe-e0f83fe8369e"},"vehicle_type_id":"4","last_reported":1745821380,"current_range_meters":9200,"station_id":"ce4bhn12rcd13ifvqgqg","pricing_plan_id":"cebpf4jnsgd1na2vs0mg"},{"bike_id":"5532f965-c6d3-4b05-86f5-39e95c151ce7","system_id":"levelo_inurba_marseille","lat":43.27494,"lon":5.42438,"is_reserved":false,"is_disabled":false,"rental_uris":{"android":"levelo://app?vid=5532f965-c6d3-4b05-86f5-39e95c151ce7","ios":"levelo://app?vid=5532f965-c6d3-4b05-86f5-39e95c151ce7"},"vehicle_type_id":"4","last_reported":1745821380,"current_range_meters":9200,"station_id":"ce4bhn92rcd13ifvqgrg","pricing_plan_id":"cebpf4jnsgd1na2vs0mg"},{"bike_id":"8840b7d1-badd-45b4-91db-50feaeb6b7ed","system_id":"levelo_inurba_marseille","lat":43.31049,"lon":5.36744,"is_reserved":false,"is_disabled":false,"rental_uris":{"android":"levelo://app?vid=8840b7d1-badd-45b4-91db-50feaeb6b7ed","ios":"levelo://app?vid=8840b7d1-badd-45b4-91db-50feaeb6b7ed"},"vehicle_type_id":"4","last_reported":1745821380,"current_range_meters":9200,"station_id":"","pricing_plan_id":"cebpf4jnsgd1na2vs0mg"},{"bike_id":"1fa5d4b5-753c-4c37-987a-c4d4da64e8ed","system_id":"levelo_inurba_marseille","lat":43.30892,"lon":5.37199,"is_reserved":false,"is_disabled":false,"rental_uris":{"android":"levelo://app?vid=1fa5d4b5-753c-4c37-987a-c4d4da64e8ed","ios":"levelo://app?vid=1fa5d4b5-753c-4c37-987a-c4d4da64e8ed"},"vehicle_type_id":"4","last_reported":1745821380,"current_range_meters":9600,"station_id":"ce4bguh2rcd13ifvqckg","pricing_plan_id":"cebpf4jnsgd1na2vs0mg"},{"bike_id":"a2e988ca-4cad-46d4-8096-1d1b1de4b0e4","system_id":"levelo_inurba_marseille","lat":43.32372,"lon":5.36771,"is_reserved":false,"is_disabled":false,"rental_uris":{"android":"levelo://app?vid=a2e988ca-4cad-46d4-8096-1d1b1de4b0e4","ios":"levelo://app?vid=a2e988ca-4cad-46d4-8096-1d1b1de4b0e4"},"vehicle_type_id":"4","last_reported":1745821380,"current_range_meters":9600,"station_id":"ce4bhsh2rcd13ifvqi2g","pricing_plan_id":"cebpf4jnsgd1na2vs0mg"},{"bike_id":"7626ed72-c0f8-4eb9-adb3-f027b3fcb3d9","system_id":"levelo_inurba_marseille","lat":43.24661,"lon":5.38201,"is_reserved":false,"is_disabled":true,"rental_uris":{"android":"levelo://app?vid=7626ed72-c0f8-4eb9-adb3-f027b3fcb3d9","ios":"levelo://app?vid=7626ed72-c0f8-4eb9-adb3-f027b3fcb3d9"},"vehicle_type_id":"4","last_reported":1745821380,"current_range_meters":9600,"station_id":"ce4bhih2rcd13ifvqfr0","pricing_plan_id":"cebpf4jnsgd1na2vs0mg"},{"bike_id":"8235d872-096e-497c-a719-c2fcbf16281e","system_id":"levelo_inurba_marseille","lat":43.24652,"lon":5.38901,"is_reserved":false,"is_disabled":false,"rental_uris":{"android":"levelo://app?vid=8235d872-096e-497c-a719-c2fcbf16281e","ios":"levelo://app?vid=8235d872-096e-497c-a719-c2fcbf16281e"},"vehicle_type_id":"4","last_reported":1745821380,"current_range_meters":9600,"station_id":"ce4bhg12rcd13ifvqf60","pricing_plan_id":"cebpf4jnsgd1na2vs0mg"},{"bike_id":"560f12bb-1614-4d7c-b78e-ccf5bdec9ea6","system_id":"levelo_inurba_marseille","lat":43.2847,"lon":5.35897,"is_reserved":false,"is_disabled":true,"rental_uris":{"android":"levelo://app?vid=560f12bb-1614-4d7c-b78e-ccf5bdec9ea6","ios":"levelo://app?vid=560f12bb-1614-4d7c-b78e-ccf5bdec9ea6"},"vehicle_type_id":"4","last_reported":1745821380,"current_range_meters":9600,"station_id":"ce4bhah2rcd13ifvqei0","pricing_plan_id":"cebpf4jnsgd1na2vs0mg"},{"bike_id":"717cabec-6d1e-4fbd-94f4-9e9366fab599","system_id":"levelo_inurba_marseille","lat":43.22509,"lon":5.34779,"is_reserved":false,"is_disabled":true,"rental_uris":{"android":"levelo://app?vid=717cabec-6d1e-4fbd-94f4-9e9366fab599","ios":"levelo://app?vid=717cabec-6d1e-4fbd-94f4-9e9366fab599"},"vehicle_type_id":"4","last_reported":1745821380,"current_range_meters":10000,"station_id":"st_cvj5dfep6f1abm77gieg","pricing_plan_id":"cebpf4jnsgd1na2vs0mg"},{"bike_id":"9150f107-827a-42d1-9f2d-866908e41f8e","system_id":"levelo_inurba_marseille","lat":43.25572,"lon":5.38241,"is_reserved":false,"is_disabled":false,"rental_uris":{"android":"levelo://app?vid=9150f107-827a-42d1-9f2d-866908e41f8e","ios":"levelo://app?vid=9150f107-827a-42d1-9f2d-866908e41f8e"},"vehicle_type_id":"4","last_reported":1745821380,"current_range_meters":10000,"station_id":"ce4bhih2rcd13ifvqfs0","pricing_plan_id":"cebpf4jnsgd1na2vs0mg"},{"bike_id":"57ebd52c-bbc8-4a4d-8d80-2da8f6250dbd","system_id":"levelo_inurba_marseille","lat":43.27805,"lon":5.40707,"is_reserved":false,"is_disabled":true,"rental_uris":{"android":"levelo://app?vid=57ebd52c-bbc8-4a4d-8d80-2da8f6250dbd","ios":"levelo://app?vid=57ebd52c-bbc8-4a4d-8d80-2da8f6250dbd"},"vehicle_type_id":"4","last_reported":1745821380,"current_range_meters":10000,"station_id":"ce4bhnh2rcd13ifvqgtg","pricing_plan_id":"cebpf4jnsgd1na2vs0mg"},{"bike_id":"6303aeb8-901b-4f8f-8588-7c345791c8ea","system_id":"levelo_inurba_marseille","lat":43.247362,"lon":5.411714,"is_reserved":false,"is_disabled":false,"rental_uris":{"android":"levelo://app?vid=6303aeb8-901b-4f8f-8588-7c345791c8ea","ios":"levelo://app?vid=6303aeb8-901b-4f8f-8588-7c345791c8ea"},"vehicle_type_id":"4","last_reported":1745821380,"current_range_meters":10800,"station_id":"","pricing_plan_id":"cebpf4jnsgd1na2vs0mg"},{"bike_id":"03bd42f6-231b-41f0-967c-979162658d23","system_id":"levelo_inurba_marseille","lat":43.24654,"lon":5.38155,"is_reserved":false,"is_disabled":false,"rental_uris":{"android":"levelo://app?vid=03bd42f6-231b-41f0-967c-979162658d23","ios":"levelo://app?vid=03bd42f6-231b-41f0-967c-979162658d23"},"vehicle_type_id":"4","last_reported":1745821380,"current_range_meters":10800,"station_id":"ce4bhih2rcd13ifvqfr0","pricing_plan_id":"cebpf4jnsgd1na2vs0mg"},{"bike_id":"a5903229-b31f-421f-9c07-ee7e22bcdbb0","system_id":"levelo_inurba_marseille","lat":43.211886,"lon":5.350736,"is_reserved":false,"is_disabled":false,"rental_uris":{"android":"levelo://app?vid=a5903229-b31f-421f-9c07-ee7e22bcdbb0","ios":"levelo://app?vid=a5903229-b31f-421f-9c07-ee7e22bcdbb0"},"vehicle_type_id":"4","last_reported":1745821380,"current_range_meters":10800,"station_id":"","pricing_plan_id":"cebpf4jnsgd1na2vs0mg"},{"bike_id":"d3217008-2114-4a07-9439-35ab8079c159","system_id":"levelo_inurba_marseille","lat":43.28414,"lon":5.349792,"is_reserved":false,"is_disabled":false,"rental_uris":{"android":"levelo://app?vid=d3217008-2114-4a07-9439-35ab8079c159","ios":"levelo://app?vid=d3217008-2114-4a07-9439-35ab8079c159"},"vehicle_type_id":"4","last_reported":1745821380,"current_range_meters":10800,"station_id":"","pricing_plan_id":"cebpf4jnsgd1na2vs0mg"},{"bike_id":"3d934169-6946-46cc-87a4-ce5d03b77075","system_id":"levelo_inurba_marseille","lat":43.21752,"lon":5.34594,"is_reserved":false,"is_disabled":false,"rental_uris":{"android":"levelo://app?vid=3d934169-6946-46cc-87a4-ce5d03b77075","ios":"levelo://app?vid=3d934169-6946-46cc-87a4-ce5d03b77075"},"vehicle_type_id":"4","last_reported":1745821380,"current_range_meters":10800,"station_id":"st_cvj6r9ubvosntc0bgbag","pricing_plan_id":"cebpf4jnsgd1na2vs0mg"},{"bike_id":"bab391eb-e982-4066-b94b-52cc02253741","system_id":"levelo_inurba_marseille","lat":43.30241,"lon":5.40056,"is_reserved":false,"is_disabled":true,"rental_uris":{"android":"levelo://app?vid=bab391eb-e982-4066-b94b-52cc02253741","ios":"levelo://app?vid=bab391eb-e982-4066-b94b-52cc02253741"},"vehicle_type_id":"4","last_reported":1745821380,"current_range_meters":10800,"station_id":"ce4bgvh2rcd13ifvqcs0","pricing_plan_id":"cebpf4jnsgd1na2vs0mg"},{"bike_id":"6d593226-0a2e-46d4-8de3-9c8bd9d3e674","system_id":"levelo_inurba_marseille","lat":43.29576,"lon":5.3773,"is_reserved":false,"is_disabled":true,"rental_uris":{"android":"levelo://app?vid=6d593226-0a2e-46d4-8de3-9c8bd9d3e674","ios":"levelo://app?vid=6d593226-0a2e-46d4-8de3-9c8bd9d3e674"},"vehicle_type_id":"4","last_reported":1745821380,"current_range_meters":10800,"station_id":"","pricing_plan_id":"cebpf4jnsgd1na2vs0mg"},{"bike_id":"b330c3b4-8203-49c9-a4bf-5485d09a1d2d","system_id":"levelo_inurba_marseille","lat":43.30211,"lon":5.39458,"is_reserved":false,"is_disabled":true,"rental_uris":{"android":"levelo://app?vid=b330c3b4-8203-49c9-a4bf-5485d09a1d2d","ios":"levelo://app?vid=b330c3b4-8203-49c9-a4bf-5485d09a1d2d"},"vehicle_type_id":"4","last_reported":1745821380,"current_range_meters":10800,"station_id":"ce4bh0p2rcd13ifvqd70","pricing_plan_id":"cebpf4jnsgd1na2vs0mg"},{"bike_id":"0d777af5-4166-475a-a6b9-6a0197032592","system_id":"levelo_inurba_marseille","lat":43.23261,"lon":5.35208,"is_reserved":false,"is_disabled":false,"rental_uris":{"android":"levelo://app?vid=0d777af5-4166-475a-a6b9-6a0197032592","ios":"levelo://app?vid=0d777af5-4166-475a-a6b9-6a0197032592"},"vehicle_type_id":"4","last_reported":1745821380,"current_range_meters":11200,"station_id":"","pricing_plan_id":"cebpf4jnsgd1na2vs0mg"},{"bike_id":"8532ffe6-5c0c-4250-bc80-31b0fac155e0","system_id":"levelo_inurba_marseille","lat":43.33608,"lon":5.41036,"is_reserved":false,"is_disabled":false,"rental_uris":{"android":"levelo://app?vid=8532ffe6-5c0c-4250-bc80-31b0fac155e0","ios":"levelo://app?vid=8532ffe6-5c0c-4250-bc80-31b0fac155e0"},"vehicle_type_id":"4","last_reported":1745821380,"current_range_meters":11200,"station_id":"ce4bhqh2rcd13ifvqhmg","pricing_plan_id":"cebpf4jnsgd1na2vs0mg"},{"bike_id":"89e7ab08-7fc9-416d-a96f-130de8b43266","system_id":"levelo_inurba_marseille","lat":43.337325,"lon":5.392021,"is_reserved":false,"is_disabled":true,"rental_uris":{"android":"levelo://app?vid=89e7ab08-7fc9-416d-a96f-130de8b43266","ios":"levelo://app?vid=89e7ab08-7fc9-416d-a96f-130de8b43266"},"vehicle_type_id":"4","last_reported":1745821380,"current_range_meters":11600,"station_id":"","pricing_plan_id":"cebpf4jnsgd1na2vs0mg"},{"bike_id":"a6ef5e73-9c2a-4c3a-b853-48e28d6dc161","system_id":"levelo_inurba_marseille","lat":43.317121,"lon":5.437056,"is_reserved":false,"is_disabled":true,"rental_uris":{"android":"levelo://app?vid=a6ef5e73-9c2a-4c3a-b853-48e28d6dc161","ios":"levelo://app?vid=a6ef5e73-9c2a-4c3a-b853-48e28d6dc161"},"vehicle_type_id":"4","last_reported":1745821380,"current_range_meters":11600,"station_id":"ce4bhp92rcd13ifvqhcg","pricing_plan_id":"cebpf4jnsgd1na2vs0mg"},{"bike_id":"37c4eef0-adb3-4bdb-a934-030616fcfa6f","system_id":"levelo_inurba_marseille","lat":43.27497,"lon":5.42449,"is_reserved":false,"is_disabled":false,"rental_uris":{"android":"levelo://app?vid=37c4eef0-adb3-4bdb-a934-030616fcfa6f","ios":"levelo://app?vid=37c4eef0-adb3-4bdb-a934-030616fcfa6f"},"vehicle_type_id":"4","last_reported":1745821380,"current_range_meters":11600,"station_id":"ce4bhn92rcd13ifvqgrg","pricing_plan_id":"cebpf4jnsgd1na2vs0mg"},{"bike_id":"f360aaad-e350-49e9-8191-58ce4616eb13","system_id":"levelo_inurba_marseille","lat":43.21221,"lon":5.35072,"is_reserved":false,"is_disabled":true,"rental_uris":{"android":"levelo://app?vid=f360aaad-e350-49e9-8191-58ce4616eb13","ios":"levelo://app?vid=f360aaad-e350-49e9-8191-58ce4616eb13"},"vehicle_type_id":"4","last_reported":1745821380,"current_range_meters":12000,"station_id":"st_cvj6sg6p6f1abm77japg","pricing_plan_id":"cebpf4jnsgd1na2vs0mg"},{"bike_id":"7d9d71eb-8ba7-4605-b116-8faf9c5372e2","system_id":"levelo_inurba_marseille","lat":43.31351,"lon":5.36727,"is_reserved":false,"is_disabled":false,"rental_uris":{"android":"levelo://app?vid=7d9d71eb-8ba7-4605-b116-8faf9c5372e2","ios":"levelo://app?vid=7d9d71eb-8ba7-4605-b116-8faf9c5372e2"},"vehicle_type_id":"4","last_reported":1745821380,"current_range_meters":12400,"station_id":"ce4bgr92rcd13ifvqc6g","pricing_plan_id":"cebpf4jnsgd1na2vs0mg"},{"bike_id":"45d09500-4580-4832-b2a0-d173ab8318b9","system_id":"levelo_inurba_marseille","lat":43.32478,"lon":5.36582,"is_reserved":false,"is_disabled":false,"rental_uris":{"android":"levelo://app?vid=45d09500-4580-4832-b2a0-d173ab8318b9","ios":"levelo://app?vid=45d09500-4580-4832-b2a0-d173ab8318b9"},"vehicle_type_id":"4","last_reported":1745821380,"current_range_meters":12400,"station_id":"ce4bhs12rcd13ifvqhvg","pricing_plan_id":"cebpf4jnsgd1na2vs0mg"},{"bike_id":"b848c4e7-de6e-400e-8125-30100e4d51de","system_id":"levelo_inurba_marseille","lat":43.31358,"lon":5.3671,"is_reserved":false,"is_disabled":true,"rental_uris":{"android":"levelo://app?vid=b848c4e7-de6e-400e-8125-30100e4d51de","ios":"levelo://app?vid=b848c4e7-de6e-400e-8125-30100e4d51de"},"vehicle_type_id":"4","last_reported":1745821380,"current_range_meters":12800,"station_id":"ce4bgr92rcd13ifvqc6g","pricing_plan_id":"cebpf4jnsgd1na2vs0mg"},{"bike_id":"d5792b96-81ae-4816-accb-680dcd29aa8e","system_id":"levelo_inurba_marseille","lat":43.24695,"lon":5.38157,"is_reserved":false,"is_disabled":true,"rental_uris":{"android":"levelo://app?vid=d5792b96-81ae-4816-accb-680dcd29aa8e","ios":"levelo://app?vid=d5792b96-81ae-4816-accb-680dcd29aa8e"},"vehicle_type_id":"4","last_reported":1745821380,"current_range_meters":12800,"station_id":"ce4bhih2rcd13ifvqfr0","pricing_plan_id":"cebpf4jnsgd1na2vs0mg"},{"bike_id":"bdba2434-6c26-4555-ad7c-0c9f407e93f3","system_id":"levelo_inurba_marseille","lat":43.32658,"lon":5.40983,"is_reserved":false,"is_disabled":false,"rental_uris":{"android":"levelo://app?vid=bdba2434-6c26-4555-ad7c-0c9f407e93f3","ios":"levelo://app?vid=bdba2434-6c26-4555-ad7c-0c9f407e93f3"},"vehicle_type_id":"4","last_reported":1745821380,"current_range_meters":12800,"station_id":"ce4bhpp2rcd13ifvqhgg","pricing_plan_id":"cebpf4jnsgd1na2vs0mg"},{"bike_id":"2702eb71-50fe-493a-b07f-fb844f7f5b60","system_id":"levelo_inurba_marseille","lat":43.31247,"lon":5.4018,"is_reserved":false,"is_disabled":false,"rental_uris":{"android":"levelo://app?vid=2702eb71-50fe-493a-b07f-fb844f7f5b60","ios":"levelo://app?vid=2702eb71-50fe-493a-b07f-fb844f7f5b60"},"vehicle_type_id":"4","last_reported":1745821380,"current_range_meters":12800,"station_id":"ce4bh092rcd13ifvqd30","pricing_plan_id":"cebpf4jnsgd1na2vs0mg"},{"bike_id":"a1300fa1-43f7-47bc-be68-1621591c429e","system_id":"levelo_inurba_marseille","lat":43.25071,"lon":5.38882,"is_reserved":false,"is_disabled":true,"rental_uris":{"android":"levelo://app?vid=a1300fa1-43f7-47bc-be68-1621591c429e","ios":"levelo://app?vid=a1300fa1-43f7-47bc-be68-1621591c429e"},"vehicle_type_id":"4","last_reported":1745821380,"current_range_meters":12800,"station_id":"ce4bhgp2rcd13ifvqfd0","pricing_plan_id":"cebpf4jnsgd1na2vs0mg"},{"bike_id":"647355cc-822f-41e4-b0fe-856d5a69a337","system_id":"levelo_inurba_marseille","lat":43.211908,"lon":5.350669,"is_reserved":false,"is_disabled":false,"rental_uris":{"android":"levelo://app?vid=647355cc-822f-41e4-b0fe-856d5a69a337","ios":"levelo://app?vid=647355cc-822f-41e4-b0fe-856d5a69a337"},"vehicle_type_id":"4","last_reported":1745821380,"current_range_meters":13600,"station_id":"st_cvj6sg6p6f1abm77japg","pricing_plan_id":"cebpf4jnsgd1na2vs0mg"},{"bike_id":"4046a82f-66e8-4b55-bd0a-356edea772d8","system_id":"levelo_inurba_marseille","lat":43.30604,"lon":5.38176,"is_reserved":false,"is_disabled":true,"rental_uris":{"android":"levelo://app?vid=4046a82f-66e8-4b55-bd0a-356edea772d8","ios":"levelo://app?vid=4046a82f-66e8-4b55-bd0a-356edea772d8"},"vehicle_type_id":"4","last_reported":1745821380,"current_range_meters":13600,"station_id":"","pricing_plan_id":"cebpf4jnsgd1na2vs0mg"},{"bike_id":"a6292043-eafa-4e45-9bdf-436734c8f384","system_id":"levelo_inurba_marseille","lat":43.25934,"lon":5.40912,"is_reserved":false,"is_disabled":false,"rental_uris":{"android":"levelo://app?vid=a6292043-eafa-4e45-9bdf-436734c8f384","ios":"levelo://app?vid=a6292043-eafa-4e45-9bdf-436734c8f384"},"vehicle_type_id":"4","last_reported":1745821380,"current_range_meters":13600,"station_id":"ce4bhm92rcd13ifvqglg","pricing_plan_id":"cebpf4jnsgd1na2vs0mg"},{"bike_id":"0ee5e2ca-5fb2-4fa1-bf78-897d5e628bbe","system_id":"levelo_inurba_marseille","lat":43.272044,"lon":5.391863,"is_reserved":false,"is_disabled":false,"rental_uris":{"android":"levelo://app?vid=0ee5e2ca-5fb2-4fa1-bf78-897d5e628bbe","ios":"levelo://app?vid=0ee5e2ca-5fb2-4fa1-bf78-897d5e628bbe"},"vehicle_type_id":"4","last_reported":1745821380,"current_range_meters":12800,"station_id":"ce4bhhp2rcd13ifvqfm0","pricing_plan_id":"cebpf4jnsgd1na2vs0mg"},{"bike_id":"55d85d15-2e7f-4581-8029-f1a8547a972e","system_id":"levelo_inurba_marseille","lat":43.27478,"lon":5.42456,"is_reserved":false,"is_disabled":false,"rental_uris":{"android":"levelo://app?vid=55d85d15-2e7f-4581-8029-f1a8547a972e","ios":"levelo://app?vid=55d85d15-2e7f-4581-8029-f1a8547a972e"},"vehicle_type_id":"4","last_reported":1745821380,"current_range_meters":13600,"station_id":"ce4bhn92rcd13ifvqgrg","pricing_plan_id":"cebpf4jnsgd1na2vs0mg"},{"bike_id":"d8e186e0-8d9f-4c16-bb12-3c50f63fd666","system_id":"levelo_inurba_marseille","lat":43.2749,"lon":5.42439,"is_reserved":false,"is_disabled":false,"rental_uris":{"android":"levelo://app?vid=d8e186e0-8d9f-4c16-bb12-3c50f63fd666","ios":"levelo://app?vid=d8e186e0-8d9f-4c16-bb12-3c50f63fd666"},"vehicle_type_id":"4","last_reported":1745821380,"current_range_meters":13600,"station_id":"ce4bhn92rcd13ifvqgrg","pricing_plan_id":"cebpf4jnsgd1na2vs0mg"},{"bike_id":"d296e4ef-60ee-4d8c-a27d-5dde5a51e438","system_id":"levelo_inurba_marseille","lat":43.26953,"lon":5.38632,"is_reserved":false,"is_disabled":false,"rental_uris":{"android":"levelo://app?vid=d296e4ef-60ee-4d8c-a27d-5dde5a51e438","ios":"levelo://app?vid=d296e4ef-60ee-4d8c-a27d-5dde5a51e438"},"vehicle_type_id":"4","last_reported":1745821380,"current_range_meters":13600,"station_id":"ce4bhh92rcd13ifvqfh0","pricing_plan_id":"cebpf4jnsgd1na2vs0mg"},{"bike_id":"97fd7a4c-36e8-401d-b12d-1b4015a01ebe","system_id":"levelo_inurba_marseille","lat":43.26549,"lon":5.42196,"is_reserved":false,"is_disabled":false,"rental_uris":{"android":"levelo://app?vid=97fd7a4c-36e8-401d-b12d-1b4015a01ebe","ios":"levelo://app?vid=97fd7a4c-36e8-401d-b12d-1b4015a01ebe"},"vehicle_type_id":"4","last_reported":1745821380,"current_range_meters":14000,"station_id":"","pricing_plan_id":"cebpf4jnsgd1na2vs0mg"},{"bike_id":"c17b80ad-6153-4325-ab92-0f28bc4dfaa9","system_id":"levelo_inurba_marseille","lat":43.25577,"lon":5.38246,"is_reserved":false,"is_disabled":true,"rental_uris":{"android":"levelo://app?vid=c17b80ad-6153-4325-ab92-0f28bc4dfaa9","ios":"levelo://app?vid=c17b80ad-6153-4325-ab92-0f28bc4dfaa9"},"vehicle_type_id":"4","last_reported":1745821380,"current_range_meters":14400,"station_id":"ce4bhih2rcd13ifvqfs0","pricing_plan_id":"cebpf4jnsgd1na2vs0mg"},{"bike_id":"e492037e-60a9-4864-84d6-2fe9ea031f90","system_id":"levelo_inurba_marseille","lat":43.27964,"lon":5.38744,"is_reserved":false,"is_disabled":false,"rental_uris":{"android":"levelo://app?vid=e492037e-60a9-4864-84d6-2fe9ea031f90","ios":"levelo://app?vid=e492037e-60a9-4864-84d6-2fe9ea031f90"},"vehicle_type_id":"4","last_reported":1745821380,"current_range_meters":14400,"station_id":"ce4bhg12rcd13ifvqf80","pricing_plan_id":"cebpf4jnsgd1na2vs0mg"},{"bike_id":"a8fe43d6-c4f0-4e11-8789-18c41ad3a7de","system_id":"levelo_inurba_marseille","lat":43.24999,"lon":5.38924,"is_reserved":false,"is_disabled":false,"rental_uris":{"android":"levelo://app?vid=a8fe43d6-c4f0-4e11-8789-18c41ad3a7de","ios":"levelo://app?vid=a8fe43d6-c4f0-4e11-8789-18c41ad3a7de"},"vehicle_type_id":"4","last_reported":1745821380,"current_range_meters":14400,"station_id":"ce4bhgp2rcd13ifvqfd0","pricing_plan_id":"cebpf4jnsgd1na2vs0mg"},{"bike_id":"683b45fe-d6d7-4560-ae22-95bdbf4d269a","system_id":"levelo_inurba_marseille","lat":43.21748,"lon":5.346,"is_reserved":false,"is_disabled":true,"rental_uris":{"android":"levelo://app?vid=683b45fe-d6d7-4560-ae22-95bdbf4d269a","ios":"levelo://app?vid=683b45fe-d6d7-4560-ae22-95bdbf4d269a"},"vehicle_type_id":"4","last_reported":1745821380,"current_range_meters":14400,"station_id":"st_cvj6r9ubvosntc0bgbag","pricing_plan_id":"cebpf4jnsgd1na2vs0mg"},{"bike_id":"7d4859bb-6fe0-424f-a942-9c856aafc025","system_id":"levelo_inurba_marseille","lat":43.31495,"lon":5.37262,"is_reserved":false,"is_disabled":false,"rental_uris":{"android":"levelo://app?vid=7d4859bb-6fe0-424f-a942-9c856aafc025","ios":"levelo://app?vid=7d4859bb-6fe0-424f-a942-9c856aafc025"},"vehicle_type_id":"4","last_reported":1745821380,"current_range_meters":14400,"station_id":"ce4bgt12rcd13ifvqcd0","pricing_plan_id":"cebpf4jnsgd1na2vs0mg"},{"bike_id":"f8b82dd5-2d85-4846-8b9d-5afc30043cf6","system_id":"levelo_inurba_marseille","lat":43.22495,"lon":5.34801,"is_reserved":false,"is_disabled":false,"rental_uris":{"android":"levelo://app?vid=f8b82dd5-2d85-4846-8b9d-5afc30043cf6","ios":"levelo://app?vid=f8b82dd5-2d85-4846-8b9d-5afc30043cf6"},"vehicle_type_id":"4","last_reported":1745821380,"current_range_meters":14400,"station_id":"st_cvj5dfep6f1abm77gieg","pricing_plan_id":"cebpf4jnsgd1na2vs0mg"},{"bike_id":"2d8ee308-03ed-4761-9d96-95839d6c6deb","system_id":"levelo_inurba_marseille","lat":43.286107,"lon":5.370676,"is_reserved":false,"is_disabled":false,"rental_uris":{"android":"levelo://app?vid=2d8ee308-03ed-4761-9d96-95839d6c6deb","ios":"levelo://app?vid=2d8ee308-03ed-4761-9d96-95839d6c6deb"},"vehicle_type_id":"4","last_reported":1745821380,"current_range_meters":14400,"station_id":"ce4bht12rcd13ifvqi60","pricing_plan_id":"cebpf4jnsgd1na2vs0mg"},{"bike_id":"7cb17432-a062-465f-85a4-b60c350ddacd","system_id":"levelo_inurba_marseille","lat":43.29565,"lon":5.37492,"is_reserved":false,"is_disabled":true,"rental_uris":{"android":"levelo://app?vid=7cb17432-a062-465f-85a4-b60c350ddacd","ios":"levelo://app?vid=7cb17432-a062-465f-85a4-b60c350ddacd"},"vehicle_type_id":"4","last_reported":1745821380,"current_range_meters":14400,"station_id":"ce4bgh92rcd13ifvqb50","pricing_plan_id":"cebpf4jnsgd1na2vs0mg"},{"bike_id":"3f5f2c9a-9e49-4b78-9b1b-0708da9fec39","system_id":"levelo_inurba_marseille","lat":43.22496,"lon":5.34781,"is_reserved":false,"is_disabled":true,"rental_uris":{"android":"levelo://app?vid=3f5f2c9a-9e49-4b78-9b1b-0708da9fec39","ios":"levelo://app?vid=3f5f2c9a-9e49-4b78-9b1b-0708da9fec39"},"vehicle_type_id":"4","last_reported":1745821380,"current_range_meters":14800,"station_id":"st_cvj5dfep6f1abm77gieg","pricing_plan_id":"cebpf4jnsgd1na2vs0mg"},{"bike_id":"2e7ac15a-983b-44da-a8d0-533b1e803195","system_id":"levelo_inurba_marseille","lat":43.25575,"lon":5.38236,"is_reserved":false,"is_disabled":false,"rental_uris":{"android":"levelo://app?vid=2e7ac15a-983b-44da-a8d0-533b1e803195","ios":"levelo://app?vid=2e7ac15a-983b-44da-a8d0-533b1e803195"},"vehicle_type_id":"4","last_reported":1745821380,"current_range_meters":14800,"station_id":"ce4bhih2rcd13ifvqfs0","pricing_plan_id":"cebpf4jnsgd1na2vs0mg"},{"bike_id":"cdefb1fb-f28b-4051-a0f5-a9451436b4ed","system_id":"levelo_inurba_marseille","lat":43.2582,"lon":5.38596,"is_reserved":false,"is_disabled":false,"rental_uris":{"android":"levelo://app?vid=cdefb1fb-f28b-4051-a0f5-a9451436b4ed","ios":"levelo://app?vid=cdefb1fb-f28b-4051-a0f5-a9451436b4ed"},"vehicle_type_id":"4","last_reported":1745821380,"current_range_meters":14800,"station_id":"","pricing_plan_id":"cebpf4jnsgd1na2vs0mg"},{"bike_id":"4830a7ca-dadd-4a29-90c5-7ec91bfb3f4e","system_id":"levelo_inurba_marseille","lat":43.32538,"lon":5.41428,"is_reserved":false,"is_disabled":true,"rental_uris":{"android":"levelo://app?vid=4830a7ca-dadd-4a29-90c5-7ec91bfb3f4e","ios":"levelo://app?vid=4830a7ca-dadd-4a29-90c5-7ec91bfb3f4e"},"vehicle_type_id":"4","last_reported":1745821380,"current_range_meters":14800,"station_id":"ce4bhq12rcd13ifvqhhg","pricing_plan_id":"cebpf4jnsgd1na2vs0mg"},{"bike_id":"5a6ac1ef-2dc1-443e-9eb7-7c540b3b79a7","system_id":"levelo_inurba_marseille","lat":43.31512,"lon":5.37266,"is_reserved":false,"is_disabled":false,"rental_uris":{"android":"levelo://app?vid=5a6ac1ef-2dc1-443e-9eb7-7c540b3b79a7","ios":"levelo://app?vid=5a6ac1ef-2dc1-443e-9eb7-7c540b3b79a7"},"vehicle_type_id":"4","last_reported":1745821380,"current_range_meters":15200,"station_id":"ce4bgt12rcd13ifvqcd0","pricing_plan_id":"cebpf4jnsgd1na2vs0mg"},{"bike_id":"5a983abf-1f6f-4a2d-880b-bac58e63b800","system_id":"levelo_inurba_marseille","lat":43.27829,"lon":5.4079,"is_reserved":false,"is_disabled":true,"rental_uris":{"android":"levelo://app?vid=5a983abf-1f6f-4a2d-880b-bac58e63b800","ios":"levelo://app?vid=5a983abf-1f6f-4a2d-880b-bac58e63b800"},"vehicle_type_id":"4","last_reported":1745821380,"current_range_meters":15200,"station_id":"ce4bhnh2rcd13ifvqgtg","pricing_plan_id":"cebpf4jnsgd1na2vs0mg"},{"bike_id":"181ed326-b471-49b5-9f00-acd48cb5b299","system_id":"levelo_inurba_marseille","lat":43.28275,"lon":5.35091,"is_reserved":false,"is_disabled":true,"rental_uris":{"android":"levelo://app?vid=181ed326-b471-49b5-9f00-acd48cb5b299","ios":"levelo://app?vid=181ed326-b471-49b5-9f00-acd48cb5b299"},"vehicle_type_id":"4","last_reported":1745821380,"current_range_meters":15200,"station_id":"ce4bhbp2rcd13ifvqerg","pricing_plan_id":"cebpf4jnsgd1na2vs0mg"},{"bike_id":"6a3ad0ca-897c-414f-a69a-aae8b2ea7b61","system_id":"levelo_inurba_marseille","lat":43.21757,"lon":5.346,"is_reserved":false,"is_disabled":false,"rental_uris":{"android":"levelo://app?vid=6a3ad0ca-897c-414f-a69a-aae8b2ea7b61","ios":"levelo://app?vid=6a3ad0ca-897c-414f-a69a-aae8b2ea7b61"},"vehicle_type_id":"4","last_reported":1745821380,"current_range_meters":15200,"station_id":"st_cvj6r9ubvosntc0bgbag","pricing_plan_id":"cebpf4jnsgd1na2vs0mg"},{"bike_id":"510d1b76-27be-4268-aedc-46993a5973e8","system_id":"levelo_inurba_marseille","lat":43.24644,"lon":5.38922,"is_reserved":false,"is_disabled":false,"rental_uris":{"android":"levelo://app?vid=510d1b76-27be-4268-aedc-46993a5973e8","ios":"levelo://app?vid=510d1b76-27be-4268-aedc-46993a5973e8"},"vehicle_type_id":"4","last_reported":1745821380,"current_range_meters":16000,"station_id":"ce4bhg12rcd13ifvqf60","pricing_plan_id":"cebpf4jnsgd1na2vs0mg"},{"bike_id":"ff75ad8a-84a8-4e09-b733-5fb0903ef15d","system_id":"levelo_inurba_marseille","lat":43.322825,"lon":5.382935,"is_reserved":false,"is_disabled":false,"rental_uris":{"android":"levelo://app?vid=ff75ad8a-84a8-4e09-b733-5fb0903ef15d","ios":"levelo://app?vid=ff75ad8a-84a8-4e09-b733-5fb0903ef15d"},"vehicle_type_id":"4","last_reported":1745821380,"current_range_meters":16000,"station_id":"ce4bhr12rcd13ifvqhqg","pricing_plan_id":"cebpf4jnsgd1na2vs0mg"},{"bike_id":"f7a845b4-68f2-460c-8e5f-3541db480854","system_id":"levelo_inurba_marseille","lat":43.337444,"lon":5.374475,"is_reserved":false,"is_disabled":false,"rental_uris":{"android":"levelo://app?vid=f7a845b4-68f2-460c-8e5f-3541db480854","ios":"levelo://app?vid=f7a845b4-68f2-460c-8e5f-3541db480854"},"vehicle_type_id":"4","last_reported":1745821380,"current_range_meters":16000,"station_id":"ce4bgk12rcd13ifvqbi0","pricing_plan_id":"cebpf4jnsgd1na2vs0mg"},{"bike_id":"db9128d4-fa4b-4b3d-b5d8-0462404fa361","system_id":"levelo_inurba_marseille","lat":43.32099,"lon":5.3677,"is_reserved":false,"is_disabled":false,"rental_uris":{"android":"levelo://app?vid=db9128d4-fa4b-4b3d-b5d8-0462404fa361","ios":"levelo://app?vid=db9128d4-fa4b-4b3d-b5d8-0462404fa361"},"vehicle_type_id":"4","last_reported":1745821380,"current_range_meters":16000,"station_id":"ce4bhrh2rcd13ifvqhug","pricing_plan_id":"cebpf4jnsgd1na2vs0mg"},{"bike_id":"988d3e51-0f81-4d05-9256-41d5bf2a54ae","system_id":"levelo_inurba_marseille","lat":43.29718,"lon":5.36622,"is_reserved":false,"is_disabled":true,"rental_uris":{"android":"levelo://app?vid=988d3e51-0f81-4d05-9256-41d5bf2a54ae","ios":"levelo://app?vid=988d3e51-0f81-4d05-9256-41d5bf2a54ae"},"vehicle_type_id":"4","last_reported":1745821380,"current_range_meters":16000,"station_id":"ce4bgn12rcd13ifvqbt0","pricing_plan_id":"cebpf4jnsgd1na2vs0mg"},{"bike_id":"61ea8713-85ae-40db-a5b7-65d2ba6508c3","system_id":"levelo_inurba_marseille","lat":43.30897,"lon":5.37194,"is_reserved":false,"is_disabled":false,"rental_uris":{"android":"levelo://app?vid=61ea8713-85ae-40db-a5b7-65d2ba6508c3","ios":"levelo://app?vid=61ea8713-85ae-40db-a5b7-65d2ba6508c3"},"vehicle_type_id":"4","last_reported":1745821380,"current_range_meters":16000,"station_id":"ce4bguh2rcd13ifvqckg","pricing_plan_id":"cebpf4jnsgd1na2vs0mg"},{"bike_id":"8ed43a6e-a317-49b1-9eb4-5625f8c6c959","system_id":"levelo_inurba_marseille","lat":43.24072,"lon":5.37749,"is_reserved":false,"is_disabled":false,"rental_uris":{"android":"levelo://app?vid=8ed43a6e-a317-49b1-9eb4-5625f8c6c959","ios":"levelo://app?vid=8ed43a6e-a317-49b1-9eb4-5625f8c6c959"},"vehicle_type_id":"4","last_reported":1745821380,"current_range_meters":16000,"station_id":"ce4bhnp2rcd13ifvqgvg","pricing_plan_id":"cebpf4jnsgd1na2vs0mg"},{"bike_id":"c78eb499-3092-4e40-8043-09ad65c2d95e","system_id":"levelo_inurba_marseille","lat":43.27374,"lon":5.36257,"is_reserved":false,"is_disabled":false,"rental_uris":{"android":"levelo://app?vid=c78eb499-3092-4e40-8043-09ad65c2d95e","ios":"levelo://app?vid=c78eb499-3092-4e40-8043-09ad65c2d95e"},"vehicle_type_id":"4","last_reported":1745821380,"current_range_meters":16000,"station_id":"ce4bhbh2rcd13ifvqeo0","pricing_plan_id":"cebpf4jnsgd1na2vs0mg"},{"bike_id":"7acfc84c-a194-4e0a-9a62-a4c03f5dabc8","system_id":"levelo_inurba_marseille","lat":43.326914,"lon":5.413621,"is_reserved":false,"is_disabled":true,"rental_uris":{"android":"levelo://app?vid=7acfc84c-a194-4e0a-9a62-a4c03f5dabc8","ios":"levelo://app?vid=7acfc84c-a194-4e0a-9a62-a4c03f5dabc8"},"vehicle_type_id":"4","last_reported":1745821380,"current_range_meters":16400,"station_id":"ce4bhr92rcd13ifvqhsg","pricing_plan_id":"cebpf4jnsgd1na2vs0mg"},{"bike_id":"319ed91e-ee8b-4f1b-9b8d-59b50d3f0729","system_id":"levelo_inurba_marseille","lat":43.32652,"lon":5.40996,"is_reserved":false,"is_disabled":false,"rental_uris":{"android":"levelo://app?vid=319ed91e-ee8b-4f1b-9b8d-59b50d3f0729","ios":"levelo://app?vid=319ed91e-ee8b-4f1b-9b8d-59b50d3f0729"},"vehicle_type_id":"4","last_reported":1745821380,"current_range_meters":16400,"station_id":"ce4bhpp2rcd13ifvqhgg","pricing_plan_id":"cebpf4jnsgd1na2vs0mg"},{"bike_id":"afd11bfc-1dcc-4e4b-8547-bcd93dfef0a3","system_id":"levelo_inurba_marseille","lat":43.26393,"lon":5.37494,"is_reserved":false,"is_disabled":true,"rental_uris":{"android":"levelo://app?vid=afd11bfc-1dcc-4e4b-8547-bcd93dfef0a3","ios":"levelo://app?vid=afd11bfc-1dcc-4e4b-8547-bcd93dfef0a3"},"vehicle_type_id":"4","last_reported":1745821380,"current_range_meters":16400,"station_id":"","pricing_plan_id":"cebpf4jnsgd1na2vs0mg"},{"bike_id":"5f363fb2-65d6-4f54-a7e8-9f0969c18dcf","system_id":"levelo_inurba_marseille","lat":43.30552,"lon":5.36527,"is_reserved":false,"is_disabled":true,"rental_uris":{"android":"levelo://app?vid=5f363fb2-65d6-4f54-a7e8-9f0969c18dcf","ios":"levelo://app?vid=5f363fb2-65d6-4f54-a7e8-9f0969c18dcf"},"vehicle_type_id":"4","last_reported":1745821380,"current_range_meters":16800,"station_id":"ce4bgs12rcd13ifvqcag","pricing_plan_id":"cebpf4jnsgd1na2vs0mg"},{"bike_id":"26a3a486-22ae-4f18-968f-0315749ebb9a","system_id":"levelo_inurba_marseille","lat":43.29609,"lon":5.38102,"is_reserved":false,"is_disabled":false,"rental_uris":{"android":"levelo://app?vid=26a3a486-22ae-4f18-968f-0315749ebb9a","ios":"levelo://app?vid=26a3a486-22ae-4f18-968f-0315749ebb9a"},"vehicle_type_id":"4","last_reported":1745821380,"current_range_meters":16800,"station_id":"ce4bgl12rcd13ifvqbo0","pricing_plan_id":"cebpf4jnsgd1na2vs0mg"},{"bike_id":"5d80cec4-cf0d-4b75-87cc-4649871dd5da","system_id":"levelo_inurba_marseille","lat":43.27493,"lon":5.42441,"is_reserved":false,"is_disabled":false,"rental_uris":{"android":"levelo://app?vid=5d80cec4-cf0d-4b75-87cc-4649871dd5da","ios":"levelo://app?vid=5d80cec4-cf0d-4b75-87cc-4649871dd5da"},"vehicle_type_id":"4","last_reported":1745821380,"current_range_meters":16800,"station_id":"ce4bhn92rcd13ifvqgrg","pricing_plan_id":"cebpf4jnsgd1na2vs0mg"},{"bike_id":"b45721df-1911-4bd0-96bb-0c84adb69cfd","system_id":"levelo_inurba_marseille","lat":43.23961,"lon":5.36632,"is_reserved":false,"is_disabled":false,"rental_uris":{"android":"levelo://app?vid=b45721df-1911-4bd0-96bb-0c84adb69cfd","ios":"levelo://app?vid=b45721df-1911-4bd0-96bb-0c84adb69cfd"},"vehicle_type_id":"4","last_reported":1745821380,"current_range_meters":16800,"station_id":"ce4bhi12rcd13ifvqfp0","pricing_plan_id":"cebpf4jnsgd1na2vs0mg"},{"bike_id":"fa494d4d-8b89-4273-986d-051b0d993f15","system_id":"levelo_inurba_marseille","lat":43.28037,"lon":5.36947,"is_reserved":false,"is_disabled":false,"rental_uris":{"android":"levelo://app?vid=fa494d4d-8b89-4273-986d-051b0d993f15","ios":"levelo://app?vid=fa494d4d-8b89-4273-986d-051b0d993f15"},"vehicle_type_id":"4","last_reported":1745821380,"current_range_meters":16800,"station_id":"ce4bha12rcd13ifvqef0","pricing_plan_id":"cebpf4jnsgd1na2vs0mg"},{"bike_id":"daa5fb12-4e0b-4bce-a6b1-6719a5e359ca","system_id":"levelo_inurba_marseille","lat":43.23138,"lon":5.4372,"is_reserved":false,"is_disabled":false,"rental_uris":{"android":"levelo://app?vid=daa5fb12-4e0b-4bce-a6b1-6719a5e359ca","ios":"levelo://app?vid=daa5fb12-4e0b-4bce-a6b1-6719a5e359ca"},"vehicle_type_id":"4","last_reported":1745821380,"current_range_meters":16800,"station_id":"ce4bhmp2rcd13ifvqgog","pricing_plan_id":"cebpf4jnsgd1na2vs0mg"},{"bike_id":"9ee2e7ca-2076-4304-945e-cc89b15f1258","system_id":"levelo_inurba_marseille","lat":43.33775,"lon":5.37446,"is_reserved":false,"is_disabled":false,"rental_uris":{"android":"levelo://app?vid=9ee2e7ca-2076-4304-945e-cc89b15f1258","ios":"levelo://app?vid=9ee2e7ca-2076-4304-945e-cc89b15f1258"},"vehicle_type_id":"4","last_reported":1745821380,"current_range_meters":17200,"station_id":"","pricing_plan_id":"cebpf4jnsgd1na2vs0mg"},{"bike_id":"854b6f67-ca9a-45bb-a87f-9accf64bf40e","system_id":"levelo_inurba_marseille","lat":43.27559,"lon":5.38402,"is_reserved":false,"is_disabled":true,"rental_uris":{"android":"levelo://app?vid=854b6f67-ca9a-45bb-a87f-9accf64bf40e","ios":"levelo://app?vid=854b6f67-ca9a-45bb-a87f-9accf64bf40e"},"vehicle_type_id":"4","last_reported":1745821380,"current_range_meters":17200,"station_id":"ce4bhh92rcd13ifvqfi0","pricing_plan_id":"cebpf4jnsgd1na2vs0mg"},{"bike_id":"9275afeb-620b-4a3c-83d1-31bc14709d93","system_id":"levelo_inurba_marseille","lat":43.28848,"lon":5.35855,"is_reserved":false,"is_disabled":true,"rental_uris":{"android":"levelo://app?vid=9275afeb-620b-4a3c-83d1-31bc14709d93","ios":"levelo://app?vid=9275afeb-620b-4a3c-83d1-31bc14709d93"},"vehicle_type_id":"4","last_reported":1745821380,"current_range_meters":17200,"station_id":"ce4bhb12rcd13ifvqem0","pricing_plan_id":"cebpf4jnsgd1na2vs0mg"},{"bike_id":"6c72de35-de49-45aa-84fb-0f4a50376358","system_id":"levelo_inurba_marseille","lat":43.32978,"lon":5.43851,"is_reserved":false,"is_disabled":false,"rental_uris":{"android":"levelo://app?vid=6c72de35-de49-45aa-84fb-0f4a50376358","ios":"levelo://app?vid=6c72de35-de49-45aa-84fb-0f4a50376358"},"vehicle_type_id":"4","last_reported":1745821380,"current_range_meters":17200,"station_id":"","pricing_plan_id":"cebpf4jnsgd1na2vs0mg"},{"bike_id":"55c1d854-3d51-4d29-9506-b606c2c1e930","system_id":"levelo_inurba_marseille","lat":43.31579,"lon":5.37324,"is_reserved":false,"is_disabled":false,"rental_uris":{"android":"levelo://app?vid=55c1d854-3d51-4d29-9506-b606c2c1e930","ios":"levelo://app?vid=55c1d854-3d51-4d29-9506-b606c2c1e930"},"vehicle_type_id":"4","last_reported":1745821380,"current_range_meters":17200,"station_id":"","pricing_plan_id":"cebpf4jnsgd1na2vs0mg"},{"bike_id":"e88d2632-396f-4ef2-9d34-a578a6382ab0","system_id":"levelo_inurba_marseille","lat":43.29617,"lon":5.37728,"is_reserved":false,"is_disabled":false,"rental_uris":{"android":"levelo://app?vid=e88d2632-396f-4ef2-9d34-a578a6382ab0","ios":"levelo://app?vid=e88d2632-396f-4ef2-9d34-a578a6382ab0"},"vehicle_type_id":"4","last_reported":1745821380,"current_range_meters":17600,"station_id":"ce4bgi92rcd13ifvqb90","pricing_plan_id":"cebpf4jnsgd1na2vs0mg"},{"bike_id":"685c4ccd-711a-4604-af78-caa9c08aef1b","system_id":"levelo_inurba_marseille","lat":43.24181,"lon":5.39723,"is_reserved":false,"is_disabled":false,"rental_uris":{"android":"levelo://app?vid=685c4ccd-711a-4604-af78-caa9c08aef1b","ios":"levelo://app?vid=685c4ccd-711a-4604-af78-caa9c08aef1b"},"vehicle_type_id":"4","last_reported":1745821380,"current_range_meters":17600,"station_id":"ce4bhn12rcd13ifvqgpg","pricing_plan_id":"cebpf4jnsgd1na2vs0mg"},{"bike_id":"7c5afdf3-cc1c-4a12-9455-d180975bad48","system_id":"levelo_inurba_marseille","lat":43.30134,"lon":5.38095,"is_reserved":false,"is_disabled":false,"rental_uris":{"android":"levelo://app?vid=7c5afdf3-cc1c-4a12-9455-d180975bad48","ios":"levelo://app?vid=7c5afdf3-cc1c-4a12-9455-d180975bad48"},"vehicle_type_id":"4","last_reported":1745821380,"current_range_meters":17600,"station_id":"ce4bgjp2rcd13ifvqbh0","pricing_plan_id":"cebpf4jnsgd1na2vs0mg"},{"bike_id":"26e2563a-5614-46af-9839-4e09e7d33768","system_id":"levelo_inurba_marseille","lat":43.33621,"lon":5.41024,"is_reserved":false,"is_disabled":false,"rental_uris":{"android":"levelo://app?vid=26e2563a-5614-46af-9839-4e09e7d33768","ios":"levelo://app?vid=26e2563a-5614-46af-9839-4e09e7d33768"},"vehicle_type_id":"4","last_reported":1745821380,"current_range_meters":17600,"station_id":"ce4bhqh2rcd13ifvqhmg","pricing_plan_id":"cebpf4jnsgd1na2vs0mg"},{"bike_id":"2420ad39-a5b7-4ea3-b775-69cf92e1a47f","system_id":"levelo_inurba_marseille","lat":43.259329,"lon":5.409036,"is_reserved":false,"is_disabled":false,"rental_uris":{"android":"levelo://app?vid=2420ad39-a5b7-4ea3-b775-69cf92e1a47f","ios":"levelo://app?vid=2420ad39-a5b7-4ea3-b775-69cf92e1a47f"},"vehicle_type_id":"4","last_reported":1745821380,"current_range_meters":17600,"station_id":"ce4bhm92rcd13ifvqglg","pricing_plan_id":"cebpf4jnsgd1na2vs0mg"},{"bike_id":"dde3adb5-49db-409f-8f91-eb853ce9f70c","system_id":"levelo_inurba_marseille","lat":43.24165,"lon":5.36391,"is_reserved":false,"is_disabled":false,"rental_uris":{"android":"levelo://app?vid=dde3adb5-49db-409f-8f91-eb853ce9f70c","ios":"levelo://app?vid=dde3adb5-49db-409f-8f91-eb853ce9f70c"},"vehicle_type_id":"4","last_reported":1745821380,"current_range_meters":17600,"station_id":"cpo36qri1sfpv3e86is0","pricing_plan_id":"cebpf4jnsgd1na2vs0mg"},{"bike_id":"c9154b34-fa99-42bd-94d8-d27a8289fc34","system_id":"levelo_inurba_marseille","lat":43.29028,"lon":5.39963,"is_reserved":false,"is_disabled":false,"rental_uris":{"android":"levelo://app?vid=c9154b34-fa99-42bd-94d8-d27a8289fc34","ios":"levelo://app?vid=c9154b34-fa99-42bd-94d8-d27a8289fc34"},"vehicle_type_id":"4","last_reported":1745821380,"current_range_meters":17600,"station_id":"ce4bh392rcd13ifvqdm0","pricing_plan_id":"cebpf4jnsgd1na2vs0mg"},{"bike_id":"684f86f6-be6a-499a-9e7e-06a4321777cd","system_id":"levelo_inurba_marseille","lat":43.27495,"lon":5.42451,"is_reserved":false,"is_disabled":true,"rental_uris":{"android":"levelo://app?vid=684f86f6-be6a-499a-9e7e-06a4321777cd","ios":"levelo://app?vid=684f86f6-be6a-499a-9e7e-06a4321777cd"},"vehicle_type_id":"4","last_reported":1745821380,"current_range_meters":18000,"station_id":"ce4bhn92rcd13ifvqgrg","pricing_plan_id":"cebpf4jnsgd1na2vs0mg"},{"bike_id":"d0084b40-0977-469b-a971-471d5dd9a078","system_id":"levelo_inurba_marseille","lat":43.25937,"lon":5.40897,"is_reserved":false,"is_disabled":false,"rental_uris":{"android":"levelo://app?vid=d0084b40-0977-469b-a971-471d5dd9a078","ios":"levelo://app?vid=d0084b40-0977-469b-a971-471d5dd9a078"},"vehicle_type_id":"4","last_reported":1745821380,"current_range_meters":18000,"station_id":"ce4bhm92rcd13ifvqglg","pricing_plan_id":"cebpf4jnsgd1na2vs0mg"},{"bike_id":"4bf08038-f5c2-4f98-a256-2270055407f1","system_id":"levelo_inurba_marseille","lat":43.27507,"lon":5.42475,"is_reserved":false,"is_disabled":false,"rental_uris":{"android":"levelo://app?vid=4bf08038-f5c2-4f98-a256-2270055407f1","ios":"levelo://app?vid=4bf08038-f5c2-4f98-a256-2270055407f1"},"vehicle_type_id":"4","last_reported":1745821380,"current_range_meters":18000,"station_id":"ce4bhn92rcd13ifvqgrg","pricing_plan_id":"cebpf4jnsgd1na2vs0mg"},{"bike_id":"72e71898-d44e-4a31-a401-49f2782381c5","system_id":"levelo_inurba_marseille","lat":43.2894,"lon":5.3664,"is_reserved":false,"is_disabled":false,"rental_uris":{"android":"levelo://app?vid=72e71898-d44e-4a31-a401-49f2782381c5","ios":"levelo://app?vid=72e71898-d44e-4a31-a401-49f2782381c5"},"vehicle_type_id":"4","last_reported":1745821380,"current_range_meters":18800,"station_id":"","pricing_plan_id":"cebpf4jnsgd1na2vs0mg"},{"bike_id":"a52adf6b-9a54-44ee-a7b8-52a179368c49","system_id":"levelo_inurba_marseille","lat":43.28347,"lon":5.38114,"is_reserved":false,"is_disabled":true,"rental_uris":{"android":"levelo://app?vid=a52adf6b-9a54-44ee-a7b8-52a179368c49","ios":"levelo://app?vid=a52adf6b-9a54-44ee-a7b8-52a179368c49"},"vehicle_type_id":"4","last_reported":1745821380,"current_range_meters":18800,"station_id":"ce4bh412rcd13ifvqdr0","pricing_plan_id":"cebpf4jnsgd1na2vs0mg"},{"bike_id":"e2db68dd-f47f-4e15-8fe0-c97738bddb69","system_id":"levelo_inurba_marseille","lat":43.29265,"lon":5.36838,"is_reserved":false,"is_disabled":true,"rental_uris":{"android":"levelo://app?vid=e2db68dd-f47f-4e15-8fe0-c97738bddb69","ios":"levelo://app?vid=e2db68dd-f47f-4e15-8fe0-c97738bddb69"},"vehicle_type_id":"4","last_reported":1745821380,"current_range_meters":18800,"station_id":"ce4bhbp2rcd13ifvqesg","pricing_plan_id":"cebpf4jnsgd1na2vs0mg"},{"bike_id":"0292d40d-390a-445d-aff2-ec0181a3ae3a","system_id":"levelo_inurba_marseille","lat":43.240757,"lon":5.377544,"is_reserved":false,"is_disabled":false,"rental_uris":{"android":"levelo://app?vid=0292d40d-390a-445d-aff2-ec0181a3ae3a","ios":"levelo://app?vid=0292d40d-390a-445d-aff2-ec0181a3ae3a"},"vehicle_type_id":"4","last_reported":1745821380,"current_range_meters":18800,"station_id":"ce4bhnp2rcd13ifvqgvg","pricing_plan_id":"cebpf4jnsgd1na2vs0mg"},{"bike_id":"425564c4-f883-4f68-876f-947748498d1f","system_id":"levelo_inurba_marseille","lat":43.26957,"lon":5.40272,"is_reserved":false,"is_disabled":true,"rental_uris":{"android":"levelo://app?vid=425564c4-f883-4f68-876f-947748498d1f","ios":"levelo://app?vid=425564c4-f883-4f68-876f-947748498d1f"},"vehicle_type_id":"4","last_reported":1745821380,"current_range_meters":18800,"station_id":"cjm6bp8fraef2m0cb0m0","pricing_plan_id":"cebpf4jnsgd1na2vs0mg"},{"bike_id":"54683a4c-a9f5-440e-b4ab-9ef1aae740b4","system_id":"levelo_inurba_marseille","lat":43.28266,"lon":5.35074,"is_reserved":false,"is_disabled":false,"rental_uris":{"android":"levelo://app?vid=54683a4c-a9f5-440e-b4ab-9ef1aae740b4","ios":"levelo://app?vid=54683a4c-a9f5-440e-b4ab-9ef1aae740b4"},"vehicle_type_id":"4","last_reported":1745821380,"current_range_meters":18800,"station_id":"ce4bhbp2rcd13ifvqerg","pricing_plan_id":"cebpf4jnsgd1na2vs0mg"},{"bike_id":"c4e882de-82cc-40fc-8fdc-d03d27c35a19","system_id":"levelo_inurba_marseille","lat":43.31169,"lon":5.37033,"is_reserved":false,"is_disabled":true,"rental_uris":{"android":"levelo://app?vid=c4e882de-82cc-40fc-8fdc-d03d27c35a19","ios":"levelo://app?vid=c4e882de-82cc-40fc-8fdc-d03d27c35a19"},"vehicle_type_id":"4","last_reported":1745821380,"current_range_meters":18800,"station_id":"","pricing_plan_id":"cebpf4jnsgd1na2vs0mg"},{"bike_id":"579b9d02-e6b0-4faa-8aa6-d259af964e22","system_id":"levelo_inurba_marseille","lat":43.23959,"lon":5.36654,"is_reserved":false,"is_disabled":false,"rental_uris":{"android":"levelo://app?vid=579b9d02-e6b0-4faa-8aa6-d259af964e22","ios":"levelo://app?vid=579b9d02-e6b0-4faa-8aa6-d259af964e22"},"vehicle_type_id":"4","last_reported":1745821380,"current_range_meters":19200,"station_id":"ce4bhi12rcd13ifvqfp0","pricing_plan_id":"cebpf4jnsgd1na2vs0mg"},{"bike_id":"f977d8fc-a486-45df-8727-671d07539b11","system_id":"levelo_inurba_marseille","lat":43.26199,"lon":5.3792,"is_reserved":false,"is_disabled":true,"rental_uris":{"android":"levelo://app?vid=f977d8fc-a486-45df-8727-671d07539b11","ios":"levelo://app?vid=f977d8fc-a486-45df-8727-671d07539b11"},"vehicle_type_id":"4","last_reported":1745821380,"current_range_meters":19200,"station_id":"ce4bhjp2rcd13ifvqg90","pricing_plan_id":"cebpf4jnsgd1na2vs0mg"},{"bike_id":"9cbcc298-7276-4faa-a3f3-5f54c8726ff4","system_id":"levelo_inurba_marseille","lat":43.24524,"lon":5.41213,"is_reserved":false,"is_disabled":false,"rental_uris":{"android":"levelo://app?vid=9cbcc298-7276-4faa-a3f3-5f54c8726ff4","ios":"levelo://app?vid=9cbcc298-7276-4faa-a3f3-5f54c8726ff4"},"vehicle_type_id":"4","last_reported":1745821380,"current_range_meters":19200,"station_id":"","pricing_plan_id":"cebpf4jnsgd1na2vs0mg"},{"bike_id":"406d7795-4188-429e-aaff-5816755cbb94","system_id":"levelo_inurba_marseille","lat":43.29458,"lon":5.37834,"is_reserved":false,"is_disabled":true,"rental_uris":{"android":"levelo://app?vid=406d7795-4188-429e-aaff-5816755cbb94","ios":"levelo://app?vid=406d7795-4188-429e-aaff-5816755cbb94"},"vehicle_type_id":"4","last_reported":1745821380,"current_range_meters":19200,"station_id":"","pricing_plan_id":"cebpf4jnsgd1na2vs0mg"},{"bike_id":"120277a4-e644-406f-9354-c1381245ac98","system_id":"levelo_inurba_marseille","lat":43.28695,"lon":5.361,"is_reserved":false,"is_disabled":false,"rental_uris":{"android":"levelo://app?vid=120277a4-e644-406f-9354-c1381245ac98","ios":"levelo://app?vid=120277a4-e644-406f-9354-c1381245ac98"},"vehicle_type_id":"4","last_reported":1745821380,"current_range_meters":19200,"station_id":"cki0cbj6b192h4jlfktg","pricing_plan_id":"cebpf4jnsgd1na2vs0mg"},{"bike_id":"d8b9b350-6636-4922-af94-8fbc6798af45","system_id":"levelo_inurba_marseille","lat":43.23964,"lon":5.36639,"is_reserved":false,"is_disabled":false,"rental_uris":{"android":"levelo://app?vid=d8b9b350-6636-4922-af94-8fbc6798af45","ios":"levelo://app?vid=d8b9b350-6636-4922-af94-8fbc6798af45"},"vehicle_type_id":"4","last_reported":1745821380,"current_range_meters":19200,"station_id":"ce4bhi12rcd13ifvqfp0","pricing_plan_id":"cebpf4jnsgd1na2vs0mg"},{"bike_id":"c57e420e-1812-4b7e-a43f-099eafcfb9c5","system_id":"levelo_inurba_marseille","lat":43.313295,"lon":5.396899,"is_reserved":false,"is_disabled":false,"rental_uris":{"android":"levelo://app?vid=c57e420e-1812-4b7e-a43f-099eafcfb9c5","ios":"levelo://app?vid=c57e420e-1812-4b7e-a43f-099eafcfb9c5"},"vehicle_type_id":"4","last_reported":1745821380,"current_range_meters":19200,"station_id":"ce4bgvp2rcd13ifvqcu0","pricing_plan_id":"cebpf4jnsgd1na2vs0mg"},{"bike_id":"f3ba4d51-aab7-42f8-97f0-298fa1958d55","system_id":"levelo_inurba_marseille","lat":43.2407,"lon":5.37761,"is_reserved":false,"is_disabled":false,"rental_uris":{"android":"levelo://app?vid=f3ba4d51-aab7-42f8-97f0-298fa1958d55","ios":"levelo://app?vid=f3ba4d51-aab7-42f8-97f0-298fa1958d55"},"vehicle_type_id":"4","last_reported":1745821380,"current_range_meters":19200,"station_id":"ce4bhnp2rcd13ifvqgvg","pricing_plan_id":"cebpf4jnsgd1na2vs0mg"},{"bike_id":"e2cccf45-013b-4119-aa39-9feddb438658","system_id":"levelo_inurba_marseille","lat":43.29045,"lon":5.39972,"is_reserved":false,"is_disabled":false,"rental_uris":{"android":"levelo://app?vid=e2cccf45-013b-4119-aa39-9feddb438658","ios":"levelo://app?vid=e2cccf45-013b-4119-aa39-9feddb438658"},"vehicle_type_id":"4","last_reported":1745821380,"current_range_meters":19200,"station_id":"ce4bh392rcd13ifvqdm0","pricing_plan_id":"cebpf4jnsgd1na2vs0mg"},{"bike_id":"36eb3896-fd37-4891-9606-2bbbfc51a3ae","system_id":"levelo_inurba_marseille","lat":43.290851,"lon":5.381374,"is_reserved":false,"is_disabled":false,"rental_uris":{"android":"levelo://app?vid=36eb3896-fd37-4891-9606-2bbbfc51a3ae","ios":"levelo://app?vid=36eb3896-fd37-4891-9606-2bbbfc51a3ae"},"vehicle_type_id":"4","last_reported":1745821380,"current_range_meters":19600,"station_id":"ce4bhg92rcd13ifvqf90","pricing_plan_id":"cebpf4jnsgd1na2vs0mg"},{"bike_id":"327bb468-f0c1-43fa-a1ab-a22556483537","system_id":"levelo_inurba_marseille","lat":43.24072,"lon":5.37763,"is_reserved":false,"is_disabled":false,"rental_uris":{"android":"levelo://app?vid=327bb468-f0c1-43fa-a1ab-a22556483537","ios":"levelo://app?vid=327bb468-f0c1-43fa-a1ab-a22556483537"},"vehicle_type_id":"4","last_reported":1745821380,"current_range_meters":19600,"station_id":"ce4bhnp2rcd13ifvqgvg","pricing_plan_id":"cebpf4jnsgd1na2vs0mg"},{"bike_id":"be96cf12-1bfe-4b12-b9a9-b4a285b05aae","system_id":"levelo_inurba_marseille","lat":43.27492,"lon":5.42452,"is_reserved":false,"is_disabled":false,"rental_uris":{"android":"levelo://app?vid=be96cf12-1bfe-4b12-b9a9-b4a285b05aae","ios":"levelo://app?vid=be96cf12-1bfe-4b12-b9a9-b4a285b05aae"},"vehicle_type_id":"4","last_reported":1745821380,"current_range_meters":19600,"station_id":"ce4bhn92rcd13ifvqgrg","pricing_plan_id":"cebpf4jnsgd1na2vs0mg"},{"bike_id":"504af8b5-2522-4176-8201-9c37815f0fa0","system_id":"levelo_inurba_marseille","lat":43.23963,"lon":5.36623,"is_reserved":false,"is_disabled":false,"rental_uris":{"android":"levelo://app?vid=504af8b5-2522-4176-8201-9c37815f0fa0","ios":"levelo://app?vid=504af8b5-2522-4176-8201-9c37815f0fa0"},"vehicle_type_id":"4","last_reported":1745821380,"current_range_meters":20000,"station_id":"ce4bhi12rcd13ifvqfp0","pricing_plan_id":"cebpf4jnsgd1na2vs0mg"},{"bike_id":"d5f6e4d9-b26e-48e0-aa9e-7c6759d5cfa5","system_id":"levelo_inurba_marseille","lat":43.24069,"lon":5.37761,"is_reserved":false,"is_disabled":false,"rental_uris":{"android":"levelo://app?vid=d5f6e4d9-b26e-48e0-aa9e-7c6759d5cfa5","ios":"levelo://app?vid=d5f6e4d9-b26e-48e0-aa9e-7c6759d5cfa5"},"vehicle_type_id":"4","last_reported":1745821380,"current_range_meters":20000,"station_id":"ce4bhnp2rcd13ifvqgvg","pricing_plan_id":"cebpf4jnsgd1na2vs0mg"},{"bike_id":"a37ddfb4-5303-4357-94ab-e44757af5c04","system_id":"levelo_inurba_marseille","lat":43.29261,"lon":5.38451,"is_reserved":false,"is_disabled":false,"rental_uris":{"android":"levelo://app?vid=a37ddfb4-5303-4357-94ab-e44757af5c04","ios":"levelo://app?vid=a37ddfb4-5303-4357-94ab-e44757af5c04"},"vehicle_type_id":"4","last_reported":1745821380,"current_range_meters":20000,"station_id":"ce4bh692rcd13ifvqea0","pricing_plan_id":"cebpf4jnsgd1na2vs0mg"},{"bike_id":"2d7b50c2-e414-4e82-82a2-7035113690ad","system_id":"levelo_inurba_marseille","lat":43.31524,"lon":5.37321,"is_reserved":false,"is_disabled":false,"rental_uris":{"android":"levelo://app?vid=2d7b50c2-e414-4e82-82a2-7035113690ad","ios":"levelo://app?vid=2d7b50c2-e414-4e82-82a2-7035113690ad"},"vehicle_type_id":"4","last_reported":1745821380,"current_range_meters":20000,"station_id":"ce4bgt12rcd13ifvqcd0","pricing_plan_id":"cebpf4jnsgd1na2vs0mg"},{"bike_id":"eea3ecea-777b-4638-87ef-21928b7e05f4","system_id":"levelo_inurba_marseille","lat":43.33069,"lon":5.40824,"is_reserved":false,"is_disabled":false,"rental_uris":{"android":"levelo://app?vid=eea3ecea-777b-4638-87ef-21928b7e05f4","ios":"levelo://app?vid=eea3ecea-777b-4638-87ef-21928b7e05f4"},"vehicle_type_id":"4","last_reported":1745821380,"current_range_meters":20400,"station_id":"","pricing_plan_id":"cebpf4jnsgd1na2vs0mg"},{"bike_id":"b5fe6816-f873-4cb9-8652-42ccdeb37fe9","system_id":"levelo_inurba_marseille","lat":43.271844,"lon":5.409886,"is_reserved":false,"is_disabled":false,"rental_uris":{"android":"levelo://app?vid=b5fe6816-f873-4cb9-8652-42ccdeb37fe9","ios":"levelo://app?vid=b5fe6816-f873-4cb9-8652-42ccdeb37fe9"},"vehicle_type_id":"4","last_reported":1745821380,"current_range_meters":20400,"station_id":"ce4bhl12rcd13ifvqgf0","pricing_plan_id":"cebpf4jnsgd1na2vs0mg"},{"bike_id":"a6e3cdee-ee95-4ca8-9682-ce5e82a916fa","system_id":"levelo_inurba_marseille","lat":43.302098,"lon":5.394712,"is_reserved":false,"is_disabled":false,"rental_uris":{"android":"levelo://app?vid=a6e3cdee-ee95-4ca8-9682-ce5e82a916fa","ios":"levelo://app?vid=a6e3cdee-ee95-4ca8-9682-ce5e82a916fa"},"vehicle_type_id":"4","last_reported":1745821380,"current_range_meters":20400,"station_id":"ce4bh0p2rcd13ifvqd70","pricing_plan_id":"cebpf4jnsgd1na2vs0mg"},{"bike_id":"5ebbf874-9e94-457e-8367-58dac2943cb4","system_id":"levelo_inurba_marseille","lat":43.31347,"lon":5.36743,"is_reserved":false,"is_disabled":false,"rental_uris":{"android":"levelo://app?vid=5ebbf874-9e94-457e-8367-58dac2943cb4","ios":"levelo://app?vid=5ebbf874-9e94-457e-8367-58dac2943cb4"},"vehicle_type_id":"4","last_reported":1745821380,"current_range_meters":20400,"station_id":"ce4bgr92rcd13ifvqc6g","pricing_plan_id":"cebpf4jnsgd1na2vs0mg"},{"bike_id":"a7a5c59b-8fdc-4ceb-a16c-2fd89466328d","system_id":"levelo_inurba_marseille","lat":43.32098,"lon":5.36775,"is_reserved":false,"is_disabled":false,"rental_uris":{"android":"levelo://app?vid=a7a5c59b-8fdc-4ceb-a16c-2fd89466328d","ios":"levelo://app?vid=a7a5c59b-8fdc-4ceb-a16c-2fd89466328d"},"vehicle_type_id":"4","last_reported":1745821380,"current_range_meters":20400,"station_id":"ce4bhrh2rcd13ifvqhug","pricing_plan_id":"cebpf4jnsgd1na2vs0mg"},{"bike_id":"c41def55-0a1a-48f9-8d23-907518ea7132","system_id":"levelo_inurba_marseille","lat":43.27492,"lon":5.42447,"is_reserved":false,"is_disabled":false,"rental_uris":{"android":"levelo://app?vid=c41def55-0a1a-48f9-8d23-907518ea7132","ios":"levelo://app?vid=c41def55-0a1a-48f9-8d23-907518ea7132"},"vehicle_type_id":"4","last_reported":1745821380,"current_range_meters":20800,"station_id":"ce4bhn92rcd13ifvqgrg","pricing_plan_id":"cebpf4jnsgd1na2vs0mg"},{"bike_id":"dc05005e-aad7-4979-8824-dccff8ad9368","system_id":"levelo_inurba_marseille","lat":43.28457,"lon":5.38435,"is_reserved":false,"is_disabled":false,"rental_uris":{"android":"levelo://app?vid=dc05005e-aad7-4979-8824-dccff8ad9368","ios":"levelo://app?vid=dc05005e-aad7-4979-8824-dccff8ad9368"},"vehicle_type_id":"4","last_reported":1745821380,"current_range_meters":20800,"station_id":"ce4bh512rcd13ifvqe3g","pricing_plan_id":"cebpf4jnsgd1na2vs0mg"},{"bike_id":"5e91e686-3a20-4e13-9749-3b857b74afd5","system_id":"levelo_inurba_marseille","lat":43.26222,"lon":5.40461,"is_reserved":false,"is_disabled":false,"rental_uris":{"android":"levelo://app?vid=5e91e686-3a20-4e13-9749-3b857b74afd5","ios":"levelo://app?vid=5e91e686-3a20-4e13-9749-3b857b74afd5"},"vehicle_type_id":"4","last_reported":1745821380,"current_range_meters":20800,"station_id":"ce4bhmh2rcd13ifvqgmg","pricing_plan_id":"cebpf4jnsgd1na2vs0mg"},{"bike_id":"9e724425-100b-414d-82c8-b62ced2f8a95","system_id":"levelo_inurba_marseille","lat":43.27635,"lon":5.42212,"is_reserved":false,"is_disabled":false,"rental_uris":{"android":"levelo://app?vid=9e724425-100b-414d-82c8-b62ced2f8a95","ios":"levelo://app?vid=9e724425-100b-414d-82c8-b62ced2f8a95"},"vehicle_type_id":"4","last_reported":1745821380,"current_range_meters":20800,"station_id":"","pricing_plan_id":"cebpf4jnsgd1na2vs0mg"},{"bike_id":"e5c80494-55f0-4b1f-a010-3702282548c7","system_id":"levelo_inurba_marseille","lat":43.25936,"lon":5.40902,"is_reserved":false,"is_disabled":false,"rental_uris":{"android":"levelo://app?vid=e5c80494-55f0-4b1f-a010-3702282548c7","ios":"levelo://app?vid=e5c80494-55f0-4b1f-a010-3702282548c7"},"vehicle_type_id":"4","last_reported":1745821380,"current_range_meters":20800,"station_id":"ce4bhm92rcd13ifvqglg","pricing_plan_id":"cebpf4jnsgd1na2vs0mg"},{"bike_id":"d901973b-e450-418b-b7c3-fe0ffcce1835","system_id":"levelo_inurba_marseille","lat":43.279679,"lon":5.387451,"is_reserved":false,"is_disabled":true,"rental_uris":{"android":"levelo://app?vid=d901973b-e450-418b-b7c3-fe0ffcce1835","ios":"levelo://app?vid=d901973b-e450-418b-b7c3-fe0ffcce1835"},"vehicle_type_id":"4","last_reported":1745821380,"current_range_meters":20800,"station_id":"ce4bh512rcd13ifvqe3g","pricing_plan_id":"cebpf4jnsgd1na2vs0mg"},{"bike_id":"161eaa0f-2b10-4edd-9e78-08e77ccb31bd","system_id":"levelo_inurba_marseille","lat":43.30156,"lon":5.374214,"is_reserved":false,"is_disabled":true,"rental_uris":{"android":"levelo://app?vid=161eaa0f-2b10-4edd-9e78-08e77ccb31bd","ios":"levelo://app?vid=161eaa0f-2b10-4edd-9e78-08e77ccb31bd"},"vehicle_type_id":"4","last_reported":1745821380,"current_range_meters":21600,"station_id":"","pricing_plan_id":"cebpf4jnsgd1na2vs0mg"},{"bike_id":"0244fe6e-ccda-435e-bff1-7397a4d65cda","system_id":"levelo_inurba_marseille","lat":43.29025,"lon":5.39983,"is_reserved":false,"is_disabled":true,"rental_uris":{"android":"levelo://app?vid=0244fe6e-ccda-435e-bff1-7397a4d65cda","ios":"levelo://app?vid=0244fe6e-ccda-435e-bff1-7397a4d65cda"},"vehicle_type_id":"4","last_reported":1745821380,"current_range_meters":21600,"station_id":"ce4bh392rcd13ifvqdm0","pricing_plan_id":"cebpf4jnsgd1na2vs0mg"},{"bike_id":"b5482998-a5d9-47b1-9027-9150138fc049","system_id":"levelo_inurba_marseille","lat":43.29213,"lon":5.36046,"is_reserved":false,"is_disabled":true,"rental_uris":{"android":"levelo://app?vid=b5482998-a5d9-47b1-9027-9150138fc049","ios":"levelo://app?vid=b5482998-a5d9-47b1-9027-9150138fc049"},"vehicle_type_id":"4","last_reported":1745821380,"current_range_meters":21600,"station_id":"ce4bhbh2rcd13ifvqeqg","pricing_plan_id":"cebpf4jnsgd1na2vs0mg"},{"bike_id":"28ffc058-6755-4257-8daf-387cd6ee7c69","system_id":"levelo_inurba_marseille","lat":43.23152,"lon":5.43711,"is_reserved":false,"is_disabled":false,"rental_uris":{"android":"levelo://app?vid=28ffc058-6755-4257-8daf-387cd6ee7c69","ios":"levelo://app?vid=28ffc058-6755-4257-8daf-387cd6ee7c69"},"vehicle_type_id":"4","last_reported":1745821380,"current_range_meters":22000,"station_id":"ce4bhmp2rcd13ifvqgog","pricing_plan_id":"cebpf4jnsgd1na2vs0mg"},{"bike_id":"504358cd-9016-4c11-8d83-221edfa921d9","system_id":"levelo_inurba_marseille","lat":43.3015,"lon":5.38087,"is_reserved":false,"is_disabled":false,"rental_uris":{"android":"levelo://app?vid=504358cd-9016-4c11-8d83-221edfa921d9","ios":"levelo://app?vid=504358cd-9016-4c11-8d83-221edfa921d9"},"vehicle_type_id":"4","last_reported":1745821380,"current_range_meters":22000,"station_id":"ce4bgjp2rcd13ifvqbh0","pricing_plan_id":"cebpf4jnsgd1na2vs0mg"},{"bike_id":"d3881236-172c-42f8-a3e0-7e01c42f9e73","system_id":"levelo_inurba_marseille","lat":43.30076,"lon":5.38604,"is_reserved":false,"is_disabled":true,"rental_uris":{"android":"levelo://app?vid=d3881236-172c-42f8-a3e0-7e01c42f9e73","ios":"levelo://app?vid=d3881236-172c-42f8-a3e0-7e01c42f9e73"},"vehicle_type_id":"4","last_reported":1745821380,"current_range_meters":22000,"station_id":"","pricing_plan_id":"cebpf4jnsgd1na2vs0mg"},{"bike_id":"e63d8cc9-5fe2-481a-87a4-6791e0727fcd","system_id":"levelo_inurba_marseille","lat":43.25097,"lon":5.40357,"is_reserved":false,"is_disabled":true,"rental_uris":{"android":"levelo://app?vid=e63d8cc9-5fe2-481a-87a4-6791e0727fcd","ios":"levelo://app?vid=e63d8cc9-5fe2-481a-87a4-6791e0727fcd"},"vehicle_type_id":"4","last_reported":1745821380,"current_range_meters":22000,"station_id":"ce4bhlh2rcd13ifvqgig","pricing_plan_id":"cebpf4jnsgd1na2vs0mg"},{"bike_id":"9264342f-246f-41a4-9ddf-67ce0eec7cca","system_id":"levelo_inurba_marseille","lat":43.3015,"lon":5.38078,"is_reserved":false,"is_disabled":false,"rental_uris":{"android":"levelo://app?vid=9264342f-246f-41a4-9ddf-67ce0eec7cca","ios":"levelo://app?vid=9264342f-246f-41a4-9ddf-67ce0eec7cca"},"vehicle_type_id":"4","last_reported":1745821380,"current_range_meters":22000,"station_id":"ce4bgjp2rcd13ifvqbh0","pricing_plan_id":"cebpf4jnsgd1na2vs0mg"},{"bike_id":"ffa6af81-0250-4aa7-b640-c09cb0a938c0","system_id":"levelo_inurba_marseille","lat":43.27491,"lon":5.42453,"is_reserved":false,"is_disabled":false,"rental_uris":{"android":"levelo://app?vid=ffa6af81-0250-4aa7-b640-c09cb0a938c0","ios":"levelo://app?vid=ffa6af81-0250-4aa7-b640-c09cb0a938c0"},"vehicle_type_id":"4","last_reported":1745821380,"current_range_meters":22000,"station_id":"ce4bhn92rcd13ifvqgrg","pricing_plan_id":"cebpf4jnsgd1na2vs0mg"},{"bike_id":"9581b21f-7285-4a5c-8839-0caa4681720a","system_id":"levelo_inurba_marseille","lat":43.25924,"lon":5.40878,"is_reserved":false,"is_disabled":false,"rental_uris":{"android":"levelo://app?vid=9581b21f-7285-4a5c-8839-0caa4681720a","ios":"levelo://app?vid=9581b21f-7285-4a5c-8839-0caa4681720a"},"vehicle_type_id":"4","last_reported":1745821380,"current_range_meters":22400,"station_id":"ce4bhm92rcd13ifvqglg","pricing_plan_id":"cebpf4jnsgd1na2vs0mg"},{"bike_id":"4d44d216-dc3c-4118-89d6-a76311950baf","system_id":"levelo_inurba_marseille","lat":43.32537,"lon":5.41445,"is_reserved":false,"is_disabled":false,"rental_uris":{"android":"levelo://app?vid=4d44d216-dc3c-4118-89d6-a76311950baf","ios":"levelo://app?vid=4d44d216-dc3c-4118-89d6-a76311950baf"},"vehicle_type_id":"4","last_reported":1745821380,"current_range_meters":22400,"station_id":"ce4bhq12rcd13ifvqhhg","pricing_plan_id":"cebpf4jnsgd1na2vs0mg"},{"bike_id":"2b077e0b-945a-4b8e-9e51-8b16fd0ed4dc","system_id":"levelo_inurba_marseille","lat":43.28927,"lon":5.36645,"is_reserved":false,"is_disabled":true,"rental_uris":{"android":"levelo://app?vid=2b077e0b-945a-4b8e-9e51-8b16fd0ed4dc","ios":"levelo://app?vid=2b077e0b-945a-4b8e-9e51-8b16fd0ed4dc"},"vehicle_type_id":"4","last_reported":1745821380,"current_range_meters":22400,"station_id":"ce4bhap2rcd13ifvqek0","pricing_plan_id":"cebpf4jnsgd1na2vs0mg"},{"bike_id":"e36cf66a-6be3-4834-a7ff-826e157ff420","system_id":"levelo_inurba_marseille","lat":43.27484,"lon":5.42454,"is_reserved":false,"is_disabled":false,"rental_uris":{"android":"levelo://app?vid=e36cf66a-6be3-4834-a7ff-826e157ff420","ios":"levelo://app?vid=e36cf66a-6be3-4834-a7ff-826e157ff420"},"vehicle_type_id":"4","last_reported":1745821380,"current_range_meters":22400,"station_id":"ce4bhn92rcd13ifvqgrg","pricing_plan_id":"cebpf4jnsgd1na2vs0mg"},{"bike_id":"ad923696-9771-4940-9854-0b3ff0b82b6d","system_id":"levelo_inurba_marseille","lat":43.30525,"lon":5.36726,"is_reserved":false,"is_disabled":false,"rental_uris":{"android":"levelo://app?vid=ad923696-9771-4940-9854-0b3ff0b82b6d","ios":"levelo://app?vid=ad923696-9771-4940-9854-0b3ff0b82b6d"},"vehicle_type_id":"4","last_reported":1745821380,"current_range_meters":22400,"station_id":"ce4bgrp2rcd13ifvqc9g","pricing_plan_id":"cebpf4jnsgd1na2vs0mg"},{"bike_id":"cf4e5c58-f52b-4255-913e-43d7dec326ab","system_id":"levelo_inurba_marseille","lat":43.2416,"lon":5.36407,"is_reserved":false,"is_disabled":true,"rental_uris":{"android":"levelo://app?vid=cf4e5c58-f52b-4255-913e-43d7dec326ab","ios":"levelo://app?vid=cf4e5c58-f52b-4255-913e-43d7dec326ab"},"vehicle_type_id":"4","last_reported":1745821380,"current_range_meters":22400,"station_id":"cpo36qri1sfpv3e86is0","pricing_plan_id":"cebpf4jnsgd1na2vs0mg"},{"bike_id":"765debfd-529d-457d-9786-c389ae5cd428","system_id":"levelo_inurba_marseille","lat":43.30146,"lon":5.38079,"is_reserved":false,"is_disabled":false,"rental_uris":{"android":"levelo://app?vid=765debfd-529d-457d-9786-c389ae5cd428","ios":"levelo://app?vid=765debfd-529d-457d-9786-c389ae5cd428"},"vehicle_type_id":"4","last_reported":1745821380,"current_range_meters":22800,"station_id":"ce4bgjp2rcd13ifvqbh0","pricing_plan_id":"cebpf4jnsgd1na2vs0mg"},{"bike_id":"214fc918-0cac-4df8-99f7-5538aa4ddaa2","system_id":"levelo_inurba_marseille","lat":43.2846,"lon":5.358913,"is_reserved":false,"is_disabled":true,"rental_uris":{"android":"levelo://app?vid=214fc918-0cac-4df8-99f7-5538aa4ddaa2","ios":"levelo://app?vid=214fc918-0cac-4df8-99f7-5538aa4ddaa2"},"vehicle_type_id":"4","last_reported":1745821380,"current_range_meters":22800,"station_id":"ce4bhah2rcd13ifvqei0","pricing_plan_id":"cebpf4jnsgd1na2vs0mg"},{"bike_id":"fe27e3a7-db31-4a3c-b2db-f7f85e5f90ab","system_id":"levelo_inurba_marseille","lat":43.31275,"lon":5.40167,"is_reserved":false,"is_disabled":false,"rental_uris":{"android":"levelo://app?vid=fe27e3a7-db31-4a3c-b2db-f7f85e5f90ab","ios":"levelo://app?vid=fe27e3a7-db31-4a3c-b2db-f7f85e5f90ab"},"vehicle_type_id":"4","last_reported":1745821380,"current_range_meters":22800,"station_id":"ce4bh092rcd13ifvqd30","pricing_plan_id":"cebpf4jnsgd1na2vs0mg"},{"bike_id":"bc313631-4ec2-4034-99b4-e40860594f37","system_id":"levelo_inurba_marseille","lat":43.31363,"lon":5.3671,"is_reserved":false,"is_disabled":false,"rental_uris":{"android":"levelo://app?vid=bc313631-4ec2-4034-99b4-e40860594f37","ios":"levelo://app?vid=bc313631-4ec2-4034-99b4-e40860594f37"},"vehicle_type_id":"4","last_reported":1745821380,"current_range_meters":22800,"station_id":"ce4bgr92rcd13ifvqc6g","pricing_plan_id":"cebpf4jnsgd1na2vs0mg"},{"bike_id":"cbb8c955-1c4d-438b-a40e-28f76a411642","system_id":"levelo_inurba_marseille","lat":43.23961,"lon":5.36625,"is_reserved":false,"is_disabled":true,"rental_uris":{"android":"levelo://app?vid=cbb8c955-1c4d-438b-a40e-28f76a411642","ios":"levelo://app?vid=cbb8c955-1c4d-438b-a40e-28f76a411642"},"vehicle_type_id":"4","last_reported":1745821380,"current_range_meters":22800,"station_id":"ce4bhi12rcd13ifvqfp0","pricing_plan_id":"cebpf4jnsgd1na2vs0mg"},{"bike_id":"e3ebf125-2a2f-414f-baeb-ae64e8bddc46","system_id":"levelo_inurba_marseille","lat":43.30917,"lon":5.40166,"is_reserved":false,"is_disabled":true,"rental_uris":{"android":"levelo://app?vid=e3ebf125-2a2f-414f-baeb-ae64e8bddc46","ios":"levelo://app?vid=e3ebf125-2a2f-414f-baeb-ae64e8bddc46"},"vehicle_type_id":"4","last_reported":1745821380,"current_range_meters":22800,"station_id":"ce4bgvp2rcd13ifvqct0","pricing_plan_id":"cebpf4jnsgd1na2vs0mg"},{"bike_id":"d7f0f05d-3cc9-442a-8a8d-6275e283d032","system_id":"levelo_inurba_marseille","lat":43.297701,"lon":5.4601,"is_reserved":false,"is_disabled":false,"rental_uris":{"android":"levelo://app?vid=d7f0f05d-3cc9-442a-8a8d-6275e283d032","ios":"levelo://app?vid=d7f0f05d-3cc9-442a-8a8d-6275e283d032"},"vehicle_type_id":"4","last_reported":1745821380,"current_range_meters":22800,"station_id":"","pricing_plan_id":"cebpf4jnsgd1na2vs0mg"},{"bike_id":"2d485dc3-74f4-4745-95aa-f4a42da77c95","system_id":"levelo_inurba_marseille","lat":43.25497,"lon":5.37648,"is_reserved":false,"is_disabled":false,"rental_uris":{"android":"levelo://app?vid=2d485dc3-74f4-4745-95aa-f4a42da77c95","ios":"levelo://app?vid=2d485dc3-74f4-4745-95aa-f4a42da77c95"},"vehicle_type_id":"4","last_reported":1745821380,"current_range_meters":22800,"station_id":"ce4bhh12rcd13ifvqff0","pricing_plan_id":"cebpf4jnsgd1na2vs0mg"},{"bike_id":"e0e0a52a-57f9-448e-b7ef-0232403aef34","system_id":"levelo_inurba_marseille","lat":43.24164,"lon":5.364,"is_reserved":false,"is_disabled":false,"rental_uris":{"android":"levelo://app?vid=e0e0a52a-57f9-448e-b7ef-0232403aef34","ios":"levelo://app?vid=e0e0a52a-57f9-448e-b7ef-0232403aef34"},"vehicle_type_id":"4","last_reported":1745821380,"current_range_meters":22800,"station_id":"cpo36qri1sfpv3e86is0","pricing_plan_id":"cebpf4jnsgd1na2vs0mg"},{"bike_id":"47957e92-5f35-46be-8be1-2824070b7e66","system_id":"levelo_inurba_marseille","lat":43.30213,"lon":5.39472,"is_reserved":false,"is_disabled":false,"rental_uris":{"android":"levelo://app?vid=47957e92-5f35-46be-8be1-2824070b7e66","ios":"levelo://app?vid=47957e92-5f35-46be-8be1-2824070b7e66"},"vehicle_type_id":"4","last_reported":1745821380,"current_range_meters":22800,"station_id":"ce4bh0p2rcd13ifvqd70","pricing_plan_id":"cebpf4jnsgd1na2vs0mg"},{"bike_id":"867997b4-3589-4859-9406-f2d8e812e375","system_id":"levelo_inurba_marseille","lat":43.274923,"lon":5.42456,"is_reserved":false,"is_disabled":false,"rental_uris":{"android":"levelo://app?vid=867997b4-3589-4859-9406-f2d8e812e375","ios":"levelo://app?vid=867997b4-3589-4859-9406-f2d8e812e375"},"vehicle_type_id":"4","last_reported":1745821380,"current_range_meters":22800,"station_id":"ce4bhn92rcd13ifvqgrg","pricing_plan_id":"cebpf4jnsgd1na2vs0mg"},{"bike_id":"03e972c9-0324-4f2e-95ed-782d4d7614d7","system_id":"levelo_inurba_marseille","lat":43.25924,"lon":5.4092,"is_reserved":false,"is_disabled":true,"rental_uris":{"android":"levelo://app?vid=03e972c9-0324-4f2e-95ed-782d4d7614d7","ios":"levelo://app?vid=03e972c9-0324-4f2e-95ed-782d4d7614d7"},"vehicle_type_id":"4","last_reported":1745821380,"current_range_meters":23200,"station_id":"ce4bhm92rcd13ifvqglg","pricing_plan_id":"cebpf4jnsgd1na2vs0mg"},{"bike_id":"e2e5bb7f-eed3-4dee-a88d-18306cda0357","system_id":"levelo_inurba_marseille","lat":43.29594,"lon":5.38108,"is_reserved":false,"is_disabled":true,"rental_uris":{"android":"levelo://app?vid=e2e5bb7f-eed3-4dee-a88d-18306cda0357","ios":"levelo://app?vid=e2e5bb7f-eed3-4dee-a88d-18306cda0357"},"vehicle_type_id":"4","last_reported":1745821380,"current_range_meters":23200,"station_id":"ce4bgl12rcd13ifvqbo0","pricing_plan_id":"cebpf4jnsgd1na2vs0mg"},{"bike_id":"a6e04a74-91fd-4810-9c07-d7ec1c1f0718","system_id":"levelo_inurba_marseille","lat":43.30147,"lon":5.38074,"is_reserved":false,"is_disabled":false,"rental_uris":{"android":"levelo://app?vid=a6e04a74-91fd-4810-9c07-d7ec1c1f0718","ios":"levelo://app?vid=a6e04a74-91fd-4810-9c07-d7ec1c1f0718"},"vehicle_type_id":"4","last_reported":1745821380,"current_range_meters":23200,"station_id":"ce4bgjp2rcd13ifvqbh0","pricing_plan_id":"cebpf4jnsgd1na2vs0mg"},{"bike_id":"499cf8cf-6dc3-483a-bfa0-938414fa5ff8","system_id":"levelo_inurba_marseille","lat":43.32268,"lon":5.38289,"is_reserved":false,"is_disabled":false,"rental_uris":{"android":"levelo://app?vid=499cf8cf-6dc3-483a-bfa0-938414fa5ff8","ios":"levelo://app?vid=499cf8cf-6dc3-483a-bfa0-938414fa5ff8"},"vehicle_type_id":"4","last_reported":1745821380,"current_range_meters":23200,"station_id":"ce4bhr12rcd13ifvqhqg","pricing_plan_id":"cebpf4jnsgd1na2vs0mg"},{"bike_id":"871b00ca-bc51-41f1-85e1-c47972d08559","system_id":"levelo_inurba_marseille","lat":43.24059,"lon":5.3776,"is_reserved":false,"is_disabled":false,"rental_uris":{"android":"levelo://app?vid=871b00ca-bc51-41f1-85e1-c47972d08559","ios":"levelo://app?vid=871b00ca-bc51-41f1-85e1-c47972d08559"},"vehicle_type_id":"4","last_reported":1745821380,"current_range_meters":23200,"station_id":"ce4bhnp2rcd13ifvqgvg","pricing_plan_id":"cebpf4jnsgd1na2vs0mg"},{"bike_id":"e9830214-0a29-4a00-a67c-181c91df276a","system_id":"levelo_inurba_marseille","lat":43.31687,"lon":5.40469,"is_reserved":false,"is_disabled":false,"rental_uris":{"android":"levelo://app?vid=e9830214-0a29-4a00-a67c-181c91df276a","ios":"levelo://app?vid=e9830214-0a29-4a00-a67c-181c91df276a"},"vehicle_type_id":"4","last_reported":1745821380,"current_range_meters":24000,"station_id":"ce4bh012rcd13ifvqd00","pricing_plan_id":"cebpf4jnsgd1na2vs0mg"},{"bike_id":"7ec3f361-4dfb-466b-a4ac-ed74ed1855d4","system_id":"levelo_inurba_marseille","lat":43.24076,"lon":5.37755,"is_reserved":false,"is_disabled":false,"rental_uris":{"android":"levelo://app?vid=7ec3f361-4dfb-466b-a4ac-ed74ed1855d4","ios":"levelo://app?vid=7ec3f361-4dfb-466b-a4ac-ed74ed1855d4"},"vehicle_type_id":"4","last_reported":1745821380,"current_range_meters":24000,"station_id":"ce4bhnp2rcd13ifvqgvg","pricing_plan_id":"cebpf4jnsgd1na2vs0mg"},{"bike_id":"25bc48aa-d054-410d-9d49-ba6e40d84f86","system_id":"levelo_inurba_marseille","lat":43.23221,"lon":5.35544,"is_reserved":false,"is_disabled":true,"rental_uris":{"android":"levelo://app?vid=25bc48aa-d054-410d-9d49-ba6e40d84f86","ios":"levelo://app?vid=25bc48aa-d054-410d-9d49-ba6e40d84f86"},"vehicle_type_id":"4","last_reported":1745821380,"current_range_meters":24000,"station_id":"ce4bhu92rcd13ifvqi70","pricing_plan_id":"cebpf4jnsgd1na2vs0mg"},{"bike_id":"dbe9ecc2-657a-4ca9-ab71-68e2a000c7c4","system_id":"levelo_inurba_marseille","lat":43.29963,"lon":5.38479,"is_reserved":false,"is_disabled":false,"rental_uris":{"android":"levelo://app?vid=dbe9ecc2-657a-4ca9-ab71-68e2a000c7c4","ios":"levelo://app?vid=dbe9ecc2-657a-4ca9-ab71-68e2a000c7c4"},"vehicle_type_id":"4","last_reported":1745821380,"current_range_meters":24000,"station_id":"ce4bgj92rcd13ifvqbd0","pricing_plan_id":"cebpf4jnsgd1na2vs0mg"},