{"last_updated":1732810309,"ttl":60,"version":"2.2","data":{"bikes":[{"bike_id":"1aed983f-4c3e-4fb0-9461-985c409763c2","system_id":"levelo_inurba_marseille","lat":43.29004,"lon":5.35613,"is_reserved":false,"is_disabled":false,"rental_uris":{"android":"levelo://app?vid=1aed983f-4c3e-4fb0-9461-985c409763c2","ios":"levelo://app?vid=1aed983f-4c3e-4fb0-9461-985c409763c2"},"vehicle_type_id":"4","last_reported":1732810309,"current_range_meters":19200,"station_id":"ce4bhb92rcd13ifvqen0","pricing_plan_id":"cebpf4jnsgd1na2vs0mg"},{"bike_id":"e42545d9-331a-4f6f-afc6-4a1f2bf54ab1","system_id":"levelo_inurba_marseille","lat":43.27059,"lon":5.40262,"is_reserved":false,"is_disabled":true,"rental_uris":{"android":"levelo://app?vid=e42545d9-331a-4f6f-afc6-4a1f2bf54ab1","ios":"levelo://app?vid=e42545d9-331a-4f6f-afc6-4a1f2bf54ab1"},"vehicle_type_id":"4","last_reported":1732810309,"current_range_meters":1200,"station_id":"ce4bhk92rcd13ifvqgc0","pricing_plan_id":"cebpf4jnsgd1na2vs0mg"},{"bike_id":"b856c8b4-412d-4c25-bdd4-e6b29aed04cb","system_id":"levelo_inurba_marseille","lat":43.22941,"lon":5.35378,"is_reserved":false,"is_disabled":false,"rental_uris":{"android":"levelo://app?vid=b856c8b4-412d-4c25-bdd4-e6b29aed04cb","ios":"levelo://app?vid=b856c8b4-412d-4c25-bdd4-e6b29aed04cb"},"vehicle_type_id":"4","last_reported":1732810309,"current_range_meters":40000,"station_id":"cpo3532slgdg3j2ikp40","pricing_plan_id":"cebpf4jnsgd1na2vs0mg"},{"bike_id":"d0754314-ad13-46f1-89ef-a51badd51de6","system_id":"levelo_inurba_marseille","lat":43.23165,"lon":5.43727,"is_reserved":false,"is_disabled":false,"rental_uris":{"android":"levelo://app?vid=d0754314-ad13-46f1-89ef-a51badd51de6","ios":"levelo://app?vid=d0754314-ad13-46f1-89ef-a51badd51de6"},"vehicle_type_id":"4","last_reported":1732810309,"current_range_meters":40000,"station_id":"ce4bhmp2rcd13ifvqgog","pricing_plan_id":"cebpf4jnsgd1na2vs0mg"},{"bike_id":"f06d95f0-0651-4b76-b95b-563cffe3dc53","system_id":"levelo_inurba_marseille","lat":43.31991,"lon":5.3817,"is_reserved":false,"is_disabled":false,"rental_uris":{"android":"levelo://app?vid=f06d95f0-0651-4b76-b95b-563cffe3dc53","ios":"levelo://app?vid=f06d95f0-0651-4b76-b95b-563cffe3dc53"},"vehicle_type_id":"4","last_reported":1732810309,"current_range_meters":35600,"station_id":"ce4bhr12rcd13ifvqhpg","pricing_plan_id":"cebpf4jnsgd1na2vs0mg"},{"bike_id":"1554ba81-6aff-4741-8885-ec01f86abf66","system_id":"levelo_inurba_marseille","lat":43.257212,"lon":5.411027,"is_reserved":false,"is_disabled":false,"rental_uris":{"android":"levelo://app?vid=1554ba81-6aff-4741-8885-ec01f86abf66","ios":"levelo://app?vid=1554ba81-6aff-4741-8885-ec01f86abf66"},"vehicle_type_id":"4","last_reported":1732810309,"current_range_meters":11600,"station_id":"ce4bhkp2rcd13ifvqgd0","pricing_plan_id":"cebpf4jnsgd1na2vs0mg"},{"bike_id":"adfb9dc2-a640-410e-b52b-e27d304144d6","system_id":"levelo_inurba_marseille","lat":43.27994,"lon":5.40022,"is_reserved":false,"is_disabled":false,"rental_uris":{"android":"levelo://app?vid=adfb9dc2-a640-410e-b52b-e27d304144d6","ios":"levelo://app?vid=adfb9dc2-a640-410e-b52b-e27d304144d6"},"vehicle_type_id":"4","last_reported":1732810309,"current_range_meters":25200,"station_id":"ce4bho92rcd13ifvqh4g","pricing_plan_id":"cebpf4jnsgd1na2vs0mg"},{"bike_id":"fdf7284c-9fab-4651-8480-74c3e98f1b2a","system_id":"levelo_inurba_marseille","lat":43.27832,"lon":5.39219,"is_reserved":false,"is_disabled":false,"rental_uris":{"android":"levelo://app?vid=fdf7284c-9fab-4651-8480-74c3e98f1b2a","ios":"levelo://app?vid=fdf7284c-9fab-4651-8480-74c3e98f1b2a"},"vehicle_type_id":"4","last_reported":1732810309,"current_range_meters":38400,"station_id":"ce4bhjp2rcd13ifvqga0","pricing_plan_id":"cebpf4jnsgd1na2vs0mg"},{"bike_id":"8b606e12-d2c9-41bb-a2e2-b72a2fcca1e1","system_id":"levelo_inurba_marseille","lat":43.30804,"lon":5.37543,"is_reserved":false,"is_disabled":true,"rental_uris":{"android":"levelo://app?vid=8b606e12-d2c9-41bb-a2e2-b72a2fcca1e1","ios":"levelo://app?vid=8b606e12-d2c9-41bb-a2e2-b72a2fcca1e1"},"vehicle_type_id":"4","last_reported":1732810309,"current_range_meters":800,"station_id":"","pricing_plan_id":"cebpf4jnsgd1na2vs0mg"},{"bike_id":"c908cc81-ae65-422f-b0fd-c2feb33d2546","system_id":"levelo_inurba_marseille","lat":43.30144,"lon":5.37426,"is_reserved":false,"is_disabled":false,"rental_uris":{"android":"levelo://app?vid=c908cc81-ae65-422f-b0fd-c2feb33d2546","ios":"levelo://app?vid=c908cc81-ae65-422f-b0fd-c2feb33d2546"},"vehicle_type_id":"4","last_reported":1732810309,"current_range_meters":12400,"station_id":"ce4bgs92rcd13ifvqcc0","pricing_plan_id":"cebpf4jnsgd1na2vs0mg"},{"bike_id":"6b744bae-6de5-4a6b-904d-99a5cbeaa17a","system_id":"levelo_inurba_marseille","lat":43.28422,"lon":5.34976,"is_reserved":false,"is_disabled":false,"rental_uris":{"android":"levelo://app?vid=6b744bae-6de5-4a6b-904d-99a5cbeaa17a","ios":"levelo://app?vid=6b744bae-6de5-4a6b-904d-99a5cbeaa17a"},"vehicle_type_id":"4","last_reported":1732810309,"current_range_meters":32400,"station_id":"ce4bhbh2rcd13ifvqepg","pricing_plan_id":"cebpf4jnsgd1na2vs0mg"},{"bike_id":"b3adb0ab-9e70-422e-b1a8-9ab8ab8701ac","system_id":"levelo_inurba_marseille","lat":43.24651,"lon":5.389,"is_reserved":false,"is_disabled":false,"rental_uris":{"android":"levelo://app?vid=b3adb0ab-9e70-422e-b1a8-9ab8ab8701ac","ios":"levelo://app?vid=b3adb0ab-9e70-422e-b1a8-9ab8ab8701ac"},"vehicle_type_id":"4","last_reported":1732810309,"current_range_meters":11600,"station_id":"ce4bhg12rcd13ifvqf60","pricing_plan_id":"cebpf4jnsgd1na2vs0mg"},{"bike_id":"1def15c3-c076-4df8-b98c-020fc7b108eb","system_id":"levelo_inurba_marseille","lat":43.31523,"lon":5.38043,"is_reserved":false,"is_disabled":false,"rental_uris":{"android":"levelo://app?vid=1def15c3-c076-4df8-b98c-020fc7b108eb","ios":"levelo://app?vid=1def15c3-c076-4df8-b98c-020fc7b108eb"},"vehicle_type_id":"4","last_reported":1732810309,"current_range_meters":14400,"station_id":"ce4bhsp2rcd13ifvqi50","pricing_plan_id":"cebpf4jnsgd1na2vs0mg"},{"bike_id":"ce15a521-8a1d-47b7-92c8-091ca367d00e","system_id":"levelo_inurba_marseille","lat":43.33749,"lon":5.37439,"is_reserved":false,"is_disabled":false,"rental_uris":{"android":"levelo://app?vid=ce15a521-8a1d-47b7-92c8-091ca367d00e","ios":"levelo://app?vid=ce15a521-8a1d-47b7-92c8-091ca367d00e"},"vehicle_type_id":"4","last_reported":1732810309,"current_range_meters":37600,"station_id":"","pricing_plan_id":"cebpf4jnsgd1na2vs0mg"},{"bike_id":"47b63e9e-23fb-412c-8d35-e824709ee150","system_id":"levelo_inurba_marseille","lat":43.28466,"lon":5.35887,"is_reserved":false,"is_disabled":false,"rental_uris":{"android":"levelo://app?vid=47b63e9e-23fb-412c-8d35-e824709ee150","ios":"levelo://app?vid=47b63e9e-23fb-412c-8d35-e824709ee150"},"vehicle_type_id":"4","last_reported":1732810309,"current_range_meters":10800,"station_id":"ce4bhah2rcd13ifvqei0","pricing_plan_id":"cebpf4jnsgd1na2vs0mg"},{"bike_id":"a8cfb7c5-59c0-4772-a793-b840317f8234","system_id":"levelo_inurba_marseille","lat":43.29258,"lon":5.40918,"is_reserved":false,"is_disabled":true,"rental_uris":{"android":"levelo://app?vid=a8cfb7c5-59c0-4772-a793-b840317f8234","ios":"levelo://app?vid=a8cfb7c5-59c0-4772-a793-b840317f8234"},"vehicle_type_id":"4","last_reported":1732810309,"current_range_meters":38400,"station_id":"ce4bh192rcd13ifvqdc0","pricing_plan_id":"cebpf4jnsgd1na2vs0mg"},{"bike_id":"ba2d1a62-e632-4169-9a28-b83f6acba689","system_id":"levelo_inurba_marseille","lat":43.26324,"lon":5.40466,"is_reserved":false,"is_disabled":true,"rental_uris":{"android":"levelo://app?vid=ba2d1a62-e632-4169-9a28-b83f6acba689","ios":"levelo://app?vid=ba2d1a62-e632-4169-9a28-b83f6acba689"},"vehicle_type_id":"4","last_reported":1732810309,"current_range_meters":0,"station_id":"","pricing_plan_id":"cebpf4jnsgd1na2vs0mg"},{"bike_id":"106e461f-3874-428c-8522-21fc2ca5b5c8","system_id":"levelo_inurba_marseille","lat":43.28037,"lon":5.36933,"is_reserved":false,"is_disabled":true,"rental_uris":{"android":"levelo://app?vid=106e461f-3874-428c-8522-21fc2ca5b5c8","ios":"levelo://app?vid=106e461f-3874-428c-8522-21fc2ca5b5c8"},"vehicle_type_id":"4","last_reported":1732810309,"current_range_meters":1600,"station_id":"ce4bha12rcd13ifvqef0","pricing_plan_id":"cebpf4jnsgd1na2vs0mg"},{"bike_id":"1e6c3ebf-5fe6-4a58-a3a5-470ed290fc10","system_id":"levelo_inurba_marseille","lat":43.30886,"lon":5.36726,"is_reserved":false,"is_disabled":false,"rental_uris":{"android":"levelo://app?vid=1e6c3ebf-5fe6-4a58-a3a5-470ed290fc10","ios":"levelo://app?vid=1e6c3ebf-5fe6-4a58-a3a5-470ed290fc10"},"vehicle_type_id":"4","last_reported":1732810309,"current_range_meters":24000,"station_id":"","pricing_plan_id":"cebpf4jnsgd1na2vs0mg"},{"bike_id":"5aa21489-2ce8-4f60-85e2-7556b77034cc","system_id":"levelo_inurba_marseille","lat":43.24172,"lon":5.39732,"is_reserved":false,"is_disabled":false,"rental_uris":{"android":"levelo://app?vid=5aa21489-2ce8-4f60-85e2-7556b77034cc","ios":"levelo://app?vid=5aa21489-2ce8-4f60-85e2-7556b77034cc"},"vehicle_type_id":"4","last_reported":1732810309,"current_range_meters":24000,"station_id":"ce4bhn12rcd13ifvqgpg","pricing_plan_id":"cebpf4jnsgd1na2vs0mg"},{"bike_id":"ff9a1ec5-be80-43ec-9b6e-d2bb637a4f30","system_id":"levelo_inurba_marseille","lat":43.28708,"lon":5.39998,"is_reserved":false,"is_disabled":true,"rental_uris":{"android":"levelo://app?vid=ff9a1ec5-be80-43ec-9b6e-d2bb637a4f30","ios":"levelo://app?vid=ff9a1ec5-be80-43ec-9b6e-d2bb637a4f30"},"vehicle_type_id":"4","last_reported":1732810309,"current_range_meters":35200,"station_id":"ce4bho92rcd13ifvqh3g","pricing_plan_id":"cebpf4jnsgd1na2vs0mg"},{"bike_id":"6f7949e1-de87-4a49-8620-fec27e04447f","system_id":"levelo_inurba_marseille","lat":43.33759,"lon":5.3919,"is_reserved":false,"is_disabled":false,"rental_uris":{"android":"levelo://app?vid=6f7949e1-de87-4a49-8620-fec27e04447f","ios":"levelo://app?vid=6f7949e1-de87-4a49-8620-fec27e04447f"},"vehicle_type_id":"4","last_reported":1732810309,"current_range_meters":34800,"station_id":"ce4bhr92rcd13ifvqhsg","pricing_plan_id":"cebpf4jnsgd1na2vs0mg"},{"bike_id":"d6af473c-317d-44a4-ba58-092abf84584f","system_id":"levelo_inurba_marseille","lat":43.22935,"lon":5.35379,"is_reserved":false,"is_disabled":true,"rental_uris":{"android":"levelo://app?vid=d6af473c-317d-44a4-ba58-092abf84584f","ios":"levelo://app?vid=d6af473c-317d-44a4-ba58-092abf84584f"},"vehicle_type_id":"4","last_reported":1732810309,"current_range_meters":1600,"station_id":"cpo3532slgdg3j2ikp40","pricing_plan_id":"cebpf4jnsgd1na2vs0mg"},{"bike_id":"197597f2-2917-4a81-b90d-39a739b515bd","system_id":"levelo_inurba_marseille","lat":43.31169,"lon":5.3873,"is_reserved":false,"is_disabled":false,"rental_uris":{"android":"levelo://app?vid=197597f2-2917-4a81-b90d-39a739b515bd","ios":"levelo://app?vid=197597f2-2917-4a81-b90d-39a739b515bd"},"vehicle_type_id":"4","last_reported":1732810309,"current_range_meters":36400,"station_id":"ce4bgv12rcd13ifvqcp0","pricing_plan_id":"cebpf4jnsgd1na2vs0mg"},{"bike_id":"65a8b6d7-a7e5-48c4-8211-7b6df674de94","system_id":"levelo_inurba_marseille","lat":43.29865,"lon":5.3973,"is_reserved":false,"is_disabled":true,"rental_uris":{"android":"levelo://app?vid=65a8b6d7-a7e5-48c4-8211-7b6df674de94","ios":"levelo://app?vid=65a8b6d7-a7e5-48c4-8211-7b6df674de94"},"vehicle_type_id":"4","last_reported":1732810309,"current_range_meters":1200,"station_id":"ce4bh0h2rcd13ifvqd50","pricing_plan_id":"cebpf4jnsgd1na2vs0mg"},{"bike_id":"5bdadb2f-037c-4173-ae36-b519260d338d","system_id":"levelo_inurba_marseille","lat":43.29038,"lon":5.3756,"is_reserved":false,"is_disabled":false,"rental_uris":{"android":"levelo://app?vid=5bdadb2f-037c-4173-ae36-b519260d338d","ios":"levelo://app?vid=5bdadb2f-037c-4173-ae36-b519260d338d"},"vehicle_type_id":"4","last_reported":1732810309,"current_range_meters":38400,"station_id":"ce4bh692rcd13ifvqe90","pricing_plan_id":"cebpf4jnsgd1na2vs0mg"},{"bike_id":"75300c73-d7da-4173-a5df-5ad398b2ad1b","system_id":"levelo_inurba_marseille","lat":43.31754,"lon":5.3902,"is_reserved":false,"is_disabled":false,"rental_uris":{"android":"levelo://app?vid=75300c73-d7da-4173-a5df-5ad398b2ad1b","ios":"levelo://app?vid=75300c73-d7da-4173-a5df-5ad398b2ad1b"},"vehicle_type_id":"4","last_reported":1732810309,"current_range_meters":9600,"station_id":"ce4bhqp2rcd13ifvqhng","pricing_plan_id":"cebpf4jnsgd1na2vs0mg"},{"bike_id":"2077ec5d-d43e-49c1-995b-4a73848946d3","system_id":"levelo_inurba_marseille","lat":43.26489,"lon":5.3955,"is_reserved":false,"is_disabled":false,"rental_uris":{"android":"levelo://app?vid=2077ec5d-d43e-49c1-995b-4a73848946d3","ios":"levelo://app?vid=2077ec5d-d43e-49c1-995b-4a73848946d3"},"vehicle_type_id":"4","last_reported":1732810309,"current_range_meters":17200,"station_id":"ce4bhi12rcd13ifvqfq0","pricing_plan_id":"cebpf4jnsgd1na2vs0mg"},{"bike_id":"95bce0c8-7aac-4804-81c7-e4d0b22cb60c","system_id":"levelo_inurba_marseille","lat":43.2397,"lon":5.36624,"is_reserved":false,"is_disabled":false,"rental_uris":{"android":"levelo://app?vid=95bce0c8-7aac-4804-81c7-e4d0b22cb60c","ios":"levelo://app?vid=95bce0c8-7aac-4804-81c7-e4d0b22cb60c"},"vehicle_type_id":"4","last_reported":1732810309,"current_range_meters":8800,"station_id":"ce4bhi12rcd13ifvqfp0","pricing_plan_id":"cebpf4jnsgd1na2vs0mg"},{"bike_id":"3ffd2b15-dbe2-49be-9d7f-6792d056c5f8","system_id":"levelo_inurba_marseille","lat":43.2738,"lon":5.36253,"is_reserved":false,"is_disabled":false,"rental_uris":{"android":"levelo://app?vid=3ffd2b15-dbe2-49be-9d7f-6792d056c5f8","ios":"levelo://app?vid=3ffd2b15-dbe2-49be-9d7f-6792d056c5f8"},"vehicle_type_id":"4","last_reported":1732810309,"current_range_meters":16400,"station_id":"ce4bhbh2rcd13ifvqeo0","pricing_plan_id":"cebpf4jnsgd1na2vs0mg"},{"bike_id":"1a7e090f-c041-42c1-8afa-71d082691e55","system_id":"levelo_inurba_marseille","lat":43.25122,"lon":5.40319,"is_reserved":false,"is_disabled":false,"rental_uris":{"android":"levelo://app?vid=1a7e090f-c041-42c1-8afa-71d082691e55","ios":"levelo://app?vid=1a7e090f-c041-42c1-8afa-71d082691e55"},"vehicle_type_id":"4","last_reported":1732810309,"current_range_meters":40000,"station_id":"ce4bhlh2rcd13ifvqgig","pricing_plan_id":"cebpf4jnsgd1na2vs0mg"},{"bike_id":"df29d9d3-d6d1-4c96-8910-af9a52daca45","system_id":"levelo_inurba_marseille","lat":43.27204,"lon":5.39179,"is_reserved":false,"is_disabled":false,"rental_uris":{"android":"levelo://app?vid=df29d9d3-d6d1-4c96-8910-af9a52daca45","ios":"levelo://app?vid=df29d9d3-d6d1-4c96-8910-af9a52daca45"},"vehicle_type_id":"4","last_reported":1732810309,"current_range_meters":17600,"station_id":"ce4bhhp2rcd13ifvqfm0","pricing_plan_id":"cebpf4jnsgd1na2vs0mg"},{"bike_id":"b1422ff8-74e2-4dc1-94ac-a145ceea1d5e","system_id":"levelo_inurba_marseille","lat":43.32373,"lon":5.36743,"is_reserved":false,"is_disabled":false,"rental_uris":{"android":"levelo://app?vid=b1422ff8-74e2-4dc1-94ac-a145ceea1d5e","ios":"levelo://app?vid=b1422ff8-74e2-4dc1-94ac-a145ceea1d5e"},"vehicle_type_id":"4","last_reported":1732810309,"current_range_meters":12800,"station_id":"ce4bhsh2rcd13ifvqi2g","pricing_plan_id":"cebpf4jnsgd1na2vs0mg"},{"bike_id":"2767d88a-7019-4bec-90b1-76b3c34b1d78","system_id":"levelo_inurba_marseille","lat":43.27611,"lon":5.36116,"is_reserved":false,"is_disabled":false,"rental_uris":{"android":"levelo://app?vid=2767d88a-7019-4bec-90b1-76b3c34b1d78","ios":"levelo://app?vid=2767d88a-7019-4bec-90b1-76b3c34b1d78"},"vehicle_type_id":"4","last_reported":1732810309,"current_range_meters":39200,"station_id":"ce4bgj92rcd13ifvqbe0","pricing_plan_id":"cebpf4jnsgd1na2vs0mg"},{"bike_id":"4709c438-f4af-415a-a919-d27302b75dca","system_id":"levelo_inurba_marseille","lat":43.23198,"lon":5.35556,"is_reserved":false,"is_disabled":false,"rental_uris":{"android":"levelo://app?vid=4709c438-f4af-415a-a919-d27302b75dca","ios":"levelo://app?vid=4709c438-f4af-415a-a919-d27302b75dca"},"vehicle_type_id":"4","last_reported":1732810309,"current_range_meters":40000,"station_id":"ce4bhu92rcd13ifvqi70","pricing_plan_id":"cebpf4jnsgd1na2vs0mg"},{"bike_id":"2b921899-1359-49b6-a793-ffb9ef50e656","system_id":"levelo_inurba_marseille","lat":43.2961,"lon":5.37721,"is_reserved":false,"is_disabled":true,"rental_uris":{"android":"levelo://app?vid=2b921899-1359-49b6-a793-ffb9ef50e656","ios":"levelo://app?vid=2b921899-1359-49b6-a793-ffb9ef50e656"},"vehicle_type_id":"4","last_reported":1732810309,"current_range_meters":36800,"station_id":"ce4bgi92rcd13ifvqb90","pricing_plan_id":"cebpf4jnsgd1na2vs0mg"},{"bike_id":"09ca1936-ebd0-42d5-ad89-78b7929e53e0","system_id":"levelo_inurba_marseille","lat":43.29165,"lon":5.37165,"is_reserved":false,"is_disabled":false,"rental_uris":{"android":"levelo://app?vid=09ca1936-ebd0-42d5-ad89-78b7929e53e0","ios":"levelo://app?vid=09ca1936-ebd0-42d5-ad89-78b7929e53e0"},"vehicle_type_id":"4","last_reported":1732810309,"current_range_meters":24000,"station_id":"ce4bha92rcd13ifvqeh0","pricing_plan_id":"cebpf4jnsgd1na2vs0mg"},{"bike_id":"879a7ed6-da09-4f16-a5f5-c4fdd793c2f4","system_id":"levelo_inurba_marseille","lat":43.28619,"lon":5.37061,"is_reserved":false,"is_disabled":false,"rental_uris":{"android":"levelo://app?vid=879a7ed6-da09-4f16-a5f5-c4fdd793c2f4","ios":"levelo://app?vid=879a7ed6-da09-4f16-a5f5-c4fdd793c2f4"},"vehicle_type_id":"4","last_reported":1732810309,"current_range_meters":17200,"station_id":"ce4bht12rcd13ifvqi60","pricing_plan_id":"cebpf4jnsgd1na2vs0mg"},{"bike_id":"635b2fab-c93a-4fd4-8c00-90d4043c605c","system_id":"levelo_inurba_marseille","lat":43.28723,"lon":5.36093,"is_reserved":false,"is_disabled":false,"rental_uris":{"android":"levelo://app?vid=635b2fab-c93a-4fd4-8c00-90d4043c605c","ios":"levelo://app?vid=635b2fab-c93a-4fd4-8c00-90d4043c605c"},"vehicle_type_id":"4","last_reported":1732810309,"current_range_meters":39200,"station_id":"cki0cbj6b192h4jlfktg","pricing_plan_id":"cebpf4jnsgd1na2vs0mg"},{"bike_id":"fbab3102-fe03-49af-bbaa-d57c7a8c6fa3","system_id":"levelo_inurba_marseille","lat":43.28669,"lon":5.36355,"is_reserved":false,"is_disabled":true,"rental_uris":{"android":"levelo://app?vid=fbab3102-fe03-49af-bbaa-d57c7a8c6fa3","ios":"levelo://app?vid=fbab3102-fe03-49af-bbaa-d57c7a8c6fa3"},"vehicle_type_id":"4","last_reported":1732810309,"current_range_meters":8400,"station_id":"ce4bhah2rcd13ifvqej0","pricing_plan_id":"cebpf4jnsgd1na2vs0mg"},{"bike_id":"5c9a900c-8721-4714-81e4-cac9a4b15fd0","system_id":"levelo_inurba_marseille","lat":43.33726,"lon":5.3919,"is_reserved":false,"is_disabled":false,"rental_uris":{"android":"levelo://app?vid=5c9a900c-8721-4714-81e4-cac9a4b15fd0","ios":"levelo://app?vid=5c9a900c-8721-4714-81e4-cac9a4b15fd0"},"vehicle_type_id":"4","last_reported":1732810309,"current_range_meters":7200,"station_id":"ce4bhr92rcd13ifvqhsg","pricing_plan_id":"cebpf4jnsgd1na2vs0mg"},{"bike_id":"945ff00b-5904-449e-948a-0a34aaf33769","system_id":"levelo_inurba_marseille","lat":43.32657,"lon":5.40998,"is_reserved":false,"is_disabled":false,"rental_uris":{"android":"levelo://app?vid=945ff00b-5904-449e-948a-0a34aaf33769","ios":"levelo://app?vid=945ff00b-5904-449e-948a-0a34aaf33769"},"vehicle_type_id":"4","last_reported":1732810309,"current_range_meters":27200,"station_id":"ce4bhpp2rcd13ifvqhgg","pricing_plan_id":"cebpf4jnsgd1na2vs0mg"},{"bike_id":"13748854-c7ec-4486-bb35-86cbf66f8ec7","system_id":"levelo_inurba_marseille","lat":43.23154,"lon":5.43708,"is_reserved":false,"is_disabled":false,"rental_uris":{"android":"levelo://app?vid=13748854-c7ec-4486-bb35-86cbf66f8ec7","ios":"levelo://app?vid=13748854-c7ec-4486-bb35-86cbf66f8ec7"},"vehicle_type_id":"4","last_reported":1732810309,"current_range_meters":38800,"station_id":"ce4bhmp2rcd13ifvqgog","pricing_plan_id":"cebpf4jnsgd1na2vs0mg"},{"bike_id":"1dc66f9a-39cd-4be6-8649-24e7533aca62","system_id":"levelo_inurba_marseille","lat":43.28459,"lon":5.35893,"is_reserved":false,"is_disabled":false,"rental_uris":{"android":"levelo://app?vid=1dc66f9a-39cd-4be6-8649-24e7533aca62","ios":"levelo://app?vid=1dc66f9a-39cd-4be6-8649-24e7533aca62"},"vehicle_type_id":"4","last_reported":1732810309,"current_range_meters":39200,"station_id":"ce4bhah2rcd13ifvqei0","pricing_plan_id":"cebpf4jnsgd1na2vs0mg"},{"bike_id":"8e2041ad-6bf5-4186-becc-025de1939b87","system_id":"levelo_inurba_marseille","lat":43.28466,"lon":5.35889,"is_reserved":false,"is_disabled":true,"rental_uris":{"android":"levelo://app?vid=8e2041ad-6bf5-4186-becc-025de1939b87","ios":"levelo://app?vid=8e2041ad-6bf5-4186-becc-025de1939b87"},"vehicle_type_id":"4","last_reported":1732810309,"current_range_meters":14400,"station_id":"ce4bhah2rcd13ifvqei0","pricing_plan_id":"cebpf4jnsgd1na2vs0mg"},{"bike_id":"422d452f-17cc-4565-afd8-833a3bc96a0e","system_id":"levelo_inurba_marseille","lat":43.30133,"lon":5.39876,"is_reserved":false,"is_disabled":true,"rental_uris":{"android":"levelo://app?vid=422d452f-17cc-4565-afd8-833a3bc96a0e","ios":"levelo://app?vid=422d452f-17cc-4565-afd8-833a3bc96a0e"},"vehicle_type_id":"4","last_reported":1732810309,"current_range_meters":25600,"station_id":"ce4bh0h2rcd13ifvqd40","pricing_plan_id":"cebpf4jnsgd1na2vs0mg"},{"bike_id":"e5d4c9e6-9e17-4ae9-8899-0f1675184f7f","system_id":"levelo_inurba_marseille","lat":43.28422,"lon":5.34994,"is_reserved":false,"is_disabled":false,"rental_uris":{"android":"levelo://app?vid=e5d4c9e6-9e17-4ae9-8899-0f1675184f7f","ios":"levelo://app?vid=e5d4c9e6-9e17-4ae9-8899-0f1675184f7f"},"vehicle_type_id":"4","last_reported":1732810309,"current_range_meters":12400,"station_id":"ce4bhbh2rcd13ifvqepg","pricing_plan_id":"cebpf4jnsgd1na2vs0mg"},{"bike_id":"4d4c884f-6933-49c0-8899-f9856d90f44d","system_id":"levelo_inurba_marseille","lat":43.29748,"lon":5.37971,"is_reserved":false,"is_disabled":true,"rental_uris":{"android":"levelo://app?vid=4d4c884f-6933-49c0-8899-f9856d90f44d","ios":"levelo://app?vid=4d4c884f-6933-49c0-8899-f9856d90f44d"},"vehicle_type_id":"4","last_reported":1732810309,"current_range_meters":0,"station_id":"","pricing_plan_id":"cebpf4jnsgd1na2vs0mg"},{"bike_id":"65d2562a-5a68-462e-941e-29c998025e60","system_id":"levelo_inurba_marseille","lat":43.24171,"lon":5.36402,"is_reserved":false,"is_disabled":false,"rental_uris":{"android":"levelo://app?vid=65d2562a-5a68-462e-941e-29c998025e60","ios":"levelo://app?vid=65d2562a-5a68-462e-941e-29c998025e60"},"vehicle_type_id":"4","last_reported":1732810309,"current_range_meters":8400,"station_id":"cpo36qri1sfpv3e86is0","pricing_plan_id":"cebpf4jnsgd1na2vs0mg"},{"bike_id":"7b34e24d-3e06-4fe5-ac41-2db04167fba9","system_id":"levelo_inurba_marseille","lat":43.25708,"lon":5.41078,"is_reserved":false,"is_disabled":false,"rental_uris":{"android":"levelo://app?vid=7b34e24d-3e06-4fe5-ac41-2db04167fba9","ios":"levelo://app?vid=7b34e24d-3e06-4fe5-ac41-2db04167fba9"},"vehicle_type_id":"4","last_reported":1732810309,"current_range_meters":6400,"station_id":"ce4bhkp2rcd13ifvqgd0","pricing_plan_id":"cebpf4jnsgd1na2vs0mg"},{"bike_id":"9009be37-c6b1-406b-b0a8-fbab355f715e","system_id":"levelo_inurba_marseille","lat":43.33772,"lon":5.37494,"is_reserved":false,"is_disabled":false,"rental_uris":{"android":"levelo://app?vid=9009be37-c6b1-406b-b0a8-fbab355f715e","ios":"levelo://app?vid=9009be37-c6b1-406b-b0a8-fbab355f715e"},"vehicle_type_id":"4","last_reported":1732810309,"current_range_meters":38800,"station_id":"","pricing_plan_id":"cebpf4jnsgd1na2vs0mg"},{"bike_id":"5d667db4-ccc2-4883-b77c-2bdda3594da5","system_id":"levelo_inurba_marseille","lat":43.2929,"lon":5.40116,"is_reserved":false,"is_disabled":true,"rental_uris":{"android":"levelo://app?vid=5d667db4-ccc2-4883-b77c-2bdda3594da5","ios":"levelo://app?vid=5d667db4-ccc2-4883-b77c-2bdda3594da5"},"vehicle_type_id":"4","last_reported":1732810309,"current_range_meters":4800,"station_id":"ce4bh312rcd13ifvqdk0","pricing_plan_id":"cebpf4jnsgd1na2vs0mg"},{"bike_id":"f036ea2e-96a3-4f76-99f7-7f3c5e6948be","system_id":"levelo_inurba_marseille","lat":43.27181,"lon":5.40989,"is_reserved":false,"is_disabled":false,"rental_uris":{"android":"levelo://app?vid=f036ea2e-96a3-4f76-99f7-7f3c5e6948be","ios":"levelo://app?vid=f036ea2e-96a3-4f76-99f7-7f3c5e6948be"},"vehicle_type_id":"4","last_reported":1732810309,"current_range_meters":39200,"station_id":"ce4bhl12rcd13ifvqgf0","pricing_plan_id":"cebpf4jnsgd1na2vs0mg"},{"bike_id":"ad448571-bebb-4a8d-8d20-19092292da85","system_id":"levelo_inurba_marseille","lat":43.29162,"lon":5.37161,"is_reserved":false,"is_disabled":true,"rental_uris":{"android":"levelo://app?vid=ad448571-bebb-4a8d-8d20-19092292da85","ios":"levelo://app?vid=ad448571-bebb-4a8d-8d20-19092292da85"},"vehicle_type_id":"4","last_reported":1732810309,"current_range_meters":27600,"station_id":"ce4bha92rcd13ifvqeh0","pricing_plan_id":"cebpf4jnsgd1na2vs0mg"},{"bike_id":"58f5f80c-3973-4c4a-8eec-fc5b3208cd45","system_id":"levelo_inurba_marseille","lat":43.30249,"lon":5.40087,"is_reserved":false,"is_disabled":false,"rental_uris":{"android":"levelo://app?vid=58f5f80c-3973-4c4a-8eec-fc5b3208cd45","ios":"levelo://app?vid=58f5f80c-3973-4c4a-8eec-fc5b3208cd45"},"vehicle_type_id":"4","last_reported":1732810309,"current_range_meters":24400,"station_id":"ce4bgvh2rcd13ifvqcs0","pricing_plan_id":"cebpf4jnsgd1na2vs0mg"},{"bike_id":"a1c67653-31f1-4bf1-87da-f740a39dfa04","system_id":"levelo_inurba_marseille","lat":43.26063,"lon":5.39398,"is_reserved":false,"is_disabled":false,"rental_uris":{"android":"levelo://app?vid=a1c67653-31f1-4bf1-87da-f740a39dfa04","ios":"levelo://app?vid=a1c67653-31f1-4bf1-87da-f740a39dfa04"},"vehicle_type_id":"4","last_reported":1732810309,"current_range_meters":25200,"station_id":"ce4bhh92rcd13ifvqfj0","pricing_plan_id":"cebpf4jnsgd1na2vs0mg"},{"bike_id":"7c1b4caa-ad10-4248-afa4-847c1d45dcbd","system_id":"levelo_inurba_marseille","lat":43.25935,"lon":5.40912,"is_reserved":false,"is_disabled":false,"rental_uris":{"android":"levelo://app?vid=7c1b4caa-ad10-4248-afa4-847c1d45dcbd","ios":"levelo://app?vid=7c1b4caa-ad10-4248-afa4-847c1d45dcbd"},"vehicle_type_id":"4","last_reported":1732810309,"current_range_meters":24800,"station_id":"ce4bhm92rcd13ifvqglg","pricing_plan_id":"cebpf4jnsgd1na2vs0mg"},{"bike_id":"e8fa7be1-2407-41a7-b843-e7c70f1917ef","system_id":"levelo_inurba_marseille","lat":43.2761,"lon":5.3611,"is_reserved":false,"is_disabled":true,"rental_uris":{"android":"levelo://app?vid=e8fa7be1-2407-41a7-b843-e7c70f1917ef","ios":"levelo://app?vid=e8fa7be1-2407-41a7-b843-e7c70f1917ef"},"vehicle_type_id":"4","last_reported":1732810309,"current_range_meters":0,"station_id":"ce4bgj92rcd13ifvqbe0","pricing_plan_id":"cebpf4jnsgd1na2vs0mg"},{"bike_id":"95c39abd-631b-4674-8877-bb71fdbca347","system_id":"levelo_inurba_marseille","lat":43.29625,"lon":5.37712,"is_reserved":false,"is_disabled":true,"rental_uris":{"android":"levelo://app?vid=95c39abd-631b-4674-8877-bb71fdbca347","ios":"levelo://app?vid=95c39abd-631b-4674-8877-bb71fdbca347"},"vehicle_type_id":"4","last_reported":1732810309,"current_range_meters":0,"station_id":"ce4bgi92rcd13ifvqb90","pricing_plan_id":"cebpf4jnsgd1na2vs0mg"},{"bike_id":"35637c9f-d6c4-4d75-82b5-13284fd1c1f7","system_id":"levelo_inurba_marseille","lat":43.30479,"lon":5.36595,"is_reserved":false,"is_disabled":false,"rental_uris":{"android":"levelo://app?vid=35637c9f-d6c4-4d75-82b5-13284fd1c1f7","ios":"levelo://app?vid=35637c9f-d6c4-4d75-82b5-13284fd1c1f7"},"vehicle_type_id":"4","last_reported":1732810309,"current_range_meters":28800,"station_id":"","pricing_plan_id":"cebpf4jnsgd1na2vs0mg"},{"bike_id":"1dee5398-ece1-4217-b5b9-984f22c2ff59","system_id":"levelo_inurba_marseille","lat":43.29257,"lon":5.3844,"is_reserved":false,"is_disabled":true,"rental_uris":{"android":"levelo://app?vid=1dee5398-ece1-4217-b5b9-984f22c2ff59","ios":"levelo://app?vid=1dee5398-ece1-4217-b5b9-984f22c2ff59"},"vehicle_type_id":"4","last_reported":1732810309,"current_range_meters":0,"station_id":"ce4bh692rcd13ifvqea0","pricing_plan_id":"cebpf4jnsgd1na2vs0mg"},{"bike_id":"35cde48b-e232-4392-95d8-1d6118a2707a","system_id":"levelo_inurba_marseille","lat":43.282654,"lon":5.350651,"is_reserved":false,"is_disabled":true,"rental_uris":{"android":"levelo://app?vid=35cde48b-e232-4392-95d8-1d6118a2707a","ios":"levelo://app?vid=35cde48b-e232-4392-95d8-1d6118a2707a"},"vehicle_type_id":"4","last_reported":1732810309,"current_range_meters":15200,"station_id":"ce4bhbp2rcd13ifvqerg","pricing_plan_id":"cebpf4jnsgd1na2vs0mg"},{"bike_id":"71ab8f9a-646c-4953-aaea-74e4c885e06b","system_id":"levelo_inurba_marseille","lat":43.29416,"lon":5.38611,"is_reserved":false,"is_disabled":true,"rental_uris":{"android":"levelo://app?vid=71ab8f9a-646c-4953-aaea-74e4c885e06b","ios":"levelo://app?vid=71ab8f9a-646c-4953-aaea-74e4c885e06b"},"vehicle_type_id":"4","last_reported":1732810309,"current_range_meters":0,"station_id":"ce4bh2h2rcd13ifvqdh0","pricing_plan_id":"cebpf4jnsgd1na2vs0mg"},{"bike_id":"fc27c6ab-8863-4d8c-be0c-33c00ef744dd","system_id":"levelo_inurba_marseille","lat":43.25725,"lon":5.41112,"is_reserved":false,"is_disabled":false,"rental_uris":{"android":"levelo://app?vid=fc27c6ab-8863-4d8c-be0c-33c00ef744dd","ios":"levelo://app?vid=fc27c6ab-8863-4d8c-be0c-33c00ef744dd"},"vehicle_type_id":"4","last_reported":1732810309,"current_range_meters":4400,"station_id":"ce4bhkp2rcd13ifvqgd0","pricing_plan_id":"cebpf4jnsgd1na2vs0mg"},{"bike_id":"e69c185f-19f3-4e21-9c6e-40374265ec87","system_id":"levelo_inurba_marseille","lat":43.25864,"lon":5.39904,"is_reserved":false,"is_disabled":false,"rental_uris":{"android":"levelo://app?vid=e69c185f-19f3-4e21-9c6e-40374265ec87","ios":"levelo://app?vid=e69c185f-19f3-4e21-9c6e-40374265ec87"},"vehicle_type_id":"4","last_reported":1732810309,"current_range_meters":32800,"station_id":"ce4bhl92rcd13ifvqghg","pricing_plan_id":"cebpf4jnsgd1na2vs0mg"},{"bike_id":"5d182a8f-66ec-404a-94bd-5ad5a5f898f9","system_id":"levelo_inurba_marseille","lat":43.29554,"lon":5.4229,"is_reserved":false,"is_disabled":false,"rental_uris":{"android":"levelo://app?vid=5d182a8f-66ec-404a-94bd-5ad5a5f898f9","ios":"levelo://app?vid=5d182a8f-66ec-404a-94bd-5ad5a5f898f9"},"vehicle_type_id":"4","last_reported":1732810309,"current_range_meters":25200,"station_id":"ce4bhph2rcd13ifvqhdg","pricing_plan_id":"cebpf4jnsgd1na2vs0mg"},{"bike_id":"16fb8e17-b179-4d5a-add7-fbd05efe76fb","system_id":"levelo_inurba_marseille","lat":43.25933,"lon":5.40914,"is_reserved":false,"is_disabled":true,"rental_uris":{"android":"levelo://app?vid=16fb8e17-b179-4d5a-add7-fbd05efe76fb","ios":"levelo://app?vid=16fb8e17-b179-4d5a-add7-fbd05efe76fb"},"vehicle_type_id":"4","last_reported":1732810309,"current_range_meters":0,"station_id":"ce4bhm92rcd13ifvqglg","pricing_plan_id":"cebpf4jnsgd1na2vs0mg"},{"bike_id":"39b04c21-6a6a-40a7-a489-741c2b67c9bd","system_id":"levelo_inurba_marseille","lat":43.33732,"lon":5.3919,"is_reserved":false,"is_disabled":false,"rental_uris":{"android":"levelo://app?vid=39b04c21-6a6a-40a7-a489-741c2b67c9bd","ios":"levelo://app?vid=39b04c21-6a6a-40a7-a489-741c2b67c9bd"},"vehicle_type_id":"4","last_reported":1732810309,"current_range_meters":38800,"station_id":"ce4bhr92rcd13ifvqhsg","pricing_plan_id":"cebpf4jnsgd1na2vs0mg"},{"bike_id":"98eb2db0-c047-42ee-bf18-46ffb7eed551","system_id":"levelo_inurba_marseille","lat":43.28462,"lon":5.35893,"is_reserved":false,"is_disabled":false,"rental_uris":{"android":"levelo://app?vid=98eb2db0-c047-42ee-bf18-46ffb7eed551","ios":"levelo://app?vid=98eb2db0-c047-42ee-bf18-46ffb7eed551"},"vehicle_type_id":"4","last_reported":1732810309,"current_range_meters":34800,"station_id":"ce4bhah2rcd13ifvqei0","pricing_plan_id":"cebpf4jnsgd1na2vs0mg"},{"bike_id":"576aaad1-96fd-4cef-85ec-da9376e57ba5","system_id":"levelo_inurba_marseille","lat":43.28,"lon":5.41666,"is_reserved":false,"is_disabled":true,"rental_uris":{"android":"levelo://app?vid=576aaad1-96fd-4cef-85ec-da9376e57ba5","ios":"levelo://app?vid=576aaad1-96fd-4cef-85ec-da9376e57ba5"},"vehicle_type_id":"4","last_reported":1732810309,"current_range_meters":400,"station_id":"ce4bho12rcd13ifvqh1g","pricing_plan_id":"cebpf4jnsgd1na2vs0mg"},{"bike_id":"b31250df-d0ba-45e3-aa79-a70a36f5932e","system_id":"levelo_inurba_marseille","lat":43.29802,"lon":5.40409,"is_reserved":false,"is_disabled":false,"rental_uris":{"android":"levelo://app?vid=b31250df-d0ba-45e3-aa79-a70a36f5932e","ios":"levelo://app?vid=b31250df-d0ba-45e3-aa79-a70a36f5932e"},"vehicle_type_id":"4","last_reported":1732810309,"current_range_meters":38000,"station_id":"ce4bh112rcd13ifvqd90","pricing_plan_id":"cebpf4jnsgd1na2vs0mg"},{"bike_id":"dd8abf73-0f11-4528-81c0-f7dfced5b75d","system_id":"levelo_inurba_marseille","lat":43.28039,"lon":5.36943,"is_reserved":false,"is_disabled":false,"rental_uris":{"android":"levelo://app?vid=dd8abf73-0f11-4528-81c0-f7dfced5b75d","ios":"levelo://app?vid=dd8abf73-0f11-4528-81c0-f7dfced5b75d"},"vehicle_type_id":"4","last_reported":1732810309,"current_range_meters":28000,"station_id":"ce4bha12rcd13ifvqef0","pricing_plan_id":"cebpf4jnsgd1na2vs0mg"},{"bike_id":"45a67577-ce08-436f-b7b4-96ed39f0a993","system_id":"levelo_inurba_marseille","lat":43.26943,"lon":5.40249,"is_reserved":false,"is_disabled":false,"rental_uris":{"android":"levelo://app?vid=45a67577-ce08-436f-b7b4-96ed39f0a993","ios":"levelo://app?vid=45a67577-ce08-436f-b7b4-96ed39f0a993"},"vehicle_type_id":"4","last_reported":1732810309,"current_range_meters":27600,"station_id":"cjm6bp8fraef2m0cb0m0","pricing_plan_id":"cebpf4jnsgd1na2vs0mg"},{"bike_id":"6cd58391-be72-43c8-a437-9f2b4d8f5820","system_id":"levelo_inurba_marseille","lat":43.29097,"lon":5.38145,"is_reserved":false,"is_disabled":false,"rental_uris":{"android":"levelo://app?vid=6cd58391-be72-43c8-a437-9f2b4d8f5820","ios":"levelo://app?vid=6cd58391-be72-43c8-a437-9f2b4d8f5820"},"vehicle_type_id":"4","last_reported":1732810309,"current_range_meters":8000,"station_id":"ce4bh512rcd13ifvqe2g","pricing_plan_id":"cebpf4jnsgd1na2vs0mg"},{"bike_id":"220ce8bf-6055-439a-932f-70112f24c52b","system_id":"levelo_inurba_marseille","lat":43.32111,"lon":5.36768,"is_reserved":false,"is_disabled":false,"rental_uris":{"android":"levelo://app?vid=220ce8bf-6055-439a-932f-70112f24c52b","ios":"levelo://app?vid=220ce8bf-6055-439a-932f-70112f24c52b"},"vehicle_type_id":"4","last_reported":1732810309,"current_range_meters":10000,"station_id":"ce4bhrh2rcd13ifvqhug","pricing_plan_id":"cebpf4jnsgd1na2vs0mg"},{"bike_id":"6e0f216c-a7fb-4cf4-a1c9-5f30dad59a71","system_id":"levelo_inurba_marseille","lat":43.2706,"lon":5.40262,"is_reserved":false,"is_disabled":false,"rental_uris":{"android":"levelo://app?vid=6e0f216c-a7fb-4cf4-a1c9-5f30dad59a71","ios":"levelo://app?vid=6e0f216c-a7fb-4cf4-a1c9-5f30dad59a71"},"vehicle_type_id":"4","last_reported":1732810309,"current_range_meters":28800,"station_id":"ce4bhk92rcd13ifvqgc0","pricing_plan_id":"cebpf4jnsgd1na2vs0mg"},{"bike_id":"67b29251-48cb-4afe-b3f9-4a5bbe05c28b","system_id":"levelo_inurba_marseille","lat":43.32658,"lon":5.40997,"is_reserved":false,"is_disabled":false,"rental_uris":{"android":"levelo://app?vid=67b29251-48cb-4afe-b3f9-4a5bbe05c28b","ios":"levelo://app?vid=67b29251-48cb-4afe-b3f9-4a5bbe05c28b"},"vehicle_type_id":"4","last_reported":1732810309,"current_range_meters":8000,"station_id":"ce4bhpp2rcd13ifvqhgg","pricing_plan_id":"cebpf4jnsgd1na2vs0mg"},{"bike_id":"f1690367-cbb9-4ecf-be77-59f1e87c0a6d","system_id":"levelo_inurba_marseille","lat":43.27375,"lon":5.36256,"is_reserved":false,"is_disabled":false,"rental_uris":{"android":"levelo://app?vid=f1690367-cbb9-4ecf-be77-59f1e87c0a6d","ios":"levelo://app?vid=f1690367-cbb9-4ecf-be77-59f1e87c0a6d"},"vehicle_type_id":"4","last_reported":1732810309,"current_range_meters":25200,"station_id":"ce4bhbh2rcd13ifvqeo0","pricing_plan_id":"cebpf4jnsgd1na2vs0mg"},{"bike_id":"dfe32a0d-6db4-45b5-94fb-5268698e6ef3","system_id":"levelo_inurba_marseille","lat":43.280891,"lon":5.396391,"is_reserved":false,"is_disabled":false,"rental_uris":{"android":"levelo://app?vid=dfe32a0d-6db4-45b5-94fb-5268698e6ef3","ios":"levelo://app?vid=dfe32a0d-6db4-45b5-94fb-5268698e6ef3"},"vehicle_type_id":"4","last_reported":1732810309,"current_range_meters":8000,"station_id":"ce4bho12rcd13ifvqh2g","pricing_plan_id":"cebpf4jnsgd1na2vs0mg"},{"bike_id":"fab79947-e52f-48a0-9e1b-09c103b132db","system_id":"levelo_inurba_marseille","lat":43.25503,"lon":5.37649,"is_reserved":false,"is_disabled":false,"rental_uris":{"android":"levelo://app?vid=fab79947-e52f-48a0-9e1b-09c103b132db","ios":"levelo://app?vid=fab79947-e52f-48a0-9e1b-09c103b132db"},"vehicle_type_id":"4","last_reported":1732810309,"current_range_meters":28400,"station_id":"ce4bhh12rcd13ifvqff0","pricing_plan_id":"cebpf4jnsgd1na2vs0mg"},{"bike_id":"966f2a40-db61-490a-8a67-c1a39426e7ed","system_id":"levelo_inurba_marseille","lat":43.29003,"lon":5.356,"is_reserved":false,"is_disabled":false,"rental_uris":{"android":"levelo://app?vid=966f2a40-db61-490a-8a67-c1a39426e7ed","ios":"levelo://app?vid=966f2a40-db61-490a-8a67-c1a39426e7ed"},"vehicle_type_id":"4","last_reported":1732810309,"current_range_meters":19200,"station_id":"ce4bhb92rcd13ifvqen0","pricing_plan_id":"cebpf4jnsgd1na2vs0mg"},{"bike_id":"1cd78e3c-eca2-430e-a00b-3450b52eb373","system_id":"levelo_inurba_marseille","lat":43.22931,"lon":5.35377,"is_reserved":false,"is_disabled":false,"rental_uris":{"android":"levelo://app?vid=1cd78e3c-eca2-430e-a00b-3450b52eb373","ios":"levelo://app?vid=1cd78e3c-eca2-430e-a00b-3450b52eb373"},"vehicle_type_id":"4","last_reported":1732810309,"current_range_meters":32000,"station_id":"cpo3532slgdg3j2ikp40","pricing_plan_id":"cebpf4jnsgd1na2vs0mg"},{"bike_id":"f794b8fa-1f88-483b-a054-16f24b00c834","system_id":"levelo_inurba_marseille","lat":43.28288,"lon":5.35077,"is_reserved":false,"is_disabled":true,"rental_uris":{"android":"levelo://app?vid=f794b8fa-1f88-483b-a054-16f24b00c834","ios":"levelo://app?vid=f794b8fa-1f88-483b-a054-16f24b00c834"},"vehicle_type_id":"4","last_reported":1732810309,"current_range_meters":12400,"station_id":"ce4bhbp2rcd13ifvqerg","pricing_plan_id":"cebpf4jnsgd1na2vs0mg"},{"bike_id":"365ecf76-e2d0-4135-99b0-0e9464b0b4dd","system_id":"levelo_inurba_marseille","lat":43.296,"lon":5.38092,"is_reserved":false,"is_disabled":false,"rental_uris":{"android":"levelo://app?vid=365ecf76-e2d0-4135-99b0-0e9464b0b4dd","ios":"levelo://app?vid=365ecf76-e2d0-4135-99b0-0e9464b0b4dd"},"vehicle_type_id":"4","last_reported":1732810309,"current_range_meters":35200,"station_id":"ce4bgl12rcd13ifvqbo0","pricing_plan_id":"cebpf4jnsgd1na2vs0mg"},{"bike_id":"3f3c5708-4adf-4445-aca5-fa84738bb2c0","system_id":"levelo_inurba_marseille","lat":43.27815,"lon":5.40717,"is_reserved":false,"is_disabled":false,"rental_uris":{"android":"levelo://app?vid=3f3c5708-4adf-4445-aca5-fa84738bb2c0","ios":"levelo://app?vid=3f3c5708-4adf-4445-aca5-fa84738bb2c0"},"vehicle_type_id":"4","last_reported":1732810309,"current_range_meters":4000,"station_id":"ce4bhnh2rcd13ifvqgtg","pricing_plan_id":"cebpf4jnsgd1na2vs0mg"},{"bike_id":"e6060ef1-391a-480c-81fb-1d41a4490686","system_id":"levelo_inurba_marseille","lat":43.30591,"lon":5.36535,"is_reserved":false,"is_disabled":false,"rental_uris":{"android":"levelo://app?vid=e6060ef1-391a-480c-81fb-1d41a4490686","ios":"levelo://app?vid=e6060ef1-391a-480c-81fb-1d41a4490686"},"vehicle_type_id":"4","last_reported":1732810309,"current_range_meters":10800,"station_id":"ce4bgs12rcd13ifvqcag","pricing_plan_id":"cebpf4jnsgd1na2vs0mg"},{"bike_id":"cdc7c7ac-c85e-4e00-b757-e77b1ce22131","system_id":"levelo_inurba_marseille","lat":43.25122,"lon":5.40323,"is_reserved":false,"is_disabled":false,"rental_uris":{"android":"levelo://app?vid=cdc7c7ac-c85e-4e00-b757-e77b1ce22131","ios":"levelo://app?vid=cdc7c7ac-c85e-4e00-b757-e77b1ce22131"},"vehicle_type_id":"4","last_reported":1732810309,"current_range_meters":27200,"station_id":"ce4bhlh2rcd13ifvqgig","pricing_plan_id":"cebpf4jnsgd1na2vs0mg"},{"bike_id":"505789b5-af5c-451e-8627-5ade839b00cd","system_id":"levelo_inurba_marseille","lat":43.27349,"lon":5.40752,"is_reserved":false,"is_disabled":false,"rental_uris":{"android":"levelo://app?vid=505789b5-af5c-451e-8627-5ade839b00cd","ios":"levelo://app?vid=505789b5-af5c-451e-8627-5ade839b00cd"},"vehicle_type_id":"4","last_reported":1732810309,"current_range_meters":25600,"station_id":"","pricing_plan_id":"cebpf4jnsgd1na2vs0mg"},{"bike_id":"3dd27f14-51ec-4d1e-8d64-1ea7632555f3","system_id":"levelo_inurba_marseille","lat":43.32105,"lon":5.36778,"is_reserved":false,"is_disabled":false,"rental_uris":{"android":"levelo://app?vid=3dd27f14-51ec-4d1e-8d64-1ea7632555f3","ios":"levelo://app?vid=3dd27f14-51ec-4d1e-8d64-1ea7632555f3"},"vehicle_type_id":"4","last_reported":1732810309,"current_range_meters":35600,"station_id":"ce4bhrh2rcd13ifvqhug","pricing_plan_id":"cebpf4jnsgd1na2vs0mg"},{"bike_id":"ef7faf07-a670-4e15-b564-bded5c7ce834","system_id":"levelo_inurba_marseille","lat":43.3254,"lon":5.36425,"is_reserved":false,"is_disabled":false,"rental_uris":{"android":"levelo://app?vid=ef7faf07-a670-4e15-b564-bded5c7ce834","ios":"levelo://app?vid=ef7faf07-a670-4e15-b564-bded5c7ce834"},"vehicle_type_id":"4","last_reported":1732810309,"current_range_meters":30800,"station_id":"","pricing_plan_id":"cebpf4jnsgd1na2vs0mg"},{"bike_id":"b2d02714-ba34-4b76-b1b4-035295a46b8e","system_id":"levelo_inurba_marseille","lat":43.27838,"lon":5.39214,"is_reserved":false,"is_disabled":false,"rental_uris":{"android":"levelo://app?vid=b2d02714-ba34-4b76-b1b4-035295a46b8e","ios":"levelo://app?vid=b2d02714-ba34-4b76-b1b4-035295a46b8e"},"vehicle_type_id":"4","last_reported":1732810309,"current_range_meters":25600,"station_id":"ce4bhjp2rcd13ifvqga0","pricing_plan_id":"cebpf4jnsgd1na2vs0mg"},{"bike_id":"4169e6ae-fa24-4f8b-83cc-f1b040d7332e","system_id":"levelo_inurba_marseille","lat":43.2979,"lon":5.37106,"is_reserved":false,"is_disabled":false,"rental_uris":{"android":"levelo://app?vid=4169e6ae-fa24-4f8b-83cc-f1b040d7332e","ios":"levelo://app?vid=4169e6ae-fa24-4f8b-83cc-f1b040d7332e"},"vehicle_type_id":"4","last_reported":1732810309,"current_range_meters":38800,"station_id":"ce4bgop2rcd13ifvqc1g","pricing_plan_id":"cebpf4jnsgd1na2vs0mg"},{"bike_id":"e329ec8e-544a-4b10-ad54-d03f11939789","system_id":"levelo_inurba_marseille","lat":43.29551,"lon":5.42284,"is_reserved":false,"is_disabled":false,"rental_uris":{"android":"levelo://app?vid=e329ec8e-544a-4b10-ad54-d03f11939789","ios":"levelo://app?vid=e329ec8e-544a-4b10-ad54-d03f11939789"},"vehicle_type_id":"4","last_reported":1732810309,"current_range_meters":14000,"station_id":"ce4bhph2rcd13ifvqhdg","pricing_plan_id":"cebpf4jnsgd1na2vs0mg"},{"bike_id":"2e95a691-d7d8-426b-8dba-47b6b56c6a41","system_id":"levelo_inurba_marseille","lat":43.28151,"lon":5.42641,"is_reserved":false,"is_disabled":true,"rental_uris":{"android":"levelo://app?vid=2e95a691-d7d8-426b-8dba-47b6b56c6a41","ios":"levelo://app?vid=2e95a691-d7d8-426b-8dba-47b6b56c6a41"},"vehicle_type_id":"4","last_reported":1732810309,"current_range_meters":1200,"station_id":"ce4bhnh2rcd13ifvqgug","pricing_plan_id":"cebpf4jnsgd1na2vs0mg"},{"bike_id":"3d0859f1-c900-482b-af0e-c85bfea0297d","system_id":"levelo_inurba_marseille","lat":43.3116,"lon":5.38723,"is_reserved":false,"is_disabled":false,"rental_uris":{"android":"levelo://app?vid=3d0859f1-c900-482b-af0e-c85bfea0297d","ios":"levelo://app?vid=3d0859f1-c900-482b-af0e-c85bfea0297d"},"vehicle_type_id":"4","last_reported":1732810309,"current_range_meters":6800,"station_id":"ce4bgv12rcd13ifvqcp0","pricing_plan_id":"cebpf4jnsgd1na2vs0mg"},{"bike_id":"52a30569-0bfc-456a-b013-ec2c0ae19891","system_id":"levelo_inurba_marseille","lat":43.2792,"lon":5.39583,"is_reserved":false,"is_disabled":false,"rental_uris":{"android":"levelo://app?vid=52a30569-0bfc-456a-b013-ec2c0ae19891","ios":"levelo://app?vid=52a30569-0bfc-456a-b013-ec2c0ae19891"},"vehicle_type_id":"4","last_reported":1732810309,"current_range_meters":2000,"station_id":"ce4bhf92rcd13ifvqf40","pricing_plan_id":"cebpf4jnsgd1na2vs0mg"},{"bike_id":"b1eb794b-dc61-4f90-9f29-8e17626537a8","system_id":"levelo_inurba_marseille","lat":43.23061,"lon":5.35496,"is_reserved":false,"is_disabled":false,"rental_uris":{"android":"levelo://app?vid=b1eb794b-dc61-4f90-9f29-8e17626537a8","ios":"levelo://app?vid=b1eb794b-dc61-4f90-9f29-8e17626537a8"},"vehicle_type_id":"4","last_reported":1732810309,"current_range_meters":9200,"station_id":"cpo3342slgdg3j2ifvpg","pricing_plan_id":"cebpf4jnsgd1na2vs0mg"},{"bike_id":"e51b2acb-d883-446b-9ce9-347608453ece","system_id":"levelo_inurba_marseille","lat":43.22937,"lon":5.35375,"is_reserved":false,"is_disabled":false,"rental_uris":{"android":"levelo://app?vid=e51b2acb-d883-446b-9ce9-347608453ece","ios":"levelo://app?vid=e51b2acb-d883-446b-9ce9-347608453ece"},"vehicle_type_id":"4","last_reported":1732810309,"current_range_meters":30800,"station_id":"cpo3532slgdg3j2ikp40","pricing_plan_id":"cebpf4jnsgd1na2vs0mg"},{"bike_id":"43736712-c09e-441f-a9ac-5e3ae1f23c05","system_id":"levelo_inurba_marseille","lat":43.30405,"lon":5.36826,"is_reserved":false,"is_disabled":false,"rental_uris":{"android":"levelo://app?vid=43736712-c09e-441f-a9ac-5e3ae1f23c05","ios":"levelo://app?vid=43736712-c09e-441f-a9ac-5e3ae1f23c05"},"vehicle_type_id":"4","last_reported":1732810309,"current_range_meters":36800,"station_id":"","pricing_plan_id":"cebpf4jnsgd1na2vs0mg"},{"bike_id":"28f86d47-3a86-4f12-8d48-511a3c30a63f","system_id":"levelo_inurba_marseille","lat":43.30217,"lon":5.39466,"is_reserved":false,"is_disabled":false,"rental_uris":{"android":"levelo://app?vid=28f86d47-3a86-4f12-8d48-511a3c30a63f","ios":"levelo://app?vid=28f86d47-3a86-4f12-8d48-511a3c30a63f"},"vehicle_type_id":"4","last_reported":1732810309,"current_range_meters":3600,"station_id":"ce4bh0p2rcd13ifvqd70","pricing_plan_id":"cebpf4jnsgd1na2vs0mg"},{"bike_id":"a234ba6c-5d32-4244-ad3a-3cc9d1fbb0f2","system_id":"levelo_inurba_marseille","lat":43.28405,"lon":5.37526,"is_reserved":false,"is_disabled":true,"rental_uris":{"android":"levelo://app?vid=a234ba6c-5d32-4244-ad3a-3cc9d1fbb0f2","ios":"levelo://app?vid=a234ba6c-5d32-4244-ad3a-3cc9d1fbb0f2"},"vehicle_type_id":"4","last_reported":1732810309,"current_range_meters":0,"station_id":"ce4bh412rcd13ifvqds0","pricing_plan_id":"cebpf4jnsgd1na2vs0mg"},{"bike_id":"6942bc5d-3b51-4606-80d2-187aea7c15a2","system_id":"levelo_inurba_marseille","lat":43.28405,"lon":5.34993,"is_reserved":false,"is_disabled":false,"rental_uris":{"android":"levelo://app?vid=6942bc5d-3b51-4606-80d2-187aea7c15a2","ios":"levelo://app?vid=6942bc5d-3b51-4606-80d2-187aea7c15a2"},"vehicle_type_id":"4","last_reported":1732810309,"current_range_meters":40000,"station_id":"ce4bhbh2rcd13ifvqepg","pricing_plan_id":"cebpf4jnsgd1na2vs0mg"},{"bike_id":"371abac0-5dd0-42bb-a641-ca0cac7a118a","system_id":"levelo_inurba_marseille","lat":43.27653,"lon":5.38895,"is_reserved":false,"is_disabled":true,"rental_uris":{"android":"levelo://app?vid=371abac0-5dd0-42bb-a641-ca0cac7a118a","ios":"levelo://app?vid=371abac0-5dd0-42bb-a641-ca0cac7a118a"},"vehicle_type_id":"4","last_reported":1732810309,"current_range_meters":0,"station_id":"ce4bhi12rcd13ifvqfo0","pricing_plan_id":"cebpf4jnsgd1na2vs0mg"},{"bike_id":"44692518-f307-4d34-bde3-20456f8e1767","system_id":"levelo_inurba_marseille","lat":43.2744,"lon":5.39065,"is_reserved":false,"is_disabled":false,"rental_uris":{"android":"levelo://app?vid=44692518-f307-4d34-bde3-20456f8e1767","ios":"levelo://app?vid=44692518-f307-4d34-bde3-20456f8e1767"},"vehicle_type_id":"4","last_reported":1732810309,"current_range_meters":28400,"station_id":"","pricing_plan_id":"cebpf4jnsgd1na2vs0mg"},{"bike_id":"a77e1a4d-a3ba-4e04-b327-364509e2acc8","system_id":"levelo_inurba_marseille","lat":43.28415,"lon":5.35008,"is_reserved":false,"is_disabled":false,"rental_uris":{"android":"levelo://app?vid=a77e1a4d-a3ba-4e04-b327-364509e2acc8","ios":"levelo://app?vid=a77e1a4d-a3ba-4e04-b327-364509e2acc8"},"vehicle_type_id":"4","last_reported":1732810309,"current_range_meters":36800,"station_id":"ce4bhbh2rcd13ifvqepg","pricing_plan_id":"cebpf4jnsgd1na2vs0mg"},{"bike_id":"3f5279ab-43c7-4696-8f2e-15c936bb4565","system_id":"levelo_inurba_marseille","lat":43.29563,"lon":5.42277,"is_reserved":false,"is_disabled":false,"rental_uris":{"android":"levelo://app?vid=3f5279ab-43c7-4696-8f2e-15c936bb4565","ios":"levelo://app?vid=3f5279ab-43c7-4696-8f2e-15c936bb4565"},"vehicle_type_id":"4","last_reported":1732810309,"current_range_meters":24400,"station_id":"ce4bhph2rcd13ifvqhdg","pricing_plan_id":"cebpf4jnsgd1na2vs0mg"},{"bike_id":"70f06862-cb93-49c8-85b5-ec385820252c","system_id":"levelo_inurba_marseille","lat":43.28618,"lon":5.35105,"is_reserved":false,"is_disabled":false,"rental_uris":{"android":"levelo://app?vid=70f06862-cb93-49c8-85b5-ec385820252c","ios":"levelo://app?vid=70f06862-cb93-49c8-85b5-ec385820252c"},"vehicle_type_id":"4","last_reported":1732810309,"current_range_meters":26000,"station_id":"ce4bhch2rcd13ifvqeug","pricing_plan_id":"cebpf4jnsgd1na2vs0mg"},{"bike_id":"6bee95a8-031a-4b22-8aa1-0f40ca80ad6a","system_id":"levelo_inurba_marseille","lat":43.27998,"lon":5.40013,"is_reserved":false,"is_disabled":false,"rental_uris":{"android":"levelo://app?vid=6bee95a8-031a-4b22-8aa1-0f40ca80ad6a","ios":"levelo://app?vid=6bee95a8-031a-4b22-8aa1-0f40ca80ad6a"},"vehicle_type_id":"4","last_reported":1732810309,"current_range_meters":33200,"station_id":"ce4bho92rcd13ifvqh4g","pricing_plan_id":"cebpf4jnsgd1na2vs0mg"},{"bike_id":"fca44ff3-4289-425b-a2c7-2ba2461d8d1a","system_id":"levelo_inurba_marseille","lat":43.29007,"lon":5.35624,"is_reserved":false,"is_disabled":false,"rental_uris":{"android":"levelo://app?vid=fca44ff3-4289-425b-a2c7-2ba2461d8d1a","ios":"levelo://app?vid=fca44ff3-4289-425b-a2c7-2ba2461d8d1a"},"vehicle_type_id":"4","last_reported":1732810309,"current_range_meters":34000,"station_id":"ce4bhb92rcd13ifvqen0","pricing_plan_id":"cebpf4jnsgd1na2vs0mg"},{"bike_id":"302590e9-5a08-4b54-9e44-b6de93387570","system_id":"levelo_inurba_marseille","lat":43.29794,"lon":5.37101,"is_reserved":false,"is_disabled":false,"rental_uris":{"android":"levelo://app?vid=302590e9-5a08-4b54-9e44-b6de93387570","ios":"levelo://app?vid=302590e9-5a08-4b54-9e44-b6de93387570"},"vehicle_type_id":"4","last_reported":1732810309,"current_range_meters":18800,"station_id":"ce4bgop2rcd13ifvqc1g","pricing_plan_id":"cebpf4jnsgd1na2vs0mg"},{"bike_id":"464dd3db-600f-45e6-8f7a-d494c55c3e14","system_id":"levelo_inurba_marseille","lat":43.25114,"lon":5.4032,"is_reserved":false,"is_disabled":false,"rental_uris":{"android":"levelo://app?vid=464dd3db-600f-45e6-8f7a-d494c55c3e14","ios":"levelo://app?vid=464dd3db-600f-45e6-8f7a-d494c55c3e14"},"vehicle_type_id":"4","last_reported":1732810309,"current_range_meters":39200,"station_id":"ce4bhlh2rcd13ifvqgig","pricing_plan_id":"cebpf4jnsgd1na2vs0mg"},{"bike_id":"a11c87cd-c5ed-4a29-ba8a-78abe7a5d984","system_id":"levelo_inurba_marseille","lat":43.27839,"lon":5.39204,"is_reserved":false,"is_disabled":true,"rental_uris":{"android":"levelo://app?vid=a11c87cd-c5ed-4a29-ba8a-78abe7a5d984","ios":"levelo://app?vid=a11c87cd-c5ed-4a29-ba8a-78abe7a5d984"},"vehicle_type_id":"4","last_reported":1732810309,"current_range_meters":32000,"station_id":"ce4bhjp2rcd13ifvqga0","pricing_plan_id":"cebpf4jnsgd1na2vs0mg"},{"bike_id":"0fb8ea3f-e1d0-4220-96ee-fe901e0460f8","system_id":"levelo_inurba_marseille","lat":43.28341,"lon":5.38109,"is_reserved":false,"is_disabled":false,"rental_uris":{"android":"levelo://app?vid=0fb8ea3f-e1d0-4220-96ee-fe901e0460f8","ios":"levelo://app?vid=0fb8ea3f-e1d0-4220-96ee-fe901e0460f8"},"vehicle_type_id":"4","last_reported":1732810309,"current_range_meters":36000,"station_id":"ce4bh412rcd13ifvqdr0","pricing_plan_id":"cebpf4jnsgd1na2vs0mg"},{"bike_id":"a5909545-3e09-4859-9fda-9ffe4e6e4883","system_id":"levelo_inurba_marseille","lat":43.23067,"lon":5.35489,"is_reserved":false,"is_disabled":false,"rental_uris":{"android":"levelo://app?vid=a5909545-3e09-4859-9fda-9ffe4e6e4883","ios":"levelo://app?vid=a5909545-3e09-4859-9fda-9ffe4e6e4883"},"vehicle_type_id":"4","last_reported":1732810309,"current_range_meters":22800,"station_id":"cpo3342slgdg3j2ifvpg","pricing_plan_id":"cebpf4jnsgd1na2vs0mg"},{"bike_id":"f5d845a7-b212-45fa-b9d4-c22876fec8db","system_id":"levelo_inurba_marseille","lat":43.3042,"lon":5.39751,"is_reserved":false,"is_disabled":false,"rental_uris":{"android":"levelo://app?vid=f5d845a7-b212-45fa-b9d4-c22876fec8db","ios":"levelo://app?vid=f5d845a7-b212-45fa-b9d4-c22876fec8db"},"vehicle_type_id":"4","last_reported":1732810309,"current_range_meters":3600,"station_id":"ce4bh092rcd13ifvqd20","pricing_plan_id":"cebpf4jnsgd1na2vs0mg"},{"bike_id":"636c38c7-b57f-44ef-879f-37f296bc8e0a","system_id":"levelo_inurba_marseille","lat":43.32105,"lon":5.36796,"is_reserved":false,"is_disabled":false,"rental_uris":{"android":"levelo://app?vid=636c38c7-b57f-44ef-879f-37f296bc8e0a","ios":"levelo://app?vid=636c38c7-b57f-44ef-879f-37f296bc8e0a"},"vehicle_type_id":"4","last_reported":1732810309,"current_range_meters":17600,"station_id":"ce4bhrh2rcd13ifvqhug","pricing_plan_id":"cebpf4jnsgd1na2vs0mg"},{"bike_id":"e5951ee3-4a5a-4ebb-b469-096c5188dfa3","system_id":"levelo_inurba_marseille","lat":43.23193,"lon":5.35562,"is_reserved":false,"is_disabled":false,"rental_uris":{"android":"levelo://app?vid=e5951ee3-4a5a-4ebb-b469-096c5188dfa3","ios":"levelo://app?vid=e5951ee3-4a5a-4ebb-b469-096c5188dfa3"},"vehicle_type_id":"4","last_reported":1732810309,"current_range_meters":27600,"station_id":"ce4bhu92rcd13ifvqi70","pricing_plan_id":"cebpf4jnsgd1na2vs0mg"},{"bike_id":"cc97d589-86af-44f3-8ebd-f19543201d07","system_id":"levelo_inurba_marseille","lat":43.27619,"lon":5.36111,"is_reserved":false,"is_disabled":false,"rental_uris":{"android":"levelo://app?vid=cc97d589-86af-44f3-8ebd-f19543201d07","ios":"levelo://app?vid=cc97d589-86af-44f3-8ebd-f19543201d07"},"vehicle_type_id":"4","last_reported":1732810309,"current_range_meters":39200,"station_id":"ce4bgj92rcd13ifvqbe0","pricing_plan_id":"cebpf4jnsgd1na2vs0mg"},{"bike_id":"3d5f4633-9faa-4118-b4df-c40e0e414051","system_id":"levelo_inurba_marseille","lat":43.32662,"lon":5.40994,"is_reserved":false,"is_disabled":false,"rental_uris":{"android":"levelo://app?vid=3d5f4633-9faa-4118-b4df-c40e0e414051","ios":"levelo://app?vid=3d5f4633-9faa-4118-b4df-c40e0e414051"},"vehicle_type_id":"4","last_reported":1732810309,"current_range_meters":9600,"station_id":"ce4bhpp2rcd13ifvqhgg","pricing_plan_id":"cebpf4jnsgd1na2vs0mg"},{"bike_id":"6c948e9c-d5b3-4fe5-a918-1bd2f7c83b02","system_id":"levelo_inurba_marseille","lat":43.32112,"lon":5.3677,"is_reserved":false,"is_disabled":false,"rental_uris":{"android":"levelo://app?vid=6c948e9c-d5b3-4fe5-a918-1bd2f7c83b02","ios":"levelo://app?vid=6c948e9c-d5b3-4fe5-a918-1bd2f7c83b02"},"vehicle_type_id":"4","last_reported":1732810309,"current_range_meters":8000,"station_id":"ce4bhrh2rcd13ifvqhug","pricing_plan_id":"cebpf4jnsgd1na2vs0mg"},{"bike_id":"dc4b1e41-dcf1-4589-ac53-b902514e7d26","system_id":"levelo_inurba_marseille","lat":43.28153,"lon":5.42645,"is_reserved":false,"is_disabled":true,"rental_uris":{"android":"levelo://app?vid=dc4b1e41-dcf1-4589-ac53-b902514e7d26","ios":"levelo://app?vid=dc4b1e41-dcf1-4589-ac53-b902514e7d26"},"vehicle_type_id":"4","last_reported":1732810309,"current_range_meters":0,"station_id":"ce4bhnh2rcd13ifvqgug","pricing_plan_id":"cebpf4jnsgd1na2vs0mg"},{"bike_id":"5be15564-0e7a-4bd9-adaf-7d604a7d6f99","system_id":"levelo_inurba_marseille","lat":43.25113,"lon":5.40323,"is_reserved":false,"is_disabled":false,"rental_uris":{"android":"levelo://app?vid=5be15564-0e7a-4bd9-adaf-7d604a7d6f99","ios":"levelo://app?vid=5be15564-0e7a-4bd9-adaf-7d604a7d6f99"},"vehicle_type_id":"4","last_reported":1732810309,"current_range_meters":21600,"station_id":"ce4bhlh2rcd13ifvqgig","pricing_plan_id":"cebpf4jnsgd1na2vs0mg"},{"bike_id":"45ba5f73-ec93-4f07-a828-0cb625a1ae35","system_id":"levelo_inurba_marseille","lat":43.27073,"lon":5.42276,"is_reserved":false,"is_disabled":true,"rental_uris":{"android":"levelo://app?vid=45ba5f73-ec93-4f07-a828-0cb625a1ae35","ios":"levelo://app?vid=45ba5f73-ec93-4f07-a828-0cb625a1ae35"},"vehicle_type_id":"4","last_reported":1732810309,"current_range_meters":10800,"station_id":"ce4bhk92rcd13ifvqgb0","pricing_plan_id":"cebpf4jnsgd1na2vs0mg"},{"bike_id":"1a0eaf99-d4fc-44d0-b98b-38f05516ef8d","system_id":"levelo_inurba_marseille","lat":43.24548,"lon":5.39524,"is_reserved":false,"is_disabled":false,"rental_uris":{"android":"levelo://app?vid=1a0eaf99-d4fc-44d0-b98b-38f05516ef8d","ios":"levelo://app?vid=1a0eaf99-d4fc-44d0-b98b-38f05516ef8d"},"vehicle_type_id":"4","last_reported":1732810309,"current_range_meters":25200,"station_id":"ce4bhlp2rcd13ifvqgjg","pricing_plan_id":"cebpf4jnsgd1na2vs0mg"},{"bike_id":"acb9587f-a76d-4e32-ae40-3d8ed699c97f","system_id":"levelo_inurba_marseille","lat":43.28934,"lon":5.39629,"is_reserved":false,"is_disabled":false,"rental_uris":{"android":"levelo://app?vid=acb9587f-a76d-4e32-ae40-3d8ed699c97f","ios":"levelo://app?vid=acb9587f-a76d-4e32-ae40-3d8ed699c97f"},"vehicle_type_id":"4","last_reported":1732810309,"current_range_meters":16000,"station_id":"ce4bh3h2rcd13ifvqdn0","pricing_plan_id":"cebpf4jnsgd1na2vs0mg"},{"bike_id":"1a4e55c1-0bec-48fd-8291-779d4805f240","system_id":"levelo_inurba_marseille","lat":43.3256,"lon":5.37987,"is_reserved":false,"is_disabled":false,"rental_uris":{"android":"levelo://app?vid=1a4e55c1-0bec-48fd-8291-779d4805f240","ios":"levelo://app?vid=1a4e55c1-0bec-48fd-8291-779d4805f240"},"vehicle_type_id":"4","last_reported":1732810309,"current_range_meters":24000,"station_id":"","pricing_plan_id":"cebpf4jnsgd1na2vs0mg"},{"bike_id":"34b86e02-d173-4df5-8a5b-289fe7f0bb9d","system_id":"levelo_inurba_marseille","lat":43.28694,"lon":5.37393,"is_reserved":false,"is_disabled":true,"rental_uris":{"android":"levelo://app?vid=34b86e02-d173-4df5-8a5b-289fe7f0bb9d","ios":"levelo://app?vid=34b86e02-d173-4df5-8a5b-289fe7f0bb9d"},"vehicle_type_id":"4","last_reported":1732810309,"current_range_meters":1200,"station_id":"ce4bh3p2rcd13ifvqdq0","pricing_plan_id":"cebpf4jnsgd1na2vs0mg"},{"bike_id":"d2d01e23-35ca-407f-8292-f4fa070f2e36","system_id":"levelo_inurba_marseille","lat":43.28707,"lon":5.37391,"is_reserved":false,"is_disabled":false,"rental_uris":{"android":"levelo://app?vid=d2d01e23-35ca-407f-8292-f4fa070f2e36","ios":"levelo://app?vid=d2d01e23-35ca-407f-8292-f4fa070f2e36"},"vehicle_type_id":"4","last_reported":1732810309,"current_range_meters":38800,"station_id":"ce4bh3p2rcd13ifvqdq0","pricing_plan_id":"cebpf4jnsgd1na2vs0mg"},{"bike_id":"73977e53-7356-4e18-a42f-2fed8041bd36","system_id":"levelo_inurba_marseille","lat":43.25578,"lon":5.3823,"is_reserved":false,"is_disabled":false,"rental_uris":{"android":"levelo://app?vid=73977e53-7356-4e18-a42f-2fed8041bd36","ios":"levelo://app?vid=73977e53-7356-4e18-a42f-2fed8041bd36"},"vehicle_type_id":"4","last_reported":1732810309,"current_range_meters":11600,"station_id":"ce4bhih2rcd13ifvqfs0","pricing_plan_id":"cebpf4jnsgd1na2vs0mg"},{"bike_id":"e14587dc-7f13-44f8-abd4-ea0dfa860ab0","system_id":"levelo_inurba_marseille","lat":43.32483,"lon":5.36582,"is_reserved":false,"is_disabled":true,"rental_uris":{"android":"levelo://app?vid=e14587dc-7f13-44f8-abd4-ea0dfa860ab0","ios":"levelo://app?vid=e14587dc-7f13-44f8-abd4-ea0dfa860ab0"},"vehicle_type_id":"4","last_reported":1732810309,"current_range_meters":0,"station_id":"ce4bhs12rcd13ifvqhvg","pricing_plan_id":"cebpf4jnsgd1na2vs0mg"},{"bike_id":"64d4b03f-278f-4ada-b6de-95e00ac1bef1","system_id":"levelo_inurba_marseille","lat":43.27172,"lon":5.40993,"is_reserved":false,"is_disabled":false,"rental_uris":{"android":"levelo://app?vid=64d4b03f-278f-4ada-b6de-95e00ac1bef1","ios":"levelo://app?vid=64d4b03f-278f-4ada-b6de-95e00ac1bef1"},"vehicle_type_id":"4","last_reported":1732810309,"current_range_meters":30800,"station_id":"ce4bhl12rcd13ifvqgf0","pricing_plan_id":"cebpf4jnsgd1na2vs0mg"},{"bike_id":"9b767232-5c2b-49ff-b0f6-3592aae87a3d","system_id":"levelo_inurba_marseille","lat":43.2315,"lon":5.43717,"is_reserved":false,"is_disabled":false,"rental_uris":{"android":"levelo://app?vid=9b767232-5c2b-49ff-b0f6-3592aae87a3d","ios":"levelo://app?vid=9b767232-5c2b-49ff-b0f6-3592aae87a3d"},"vehicle_type_id":"4","last_reported":1732810309,"current_range_meters":8800,"station_id":"ce4bhmp2rcd13ifvqgog","pricing_plan_id":"cebpf4jnsgd1na2vs0mg"},{"bike_id":"8953892f-5075-40e6-979d-22456e9ed851","system_id":"levelo_inurba_marseille","lat":43.28708,"lon":5.37392,"is_reserved":false,"is_disabled":false,"rental_uris":{"android":"levelo://app?vid=8953892f-5075-40e6-979d-22456e9ed851","ios":"levelo://app?vid=8953892f-5075-40e6-979d-22456e9ed851"},"vehicle_type_id":"4","last_reported":1732810309,"current_range_meters":37600,"station_id":"ce4bh3p2rcd13ifvqdq0","pricing_plan_id":"cebpf4jnsgd1na2vs0mg"},{"bike_id":"8105928c-2806-4a6a-b4e4-a4e821a3e547","system_id":"levelo_inurba_marseille","lat":43.28466,"lon":5.35897,"is_reserved":false,"is_disabled":false,"rental_uris":{"android":"levelo://app?vid=8105928c-2806-4a6a-b4e4-a4e821a3e547","ios":"levelo://app?vid=8105928c-2806-4a6a-b4e4-a4e821a3e547"},"vehicle_type_id":"4","last_reported":1732810309,"current_range_meters":19600,"station_id":"ce4bhah2rcd13ifvqei0","pricing_plan_id":"cebpf4jnsgd1na2vs0mg"},{"bike_id":"0f8252dc-71a7-44f9-bacb-a3829ed0e71b","system_id":"levelo_inurba_marseille","lat":43.30661,"lon":5.36864,"is_reserved":false,"is_disabled":false,"rental_uris":{"android":"levelo://app?vid=0f8252dc-71a7-44f9-bacb-a3829ed0e71b","ios":"levelo://app?vid=0f8252dc-71a7-44f9-bacb-a3829ed0e71b"},"vehicle_type_id":"4","last_reported":1732810309,"current_range_meters":11200,"station_id":"","pricing_plan_id":"cebpf4jnsgd1na2vs0mg"},{"bike_id":"ce05b76a-ab32-41d9-b290-cef385654e12","system_id":"levelo_inurba_marseille","lat":43.28571,"lon":5.39498,"is_reserved":false,"is_disabled":false,"rental_uris":{"android":"levelo://app?vid=ce05b76a-ab32-41d9-b290-cef385654e12","ios":"levelo://app?vid=ce05b76a-ab32-41d9-b290-cef385654e12"},"vehicle_type_id":"4","last_reported":1732810309,"current_range_meters":12400,"station_id":"ce4bh292rcd13ifvqdg0","pricing_plan_id":"cebpf4jnsgd1na2vs0mg"},{"bike_id":"43746d86-8a13-4845-9faf-ae69b548d714","system_id":"levelo_inurba_marseille","lat":43.29459,"lon":5.37917,"is_reserved":false,"is_disabled":true,"rental_uris":{"android":"levelo://app?vid=43746d86-8a13-4845-9faf-ae69b548d714","ios":"levelo://app?vid=43746d86-8a13-4845-9faf-ae69b548d714"},"vehicle_type_id":"4","last_reported":1732810309,"current_range_meters":0,"station_id":"","pricing_plan_id":"cebpf4jnsgd1na2vs0mg"},{"bike_id":"cea419d5-9bbc-44b0-87d2-ea55fd4752be","system_id":"levelo_inurba_marseille","lat":43.23155,"lon":5.43697,"is_reserved":false,"is_disabled":false,"rental_uris":{"android":"levelo://app?vid=cea419d5-9bbc-44b0-87d2-ea55fd4752be","ios":"levelo://app?vid=cea419d5-9bbc-44b0-87d2-ea55fd4752be"},"vehicle_type_id":"4","last_reported":1732810309,"current_range_meters":38800,"station_id":"ce4bhmp2rcd13ifvqgog","pricing_plan_id":"cebpf4jnsgd1na2vs0mg"},{"bike_id":"df76b7bf-b879-4e94-9796-439ee296ef0a","system_id":"levelo_inurba_marseille","lat":43.22926,"lon":5.35377,"is_reserved":false,"is_disabled":false,"rental_uris":{"android":"levelo://app?vid=df76b7bf-b879-4e94-9796-439ee296ef0a","ios":"levelo://app?vid=df76b7bf-b879-4e94-9796-439ee296ef0a"},"vehicle_type_id":"4","last_reported":1732810309,"current_range_meters":30800,"station_id":"cpo3532slgdg3j2ikp40","pricing_plan_id":"cebpf4jnsgd1na2vs0mg"},{"bike_id":"24475bbe-d591-422d-886b-4e03bfa37464","system_id":"levelo_inurba_marseille","lat":43.23187,"lon":5.39984,"is_reserved":false,"is_disabled":false,"rental_uris":{"android":"levelo://app?vid=24475bbe-d591-422d-886b-4e03bfa37464","ios":"levelo://app?vid=24475bbe-d591-422d-886b-4e03bfa37464"},"vehicle_type_id":"4","last_reported":1732810309,"current_range_meters":38800,"station_id":"ce4bhn12rcd13ifvqgqg","pricing_plan_id":"cebpf4jnsgd1na2vs0mg"},{"bike_id":"5489f1a6-9107-4e68-aa9b-9dee018f9da6","system_id":"levelo_inurba_marseille","lat":43.286967,"lon":5.373802,"is_reserved":false,"is_disabled":false,"rental_uris":{"android":"levelo://app?vid=5489f1a6-9107-4e68-aa9b-9dee018f9da6","ios":"levelo://app?vid=5489f1a6-9107-4e68-aa9b-9dee018f9da6"},"vehicle_type_id":"4","last_reported":1732810309,"current_range_meters":25600,"station_id":"ce4bh3p2rcd13ifvqdq0","pricing_plan_id":"cebpf4jnsgd1na2vs0mg"},{"bike_id":"42f4e685-2b6f-45da-b7dd-73e74f8c66d0","system_id":"levelo_inurba_marseille","lat":43.25501,"lon":5.37653,"is_reserved":false,"is_disabled":false,"rental_uris":{"android":"levelo://app?vid=42f4e685-2b6f-45da-b7dd-73e74f8c66d0","ios":"levelo://app?vid=42f4e685-2b6f-45da-b7dd-73e74f8c66d0"},"vehicle_type_id":"4","last_reported":1732810309,"current_range_meters":36800,"station_id":"ce4bhh12rcd13ifvqff0","pricing_plan_id":"cebpf4jnsgd1na2vs0mg"},{"bike_id":"9d4a1dda-d54d-40d5-9952-36037bac869a","system_id":"levelo_inurba_marseille","lat":43.26938,"lon":5.40259,"is_reserved":false,"is_disabled":false,"rental_uris":{"android":"levelo://app?vid=9d4a1dda-d54d-40d5-9952-36037bac869a","ios":"levelo://app?vid=9d4a1dda-d54d-40d5-9952-36037bac869a"},"vehicle_type_id":"4","last_reported":1732810309,"current_range_meters":7200,"station_id":"cjm6bp8fraef2m0cb0m0","pricing_plan_id":"cebpf4jnsgd1na2vs0mg"},{"bike_id":"3030554a-2d35-4c9f-af4d-9a9d9d2e4fbf","system_id":"levelo_inurba_marseille","lat":43.231846,"lon":5.39988,"is_reserved":false,"is_disabled":false,"rental_uris":{"android":"levelo://app?vid=3030554a-2d35-4c9f-af4d-9a9d9d2e4fbf","ios":"levelo://app?vid=3030554a-2d35-4c9f-af4d-9a9d9d2e4fbf"},"vehicle_type_id":"4","last_reported":1732810309,"current_range_meters":38800,"station_id":"ce4bhn12rcd13ifvqgqg","pricing_plan_id":"cebpf4jnsgd1na2vs0mg"},{"bike_id":"2068bea6-b554-4e30-8255-13770c871bb8","system_id":"levelo_inurba_marseille","lat":43.25575,"lon":5.38238,"is_reserved":false,"is_disabled":true,"rental_uris":{"android":"levelo://app?vid=2068bea6-b554-4e30-8255-13770c871bb8","ios":"levelo://app?vid=2068bea6-b554-4e30-8255-13770c871bb8"},"vehicle_type_id":"4","last_reported":1732810309,"current_range_meters":800,"station_id":"ce4bhih2rcd13ifvqfs0","pricing_plan_id":"cebpf4jnsgd1na2vs0mg"},{"bike_id":"5d094a6f-8162-4686-820c-0d99a2b2dff2","system_id":"levelo_inurba_marseille","lat":43.32652,"lon":5.40998,"is_reserved":false,"is_disabled":false,"rental_uris":{"android":"levelo://app?vid=5d094a6f-8162-4686-820c-0d99a2b2dff2","ios":"levelo://app?vid=5d094a6f-8162-4686-820c-0d99a2b2dff2"},"vehicle_type_id":"4","last_reported":1732810309,"current_range_meters":38800,"station_id":"ce4bhpp2rcd13ifvqhgg","pricing_plan_id":"cebpf4jnsgd1na2vs0mg"},{"bike_id":"73237246-d3c1-43bc-bad7-8e44028b6f2d","system_id":"levelo_inurba_marseille","lat":43.23183,"lon":5.39978,"is_reserved":false,"is_disabled":false,"rental_uris":{"android":"levelo://app?vid=73237246-d3c1-43bc-bad7-8e44028b6f2d","ios":"levelo://app?vid=73237246-d3c1-43bc-bad7-8e44028b6f2d"},"vehicle_type_id":"4","last_reported":1732810309,"current_range_meters":30800,"station_id":"ce4bhn12rcd13ifvqgqg","pricing_plan_id":"cebpf4jnsgd1na2vs0mg"},{"bike_id":"259eee6a-4553-458f-aaa0-bad21db47cb2","system_id":"levelo_inurba_marseille","lat":43.30208,"lon":5.39466,"is_reserved":false,"is_disabled":false,"rental_uris":{"android":"levelo://app?vid=259eee6a-4553-458f-aaa0-bad21db47cb2","ios":"levelo://app?vid=259eee6a-4553-458f-aaa0-bad21db47cb2"},"vehicle_type_id":"4","last_reported":1732810309,"current_range_meters":22800,"station_id":"ce4bh0p2rcd13ifvqd70","pricing_plan_id":"cebpf4jnsgd1na2vs0mg"},{"bike_id":"fc4d15f5-6256-45a3-90d6-77bb4c676955","system_id":"levelo_inurba_marseille","lat":43.296284,"lon":5.377877,"is_reserved":false,"is_disabled":true,"rental_uris":{"android":"levelo://app?vid=fc4d15f5-6256-45a3-90d6-77bb4c676955","ios":"levelo://app?vid=fc4d15f5-6256-45a3-90d6-77bb4c676955"},"vehicle_type_id":"4","last_reported":1732810309,"current_range_meters":33200,"station_id":"","pricing_plan_id":"cebpf4jnsgd1na2vs0mg"},{"bike_id":"c88f8730-1176-4717-97e2-17c27b15274f","system_id":"levelo_inurba_marseille","lat":43.23195,"lon":5.35552,"is_reserved":false,"is_disabled":true,"rental_uris":{"android":"levelo://app?vid=c88f8730-1176-4717-97e2-17c27b15274f","ios":"levelo://app?vid=c88f8730-1176-4717-97e2-17c27b15274f"},"vehicle_type_id":"4","last_reported":1732810309,"current_range_meters":0,"station_id":"ce4bhu92rcd13ifvqi70","pricing_plan_id":"cebpf4jnsgd1na2vs0mg"},{"bike_id":"0aca71ca-b0af-456c-86be-c13e1b88a3d2","system_id":"levelo_inurba_marseille","lat":43.29543,"lon":5.3939,"is_reserved":false,"is_disabled":false,"rental_uris":{"android":"levelo://app?vid=0aca71ca-b0af-456c-86be-c13e1b88a3d2","ios":"levelo://app?vid=0aca71ca-b0af-456c-86be-c13e1b88a3d2"},"vehicle_type_id":"4","last_reported":1732810309,"current_range_meters":19200,"station_id":"ce4bh292rcd13ifvqdf0","pricing_plan_id":"cebpf4jnsgd1na2vs0mg"},{"bike_id":"5e5feb69-3ec7-4d8a-a1e8-418f282a39d2","system_id":"levelo_inurba_marseille","lat":43.28948,"lon":5.36645,"is_reserved":false,"is_disabled":true,"rental_uris":{"android":"levelo://app?vid=5e5feb69-3ec7-4d8a-a1e8-418f282a39d2","ios":"levelo://app?vid=5e5feb69-3ec7-4d8a-a1e8-418f282a39d2"},"vehicle_type_id":"4","last_reported":1732810309,"current_range_meters":15200,"station_id":"ce4bhap2rcd13ifvqek0","pricing_plan_id":"cebpf4jnsgd1na2vs0mg"},{"bike_id":"b6ed1910-de57-401d-8b1d-af35755f9004","system_id":"levelo_inurba_marseille","lat":43.27954,"lon":5.41046,"is_reserved":false,"is_disabled":true,"rental_uris":{"android":"levelo://app?vid=b6ed1910-de57-401d-8b1d-af35755f9004","ios":"levelo://app?vid=b6ed1910-de57-401d-8b1d-af35755f9004"},"vehicle_type_id":"4","last_reported":1732810309,"current_range_meters":28800,"station_id":"ce4bhnp2rcd13ifvqh0g","pricing_plan_id":"cebpf4jnsgd1na2vs0mg"},{"bike_id":"b944efa8-8bfd-4cf3-9742-93239c780cac","system_id":"levelo_inurba_marseille","lat":43.29002,"lon":5.35621,"is_reserved":false,"is_disabled":true,"rental_uris":{"android":"levelo://app?vid=b944efa8-8bfd-4cf3-9742-93239c780cac","ios":"levelo://app?vid=b944efa8-8bfd-4cf3-9742-93239c780cac"},"vehicle_type_id":"4","last_reported":1732810309,"current_range_meters":31200,"station_id":"ce4bhb92rcd13ifvqen0","pricing_plan_id":"cebpf4jnsgd1na2vs0mg"},{"bike_id":"c0c814f8-5da5-485f-b863-3458dcd8a348","system_id":"levelo_inurba_marseille","lat":43.24548,"lon":5.39521,"is_reserved":false,"is_disabled":false,"rental_uris":{"android":"levelo://app?vid=c0c814f8-5da5-485f-b863-3458dcd8a348","ios":"levelo://app?vid=c0c814f8-5da5-485f-b863-3458dcd8a348"},"vehicle_type_id":"4","last_reported":1732810309,"current_range_meters":28400,"station_id":"ce4bhlp2rcd13ifvqgjg","pricing_plan_id":"cebpf4jnsgd1na2vs0mg"},{"bike_id":"7eeb585d-a0f3-4eb6-8db7-0a401d4c0421","system_id":"levelo_inurba_marseille","lat":43.27378,"lon":5.36255,"is_reserved":false,"is_disabled":false,"rental_uris":{"android":"levelo://app?vid=7eeb585d-a0f3-4eb6-8db7-0a401d4c0421","ios":"levelo://app?vid=7eeb585d-a0f3-4eb6-8db7-0a401d4c0421"},"vehicle_type_id":"4","last_reported":1732810309,"current_range_meters":28800,"station_id":"ce4bhbh2rcd13ifvqeo0","pricing_plan_id":"cebpf4jnsgd1na2vs0mg"},{"bike_id":"7c21e1f9-a594-4f3e-98a9-d1a830914e71","system_id":"levelo_inurba_marseille","lat":43.30114,"lon":5.39838,"is_reserved":false,"is_disabled":false,"rental_uris":{"android":"levelo://app?vid=7c21e1f9-a594-4f3e-98a9-d1a830914e71","ios":"levelo://app?vid=7c21e1f9-a594-4f3e-98a9-d1a830914e71"},"vehicle_type_id":"4","last_reported":1732810309,"current_range_meters":38000,"station_id":"ce4bh0h2rcd13ifvqd40","pricing_plan_id":"cebpf4jnsgd1na2vs0mg"},{"bike_id":"278f4a9e-d75b-4540-bcb5-a714440d48df","system_id":"levelo_inurba_marseille","lat":43.28426,"lon":5.35001,"is_reserved":false,"is_disabled":false,"rental_uris":{"android":"levelo://app?vid=278f4a9e-d75b-4540-bcb5-a714440d48df","ios":"levelo://app?vid=278f4a9e-d75b-4540-bcb5-a714440d48df"},"vehicle_type_id":"4","last_reported":1732810309,"current_range_meters":22800,"station_id":"ce4bhbh2rcd13ifvqepg","pricing_plan_id":"cebpf4jnsgd1na2vs0mg"},{"bike_id":"eabe19da-27a4-41cd-80b4-82562b524990","system_id":"levelo_inurba_marseille","lat":43.2955,"lon":5.42288,"is_reserved":false,"is_disabled":false,"rental_uris":{"android":"levelo://app?vid=eabe19da-27a4-41cd-80b4-82562b524990","ios":"levelo://app?vid=eabe19da-27a4-41cd-80b4-82562b524990"},"vehicle_type_id":"4","last_reported":1732810309,"current_range_meters":39200,"station_id":"ce4bhph2rcd13ifvqhdg","pricing_plan_id":"cebpf4jnsgd1na2vs0mg"},{"bike_id":"a9227b71-75c7-442a-b2f5-890f94740a4c","system_id":"levelo_inurba_marseille","lat":43.31072,"lon":5.3836,"is_reserved":false,"is_disabled":false,"rental_uris":{"android":"levelo://app?vid=a9227b71-75c7-442a-b2f5-890f94740a4c","ios":"levelo://app?vid=a9227b71-75c7-442a-b2f5-890f94740a4c"},"vehicle_type_id":"4","last_reported":1732810309,"current_range_meters":10000,"station_id":"ce4bgv92rcd13ifvqcr0","pricing_plan_id":"cebpf4jnsgd1na2vs0mg"},{"bike_id":"ad9439e4-3166-4ea2-a899-c3fe497c4f34","system_id":"levelo_inurba_marseille","lat":43.2737,"lon":5.36255,"is_reserved":false,"is_disabled":false,"rental_uris":{"android":"levelo://app?vid=ad9439e4-3166-4ea2-a899-c3fe497c4f34","ios":"levelo://app?vid=ad9439e4-3166-4ea2-a899-c3fe497c4f34"},"vehicle_type_id":"4","last_reported":1732810309,"current_range_meters":38000,"station_id":"ce4bhbh2rcd13ifvqeo0","pricing_plan_id":"cebpf4jnsgd1na2vs0mg"},{"bike_id":"0e45148f-1a7e-42d3-9cc8-08bc63689057","system_id":"levelo_inurba_marseille","lat":43.23197,"lon":5.35556,"is_reserved":false,"is_disabled":false,"rental_uris":{"android":"levelo://app?vid=0e45148f-1a7e-42d3-9cc8-08bc63689057","ios":"levelo://app?vid=0e45148f-1a7e-42d3-9cc8-08bc63689057"},"vehicle_type_id":"4","last_reported":1732810309,"current_range_meters":8000,"station_id":"ce4bhu92rcd13ifvqi70","pricing_plan_id":"cebpf4jnsgd1na2vs0mg"},{"bike_id":"9c02b610-1aa7-40cb-a73c-bfe679532f7b","system_id":"levelo_inurba_marseille","lat":43.28669,"lon":5.36346,"is_reserved":false,"is_disabled":false,"rental_uris":{"android":"levelo://app?vid=9c02b610-1aa7-40cb-a73c-bfe679532f7b","ios":"levelo://app?vid=9c02b610-1aa7-40cb-a73c-bfe679532f7b"},"vehicle_type_id":"4","last_reported":1732810309,"current_range_meters":38800,"station_id":"ce4bhah2rcd13ifvqej0","pricing_plan_id":"cebpf4jnsgd1na2vs0mg"},{"bike_id":"ed60a01f-3a4a-44f4-8388-6ae2c4e94362","system_id":"levelo_inurba_marseille","lat":43.26687,"lon":5.38281,"is_reserved":false,"is_disabled":false,"rental_uris":{"android":"levelo://app?vid=ed60a01f-3a4a-44f4-8388-6ae2c4e94362","ios":"levelo://app?vid=ed60a01f-3a4a-44f4-8388-6ae2c4e94362"},"vehicle_type_id":"4","last_reported":1732810309,"current_range_meters":38800,"station_id":"ce4bhg92rcd13ifvqf90","pricing_plan_id":"cebpf4jnsgd1na2vs0mg"},{"bike_id":"465839f2-6722-4ef8-8c92-f2263eb8bc82","system_id":"levelo_inurba_marseille","lat":43.32662,"lon":5.40989,"is_reserved":false,"is_disabled":true,"rental_uris":{"android":"levelo://app?vid=465839f2-6722-4ef8-8c92-f2263eb8bc82","ios":"levelo://app?vid=465839f2-6722-4ef8-8c92-f2263eb8bc82"},"vehicle_type_id":"4","last_reported":1732810309,"current_range_meters":400,"station_id":"ce4bhpp2rcd13ifvqhgg","pricing_plan_id":"cebpf4jnsgd1na2vs0mg"},{"bike_id":"316805d0-f678-4069-80ee-d5c3ccf825af","system_id":"levelo_inurba_marseille","lat":43.23151,"lon":5.43722,"is_reserved":false,"is_disabled":false,"rental_uris":{"android":"levelo://app?vid=316805d0-f678-4069-80ee-d5c3ccf825af","ios":"levelo://app?vid=316805d0-f678-4069-80ee-d5c3ccf825af"},"vehicle_type_id":"4","last_reported":1732810309,"current_range_meters":38800,"station_id":"ce4bhmp2rcd13ifvqgog","pricing_plan_id":"cebpf4jnsgd1na2vs0mg"},{"bike_id":"28e35b8a-63c1-436f-851f-462ff8db4d51","system_id":"levelo_inurba_marseille","lat":43.3033,"lon":5.4044,"is_reserved":false,"is_disabled":true,"rental_uris":{"android":"levelo://app?vid=28e35b8a-63c1-436f-851f-462ff8db4d51","ios":"levelo://app?vid=28e35b8a-63c1-436f-851f-462ff8db4d51"},"vehicle_type_id":"4","last_reported":1732810309,"current_range_meters":0,"station_id":"ce4bh012rcd13ifvqd10","pricing_plan_id":"cebpf4jnsgd1na2vs0mg"},{"bike_id":"6f8f7372-ecd4-442e-95dd-7b099b7e1a39","system_id":"levelo_inurba_marseille","lat":43.29898,"lon":5.43671,"is_reserved":false,"is_disabled":false,"rental_uris":{"android":"levelo://app?vid=6f8f7372-ecd4-442e-95dd-7b099b7e1a39","ios":"levelo://app?vid=6f8f7372-ecd4-442e-95dd-7b099b7e1a39"},"vehicle_type_id":"4","last_reported":1732810309,"current_range_meters":38800,"station_id":"ce4bhpp2rcd13ifvqhfg","pricing_plan_id":"cebpf4jnsgd1na2vs0mg"},{"bike_id":"f004014f-bb39-4fa6-abc0-18ccbc888d21","system_id":"levelo_inurba_marseille","lat":43.30103,"lon":5.39072,"is_reserved":false,"is_disabled":false,"rental_uris":{"android":"levelo://app?vid=f004014f-bb39-4fa6-abc0-18ccbc888d21","ios":"levelo://app?vid=f004014f-bb39-4fa6-abc0-18ccbc888d21"},"vehicle_type_id":"4","last_reported":1732810309,"current_range_meters":20000,"station_id":"ce4bh192rcd13ifvqdb0","pricing_plan_id":"cebpf4jnsgd1na2vs0mg"},{"bike_id":"9e944db9-d48e-4848-b5fa-4af701aee80b","system_id":"levelo_inurba_marseille","lat":48.80797,"lon":2.40127,"is_reserved":false,"is_disabled":true,"rental_uris":{"android":"levelo://app?vid=9e944db9-d48e-4848-b5fa-4af701aee80b","ios":"levelo://app?vid=9e944db9-d48e-4848-b5fa-4af701aee80b"},"vehicle_type_id":"4","last_reported":1732810309,"current_range_meters":23200,"station_id":"","pricing_plan_id":"cebpf4jnsgd1na2vs0mg"},{"bike_id":"ae7d2097-c6cc-4db3-9ea2-9a8e51ad36ba","system_id":"levelo_inurba_marseille","lat":43.26688,"lon":5.38276,"is_reserved":false,"is_disabled":false,"rental_uris":{"android":"levelo://app?vid=ae7d2097-c6cc-4db3-9ea2-9a8e51ad36ba","ios":"levelo://app?vid=ae7d2097-c6cc-4db3-9ea2-9a8e51ad36ba"},"vehicle_type_id":"4","last_reported":1732810309,"current_range_meters":37600,"station_id":"ce4bhg92rcd13ifvqf90","pricing_plan_id":"cebpf4jnsgd1na2vs0mg"},{"bike_id":"4715beda-6f20-4a40-bde8-4f393a0d521e","system_id":"levelo_inurba_marseille","lat":43.26707,"lon":5.37235,"is_reserved":false,"is_disabled":false,"rental_uris":{"android":"levelo://app?vid=4715beda-6f20-4a40-bde8-4f393a0d521e","ios":"levelo://app?vid=4715beda-6f20-4a40-bde8-4f393a0d521e"},"vehicle_type_id":"4","last_reported":1732810309,"current_range_meters":25200,"station_id":"ce4bhn12rcd13ifvqgpg","pricing_plan_id":"cebpf4jnsgd1na2vs0mg"},{"bike_id":"adb35817-9639-49d4-a7ee-4ea135cedc57","system_id":"levelo_inurba_marseille","lat":43.32664,"lon":5.40997,"is_reserved":false,"is_disabled":false,"rental_uris":{"android":"levelo://app?vid=adb35817-9639-49d4-a7ee-4ea135cedc57","ios":"levelo://app?vid=adb35817-9639-49d4-a7ee-4ea135cedc57"},"vehicle_type_id":"4","last_reported":1732810309,"current_range_meters":39200,"station_id":"ce4bhpp2rcd13ifvqhgg","pricing_plan_id":"cebpf4jnsgd1na2vs0mg"},{"bike_id":"9c107a9a-5a88-4bf4-ad01-80dcb8ee345d","system_id":"levelo_inurba_marseille","lat":43.28699,"lon":5.39995,"is_reserved":false,"is_disabled":false,"rental_uris":{"android":"levelo://app?vid=9c107a9a-5a88-4bf4-ad01-80dcb8ee345d","ios":"levelo://app?vid=9c107a9a-5a88-4bf4-ad01-80dcb8ee345d"},"vehicle_type_id":"4","last_reported":1732810309,"current_range_meters":6400,"station_id":"ce4bho92rcd13ifvqh3g","pricing_plan_id":"cebpf4jnsgd1na2vs0mg"},{"bike_id":"ba4fd573-6474-49bf-a884-7d987d65270d","system_id":"levelo_inurba_marseille","lat":43.2511,"lon":5.40322,"is_reserved":false,"is_disabled":false,"rental_uris":{"android":"levelo://app?vid=ba4fd573-6474-49bf-a884-7d987d65270d","ios":"levelo://app?vid=ba4fd573-6474-49bf-a884-7d987d65270d"},"vehicle_type_id":"4","last_reported":1732810309,"current_range_meters":28800,"station_id":"ce4bhlh2rcd13ifvqgig","pricing_plan_id":"cebpf4jnsgd1na2vs0mg"},{"bike_id":"f4bc032f-5a18-4335-a350-d2cc20044f20","system_id":"levelo_inurba_marseille","lat":43.31186,"lon":5.38717,"is_reserved":false,"is_disabled":false,"rental_uris":{"android":"levelo://app?vid=f4bc032f-5a18-4335-a350-d2cc20044f20","ios":"levelo://app?vid=f4bc032f-5a18-4335-a350-d2cc20044f20"},"vehicle_type_id":"4","last_reported":1732810309,"current_range_meters":16800,"station_id":"ce4bgv12rcd13ifvqcp0","pricing_plan_id":"cebpf4jnsgd1na2vs0mg"},{"bike_id":"89d8a88a-cfce-4cc7-a538-63a704d7d7db","system_id":"levelo_inurba_marseille","lat":43.24389,"lon":5.37056,"is_reserved":false,"is_disabled":false,"rental_uris":{"android":"levelo://app?vid=89d8a88a-cfce-4cc7-a538-63a704d7d7db","ios":"levelo://app?vid=89d8a88a-cfce-4cc7-a538-63a704d7d7db"},"vehicle_type_id":"4","last_reported":1732810309,"current_range_meters":4400,"station_id":"ce4bhhh2rcd13ifvqfk0","pricing_plan_id":"cebpf4jnsgd1na2vs0mg"},{"bike_id":"aa8b66ec-a775-4346-8d5d-0a2ec7b88340","system_id":"levelo_inurba_marseille","lat":43.3032,"lon":5.40433,"is_reserved":false,"is_disabled":false,"rental_uris":{"android":"levelo://app?vid=aa8b66ec-a775-4346-8d5d-0a2ec7b88340","ios":"levelo://app?vid=aa8b66ec-a775-4346-8d5d-0a2ec7b88340"},"vehicle_type_id":"4","last_reported":1732810309,"current_range_meters":25200,"station_id":"ce4bh012rcd13ifvqd10","pricing_plan_id":"cebpf4jnsgd1na2vs0mg"},{"bike_id":"e4f1650e-dbc2-4475-adfa-60b279e404ed","system_id":"levelo_inurba_marseille","lat":43.26059,"lon":5.39401,"is_reserved":false,"is_disabled":false,"rental_uris":{"android":"levelo://app?vid=e4f1650e-dbc2-4475-adfa-60b279e404ed","ios":"levelo://app?vid=e4f1650e-dbc2-4475-adfa-60b279e404ed"},"vehicle_type_id":"4","last_reported":1732810309,"current_range_meters":34800,"station_id":"ce4bhh92rcd13ifvqfj0","pricing_plan_id":"cebpf4jnsgd1na2vs0mg"},{"bike_id":"ff74ee0a-2a24-4ec3-a0b7-80c3c7855090","system_id":"levelo_inurba_marseille","lat":43.28275,"lon":5.35083,"is_reserved":false,"is_disabled":false,"rental_uris":{"android":"levelo://app?vid=ff74ee0a-2a24-4ec3-a0b7-80c3c7855090","ios":"levelo://app?vid=ff74ee0a-2a24-4ec3-a0b7-80c3c7855090"},"vehicle_type_id":"4","last_reported":1732810309,"current_range_meters":38800,"station_id":"ce4bhbp2rcd13ifvqerg","pricing_plan_id":"cebpf4jnsgd1na2vs0mg"},{"bike_id":"4ed4f533-a0dc-428f-b910-0929adfac58c","system_id":"levelo_inurba_marseille","lat":43.33023,"lon":5.39043,"is_reserved":false,"is_disabled":false,"rental_uris":{"android":"levelo://app?vid=4ed4f533-a0dc-428f-b910-0929adfac58c","ios":"levelo://app?vid=4ed4f533-a0dc-428f-b910-0929adfac58c"},"vehicle_type_id":"4","last_reported":1732810309,"current_range_meters":20400,"station_id":"ce4bhr92rcd13ifvqhrg","pricing_plan_id":"cebpf4jnsgd1na2vs0mg"},{"bike_id":"1130996c-ba07-491b-a538-69e310f93db2","system_id":"levelo_inurba_marseille","lat":43.2737,"lon":5.36271,"is_reserved":false,"is_disabled":false,"rental_uris":{"android":"levelo://app?vid=1130996c-ba07-491b-a538-69e310f93db2","ios":"levelo://app?vid=1130996c-ba07-491b-a538-69e310f93db2"},"vehicle_type_id":"4","last_reported":1732810309,"current_range_meters":39200,"station_id":"ce4bhbh2rcd13ifvqeo0","pricing_plan_id":"cebpf4jnsgd1na2vs0mg"},{"bike_id":"a1dcb3c8-1eef-4083-be7b-b69a119a7250","system_id":"levelo_inurba_marseille","lat":43.23965,"lon":5.36625,"is_reserved":false,"is_disabled":false,"rental_uris":{"android":"levelo://app?vid=a1dcb3c8-1eef-4083-be7b-b69a119a7250","ios":"levelo://app?vid=a1dcb3c8-1eef-4083-be7b-b69a119a7250"},"vehicle_type_id":"4","last_reported":1732810309,"current_range_meters":9600,"station_id":"ce4bhi12rcd13ifvqfp0","pricing_plan_id":"cebpf4jnsgd1na2vs0mg"},{"bike_id":"a3114daf-4732-4c62-9b94-be68f3d6f60c","system_id":"levelo_inurba_marseille","lat":43.28609,"lon":5.37072,"is_reserved":false,"is_disabled":false,"rental_uris":{"android":"levelo://app?vid=a3114daf-4732-4c62-9b94-be68f3d6f60c","ios":"levelo://app?vid=a3114daf-4732-4c62-9b94-be68f3d6f60c"},"vehicle_type_id":"4","last_reported":1732810309,"current_range_meters":8800,"station_id":"ce4bht12rcd13ifvqi60","pricing_plan_id":"cebpf4jnsgd1na2vs0mg"},{"bike_id":"3c643227-ffe9-4b6e-b218-62432b70e961","system_id":"levelo_inurba_marseille","lat":43.30331,"lon":5.40442,"is_reserved":false,"is_disabled":false,"rental_uris":{"android":"levelo://app?vid=3c643227-ffe9-4b6e-b218-62432b70e961","ios":"levelo://app?vid=3c643227-ffe9-4b6e-b218-62432b70e961"},"vehicle_type_id":"4","last_reported":1732810309,"current_range_meters":28800,"station_id":"ce4bh012rcd13ifvqd10","pricing_plan_id":"cebpf4jnsgd1na2vs0mg"},{"bike_id":"ae3817ed-117b-4ae4-bc47-be03692973ed","system_id":"levelo_inurba_marseille","lat":43.23197,"lon":5.35548,"is_reserved":false,"is_disabled":false,"rental_uris":{"android":"levelo://app?vid=ae3817ed-117b-4ae4-bc47-be03692973ed","ios":"levelo://app?vid=ae3817ed-117b-4ae4-bc47-be03692973ed"},"vehicle_type_id":"4","last_reported":1732810309,"current_range_meters":25200,"station_id":"ce4bhu92rcd13ifvqi70","pricing_plan_id":"cebpf4jnsgd1na2vs0mg"},{"bike_id":"617d0220-e70a-479c-a975-2b4daa5c4166","system_id":"levelo_inurba_marseille","lat":43.23154,"lon":5.43712,"is_reserved":false,"is_disabled":false,"rental_uris":{"android":"levelo://app?vid=617d0220-e70a-479c-a975-2b4daa5c4166","ios":"levelo://app?vid=617d0220-e70a-479c-a975-2b4daa5c4166"},"vehicle_type_id":"4","last_reported":1732810309,"current_range_meters":40000,"station_id":"ce4bhmp2rcd13ifvqgog","pricing_plan_id":"cebpf4jnsgd1na2vs0mg"},{"bike_id":"7576e97e-0b83-4632-a64f-5de8c82098e7","system_id":"levelo_inurba_marseille","lat":43.27374,"lon":5.36256,"is_reserved":false,"is_disabled":false,"rental_uris":{"android":"levelo://app?vid=7576e97e-0b83-4632-a64f-5de8c82098e7","ios":"levelo://app?vid=7576e97e-0b83-4632-a64f-5de8c82098e7"},"vehicle_type_id":"4","last_reported":1732810309,"current_range_meters":38400,"station_id":"ce4bhbh2rcd13ifvqeo0","pricing_plan_id":"cebpf4jnsgd1na2vs0mg"},{"bike_id":"dc374692-af58-4f64-934a-83e8debe4a2f","system_id":"levelo_inurba_marseille","lat":43.27066,"lon":5.42285,"is_reserved":false,"is_disabled":false,"rental_uris":{"android":"levelo://app?vid=dc374692-af58-4f64-934a-83e8debe4a2f","ios":"levelo://app?vid=dc374692-af58-4f64-934a-83e8debe4a2f"},"vehicle_type_id":"4","last_reported":1732810309,"current_range_meters":7200,"station_id":"ce4bhk92rcd13ifvqgb0","pricing_plan_id":"cebpf4jnsgd1na2vs0mg"},{"bike_id":"10a315ee-4ef8-4bac-9f69-c0f853cfce73","system_id":"levelo_inurba_marseille","lat":43.27999,"lon":5.41667,"is_reserved":false,"is_disabled":false,"rental_uris":{"android":"levelo://app?vid=10a315ee-4ef8-4bac-9f69-c0f853cfce73","ios":"levelo://app?vid=10a315ee-4ef8-4bac-9f69-c0f853cfce73"},"vehicle_type_id":"4","last_reported":1732810309,"current_range_meters":16400,"station_id":"ce4bho12rcd13ifvqh1g","pricing_plan_id":"cebpf4jnsgd1na2vs0mg"},{"bike_id":"5481ba4b-fa13-4e61-b8f9-95d380e91c18","system_id":"levelo_inurba_marseille","lat":43.2681,"lon":5.40264,"is_reserved":false,"is_disabled":false,"rental_uris":{"android":"levelo://app?vid=5481ba4b-fa13-4e61-b8f9-95d380e91c18","ios":"levelo://app?vid=5481ba4b-fa13-4e61-b8f9-95d380e91c18"},"vehicle_type_id":"4","last_reported":1732810309,"current_range_meters":34000,"station_id":"ce501612rcd8frsf0b60","pricing_plan_id":"cebpf4jnsgd1na2vs0mg"},{"bike_id":"57945b08-f30d-4baa-b113-73b304fb6bf1","system_id":"levelo_inurba_marseille","lat":43.30105,"lon":5.39066,"is_reserved":false,"is_disabled":false,"rental_uris":{"android":"levelo://app?vid=57945b08-f30d-4baa-b113-73b304fb6bf1","ios":"levelo://app?vid=57945b08-f30d-4baa-b113-73b304fb6bf1"},"vehicle_type_id":"4","last_reported":1732810309,"current_range_meters":35600,"station_id":"ce4bh192rcd13ifvqdb0","pricing_plan_id":"cebpf4jnsgd1na2vs0mg"},{"bike_id":"cdbba5e7-51bf-44f5-a405-47a0f2454958","system_id":"levelo_inurba_marseille","lat":43.28721,"lon":5.37938,"is_reserved":false,"is_disabled":false,"rental_uris":{"android":"levelo://app?vid=cdbba5e7-51bf-44f5-a405-47a0f2454958","ios":"levelo://app?vid=cdbba5e7-51bf-44f5-a405-47a0f2454958"},"vehicle_type_id":"4","last_reported":1732810309,"current_range_meters":38800,"station_id":"ce4bh9p2rcd13ifvqec0","pricing_plan_id":"cebpf4jnsgd1na2vs0mg"},{"bike_id":"b4d58e23-01ae-4c65-b568-c25ecb787930","system_id":"levelo_inurba_marseille","lat":43.265288,"lon":5.393845,"is_reserved":false,"is_disabled":true,"rental_uris":{"android":"levelo://app?vid=b4d58e23-01ae-4c65-b568-c25ecb787930","ios":"levelo://app?vid=b4d58e23-01ae-4c65-b568-c25ecb787930"},"vehicle_type_id":"4","last_reported":1732810309,"current_range_meters":0,"station_id":"","pricing_plan_id":"cebpf4jnsgd1na2vs0mg"},{"bike_id":"29bfd9ad-0365-4b6b-9f4a-b320e49f4b13","system_id":"levelo_inurba_marseille","lat":43.337444,"lon":5.374475,"is_reserved":false,"is_disabled":false,"rental_uris":{"android":"levelo://app?vid=29bfd9ad-0365-4b6b-9f4a-b320e49f4b13","ios":"levelo://app?vid=29bfd9ad-0365-4b6b-9f4a-b320e49f4b13"},"vehicle_type_id":"4","last_reported":1732810309,"current_range_meters":27200,"station_id":"","pricing_plan_id":"cebpf4jnsgd1na2vs0mg"},{"bike_id":"6b05a3d3-0be8-49e3-b409-4477b0c15995","system_id":"levelo_inurba_marseille","lat":43.28421,"lon":5.34994,"is_reserved":false,"is_disabled":false,"rental_uris":{"android":"levelo://app?vid=6b05a3d3-0be8-49e3-b409-4477b0c15995","ios":"levelo://app?vid=6b05a3d3-0be8-49e3-b409-4477b0c15995"},"vehicle_type_id":"4","last_reported":1732810309,"current_range_meters":40000,"station_id":"ce4bhbh2rcd13ifvqepg","pricing_plan_id":"cebpf4jnsgd1na2vs0mg"},{"bike_id":"447c7286-7fd2-40d7-a11c-845c88099efe","system_id":"levelo_inurba_marseille","lat":43.22925,"lon":5.35376,"is_reserved":false,"is_disabled":true,"rental_uris":{"android":"levelo://app?vid=447c7286-7fd2-40d7-a11c-845c88099efe","ios":"levelo://app?vid=447c7286-7fd2-40d7-a11c-845c88099efe"},"vehicle_type_id":"4","last_reported":1732810309,"current_range_meters":10800,"station_id":"cpo3532slgdg3j2ikp40","pricing_plan_id":"cebpf4jnsgd1na2vs0mg"},{"bike_id":"a1723da1-667d-458a-a389-796cdfff081b","system_id":"levelo_inurba_marseille","lat":43.23153,"lon":5.43717,"is_reserved":false,"is_disabled":false,"rental_uris":{"android":"levelo://app?vid=a1723da1-667d-458a-a389-796cdfff081b","ios":"levelo://app?vid=a1723da1-667d-458a-a389-796cdfff081b"},"vehicle_type_id":"4","last_reported":1732810309,"current_range_meters":39200,"station_id":"ce4bhmp2rcd13ifvqgog","pricing_plan_id":"cebpf4jnsgd1na2vs0mg"},{"bike_id":"5df56a47-47ee-41a8-a84f-6d6cb0e240a4","system_id":"levelo_inurba_marseille","lat":43.32295,"lon":5.38276,"is_reserved":false,"is_disabled":false,"rental_uris":{"android":"levelo://app?vid=5df56a47-47ee-41a8-a84f-6d6cb0e240a4","ios":"levelo://app?vid=5df56a47-47ee-41a8-a84f-6d6cb0e240a4"},"vehicle_type_id":"4","last_reported":1732810309,"current_range_meters":39200,"station_id":"ce4bhr12rcd13ifvqhqg","pricing_plan_id":"cebpf4jnsgd1na2vs0mg"},{"bike_id":"08836f09-dfff-4226-befa-d4d4ccd371e8","system_id":"levelo_inurba_marseille","lat":43.26941,"lon":5.40249,"is_reserved":false,"is_disabled":false,"rental_uris":{"android":"levelo://app?vid=08836f09-dfff-4226-befa-d4d4ccd371e8","ios":"levelo://app?vid=08836f09-dfff-4226-befa-d4d4ccd371e8"},"vehicle_type_id":"4","last_reported":1732810309,"current_range_meters":28800,"station_id":"cjm6bp8fraef2m0cb0m0","pricing_plan_id":"cebpf4jnsgd1na2vs0mg"},{"bike_id":"8eb8ff42-f44c-42aa-8232-6285070c5d9b","system_id":"levelo_inurba_marseille","lat":43.26488,"lon":5.39552,"is_reserved":false,"is_disabled":false,"rental_uris":{"android":"levelo://app?vid=8eb8ff42-f44c-42aa-8232-6285070c5d9b","ios":"levelo://app?vid=8eb8ff42-f44c-42aa-8232-6285070c5d9b"},"vehicle_type_id":"4","last_reported":1732810309,"current_range_meters":4800,"station_id":"ce4bhi12rcd13ifvqfq0","pricing_plan_id":"cebpf4jnsgd1na2vs0mg"},{"bike_id":"8aded858-5bd1-4bd8-ad27-df8ed18ce87c","system_id":"levelo_inurba_marseille","lat":43.23152,"lon":5.43711,"is_reserved":false,"is_disabled":false,"rental_uris":{"android":"levelo://app?vid=8aded858-5bd1-4bd8-ad27-df8ed18ce87c","ios":"levelo://app?vid=8aded858-5bd1-4bd8-ad27-df8ed18ce87c"},"vehicle_type_id":"4","last_reported":1732810309,"current_range_meters":38800,"station_id":"ce4bhmp2rcd13ifvqgog","pricing_plan_id":"cebpf4jnsgd1na2vs0mg"},{"bike_id":"0764a062-c0a4-4595-a360-54a9a733cffd","system_id":"levelo_inurba_marseille","lat":43.23155,"lon":5.4371,"is_reserved":false,"is_disabled":false,"rental_uris":{"android":"levelo://app?vid=0764a062-c0a4-4595-a360-54a9a733cffd","ios":"levelo://app?vid=0764a062-c0a4-4595-a360-54a9a733cffd"},"vehicle_type_id":"4","last_reported":1732810309,"current_range_meters":29600,"station_id":"ce4bhmp2rcd13ifvqgog","pricing_plan_id":"cebpf4jnsgd1na2vs0mg"},{"bike_id":"4cd489f2-c439-431a-9770-59ddfe3a3b50","system_id":"levelo_inurba_marseille","lat":43.25872,"lon":5.39909,"is_reserved":false,"is_disabled":false,"rental_uris":{"android":"levelo://app?vid=4cd489f2-c439-431a-9770-59ddfe3a3b50","ios":"levelo://app?vid=4cd489f2-c439-431a-9770-59ddfe3a3b50"},"vehicle_type_id":"4","last_reported":1732810309,"current_range_meters":38000,"station_id":"ce4bhl92rcd13ifvqghg","pricing_plan_id":"cebpf4jnsgd1na2vs0mg"},{"bike_id":"5e3ff3d7-4ded-4184-bace-a031f28ce472","system_id":"levelo_inurba_marseille","lat":43.33763,"lon":5.37437,"is_reserved":false,"is_disabled":false,"rental_uris":{"android":"levelo://app?vid=5e3ff3d7-4ded-4184-bace-a031f28ce472","ios":"levelo://app?vid=5e3ff3d7-4ded-4184-bace-a031f28ce472"},"vehicle_type_id":"4","last_reported":1732810309,"current_range_meters":30800,"station_id":"","pricing_plan_id":"cebpf4jnsgd1na2vs0mg"},{"bike_id":"51800a91-96d1-48e9-98ea-a5c3efc552be","system_id":"levelo_inurba_marseille","lat":43.30865,"lon":5.37746,"is_reserved":false,"is_disabled":true,"rental_uris":{"android":"levelo://app?vid=51800a91-96d1-48e9-98ea-a5c3efc552be","ios":"levelo://app?vid=51800a91-96d1-48e9-98ea-a5c3efc552be"},"vehicle_type_id":"4","last_reported":1732810309,"current_range_meters":1200,"station_id":"","pricing_plan_id":"cebpf4jnsgd1na2vs0mg"},{"bike_id":"21b9c16f-f84d-4677-a8ac-1727dfb71424","system_id":"levelo_inurba_marseille","lat":43.28287,"lon":5.35078,"is_reserved":false,"is_disabled":false,"rental_uris":{"android":"levelo://app?vid=21b9c16f-f84d-4677-a8ac-1727dfb71424","ios":"levelo://app?vid=21b9c16f-f84d-4677-a8ac-1727dfb71424"},"vehicle_type_id":"4","last_reported":1732810309,"current_range_meters":30800,"station_id":"ce4bhbp2rcd13ifvqerg","pricing_plan_id":"cebpf4jnsgd1na2vs0mg"},{"bike_id":"220a0c14-5c35-4705-a350-c5eb4f5a8e63","system_id":"levelo_inurba_marseille","lat":43.2587,"lon":5.39899,"is_reserved":false,"is_disabled":false,"rental_uris":{"android":"levelo://app?vid=220a0c14-5c35-4705-a350-c5eb4f5a8e63","ios":"levelo://app?vid=220a0c14-5c35-4705-a350-c5eb4f5a8e63"},"vehicle_type_id":"4","last_reported":1732810309,"current_range_meters":8800,"station_id":"ce4bhl92rcd13ifvqghg","pricing_plan_id":"cebpf4jnsgd1na2vs0mg"},{"bike_id":"0cf6e19a-56a0-4c21-8f90-42a64c74326f","system_id":"levelo_inurba_marseille","lat":43.31084,"lon":5.42432,"is_reserved":false,"is_disabled":false,"rental_uris":{"android":"levelo://app?vid=0cf6e19a-56a0-4c21-8f90-42a64c74326f","ios":"levelo://app?vid=0cf6e19a-56a0-4c21-8f90-42a64c74326f"},"vehicle_type_id":"4","last_reported":1732810309,"current_range_meters":14400,"station_id":"ce4bhp92rcd13ifvqhag","pricing_plan_id":"cebpf4jnsgd1na2vs0mg"},{"bike_id":"b96dccbd-851a-457f-b7af-9c922214056e","system_id":"levelo_inurba_marseille","lat":43.28413,"lon":5.37516,"is_reserved":false,"is_disabled":false,"rental_uris":{"android":"levelo://app?vid=b96dccbd-851a-457f-b7af-9c922214056e","ios":"levelo://app?vid=b96dccbd-851a-457f-b7af-9c922214056e"},"vehicle_type_id":"4","last_reported":1732810309,"current_range_meters":38800,"station_id":"ce4bh412rcd13ifvqds0","pricing_plan_id":"cebpf4jnsgd1na2vs0mg"},{"bike_id":"577ae885-7cfc-4ffc-aeb7-41dbabcb09c2","system_id":"levelo_inurba_marseille","lat":43.26058,"lon":5.394,"is_reserved":false,"is_disabled":false,"rental_uris":{"android":"levelo://app?vid=577ae885-7cfc-4ffc-aeb7-41dbabcb09c2","ios":"levelo://app?vid=577ae885-7cfc-4ffc-aeb7-41dbabcb09c2"},"vehicle_type_id":"4","last_reported":1732810309,"current_range_meters":8000,"station_id":"ce4bhh92rcd13ifvqfj0","pricing_plan_id":"cebpf4jnsgd1na2vs0mg"},{"bike_id":"ffcddfb5-3fb4-4ed9-8bc0-412994ab59d3","system_id":"levelo_inurba_marseille","lat":43.29227,"lon":5.36065,"is_reserved":false,"is_disabled":false,"rental_uris":{"android":"levelo://app?vid=ffcddfb5-3fb4-4ed9-8bc0-412994ab59d3","ios":"levelo://app?vid=ffcddfb5-3fb4-4ed9-8bc0-412994ab59d3"},"vehicle_type_id":"4","last_reported":1732810309,"current_range_meters":38400,"station_id":"ce4bhbh2rcd13ifvqeqg","pricing_plan_id":"cebpf4jnsgd1na2vs0mg"},{"bike_id":"c2a3929b-b318-4753-a2ef-0b1bce38bfa9","system_id":"levelo_inurba_marseille","lat":43.27905,"lon":5.38007,"is_reserved":false,"is_disabled":false,"rental_uris":{"android":"levelo://app?vid=c2a3929b-b318-4753-a2ef-0b1bce38bfa9","ios":"levelo://app?vid=c2a3929b-b318-4753-a2ef-0b1bce38bfa9"},"vehicle_type_id":"4","last_reported":1732810309,"current_range_meters":39200,"station_id":"ce4bhf92rcd13ifvqf50","pricing_plan_id":"cebpf4jnsgd1na2vs0mg"},{"bike_id":"0f905b5d-41c0-467d-949c-fa0c05f15978","system_id":"levelo_inurba_marseille","lat":43.302435,"lon":5.40076,"is_reserved":false,"is_disabled":true,"rental_uris":{"android":"levelo://app?vid=0f905b5d-41c0-467d-949c-fa0c05f15978","ios":"levelo://app?vid=0f905b5d-41c0-467d-949c-fa0c05f15978"},"vehicle_type_id":"4","last_reported":1732810309,"current_range_meters":31200,"station_id":"ce4bgvh2rcd13ifvqcs0","pricing_plan_id":"cebpf4jnsgd1na2vs0mg"},{"bike_id":"bf497914-3184-459d-8796-7b8eb955d3b3","system_id":"levelo_inurba_marseille","lat":43.26032,"lon":5.37564,"is_reserved":false,"is_disabled":false,"rental_uris":{"android":"levelo://app?vid=bf497914-3184-459d-8796-7b8eb955d3b3","ios":"levelo://app?vid=bf497914-3184-459d-8796-7b8eb955d3b3"},"vehicle_type_id":"4","last_reported":1732810309,"current_range_meters":36800,"station_id":"ce4bhgh2rcd13ifvqfa0","pricing_plan_id":"cebpf4jnsgd1na2vs0mg"},{"bike_id":"b0485180-4047-4014-8d0a-66ea67056790","system_id":"levelo_inurba_marseille","lat":43.30358,"lon":5.41882,"is_reserved":false,"is_disabled":false,"rental_uris":{"android":"levelo://app?vid=b0485180-4047-4014-8d0a-66ea67056790","ios":"levelo://app?vid=b0485180-4047-4014-8d0a-66ea67056790"},"vehicle_type_id":"4","last_reported":1732810309,"current_range_meters":12800,"station_id":"ce4bhop2rcd13ifvqh7g","pricing_plan_id":"cebpf4jnsgd1na2vs0mg"},{"bike_id":"185c0530-41bc-46f7-9534-7dbe08b37658","system_id":"levelo_inurba_marseille","lat":43.30325,"lon":5.4043,"is_reserved":false,"is_disabled":true,"rental_uris":{"android":"levelo://app?vid=185c0530-41bc-46f7-9534-7dbe08b37658","ios":"levelo://app?vid=185c0530-41bc-46f7-9534-7dbe08b37658"},"vehicle_type_id":"4","last_reported":1732810309,"current_range_meters":37600,"station_id":"ce4bh012rcd13ifvqd10","pricing_plan_id":"cebpf4jnsgd1na2vs0mg"},{"bike_id":"5d2e937e-8dc4-4a59-8b36-193efe4b673a","system_id":"levelo_inurba_marseille","lat":43.230634,"lon":5.354934,"is_reserved":false,"is_disabled":false,"rental_uris":{"android":"levelo://app?vid=5d2e937e-8dc4-4a59-8b36-193efe4b673a","ios":"levelo://app?vid=5d2e937e-8dc4-4a59-8b36-193efe4b673a"},"vehicle_type_id":"4","last_reported":1732810309,"current_range_meters":6400,"station_id":"cpo3342slgdg3j2ifvpg","pricing_plan_id":"cebpf4jnsgd1na2vs0mg"},{"bike_id":"6cbeeb33-2ead-403a-8150-41347cdd7645","system_id":"levelo_inurba_marseille","lat":43.30118,"lon":5.39835,"is_reserved":false,"is_disabled":false,"rental_uris":{"android":"levelo://app?vid=6cbeeb33-2ead-403a-8150-41347cdd7645","ios":"levelo://app?vid=6cbeeb33-2ead-403a-8150-41347cdd7645"},"vehicle_type_id":"4","last_reported":1732810309,"current_range_meters":2000,"station_id":"ce4bh0h2rcd13ifvqd40","pricing_plan_id":"cebpf4jnsgd1na2vs0mg"},{"bike_id":"4c1ba871-848d-40fb-8efc-b8373426eefb","system_id":"levelo_inurba_marseille","lat":43.33763,"lon":5.37489,"is_reserved":false,"is_disabled":false,"rental_uris":{"android":"levelo://app?vid=4c1ba871-848d-40fb-8efc-b8373426eefb","ios":"levelo://app?vid=4c1ba871-848d-40fb-8efc-b8373426eefb"},