{"last_updated":1707253590,"ttl":30,"version":"2.2","data":{"bikes":[{"bike_id":"1698a267-a804-4c7e-8afc-8689de5fe72d","system_id":"levelo_inurba_marseille","lat":43.312239,"lon":5.368562,"is_reserved":false,"is_disabled":false,"rental_uris":{"android":"levelo://app?vid=1698a267-a804-4c7e-8afc-8689de5fe72d","ios":"levelo://app?vid=1698a267-a804-4c7e-8afc-8689de5fe72d"},"vehicle_type_id":"4","last_reported":1707253590,"current_range_meters":0,"station_id":"ce4bgl92rcd13ifvqbq0","pricing_plan_id":"free"},{"bike_id":"4127b9c5-27ab-4f6a-9561-058d22f19751","system_id":"levelo_inurba_marseille","lat":43.309076,"lon":5.368465,"is_reserved":false,"is_disabled":false,"rental_uris":{"android":"levelo://app?vid=4127b9c5-27ab-4f6a-9561-058d22f19751","ios":"levelo://app?vid=4127b9c5-27ab-4f6a-9561-058d22f19751"},"vehicle_type_id":"4","last_reported":1707253590,"current_range_meters":18800,"station_id":"ce4bgn92rcd13ifvqbvg","pricing_plan_id":"free"},{"bike_id":"2f6b748a-beec-4fed-a81f-a2a756de7ee1","system_id":"levelo_inurba_marseille","lat":43.309076,"lon":5.368465,"is_reserved":false,"is_disabled":false,"rental_uris":{"android":"levelo://app?vid=2f6b748a-beec-4fed-a81f-a2a756de7ee1","ios":"levelo://app?vid=2f6b748a-beec-4fed-a81f-a2a756de7ee1"},"vehicle_type_id":"4","last_reported":1707253590,"current_range_meters":2400,"station_id":"ce4bgn92rcd13ifvqbvg","pricing_plan_id":"free"},{"bike_id":"9a0d9d49-a600-4d3a-9e9b-e08126f635dd","system_id":"levelo_inurba_marseille","lat":43.314811,"lon":5.373103,"is_reserved":false,"is_disabled":false,"rental_uris":{"android":"levelo://app?vid=9a0d9d49-a600-4d3a-9e9b-e08126f635dd","ios":"levelo://app?vid=9a0d9d49-a600-4d3a-9e9b-e08126f635dd"},"vehicle_type_id":"4","last_reported":1707253590,"current_range_meters":25200,"station_id":"ce4bgt12rcd13ifvqcd0","pricing_plan_id":"free"},{"bike_id":"b972ce81-b0cd-46ec-86f6-716f0e0e512e","system_id":"levelo_inurba_marseille","lat":43.309039,"lon":5.371797,"is_reserved":false,"is_disabled":false,"rental_uris":{"android":"levelo://app?vid=b972ce81-b0cd-46ec-86f6-716f0e0e512e","ios":"levelo://app?vid=b972ce81-b0cd-46ec-86f6-716f0e0e512e"},"vehicle_type_id":"4","last_reported":1707253590,"current_range_meters":28800,"station_id":"ce4bguh2rcd13ifvqckg","pricing_plan_id":"free"},{"bike_id":"59da6869-5cef-4563-8a13-37ac21f7f3c1","system_id":"levelo_inurba_marseille","lat":43.30537,"lon":5.367345,"is_reserved":false,"is_disabled":false,"rental_uris":{"android":"levelo://app?vid=59da6869-5cef-4563-8a13-37ac21f7f3c1","ios":"levelo://app?vid=59da6869-5cef-4563-8a13-37ac21f7f3c1"},"vehicle_type_id":"4","last_reported":1707253590,"current_range_meters":0,"station_id":"ce4bgrp2rcd13ifvqc9g","pricing_plan_id":"free"},{"bike_id":"03aa97eb-247d-48c8-ba46-4e8da2a315c1","system_id":"levelo_inurba_marseille","lat":43.305368,"lon":5.367343,"is_reserved":false,"is_disabled":false,"rental_uris":{"android":"levelo://app?vid=03aa97eb-247d-48c8-ba46-4e8da2a315c1","ios":"levelo://app?vid=03aa97eb-247d-48c8-ba46-4e8da2a315c1"},"vehicle_type_id":"4","last_reported":1707253590,"current_range_meters":24800,"station_id":"ce4bgrp2rcd13ifvqc9g","pricing_plan_id":"free"},{"bike_id":"d0cbc8da-e570-4cc3-9608-e58d8328ea7c","system_id":"levelo_inurba_marseille","lat":43.305706,"lon":5.365654,"is_reserved":false,"is_disabled":false,"rental_uris":{"android":"levelo://app?vid=d0cbc8da-e570-4cc3-9608-e58d8328ea7c","ios":"levelo://app?vid=d0cbc8da-e570-4cc3-9608-e58d8328ea7c"},"vehicle_type_id":"4","last_reported":1707253590,"current_range_meters":17600,"station_id":"ce4bgs12rcd13ifvqcag","pricing_plan_id":"free"},{"bike_id":"e7ac0c82-604e-471f-b2ad-0816ca3a3e08","system_id":"levelo_inurba_marseille","lat":43.305368,"lon":5.367343,"is_reserved":false,"is_disabled":false,"rental_uris":{"android":"levelo://app?vid=e7ac0c82-604e-471f-b2ad-0816ca3a3e08","ios":"levelo://app?vid=e7ac0c82-604e-471f-b2ad-0816ca3a3e08"},"vehicle_type_id":"4","last_reported":1707253590,"current_range_meters":0,"station_id":"ce4bgrp2rcd13ifvqc9g","pricing_plan_id":"free"},{"bike_id":"70299e31-3020-4172-83d0-763f284ae960","system_id":"levelo_inurba_marseille","lat":43.30304,"lon":5.368987,"is_reserved":false,"is_disabled":false,"rental_uris":{"android":"levelo://app?vid=70299e31-3020-4172-83d0-763f284ae960","ios":"levelo://app?vid=70299e31-3020-4172-83d0-763f284ae960"},"vehicle_type_id":"4","last_reported":1707253590,"current_range_meters":5600,"station_id":"ce4bgqh2rcd13ifvqc5g","pricing_plan_id":"free"},{"bike_id":"f2adebac-9bce-4edf-8a90-0376d595b6e1","system_id":"levelo_inurba_marseille","lat":43.305989,"lon":5.37225,"is_reserved":false,"is_disabled":false,"rental_uris":{"android":"levelo://app?vid=f2adebac-9bce-4edf-8a90-0376d595b6e1","ios":"levelo://app?vid=f2adebac-9bce-4edf-8a90-0376d595b6e1"},"vehicle_type_id":"4","last_reported":1707253590,"current_range_meters":25600,"station_id":"ce4bgqh2rcd13ifvqc4g","pricing_plan_id":"free"},{"bike_id":"6ed2bac0-400d-46bb-8238-2118b37fe54a","system_id":"levelo_inurba_marseille","lat":43.305989,"lon":5.37225,"is_reserved":false,"is_disabled":false,"rental_uris":{"android":"levelo://app?vid=6ed2bac0-400d-46bb-8238-2118b37fe54a","ios":"levelo://app?vid=6ed2bac0-400d-46bb-8238-2118b37fe54a"},"vehicle_type_id":"4","last_reported":1707253590,"current_range_meters":16800,"station_id":"ce4bgqh2rcd13ifvqc4g","pricing_plan_id":"free"},{"bike_id":"7989541c-ca2d-45d7-9e1a-27bb60e18a47","system_id":"levelo_inurba_marseille","lat":43.311125,"lon":5.377624,"is_reserved":false,"is_disabled":false,"rental_uris":{"android":"levelo://app?vid=7989541c-ca2d-45d7-9e1a-27bb60e18a47","ios":"levelo://app?vid=7989541c-ca2d-45d7-9e1a-27bb60e18a47"},"vehicle_type_id":"4","last_reported":1707253590,"current_range_meters":4400,"station_id":"ce4bgt92rcd13ifvqcg0","pricing_plan_id":"free"},{"bike_id":"d57af884-4a8c-459c-9464-17e48a3f32b5","system_id":"levelo_inurba_marseille","lat":43.311125,"lon":5.377624,"is_reserved":false,"is_disabled":false,"rental_uris":{"android":"levelo://app?vid=d57af884-4a8c-459c-9464-17e48a3f32b5","ios":"levelo://app?vid=d57af884-4a8c-459c-9464-17e48a3f32b5"},"vehicle_type_id":"4","last_reported":1707253590,"current_range_meters":2800,"station_id":"ce4bgt92rcd13ifvqcg0","pricing_plan_id":"free"},{"bike_id":"39f6a757-6bdb-4df0-969a-5bd7f58161e3","system_id":"levelo_inurba_marseille","lat":43.311125,"lon":5.377624,"is_reserved":false,"is_disabled":false,"rental_uris":{"android":"levelo://app?vid=39f6a757-6bdb-4df0-969a-5bd7f58161e3","ios":"levelo://app?vid=39f6a757-6bdb-4df0-969a-5bd7f58161e3"},"vehicle_type_id":"4","last_reported":1707253590,"current_range_meters":0,"station_id":"ce4bgt92rcd13ifvqcg0","pricing_plan_id":"free"},{"bike_id":"ae0f1b3a-af0e-47a9-9328-588c3a54cbd7","system_id":"levelo_inurba_marseille","lat":43.311125,"lon":5.377624,"is_reserved":false,"is_disabled":false,"rental_uris":{"android":"levelo://app?vid=ae0f1b3a-af0e-47a9-9328-588c3a54cbd7","ios":"levelo://app?vid=ae0f1b3a-af0e-47a9-9328-588c3a54cbd7"},"vehicle_type_id":"4","last_reported":1707253590,"current_range_meters":15200,"station_id":"ce4bgt92rcd13ifvqcg0","pricing_plan_id":"free"},{"bike_id":"bbfc5f52-17f3-4330-9c28-d0c8b2bcb37d","system_id":"levelo_inurba_marseille","lat":43.317075,"lon":5.377367,"is_reserved":false,"is_disabled":false,"rental_uris":{"android":"levelo://app?vid=bbfc5f52-17f3-4330-9c28-d0c8b2bcb37d","ios":"levelo://app?vid=bbfc5f52-17f3-4330-9c28-d0c8b2bcb37d"},"vehicle_type_id":"4","last_reported":1707253590,"current_range_meters":3600,"station_id":"ce4bgth2rcd13ifvqch0","pricing_plan_id":"free"},{"bike_id":"0c466ccc-d747-4327-be86-c3896d0bbba3","system_id":"levelo_inurba_marseille","lat":43.317075,"lon":5.377367,"is_reserved":false,"is_disabled":false,"rental_uris":{"android":"levelo://app?vid=0c466ccc-d747-4327-be86-c3896d0bbba3","ios":"levelo://app?vid=0c466ccc-d747-4327-be86-c3896d0bbba3"},"vehicle_type_id":"4","last_reported":1707253590,"current_range_meters":31200,"station_id":"ce4bgth2rcd13ifvqch0","pricing_plan_id":"free"},{"bike_id":"574a9098-cdd5-47a8-992e-c2e21820e7c4","system_id":"levelo_inurba_marseille","lat":43.303046,"lon":5.368981,"is_reserved":false,"is_disabled":false,"rental_uris":{"android":"levelo://app?vid=574a9098-cdd5-47a8-992e-c2e21820e7c4","ios":"levelo://app?vid=574a9098-cdd5-47a8-992e-c2e21820e7c4"},"vehicle_type_id":"4","last_reported":1707253590,"current_range_meters":10800,"station_id":"ce4bgqh2rcd13ifvqc5g","pricing_plan_id":"free"},{"bike_id":"44d074c1-d2db-47c6-8e3d-855ef42b92aa","system_id":"levelo_inurba_marseille","lat":43.315293,"lon":5.380349,"is_reserved":false,"is_disabled":false,"rental_uris":{"android":"levelo://app?vid=44d074c1-d2db-47c6-8e3d-855ef42b92aa","ios":"levelo://app?vid=44d074c1-d2db-47c6-8e3d-855ef42b92aa"},"vehicle_type_id":"4","last_reported":1707253590,"current_range_meters":16800,"station_id":"ce4bhsp2rcd13ifvqi50","pricing_plan_id":"free"},{"bike_id":"c3eb0486-c9f1-4610-978a-c48f7af8fd75","system_id":"levelo_inurba_marseille","lat":43.315293,"lon":5.380349,"is_reserved":false,"is_disabled":false,"rental_uris":{"android":"levelo://app?vid=c3eb0486-c9f1-4610-978a-c48f7af8fd75","ios":"levelo://app?vid=c3eb0486-c9f1-4610-978a-c48f7af8fd75"},"vehicle_type_id":"4","last_reported":1707253590,"current_range_meters":11200,"station_id":"ce4bhsp2rcd13ifvqi50","pricing_plan_id":"free"},{"bike_id":"32b3688b-c940-47a5-8354-60d524c82719","system_id":"levelo_inurba_marseille","lat":43.301925,"lon":5.3662,"is_reserved":false,"is_disabled":false,"rental_uris":{"android":"levelo://app?vid=32b3688b-c940-47a5-8354-60d524c82719","ios":"levelo://app?vid=32b3688b-c940-47a5-8354-60d524c82719"},"vehicle_type_id":"4","last_reported":1707253590,"current_range_meters":0,"station_id":"ce4bgrh2rcd13ifvqc8g","pricing_plan_id":"free"},{"bike_id":"a394aba6-316e-493c-898e-32b69ac36ef0","system_id":"levelo_inurba_marseille","lat":43.308624,"lon":5.381811,"is_reserved":false,"is_disabled":false,"rental_uris":{"android":"levelo://app?vid=a394aba6-316e-493c-898e-32b69ac36ef0","ios":"levelo://app?vid=a394aba6-316e-493c-898e-32b69ac36ef0"},"vehicle_type_id":"4","last_reported":1707253590,"current_range_meters":17200,"station_id":"","pricing_plan_id":"free"},{"bike_id":"86bb28d6-8524-4639-af6f-d6b0f34c19c9","system_id":"levelo_inurba_marseille","lat":43.308012,"lon":5.381511,"is_reserved":false,"is_disabled":false,"rental_uris":{"android":"levelo://app?vid=86bb28d6-8524-4639-af6f-d6b0f34c19c9","ios":"levelo://app?vid=86bb28d6-8524-4639-af6f-d6b0f34c19c9"},"vehicle_type_id":"4","last_reported":1707253590,"current_range_meters":5200,"station_id":"ce4bgt12rcd13ifvqce0","pricing_plan_id":"free"},{"bike_id":"675e637c-52df-440b-a124-13c3b55c001f","system_id":"levelo_inurba_marseille","lat":43.30799,"lon":5.38158,"is_reserved":false,"is_disabled":false,"rental_uris":{"android":"levelo://app?vid=675e637c-52df-440b-a124-13c3b55c001f","ios":"levelo://app?vid=675e637c-52df-440b-a124-13c3b55c001f"},"vehicle_type_id":"4","last_reported":1707253590,"current_range_meters":0,"station_id":"ce4bgt12rcd13ifvqce0","pricing_plan_id":"free"},{"bike_id":"de2a8f40-7a2e-4c75-9390-c26d2fb531d8","system_id":"levelo_inurba_marseille","lat":43.308012,"lon":5.381511,"is_reserved":false,"is_disabled":false,"rental_uris":{"android":"levelo://app?vid=de2a8f40-7a2e-4c75-9390-c26d2fb531d8","ios":"levelo://app?vid=de2a8f40-7a2e-4c75-9390-c26d2fb531d8"},"vehicle_type_id":"4","last_reported":1707253590,"current_range_meters":22800,"station_id":"ce4bgt12rcd13ifvqce0","pricing_plan_id":"free"},{"bike_id":"d456f6ee-732a-4df8-aa13-81d9777b31de","system_id":"levelo_inurba_marseille","lat":43.30794,"lon":5.38161,"is_reserved":false,"is_disabled":false,"rental_uris":{"android":"levelo://app?vid=d456f6ee-732a-4df8-aa13-81d9777b31de","ios":"levelo://app?vid=d456f6ee-732a-4df8-aa13-81d9777b31de"},"vehicle_type_id":"4","last_reported":1707253590,"current_range_meters":26800,"station_id":"ce4bgt12rcd13ifvqce0","pricing_plan_id":"free"},{"bike_id":"07799e4a-b156-4773-ae0c-6f8794514fb4","system_id":"levelo_inurba_marseille","lat":43.304606,"lon":5.379026,"is_reserved":false,"is_disabled":false,"rental_uris":{"android":"levelo://app?vid=07799e4a-b156-4773-ae0c-6f8794514fb4","ios":"levelo://app?vid=07799e4a-b156-4773-ae0c-6f8794514fb4"},"vehicle_type_id":"4","last_reported":1707253590,"current_range_meters":1200,"station_id":"ce4bgup2rcd13ifvqcn0","pricing_plan_id":"free"},{"bike_id":"ed0f226a-ff53-4560-a625-a3dcb4b6aa39","system_id":"levelo_inurba_marseille","lat":43.30457,"lon":5.37894,"is_reserved":false,"is_disabled":false,"rental_uris":{"android":"levelo://app?vid=ed0f226a-ff53-4560-a625-a3dcb4b6aa39","ios":"levelo://app?vid=ed0f226a-ff53-4560-a625-a3dcb4b6aa39"},"vehicle_type_id":"4","last_reported":1707253590,"current_range_meters":0,"station_id":"ce4bgup2rcd13ifvqcn0","pricing_plan_id":"free"},{"bike_id":"97f71f75-d414-4d74-9636-20377fab8590","system_id":"levelo_inurba_marseille","lat":43.324771,"lon":5.36557,"is_reserved":false,"is_disabled":false,"rental_uris":{"android":"levelo://app?vid=97f71f75-d414-4d74-9636-20377fab8590","ios":"levelo://app?vid=97f71f75-d414-4d74-9636-20377fab8590"},"vehicle_type_id":"4","last_reported":1707253590,"current_range_meters":30000,"station_id":"ce4bhs12rcd13ifvqhvg","pricing_plan_id":"free"},{"bike_id":"5e3f4117-bf71-4295-8fac-b33a9c44e6b6","system_id":"levelo_inurba_marseille","lat":43.324771,"lon":5.36557,"is_reserved":false,"is_disabled":false,"rental_uris":{"android":"levelo://app?vid=5e3f4117-bf71-4295-8fac-b33a9c44e6b6","ios":"levelo://app?vid=5e3f4117-bf71-4295-8fac-b33a9c44e6b6"},"vehicle_type_id":"4","last_reported":1707253590,"current_range_meters":23200,"station_id":"ce4bhs12rcd13ifvqhvg","pricing_plan_id":"free"},{"bike_id":"38cd9f06-2496-4cc3-975c-dabe34e3b5eb","system_id":"levelo_inurba_marseille","lat":43.324771,"lon":5.36557,"is_reserved":false,"is_disabled":false,"rental_uris":{"android":"levelo://app?vid=38cd9f06-2496-4cc3-975c-dabe34e3b5eb","ios":"levelo://app?vid=38cd9f06-2496-4cc3-975c-dabe34e3b5eb"},"vehicle_type_id":"4","last_reported":1707253590,"current_range_meters":1200,"station_id":"ce4bhs12rcd13ifvqhvg","pricing_plan_id":"free"},{"bike_id":"4f950c7f-7cb5-4f30-9590-a8fdce534a4c","system_id":"levelo_inurba_marseille","lat":43.310598,"lon":5.383383,"is_reserved":false,"is_disabled":false,"rental_uris":{"android":"levelo://app?vid=4f950c7f-7cb5-4f30-9590-a8fdce534a4c","ios":"levelo://app?vid=4f950c7f-7cb5-4f30-9590-a8fdce534a4c"},"vehicle_type_id":"4","last_reported":1707253590,"current_range_meters":18000,"station_id":"ce4bgv92rcd13ifvqcr0","pricing_plan_id":"free"},{"bike_id":"edf45dfe-91d7-407a-b7d3-81c40bcf1454","system_id":"levelo_inurba_marseille","lat":43.31071,"lon":5.38347,"is_reserved":false,"is_disabled":false,"rental_uris":{"android":"levelo://app?vid=edf45dfe-91d7-407a-b7d3-81c40bcf1454","ios":"levelo://app?vid=edf45dfe-91d7-407a-b7d3-81c40bcf1454"},"vehicle_type_id":"4","last_reported":1707253590,"current_range_meters":25600,"station_id":"ce4bgv92rcd13ifvqcr0","pricing_plan_id":"free"},{"bike_id":"efb861b4-b7c4-457b-b0f7-debe463a85d8","system_id":"levelo_inurba_marseille","lat":43.31078,"lon":5.3835,"is_reserved":false,"is_disabled":false,"rental_uris":{"android":"levelo://app?vid=efb861b4-b7c4-457b-b0f7-debe463a85d8","ios":"levelo://app?vid=efb861b4-b7c4-457b-b0f7-debe463a85d8"},"vehicle_type_id":"4","last_reported":1707253590,"current_range_meters":13200,"station_id":"ce4bgv92rcd13ifvqcr0","pricing_plan_id":"free"},{"bike_id":"0f903aa9-267a-41ae-af86-a4cfc3a1d668","system_id":"levelo_inurba_marseille","lat":43.31079,"lon":5.38352,"is_reserved":false,"is_disabled":false,"rental_uris":{"android":"levelo://app?vid=0f903aa9-267a-41ae-af86-a4cfc3a1d668","ios":"levelo://app?vid=0f903aa9-267a-41ae-af86-a4cfc3a1d668"},"vehicle_type_id":"4","last_reported":1707253590,"current_range_meters":22800,"station_id":"ce4bgv92rcd13ifvqcr0","pricing_plan_id":"free"},{"bike_id":"7c20e289-a25a-40af-994e-4d7947cbd0b5","system_id":"levelo_inurba_marseille","lat":43.31069,"lon":5.38354,"is_reserved":false,"is_disabled":false,"rental_uris":{"android":"levelo://app?vid=7c20e289-a25a-40af-994e-4d7947cbd0b5","ios":"levelo://app?vid=7c20e289-a25a-40af-994e-4d7947cbd0b5"},"vehicle_type_id":"4","last_reported":1707253590,"current_range_meters":1600,"station_id":"ce4bgv92rcd13ifvqcr0","pricing_plan_id":"free"},{"bike_id":"b23a88ee-727a-4ee0-ac64-e7e015e2549f","system_id":"levelo_inurba_marseille","lat":43.3108,"lon":5.38361,"is_reserved":false,"is_disabled":false,"rental_uris":{"android":"levelo://app?vid=b23a88ee-727a-4ee0-ac64-e7e015e2549f","ios":"levelo://app?vid=b23a88ee-727a-4ee0-ac64-e7e015e2549f"},"vehicle_type_id":"4","last_reported":1707253590,"current_range_meters":0,"station_id":"ce4bgv92rcd13ifvqcr0","pricing_plan_id":"free"},{"bike_id":"3c2d55aa-7635-4f7b-a7ed-f56b72b8a6be","system_id":"levelo_inurba_marseille","lat":43.301429,"lon":5.37413,"is_reserved":false,"is_disabled":false,"rental_uris":{"android":"levelo://app?vid=3c2d55aa-7635-4f7b-a7ed-f56b72b8a6be","ios":"levelo://app?vid=3c2d55aa-7635-4f7b-a7ed-f56b72b8a6be"},"vehicle_type_id":"4","last_reported":1707253590,"current_range_meters":5600,"station_id":"ce4bgs92rcd13ifvqcc0","pricing_plan_id":"free"},{"bike_id":"0abbaad6-12a6-4f04-8257-739b9ff8f24b","system_id":"levelo_inurba_marseille","lat":43.31998,"lon":5.38149,"is_reserved":false,"is_disabled":false,"rental_uris":{"android":"levelo://app?vid=0abbaad6-12a6-4f04-8257-739b9ff8f24b","ios":"levelo://app?vid=0abbaad6-12a6-4f04-8257-739b9ff8f24b"},"vehicle_type_id":"4","last_reported":1707253590,"current_range_meters":9200,"station_id":"ce4bhr12rcd13ifvqhpg","pricing_plan_id":"free"},{"bike_id":"cd1697dc-c996-412f-9980-2785b058e155","system_id":"levelo_inurba_marseille","lat":43.319935,"lon":5.381699,"is_reserved":false,"is_disabled":false,"rental_uris":{"android":"levelo://app?vid=cd1697dc-c996-412f-9980-2785b058e155","ios":"levelo://app?vid=cd1697dc-c996-412f-9980-2785b058e155"},"vehicle_type_id":"4","last_reported":1707253590,"current_range_meters":17200,"station_id":"ce4bhr12rcd13ifvqhpg","pricing_plan_id":"free"},{"bike_id":"ccf2a241-3d64-4fde-891f-1d3d7e7db1c1","system_id":"levelo_inurba_marseille","lat":43.319935,"lon":5.381699,"is_reserved":false,"is_disabled":false,"rental_uris":{"android":"levelo://app?vid=ccf2a241-3d64-4fde-891f-1d3d7e7db1c1","ios":"levelo://app?vid=ccf2a241-3d64-4fde-891f-1d3d7e7db1c1"},"vehicle_type_id":"4","last_reported":1707253590,"current_range_meters":26000,"station_id":"ce4bhr12rcd13ifvqhpg","pricing_plan_id":"free"},{"bike_id":"4505dd3b-e70e-4db9-b95e-a6d146ab3434","system_id":"levelo_inurba_marseille","lat":43.319935,"lon":5.381699,"is_reserved":false,"is_disabled":false,"rental_uris":{"android":"levelo://app?vid=4505dd3b-e70e-4db9-b95e-a6d146ab3434","ios":"levelo://app?vid=4505dd3b-e70e-4db9-b95e-a6d146ab3434"},"vehicle_type_id":"4","last_reported":1707253590,"current_range_meters":14000,"station_id":"ce4bhr12rcd13ifvqhpg","pricing_plan_id":"free"},{"bike_id":"cd930c75-f2d0-49f4-a962-1ba9d506628f","system_id":"levelo_inurba_marseille","lat":43.32002,"lon":5.38156,"is_reserved":false,"is_disabled":false,"rental_uris":{"android":"levelo://app?vid=cd930c75-f2d0-49f4-a962-1ba9d506628f","ios":"levelo://app?vid=cd930c75-f2d0-49f4-a962-1ba9d506628f"},"vehicle_type_id":"4","last_reported":1707253590,"current_range_meters":17600,"station_id":"ce4bhr12rcd13ifvqhpg","pricing_plan_id":"free"},{"bike_id":"12ce1b51-e513-48d4-8826-d38689553faa","system_id":"levelo_inurba_marseille","lat":43.319935,"lon":5.381699,"is_reserved":false,"is_disabled":false,"rental_uris":{"android":"levelo://app?vid=12ce1b51-e513-48d4-8826-d38689553faa","ios":"levelo://app?vid=12ce1b51-e513-48d4-8826-d38689553faa"},"vehicle_type_id":"4","last_reported":1707253590,"current_range_meters":25600,"station_id":"ce4bhr12rcd13ifvqhpg","pricing_plan_id":"free"},{"bike_id":"1c25a4cd-9cf0-4c3b-88f3-a47ab8939f20","system_id":"levelo_inurba_marseille","lat":43.31992,"lon":5.38168,"is_reserved":false,"is_disabled":false,"rental_uris":{"android":"levelo://app?vid=1c25a4cd-9cf0-4c3b-88f3-a47ab8939f20","ios":"levelo://app?vid=1c25a4cd-9cf0-4c3b-88f3-a47ab8939f20"},"vehicle_type_id":"4","last_reported":1707253590,"current_range_meters":14800,"station_id":"ce4bhr12rcd13ifvqhpg","pricing_plan_id":"free"},{"bike_id":"3b3ba378-a266-417c-9c43-cb829e6481c7","system_id":"levelo_inurba_marseille","lat":43.32,"lon":5.38163,"is_reserved":false,"is_disabled":false,"rental_uris":{"android":"levelo://app?vid=3b3ba378-a266-417c-9c43-cb829e6481c7","ios":"levelo://app?vid=3b3ba378-a266-417c-9c43-cb829e6481c7"},"vehicle_type_id":"4","last_reported":1707253590,"current_range_meters":5200,"station_id":"ce4bhr12rcd13ifvqhpg","pricing_plan_id":"free"},{"bike_id":"6ec3f119-1396-4f2b-bc37-fafe9f44fa4b","system_id":"levelo_inurba_marseille","lat":43.32,"lon":5.38165,"is_reserved":false,"is_disabled":false,"rental_uris":{"android":"levelo://app?vid=6ec3f119-1396-4f2b-bc37-fafe9f44fa4b","ios":"levelo://app?vid=6ec3f119-1396-4f2b-bc37-fafe9f44fa4b"},"vehicle_type_id":"4","last_reported":1707253590,"current_range_meters":19600,"station_id":"ce4bhr12rcd13ifvqhpg","pricing_plan_id":"free"},{"bike_id":"aa2daeb2-6e2c-44e2-a71a-635c5683cc13","system_id":"levelo_inurba_marseille","lat":43.313571,"lon":5.384829,"is_reserved":false,"is_disabled":false,"rental_uris":{"android":"levelo://app?vid=aa2daeb2-6e2c-44e2-a71a-635c5683cc13","ios":"levelo://app?vid=aa2daeb2-6e2c-44e2-a71a-635c5683cc13"},"vehicle_type_id":"4","last_reported":1707253590,"current_range_meters":10400,"station_id":"ce4bgt92rcd13ifvqcf0","pricing_plan_id":"free"},{"bike_id":"efc61b0c-df87-4e70-8118-edca778d83e8","system_id":"levelo_inurba_marseille","lat":43.313571,"lon":5.384829,"is_reserved":false,"is_disabled":false,"rental_uris":{"android":"levelo://app?vid=efc61b0c-df87-4e70-8118-edca778d83e8","ios":"levelo://app?vid=efc61b0c-df87-4e70-8118-edca778d83e8"},"vehicle_type_id":"4","last_reported":1707253590,"current_range_meters":3600,"station_id":"ce4bgt92rcd13ifvqcf0","pricing_plan_id":"free"},{"bike_id":"c296969d-2eb2-46f0-8d1c-d054b0c44ad2","system_id":"levelo_inurba_marseille","lat":43.313571,"lon":5.384829,"is_reserved":false,"is_disabled":false,"rental_uris":{"android":"levelo://app?vid=c296969d-2eb2-46f0-8d1c-d054b0c44ad2","ios":"levelo://app?vid=c296969d-2eb2-46f0-8d1c-d054b0c44ad2"},"vehicle_type_id":"4","last_reported":1707253590,"current_range_meters":11600,"station_id":"ce4bgt92rcd13ifvqcf0","pricing_plan_id":"free"},{"bike_id":"a0fdb0de-f985-4692-8e62-3b9211ee337b","system_id":"levelo_inurba_marseille","lat":43.313571,"lon":5.384829,"is_reserved":false,"is_disabled":false,"rental_uris":{"android":"levelo://app?vid=a0fdb0de-f985-4692-8e62-3b9211ee337b","ios":"levelo://app?vid=a0fdb0de-f985-4692-8e62-3b9211ee337b"},"vehicle_type_id":"4","last_reported":1707253590,"current_range_meters":15200,"station_id":"ce4bgt92rcd13ifvqcf0","pricing_plan_id":"free"},{"bike_id":"d73908e2-2bfd-489b-804e-d4e95fac72d2","system_id":"levelo_inurba_marseille","lat":43.326525,"lon":5.36078,"is_reserved":false,"is_disabled":false,"rental_uris":{"android":"levelo://app?vid=d73908e2-2bfd-489b-804e-d4e95fac72d2","ios":"levelo://app?vid=d73908e2-2bfd-489b-804e-d4e95fac72d2"},"vehicle_type_id":"4","last_reported":1707253590,"current_range_meters":13200,"station_id":"","pricing_plan_id":"free"},{"bike_id":"85d27fef-2678-4fd5-be4c-3e8e507f0b0f","system_id":"levelo_inurba_marseille","lat":43.305364,"lon":5.384119,"is_reserved":false,"is_disabled":false,"rental_uris":{"android":"levelo://app?vid=85d27fef-2678-4fd5-be4c-3e8e507f0b0f","ios":"levelo://app?vid=85d27fef-2678-4fd5-be4c-3e8e507f0b0f"},"vehicle_type_id":"4","last_reported":1707253590,"current_range_meters":17200,"station_id":"ce4bgg92rcd13ifvqb30","pricing_plan_id":"free"},{"bike_id":"2b394655-3659-4933-b74a-2fd23773e391","system_id":"levelo_inurba_marseille","lat":43.298433,"lon":5.362774,"is_reserved":false,"is_disabled":false,"rental_uris":{"android":"levelo://app?vid=2b394655-3659-4933-b74a-2fd23773e391","ios":"levelo://app?vid=2b394655-3659-4933-b74a-2fd23773e391"},"vehicle_type_id":"4","last_reported":1707253590,"current_range_meters":27600,"station_id":"ce4bgpp2rcd13ifvqc3g","pricing_plan_id":"free"},{"bike_id":"821c419a-c2e6-42b8-9c75-829332e7bae9","system_id":"levelo_inurba_marseille","lat":43.31191,"lon":5.387077,"is_reserved":false,"is_disabled":false,"rental_uris":{"android":"levelo://app?vid=821c419a-c2e6-42b8-9c75-829332e7bae9","ios":"levelo://app?vid=821c419a-c2e6-42b8-9c75-829332e7bae9"},"vehicle_type_id":"4","last_reported":1707253590,"current_range_meters":4800,"station_id":"ce4bgv12rcd13ifvqcp0","pricing_plan_id":"free"},{"bike_id":"9c434b96-9f6a-445d-96a2-5f989efd8171","system_id":"levelo_inurba_marseille","lat":43.299243,"lon":5.37481,"is_reserved":false,"is_disabled":false,"rental_uris":{"android":"levelo://app?vid=9c434b96-9f6a-445d-96a2-5f989efd8171","ios":"levelo://app?vid=9c434b96-9f6a-445d-96a2-5f989efd8171"},"vehicle_type_id":"4","last_reported":1707253590,"current_range_meters":15600,"station_id":"ce4bgjh2rcd13ifvqbg0","pricing_plan_id":"free"},{"bike_id":"251db69b-0529-447c-ab49-508126bf452a","system_id":"levelo_inurba_marseille","lat":43.311722,"lon":5.387247,"is_reserved":false,"is_disabled":false,"rental_uris":{"android":"levelo://app?vid=251db69b-0529-447c-ab49-508126bf452a","ios":"levelo://app?vid=251db69b-0529-447c-ab49-508126bf452a"},"vehicle_type_id":"4","last_reported":1707253590,"current_range_meters":9600,"station_id":"ce4bgv12rcd13ifvqcp0","pricing_plan_id":"free"},{"bike_id":"0a7a6941-c18a-4bb9-a7fc-dd9c9e77b2c4","system_id":"levelo_inurba_marseille","lat":43.311722,"lon":5.387247,"is_reserved":false,"is_disabled":false,"rental_uris":{"android":"levelo://app?vid=0a7a6941-c18a-4bb9-a7fc-dd9c9e77b2c4","ios":"levelo://app?vid=0a7a6941-c18a-4bb9-a7fc-dd9c9e77b2c4"},"vehicle_type_id":"4","last_reported":1707253590,"current_range_meters":9600,"station_id":"ce4bgv12rcd13ifvqcp0","pricing_plan_id":"free"},{"bike_id":"d584fdf6-f44f-452e-8a4b-793493cd1ad4","system_id":"levelo_inurba_marseille","lat":43.311722,"lon":5.387247,"is_reserved":false,"is_disabled":false,"rental_uris":{"android":"levelo://app?vid=d584fdf6-f44f-452e-8a4b-793493cd1ad4","ios":"levelo://app?vid=d584fdf6-f44f-452e-8a4b-793493cd1ad4"},"vehicle_type_id":"4","last_reported":1707253590,"current_range_meters":19600,"station_id":"ce4bgv12rcd13ifvqcp0","pricing_plan_id":"free"},{"bike_id":"a6be166a-e1f3-4327-ace1-0262da7aa811","system_id":"levelo_inurba_marseille","lat":43.311722,"lon":5.387247,"is_reserved":false,"is_disabled":false,"rental_uris":{"android":"levelo://app?vid=a6be166a-e1f3-4327-ace1-0262da7aa811","ios":"levelo://app?vid=a6be166a-e1f3-4327-ace1-0262da7aa811"},"vehicle_type_id":"4","last_reported":1707253590,"current_range_meters":28400,"station_id":"ce4bgv12rcd13ifvqcp0","pricing_plan_id":"free"},{"bike_id":"2abedac9-23cb-4b76-a99c-511005127599","system_id":"levelo_inurba_marseille","lat":43.297794,"lon":5.370888,"is_reserved":false,"is_disabled":false,"rental_uris":{"android":"levelo://app?vid=2abedac9-23cb-4b76-a99c-511005127599","ios":"levelo://app?vid=2abedac9-23cb-4b76-a99c-511005127599"},"vehicle_type_id":"4","last_reported":1707253590,"current_range_meters":12800,"station_id":"ce4bgop2rcd13ifvqc1g","pricing_plan_id":"free"},{"bike_id":"068825c3-0e30-4039-9991-0f25d2c61d15","system_id":"levelo_inurba_marseille","lat":43.32792,"lon":5.36684,"is_reserved":false,"is_disabled":false,"rental_uris":{"android":"levelo://app?vid=068825c3-0e30-4039-9991-0f25d2c61d15","ios":"levelo://app?vid=068825c3-0e30-4039-9991-0f25d2c61d15"},"vehicle_type_id":"4","last_reported":1707253590,"current_range_meters":14800,"station_id":"","pricing_plan_id":"free"},{"bike_id":"aeda78ec-de39-407e-8a5b-89262fd5c123","system_id":"levelo_inurba_marseille","lat":43.322872,"lon":5.382756,"is_reserved":false,"is_disabled":false,"rental_uris":{"android":"levelo://app?vid=aeda78ec-de39-407e-8a5b-89262fd5c123","ios":"levelo://app?vid=aeda78ec-de39-407e-8a5b-89262fd5c123"},"vehicle_type_id":"4","last_reported":1707253590,"current_range_meters":29600,"station_id":"ce4bhr12rcd13ifvqhqg","pricing_plan_id":"free"},{"bike_id":"f05ba268-8024-4397-b67e-d5d6848bf3c7","system_id":"levelo_inurba_marseille","lat":43.322872,"lon":5.382756,"is_reserved":false,"is_disabled":false,"rental_uris":{"android":"levelo://app?vid=f05ba268-8024-4397-b67e-d5d6848bf3c7","ios":"levelo://app?vid=f05ba268-8024-4397-b67e-d5d6848bf3c7"},"vehicle_type_id":"4","last_reported":1707253590,"current_range_meters":24800,"station_id":"ce4bhr12rcd13ifvqhqg","pricing_plan_id":"free"},{"bike_id":"2e7d1277-a3ec-4c37-831b-c0b641935959","system_id":"levelo_inurba_marseille","lat":43.32818,"lon":5.36689,"is_reserved":false,"is_disabled":false,"rental_uris":{"android":"levelo://app?vid=2e7d1277-a3ec-4c37-831b-c0b641935959","ios":"levelo://app?vid=2e7d1277-a3ec-4c37-831b-c0b641935959"},"vehicle_type_id":"4","last_reported":1707253590,"current_range_meters":11200,"station_id":"ce4bhs92rcd13ifvqi0g","pricing_plan_id":"free"},{"bike_id":"1900e2ea-9239-49b1-933e-57903fa99707","system_id":"levelo_inurba_marseille","lat":43.32826,"lon":5.36695,"is_reserved":false,"is_disabled":false,"rental_uris":{"android":"levelo://app?vid=1900e2ea-9239-49b1-933e-57903fa99707","ios":"levelo://app?vid=1900e2ea-9239-49b1-933e-57903fa99707"},"vehicle_type_id":"4","last_reported":1707253590,"current_range_meters":2000,"station_id":"ce4bhs92rcd13ifvqi0g","pricing_plan_id":"free"},{"bike_id":"6a5b4a9f-7323-472e-b759-8dae709cba6c","system_id":"levelo_inurba_marseille","lat":43.32826,"lon":5.36685,"is_reserved":false,"is_disabled":false,"rental_uris":{"android":"levelo://app?vid=6a5b4a9f-7323-472e-b759-8dae709cba6c","ios":"levelo://app?vid=6a5b4a9f-7323-472e-b759-8dae709cba6c"},"vehicle_type_id":"4","last_reported":1707253590,"current_range_meters":14000,"station_id":"ce4bhs92rcd13ifvqi0g","pricing_plan_id":"free"},{"bike_id":"6cd6b889-8d57-4573-b2a2-aa0a2c9636a8","system_id":"levelo_inurba_marseille","lat":43.32827,"lon":5.36672,"is_reserved":false,"is_disabled":false,"rental_uris":{"android":"levelo://app?vid=6cd6b889-8d57-4573-b2a2-aa0a2c9636a8","ios":"levelo://app?vid=6cd6b889-8d57-4573-b2a2-aa0a2c9636a8"},"vehicle_type_id":"4","last_reported":1707253590,"current_range_meters":400,"station_id":"ce4bhs92rcd13ifvqi0g","pricing_plan_id":"free"},{"bike_id":"a7f79efb-1544-4a9c-90b1-63c97e52bce2","system_id":"levelo_inurba_marseille","lat":43.328296,"lon":5.366796,"is_reserved":false,"is_disabled":false,"rental_uris":{"android":"levelo://app?vid=a7f79efb-1544-4a9c-90b1-63c97e52bce2","ios":"levelo://app?vid=a7f79efb-1544-4a9c-90b1-63c97e52bce2"},"vehicle_type_id":"4","last_reported":1707253590,"current_range_meters":10000,"station_id":"ce4bhs92rcd13ifvqi0g","pricing_plan_id":"free"},{"bike_id":"46ffd311-8d24-4a9c-a424-d0bccfd813b8","system_id":"levelo_inurba_marseille","lat":43.328301,"lon":5.366836,"is_reserved":false,"is_disabled":false,"rental_uris":{"android":"levelo://app?vid=46ffd311-8d24-4a9c-a424-d0bccfd813b8","ios":"levelo://app?vid=46ffd311-8d24-4a9c-a424-d0bccfd813b8"},"vehicle_type_id":"4","last_reported":1707253590,"current_range_meters":4000,"station_id":"ce4bhs92rcd13ifvqi0g","pricing_plan_id":"free"},{"bike_id":"36243836-0b62-45d5-b00e-078a5c9e3add","system_id":"levelo_inurba_marseille","lat":43.32835,"lon":5.36682,"is_reserved":false,"is_disabled":false,"rental_uris":{"android":"levelo://app?vid=36243836-0b62-45d5-b00e-078a5c9e3add","ios":"levelo://app?vid=36243836-0b62-45d5-b00e-078a5c9e3add"},"vehicle_type_id":"4","last_reported":1707253590,"current_range_meters":4800,"station_id":"ce4bhs92rcd13ifvqi0g","pricing_plan_id":"free"},{"bike_id":"e9931e11-7f7d-405e-b611-f5c0a6974b86","system_id":"levelo_inurba_marseille","lat":43.32835,"lon":5.3668,"is_reserved":false,"is_disabled":false,"rental_uris":{"android":"levelo://app?vid=e9931e11-7f7d-405e-b611-f5c0a6974b86","ios":"levelo://app?vid=e9931e11-7f7d-405e-b611-f5c0a6974b86"},"vehicle_type_id":"4","last_reported":1707253590,"current_range_meters":12000,"station_id":"ce4bhs92rcd13ifvqi0g","pricing_plan_id":"free"},{"bike_id":"655782ea-adc5-4c9e-a8c7-608dca9d4db8","system_id":"levelo_inurba_marseille","lat":43.328371,"lon":5.366912,"is_reserved":false,"is_disabled":false,"rental_uris":{"android":"levelo://app?vid=655782ea-adc5-4c9e-a8c7-608dca9d4db8","ios":"levelo://app?vid=655782ea-adc5-4c9e-a8c7-608dca9d4db8"},"vehicle_type_id":"4","last_reported":1707253590,"current_range_meters":21200,"station_id":"ce4bhs92rcd13ifvqi0g","pricing_plan_id":"free"},{"bike_id":"71947e60-535f-4ec4-9929-00860f46ad4f","system_id":"levelo_inurba_marseille","lat":43.297163,"lon":5.365866,"is_reserved":false,"is_disabled":false,"rental_uris":{"android":"levelo://app?vid=71947e60-535f-4ec4-9929-00860f46ad4f","ios":"levelo://app?vid=71947e60-535f-4ec4-9929-00860f46ad4f"},"vehicle_type_id":"4","last_reported":1707253590,"current_range_meters":1200,"station_id":"ce4bgn12rcd13ifvqbt0","pricing_plan_id":"free"},{"bike_id":"409f1caf-2de7-4701-8920-51305d9d2d26","system_id":"levelo_inurba_marseille","lat":43.29573,"lon":5.367355,"is_reserved":false,"is_disabled":false,"rental_uris":{"android":"levelo://app?vid=409f1caf-2de7-4701-8920-51305d9d2d26","ios":"levelo://app?vid=409f1caf-2de7-4701-8920-51305d9d2d26"},"vehicle_type_id":"4","last_reported":1707253590,"current_range_meters":14800,"station_id":"ce4bgph2rcd13ifvqc2g","pricing_plan_id":"free"},{"bike_id":"a2708b93-1691-4215-9c03-0f4949ab6215","system_id":"levelo_inurba_marseille","lat":43.296921,"lon":5.376579,"is_reserved":false,"is_disabled":false,"rental_uris":{"android":"levelo://app?vid=a2708b93-1691-4215-9c03-0f4949ab6215","ios":"levelo://app?vid=a2708b93-1691-4215-9c03-0f4949ab6215"},"vehicle_type_id":"4","last_reported":1707253590,"current_range_meters":18800,"station_id":"ce4bgkh2rcd13ifvqbl0","pricing_plan_id":"free"},{"bike_id":"41b10fc9-cd9a-4951-94a9-b3610e44e247","system_id":"levelo_inurba_marseille","lat":43.299028,"lon":5.381509,"is_reserved":false,"is_disabled":false,"rental_uris":{"android":"levelo://app?vid=41b10fc9-cd9a-4951-94a9-b3610e44e247","ios":"levelo://app?vid=41b10fc9-cd9a-4951-94a9-b3610e44e247"},"vehicle_type_id":"4","last_reported":1707253590,"current_range_meters":16400,"station_id":"ce4bgj12rcd13ifvqbc0","pricing_plan_id":"free"},{"bike_id":"b393e380-9b9a-4239-8934-e30e3f7bac4e","system_id":"levelo_inurba_marseille","lat":43.31747,"lon":5.38999,"is_reserved":false,"is_disabled":false,"rental_uris":{"android":"levelo://app?vid=b393e380-9b9a-4239-8934-e30e3f7bac4e","ios":"levelo://app?vid=b393e380-9b9a-4239-8934-e30e3f7bac4e"},"vehicle_type_id":"4","last_reported":1707253590,"current_range_meters":15200,"station_id":"ce4bhqp2rcd13ifvqhng","pricing_plan_id":"free"},{"bike_id":"9268b101-79ac-4bcb-b66b-b3aa5eb7916b","system_id":"levelo_inurba_marseille","lat":43.3176,"lon":5.39006,"is_reserved":false,"is_disabled":false,"rental_uris":{"android":"levelo://app?vid=9268b101-79ac-4bcb-b66b-b3aa5eb7916b","ios":"levelo://app?vid=9268b101-79ac-4bcb-b66b-b3aa5eb7916b"},"vehicle_type_id":"4","last_reported":1707253590,"current_range_meters":17600,"station_id":"ce4bhqp2rcd13ifvqhng","pricing_plan_id":"free"},{"bike_id":"8236458b-34ca-49b5-ab60-c4f12ac61945","system_id":"levelo_inurba_marseille","lat":43.317553,"lon":5.390156,"is_reserved":false,"is_disabled":false,"rental_uris":{"android":"levelo://app?vid=8236458b-34ca-49b5-ab60-c4f12ac61945","ios":"levelo://app?vid=8236458b-34ca-49b5-ab60-c4f12ac61945"},"vehicle_type_id":"4","last_reported":1707253590,"current_range_meters":16000,"station_id":"ce4bhqp2rcd13ifvqhng","pricing_plan_id":"free"},{"bike_id":"3ccd3931-8811-4b7f-a846-c32a0a6915a2","system_id":"levelo_inurba_marseille","lat":43.317557,"lon":5.390173,"is_reserved":false,"is_disabled":false,"rental_uris":{"android":"levelo://app?vid=3ccd3931-8811-4b7f-a846-c32a0a6915a2","ios":"levelo://app?vid=3ccd3931-8811-4b7f-a846-c32a0a6915a2"},"vehicle_type_id":"4","last_reported":1707253590,"current_range_meters":26000,"station_id":"ce4bhqp2rcd13ifvqhng","pricing_plan_id":"free"},{"bike_id":"cd483cf2-ddf7-4bc2-8846-13c380942b93","system_id":"levelo_inurba_marseille","lat":43.31758,"lon":5.39016,"is_reserved":false,"is_disabled":false,"rental_uris":{"android":"levelo://app?vid=cd483cf2-ddf7-4bc2-8846-13c380942b93","ios":"levelo://app?vid=cd483cf2-ddf7-4bc2-8846-13c380942b93"},"vehicle_type_id":"4","last_reported":1707253590,"current_range_meters":20800,"station_id":"ce4bhqp2rcd13ifvqhng","pricing_plan_id":"free"},{"bike_id":"acfb1a76-9d92-4e60-b5a5-bb928051e624","system_id":"levelo_inurba_marseille","lat":43.317557,"lon":5.390173,"is_reserved":false,"is_disabled":false,"rental_uris":{"android":"levelo://app?vid=acfb1a76-9d92-4e60-b5a5-bb928051e624","ios":"levelo://app?vid=acfb1a76-9d92-4e60-b5a5-bb928051e624"},"vehicle_type_id":"4","last_reported":1707253590,"current_range_meters":29600,"station_id":"ce4bhqp2rcd13ifvqhng","pricing_plan_id":"free"},{"bike_id":"f9e71f25-83c3-4ad2-95f8-b63267492ced","system_id":"levelo_inurba_marseille","lat":43.317557,"lon":5.390173,"is_reserved":false,"is_disabled":false,"rental_uris":{"android":"levelo://app?vid=f9e71f25-83c3-4ad2-95f8-b63267492ced","ios":"levelo://app?vid=f9e71f25-83c3-4ad2-95f8-b63267492ced"},"vehicle_type_id":"4","last_reported":1707253590,"current_range_meters":21600,"station_id":"ce4bhqp2rcd13ifvqhng","pricing_plan_id":"free"},{"bike_id":"cff55c77-7ebe-4284-bc48-2fbd9d0bf89e","system_id":"levelo_inurba_marseille","lat":43.31757,"lon":5.3902,"is_reserved":false,"is_disabled":false,"rental_uris":{"android":"levelo://app?vid=cff55c77-7ebe-4284-bc48-2fbd9d0bf89e","ios":"levelo://app?vid=cff55c77-7ebe-4284-bc48-2fbd9d0bf89e"},"vehicle_type_id":"4","last_reported":1707253590,"current_range_meters":17600,"station_id":"ce4bhqp2rcd13ifvqhng","pricing_plan_id":"free"},{"bike_id":"3c453d5b-83dd-4499-9d12-a38d59d5c115","system_id":"levelo_inurba_marseille","lat":43.317548,"lon":5.39023,"is_reserved":false,"is_disabled":false,"rental_uris":{"android":"levelo://app?vid=3c453d5b-83dd-4499-9d12-a38d59d5c115","ios":"levelo://app?vid=3c453d5b-83dd-4499-9d12-a38d59d5c115"},"vehicle_type_id":"4","last_reported":1707253590,"current_range_meters":20800,"station_id":"ce4bhqp2rcd13ifvqhng","pricing_plan_id":"free"},{"bike_id":"353a8076-fe4e-4941-bf3d-10e08d5bd46a","system_id":"levelo_inurba_marseille","lat":43.31754,"lon":5.39029,"is_reserved":false,"is_disabled":false,"rental_uris":{"android":"levelo://app?vid=353a8076-fe4e-4941-bf3d-10e08d5bd46a","ios":"levelo://app?vid=353a8076-fe4e-4941-bf3d-10e08d5bd46a"},"vehicle_type_id":"4","last_reported":1707253590,"current_range_meters":3200,"station_id":"ce4bhqp2rcd13ifvqhng","pricing_plan_id":"free"},{"bike_id":"211f186d-35fc-4407-a75f-a4e75d95c601","system_id":"levelo_inurba_marseille","lat":43.317575,"lon":5.39033,"is_reserved":false,"is_disabled":false,"rental_uris":{"android":"levelo://app?vid=211f186d-35fc-4407-a75f-a4e75d95c601","ios":"levelo://app?vid=211f186d-35fc-4407-a75f-a4e75d95c601"},"vehicle_type_id":"4","last_reported":1707253590,"current_range_meters":2000,"station_id":"ce4bhqp2rcd13ifvqhng","pricing_plan_id":"free"},{"bike_id":"472d9412-2a6a-4781-a978-52c0b4b1b714","system_id":"levelo_inurba_marseille","lat":43.298037,"lon":5.381066,"is_reserved":false,"is_disabled":false,"rental_uris":{"android":"levelo://app?vid=472d9412-2a6a-4781-a978-52c0b4b1b714","ios":"levelo://app?vid=472d9412-2a6a-4781-a978-52c0b4b1b714"},"vehicle_type_id":"4","last_reported":1707253590,"current_range_meters":27600,"station_id":"ce4bgip2rcd13ifvqbb0","pricing_plan_id":"free"},{"bike_id":"af135484-1941-4d90-aeb3-7c60364736ec","system_id":"levelo_inurba_marseille","lat":43.295786,"lon":5.375024,"is_reserved":false,"is_disabled":false,"rental_uris":{"android":"levelo://app?vid=af135484-1941-4d90-aeb3-7c60364736ec","ios":"levelo://app?vid=af135484-1941-4d90-aeb3-7c60364736ec"},"vehicle_type_id":"4","last_reported":1707253590,"current_range_meters":31200,"station_id":"ce4bgh92rcd13ifvqb50","pricing_plan_id":"free"},{"bike_id":"7428558e-cb43-4726-a42a-31325c121dee","system_id":"levelo_inurba_marseille","lat":43.304274,"lon":5.388873,"is_reserved":false,"is_disabled":false,"rental_uris":{"android":"levelo://app?vid=7428558e-cb43-4726-a42a-31325c121dee","ios":"levelo://app?vid=7428558e-cb43-4726-a42a-31325c121dee"},"vehicle_type_id":"4","last_reported":1707253590,"current_range_meters":20000,"station_id":"ce4bgk12rcd13ifvqbi0","pricing_plan_id":"free"},{"bike_id":"dfabd29c-ebe2-48f7-9618-638327503a03","system_id":"levelo_inurba_marseille","lat":43.298037,"lon":5.381066,"is_reserved":false,"is_disabled":false,"rental_uris":{"android":"levelo://app?vid=dfabd29c-ebe2-48f7-9618-638327503a03","ios":"levelo://app?vid=dfabd29c-ebe2-48f7-9618-638327503a03"},"vehicle_type_id":"4","last_reported":1707253590,"current_range_meters":27200,"station_id":"ce4bgip2rcd13ifvqbb0","pricing_plan_id":"free"},{"bike_id":"08fb81ee-a8dd-4f6c-8081-d00ac64e4eef","system_id":"levelo_inurba_marseille","lat":43.298037,"lon":5.381066,"is_reserved":false,"is_disabled":false,"rental_uris":{"android":"levelo://app?vid=08fb81ee-a8dd-4f6c-8081-d00ac64e4eef","ios":"levelo://app?vid=08fb81ee-a8dd-4f6c-8081-d00ac64e4eef"},"vehicle_type_id":"4","last_reported":1707253590,"current_range_meters":28400,"station_id":"ce4bgip2rcd13ifvqbb0","pricing_plan_id":"free"},{"bike_id":"6b6f151e-08b9-4c67-a19d-c062f1a6f86f","system_id":"levelo_inurba_marseille","lat":43.298037,"lon":5.381066,"is_reserved":false,"is_disabled":false,"rental_uris":{"android":"levelo://app?vid=6b6f151e-08b9-4c67-a19d-c062f1a6f86f","ios":"levelo://app?vid=6b6f151e-08b9-4c67-a19d-c062f1a6f86f"},"vehicle_type_id":"4","last_reported":1707253590,"current_range_meters":2400,"station_id":"ce4bgip2rcd13ifvqbb0","pricing_plan_id":"free"},{"bike_id":"c30b8c45-4d1f-41ad-a43d-ddba044c6b3c","system_id":"levelo_inurba_marseille","lat":43.29606,"lon":5.37716,"is_reserved":false,"is_disabled":false,"rental_uris":{"android":"levelo://app?vid=c30b8c45-4d1f-41ad-a43d-ddba044c6b3c","ios":"levelo://app?vid=c30b8c45-4d1f-41ad-a43d-ddba044c6b3c"},"vehicle_type_id":"4","last_reported":1707253590,"current_range_meters":31200,"station_id":"ce4bgi92rcd13ifvqb90","pricing_plan_id":"free"},{"bike_id":"3b07cbfa-5c14-4621-b388-c4706716d335","system_id":"levelo_inurba_marseille","lat":43.297541,"lon":5.38096,"is_reserved":false,"is_disabled":false,"rental_uris":{"android":"levelo://app?vid=3b07cbfa-5c14-4621-b388-c4706716d335","ios":"levelo://app?vid=3b07cbfa-5c14-4621-b388-c4706716d335"},"vehicle_type_id":"4","last_reported":1707253590,"current_range_meters":1200,"station_id":"","pricing_plan_id":"free"},{"bike_id":"1fa86947-ff8a-40c3-b80c-29cad3680748","system_id":"levelo_inurba_marseille","lat":43.29533,"lon":5.375025,"is_reserved":false,"is_disabled":false,"rental_uris":{"android":"levelo://app?vid=1fa86947-ff8a-40c3-b80c-29cad3680748","ios":"levelo://app?vid=1fa86947-ff8a-40c3-b80c-29cad3680748"},"vehicle_type_id":"4","last_reported":1707253590,"current_range_meters":28800,"station_id":"ce4bgkp2rcd13ifvqbmg","pricing_plan_id":"free"},{"bike_id":"c59d1053-0cb3-49b8-be44-558ae5fe78e3","system_id":"levelo_inurba_marseille","lat":43.299707,"lon":5.384859,"is_reserved":false,"is_disabled":false,"rental_uris":{"android":"levelo://app?vid=c59d1053-0cb3-49b8-be44-558ae5fe78e3","ios":"levelo://app?vid=c59d1053-0cb3-49b8-be44-558ae5fe78e3"},"vehicle_type_id":"4","last_reported":1707253590,"current_range_meters":22800,"station_id":"ce4bgj92rcd13ifvqbd0","pricing_plan_id":"free"},{"bike_id":"ed5d3f68-f6ae-4628-a68b-31e6c4c8b97c","system_id":"levelo_inurba_marseille","lat":43.32358,"lon":5.38878,"is_reserved":false,"is_disabled":false,"rental_uris":{"android":"levelo://app?vid=ed5d3f68-f6ae-4628-a68b-31e6c4c8b97c","ios":"levelo://app?vid=ed5d3f68-f6ae-4628-a68b-31e6c4c8b97c"},"vehicle_type_id":"4","last_reported":1707253590,"current_range_meters":800,"station_id":"ce4bhqp2rcd13ifvqhog","pricing_plan_id":"free"},{"bike_id":"606777c4-4d1f-4822-a9c7-ca190e9d7ac9","system_id":"levelo_inurba_marseille","lat":43.32364,"lon":5.3888,"is_reserved":false,"is_disabled":false,"rental_uris":{"android":"levelo://app?vid=606777c4-4d1f-4822-a9c7-ca190e9d7ac9","ios":"levelo://app?vid=606777c4-4d1f-4822-a9c7-ca190e9d7ac9"},"vehicle_type_id":"4","last_reported":1707253590,"current_range_meters":3200,"station_id":"ce4bhqp2rcd13ifvqhog","pricing_plan_id":"free"},{"bike_id":"b2180001-e57d-42eb-b057-d6791a6c5f13","system_id":"levelo_inurba_marseille","lat":43.323632,"lon":5.38882,"is_reserved":false,"is_disabled":false,"rental_uris":{"android":"levelo://app?vid=b2180001-e57d-42eb-b057-d6791a6c5f13","ios":"levelo://app?vid=b2180001-e57d-42eb-b057-d6791a6c5f13"},"vehicle_type_id":"4","last_reported":1707253590,"current_range_meters":9600,"station_id":"ce4bhqp2rcd13ifvqhog","pricing_plan_id":"free"},{"bike_id":"e46e8ff3-6efb-422c-88bb-36c5e9ce66e4","system_id":"levelo_inurba_marseille","lat":43.32368,"lon":5.3888,"is_reserved":false,"is_disabled":false,"rental_uris":{"android":"levelo://app?vid=e46e8ff3-6efb-422c-88bb-36c5e9ce66e4","ios":"levelo://app?vid=e46e8ff3-6efb-422c-88bb-36c5e9ce66e4"},"vehicle_type_id":"4","last_reported":1707253590,"current_range_meters":12400,"station_id":"ce4bhqp2rcd13ifvqhog","pricing_plan_id":"free"},{"bike_id":"2699b29a-e584-4936-892c-96f311fc0314","system_id":"levelo_inurba_marseille","lat":43.32364,"lon":5.38886,"is_reserved":false,"is_disabled":false,"rental_uris":{"android":"levelo://app?vid=2699b29a-e584-4936-892c-96f311fc0314","ios":"levelo://app?vid=2699b29a-e584-4936-892c-96f311fc0314"},"vehicle_type_id":"4","last_reported":1707253590,"current_range_meters":6400,"station_id":"ce4bhqp2rcd13ifvqhog","pricing_plan_id":"free"},{"bike_id":"27e7d923-81e0-4c18-9a4b-aeb5de43f55c","system_id":"levelo_inurba_marseille","lat":43.32364,"lon":5.38887,"is_reserved":false,"is_disabled":false,"rental_uris":{"android":"levelo://app?vid=27e7d923-81e0-4c18-9a4b-aeb5de43f55c","ios":"levelo://app?vid=27e7d923-81e0-4c18-9a4b-aeb5de43f55c"},"vehicle_type_id":"4","last_reported":1707253590,"current_range_meters":18400,"station_id":"ce4bhqp2rcd13ifvqhog","pricing_plan_id":"free"},{"bike_id":"ff7066c7-aa1b-4d2c-a675-1a72e0d147ce","system_id":"levelo_inurba_marseille","lat":43.32367,"lon":5.388845,"is_reserved":false,"is_disabled":false,"rental_uris":{"android":"levelo://app?vid=ff7066c7-aa1b-4d2c-a675-1a72e0d147ce","ios":"levelo://app?vid=ff7066c7-aa1b-4d2c-a675-1a72e0d147ce"},"vehicle_type_id":"4","last_reported":1707253590,"current_range_meters":8000,"station_id":"ce4bhqp2rcd13ifvqhog","pricing_plan_id":"free"},{"bike_id":"593326ed-2cc1-41f5-9d97-b4674f983682","system_id":"levelo_inurba_marseille","lat":43.32367,"lon":5.388836,"is_reserved":false,"is_disabled":false,"rental_uris":{"android":"levelo://app?vid=593326ed-2cc1-41f5-9d97-b4674f983682","ios":"levelo://app?vid=593326ed-2cc1-41f5-9d97-b4674f983682"},"vehicle_type_id":"4","last_reported":1707253590,"current_range_meters":8800,"station_id":"ce4bhqp2rcd13ifvqhog","pricing_plan_id":"free"},{"bike_id":"d8968fca-a626-40cf-a890-1f81d69efe51","system_id":"levelo_inurba_marseille","lat":43.29305,"lon":5.37171,"is_reserved":false,"is_disabled":false,"rental_uris":{"android":"levelo://app?vid=d8968fca-a626-40cf-a890-1f81d69efe51","ios":"levelo://app?vid=d8968fca-a626-40cf-a890-1f81d69efe51"},"vehicle_type_id":"4","last_reported":1707253590,"current_range_meters":0,"station_id":"ce4bgh92rcd13ifvqb40","pricing_plan_id":"free"},{"bike_id":"d39e5c66-809f-44ff-86cb-5bf224493ff1","system_id":"levelo_inurba_marseille","lat":43.292749,"lon":5.368402,"is_reserved":false,"is_disabled":false,"rental_uris":{"android":"levelo://app?vid=d39e5c66-809f-44ff-86cb-5bf224493ff1","ios":"levelo://app?vid=d39e5c66-809f-44ff-86cb-5bf224493ff1"},"vehicle_type_id":"4","last_reported":1707253590,"current_range_meters":20000,"station_id":"ce4bhbp2rcd13ifvqesg","pricing_plan_id":"free"},{"bike_id":"969f5b8c-0771-4fd2-8969-d6a4a2923cb8","system_id":"levelo_inurba_marseille","lat":43.29274,"lon":5.36842,"is_reserved":false,"is_disabled":false,"rental_uris":{"android":"levelo://app?vid=969f5b8c-0771-4fd2-8969-d6a4a2923cb8","ios":"levelo://app?vid=969f5b8c-0771-4fd2-8969-d6a4a2923cb8"},"vehicle_type_id":"4","last_reported":1707253590,"current_range_meters":4400,"station_id":"","pricing_plan_id":"free"},{"bike_id":"4a912044-0e10-4fe1-a398-b325e2df8077","system_id":"levelo_inurba_marseille","lat":43.292749,"lon":5.368402,"is_reserved":false,"is_disabled":false,"rental_uris":{"android":"levelo://app?vid=4a912044-0e10-4fe1-a398-b325e2df8077","ios":"levelo://app?vid=4a912044-0e10-4fe1-a398-b325e2df8077"},"vehicle_type_id":"4","last_reported":1707253590,"current_range_meters":2000,"station_id":"ce4bhbp2rcd13ifvqesg","pricing_plan_id":"free"},{"bike_id":"d9c0637a-49cd-4b4b-87d7-fae64e111fa8","system_id":"levelo_inurba_marseille","lat":43.292749,"lon":5.368402,"is_reserved":false,"is_disabled":false,"rental_uris":{"android":"levelo://app?vid=d9c0637a-49cd-4b4b-87d7-fae64e111fa8","ios":"levelo://app?vid=d9c0637a-49cd-4b4b-87d7-fae64e111fa8"},"vehicle_type_id":"4","last_reported":1707253590,"current_range_meters":10000,"station_id":"ce4bhbp2rcd13ifvqesg","pricing_plan_id":"free"},{"bike_id":"6e6393a5-9ff5-4aec-b695-e3bb34499563","system_id":"levelo_inurba_marseille","lat":43.292724,"lon":5.368477,"is_reserved":false,"is_disabled":false,"rental_uris":{"android":"levelo://app?vid=6e6393a5-9ff5-4aec-b695-e3bb34499563","ios":"levelo://app?vid=6e6393a5-9ff5-4aec-b695-e3bb34499563"},"vehicle_type_id":"4","last_reported":1707253590,"current_range_meters":12400,"station_id":"","pricing_plan_id":"free"},{"bike_id":"94b8596b-1dc0-427f-9a2a-6e04ddda0d99","system_id":"levelo_inurba_marseille","lat":43.292749,"lon":5.368402,"is_reserved":false,"is_disabled":false,"rental_uris":{"android":"levelo://app?vid=94b8596b-1dc0-427f-9a2a-6e04ddda0d99","ios":"levelo://app?vid=94b8596b-1dc0-427f-9a2a-6e04ddda0d99"},"vehicle_type_id":"4","last_reported":1707253590,"current_range_meters":800,"station_id":"ce4bhbp2rcd13ifvqesg","pricing_plan_id":"free"},{"bike_id":"4c3ddc08-8293-4c9e-9d66-1f1ed3249823","system_id":"levelo_inurba_marseille","lat":43.292749,"lon":5.368402,"is_reserved":false,"is_disabled":false,"rental_uris":{"android":"levelo://app?vid=4c3ddc08-8293-4c9e-9d66-1f1ed3249823","ios":"levelo://app?vid=4c3ddc08-8293-4c9e-9d66-1f1ed3249823"},"vehicle_type_id":"4","last_reported":1707253590,"current_range_meters":2400,"station_id":"ce4bhbp2rcd13ifvqesg","pricing_plan_id":"free"},{"bike_id":"58ce6322-a791-48f0-8bcc-95a1314180fc","system_id":"levelo_inurba_marseille","lat":43.29551,"lon":5.381633,"is_reserved":false,"is_disabled":false,"rental_uris":{"android":"levelo://app?vid=58ce6322-a791-48f0-8bcc-95a1314180fc","ios":"levelo://app?vid=58ce6322-a791-48f0-8bcc-95a1314180fc"},"vehicle_type_id":"4","last_reported":1707253590,"current_range_meters":30000,"station_id":"","pricing_plan_id":"free"},{"bike_id":"dc776fb7-b13d-4622-ae3b-14e51fbc321a","system_id":"levelo_inurba_marseille","lat":43.293082,"lon":5.374462,"is_reserved":false,"is_disabled":false,"rental_uris":{"android":"levelo://app?vid=dc776fb7-b13d-4622-ae3b-14e51fbc321a","ios":"levelo://app?vid=dc776fb7-b13d-4622-ae3b-14e51fbc321a"},"vehicle_type_id":"4","last_reported":1707253590,"current_range_meters":0,"station_id":"ce4bgi12rcd13ifvqb70","pricing_plan_id":"free"},{"bike_id":"cd841bbd-4ed5-429e-a1a8-c3887ff7c3a2","system_id":"levelo_inurba_marseille","lat":43.302992,"lon":5.392136,"is_reserved":false,"is_disabled":false,"rental_uris":{"android":"levelo://app?vid=cd841bbd-4ed5-429e-a1a8-c3887ff7c3a2","ios":"levelo://app?vid=cd841bbd-4ed5-429e-a1a8-c3887ff7c3a2"},"vehicle_type_id":"4","last_reported":1707253590,"current_range_meters":24800,"station_id":"ce4bgkh2rcd13ifvqbk0","pricing_plan_id":"free"},{"bike_id":"6429020d-ded8-4555-a2dc-126bdf9e1a27","system_id":"levelo_inurba_marseille","lat":43.303002,"lon":5.392142,"is_reserved":false,"is_disabled":false,"rental_uris":{"android":"levelo://app?vid=6429020d-ded8-4555-a2dc-126bdf9e1a27","ios":"levelo://app?vid=6429020d-ded8-4555-a2dc-126bdf9e1a27"},"vehicle_type_id":"4","last_reported":1707253590,"current_range_meters":10000,"station_id":"ce4bgkh2rcd13ifvqbk0","pricing_plan_id":"free"},{"bike_id":"6ec63957-6991-4cdf-ba6a-de8aa7ed4da7","system_id":"levelo_inurba_marseille","lat":43.303002,"lon":5.392142,"is_reserved":false,"is_disabled":false,"rental_uris":{"android":"levelo://app?vid=6ec63957-6991-4cdf-ba6a-de8aa7ed4da7","ios":"levelo://app?vid=6ec63957-6991-4cdf-ba6a-de8aa7ed4da7"},"vehicle_type_id":"4","last_reported":1707253590,"current_range_meters":3600,"station_id":"ce4bgkh2rcd13ifvqbk0","pricing_plan_id":"free"},{"bike_id":"ce9e9811-7438-41a5-b76d-bb4c7ba9e20a","system_id":"levelo_inurba_marseille","lat":43.303002,"lon":5.392142,"is_reserved":false,"is_disabled":false,"rental_uris":{"android":"levelo://app?vid=ce9e9811-7438-41a5-b76d-bb4c7ba9e20a","ios":"levelo://app?vid=ce9e9811-7438-41a5-b76d-bb4c7ba9e20a"},"vehicle_type_id":"4","last_reported":1707253590,"current_range_meters":2400,"station_id":"ce4bgkh2rcd13ifvqbk0","pricing_plan_id":"free"},{"bike_id":"3cebbc0f-b09d-4a1c-8300-0f72ef57cc01","system_id":"levelo_inurba_marseille","lat":43.303002,"lon":5.392142,"is_reserved":false,"is_disabled":false,"rental_uris":{"android":"levelo://app?vid=3cebbc0f-b09d-4a1c-8300-0f72ef57cc01","ios":"levelo://app?vid=3cebbc0f-b09d-4a1c-8300-0f72ef57cc01"},"vehicle_type_id":"4","last_reported":1707253590,"current_range_meters":28400,"station_id":"ce4bgkh2rcd13ifvqbk0","pricing_plan_id":"free"},{"bike_id":"5b08f849-ad6d-481e-8168-8f7391220200","system_id":"levelo_inurba_marseille","lat":43.2936,"lon":5.37835,"is_reserved":false,"is_disabled":false,"rental_uris":{"android":"levelo://app?vid=5b08f849-ad6d-481e-8168-8f7391220200","ios":"levelo://app?vid=5b08f849-ad6d-481e-8168-8f7391220200"},"vehicle_type_id":"4","last_reported":1707253590,"current_range_meters":12400,"station_id":"ce4bgjh2rcd13ifvqbf0","pricing_plan_id":"free"},{"bike_id":"6c9be7ad-6ff9-4aad-ac53-6a802f19da0d","system_id":"levelo_inurba_marseille","lat":43.300936,"lon":5.390732,"is_reserved":false,"is_disabled":false,"rental_uris":{"android":"levelo://app?vid=6c9be7ad-6ff9-4aad-ac53-6a802f19da0d","ios":"levelo://app?vid=6c9be7ad-6ff9-4aad-ac53-6a802f19da0d"},"vehicle_type_id":"4","last_reported":1707253590,"current_range_meters":0,"station_id":"ce4bh192rcd13ifvqdb0","pricing_plan_id":"free"},{"bike_id":"49290904-eddd-4a81-b37f-488b2ae83369","system_id":"levelo_inurba_marseille","lat":43.292787,"lon":5.376182,"is_reserved":false,"is_disabled":false,"rental_uris":{"android":"levelo://app?vid=49290904-eddd-4a81-b37f-488b2ae83369","ios":"levelo://app?vid=49290904-eddd-4a81-b37f-488b2ae83369"},"vehicle_type_id":"4","last_reported":1707253590,"current_range_meters":16400,"station_id":"","pricing_plan_id":"free"},{"bike_id":"d58997a7-901d-44ca-8dd7-ea033a446fd6","system_id":"levelo_inurba_marseille","lat":43.298764,"lon":5.388973,"is_reserved":false,"is_disabled":false,"rental_uris":{"android":"levelo://app?vid=d58997a7-901d-44ca-8dd7-ea033a446fd6","ios":"levelo://app?vid=d58997a7-901d-44ca-8dd7-ea033a446fd6"},"vehicle_type_id":"4","last_reported":1707253590,"current_range_meters":25600,"station_id":"ce4bh392rcd13ifvqdl0","pricing_plan_id":"free"},{"bike_id":"ef9a195a-2426-4756-a1cd-7077e67863c6","system_id":"levelo_inurba_marseille","lat":43.292614,"lon":5.376246,"is_reserved":false,"is_disabled":false,"rental_uris":{"android":"levelo://app?vid=ef9a195a-2426-4756-a1cd-7077e67863c6","ios":"levelo://app?vid=ef9a195a-2426-4756-a1cd-7077e67863c6"},"vehicle_type_id":"4","last_reported":1707253590,"current_range_meters":0,"station_id":"","pricing_plan_id":"free"},{"bike_id":"851bb1f1-7ab5-43b2-b56f-50a9fbe178d0","system_id":"levelo_inurba_marseille","lat":43.29881,"lon":5.389092,"is_reserved":false,"is_disabled":false,"rental_uris":{"android":"levelo://app?vid=851bb1f1-7ab5-43b2-b56f-50a9fbe178d0","ios":"levelo://app?vid=851bb1f1-7ab5-43b2-b56f-50a9fbe178d0"},"vehicle_type_id":"4","last_reported":1707253590,"current_range_meters":6800,"station_id":"ce4bh392rcd13ifvqdl0","pricing_plan_id":"free"},{"bike_id":"a1afe782-e9cb-47f0-9d01-892a158a0338","system_id":"levelo_inurba_marseille","lat":43.29884,"lon":5.38915,"is_reserved":false,"is_disabled":false,"rental_uris":{"android":"levelo://app?vid=a1afe782-e9cb-47f0-9d01-892a158a0338","ios":"levelo://app?vid=a1afe782-e9cb-47f0-9d01-892a158a0338"},"vehicle_type_id":"4","last_reported":1707253590,"current_range_meters":31200,"station_id":"ce4bh392rcd13ifvqdl0","pricing_plan_id":"free"},{"bike_id":"cd21f8e0-3a7d-41aa-9b94-f81489a3b2d8","system_id":"levelo_inurba_marseille","lat":43.298764,"lon":5.388973,"is_reserved":false,"is_disabled":false,"rental_uris":{"android":"levelo://app?vid=cd21f8e0-3a7d-41aa-9b94-f81489a3b2d8","ios":"levelo://app?vid=cd21f8e0-3a7d-41aa-9b94-f81489a3b2d8"},"vehicle_type_id":"4","last_reported":1707253590,"current_range_meters":9200,"station_id":"ce4bh392rcd13ifvqdl0","pricing_plan_id":"free"},{"bike_id":"6380ac98-63bb-4f18-bc74-ef83b4082bd6","system_id":"levelo_inurba_marseille","lat":43.291994,"lon":5.357886,"is_reserved":false,"is_disabled":false,"rental_uris":{"android":"levelo://app?vid=6380ac98-63bb-4f18-bc74-ef83b4082bd6","ios":"levelo://app?vid=6380ac98-63bb-4f18-bc74-ef83b4082bd6"},"vehicle_type_id":"4","last_reported":1707253590,"current_range_meters":19600,"station_id":"ce4bhb12rcd13ifvqel0","pricing_plan_id":"free"},{"bike_id":"2d2b9665-f7bd-45c2-8e4d-7a05625e05fe","system_id":"levelo_inurba_marseille","lat":43.291994,"lon":5.357886,"is_reserved":false,"is_disabled":false,"rental_uris":{"android":"levelo://app?vid=2d2b9665-f7bd-45c2-8e4d-7a05625e05fe","ios":"levelo://app?vid=2d2b9665-f7bd-45c2-8e4d-7a05625e05fe"},"vehicle_type_id":"4","last_reported":1707253590,"current_range_meters":18800,"station_id":"ce4bhb12rcd13ifvqel0","pricing_plan_id":"free"},{"bike_id":"032546c2-ea62-4fa6-aa9a-7efc3903f8e9","system_id":"levelo_inurba_marseille","lat":43.309047,"lon":5.396551,"is_reserved":false,"is_disabled":false,"rental_uris":{"android":"levelo://app?vid=032546c2-ea62-4fa6-aa9a-7efc3903f8e9","ios":"levelo://app?vid=032546c2-ea62-4fa6-aa9a-7efc3903f8e9"},"vehicle_type_id":"4","last_reported":1707253590,"current_range_meters":4400,"station_id":"ce4bh012rcd13ifvqcv0","pricing_plan_id":"free"},{"bike_id":"fa273153-deb8-45eb-89af-e3121ba5f39f","system_id":"levelo_inurba_marseille","lat":43.291939,"lon":5.358019,"is_reserved":false,"is_disabled":false,"rental_uris":{"android":"levelo://app?vid=fa273153-deb8-45eb-89af-e3121ba5f39f","ios":"levelo://app?vid=fa273153-deb8-45eb-89af-e3121ba5f39f"},"vehicle_type_id":"4","last_reported":1707253590,"current_range_meters":0,"station_id":"","pricing_plan_id":"free"},{"bike_id":"6ff4414e-1536-41bd-926d-71c79dfc563e","system_id":"levelo_inurba_marseille","lat":43.31321,"lon":5.39688,"is_reserved":false,"is_disabled":false,"rental_uris":{"android":"levelo://app?vid=6ff4414e-1536-41bd-926d-71c79dfc563e","ios":"levelo://app?vid=6ff4414e-1536-41bd-926d-71c79dfc563e"},"vehicle_type_id":"4","last_reported":1707253590,"current_range_meters":30800,"station_id":"ce4bgvp2rcd13ifvqcu0","pricing_plan_id":"free"},{"bike_id":"f991e405-a4f6-4610-be1c-ad78edc49358","system_id":"levelo_inurba_marseille","lat":43.313291,"lon":5.396838,"is_reserved":false,"is_disabled":false,"rental_uris":{"android":"levelo://app?vid=f991e405-a4f6-4610-be1c-ad78edc49358","ios":"levelo://app?vid=f991e405-a4f6-4610-be1c-ad78edc49358"},"vehicle_type_id":"4","last_reported":1707253590,"current_range_meters":6400,"station_id":"ce4bgvp2rcd13ifvqcu0","pricing_plan_id":"free"},{"bike_id":"d35e5a1f-caa2-40a6-acc0-a0667c5b74de","system_id":"levelo_inurba_marseille","lat":43.313291,"lon":5.396838,"is_reserved":false,"is_disabled":false,"rental_uris":{"android":"levelo://app?vid=d35e5a1f-caa2-40a6-acc0-a0667c5b74de","ios":"levelo://app?vid=d35e5a1f-caa2-40a6-acc0-a0667c5b74de"},"vehicle_type_id":"4","last_reported":1707253590,"current_range_meters":24800,"station_id":"ce4bgvp2rcd13ifvqcu0","pricing_plan_id":"free"},{"bike_id":"8b58acf4-6aab-4148-99f8-f06877ffc913","system_id":"levelo_inurba_marseille","lat":43.313291,"lon":5.396838,"is_reserved":false,"is_disabled":false,"rental_uris":{"android":"levelo://app?vid=8b58acf4-6aab-4148-99f8-f06877ffc913","ios":"levelo://app?vid=8b58acf4-6aab-4148-99f8-f06877ffc913"},"vehicle_type_id":"4","last_reported":1707253590,"current_range_meters":3600,"station_id":"ce4bgvp2rcd13ifvqcu0","pricing_plan_id":"free"},{"bike_id":"c0f3e4d9-3ac1-48a0-8f12-6fe148c7f075","system_id":"levelo_inurba_marseille","lat":43.31319,"lon":5.39691,"is_reserved":false,"is_disabled":false,"rental_uris":{"android":"levelo://app?vid=c0f3e4d9-3ac1-48a0-8f12-6fe148c7f075","ios":"levelo://app?vid=c0f3e4d9-3ac1-48a0-8f12-6fe148c7f075"},"vehicle_type_id":"4","last_reported":1707253590,"current_range_meters":19600,"station_id":"ce4bgvp2rcd13ifvqcu0","pricing_plan_id":"free"},{"bike_id":"7773ee55-e6bb-48c4-9ca2-616d3d2c500d","system_id":"levelo_inurba_marseille","lat":43.308875,"lon":5.396445,"is_reserved":false,"is_disabled":false,"rental_uris":{"android":"levelo://app?vid=7773ee55-e6bb-48c4-9ca2-616d3d2c500d","ios":"levelo://app?vid=7773ee55-e6bb-48c4-9ca2-616d3d2c500d"},"vehicle_type_id":"4","last_reported":1707253590,"current_range_meters":2800,"station_id":"ce4bh012rcd13ifvqcv0","pricing_plan_id":"free"},{"bike_id":"37861716-6d5c-4ec8-be0a-fdf775ed8bb1","system_id":"levelo_inurba_marseille","lat":43.313291,"lon":5.396838,"is_reserved":false,"is_disabled":false,"rental_uris":{"android":"levelo://app?vid=37861716-6d5c-4ec8-be0a-fdf775ed8bb1","ios":"levelo://app?vid=37861716-6d5c-4ec8-be0a-fdf775ed8bb1"},"vehicle_type_id":"4","last_reported":1707253590,"current_range_meters":31600,"station_id":"ce4bgvp2rcd13ifvqcu0","pricing_plan_id":"free"},{"bike_id":"2b593266-fa57-48e1-abe3-84e731e5edd5","system_id":"levelo_inurba_marseille","lat":43.31327,"lon":5.39694,"is_reserved":false,"is_disabled":false,"rental_uris":{"android":"levelo://app?vid=2b593266-fa57-48e1-abe3-84e731e5edd5","ios":"levelo://app?vid=2b593266-fa57-48e1-abe3-84e731e5edd5"},"vehicle_type_id":"4","last_reported":1707253590,"current_range_meters":26000,"station_id":"ce4bgvp2rcd13ifvqcu0","pricing_plan_id":"free"},{"bike_id":"d9b37291-f53f-4731-8d0d-013598d0279a","system_id":"levelo_inurba_marseille","lat":43.313291,"lon":5.396838,"is_reserved":false,"is_disabled":false,"rental_uris":{"android":"levelo://app?vid=d9b37291-f53f-4731-8d0d-013598d0279a","ios":"levelo://app?vid=d9b37291-f53f-4731-8d0d-013598d0279a"},"vehicle_type_id":"4","last_reported":1707253590,"current_range_meters":16000,"station_id":"ce4bgvp2rcd13ifvqcu0","pricing_plan_id":"free"},{"bike_id":"d121a669-59c1-436a-bdf3-5f745c0bad8a","system_id":"levelo_inurba_marseille","lat":43.313291,"lon":5.396838,"is_reserved":false,"is_disabled":false,"rental_uris":{"android":"levelo://app?vid=d121a669-59c1-436a-bdf3-5f745c0bad8a","ios":"levelo://app?vid=d121a669-59c1-436a-bdf3-5f745c0bad8a"},"vehicle_type_id":"4","last_reported":1707253590,"current_range_meters":12400,"station_id":"ce4bgvp2rcd13ifvqcu0","pricing_plan_id":"free"},{"bike_id":"a6509c96-19a6-4859-af4b-1a5ab9e55e3d","system_id":"levelo_inurba_marseille","lat":43.313291,"lon":5.396838,"is_reserved":false,"is_disabled":false,"rental_uris":{"android":"levelo://app?vid=a6509c96-19a6-4859-af4b-1a5ab9e55e3d","ios":"levelo://app?vid=a6509c96-19a6-4859-af4b-1a5ab9e55e3d"},"vehicle_type_id":"4","last_reported":1707253590,"current_range_meters":29200,"station_id":"ce4bgvp2rcd13ifvqcu0","pricing_plan_id":"free"},{"bike_id":"2756ba24-58d8-4f25-a280-98864d46ccb8","system_id":"levelo_inurba_marseille","lat":43.309047,"lon":5.396551,"is_reserved":false,"is_disabled":false,"rental_uris":{"android":"levelo://app?vid=2756ba24-58d8-4f25-a280-98864d46ccb8","ios":"levelo://app?vid=2756ba24-58d8-4f25-a280-98864d46ccb8"},"vehicle_type_id":"4","last_reported":1707253590,"current_range_meters":10000,"station_id":"ce4bh012rcd13ifvqcv0","pricing_plan_id":"free"},{"bike_id":"dd2bb48a-1a28-49e0-a92a-4b79c31be3e4","system_id":"levelo_inurba_marseille","lat":43.313291,"lon":5.396838,"is_reserved":false,"is_disabled":false,"rental_uris":{"android":"levelo://app?vid=dd2bb48a-1a28-49e0-a92a-4b79c31be3e4","ios":"levelo://app?vid=dd2bb48a-1a28-49e0-a92a-4b79c31be3e4"},"vehicle_type_id":"4","last_reported":1707253590,"current_range_meters":1600,"station_id":"ce4bgvp2rcd13ifvqcu0","pricing_plan_id":"free"},{"bike_id":"758d2b83-af7f-47ce-bf19-07e89f5993d8","system_id":"levelo_inurba_marseille","lat":43.309038,"lon":5.396546,"is_reserved":false,"is_disabled":false,"rental_uris":{"android":"levelo://app?vid=758d2b83-af7f-47ce-bf19-07e89f5993d8","ios":"levelo://app?vid=758d2b83-af7f-47ce-bf19-07e89f5993d8"},"vehicle_type_id":"4","last_reported":1707253590,"current_range_meters":31200,"station_id":"ce4bh012rcd13ifvqcv0","pricing_plan_id":"free"},{"bike_id":"26cdc491-516a-4ad0-ac1f-3e177ebc32aa","system_id":"levelo_inurba_marseille","lat":43.309047,"lon":5.396551,"is_reserved":false,"is_disabled":false,"rental_uris":{"android":"levelo://app?vid=26cdc491-516a-4ad0-ac1f-3e177ebc32aa","ios":"levelo://app?vid=26cdc491-516a-4ad0-ac1f-3e177ebc32aa"},"vehicle_type_id":"4","last_reported":1707253590,"current_range_meters":8800,"station_id":"ce4bh012rcd13ifvqcv0","pricing_plan_id":"free"},{"bike_id":"9a89fdd1-0694-4c19-8e97-3a095dff1c1c","system_id":"levelo_inurba_marseille","lat":43.309047,"lon":5.396551,"is_reserved":false,"is_disabled":false,"rental_uris":{"android":"levelo://app?vid=9a89fdd1-0694-4c19-8e97-3a095dff1c1c","ios":"levelo://app?vid=9a89fdd1-0694-4c19-8e97-3a095dff1c1c"},"vehicle_type_id":"4","last_reported":1707253590,"current_range_meters":28000,"station_id":"ce4bh012rcd13ifvqcv0","pricing_plan_id":"free"},{"bike_id":"5595d1f6-720f-4471-9e3d-e0255729bbee","system_id":"levelo_inurba_marseille","lat":43.313291,"lon":5.396838,"is_reserved":false,"is_disabled":false,"rental_uris":{"android":"levelo://app?vid=5595d1f6-720f-4471-9e3d-e0255729bbee","ios":"levelo://app?vid=5595d1f6-720f-4471-9e3d-e0255729bbee"},"vehicle_type_id":"4","last_reported":1707253590,"current_range_meters":30800,"station_id":"ce4bgvp2rcd13ifvqcu0","pricing_plan_id":"free"},{"bike_id":"ea71deee-398e-4e01-85f0-eaee953bf8cd","system_id":"levelo_inurba_marseille","lat":43.309047,"lon":5.396551,"is_reserved":false,"is_disabled":false,"rental_uris":{"android":"levelo://app?vid=ea71deee-398e-4e01-85f0-eaee953bf8cd","ios":"levelo://app?vid=ea71deee-398e-4e01-85f0-eaee953bf8cd"},"vehicle_type_id":"4","last_reported":1707253590,"current_range_meters":19600,"station_id":"ce4bh012rcd13ifvqcv0","pricing_plan_id":"free"},{"bike_id":"6d436c31-e76c-4d61-9de3-9549ec74cb3f","system_id":"levelo_inurba_marseille","lat":43.31323,"lon":5.39701,"is_reserved":false,"is_disabled":false,"rental_uris":{"android":"levelo://app?vid=6d436c31-e76c-4d61-9de3-9549ec74cb3f","ios":"levelo://app?vid=6d436c31-e76c-4d61-9de3-9549ec74cb3f"},"vehicle_type_id":"4","last_reported":1707253590,"current_range_meters":14400,"station_id":"ce4bgvp2rcd13ifvqcu0","pricing_plan_id":"free"},{"bike_id":"a5694600-38e4-4956-8e0a-9ad71ee47efb","system_id":"levelo_inurba_marseille","lat":43.31326,"lon":5.39703,"is_reserved":false,"is_disabled":false,"rental_uris":{"android":"levelo://app?vid=a5694600-38e4-4956-8e0a-9ad71ee47efb","ios":"levelo://app?vid=a5694600-38e4-4956-8e0a-9ad71ee47efb"},"vehicle_type_id":"4","last_reported":1707253590,"current_range_meters":2400,"station_id":"ce4bgvp2rcd13ifvqcu0","pricing_plan_id":"free"},{"bike_id":"0c7b6894-87eb-443c-9da3-dc9be332ca2d","system_id":"levelo_inurba_marseille","lat":43.313291,"lon":5.396838,"is_reserved":false,"is_disabled":false,"rental_uris":{"android":"levelo://app?vid=0c7b6894-87eb-443c-9da3-dc9be332ca2d","ios":"levelo://app?vid=0c7b6894-87eb-443c-9da3-dc9be332ca2d"},"vehicle_type_id":"4","last_reported":1707253590,"current_range_meters":31600,"station_id":"ce4bgvp2rcd13ifvqcu0","pricing_plan_id":"free"},{"bike_id":"23da3993-b5bc-47e8-9bc5-72c2327f71a2","system_id":"levelo_inurba_marseille","lat":43.30886,"lon":5.39658,"is_reserved":false,"is_disabled":false,"rental_uris":{"android":"levelo://app?vid=23da3993-b5bc-47e8-9bc5-72c2327f71a2","ios":"levelo://app?vid=23da3993-b5bc-47e8-9bc5-72c2327f71a2"},"vehicle_type_id":"4","last_reported":1707253590,"current_range_meters":26800,"station_id":"","pricing_plan_id":"free"},{"bike_id":"3a036673-5837-48a2-997a-e936a102cb56","system_id":"levelo_inurba_marseille","lat":43.309038,"lon":5.396546,"is_reserved":false,"is_disabled":false,"rental_uris":{"android":"levelo://app?vid=3a036673-5837-48a2-997a-e936a102cb56","ios":"levelo://app?vid=3a036673-5837-48a2-997a-e936a102cb56"},"vehicle_type_id":"4","last_reported":1707253590,"current_range_meters":23200,"station_id":"ce4bh012rcd13ifvqcv0","pricing_plan_id":"free"},{"bike_id":"8cccb351-9cdf-446b-b195-bae7d8e3f9ed","system_id":"levelo_inurba_marseille","lat":43.29537,"lon":5.38543,"is_reserved":false,"is_disabled":false,"rental_uris":{"android":"levelo://app?vid=8cccb351-9cdf-446b-b195-bae7d8e3f9ed","ios":"levelo://app?vid=8cccb351-9cdf-446b-b195-bae7d8e3f9ed"},"vehicle_type_id":"4","last_reported":1707253590,"current_range_meters":14400,"station_id":"ce4bgih2rcd13ifvqba0","pricing_plan_id":"free"},{"bike_id":"bb45ae69-b0e1-4294-95d6-e0a4215f1da7","system_id":"levelo_inurba_marseille","lat":43.29529,"lon":5.385581,"is_reserved":false,"is_disabled":false,"rental_uris":{"android":"levelo://app?vid=bb45ae69-b0e1-4294-95d6-e0a4215f1da7","ios":"levelo://app?vid=bb45ae69-b0e1-4294-95d6-e0a4215f1da7"},"vehicle_type_id":"4","last_reported":1707253590,"current_range_meters":22400,"station_id":"ce4bgih2rcd13ifvqba0","pricing_plan_id":"free"},{"bike_id":"07ed8321-e832-4149-b49a-859ba4cdd739","system_id":"levelo_inurba_marseille","lat":43.29529,"lon":5.385581,"is_reserved":false,"is_disabled":false,"rental_uris":{"android":"levelo://app?vid=07ed8321-e832-4149-b49a-859ba4cdd739","ios":"levelo://app?vid=07ed8321-e832-4149-b49a-859ba4cdd739"},"vehicle_type_id":"4","last_reported":1707253590,"current_range_meters":11600,"station_id":"ce4bgih2rcd13ifvqba0","pricing_plan_id":"free"},{"bike_id":"17f9ff87-0b77-4bac-8f46-35880cf4a433","system_id":"levelo_inurba_marseille","lat":43.290779,"lon":5.371482,"is_reserved":false,"is_disabled":false,"rental_uris":{"android":"levelo://app?vid=17f9ff87-0b77-4bac-8f46-35880cf4a433","ios":"levelo://app?vid=17f9ff87-0b77-4bac-8f46-35880cf4a433"},"vehicle_type_id":"4","last_reported":1707253590,"current_range_meters":0,"station_id":"ce4bh5p2rcd13ifvqe4g","pricing_plan_id":"free"},{"bike_id":"79a58a09-dfa1-4255-8d58-d53efb1f4792","system_id":"levelo_inurba_marseille","lat":43.290779,"lon":5.371482,"is_reserved":false,"is_disabled":false,"rental_uris":{"android":"levelo://app?vid=79a58a09-dfa1-4255-8d58-d53efb1f4792","ios":"levelo://app?vid=79a58a09-dfa1-4255-8d58-d53efb1f4792"},"vehicle_type_id":"4","last_reported":1707253590,"current_range_meters":17200,"station_id":"ce4bh5p2rcd13ifvqe4g","pricing_plan_id":"free"},{"bike_id":"3e54dcf5-1ecd-40fa-8a9d-765b4df05722","system_id":"levelo_inurba_marseille","lat":43.290631,"lon":5.359244,"is_reserved":false,"is_disabled":false,"rental_uris":{"android":"levelo://app?vid=3e54dcf5-1ecd-40fa-8a9d-765b4df05722","ios":"levelo://app?vid=3e54dcf5-1ecd-40fa-8a9d-765b4df05722"},"vehicle_type_id":"4","last_reported":1707253590,"current_range_meters":9200,"station_id":"ce4bha92rcd13ifvqeg0","pricing_plan_id":"free"},{"bike_id":"5941d9db-b7e6-4020-9c6e-a71b565fe7c4","system_id":"levelo_inurba_marseille","lat":43.290624,"lon":5.359245,"is_reserved":false,"is_disabled":false,"rental_uris":{"android":"levelo://app?vid=5941d9db-b7e6-4020-9c6e-a71b565fe7c4","ios":"levelo://app?vid=5941d9db-b7e6-4020-9c6e-a71b565fe7c4"},"vehicle_type_id":"4","last_reported":1707253590,"current_range_meters":18400,"station_id":"ce4bha92rcd13ifvqeg0","pricing_plan_id":"free"},{"bike_id":"5df12e7f-0e4e-416f-8a8a-457d67375289","system_id":"levelo_inurba_marseille","lat":43.290644,"lon":5.375663,"is_reserved":false,"is_disabled":false,"rental_uris":{"android":"levelo://app?vid=5df12e7f-0e4e-416f-8a8a-457d67375289","ios":"levelo://app?vid=5df12e7f-0e4e-416f-8a8a-457d67375289"},"vehicle_type_id":"4","last_reported":1707253590,"current_range_meters":21600,"station_id":"ce4bh692rcd13ifvqe90","pricing_plan_id":"free"},{"bike_id":"62c90efe-45cb-41a1-81b0-668d48977b2e","system_id":"levelo_inurba_marseille","lat":43.294153,"lon":5.386305,"is_reserved":false,"is_disabled":false,"rental_uris":{"android":"levelo://app?vid=62c90efe-45cb-41a1-81b0-668d48977b2e","ios":"levelo://app?vid=62c90efe-45cb-41a1-81b0-668d48977b2e"},"vehicle_type_id":"4","last_reported":1707253590,"current_range_meters":22400,"station_id":"ce4bh2h2rcd13ifvqdh0","pricing_plan_id":"free"},{"bike_id":"33c4be8f-4724-47ef-974e-d4fed283aef9","system_id":"levelo_inurba_marseille","lat":43.294153,"lon":5.386305,"is_reserved":false,"is_disabled":false,"rental_uris":{"android":"levelo://app?vid=33c4be8f-4724-47ef-974e-d4fed283aef9","ios":"levelo://app?vid=33c4be8f-4724-47ef-974e-d4fed283aef9"},"vehicle_type_id":"4","last_reported":1707253590,"current_range_meters":1200,"station_id":"ce4bh2h2rcd13ifvqdh0","pricing_plan_id":"free"},{"bike_id":"77f67e0f-add5-4243-b385-895bb0b742ba","system_id":"levelo_inurba_marseille","lat":43.294153,"lon":5.386305,"is_reserved":false,"is_disabled":false,"rental_uris":{"android":"levelo://app?vid=77f67e0f-add5-4243-b385-895bb0b742ba","ios":"levelo://app?vid=77f67e0f-add5-4243-b385-895bb0b742ba"},"vehicle_type_id":"4","last_reported":1707253590,"current_range_meters":22400,"station_id":"ce4bh2h2rcd13ifvqdh0","pricing_plan_id":"free"},{"bike_id":"c8410599-b0b5-4cf8-8f43-935fd0257d36","system_id":"levelo_inurba_marseille","lat":43.294153,"lon":5.386305,"is_reserved":false,"is_disabled":false,"rental_uris":{"android":"levelo://app?vid=c8410599-b0b5-4cf8-8f43-935fd0257d36","ios":"levelo://app?vid=c8410599-b0b5-4cf8-8f43-935fd0257d36"},"vehicle_type_id":"4","last_reported":1707253590,"current_range_meters":24800,"station_id":"ce4bh2h2rcd13ifvqdh0","pricing_plan_id":"free"},{"bike_id":"87e4e996-dcd8-4f5d-b3ef-c9a5217a5234","system_id":"levelo_inurba_marseille","lat":43.289184,"lon":5.366408,"is_reserved":false,"is_disabled":false,"rental_uris":{"android":"levelo://app?vid=87e4e996-dcd8-4f5d-b3ef-c9a5217a5234","ios":"levelo://app?vid=87e4e996-dcd8-4f5d-b3ef-c9a5217a5234"},"vehicle_type_id":"4","last_reported":1707253590,"current_range_meters":0,"station_id":"ce4bhap2rcd13ifvqek0","pricing_plan_id":"free"},{"bike_id":"b991dd4f-3201-47e5-80c8-2807f1a68ef3","system_id":"levelo_inurba_marseille","lat":43.289184,"lon":5.366408,"is_reserved":false,"is_disabled":false,"rental_uris":{"android":"levelo://app?vid=b991dd4f-3201-47e5-80c8-2807f1a68ef3","ios":"levelo://app?vid=b991dd4f-3201-47e5-80c8-2807f1a68ef3"},"vehicle_type_id":"4","last_reported":1707253590,"current_range_meters":31200,"station_id":"ce4bhap2rcd13ifvqek0","pricing_plan_id":"free"},{"bike_id":"1b8862f7-e38d-463d-9d00-fc56947d9974","system_id":"levelo_inurba_marseille","lat":43.28946,"lon":5.364013,"is_reserved":false,"is_disabled":false,"rental_uris":{"android":"levelo://app?vid=1b8862f7-e38d-463d-9d00-fc56947d9974","ios":"levelo://app?vid=1b8862f7-e38d-463d-9d00-fc56947d9974"},"vehicle_type_id":"4","last_reported":1707253590,"current_range_meters":4800,"station_id":"ce4bhc92rcd13ifvqetg","pricing_plan_id":"free"},{"bike_id":"d1921a25-4a5c-41ec-8db9-23330f2618d2","system_id":"levelo_inurba_marseille","lat":43.289184,"lon":5.366408,"is_reserved":false,"is_disabled":false,"rental_uris":{"android":"levelo://app?vid=d1921a25-4a5c-41ec-8db9-23330f2618d2","ios":"levelo://app?vid=d1921a25-4a5c-41ec-8db9-23330f2618d2"},"vehicle_type_id":"4","last_reported":1707253590,"current_range_meters":12000,"station_id":"ce4bhap2rcd13ifvqek0","pricing_plan_id":"free"},{"bike_id":"f456d5dc-1f32-4ce0-bf68-a528ac033512","system_id":"levelo_inurba_marseille","lat":43.289184,"lon":5.366408,"is_reserved":false,"is_disabled":false,"rental_uris":{"android":"levelo://app?vid=f456d5dc-1f32-4ce0-bf68-a528ac033512","ios":"levelo://app?vid=f456d5dc-1f32-4ce0-bf68-a528ac033512"},"vehicle_type_id":"4","last_reported":1707253590,"current_range_meters":7600,"station_id":"ce4bhap2rcd13ifvqek0","pricing_plan_id":"free"},{"bike_id":"7dae3824-b781-4a9c-999e-c82bb17eb7cb","system_id":"levelo_inurba_marseille","lat":43.28933,"lon":5.36634,"is_reserved":false,"is_disabled":false,"rental_uris":{"android":"levelo://app?vid=7dae3824-b781-4a9c-999e-c82bb17eb7cb","ios":"levelo://app?vid=7dae3824-b781-4a9c-999e-c82bb17eb7cb"},"vehicle_type_id":"4","last_reported":1707253590,"current_range_meters":2400,"station_id":"ce4bhap2rcd13ifvqek0","pricing_plan_id":"free"},{"bike_id":"b14f52dc-696e-4cb2-aba4-cc8dfce26b81","system_id":"levelo_inurba_marseille","lat":43.28933,"lon":5.36633,"is_reserved":false,"is_disabled":false,"rental_uris":{"android":"levelo://app?vid=b14f52dc-696e-4cb2-aba4-cc8dfce26b81","ios":"levelo://app?vid=b14f52dc-696e-4cb2-aba4-cc8dfce26b81"},"vehicle_type_id":"4","last_reported":1707253590,"current_range_meters":0,"station_id":"ce4bhap2rcd13ifvqek0","pricing_plan_id":"free"},{"bike_id":"87c2f659-35af-42a6-88bf-28922e57d45e","system_id":"levelo_inurba_marseille","lat":43.289184,"lon":5.366408,"is_reserved":false,"is_disabled":false,"rental_uris":{"android":"levelo://app?vid=87c2f659-35af-42a6-88bf-28922e57d45e","ios":"levelo://app?vid=87c2f659-35af-42a6-88bf-28922e57d45e"},"vehicle_type_id":"4","last_reported":1707253590,"current_range_meters":16800,"station_id":"ce4bhap2rcd13ifvqek0","pricing_plan_id":"free"},{"bike_id":"63a927a1-ddfa-4193-8ff4-a8d4900208d2","system_id":"levelo_inurba_marseille","lat":43.289468,"lon":5.363719,"is_reserved":false,"is_disabled":false,"rental_uris":{"android":"levelo://app?vid=63a927a1-ddfa-4193-8ff4-a8d4900208d2","ios":"levelo://app?vid=63a927a1-ddfa-4193-8ff4-a8d4900208d2"},"vehicle_type_id":"4","last_reported":1707253590,"current_range_meters":16000,"station_id":"ce4bhc92rcd13ifvqetg","pricing_plan_id":"free"},{"bike_id":"f4239947-0656-4ba3-a585-5bf65689908d","system_id":"levelo_inurba_marseille","lat":43.29258,"lon":5.38439,"is_reserved":false,"is_disabled":false,"rental_uris":{"android":"levelo://app?vid=f4239947-0656-4ba3-a585-5bf65689908d","ios":"levelo://app?vid=f4239947-0656-4ba3-a585-5bf65689908d"},"vehicle_type_id":"4","last_reported":1707253590,"current_range_meters":6800,"station_id":"ce4bh692rcd13ifvqea0","pricing_plan_id":"free"},{"bike_id":"9f0de9e9-ae98-4b9f-a4f3-2acc94a17b54","system_id":"levelo_inurba_marseille","lat":43.29257,"lon":5.38443,"is_reserved":false,"is_disabled":false,"rental_uris":{"android":"levelo://app?vid=9f0de9e9-ae98-4b9f-a4f3-2acc94a17b54","ios":"levelo://app?vid=9f0de9e9-ae98-4b9f-a4f3-2acc94a17b54"},"vehicle_type_id":"4","last_reported":1707253590,"current_range_meters":0,"station_id":"ce4bh692rcd13ifvqea0","pricing_plan_id":"free"},{"bike_id":"0b161dd6-c3e8-4ab8-b745-eb97961921c4","system_id":"levelo_inurba_marseille","lat":43.292536,"lon":5.384437,"is_reserved":false,"is_disabled":false,"rental_uris":{"android":"levelo://app?vid=0b161dd6-c3e8-4ab8-b745-eb97961921c4","ios":"levelo://app?vid=0b161dd6-c3e8-4ab8-b745-eb97961921c4"},"vehicle_type_id":"4","last_reported":1707253590,"current_range_meters":0,"station_id":"ce4bh692rcd13ifvqea0","pricing_plan_id":"free"},{"bike_id":"ecacbda4-3415-4f20-aec8-d093fc811801","system_id":"levelo_inurba_marseille","lat":43.290104,"lon":5.356111,"is_reserved":false,"is_disabled":false,"rental_uris":{"android":"levelo://app?vid=ecacbda4-3415-4f20-aec8-d093fc811801","ios":"levelo://app?vid=ecacbda4-3415-4f20-aec8-d093fc811801"},"vehicle_type_id":"4","last_reported":1707253590,"current_range_meters":14000,"station_id":"ce4bhb92rcd13ifvqen0","pricing_plan_id":"free"},{"bike_id":"06eff9e9-2bca-42db-ada3-dbd7835d6ef6","system_id":"levelo_inurba_marseille","lat":43.290103,"lon":5.356114,"is_reserved":false,"is_disabled":false,"rental_uris":{"android":"levelo://app?vid=06eff9e9-2bca-42db-ada3-dbd7835d6ef6","ios":"levelo://app?vid=06eff9e9-2bca-42db-ada3-dbd7835d6ef6"},"vehicle_type_id":"4","last_reported":1707253590,"current_range_meters":8800,"station_id":"ce4bhb92rcd13ifvqen0","pricing_plan_id":"free"},{"bike_id":"739d74b2-4980-439d-8948-2888e3b5de13","system_id":"levelo_inurba_marseille","lat":43.29787,"lon":5.39332,"is_reserved":false,"is_disabled":false,"rental_uris":{"android":"levelo://app?vid=739d74b2-4980-439d-8948-2888e3b5de13","ios":"levelo://app?vid=739d74b2-4980-439d-8948-2888e3b5de13"},"vehicle_type_id":"4","last_reported":1707253590,"current_range_meters":19200,"station_id":"chh1huq6cuj3fo74tm60","pricing_plan_id":"free"},{"bike_id":"b5c14bc8-0bdf-48a6-9a9f-af1b4756e3aa","system_id":"levelo_inurba_marseille","lat":43.297815,"lon":5.393548,"is_reserved":false,"is_disabled":false,"rental_uris":{"android":"levelo://app?vid=b5c14bc8-0bdf-48a6-9a9f-af1b4756e3aa","ios":"levelo://app?vid=b5c14bc8-0bdf-48a6-9a9f-af1b4756e3aa"},"vehicle_type_id":"4","last_reported":1707253590,"current_range_meters":26400,"station_id":"chh1huq6cuj3fo74tm60","pricing_plan_id":"free"},{"bike_id":"ba771297-a93d-41f8-8b63-633913ea0d45","system_id":"levelo_inurba_marseille","lat":43.29787,"lon":5.393345,"is_reserved":false,"is_disabled":false,"rental_uris":{"android":"levelo://app?vid=ba771297-a93d-41f8-8b63-633913ea0d45","ios":"levelo://app?vid=ba771297-a93d-41f8-8b63-633913ea0d45"},"vehicle_type_id":"4","last_reported":1707253590,"current_range_meters":26400,"station_id":"chh1huq6cuj3fo74tm60","pricing_plan_id":"free"},{"bike_id":"28f47d09-9102-4f32-a72f-7594ad9e2229","system_id":"levelo_inurba_marseille","lat":43.29792,"lon":5.39344,"is_reserved":false,"is_disabled":false,"rental_uris":{"android":"levelo://app?vid=28f47d09-9102-4f32-a72f-7594ad9e2229","ios":"levelo://app?vid=28f47d09-9102-4f32-a72f-7594ad9e2229"},"vehicle_type_id":"4","last_reported":1707253590,"current_range_meters":4400,"station_id":"chh1huq6cuj3fo74tm60","pricing_plan_id":"free"},{"bike_id":"9542efb3-2df3-45d9-bf71-83146880d169","system_id":"levelo_inurba_marseille","lat":43.297882,"lon":5.393414,"is_reserved":false,"is_disabled":false,"rental_uris":{"android":"levelo://app?vid=9542efb3-2df3-45d9-bf71-83146880d169","ios":"levelo://app?vid=9542efb3-2df3-45d9-bf71-83146880d169"},"vehicle_type_id":"4","last_reported":1707253590,"current_range_meters":25600,"station_id":"chh1huq6cuj3fo74tm60","pricing_plan_id":"free"},{"bike_id":"e6982b29-0796-4d3c-85c9-154c2d346fda","system_id":"levelo_inurba_marseille","lat":43.297873,"lon":5.39341,"is_reserved":false,"is_disabled":false,"rental_uris":{"android":"levelo://app?vid=e6982b29-0796-4d3c-85c9-154c2d346fda","ios":"levelo://app?vid=e6982b29-0796-4d3c-85c9-154c2d346fda"},"vehicle_type_id":"4","last_reported":1707253590,"current_range_meters":25600,"station_id":"chh1huq6cuj3fo74tm60","pricing_plan_id":"free"},{"bike_id":"4271fc19-3ca2-4525-8b14-c5fe5d02ae8a","system_id":"levelo_inurba_marseille","lat":43.297843,"lon":5.393403,"is_reserved":false,"is_disabled":false,"rental_uris":{"android":"levelo://app?vid=4271fc19-3ca2-4525-8b14-c5fe5d02ae8a","ios":"levelo://app?vid=4271fc19-3ca2-4525-8b14-c5fe5d02ae8a"},"vehicle_type_id":"4","last_reported":1707253590,"current_range_meters":31200,"station_id":"chh1huq6cuj3fo74tm60","pricing_plan_id":"free"},{"bike_id":"62ca35d7-f049-4885-9fd9-beb6af1eb797","system_id":"levelo_inurba_marseille","lat":43.33015,"lon":5.39035,"is_reserved":false,"is_disabled":false,"rental_uris":{"android":"levelo://app?vid=62ca35d7-f049-4885-9fd9-beb6af1eb797","ios":"levelo://app?vid=62ca35d7-f049-4885-9fd9-beb6af1eb797"},"vehicle_type_id":"4","last_reported":1707253590,"current_range_meters":12000,"station_id":"ce4bhr92rcd13ifvqhrg","pricing_plan_id":"free"},{"bike_id":"f585ef67-9838-4de5-b975-4b8aa9cc32ef","system_id":"levelo_inurba_marseille","lat":43.295169,"lon":5.390426,"is_reserved":false,"is_disabled":false,"rental_uris":{"android":"levelo://app?vid=f585ef67-9838-4de5-b975-4b8aa9cc32ef","ios":"levelo://app?vid=f585ef67-9838-4de5-b975-4b8aa9cc32ef"},"vehicle_type_id":"4","last_reported":1707253590,"current_range_meters":31200,"station_id":"ce4bh3p2rcd13ifvqdp0","pricing_plan_id":"free"},{"bike_id":"bb92691a-2763-4822-8389-0c13ec5fe6ab","system_id":"levelo_inurba_marseille","lat":43.289743,"lon":5.378304,"is_reserved":false,"is_disabled":false,"rental_uris":{"android":"levelo://app?vid=bb92691a-2763-4822-8389-0c13ec5fe6ab","ios":"levelo://app?vid=bb92691a-2763-4822-8389-0c13ec5fe6ab"},"vehicle_type_id":"4","last_reported":1707253590,"current_range_meters":20000,"station_id":"ce4bh9p2rcd13ifvqed0","pricing_plan_id":"free"},{"bike_id":"e3cdd8db-1a8c-42b0-8a1d-74e27724a81e","system_id":"levelo_inurba_marseille","lat":43.33021,"lon":5.39035,"is_reserved":false,"is_disabled":false,"rental_uris":{"android":"levelo://app?vid=e3cdd8db-1a8c-42b0-8a1d-74e27724a81e","ios":"levelo://app?vid=e3cdd8db-1a8c-42b0-8a1d-74e27724a81e"},"vehicle_type_id":"4","last_reported":1707253590,"current_range_meters":29200,"station_id":"ce4bhr92rcd13ifvqhrg","pricing_plan_id":"free"},{"bike_id":"42a65a4e-b12c-4dda-8f00-bcd7e91b44ab","system_id":"levelo_inurba_marseille","lat":43.297815,"lon":5.393548,"is_reserved":false,"is_disabled":false,"rental_uris":{"android":"levelo://app?vid=42a65a4e-b12c-4dda-8f00-bcd7e91b44ab","ios":"levelo://app?vid=42a65a4e-b12c-4dda-8f00-bcd7e91b44ab"},"vehicle_type_id":"4","last_reported":1707253590,"current_range_meters":24000,"station_id":"chh1huq6cuj3fo74tm60","pricing_plan_id":"free"},{"bike_id":"cf1bf5da-11db-4888-b7d8-0c09bfa50672","system_id":"levelo_inurba_marseille","lat":43.29532,"lon":5.39046,"is_reserved":false,"is_disabled":false,"rental_uris":{"android":"levelo://app?vid=cf1bf5da-11db-4888-b7d8-0c09bfa50672","ios":"levelo://app?vid=cf1bf5da-11db-4888-b7d8-0c09bfa50672"},"vehicle_type_id":"4","last_reported":1707253590,"current_range_meters":31200,"station_id":"ce4bh3p2rcd13ifvqdp0","pricing_plan_id":"free"},{"bike_id":"7d9c88cc-b379-4f7e-afa0-885a9a44585d","system_id":"levelo_inurba_marseille","lat":43.33023,"lon":5.39037,"is_reserved":false,"is_disabled":false,"rental_uris":{"android":"levelo://app?vid=7d9c88cc-b379-4f7e-afa0-885a9a44585d","ios":"levelo://app?vid=7d9c88cc-b379-4f7e-afa0-885a9a44585d"},"vehicle_type_id":"4","last_reported":1707253590,"current_range_meters":18000,"station_id":"ce4bhr92rcd13ifvqhrg","pricing_plan_id":"free"},{"bike_id":"191e5a48-25eb-42b2-aa0f-b63755aec4fc","system_id":"levelo_inurba_marseille","lat":43.33019,"lon":5.39043,"is_reserved":false,"is_disabled":false,"rental_uris":{"android":"levelo://app?vid=191e5a48-25eb-42b2-aa0f-b63755aec4fc","ios":"levelo://app?vid=191e5a48-25eb-42b2-aa0f-b63755aec4fc"},"vehicle_type_id":"4","last_reported":1707253590,"current_range_meters":16400,"station_id":"ce4bhr92rcd13ifvqhrg","pricing_plan_id":"free"},{"bike_id":"9f74ab4e-9d60-4afa-867a-49240bd6e097","system_id":"levelo_inurba_marseille","lat":43.3302,"lon":5.39042,"is_reserved":false,"is_disabled":false,"rental_uris":{"android":"levelo://app?vid=9f74ab4e-9d60-4afa-867a-49240bd6e097","ios":"levelo://app?vid=9f74ab4e-9d60-4afa-867a-49240bd6e097"},"vehicle_type_id":"4","last_reported":1707253590,"current_range_meters":18000,"station_id":"ce4bhr92rcd13ifvqhrg","pricing_plan_id":"free"},{"bike_id":"397db575-5859-4e88-b680-c446f72b852d","system_id":"levelo_inurba_marseille","lat":43.330442,"lon":5.389148,"is_reserved":false,"is_disabled":false,"rental_uris":{"android":"levelo://app?vid=397db575-5859-4e88-b680-c446f72b852d","ios":"levelo://app?vid=397db575-5859-4e88-b680-c446f72b852d"},"vehicle_type_id":"4","last_reported":1707253590,"current_range_meters":3600,"station_id":"ce4bhr92rcd13ifvqhrg","pricing_plan_id":"free"},{"bike_id":"820e7ff6-eaa1-4288-a4c3-15e718a624b6","system_id":"levelo_inurba_marseille","lat":43.295195,"lon":5.390303,"is_reserved":false,"is_disabled":false,"rental_uris":{"android":"levelo://app?vid=820e7ff6-eaa1-4288-a4c3-15e718a624b6","ios":"levelo://app?vid=820e7ff6-eaa1-4288-a4c3-15e718a624b6"},"vehicle_type_id":"4","last_reported":1707253590,"current_range_meters":0,"station_id":"ce4bh3p2rcd13ifvqdp0","pricing_plan_id":"free"},{"bike_id":"557d0534-afdc-4b41-a18d-6391e7d73a8a","system_id":"levelo_inurba_marseille","lat":43.33025,"lon":5.39037,"is_reserved":false,"is_disabled":false,"rental_uris":{"android":"levelo://app?vid=557d0534-afdc-4b41-a18d-6391e7d73a8a","ios":"levelo://app?vid=557d0534-afdc-4b41-a18d-6391e7d73a8a"},"vehicle_type_id":"4","last_reported":1707253590,"current_range_meters":12000,"station_id":"ce4bhr92rcd13ifvqhrg","pricing_plan_id":"free"},{"bike_id":"fd72c297-d0df-4a2c-b38e-6177668e633b","system_id":"levelo_inurba_marseille","lat":43.33021,"lon":5.39044,"is_reserved":false,"is_disabled":false,"rental_uris":{"android":"levelo://app?vid=fd72c297-d0df-4a2c-b38e-6177668e633b","ios":"levelo://app?vid=fd72c297-d0df-4a2c-b38e-6177668e633b"},"vehicle_type_id":"4","last_reported":1707253590,"current_range_meters":3600,"station_id":"ce4bhr92rcd13ifvqhrg","pricing_plan_id":"free"},{"bike_id":"f16f298f-a2e2-497c-a51d-2cd24373d54f","system_id":"levelo_inurba_marseille","lat":43.289741,"lon":5.378306,"is_reserved":false,"is_disabled":false,"rental_uris":{"android":"levelo://app?vid=f16f298f-a2e2-497c-a51d-2cd24373d54f","ios":"levelo://app?vid=f16f298f-a2e2-497c-a51d-2cd24373d54f"},"vehicle_type_id":"4","last_reported":1707253590,"current_range_meters":24400,"station_id":"ce4bh9p2rcd13ifvqed0","pricing_plan_id":"free"},{"bike_id":"be698776-ba5e-486c-8502-507cf1deb3c0","system_id":"levelo_inurba_marseille","lat":43.289741,"lon":5.378306,"is_reserved":false,"is_disabled":false,"rental_uris":{"android":"levelo://app?vid=be698776-ba5e-486c-8502-507cf1deb3c0","ios":"levelo://app?vid=be698776-ba5e-486c-8502-507cf1deb3c0"},"vehicle_type_id":"4","last_reported":1707253590,"current_range_meters":26800,"station_id":"ce4bh9p2rcd13ifvqed0","pricing_plan_id":"free"},{"bike_id":"9be19af2-00eb-4adf-afc6-6b25dc013c2f","system_id":"levelo_inurba_marseille","lat":43.33023,"lon":5.39046,"is_reserved":false,"is_disabled":false,"rental_uris":{"android":"levelo://app?vid=9be19af2-00eb-4adf-afc6-6b25dc013c2f","ios":"levelo://app?vid=9be19af2-00eb-4adf-afc6-6b25dc013c2f"},"vehicle_type_id":"4","last_reported":1707253590,"current_range_meters":4000,"station_id":"ce4bhr92rcd13ifvqhrg","pricing_plan_id":"free"},{"bike_id":"2e111dff-3c6a-45c9-9e51-8ccb512570b2","system_id":"levelo_inurba_marseille","lat":43.33023,"lon":5.39046,"is_reserved":false,"is_disabled":false,"rental_uris":{"android":"levelo://app?vid=2e111dff-3c6a-45c9-9e51-8ccb512570b2","ios":"levelo://app?vid=2e111dff-3c6a-45c9-9e51-8ccb512570b2"},"vehicle_type_id":"4","last_reported":1707253590,"current_range_meters":30000,"station_id":"ce4bhr92rcd13ifvqhrg","pricing_plan_id":"free"},{"bike_id":"6cbd78c5-3ed3-48da-8608-75885f5f5545","system_id":"levelo_inurba_marseille","lat":43.295169,"lon":5.390426,"is_reserved":false,"is_disabled":false,"rental_uris":{"android":"levelo://app?vid=6cbd78c5-3ed3-48da-8608-75885f5f5545","ios":"levelo://app?vid=6cbd78c5-3ed3-48da-8608-75885f5f5545"},"vehicle_type_id":"4","last_reported":1707253590,"current_range_meters":9600,"station_id":"ce4bh3p2rcd13ifvqdp0","pricing_plan_id":"free"},{"bike_id":"8ca3da1e-5def-4150-85c1-93059ad4ca52","system_id":"levelo_inurba_marseille","lat":43.33021,"lon":5.3905,"is_reserved":false,"is_disabled":false,"rental_uris":{"android":"levelo://app?vid=8ca3da1e-5def-4150-85c1-93059ad4ca52","ios":"levelo://app?vid=8ca3da1e-5def-4150-85c1-93059ad4ca52"},"vehicle_type_id":"4","last_reported":1707253590,"current_range_meters":20800,"station_id":"ce4bhr92rcd13ifvqhrg","pricing_plan_id":"free"},{"bike_id":"ba7895df-fdf0-43d4-b40a-e7e64d29137d","system_id":"levelo_inurba_marseille","lat":43.330442,"lon":5.389148,"is_reserved":false,"is_disabled":false,"rental_uris":{"android":"levelo://app?vid=ba7895df-fdf0-43d4-b40a-e7e64d29137d","ios":"levelo://app?vid=ba7895df-fdf0-43d4-b40a-e7e64d29137d"},"vehicle_type_id":"4","last_reported":1707253590,"current_range_meters":24800,"station_id":"ce4bhr92rcd13ifvqhrg","pricing_plan_id":"free"},{"bike_id":"8ce3e605-09ed-4eee-92a2-ef14aafe2b40","system_id":"levelo_inurba_marseille","lat":43.295169,"lon":5.390426,"is_reserved":false,"is_disabled":false,"rental_uris":{"android":"levelo://app?vid=8ce3e605-09ed-4eee-92a2-ef14aafe2b40","ios":"levelo://app?vid=8ce3e605-09ed-4eee-92a2-ef14aafe2b40"},"vehicle_type_id":"4","last_reported":1707253590,"current_range_meters":12400,"station_id":"ce4bh3p2rcd13ifvqdp0","pricing_plan_id":"free"},{"bike_id":"f70399b3-d72a-4908-bad7-bd4c0d6cddd3","system_id":"levelo_inurba_marseille","lat":43.288613,"lon":5.358587,"is_reserved":false,"is_disabled":false,"rental_uris":{"android":"levelo://app?vid=f70399b3-d72a-4908-bad7-bd4c0d6cddd3","ios":"levelo://app?vid=f70399b3-d72a-4908-bad7-bd4c0d6cddd3"},"vehicle_type_id":"4","last_reported":1707253590,"current_range_meters":20400,"station_id":"ce4bhb12rcd13ifvqem0","pricing_plan_id":"free"},{"bike_id":"1824b3c4-57b4-42af-a716-bb9123674297","system_id":"levelo_inurba_marseille","lat":43.28856,"lon":5.358371,"is_reserved":false,"is_disabled":false,"rental_uris":{"android":"levelo://app?vid=1824b3c4-57b4-42af-a716-bb9123674297","ios":"levelo://app?vid=1824b3c4-57b4-42af-a716-bb9123674297"},"vehicle_type_id":"4","last_reported":1707253590,"current_range_meters":1200,"station_id":"ce4bhb12rcd13ifvqem0","pricing_plan_id":"free"},{"bike_id":"d4d9d635-cddc-4b39-aa81-ad9c18aee1a9","system_id":"levelo_inurba_marseille","lat":43.28856,"lon":5.358371,"is_reserved":false,"is_disabled":false,"rental_uris":{"android":"levelo://app?vid=d4d9d635-cddc-4b39-aa81-ad9c18aee1a9","ios":"levelo://app?vid=d4d9d635-cddc-4b39-aa81-ad9c18aee1a9"},"vehicle_type_id":"4","last_reported":1707253590,"current_range_meters":6800,"station_id":"ce4bhb12rcd13ifvqem0","pricing_plan_id":"free"},{"bike_id":"77281a16-f069-45df-b698-d3275c4145ba","system_id":"levelo_inurba_marseille","lat":43.28856,"lon":5.358371,"is_reserved":false,"is_disabled":false,"rental_uris":{"android":"levelo://app?vid=77281a16-f069-45df-b698-d3275c4145ba","ios":"levelo://app?vid=77281a16-f069-45df-b698-d3275c4145ba"},"vehicle_type_id":"4","last_reported":1707253590,"current_range_meters":4400,"station_id":"ce4bhb12rcd13ifvqem0","pricing_plan_id":"free"},{"bike_id":"5aea5c0b-6c60-4bd1-ba81-193e83f97619","system_id":"levelo_inurba_marseille","lat":43.28852,"lon":5.3586,"is_reserved":false,"is_disabled":false,"rental_uris":{"android":"levelo://app?vid=5aea5c0b-6c60-4bd1-ba81-193e83f97619","ios":"levelo://app?vid=5aea5c0b-6c60-4bd1-ba81-193e83f97619"},"vehicle_type_id":"4","last_reported":1707253590,"current_range_meters":27200,"station_id":"ce4bhb12rcd13ifvqem0","pricing_plan_id":"free"},{"bike_id":"3bc60c29-f220-44f4-8da6-6672ecf9952f","system_id":"levelo_inurba_marseille","lat":43.2885,"lon":5.35865,"is_reserved":false,"is_disabled":false,"rental_uris":{"android":"levelo://app?vid=3bc60c29-f220-44f4-8da6-6672ecf9952f","ios":"levelo://app?vid=3bc60c29-f220-44f4-8da6-6672ecf9952f"},"vehicle_type_id":"4","last_reported":1707253590,"current_range_meters":12000,"station_id":"ce4bhb12rcd13ifvqem0","pricing_plan_id":"free"},{"bike_id":"5cf52488-0a4f-45ea-867d-bde7992eca16","system_id":"levelo_inurba_marseille","lat":43.288499,"lon":5.358629,"is_reserved":false,"is_disabled":false,"rental_uris":{"android":"levelo://app?vid=5cf52488-0a4f-45ea-867d-bde7992eca16","ios":"levelo://app?vid=5cf52488-0a4f-45ea-867d-bde7992eca16"},"vehicle_type_id":"4","last_reported":1707253590,"current_range_meters":3200,"station_id":"ce4bhb12rcd13ifvqem0","pricing_plan_id":"free"},{"bike_id":"46cccd01-deeb-42ea-bed8-44e0859906a8","system_id":"levelo_inurba_marseille","lat":43.288474,"lon":5.358597,"is_reserved":false,"is_disabled":false,"rental_uris":{"android":"levelo://app?vid=46cccd01-deeb-42ea-bed8-44e0859906a8","ios":"levelo://app?vid=46cccd01-deeb-42ea-bed8-44e0859906a8"},"vehicle_type_id":"4","last_reported":1707253590,"current_range_meters":2000,"station_id":"ce4bhb12rcd13ifvqem0","pricing_plan_id":"free"},{"bike_id":"8e854bfa-2a78-4d3d-87ab-1c2c4dbc1379","system_id":"levelo_inurba_marseille","lat":43.288433,"lon":5.35853,"is_reserved":false,"is_disabled":false,"rental_uris":{"android":"levelo://app?vid=8e854bfa-2a78-4d3d-87ab-1c2c4dbc1379","ios":"levelo://app?vid=8e854bfa-2a78-4d3d-87ab-1c2c4dbc1379"},"vehicle_type_id":"4","last_reported":1707253590,"current_range_meters":12800,"station_id":"ce4bhb12rcd13ifvqem0","pricing_plan_id":"free"},{"bike_id":"d4e13fcd-ff5c-47d5-adee-787c9e810f34","system_id":"levelo_inurba_marseille","lat":43.312609,"lon":5.401662,"is_reserved":false,"is_disabled":false,"rental_uris":{"android":"levelo://app?vid=d4e13fcd-ff5c-47d5-adee-787c9e810f34","ios":"levelo://app?vid=d4e13fcd-ff5c-47d5-adee-787c9e810f34"},"vehicle_type_id":"4","last_reported":1707253590,"current_range_meters":6400,"station_id":"ce4bh092rcd13ifvqd30","pricing_plan_id":"free"},{"bike_id":"54acc53b-6a6e-4cee-91bd-a542353f095c","system_id":"levelo_inurba_marseille","lat":43.312609,"lon":5.401662,"is_reserved":false,"is_disabled":false,"rental_uris":{"android":"levelo://app?vid=54acc53b-6a6e-4cee-91bd-a542353f095c","ios":"levelo://app?vid=54acc53b-6a6e-4cee-91bd-a542353f095c"},"vehicle_type_id":"4","last_reported":1707253590,"current_range_meters":12800,"station_id":"ce4bh092rcd13ifvqd30","pricing_plan_id":"free"},{"bike_id":"fa6250c4-c81e-4411-90a5-d1582128e32b","system_id":"levelo_inurba_marseille","lat":43.312609,"lon":5.401662,"is_reserved":false,"is_disabled":false,"rental_uris":{"android":"levelo://app?vid=fa6250c4-c81e-4411-90a5-d1582128e32b","ios":"levelo://app?vid=fa6250c4-c81e-4411-90a5-d1582128e32b"},"vehicle_type_id":"4","last_reported":1707253590,"current_range_meters":16800,"station_id":"ce4bh092rcd13ifvqd30","pricing_plan_id":"free"},{"bike_id":"3b95ec73-a7ea-4c92-8ab4-e728bb614bb5","system_id":"levelo_inurba_marseille","lat":43.30927,"lon":5.40144,"is_reserved":false,"is_disabled":false,"rental_uris":{"android":"levelo://app?vid=3b95ec73-a7ea-4c92-8ab4-e728bb614bb5","ios":"levelo://app?vid=3b95ec73-a7ea-4c92-8ab4-e728bb614bb5"},"vehicle_type_id":"4","last_reported":1707253590,"current_range_meters":12800,"station_id":"ce4bgvp2rcd13ifvqct0","pricing_plan_id":"free"},{"bike_id":"a78e6cc5-49af-4ea9-81c4-89a4752e5d6d","system_id":"levelo_inurba_marseille","lat":43.309371,"lon":5.401449,"is_reserved":false,"is_disabled":false,"rental_uris":{"android":"levelo://app?vid=a78e6cc5-49af-4ea9-81c4-89a4752e5d6d","ios":"levelo://app?vid=a78e6cc5-49af-4ea9-81c4-89a4752e5d6d"},"vehicle_type_id":"4","last_reported":1707253590,"current_range_meters":21200,"station_id":"ce4bgvp2rcd13ifvqct0","pricing_plan_id":"free"},{"bike_id":"5828cf03-6222-4aeb-bd8e-9846ea04e9ed","system_id":"levelo_inurba_marseille","lat":43.337484,"lon":5.374774,"is_reserved":false,"is_disabled":false,"rental_uris":{"android":"levelo://app?vid=5828cf03-6222-4aeb-bd8e-9846ea04e9ed","ios":"levelo://app?vid=5828cf03-6222-4aeb-bd8e-9846ea04e9ed"},"vehicle_type_id":"4","last_reported":1707253590,"current_range_meters":25200,"station_id":"","pricing_plan_id":"free"},{"bike_id":"397ea3bf-115b-4033-991a-c4d3c76ab478","system_id":"levelo_inurba_marseille","lat":43.337601,"lon":5.374663,"is_reserved":false,"is_disabled":false,"rental_uris":{"android":"levelo://app?vid=397ea3bf-115b-4033-991a-c4d3c76ab478","ios":"levelo://app?vid=397ea3bf-115b-4033-991a-c4d3c76ab478"},