{"last_updated":1737382134,"ttl":60,"version":"2.2","data":{"bikes":[{"bike_id":"d2ec807b-8552-42be-9ebd-455f939901ca","system_id":"levelo_inurba_marseille","lat":43.29803,"lon":5.3809,"is_reserved":false,"is_disabled":false,"rental_uris":{"android":"levelo://app?vid=d2ec807b-8552-42be-9ebd-455f939901ca","ios":"levelo://app?vid=d2ec807b-8552-42be-9ebd-455f939901ca"},"vehicle_type_id":"4","last_reported":1737382134,"current_range_meters":39200,"station_id":"ce4bgip2rcd13ifvqbb0","pricing_plan_id":"cebpf4jnsgd1na2vs0mg"},{"bike_id":"e9aed1e6-8cf3-47f5-92c8-fb51f6b90cef","system_id":"levelo_inurba_marseille","lat":43.30333,"lon":5.40442,"is_reserved":false,"is_disabled":false,"rental_uris":{"android":"levelo://app?vid=e9aed1e6-8cf3-47f5-92c8-fb51f6b90cef","ios":"levelo://app?vid=e9aed1e6-8cf3-47f5-92c8-fb51f6b90cef"},"vehicle_type_id":"4","last_reported":1737382134,"current_range_meters":36800,"station_id":"ce4bh012rcd13ifvqd10","pricing_plan_id":"cebpf4jnsgd1na2vs0mg"},{"bike_id":"976d939b-a82d-41e6-abb4-e25496ddb17f","system_id":"levelo_inurba_marseille","lat":43.259379,"lon":5.40905,"is_reserved":false,"is_disabled":false,"rental_uris":{"android":"levelo://app?vid=976d939b-a82d-41e6-abb4-e25496ddb17f","ios":"levelo://app?vid=976d939b-a82d-41e6-abb4-e25496ddb17f"},"vehicle_type_id":"4","last_reported":1737382134,"current_range_meters":28000,"station_id":"ce4bhm92rcd13ifvqglg","pricing_plan_id":"cebpf4jnsgd1na2vs0mg"},{"bike_id":"a3d0aefc-a2f5-45cd-9489-1be9c32278de","system_id":"levelo_inurba_marseille","lat":43.23957,"lon":5.36633,"is_reserved":false,"is_disabled":false,"rental_uris":{"android":"levelo://app?vid=a3d0aefc-a2f5-45cd-9489-1be9c32278de","ios":"levelo://app?vid=a3d0aefc-a2f5-45cd-9489-1be9c32278de"},"vehicle_type_id":"4","last_reported":1737382134,"current_range_meters":33200,"station_id":"ce4bhi12rcd13ifvqfp0","pricing_plan_id":"cebpf4jnsgd1na2vs0mg"},{"bike_id":"ff1df0fd-be2f-4894-8690-e8a61da9c700","system_id":"levelo_inurba_marseille","lat":43.28701,"lon":5.37382,"is_reserved":false,"is_disabled":true,"rental_uris":{"android":"levelo://app?vid=ff1df0fd-be2f-4894-8690-e8a61da9c700","ios":"levelo://app?vid=ff1df0fd-be2f-4894-8690-e8a61da9c700"},"vehicle_type_id":"4","last_reported":1737382134,"current_range_meters":38800,"station_id":"ce4bh3p2rcd13ifvqdq0","pricing_plan_id":"cebpf4jnsgd1na2vs0mg"},{"bike_id":"26d92998-8ba2-4647-a669-43b8de185c89","system_id":"levelo_inurba_marseille","lat":43.23053,"lon":5.35511,"is_reserved":false,"is_disabled":false,"rental_uris":{"android":"levelo://app?vid=26d92998-8ba2-4647-a669-43b8de185c89","ios":"levelo://app?vid=26d92998-8ba2-4647-a669-43b8de185c89"},"vehicle_type_id":"4","last_reported":1737382134,"current_range_meters":18000,"station_id":"cpo3342slgdg3j2ifvpg","pricing_plan_id":"cebpf4jnsgd1na2vs0mg"},{"bike_id":"7892ac31-7700-4177-a2f1-2367f3230e10","system_id":"levelo_inurba_marseille","lat":43.30937,"lon":5.40155,"is_reserved":false,"is_disabled":false,"rental_uris":{"android":"levelo://app?vid=7892ac31-7700-4177-a2f1-2367f3230e10","ios":"levelo://app?vid=7892ac31-7700-4177-a2f1-2367f3230e10"},"vehicle_type_id":"4","last_reported":1737382134,"current_range_meters":16800,"station_id":"ce4bgvp2rcd13ifvqct0","pricing_plan_id":"cebpf4jnsgd1na2vs0mg"},{"bike_id":"70ac5e43-1a65-4943-bf4c-9459b26a7429","system_id":"levelo_inurba_marseille","lat":43.25813,"lon":5.41034,"is_reserved":false,"is_disabled":false,"rental_uris":{"android":"levelo://app?vid=70ac5e43-1a65-4943-bf4c-9459b26a7429","ios":"levelo://app?vid=70ac5e43-1a65-4943-bf4c-9459b26a7429"},"vehicle_type_id":"4","last_reported":1737382134,"current_range_meters":16000,"station_id":"","pricing_plan_id":"cebpf4jnsgd1na2vs0mg"},{"bike_id":"d5dbe44f-35b4-4f05-805b-cd9f7edc068d","system_id":"levelo_inurba_marseille","lat":43.26508,"lon":5.39545,"is_reserved":false,"is_disabled":false,"rental_uris":{"android":"levelo://app?vid=d5dbe44f-35b4-4f05-805b-cd9f7edc068d","ios":"levelo://app?vid=d5dbe44f-35b4-4f05-805b-cd9f7edc068d"},"vehicle_type_id":"4","last_reported":1737382134,"current_range_meters":24400,"station_id":"ce4bhi12rcd13ifvqfq0","pricing_plan_id":"cebpf4jnsgd1na2vs0mg"},{"bike_id":"31e9f273-27fb-42c5-a2ab-e14778dffa3c","system_id":"levelo_inurba_marseille","lat":43.28957,"lon":5.36618,"is_reserved":false,"is_disabled":false,"rental_uris":{"android":"levelo://app?vid=31e9f273-27fb-42c5-a2ab-e14778dffa3c","ios":"levelo://app?vid=31e9f273-27fb-42c5-a2ab-e14778dffa3c"},"vehicle_type_id":"4","last_reported":1737382134,"current_range_meters":37600,"station_id":"ce4bhap2rcd13ifvqek0","pricing_plan_id":"cebpf4jnsgd1na2vs0mg"},{"bike_id":"89c60171-e7c9-486b-9ccc-9e4795e53faf","system_id":"levelo_inurba_marseille","lat":43.33633,"lon":5.40992,"is_reserved":false,"is_disabled":false,"rental_uris":{"android":"levelo://app?vid=89c60171-e7c9-486b-9ccc-9e4795e53faf","ios":"levelo://app?vid=89c60171-e7c9-486b-9ccc-9e4795e53faf"},"vehicle_type_id":"4","last_reported":1737382134,"current_range_meters":38800,"station_id":"ce4bhqh2rcd13ifvqhmg","pricing_plan_id":"cebpf4jnsgd1na2vs0mg"},{"bike_id":"cd302cab-5b48-4489-bbb2-e76c626da4d9","system_id":"levelo_inurba_marseille","lat":43.28924,"lon":5.36393,"is_reserved":false,"is_disabled":false,"rental_uris":{"android":"levelo://app?vid=cd302cab-5b48-4489-bbb2-e76c626da4d9","ios":"levelo://app?vid=cd302cab-5b48-4489-bbb2-e76c626da4d9"},"vehicle_type_id":"4","last_reported":1737382134,"current_range_meters":9200,"station_id":"ce4bhc92rcd13ifvqetg","pricing_plan_id":"cebpf4jnsgd1na2vs0mg"},{"bike_id":"e3d5a69f-7604-4ab5-bfce-dc9cf0dd7b56","system_id":"levelo_inurba_marseille","lat":43.29572,"lon":5.39963,"is_reserved":false,"is_disabled":true,"rental_uris":{"android":"levelo://app?vid=e3d5a69f-7604-4ab5-bfce-dc9cf0dd7b56","ios":"levelo://app?vid=e3d5a69f-7604-4ab5-bfce-dc9cf0dd7b56"},"vehicle_type_id":"4","last_reported":1737382134,"current_range_meters":38800,"station_id":"ce4bh312rcd13ifvqdj0","pricing_plan_id":"cebpf4jnsgd1na2vs0mg"},{"bike_id":"a5abd3c1-7264-4602-9fa3-176c7fbe4f7a","system_id":"levelo_inurba_marseille","lat":43.29846,"lon":5.36278,"is_reserved":false,"is_disabled":false,"rental_uris":{"android":"levelo://app?vid=a5abd3c1-7264-4602-9fa3-176c7fbe4f7a","ios":"levelo://app?vid=a5abd3c1-7264-4602-9fa3-176c7fbe4f7a"},"vehicle_type_id":"4","last_reported":1737382134,"current_range_meters":38800,"station_id":"ce4bgpp2rcd13ifvqc3g","pricing_plan_id":"cebpf4jnsgd1na2vs0mg"},{"bike_id":"9e684055-1014-419f-b942-a47f37584c9c","system_id":"levelo_inurba_marseille","lat":43.26828,"lon":5.39473,"is_reserved":false,"is_disabled":false,"rental_uris":{"android":"levelo://app?vid=9e684055-1014-419f-b942-a47f37584c9c","ios":"levelo://app?vid=9e684055-1014-419f-b942-a47f37584c9c"},"vehicle_type_id":"4","last_reported":1737382134,"current_range_meters":38000,"station_id":"ce4bhh12rcd13ifvqfg0","pricing_plan_id":"cebpf4jnsgd1na2vs0mg"},{"bike_id":"cb6acc65-5525-40d4-bab1-4ad8f3a7aa53","system_id":"levelo_inurba_marseille","lat":43.273133,"lon":5.390849,"is_reserved":false,"is_disabled":false,"rental_uris":{"android":"levelo://app?vid=cb6acc65-5525-40d4-bab1-4ad8f3a7aa53","ios":"levelo://app?vid=cb6acc65-5525-40d4-bab1-4ad8f3a7aa53"},"vehicle_type_id":"4","last_reported":1737382134,"current_range_meters":38800,"station_id":"ce4bhgp2rcd13ifvqfe0","pricing_plan_id":"cebpf4jnsgd1na2vs0mg"},{"bike_id":"47ddaf53-ef55-49c4-b0fc-2e8f0d472bdb","system_id":"levelo_inurba_marseille","lat":43.27681,"lon":5.38864,"is_reserved":false,"is_disabled":false,"rental_uris":{"android":"levelo://app?vid=47ddaf53-ef55-49c4-b0fc-2e8f0d472bdb","ios":"levelo://app?vid=47ddaf53-ef55-49c4-b0fc-2e8f0d472bdb"},"vehicle_type_id":"4","last_reported":1737382134,"current_range_meters":26000,"station_id":"ce4bhi12rcd13ifvqfo0","pricing_plan_id":"cebpf4jnsgd1na2vs0mg"},{"bike_id":"763ed4fc-16fd-47a0-aedf-62c028daa66f","system_id":"levelo_inurba_marseille","lat":43.36378,"lon":5.35562,"is_reserved":false,"is_disabled":false,"rental_uris":{"android":"levelo://app?vid=763ed4fc-16fd-47a0-aedf-62c028daa66f","ios":"levelo://app?vid=763ed4fc-16fd-47a0-aedf-62c028daa66f"},"vehicle_type_id":"4","last_reported":1737382134,"current_range_meters":8800,"station_id":"","pricing_plan_id":"cebpf4jnsgd1na2vs0mg"},{"bike_id":"54e47bbf-d358-4fc6-9623-23d2eb6b92a9","system_id":"levelo_inurba_marseille","lat":43.276747,"lon":5.388474,"is_reserved":false,"is_disabled":true,"rental_uris":{"android":"levelo://app?vid=54e47bbf-d358-4fc6-9623-23d2eb6b92a9","ios":"levelo://app?vid=54e47bbf-d358-4fc6-9623-23d2eb6b92a9"},"vehicle_type_id":"4","last_reported":1737382134,"current_range_meters":16800,"station_id":"","pricing_plan_id":"cebpf4jnsgd1na2vs0mg"},{"bike_id":"a2771881-b956-4a9a-9bc9-a89642d437c9","system_id":"levelo_inurba_marseille","lat":43.23207,"lon":5.35547,"is_reserved":false,"is_disabled":false,"rental_uris":{"android":"levelo://app?vid=a2771881-b956-4a9a-9bc9-a89642d437c9","ios":"levelo://app?vid=a2771881-b956-4a9a-9bc9-a89642d437c9"},"vehicle_type_id":"4","last_reported":1737382134,"current_range_meters":39200,"station_id":"ce4bhu92rcd13ifvqi70","pricing_plan_id":"cebpf4jnsgd1na2vs0mg"},{"bike_id":"3b26ab37-3b51-49df-bcb5-b23c8b5b2a76","system_id":"levelo_inurba_marseille","lat":43.32116,"lon":5.36776,"is_reserved":false,"is_disabled":false,"rental_uris":{"android":"levelo://app?vid=3b26ab37-3b51-49df-bcb5-b23c8b5b2a76","ios":"levelo://app?vid=3b26ab37-3b51-49df-bcb5-b23c8b5b2a76"},"vehicle_type_id":"4","last_reported":1737382134,"current_range_meters":18000,"station_id":"ce4bhrh2rcd13ifvqhug","pricing_plan_id":"cebpf4jnsgd1na2vs0mg"},{"bike_id":"3cac2131-518c-4320-b74a-8cad5cadc431","system_id":"levelo_inurba_marseille","lat":43.28984,"lon":5.37829,"is_reserved":false,"is_disabled":false,"rental_uris":{"android":"levelo://app?vid=3cac2131-518c-4320-b74a-8cad5cadc431","ios":"levelo://app?vid=3cac2131-518c-4320-b74a-8cad5cadc431"},"vehicle_type_id":"4","last_reported":1737382134,"current_range_meters":38800,"station_id":"ce4bh9p2rcd13ifvqed0","pricing_plan_id":"cebpf4jnsgd1na2vs0mg"},{"bike_id":"43b2003f-3bfe-48b5-9d2a-33b80c14b10b","system_id":"levelo_inurba_marseille","lat":43.325375,"lon":5.414438,"is_reserved":false,"is_disabled":false,"rental_uris":{"android":"levelo://app?vid=43b2003f-3bfe-48b5-9d2a-33b80c14b10b","ios":"levelo://app?vid=43b2003f-3bfe-48b5-9d2a-33b80c14b10b"},"vehicle_type_id":"4","last_reported":1737382134,"current_range_meters":10800,"station_id":"ce4bhq12rcd13ifvqhhg","pricing_plan_id":"cebpf4jnsgd1na2vs0mg"},{"bike_id":"f3c94274-f861-4c89-8bb1-1ebe1a531935","system_id":"levelo_inurba_marseille","lat":43.25009,"lon":5.38906,"is_reserved":false,"is_disabled":false,"rental_uris":{"android":"levelo://app?vid=f3c94274-f861-4c89-8bb1-1ebe1a531935","ios":"levelo://app?vid=f3c94274-f861-4c89-8bb1-1ebe1a531935"},"vehicle_type_id":"4","last_reported":1737382134,"current_range_meters":34000,"station_id":"ce4bhgp2rcd13ifvqfd0","pricing_plan_id":"cebpf4jnsgd1na2vs0mg"},{"bike_id":"ea820ade-d81d-428e-82b9-7f165f7e8e75","system_id":"levelo_inurba_marseille","lat":43.32372,"lon":5.36743,"is_reserved":false,"is_disabled":false,"rental_uris":{"android":"levelo://app?vid=ea820ade-d81d-428e-82b9-7f165f7e8e75","ios":"levelo://app?vid=ea820ade-d81d-428e-82b9-7f165f7e8e75"},"vehicle_type_id":"4","last_reported":1737382134,"current_range_meters":10000,"station_id":"ce4bhsh2rcd13ifvqi2g","pricing_plan_id":"cebpf4jnsgd1na2vs0mg"},{"bike_id":"3db3a823-eb63-44fe-8add-0e999941c2e8","system_id":"levelo_inurba_marseille","lat":43.28366,"lon":5.386195,"is_reserved":false,"is_disabled":false,"rental_uris":{"android":"levelo://app?vid=3db3a823-eb63-44fe-8add-0e999941c2e8","ios":"levelo://app?vid=3db3a823-eb63-44fe-8add-0e999941c2e8"},"vehicle_type_id":"4","last_reported":1737382134,"current_range_meters":38000,"station_id":"ce4bh492rcd13ifvqdvg","pricing_plan_id":"cebpf4jnsgd1na2vs0mg"},{"bike_id":"c29020e0-83ef-4b06-ac4f-c4422257f84a","system_id":"levelo_inurba_marseille","lat":43.36395,"lon":5.35607,"is_reserved":false,"is_disabled":false,"rental_uris":{"android":"levelo://app?vid=c29020e0-83ef-4b06-ac4f-c4422257f84a","ios":"levelo://app?vid=c29020e0-83ef-4b06-ac4f-c4422257f84a"},"vehicle_type_id":"4","last_reported":1737382134,"current_range_meters":13600,"station_id":"","pricing_plan_id":"cebpf4jnsgd1na2vs0mg"},{"bike_id":"fbc9fbdc-44d5-477b-bfc5-9890b7fe1b8f","system_id":"levelo_inurba_marseille","lat":43.2708,"lon":5.42276,"is_reserved":false,"is_disabled":false,"rental_uris":{"android":"levelo://app?vid=fbc9fbdc-44d5-477b-bfc5-9890b7fe1b8f","ios":"levelo://app?vid=fbc9fbdc-44d5-477b-bfc5-9890b7fe1b8f"},"vehicle_type_id":"4","last_reported":1737382134,"current_range_meters":30800,"station_id":"ce4bhk92rcd13ifvqgb0","pricing_plan_id":"cebpf4jnsgd1na2vs0mg"},{"bike_id":"307a86f7-b40b-4fa4-85df-bffd9864657e","system_id":"levelo_inurba_marseille","lat":43.26804,"lon":5.3945,"is_reserved":false,"is_disabled":false,"rental_uris":{"android":"levelo://app?vid=307a86f7-b40b-4fa4-85df-bffd9864657e","ios":"levelo://app?vid=307a86f7-b40b-4fa4-85df-bffd9864657e"},"vehicle_type_id":"4","last_reported":1737382134,"current_range_meters":39200,"station_id":"ce4bhh12rcd13ifvqfg0","pricing_plan_id":"cebpf4jnsgd1na2vs0mg"},{"bike_id":"2134fa96-3287-49a0-8c4d-ce46e95d9fc9","system_id":"levelo_inurba_marseille","lat":43.2594,"lon":5.40905,"is_reserved":false,"is_disabled":false,"rental_uris":{"android":"levelo://app?vid=2134fa96-3287-49a0-8c4d-ce46e95d9fc9","ios":"levelo://app?vid=2134fa96-3287-49a0-8c4d-ce46e95d9fc9"},"vehicle_type_id":"4","last_reported":1737382134,"current_range_meters":28800,"station_id":"ce4bhm92rcd13ifvqglg","pricing_plan_id":"cebpf4jnsgd1na2vs0mg"},{"bike_id":"82c77ec7-d225-44dc-b49b-f6bbd00a0586","system_id":"levelo_inurba_marseille","lat":43.33607,"lon":5.41031,"is_reserved":false,"is_disabled":false,"rental_uris":{"android":"levelo://app?vid=82c77ec7-d225-44dc-b49b-f6bbd00a0586","ios":"levelo://app?vid=82c77ec7-d225-44dc-b49b-f6bbd00a0586"},"vehicle_type_id":"4","last_reported":1737382134,"current_range_meters":11200,"station_id":"ce4bhqh2rcd13ifvqhmg","pricing_plan_id":"cebpf4jnsgd1na2vs0mg"},{"bike_id":"6bf5bd29-3e54-437a-9020-86384919dc04","system_id":"levelo_inurba_marseille","lat":43.32322,"lon":5.38282,"is_reserved":false,"is_disabled":false,"rental_uris":{"android":"levelo://app?vid=6bf5bd29-3e54-437a-9020-86384919dc04","ios":"levelo://app?vid=6bf5bd29-3e54-437a-9020-86384919dc04"},"vehicle_type_id":"4","last_reported":1737382134,"current_range_meters":38800,"station_id":"ce4bhr12rcd13ifvqhqg","pricing_plan_id":"cebpf4jnsgd1na2vs0mg"},{"bike_id":"3e7fa701-fbdc-406d-8174-5dc7e5026736","system_id":"levelo_inurba_marseille","lat":43.29399,"lon":5.38222,"is_reserved":false,"is_disabled":false,"rental_uris":{"android":"levelo://app?vid=3e7fa701-fbdc-406d-8174-5dc7e5026736","ios":"levelo://app?vid=3e7fa701-fbdc-406d-8174-5dc7e5026736"},"vehicle_type_id":"4","last_reported":1737382134,"current_range_meters":28800,"station_id":"","pricing_plan_id":"cebpf4jnsgd1na2vs0mg"},{"bike_id":"ea24d54b-dd85-4351-bfb8-e4988b94ba19","system_id":"levelo_inurba_marseille","lat":43.26568,"lon":5.37305,"is_reserved":false,"is_disabled":false,"rental_uris":{"android":"levelo://app?vid=ea24d54b-dd85-4351-bfb8-e4988b94ba19","ios":"levelo://app?vid=ea24d54b-dd85-4351-bfb8-e4988b94ba19"},"vehicle_type_id":"4","last_reported":1737382134,"current_range_meters":22800,"station_id":"ce4bhg12rcd13ifvqf70","pricing_plan_id":"cebpf4jnsgd1na2vs0mg"},{"bike_id":"04e7f6b2-1170-476d-8eb7-54bc6ab7d23c","system_id":"levelo_inurba_marseille","lat":43.243895,"lon":5.370563,"is_reserved":false,"is_disabled":false,"rental_uris":{"android":"levelo://app?vid=04e7f6b2-1170-476d-8eb7-54bc6ab7d23c","ios":"levelo://app?vid=04e7f6b2-1170-476d-8eb7-54bc6ab7d23c"},"vehicle_type_id":"4","last_reported":1737382134,"current_range_meters":33600,"station_id":"ce4bhhh2rcd13ifvqfk0","pricing_plan_id":"cebpf4jnsgd1na2vs0mg"},{"bike_id":"93286c9c-996e-4acd-a021-157def215515","system_id":"levelo_inurba_marseille","lat":43.27379,"lon":5.36256,"is_reserved":false,"is_disabled":false,"rental_uris":{"android":"levelo://app?vid=93286c9c-996e-4acd-a021-157def215515","ios":"levelo://app?vid=93286c9c-996e-4acd-a021-157def215515"},"vehicle_type_id":"4","last_reported":1737382134,"current_range_meters":8000,"station_id":"ce4bhbh2rcd13ifvqeo0","pricing_plan_id":"cebpf4jnsgd1na2vs0mg"},{"bike_id":"98c1d16b-6b2e-42fc-9091-c80c2614bdd1","system_id":"levelo_inurba_marseille","lat":43.281501,"lon":5.426484,"is_reserved":false,"is_disabled":false,"rental_uris":{"android":"levelo://app?vid=98c1d16b-6b2e-42fc-9091-c80c2614bdd1","ios":"levelo://app?vid=98c1d16b-6b2e-42fc-9091-c80c2614bdd1"},"vehicle_type_id":"4","last_reported":1737382134,"current_range_meters":6000,"station_id":"ce4bhnh2rcd13ifvqgug","pricing_plan_id":"cebpf4jnsgd1na2vs0mg"},{"bike_id":"1d380783-b8e7-4ad2-ac4b-fb3cfd34f749","system_id":"levelo_inurba_marseille","lat":43.296813,"lon":5.373003,"is_reserved":false,"is_disabled":false,"rental_uris":{"android":"levelo://app?vid=1d380783-b8e7-4ad2-ac4b-fb3cfd34f749","ios":"levelo://app?vid=1d380783-b8e7-4ad2-ac4b-fb3cfd34f749"},"vehicle_type_id":"4","last_reported":1737382134,"current_range_meters":35600,"station_id":"ce4bgk12rcd13ifvqbj0","pricing_plan_id":"cebpf4jnsgd1na2vs0mg"},{"bike_id":"c8fe6bd0-5be5-4ede-8e98-69d8c19fd7cf","system_id":"levelo_inurba_marseille","lat":43.23162,"lon":5.43714,"is_reserved":false,"is_disabled":false,"rental_uris":{"android":"levelo://app?vid=c8fe6bd0-5be5-4ede-8e98-69d8c19fd7cf","ios":"levelo://app?vid=c8fe6bd0-5be5-4ede-8e98-69d8c19fd7cf"},"vehicle_type_id":"4","last_reported":1737382134,"current_range_meters":38800,"station_id":"ce4bhmp2rcd13ifvqgog","pricing_plan_id":"cebpf4jnsgd1na2vs0mg"},{"bike_id":"57b0e606-8fdf-401d-8223-87c7978ca31e","system_id":"levelo_inurba_marseille","lat":43.26238,"lon":5.40453,"is_reserved":false,"is_disabled":false,"rental_uris":{"android":"levelo://app?vid=57b0e606-8fdf-401d-8223-87c7978ca31e","ios":"levelo://app?vid=57b0e606-8fdf-401d-8223-87c7978ca31e"},"vehicle_type_id":"4","last_reported":1737382134,"current_range_meters":30800,"station_id":"","pricing_plan_id":"cebpf4jnsgd1na2vs0mg"},{"bike_id":"d6dda788-2ee0-45e5-a6fd-f8b98f248df1","system_id":"levelo_inurba_marseille","lat":43.23141,"lon":5.4372,"is_reserved":false,"is_disabled":false,"rental_uris":{"android":"levelo://app?vid=d6dda788-2ee0-45e5-a6fd-f8b98f248df1","ios":"levelo://app?vid=d6dda788-2ee0-45e5-a6fd-f8b98f248df1"},"vehicle_type_id":"4","last_reported":1737382134,"current_range_meters":38800,"station_id":"ce4bhmp2rcd13ifvqgog","pricing_plan_id":"cebpf4jnsgd1na2vs0mg"},{"bike_id":"6c1a22af-e315-4a1f-9e08-bc1ad34fae66","system_id":"levelo_inurba_marseille","lat":43.2999,"lon":5.37157,"is_reserved":false,"is_disabled":false,"rental_uris":{"android":"levelo://app?vid=6c1a22af-e315-4a1f-9e08-bc1ad34fae66","ios":"levelo://app?vid=6c1a22af-e315-4a1f-9e08-bc1ad34fae66"},"vehicle_type_id":"4","last_reported":1737382134,"current_range_meters":23200,"station_id":"ce4bgr92rcd13ifvqc7g","pricing_plan_id":"cebpf4jnsgd1na2vs0mg"},{"bike_id":"54faa076-f87a-449b-9aaf-c46a9bd845cd","system_id":"levelo_inurba_marseille","lat":43.28693,"lon":5.37966,"is_reserved":false,"is_disabled":false,"rental_uris":{"android":"levelo://app?vid=54faa076-f87a-449b-9aaf-c46a9bd845cd","ios":"levelo://app?vid=54faa076-f87a-449b-9aaf-c46a9bd845cd"},"vehicle_type_id":"4","last_reported":1737382134,"current_range_meters":35200,"station_id":"ce4bh9p2rcd13ifvqec0","pricing_plan_id":"cebpf4jnsgd1na2vs0mg"},{"bike_id":"973f58e7-e64f-4d94-84af-841fac743b01","system_id":"levelo_inurba_marseille","lat":43.23966,"lon":5.36634,"is_reserved":false,"is_disabled":false,"rental_uris":{"android":"levelo://app?vid=973f58e7-e64f-4d94-84af-841fac743b01","ios":"levelo://app?vid=973f58e7-e64f-4d94-84af-841fac743b01"},"vehicle_type_id":"4","last_reported":1737382134,"current_range_meters":24400,"station_id":"ce4bhi12rcd13ifvqfp0","pricing_plan_id":"cebpf4jnsgd1na2vs0mg"},{"bike_id":"e5f0b0c7-6bda-4a57-afed-1bbbd287a9f7","system_id":"levelo_inurba_marseille","lat":43.32366,"lon":5.36745,"is_reserved":false,"is_disabled":false,"rental_uris":{"android":"levelo://app?vid=e5f0b0c7-6bda-4a57-afed-1bbbd287a9f7","ios":"levelo://app?vid=e5f0b0c7-6bda-4a57-afed-1bbbd287a9f7"},"vehicle_type_id":"4","last_reported":1737382134,"current_range_meters":30000,"station_id":"ce4bhsh2rcd13ifvqi2g","pricing_plan_id":"cebpf4jnsgd1na2vs0mg"},{"bike_id":"0fc5fdc3-8ada-4230-a1ac-e56e275f647e","system_id":"levelo_inurba_marseille","lat":43.29031,"lon":5.38614,"is_reserved":false,"is_disabled":false,"rental_uris":{"android":"levelo://app?vid=0fc5fdc3-8ada-4230-a1ac-e56e275f647e","ios":"levelo://app?vid=0fc5fdc3-8ada-4230-a1ac-e56e275f647e"},"vehicle_type_id":"4","last_reported":1737382134,"current_range_meters":33600,"station_id":"ce4bh4p2rcd13ifvqe0g","pricing_plan_id":"cebpf4jnsgd1na2vs0mg"},{"bike_id":"c0ca7781-c364-4c57-8944-068415c5e26a","system_id":"levelo_inurba_marseille","lat":43.30567,"lon":5.36685,"is_reserved":false,"is_disabled":false,"rental_uris":{"android":"levelo://app?vid=c0ca7781-c364-4c57-8944-068415c5e26a","ios":"levelo://app?vid=c0ca7781-c364-4c57-8944-068415c5e26a"},"vehicle_type_id":"4","last_reported":1737382134,"current_range_meters":38800,"station_id":"ce4bgrp2rcd13ifvqc9g","pricing_plan_id":"cebpf4jnsgd1na2vs0mg"},{"bike_id":"cea80681-e52c-4742-85ca-4a7b202634a3","system_id":"levelo_inurba_marseille","lat":43.29555,"lon":5.42277,"is_reserved":false,"is_disabled":false,"rental_uris":{"android":"levelo://app?vid=cea80681-e52c-4742-85ca-4a7b202634a3","ios":"levelo://app?vid=cea80681-e52c-4742-85ca-4a7b202634a3"},"vehicle_type_id":"4","last_reported":1737382134,"current_range_meters":14000,"station_id":"ce4bhph2rcd13ifvqhdg","pricing_plan_id":"cebpf4jnsgd1na2vs0mg"},{"bike_id":"0c0a37e5-044f-498b-b68f-b13ea4f758bf","system_id":"levelo_inurba_marseille","lat":43.31486,"lon":5.37243,"is_reserved":false,"is_disabled":true,"rental_uris":{"android":"levelo://app?vid=0c0a37e5-044f-498b-b68f-b13ea4f758bf","ios":"levelo://app?vid=0c0a37e5-044f-498b-b68f-b13ea4f758bf"},"vehicle_type_id":"4","last_reported":1737382134,"current_range_meters":33200,"station_id":"","pricing_plan_id":"cebpf4jnsgd1na2vs0mg"},{"bike_id":"33894d47-927f-41e1-a254-e20c60e4b726","system_id":"levelo_inurba_marseille","lat":43.29631,"lon":5.38097,"is_reserved":false,"is_disabled":false,"rental_uris":{"android":"levelo://app?vid=33894d47-927f-41e1-a254-e20c60e4b726","ios":"levelo://app?vid=33894d47-927f-41e1-a254-e20c60e4b726"},"vehicle_type_id":"4","last_reported":1737382134,"current_range_meters":18800,"station_id":"ce4bgl12rcd13ifvqbo0","pricing_plan_id":"cebpf4jnsgd1na2vs0mg"},{"bike_id":"f4edb6c0-559c-428f-b21b-013582e05a15","system_id":"levelo_inurba_marseille","lat":43.29428,"lon":5.39769,"is_reserved":false,"is_disabled":false,"rental_uris":{"android":"levelo://app?vid=f4edb6c0-559c-428f-b21b-013582e05a15","ios":"levelo://app?vid=f4edb6c0-559c-428f-b21b-013582e05a15"},"vehicle_type_id":"4","last_reported":1737382134,"current_range_meters":13600,"station_id":"ce4bh3h2rcd13ifvqdo0","pricing_plan_id":"cebpf4jnsgd1na2vs0mg"},{"bike_id":"3860f79b-6390-4baa-9962-103869425bc6","system_id":"levelo_inurba_marseille","lat":43.29896,"lon":5.43657,"is_reserved":false,"is_disabled":false,"rental_uris":{"android":"levelo://app?vid=3860f79b-6390-4baa-9962-103869425bc6","ios":"levelo://app?vid=3860f79b-6390-4baa-9962-103869425bc6"},"vehicle_type_id":"4","last_reported":1737382134,"current_range_meters":17200,"station_id":"ce4bhpp2rcd13ifvqhfg","pricing_plan_id":"cebpf4jnsgd1na2vs0mg"},{"bike_id":"bb17795f-8acb-4280-acbb-0d937d122153","system_id":"levelo_inurba_marseille","lat":43.24077,"lon":5.37753,"is_reserved":false,"is_disabled":false,"rental_uris":{"android":"levelo://app?vid=bb17795f-8acb-4280-acbb-0d937d122153","ios":"levelo://app?vid=bb17795f-8acb-4280-acbb-0d937d122153"},"vehicle_type_id":"4","last_reported":1737382134,"current_range_meters":36400,"station_id":"ce4bhnp2rcd13ifvqgvg","pricing_plan_id":"cebpf4jnsgd1na2vs0mg"},{"bike_id":"4a7e88df-f9d6-43e1-9423-253ed79618d5","system_id":"levelo_inurba_marseille","lat":43.29277,"lon":5.36841,"is_reserved":false,"is_disabled":false,"rental_uris":{"android":"levelo://app?vid=4a7e88df-f9d6-43e1-9423-253ed79618d5","ios":"levelo://app?vid=4a7e88df-f9d6-43e1-9423-253ed79618d5"},"vehicle_type_id":"4","last_reported":1737382134,"current_range_meters":38800,"station_id":"ce4bhbp2rcd13ifvqesg","pricing_plan_id":"cebpf4jnsgd1na2vs0mg"},{"bike_id":"9b189d65-d17a-40c0-9cde-10ec8621a677","system_id":"levelo_inurba_marseille","lat":43.27994,"lon":5.4001,"is_reserved":false,"is_disabled":false,"rental_uris":{"android":"levelo://app?vid=9b189d65-d17a-40c0-9cde-10ec8621a677","ios":"levelo://app?vid=9b189d65-d17a-40c0-9cde-10ec8621a677"},"vehicle_type_id":"4","last_reported":1737382134,"current_range_meters":35200,"station_id":"ce4bho92rcd13ifvqh4g","pricing_plan_id":"cebpf4jnsgd1na2vs0mg"},{"bike_id":"ca8aa51d-4833-4c77-8009-59b7c07323a3","system_id":"levelo_inurba_marseille","lat":43.32357,"lon":5.36713,"is_reserved":false,"is_disabled":false,"rental_uris":{"android":"levelo://app?vid=ca8aa51d-4833-4c77-8009-59b7c07323a3","ios":"levelo://app?vid=ca8aa51d-4833-4c77-8009-59b7c07323a3"},"vehicle_type_id":"4","last_reported":1737382134,"current_range_meters":32000,"station_id":"ce4bhsh2rcd13ifvqi2g","pricing_plan_id":"cebpf4jnsgd1na2vs0mg"},{"bike_id":"98cb09be-7750-40f9-a38b-ac670902dce2","system_id":"levelo_inurba_marseille","lat":43.28079,"lon":5.39661,"is_reserved":false,"is_disabled":false,"rental_uris":{"android":"levelo://app?vid=98cb09be-7750-40f9-a38b-ac670902dce2","ios":"levelo://app?vid=98cb09be-7750-40f9-a38b-ac670902dce2"},"vehicle_type_id":"4","last_reported":1737382134,"current_range_meters":20400,"station_id":"ce4bho12rcd13ifvqh2g","pricing_plan_id":"cebpf4jnsgd1na2vs0mg"},{"bike_id":"e93581aa-5202-4672-a922-9bd5ce9e9525","system_id":"levelo_inurba_marseille","lat":43.29915,"lon":5.37466,"is_reserved":false,"is_disabled":false,"rental_uris":{"android":"levelo://app?vid=e93581aa-5202-4672-a922-9bd5ce9e9525","ios":"levelo://app?vid=e93581aa-5202-4672-a922-9bd5ce9e9525"},"vehicle_type_id":"4","last_reported":1737382134,"current_range_meters":20400,"station_id":"ce4bgjh2rcd13ifvqbg0","pricing_plan_id":"cebpf4jnsgd1na2vs0mg"},{"bike_id":"49edd341-1744-445c-b1f6-ec80c4f617c5","system_id":"levelo_inurba_marseille","lat":43.27073,"lon":5.42276,"is_reserved":false,"is_disabled":false,"rental_uris":{"android":"levelo://app?vid=49edd341-1744-445c-b1f6-ec80c4f617c5","ios":"levelo://app?vid=49edd341-1744-445c-b1f6-ec80c4f617c5"},"vehicle_type_id":"4","last_reported":1737382134,"current_range_meters":38800,"station_id":"ce4bhk92rcd13ifvqgb0","pricing_plan_id":"cebpf4jnsgd1na2vs0mg"},{"bike_id":"51379e9f-1ebd-43ee-bd84-6927ab606473","system_id":"levelo_inurba_marseille","lat":43.24198,"lon":5.364,"is_reserved":false,"is_disabled":false,"rental_uris":{"android":"levelo://app?vid=51379e9f-1ebd-43ee-bd84-6927ab606473","ios":"levelo://app?vid=51379e9f-1ebd-43ee-bd84-6927ab606473"},"vehicle_type_id":"4","last_reported":1737382134,"current_range_meters":22400,"station_id":"cpo36qri1sfpv3e86is0","pricing_plan_id":"cebpf4jnsgd1na2vs0mg"},{"bike_id":"57d9fa47-e597-4ea4-913f-9b45079bd718","system_id":"levelo_inurba_marseille","lat":43.33006,"lon":5.39042,"is_reserved":false,"is_disabled":false,"rental_uris":{"android":"levelo://app?vid=57d9fa47-e597-4ea4-913f-9b45079bd718","ios":"levelo://app?vid=57d9fa47-e597-4ea4-913f-9b45079bd718"},"vehicle_type_id":"4","last_reported":1737382134,"current_range_meters":38800,"station_id":"ce4bhr92rcd13ifvqhrg","pricing_plan_id":"cebpf4jnsgd1na2vs0mg"},{"bike_id":"e3ed28e1-a9df-4580-93e8-6f989d83e39f","system_id":"levelo_inurba_marseille","lat":43.30939,"lon":5.40154,"is_reserved":false,"is_disabled":false,"rental_uris":{"android":"levelo://app?vid=e3ed28e1-a9df-4580-93e8-6f989d83e39f","ios":"levelo://app?vid=e3ed28e1-a9df-4580-93e8-6f989d83e39f"},"vehicle_type_id":"4","last_reported":1737382134,"current_range_meters":28800,"station_id":"ce4bgvp2rcd13ifvqct0","pricing_plan_id":"cebpf4jnsgd1na2vs0mg"},{"bike_id":"a6817152-9db4-45be-84b1-a30b6bbc47cf","system_id":"levelo_inurba_marseille","lat":43.2419,"lon":5.39726,"is_reserved":false,"is_disabled":false,"rental_uris":{"android":"levelo://app?vid=a6817152-9db4-45be-84b1-a30b6bbc47cf","ios":"levelo://app?vid=a6817152-9db4-45be-84b1-a30b6bbc47cf"},"vehicle_type_id":"4","last_reported":1737382134,"current_range_meters":38800,"station_id":"ce4bhn12rcd13ifvqgpg","pricing_plan_id":"cebpf4jnsgd1na2vs0mg"},{"bike_id":"d7b57092-5089-4c4a-819e-bef9772d11d8","system_id":"levelo_inurba_marseille","lat":43.31819,"lon":5.37797,"is_reserved":false,"is_disabled":false,"rental_uris":{"android":"levelo://app?vid=d7b57092-5089-4c4a-819e-bef9772d11d8","ios":"levelo://app?vid=d7b57092-5089-4c4a-819e-bef9772d11d8"},"vehicle_type_id":"4","last_reported":1737382134,"current_range_meters":28400,"station_id":"","pricing_plan_id":"cebpf4jnsgd1na2vs0mg"},{"bike_id":"0f9a51b5-33b6-4681-96a4-d75e5d427826","system_id":"levelo_inurba_marseille","lat":43.2607,"lon":5.39395,"is_reserved":false,"is_disabled":false,"rental_uris":{"android":"levelo://app?vid=0f9a51b5-33b6-4681-96a4-d75e5d427826","ios":"levelo://app?vid=0f9a51b5-33b6-4681-96a4-d75e5d427826"},"vehicle_type_id":"4","last_reported":1737382134,"current_range_meters":38800,"station_id":"ce4bhh92rcd13ifvqfj0","pricing_plan_id":"cebpf4jnsgd1na2vs0mg"},{"bike_id":"970eacc2-5e8f-4753-aa3e-5d8cafb72393","system_id":"levelo_inurba_marseille","lat":43.2594,"lon":5.40888,"is_reserved":false,"is_disabled":false,"rental_uris":{"android":"levelo://app?vid=970eacc2-5e8f-4753-aa3e-5d8cafb72393","ios":"levelo://app?vid=970eacc2-5e8f-4753-aa3e-5d8cafb72393"},"vehicle_type_id":"4","last_reported":1737382134,"current_range_meters":31200,"station_id":"ce4bhm92rcd13ifvqglg","pricing_plan_id":"cebpf4jnsgd1na2vs0mg"},{"bike_id":"4104cbba-088f-4383-b2a0-261d17699731","system_id":"levelo_inurba_marseille","lat":43.23987,"lon":5.36624,"is_reserved":false,"is_disabled":false,"rental_uris":{"android":"levelo://app?vid=4104cbba-088f-4383-b2a0-261d17699731","ios":"levelo://app?vid=4104cbba-088f-4383-b2a0-261d17699731"},"vehicle_type_id":"4","last_reported":1737382134,"current_range_meters":32000,"station_id":"ce4bhi12rcd13ifvqfp0","pricing_plan_id":"cebpf4jnsgd1na2vs0mg"},{"bike_id":"dd87f22f-9bef-4002-9dbf-de2af369e46e","system_id":"levelo_inurba_marseille","lat":43.31999,"lon":5.38152,"is_reserved":false,"is_disabled":false,"rental_uris":{"android":"levelo://app?vid=dd87f22f-9bef-4002-9dbf-de2af369e46e","ios":"levelo://app?vid=dd87f22f-9bef-4002-9dbf-de2af369e46e"},"vehicle_type_id":"4","last_reported":1737382134,"current_range_meters":8000,"station_id":"ce4bhr12rcd13ifvqhpg","pricing_plan_id":"cebpf4jnsgd1na2vs0mg"},{"bike_id":"e4f8bbc0-3e71-4438-9c78-7d4251a5823b","system_id":"levelo_inurba_marseille","lat":43.29594,"lon":5.37494,"is_reserved":false,"is_disabled":false,"rental_uris":{"android":"levelo://app?vid=e4f8bbc0-3e71-4438-9c78-7d4251a5823b","ios":"levelo://app?vid=e4f8bbc0-3e71-4438-9c78-7d4251a5823b"},"vehicle_type_id":"4","last_reported":1737382134,"current_range_meters":27600,"station_id":"ce4bgh92rcd13ifvqb50","pricing_plan_id":"cebpf4jnsgd1na2vs0mg"},{"bike_id":"e769477c-b503-4bb8-b7d3-b7f7ff9ddf2d","system_id":"levelo_inurba_marseille","lat":43.29197,"lon":5.36897,"is_reserved":false,"is_disabled":false,"rental_uris":{"android":"levelo://app?vid=e769477c-b503-4bb8-b7d3-b7f7ff9ddf2d","ios":"levelo://app?vid=e769477c-b503-4bb8-b7d3-b7f7ff9ddf2d"},"vehicle_type_id":"4","last_reported":1737382134,"current_range_meters":15200,"station_id":"","pricing_plan_id":"cebpf4jnsgd1na2vs0mg"},{"bike_id":"28ef1c1e-dd89-43e8-817b-9b489831397b","system_id":"levelo_inurba_marseille","lat":43.27099,"lon":5.39613,"is_reserved":false,"is_disabled":true,"rental_uris":{"android":"levelo://app?vid=28ef1c1e-dd89-43e8-817b-9b489831397b","ios":"levelo://app?vid=28ef1c1e-dd89-43e8-817b-9b489831397b"},"vehicle_type_id":"4","last_reported":1737382134,"current_range_meters":0,"station_id":"","pricing_plan_id":"cebpf4jnsgd1na2vs0mg"},{"bike_id":"a090d58d-a1fb-4921-bd15-f1d1e2db9ea4","system_id":"levelo_inurba_marseille","lat":43.24185,"lon":5.39724,"is_reserved":false,"is_disabled":false,"rental_uris":{"android":"levelo://app?vid=a090d58d-a1fb-4921-bd15-f1d1e2db9ea4","ios":"levelo://app?vid=a090d58d-a1fb-4921-bd15-f1d1e2db9ea4"},"vehicle_type_id":"4","last_reported":1737382134,"current_range_meters":27200,"station_id":"ce4bhn12rcd13ifvqgpg","pricing_plan_id":"cebpf4jnsgd1na2vs0mg"},{"bike_id":"973357c8-dead-42ca-92e9-500225bc994c","system_id":"levelo_inurba_marseille","lat":43.33041,"lon":5.39051,"is_reserved":false,"is_disabled":false,"rental_uris":{"android":"levelo://app?vid=973357c8-dead-42ca-92e9-500225bc994c","ios":"levelo://app?vid=973357c8-dead-42ca-92e9-500225bc994c"},"vehicle_type_id":"4","last_reported":1737382134,"current_range_meters":38400,"station_id":"ce4bhr92rcd13ifvqhrg","pricing_plan_id":"cebpf4jnsgd1na2vs0mg"},{"bike_id":"4ae41f7d-b4e2-4bab-8aec-8596641bac6c","system_id":"levelo_inurba_marseille","lat":43.29983,"lon":5.37158,"is_reserved":false,"is_disabled":false,"rental_uris":{"android":"levelo://app?vid=4ae41f7d-b4e2-4bab-8aec-8596641bac6c","ios":"levelo://app?vid=4ae41f7d-b4e2-4bab-8aec-8596641bac6c"},"vehicle_type_id":"4","last_reported":1737382134,"current_range_meters":36400,"station_id":"ce4bgr92rcd13ifvqc7g","pricing_plan_id":"cebpf4jnsgd1na2vs0mg"},{"bike_id":"4ca0c0a8-ebec-4495-a31b-51805b75ee6d","system_id":"levelo_inurba_marseille","lat":43.2466,"lon":5.38883,"is_reserved":false,"is_disabled":false,"rental_uris":{"android":"levelo://app?vid=4ca0c0a8-ebec-4495-a31b-51805b75ee6d","ios":"levelo://app?vid=4ca0c0a8-ebec-4495-a31b-51805b75ee6d"},"vehicle_type_id":"4","last_reported":1737382134,"current_range_meters":39200,"station_id":"ce4bhg12rcd13ifvqf60","pricing_plan_id":"cebpf4jnsgd1na2vs0mg"},{"bike_id":"f476d878-7cd0-4f0c-8ec2-9d9f08b67a27","system_id":"levelo_inurba_marseille","lat":43.337444,"lon":5.374475,"is_reserved":false,"is_disabled":false,"rental_uris":{"android":"levelo://app?vid=f476d878-7cd0-4f0c-8ec2-9d9f08b67a27","ios":"levelo://app?vid=f476d878-7cd0-4f0c-8ec2-9d9f08b67a27"},"vehicle_type_id":"4","last_reported":1737382134,"current_range_meters":4800,"station_id":"ce4bh092rcd13ifvqd30","pricing_plan_id":"cebpf4jnsgd1na2vs0mg"},{"bike_id":"572111e7-56a7-4348-acc2-ff87890d28e9","system_id":"levelo_inurba_marseille","lat":43.29536,"lon":5.38534,"is_reserved":false,"is_disabled":false,"rental_uris":{"android":"levelo://app?vid=572111e7-56a7-4348-acc2-ff87890d28e9","ios":"levelo://app?vid=572111e7-56a7-4348-acc2-ff87890d28e9"},"vehicle_type_id":"4","last_reported":1737382134,"current_range_meters":32000,"station_id":"ce4bgih2rcd13ifvqba0","pricing_plan_id":"cebpf4jnsgd1na2vs0mg"},{"bike_id":"a7a8bfe3-2e6a-4e78-86fb-6c86c3f971ac","system_id":"levelo_inurba_marseille","lat":43.29216,"lon":5.36082,"is_reserved":false,"is_disabled":false,"rental_uris":{"android":"levelo://app?vid=a7a8bfe3-2e6a-4e78-86fb-6c86c3f971ac","ios":"levelo://app?vid=a7a8bfe3-2e6a-4e78-86fb-6c86c3f971ac"},"vehicle_type_id":"4","last_reported":1737382134,"current_range_meters":38000,"station_id":"ce4bhbh2rcd13ifvqeqg","pricing_plan_id":"cebpf4jnsgd1na2vs0mg"},{"bike_id":"4bfa3751-2adf-4e24-ad92-d28f2c20305c","system_id":"levelo_inurba_marseille","lat":43.26768,"lon":5.39403,"is_reserved":false,"is_disabled":false,"rental_uris":{"android":"levelo://app?vid=4bfa3751-2adf-4e24-ad92-d28f2c20305c","ios":"levelo://app?vid=4bfa3751-2adf-4e24-ad92-d28f2c20305c"},"vehicle_type_id":"4","last_reported":1737382134,"current_range_meters":39200,"station_id":"ce4bhh12rcd13ifvqfg0","pricing_plan_id":"cebpf4jnsgd1na2vs0mg"},{"bike_id":"01a07bd9-36a1-4c19-a88b-7c9e3a6ee490","system_id":"levelo_inurba_marseille","lat":43.2509,"lon":5.39518,"is_reserved":false,"is_disabled":false,"rental_uris":{"android":"levelo://app?vid=01a07bd9-36a1-4c19-a88b-7c9e3a6ee490","ios":"levelo://app?vid=01a07bd9-36a1-4c19-a88b-7c9e3a6ee490"},"vehicle_type_id":"4","last_reported":1737382134,"current_range_meters":28800,"station_id":"ce4bhm12rcd13ifvqgkg","pricing_plan_id":"cebpf4jnsgd1na2vs0mg"},{"bike_id":"30868fb9-be18-4137-b148-fea1b914be52","system_id":"levelo_inurba_marseille","lat":43.28011,"lon":5.40016,"is_reserved":false,"is_disabled":false,"rental_uris":{"android":"levelo://app?vid=30868fb9-be18-4137-b148-fea1b914be52","ios":"levelo://app?vid=30868fb9-be18-4137-b148-fea1b914be52"},"vehicle_type_id":"4","last_reported":1737382134,"current_range_meters":37600,"station_id":"ce4bho92rcd13ifvqh4g","pricing_plan_id":"cebpf4jnsgd1na2vs0mg"},{"bike_id":"9a4f4338-1b68-4d62-a30c-ea2e9a0b5e37","system_id":"levelo_inurba_marseille","lat":43.30322,"lon":5.40427,"is_reserved":false,"is_disabled":false,"rental_uris":{"android":"levelo://app?vid=9a4f4338-1b68-4d62-a30c-ea2e9a0b5e37","ios":"levelo://app?vid=9a4f4338-1b68-4d62-a30c-ea2e9a0b5e37"},"vehicle_type_id":"4","last_reported":1737382134,"current_range_meters":7200,"station_id":"ce4bh012rcd13ifvqd10","pricing_plan_id":"cebpf4jnsgd1na2vs0mg"},{"bike_id":"fccc6e17-f4f8-4c97-a66a-3fb63053cf88","system_id":"levelo_inurba_marseille","lat":43.25865,"lon":5.39902,"is_reserved":false,"is_disabled":false,"rental_uris":{"android":"levelo://app?vid=fccc6e17-f4f8-4c97-a66a-3fb63053cf88","ios":"levelo://app?vid=fccc6e17-f4f8-4c97-a66a-3fb63053cf88"},"vehicle_type_id":"4","last_reported":1737382134,"current_range_meters":20400,"station_id":"ce4bhl92rcd13ifvqghg","pricing_plan_id":"cebpf4jnsgd1na2vs0mg"},{"bike_id":"c42268c0-a5e0-42b8-b874-93ef21576df8","system_id":"levelo_inurba_marseille","lat":43.28177,"lon":5.42645,"is_reserved":false,"is_disabled":false,"rental_uris":{"android":"levelo://app?vid=c42268c0-a5e0-42b8-b874-93ef21576df8","ios":"levelo://app?vid=c42268c0-a5e0-42b8-b874-93ef21576df8"},"vehicle_type_id":"4","last_reported":1737382134,"current_range_meters":23200,"station_id":"ce4bhnh2rcd13ifvqgug","pricing_plan_id":"cebpf4jnsgd1na2vs0mg"},{"bike_id":"37e24f29-f9e5-4fbd-966f-119335fd695e","system_id":"levelo_inurba_marseille","lat":43.24073,"lon":5.3774,"is_reserved":false,"is_disabled":false,"rental_uris":{"android":"levelo://app?vid=37e24f29-f9e5-4fbd-966f-119335fd695e","ios":"levelo://app?vid=37e24f29-f9e5-4fbd-966f-119335fd695e"},"vehicle_type_id":"4","last_reported":1737382134,"current_range_meters":39200,"station_id":"ce4bhnp2rcd13ifvqgvg","pricing_plan_id":"cebpf4jnsgd1na2vs0mg"},{"bike_id":"f6477394-37ad-474b-869e-23ecf9fee49a","system_id":"levelo_inurba_marseille","lat":43.24191,"lon":5.39726,"is_reserved":false,"is_disabled":false,"rental_uris":{"android":"levelo://app?vid=f6477394-37ad-474b-869e-23ecf9fee49a","ios":"levelo://app?vid=f6477394-37ad-474b-869e-23ecf9fee49a"},"vehicle_type_id":"4","last_reported":1737382134,"current_range_meters":38800,"station_id":"ce4bhn12rcd13ifvqgpg","pricing_plan_id":"cebpf4jnsgd1na2vs0mg"},{"bike_id":"01e6e722-f692-47ad-9954-e66b12f335ac","system_id":"levelo_inurba_marseille","lat":43.2997,"lon":5.37176,"is_reserved":false,"is_disabled":false,"rental_uris":{"android":"levelo://app?vid=01e6e722-f692-47ad-9954-e66b12f335ac","ios":"levelo://app?vid=01e6e722-f692-47ad-9954-e66b12f335ac"},"vehicle_type_id":"4","last_reported":1737382134,"current_range_meters":16800,"station_id":"ce4bgr92rcd13ifvqc7g","pricing_plan_id":"cebpf4jnsgd1na2vs0mg"},{"bike_id":"7f095a12-4f92-4659-8967-ab82406b1c77","system_id":"levelo_inurba_marseille","lat":43.23179,"lon":5.39988,"is_reserved":false,"is_disabled":false,"rental_uris":{"android":"levelo://app?vid=7f095a12-4f92-4659-8967-ab82406b1c77","ios":"levelo://app?vid=7f095a12-4f92-4659-8967-ab82406b1c77"},"vehicle_type_id":"4","last_reported":1737382134,"current_range_meters":8400,"station_id":"ce4bhn12rcd13ifvqgqg","pricing_plan_id":"cebpf4jnsgd1na2vs0mg"},{"bike_id":"6fd85c9c-5cad-4352-a248-92582e23a8ce","system_id":"levelo_inurba_marseille","lat":43.29978,"lon":5.37161,"is_reserved":false,"is_disabled":false,"rental_uris":{"android":"levelo://app?vid=6fd85c9c-5cad-4352-a248-92582e23a8ce","ios":"levelo://app?vid=6fd85c9c-5cad-4352-a248-92582e23a8ce"},"vehicle_type_id":"4","last_reported":1737382134,"current_range_meters":39200,"station_id":"ce4bgr92rcd13ifvqc7g","pricing_plan_id":"cebpf4jnsgd1na2vs0mg"},{"bike_id":"5c355f1f-2346-434b-b0b1-1dbab4b16da7","system_id":"levelo_inurba_marseille","lat":43.30932,"lon":5.36846,"is_reserved":false,"is_disabled":false,"rental_uris":{"android":"levelo://app?vid=5c355f1f-2346-434b-b0b1-1dbab4b16da7","ios":"levelo://app?vid=5c355f1f-2346-434b-b0b1-1dbab4b16da7"},"vehicle_type_id":"4","last_reported":1737382134,"current_range_meters":38800,"station_id":"ce4bgn92rcd13ifvqbvg","pricing_plan_id":"cebpf4jnsgd1na2vs0mg"},{"bike_id":"32c787de-90a2-4b26-8e28-584af39ce073","system_id":"levelo_inurba_marseille","lat":43.24184,"lon":5.39714,"is_reserved":false,"is_disabled":false,"rental_uris":{"android":"levelo://app?vid=32c787de-90a2-4b26-8e28-584af39ce073","ios":"levelo://app?vid=32c787de-90a2-4b26-8e28-584af39ce073"},"vehicle_type_id":"4","last_reported":1737382134,"current_range_meters":28000,"station_id":"ce4bhn12rcd13ifvqgpg","pricing_plan_id":"cebpf4jnsgd1na2vs0mg"},{"bike_id":"1cde7a51-3b7c-4062-80e8-e4e198aaeeee","system_id":"levelo_inurba_marseille","lat":43.27933,"lon":5.37978,"is_reserved":false,"is_disabled":false,"rental_uris":{"android":"levelo://app?vid=1cde7a51-3b7c-4062-80e8-e4e198aaeeee","ios":"levelo://app?vid=1cde7a51-3b7c-4062-80e8-e4e198aaeeee"},"vehicle_type_id":"4","last_reported":1737382134,"current_range_meters":24400,"station_id":"ce4bhf92rcd13ifvqf50","pricing_plan_id":"cebpf4jnsgd1na2vs0mg"},{"bike_id":"ccc287db-5981-44b4-a1c6-016f633c7403","system_id":"levelo_inurba_marseille","lat":43.30954,"lon":5.4014,"is_reserved":false,"is_disabled":false,"rental_uris":{"android":"levelo://app?vid=ccc287db-5981-44b4-a1c6-016f633c7403","ios":"levelo://app?vid=ccc287db-5981-44b4-a1c6-016f633c7403"},"vehicle_type_id":"4","last_reported":1737382134,"current_range_meters":36800,"station_id":"ce4bgvp2rcd13ifvqct0","pricing_plan_id":"cebpf4jnsgd1na2vs0mg"},{"bike_id":"80bcc3e7-77de-44a5-8965-f19acb6d7452","system_id":"levelo_inurba_marseille","lat":43.33041,"lon":5.39053,"is_reserved":false,"is_disabled":false,"rental_uris":{"android":"levelo://app?vid=80bcc3e7-77de-44a5-8965-f19acb6d7452","ios":"levelo://app?vid=80bcc3e7-77de-44a5-8965-f19acb6d7452"},"vehicle_type_id":"4","last_reported":1737382134,"current_range_meters":38800,"station_id":"ce4bhr92rcd13ifvqhrg","pricing_plan_id":"cebpf4jnsgd1na2vs0mg"},{"bike_id":"a0236cea-e849-4bca-98c0-25af03f7105f","system_id":"levelo_inurba_marseille","lat":43.28267,"lon":5.35071,"is_reserved":false,"is_disabled":false,"rental_uris":{"android":"levelo://app?vid=a0236cea-e849-4bca-98c0-25af03f7105f","ios":"levelo://app?vid=a0236cea-e849-4bca-98c0-25af03f7105f"},"vehicle_type_id":"4","last_reported":1737382134,"current_range_meters":32000,"station_id":"ce4bhbp2rcd13ifvqerg","pricing_plan_id":"cebpf4jnsgd1na2vs0mg"},{"bike_id":"5c647c6a-f36f-4ac4-a081-cf09345ba7c6","system_id":"levelo_inurba_marseille","lat":43.25856,"lon":5.39894,"is_reserved":false,"is_disabled":false,"rental_uris":{"android":"levelo://app?vid=5c647c6a-f36f-4ac4-a081-cf09345ba7c6","ios":"levelo://app?vid=5c647c6a-f36f-4ac4-a081-cf09345ba7c6"},"vehicle_type_id":"4","last_reported":1737382134,"current_range_meters":20400,"station_id":"ce4bhl92rcd13ifvqghg","pricing_plan_id":"cebpf4jnsgd1na2vs0mg"},{"bike_id":"f0172799-105e-48fc-9d46-8f62723cda5b","system_id":"levelo_inurba_marseille","lat":43.27496,"lon":5.42448,"is_reserved":false,"is_disabled":false,"rental_uris":{"android":"levelo://app?vid=f0172799-105e-48fc-9d46-8f62723cda5b","ios":"levelo://app?vid=f0172799-105e-48fc-9d46-8f62723cda5b"},"vehicle_type_id":"4","last_reported":1737382134,"current_range_meters":9600,"station_id":"ce4bhn92rcd13ifvqgrg","pricing_plan_id":"cebpf4jnsgd1na2vs0mg"},{"bike_id":"0f9502e1-eaf5-4b8a-b146-cc2e05e77720","system_id":"levelo_inurba_marseille","lat":43.32373,"lon":5.38865,"is_reserved":false,"is_disabled":false,"rental_uris":{"android":"levelo://app?vid=0f9502e1-eaf5-4b8a-b146-cc2e05e77720","ios":"levelo://app?vid=0f9502e1-eaf5-4b8a-b146-cc2e05e77720"},"vehicle_type_id":"4","last_reported":1737382134,"current_range_meters":6000,"station_id":"ce4bhqp2rcd13ifvqhog","pricing_plan_id":"cebpf4jnsgd1na2vs0mg"},{"bike_id":"8240456e-c3b8-452e-82e7-b2e8848f8352","system_id":"levelo_inurba_marseille","lat":43.28443,"lon":5.39183,"is_reserved":false,"is_disabled":false,"rental_uris":{"android":"levelo://app?vid=8240456e-c3b8-452e-82e7-b2e8848f8352","ios":"levelo://app?vid=8240456e-c3b8-452e-82e7-b2e8848f8352"},"vehicle_type_id":"4","last_reported":1737382134,"current_range_meters":3600,"station_id":"ce4bhoh2rcd13ifvqh5g","pricing_plan_id":"cebpf4jnsgd1na2vs0mg"},{"bike_id":"30f156b8-7cc4-4167-b6e0-be274f83aa91","system_id":"levelo_inurba_marseille","lat":43.30465,"lon":5.37911,"is_reserved":false,"is_disabled":false,"rental_uris":{"android":"levelo://app?vid=30f156b8-7cc4-4167-b6e0-be274f83aa91","ios":"levelo://app?vid=30f156b8-7cc4-4167-b6e0-be274f83aa91"},"vehicle_type_id":"4","last_reported":1737382134,"current_range_meters":31200,"station_id":"ce4bgup2rcd13ifvqcn0","pricing_plan_id":"cebpf4jnsgd1na2vs0mg"},{"bike_id":"b887ec45-2824-4a19-a327-1b38cefbc7dc","system_id":"levelo_inurba_marseille","lat":43.30905,"lon":5.36822,"is_reserved":false,"is_disabled":false,"rental_uris":{"android":"levelo://app?vid=b887ec45-2824-4a19-a327-1b38cefbc7dc","ios":"levelo://app?vid=b887ec45-2824-4a19-a327-1b38cefbc7dc"},"vehicle_type_id":"4","last_reported":1737382134,"current_range_meters":34800,"station_id":"ce4bgn92rcd13ifvqbvg","pricing_plan_id":"cebpf4jnsgd1na2vs0mg"},{"bike_id":"e7118011-2d04-4b34-9604-f463992b4c02","system_id":"levelo_inurba_marseille","lat":43.24095,"lon":5.37745,"is_reserved":false,"is_disabled":false,"rental_uris":{"android":"levelo://app?vid=e7118011-2d04-4b34-9604-f463992b4c02","ios":"levelo://app?vid=e7118011-2d04-4b34-9604-f463992b4c02"},"vehicle_type_id":"4","last_reported":1737382134,"current_range_meters":38800,"station_id":"ce4bhnp2rcd13ifvqgvg","pricing_plan_id":"cebpf4jnsgd1na2vs0mg"},{"bike_id":"85655b39-a8c8-4bb4-8232-9473f0864aa0","system_id":"levelo_inurba_marseille","lat":43.29702,"lon":5.36607,"is_reserved":false,"is_disabled":false,"rental_uris":{"android":"levelo://app?vid=85655b39-a8c8-4bb4-8232-9473f0864aa0","ios":"levelo://app?vid=85655b39-a8c8-4bb4-8232-9473f0864aa0"},"vehicle_type_id":"4","last_reported":1737382134,"current_range_meters":38000,"station_id":"ce4bgn12rcd13ifvqbt0","pricing_plan_id":"cebpf4jnsgd1na2vs0mg"},{"bike_id":"38e44ef2-d206-4dcf-8e63-8c81d634ac75","system_id":"levelo_inurba_marseille","lat":43.29616,"lon":5.37716,"is_reserved":false,"is_disabled":false,"rental_uris":{"android":"levelo://app?vid=38e44ef2-d206-4dcf-8e63-8c81d634ac75","ios":"levelo://app?vid=38e44ef2-d206-4dcf-8e63-8c81d634ac75"},"vehicle_type_id":"4","last_reported":1737382134,"current_range_meters":10800,"station_id":"ce4bgi92rcd13ifvqb90","pricing_plan_id":"cebpf4jnsgd1na2vs0mg"},{"bike_id":"a22f1612-ca94-40d9-888d-00177fd410bc","system_id":"levelo_inurba_marseille","lat":43.29716,"lon":5.37696,"is_reserved":false,"is_disabled":false,"rental_uris":{"android":"levelo://app?vid=a22f1612-ca94-40d9-888d-00177fd410bc","ios":"levelo://app?vid=a22f1612-ca94-40d9-888d-00177fd410bc"},"vehicle_type_id":"4","last_reported":1737382134,"current_range_meters":38800,"station_id":"ce4bgkh2rcd13ifvqbl0","pricing_plan_id":"cebpf4jnsgd1na2vs0mg"},{"bike_id":"43ab6a6e-18b0-45a2-bdfd-26946078537a","system_id":"levelo_inurba_marseille","lat":43.25008,"lon":5.38889,"is_reserved":false,"is_disabled":false,"rental_uris":{"android":"levelo://app?vid=43ab6a6e-18b0-45a2-bdfd-26946078537a","ios":"levelo://app?vid=43ab6a6e-18b0-45a2-bdfd-26946078537a"},"vehicle_type_id":"4","last_reported":1737382134,"current_range_meters":37600,"station_id":"ce4bhgp2rcd13ifvqfd0","pricing_plan_id":"cebpf4jnsgd1na2vs0mg"},{"bike_id":"204709d2-202a-44aa-8b82-4261c4ea494c","system_id":"levelo_inurba_marseille","lat":43.31704,"lon":5.37731,"is_reserved":false,"is_disabled":false,"rental_uris":{"android":"levelo://app?vid=204709d2-202a-44aa-8b82-4261c4ea494c","ios":"levelo://app?vid=204709d2-202a-44aa-8b82-4261c4ea494c"},"vehicle_type_id":"4","last_reported":1737382134,"current_range_meters":25200,"station_id":"ce4bgth2rcd13ifvqch0","pricing_plan_id":"cebpf4jnsgd1na2vs0mg"},{"bike_id":"bae3bf97-853b-49ad-a38b-84f10e11ed28","system_id":"levelo_inurba_marseille","lat":43.29064,"lon":5.39992,"is_reserved":false,"is_disabled":false,"rental_uris":{"android":"levelo://app?vid=bae3bf97-853b-49ad-a38b-84f10e11ed28","ios":"levelo://app?vid=bae3bf97-853b-49ad-a38b-84f10e11ed28"},"vehicle_type_id":"4","last_reported":1737382134,"current_range_meters":9600,"station_id":"ce4bh392rcd13ifvqdm0","pricing_plan_id":"cebpf4jnsgd1na2vs0mg"},{"bike_id":"ee7a45fd-c98e-4863-8451-a3a9a092d7d6","system_id":"levelo_inurba_marseille","lat":43.29538,"lon":5.375,"is_reserved":false,"is_disabled":false,"rental_uris":{"android":"levelo://app?vid=ee7a45fd-c98e-4863-8451-a3a9a092d7d6","ios":"levelo://app?vid=ee7a45fd-c98e-4863-8451-a3a9a092d7d6"},"vehicle_type_id":"4","last_reported":1737382134,"current_range_meters":23200,"station_id":"ce4bgkp2rcd13ifvqbmg","pricing_plan_id":"cebpf4jnsgd1na2vs0mg"},{"bike_id":"de1a1fd3-f285-46b1-81f7-15c98f26fab3","system_id":"levelo_inurba_marseille","lat":43.29224,"lon":5.36053,"is_reserved":false,"is_disabled":true,"rental_uris":{"android":"levelo://app?vid=de1a1fd3-f285-46b1-81f7-15c98f26fab3","ios":"levelo://app?vid=de1a1fd3-f285-46b1-81f7-15c98f26fab3"},"vehicle_type_id":"4","last_reported":1737382134,"current_range_meters":0,"station_id":"ce4bhbh2rcd13ifvqeqg","pricing_plan_id":"cebpf4jnsgd1na2vs0mg"},{"bike_id":"de5adbf7-c4d4-49e3-ba68-72cc812f5662","system_id":"levelo_inurba_marseille","lat":43.29606,"lon":5.37711,"is_reserved":false,"is_disabled":true,"rental_uris":{"android":"levelo://app?vid=de5adbf7-c4d4-49e3-ba68-72cc812f5662","ios":"levelo://app?vid=de5adbf7-c4d4-49e3-ba68-72cc812f5662"},"vehicle_type_id":"4","last_reported":1737382134,"current_range_meters":38800,"station_id":"ce4bgi92rcd13ifvqb90","pricing_plan_id":"cebpf4jnsgd1na2vs0mg"},{"bike_id":"f50c355d-0a75-47b0-b4cf-cd0ad431856e","system_id":"levelo_inurba_marseille","lat":43.30156,"lon":5.38085,"is_reserved":false,"is_disabled":false,"rental_uris":{"android":"levelo://app?vid=f50c355d-0a75-47b0-b4cf-cd0ad431856e","ios":"levelo://app?vid=f50c355d-0a75-47b0-b4cf-cd0ad431856e"},"vehicle_type_id":"4","last_reported":1737382134,"current_range_meters":38400,"station_id":"ce4bgjp2rcd13ifvqbh0","pricing_plan_id":"cebpf4jnsgd1na2vs0mg"},{"bike_id":"2ab4c899-df3c-4ed8-992f-68390121015a","system_id":"levelo_inurba_marseille","lat":43.27179,"lon":5.40991,"is_reserved":false,"is_disabled":false,"rental_uris":{"android":"levelo://app?vid=2ab4c899-df3c-4ed8-992f-68390121015a","ios":"levelo://app?vid=2ab4c899-df3c-4ed8-992f-68390121015a"},"vehicle_type_id":"4","last_reported":1737382134,"current_range_meters":7200,"station_id":"ce4bhl12rcd13ifvqgf0","pricing_plan_id":"cebpf4jnsgd1na2vs0mg"},{"bike_id":"b5c7c556-4380-4b0b-9ac9-b912d1911894","system_id":"levelo_inurba_marseille","lat":43.30305,"lon":5.37716,"is_reserved":false,"is_disabled":false,"rental_uris":{"android":"levelo://app?vid=b5c7c556-4380-4b0b-9ac9-b912d1911894","ios":"levelo://app?vid=b5c7c556-4380-4b0b-9ac9-b912d1911894"},"vehicle_type_id":"4","last_reported":1737382134,"current_range_meters":38000,"station_id":"ce4bguh2rcd13ifvqcj0","pricing_plan_id":"cebpf4jnsgd1na2vs0mg"},{"bike_id":"3f7438ea-a3cd-44dc-9aab-ffb58f912c10","system_id":"levelo_inurba_marseille","lat":43.28738,"lon":5.37945,"is_reserved":false,"is_disabled":false,"rental_uris":{"android":"levelo://app?vid=3f7438ea-a3cd-44dc-9aab-ffb58f912c10","ios":"levelo://app?vid=3f7438ea-a3cd-44dc-9aab-ffb58f912c10"},"vehicle_type_id":"4","last_reported":1737382134,"current_range_meters":38800,"station_id":"ce4bh9p2rcd13ifvqec0","pricing_plan_id":"cebpf4jnsgd1na2vs0mg"},{"bike_id":"413eeca7-cdd9-47eb-95ba-ef7876bf4782","system_id":"levelo_inurba_marseille","lat":43.30888,"lon":5.37179,"is_reserved":false,"is_disabled":false,"rental_uris":{"android":"levelo://app?vid=413eeca7-cdd9-47eb-95ba-ef7876bf4782","ios":"levelo://app?vid=413eeca7-cdd9-47eb-95ba-ef7876bf4782"},"vehicle_type_id":"4","last_reported":1737382134,"current_range_meters":31200,"station_id":"ce4bguh2rcd13ifvqckg","pricing_plan_id":"cebpf4jnsgd1na2vs0mg"},{"bike_id":"0e91b70c-1e42-4d65-a90a-72cbd40954b0","system_id":"levelo_inurba_marseille","lat":43.32373,"lon":5.36747,"is_reserved":false,"is_disabled":false,"rental_uris":{"android":"levelo://app?vid=0e91b70c-1e42-4d65-a90a-72cbd40954b0","ios":"levelo://app?vid=0e91b70c-1e42-4d65-a90a-72cbd40954b0"},"vehicle_type_id":"4","last_reported":1737382134,"current_range_meters":37600,"station_id":"ce4bhsh2rcd13ifvqi2g","pricing_plan_id":"cebpf4jnsgd1na2vs0mg"},{"bike_id":"809cb738-c150-49d8-8dbb-7ac1d2ee4312","system_id":"levelo_inurba_marseille","lat":43.30192,"lon":5.36635,"is_reserved":false,"is_disabled":false,"rental_uris":{"android":"levelo://app?vid=809cb738-c150-49d8-8dbb-7ac1d2ee4312","ios":"levelo://app?vid=809cb738-c150-49d8-8dbb-7ac1d2ee4312"},"vehicle_type_id":"4","last_reported":1737382134,"current_range_meters":38800,"station_id":"ce4bgrh2rcd13ifvqc8g","pricing_plan_id":"cebpf4jnsgd1na2vs0mg"},{"bike_id":"1b8f9de1-f115-4d0c-84a2-5367753ca9a1","system_id":"levelo_inurba_marseille","lat":43.29447,"lon":5.39753,"is_reserved":false,"is_disabled":false,"rental_uris":{"android":"levelo://app?vid=1b8f9de1-f115-4d0c-84a2-5367753ca9a1","ios":"levelo://app?vid=1b8f9de1-f115-4d0c-84a2-5367753ca9a1"},"vehicle_type_id":"4","last_reported":1737382134,"current_range_meters":32000,"station_id":"ce4bh3h2rcd13ifvqdo0","pricing_plan_id":"cebpf4jnsgd1na2vs0mg"},{"bike_id":"2748c202-e216-4664-aaa1-c6bf3cd339cd","system_id":"levelo_inurba_marseille","lat":43.30122,"lon":5.39857,"is_reserved":false,"is_disabled":false,"rental_uris":{"android":"levelo://app?vid=2748c202-e216-4664-aaa1-c6bf3cd339cd","ios":"levelo://app?vid=2748c202-e216-4664-aaa1-c6bf3cd339cd"},"vehicle_type_id":"4","last_reported":1737382134,"current_range_meters":15200,"station_id":"ce4bh0h2rcd13ifvqd40","pricing_plan_id":"cebpf4jnsgd1na2vs0mg"},{"bike_id":"a3a88281-9ad8-4451-a225-7a4c052d342b","system_id":"levelo_inurba_marseille","lat":43.30141,"lon":5.37419,"is_reserved":false,"is_disabled":false,"rental_uris":{"android":"levelo://app?vid=a3a88281-9ad8-4451-a225-7a4c052d342b","ios":"levelo://app?vid=a3a88281-9ad8-4451-a225-7a4c052d342b"},"vehicle_type_id":"4","last_reported":1737382134,"current_range_meters":28000,"station_id":"ce4bgs92rcd13ifvqcc0","pricing_plan_id":"cebpf4jnsgd1na2vs0mg"},{"bike_id":"da3a7eb9-5fa6-49b3-9e5b-6452969eedf1","system_id":"levelo_inurba_marseille","lat":43.24395,"lon":5.37061,"is_reserved":false,"is_disabled":true,"rental_uris":{"android":"levelo://app?vid=da3a7eb9-5fa6-49b3-9e5b-6452969eedf1","ios":"levelo://app?vid=da3a7eb9-5fa6-49b3-9e5b-6452969eedf1"},"vehicle_type_id":"4","last_reported":1737382134,"current_range_meters":24400,"station_id":"ce4bhhh2rcd13ifvqfk0","pricing_plan_id":"cebpf4jnsgd1na2vs0mg"},{"bike_id":"46fff60c-da93-4e15-9cbf-bedd254fc83d","system_id":"levelo_inurba_marseille","lat":43.22928,"lon":5.35376,"is_reserved":false,"is_disabled":false,"rental_uris":{"android":"levelo://app?vid=46fff60c-da93-4e15-9cbf-bedd254fc83d","ios":"levelo://app?vid=46fff60c-da93-4e15-9cbf-bedd254fc83d"},"vehicle_type_id":"4","last_reported":1737382134,"current_range_meters":19200,"station_id":"cpo3532slgdg3j2ikp40","pricing_plan_id":"cebpf4jnsgd1na2vs0mg"},{"bike_id":"201184dd-de12-42f6-b9a8-f94cf04ddff5","system_id":"levelo_inurba_marseille","lat":43.31279,"lon":5.40174,"is_reserved":false,"is_disabled":false,"rental_uris":{"android":"levelo://app?vid=201184dd-de12-42f6-b9a8-f94cf04ddff5","ios":"levelo://app?vid=201184dd-de12-42f6-b9a8-f94cf04ddff5"},"vehicle_type_id":"4","last_reported":1737382134,"current_range_meters":33600,"station_id":"ce4bh092rcd13ifvqd30","pricing_plan_id":"cebpf4jnsgd1na2vs0mg"},{"bike_id":"13161d3a-307a-48ca-b31a-92af8b5dc89d","system_id":"levelo_inurba_marseille","lat":43.24074,"lon":5.37759,"is_reserved":false,"is_disabled":false,"rental_uris":{"android":"levelo://app?vid=13161d3a-307a-48ca-b31a-92af8b5dc89d","ios":"levelo://app?vid=13161d3a-307a-48ca-b31a-92af8b5dc89d"},"vehicle_type_id":"4","last_reported":1737382134,"current_range_meters":30400,"station_id":"ce4bhnp2rcd13ifvqgvg","pricing_plan_id":"cebpf4jnsgd1na2vs0mg"},{"bike_id":"4237003f-139f-4045-9ac4-cad8fa734532","system_id":"levelo_inurba_marseille","lat":43.27985,"lon":5.41663,"is_reserved":false,"is_disabled":false,"rental_uris":{"android":"levelo://app?vid=4237003f-139f-4045-9ac4-cad8fa734532","ios":"levelo://app?vid=4237003f-139f-4045-9ac4-cad8fa734532"},"vehicle_type_id":"4","last_reported":1737382134,"current_range_meters":31200,"station_id":"ce4bho12rcd13ifvqh1g","pricing_plan_id":"cebpf4jnsgd1na2vs0mg"},{"bike_id":"06815d35-757d-4280-814a-8dba22433ced","system_id":"levelo_inurba_marseille","lat":43.2708,"lon":5.42263,"is_reserved":false,"is_disabled":false,"rental_uris":{"android":"levelo://app?vid=06815d35-757d-4280-814a-8dba22433ced","ios":"levelo://app?vid=06815d35-757d-4280-814a-8dba22433ced"},"vehicle_type_id":"4","last_reported":1737382134,"current_range_meters":36800,"station_id":"ce4bhk92rcd13ifvqgb0","pricing_plan_id":"cebpf4jnsgd1na2vs0mg"},{"bike_id":"5b803ccc-6fa0-4438-84e0-0db3cb044978","system_id":"levelo_inurba_marseille","lat":43.2952,"lon":5.37506,"is_reserved":false,"is_disabled":false,"rental_uris":{"android":"levelo://app?vid=5b803ccc-6fa0-4438-84e0-0db3cb044978","ios":"levelo://app?vid=5b803ccc-6fa0-4438-84e0-0db3cb044978"},"vehicle_type_id":"4","last_reported":1737382134,"current_range_meters":24400,"station_id":"ce4bgkp2rcd13ifvqbmg","pricing_plan_id":"cebpf4jnsgd1na2vs0mg"},{"bike_id":"4b88b371-38a3-443d-96cf-2b99cc4f3954","system_id":"levelo_inurba_marseille","lat":43.29694,"lon":5.37701,"is_reserved":false,"is_disabled":true,"rental_uris":{"android":"levelo://app?vid=4b88b371-38a3-443d-96cf-2b99cc4f3954","ios":"levelo://app?vid=4b88b371-38a3-443d-96cf-2b99cc4f3954"},"vehicle_type_id":"4","last_reported":1737382134,"current_range_meters":0,"station_id":"ce4bgkh2rcd13ifvqbl0","pricing_plan_id":"cebpf4jnsgd1na2vs0mg"},{"bike_id":"7a956b0b-b8f6-4389-bb50-97bccab2a50c","system_id":"levelo_inurba_marseille","lat":43.25939,"lon":5.40886,"is_reserved":false,"is_disabled":false,"rental_uris":{"android":"levelo://app?vid=7a956b0b-b8f6-4389-bb50-97bccab2a50c","ios":"levelo://app?vid=7a956b0b-b8f6-4389-bb50-97bccab2a50c"},"vehicle_type_id":"4","last_reported":1737382134,"current_range_meters":38800,"station_id":"ce4bhm92rcd13ifvqglg","pricing_plan_id":"cebpf4jnsgd1na2vs0mg"},{"bike_id":"bf965889-8479-49f1-a05f-1a9c2813d841","system_id":"levelo_inurba_marseille","lat":43.27909,"lon":5.37992,"is_reserved":false,"is_disabled":false,"rental_uris":{"android":"levelo://app?vid=bf965889-8479-49f1-a05f-1a9c2813d841","ios":"levelo://app?vid=bf965889-8479-49f1-a05f-1a9c2813d841"},"vehicle_type_id":"4","last_reported":1737382134,"current_range_meters":35600,"station_id":"ce4bhf92rcd13ifvqf50","pricing_plan_id":"cebpf4jnsgd1na2vs0mg"},{"bike_id":"a80b852c-67f7-4f92-bf4d-54e70b44a4b9","system_id":"levelo_inurba_marseille","lat":43.29859,"lon":5.36258,"is_reserved":false,"is_disabled":false,"rental_uris":{"android":"levelo://app?vid=a80b852c-67f7-4f92-bf4d-54e70b44a4b9","ios":"levelo://app?vid=a80b852c-67f7-4f92-bf4d-54e70b44a4b9"},"vehicle_type_id":"4","last_reported":1737382134,"current_range_meters":38800,"station_id":"ce4bgpp2rcd13ifvqc3g","pricing_plan_id":"cebpf4jnsgd1na2vs0mg"},{"bike_id":"e6756df9-0434-4060-9b7a-23ac21659d75","system_id":"levelo_inurba_marseille","lat":43.29444,"lon":5.38636,"is_reserved":false,"is_disabled":false,"rental_uris":{"android":"levelo://app?vid=e6756df9-0434-4060-9b7a-23ac21659d75","ios":"levelo://app?vid=e6756df9-0434-4060-9b7a-23ac21659d75"},"vehicle_type_id":"4","last_reported":1737382134,"current_range_meters":39200,"station_id":"ce4bh2h2rcd13ifvqdh0","pricing_plan_id":"cebpf4jnsgd1na2vs0mg"},{"bike_id":"1fff2a9f-023a-43ec-bd02-633596668a23","system_id":"levelo_inurba_marseille","lat":43.29621,"lon":5.37156,"is_reserved":false,"is_disabled":false,"rental_uris":{"android":"levelo://app?vid=1fff2a9f-023a-43ec-bd02-633596668a23","ios":"levelo://app?vid=1fff2a9f-023a-43ec-bd02-633596668a23"},"vehicle_type_id":"4","last_reported":1737382134,"current_range_meters":38800,"station_id":"ce4bgnh2rcd13ifvqc0g","pricing_plan_id":"cebpf4jnsgd1na2vs0mg"},{"bike_id":"75a97f11-45a3-43f9-869a-6179356807eb","system_id":"levelo_inurba_marseille","lat":43.30463,"lon":5.37911,"is_reserved":false,"is_disabled":false,"rental_uris":{"android":"levelo://app?vid=75a97f11-45a3-43f9-869a-6179356807eb","ios":"levelo://app?vid=75a97f11-45a3-43f9-869a-6179356807eb"},"vehicle_type_id":"4","last_reported":1737382134,"current_range_meters":28000,"station_id":"ce4bgup2rcd13ifvqcn0","pricing_plan_id":"cebpf4jnsgd1na2vs0mg"},{"bike_id":"caec49c2-334a-4285-be8f-474f16339db8","system_id":"levelo_inurba_marseille","lat":43.2942,"lon":5.38626,"is_reserved":false,"is_disabled":false,"rental_uris":{"android":"levelo://app?vid=caec49c2-334a-4285-be8f-474f16339db8","ios":"levelo://app?vid=caec49c2-334a-4285-be8f-474f16339db8"},"vehicle_type_id":"4","last_reported":1737382134,"current_range_meters":26000,"station_id":"ce4bh2h2rcd13ifvqdh0","pricing_plan_id":"cebpf4jnsgd1na2vs0mg"},{"bike_id":"bd829f17-878a-44a0-9d05-08cf1ff995f3","system_id":"levelo_inurba_marseille","lat":43.26927,"lon":5.38915,"is_reserved":false,"is_disabled":false,"rental_uris":{"android":"levelo://app?vid=bd829f17-878a-44a0-9d05-08cf1ff995f3","ios":"levelo://app?vid=bd829f17-878a-44a0-9d05-08cf1ff995f3"},"vehicle_type_id":"4","last_reported":1737382134,"current_range_meters":38800,"station_id":"ce4bhhh2rcd13ifvqfl0","pricing_plan_id":"cebpf4jnsgd1na2vs0mg"},{"bike_id":"cd476ed1-671d-4a33-9bc1-19349c13a4b2","system_id":"levelo_inurba_marseille","lat":43.2848,"lon":5.38411,"is_reserved":false,"is_disabled":false,"rental_uris":{"android":"levelo://app?vid=cd476ed1-671d-4a33-9bc1-19349c13a4b2","ios":"levelo://app?vid=cd476ed1-671d-4a33-9bc1-19349c13a4b2"},"vehicle_type_id":"4","last_reported":1737382134,"current_range_meters":29600,"station_id":"ce4bh512rcd13ifvqe3g","pricing_plan_id":"cebpf4jnsgd1na2vs0mg"},{"bike_id":"e274159c-9d85-4e90-b9c4-fcc879511945","system_id":"levelo_inurba_marseille","lat":43.33036,"lon":5.3904,"is_reserved":false,"is_disabled":true,"rental_uris":{"android":"levelo://app?vid=e274159c-9d85-4e90-b9c4-fcc879511945","ios":"levelo://app?vid=e274159c-9d85-4e90-b9c4-fcc879511945"},"vehicle_type_id":"4","last_reported":1737382134,"current_range_meters":1200,"station_id":"ce4bhr92rcd13ifvqhrg","pricing_plan_id":"cebpf4jnsgd1na2vs0mg"},{"bike_id":"f2390374-e060-4fe1-bcfa-cb2711193e58","system_id":"levelo_inurba_marseille","lat":43.25089,"lon":5.39514,"is_reserved":false,"is_disabled":false,"rental_uris":{"android":"levelo://app?vid=f2390374-e060-4fe1-bcfa-cb2711193e58","ios":"levelo://app?vid=f2390374-e060-4fe1-bcfa-cb2711193e58"},"vehicle_type_id":"4","last_reported":1737382134,"current_range_meters":35200,"station_id":"ce4bhm12rcd13ifvqgkg","pricing_plan_id":"cebpf4jnsgd1na2vs0mg"},{"bike_id":"0f8104d8-ae0e-40b2-9d64-c24deeb12b25","system_id":"levelo_inurba_marseille","lat":43.306687,"lon":5.369327,"is_reserved":false,"is_disabled":false,"rental_uris":{"android":"levelo://app?vid=0f8104d8-ae0e-40b2-9d64-c24deeb12b25","ios":"levelo://app?vid=0f8104d8-ae0e-40b2-9d64-c24deeb12b25"},"vehicle_type_id":"4","last_reported":1737382134,"current_range_meters":24400,"station_id":"","pricing_plan_id":"cebpf4jnsgd1na2vs0mg"},{"bike_id":"20f733ae-113c-4eab-ba08-ca2ca0212d4c","system_id":"levelo_inurba_marseille","lat":43.30455,"lon":5.37898,"is_reserved":false,"is_disabled":false,"rental_uris":{"android":"levelo://app?vid=20f733ae-113c-4eab-ba08-ca2ca0212d4c","ios":"levelo://app?vid=20f733ae-113c-4eab-ba08-ca2ca0212d4c"},"vehicle_type_id":"4","last_reported":1737382134,"current_range_meters":27600,"station_id":"ce4bgup2rcd13ifvqcn0","pricing_plan_id":"cebpf4jnsgd1na2vs0mg"},{"bike_id":"6fa96e81-a119-436e-b985-1cf31a85cc4c","system_id":"levelo_inurba_marseille","lat":43.279083,"lon":5.380143,"is_reserved":false,"is_disabled":false,"rental_uris":{"android":"levelo://app?vid=6fa96e81-a119-436e-b985-1cf31a85cc4c","ios":"levelo://app?vid=6fa96e81-a119-436e-b985-1cf31a85cc4c"},"vehicle_type_id":"4","last_reported":1737382134,"current_range_meters":20000,"station_id":"ce4bhf92rcd13ifvqf50","pricing_plan_id":"cebpf4jnsgd1na2vs0mg"},{"bike_id":"619ddafa-a1a5-46f2-86c1-4718267ebd16","system_id":"levelo_inurba_marseille","lat":43.3022,"lon":5.3947,"is_reserved":false,"is_disabled":false,"rental_uris":{"android":"levelo://app?vid=619ddafa-a1a5-46f2-86c1-4718267ebd16","ios":"levelo://app?vid=619ddafa-a1a5-46f2-86c1-4718267ebd16"},"vehicle_type_id":"4","last_reported":1737382134,"current_range_meters":23200,"station_id":"ce4bh0p2rcd13ifvqd70","pricing_plan_id":"cebpf4jnsgd1na2vs0mg"},{"bike_id":"e768d22a-471b-44a7-9c0b-92942b2bfa50","system_id":"levelo_inurba_marseille","lat":43.24399,"lon":5.37056,"is_reserved":false,"is_disabled":false,"rental_uris":{"android":"levelo://app?vid=e768d22a-471b-44a7-9c0b-92942b2bfa50","ios":"levelo://app?vid=e768d22a-471b-44a7-9c0b-92942b2bfa50"},"vehicle_type_id":"4","last_reported":1737382134,"current_range_meters":28000,"station_id":"ce4bhhh2rcd13ifvqfk0","pricing_plan_id":"cebpf4jnsgd1na2vs0mg"},{"bike_id":"29709dd5-89d5-4afa-843d-98e99f944858","system_id":"levelo_inurba_marseille","lat":43.29984,"lon":5.37179,"is_reserved":false,"is_disabled":false,"rental_uris":{"android":"levelo://app?vid=29709dd5-89d5-4afa-843d-98e99f944858","ios":"levelo://app?vid=29709dd5-89d5-4afa-843d-98e99f944858"},"vehicle_type_id":"4","last_reported":1737382134,"current_range_meters":38800,"station_id":"ce4bgr92rcd13ifvqc7g","pricing_plan_id":"cebpf4jnsgd1na2vs0mg"},{"bike_id":"428faabc-ce64-4181-8395-0edb69b9e20d","system_id":"levelo_inurba_marseille","lat":43.306,"lon":5.36733,"is_reserved":false,"is_disabled":false,"rental_uris":{"android":"levelo://app?vid=428faabc-ce64-4181-8395-0edb69b9e20d","ios":"levelo://app?vid=428faabc-ce64-4181-8395-0edb69b9e20d"},"vehicle_type_id":"4","last_reported":1737382134,"current_range_meters":38800,"station_id":"ce4bgrp2rcd13ifvqc9g","pricing_plan_id":"cebpf4jnsgd1na2vs0mg"},{"bike_id":"432dd31d-cc41-4b41-a4f4-a795e2e3aa37","system_id":"levelo_inurba_marseille","lat":43.29806,"lon":5.38068,"is_reserved":false,"is_disabled":false,"rental_uris":{"android":"levelo://app?vid=432dd31d-cc41-4b41-a4f4-a795e2e3aa37","ios":"levelo://app?vid=432dd31d-cc41-4b41-a4f4-a795e2e3aa37"},"vehicle_type_id":"4","last_reported":1737382134,"current_range_meters":32800,"station_id":"ce4bgip2rcd13ifvqbb0","pricing_plan_id":"cebpf4jnsgd1na2vs0mg"},{"bike_id":"5e339aa2-ed7e-44c6-9974-2fdc1901c1ee","system_id":"levelo_inurba_marseille","lat":43.31769,"lon":5.39021,"is_reserved":false,"is_disabled":false,"rental_uris":{"android":"levelo://app?vid=5e339aa2-ed7e-44c6-9974-2fdc1901c1ee","ios":"levelo://app?vid=5e339aa2-ed7e-44c6-9974-2fdc1901c1ee"},"vehicle_type_id":"4","last_reported":1737382134,"current_range_meters":10800,"station_id":"ce4bhqp2rcd13ifvqhng","pricing_plan_id":"cebpf4jnsgd1na2vs0mg"},{"bike_id":"934f5896-b057-4efb-9f42-e7f88173ac1d","system_id":"levelo_inurba_marseille","lat":43.27321,"lon":5.39082,"is_reserved":false,"is_disabled":false,"rental_uris":{"android":"levelo://app?vid=934f5896-b057-4efb-9f42-e7f88173ac1d","ios":"levelo://app?vid=934f5896-b057-4efb-9f42-e7f88173ac1d"},"vehicle_type_id":"4","last_reported":1737382134,"current_range_meters":36400,"station_id":"ce4bhgp2rcd13ifvqfe0","pricing_plan_id":"cebpf4jnsgd1na2vs0mg"},{"bike_id":"36b02f5b-366d-4c8d-ac75-9c5f7c4d6ba1","system_id":"levelo_inurba_marseille","lat":43.31286,"lon":5.40172,"is_reserved":false,"is_disabled":false,"rental_uris":{"android":"levelo://app?vid=36b02f5b-366d-4c8d-ac75-9c5f7c4d6ba1","ios":"levelo://app?vid=36b02f5b-366d-4c8d-ac75-9c5f7c4d6ba1"},"vehicle_type_id":"4","last_reported":1737382134,"current_range_meters":25200,"station_id":"ce4bh092rcd13ifvqd30","pricing_plan_id":"cebpf4jnsgd1na2vs0mg"},{"bike_id":"0e37a4bd-7850-41b7-91e1-556e8b5c7017","system_id":"levelo_inurba_marseille","lat":43.28178,"lon":5.42649,"is_reserved":false,"is_disabled":false,"rental_uris":{"android":"levelo://app?vid=0e37a4bd-7850-41b7-91e1-556e8b5c7017","ios":"levelo://app?vid=0e37a4bd-7850-41b7-91e1-556e8b5c7017"},"vehicle_type_id":"4","last_reported":1737382134,"current_range_meters":29600,"station_id":"ce4bhnh2rcd13ifvqgug","pricing_plan_id":"cebpf4jnsgd1na2vs0mg"},{"bike_id":"4ad51266-48e4-4d1b-8631-93a7a7c83fc9","system_id":"levelo_inurba_marseille","lat":43.30198,"lon":5.39465,"is_reserved":false,"is_disabled":false,"rental_uris":{"android":"levelo://app?vid=4ad51266-48e4-4d1b-8631-93a7a7c83fc9","ios":"levelo://app?vid=4ad51266-48e4-4d1b-8631-93a7a7c83fc9"},"vehicle_type_id":"4","last_reported":1737382134,"current_range_meters":12400,"station_id":"ce4bh0p2rcd13ifvqd70","pricing_plan_id":"cebpf4jnsgd1na2vs0mg"},{"bike_id":"726d19e3-8e15-462e-b816-e1720b7842d5","system_id":"levelo_inurba_marseille","lat":43.26886,"lon":5.39445,"is_reserved":false,"is_disabled":false,"rental_uris":{"android":"levelo://app?vid=726d19e3-8e15-462e-b816-e1720b7842d5","ios":"levelo://app?vid=726d19e3-8e15-462e-b816-e1720b7842d5"},"vehicle_type_id":"4","last_reported":1737382134,"current_range_meters":37600,"station_id":"ce4bhh12rcd13ifvqfg0","pricing_plan_id":"cebpf4jnsgd1na2vs0mg"},{"bike_id":"0fb4a906-1210-425c-8246-71b92a62dd57","system_id":"levelo_inurba_marseille","lat":43.32539,"lon":5.41452,"is_reserved":false,"is_disabled":false,"rental_uris":{"android":"levelo://app?vid=0fb4a906-1210-425c-8246-71b92a62dd57","ios":"levelo://app?vid=0fb4a906-1210-425c-8246-71b92a62dd57"},"vehicle_type_id":"4","last_reported":1737382134,"current_range_meters":35200,"station_id":"ce4bhq12rcd13ifvqhhg","pricing_plan_id":"cebpf4jnsgd1na2vs0mg"},{"bike_id":"5957b55c-bbf3-4d79-a9fa-182e34bda710","system_id":"levelo_inurba_marseille","lat":43.26692,"lon":5.40278,"is_reserved":false,"is_disabled":false,"rental_uris":{"android":"levelo://app?vid=5957b55c-bbf3-4d79-a9fa-182e34bda710","ios":"levelo://app?vid=5957b55c-bbf3-4d79-a9fa-182e34bda710"},"vehicle_type_id":"4","last_reported":1737382134,"current_range_meters":10000,"station_id":"","pricing_plan_id":"cebpf4jnsgd1na2vs0mg"},{"bike_id":"85ecc783-1dcd-4d7b-9945-51ef75ced28d","system_id":"levelo_inurba_marseille","lat":43.30242,"lon":5.36933,"is_reserved":false,"is_disabled":false,"rental_uris":{"android":"levelo://app?vid=85ecc783-1dcd-4d7b-9945-51ef75ced28d","ios":"levelo://app?vid=85ecc783-1dcd-4d7b-9945-51ef75ced28d"},"vehicle_type_id":"4","last_reported":1737382134,"current_range_meters":12400,"station_id":"ce4bgqh2rcd13ifvqc5g","pricing_plan_id":"cebpf4jnsgd1na2vs0mg"},{"bike_id":"f9b8259b-d590-4eb6-9928-0aa21c2990b1","system_id":"levelo_inurba_marseille","lat":43.280763,"lon":5.396534,"is_reserved":false,"is_disabled":false,"rental_uris":{"android":"levelo://app?vid=f9b8259b-d590-4eb6-9928-0aa21c2990b1","ios":"levelo://app?vid=f9b8259b-d590-4eb6-9928-0aa21c2990b1"},"vehicle_type_id":"4","last_reported":1737382134,"current_range_meters":20800,"station_id":"ce4bho12rcd13ifvqh2g","pricing_plan_id":"cebpf4jnsgd1na2vs0mg"},{"bike_id":"668f9767-c78d-438a-96bb-c0760f782967","system_id":"levelo_inurba_marseille","lat":43.26218,"lon":5.3792,"is_reserved":false,"is_disabled":false,"rental_uris":{"android":"levelo://app?vid=668f9767-c78d-438a-96bb-c0760f782967","ios":"levelo://app?vid=668f9767-c78d-438a-96bb-c0760f782967"},"vehicle_type_id":"4","last_reported":1737382134,"current_range_meters":32000,"station_id":"ce4bhjp2rcd13ifvqg90","pricing_plan_id":"cebpf4jnsgd1na2vs0mg"},{"bike_id":"b4fa5c01-cecc-49e4-9482-65309291a760","system_id":"levelo_inurba_marseille","lat":43.24995,"lon":5.38943,"is_reserved":false,"is_disabled":false,"rental_uris":{"android":"levelo://app?vid=b4fa5c01-cecc-49e4-9482-65309291a760","ios":"levelo://app?vid=b4fa5c01-cecc-49e4-9482-65309291a760"},"vehicle_type_id":"4","last_reported":1737382134,"current_range_meters":32800,"station_id":"ce4bhgp2rcd13ifvqfd0","pricing_plan_id":"cebpf4jnsgd1na2vs0mg"},{"bike_id":"508fb08a-89ba-4f4d-a1a9-980afbb62692","system_id":"levelo_inurba_marseille","lat":43.29269,"lon":5.36846,"is_reserved":false,"is_disabled":false,"rental_uris":{"android":"levelo://app?vid=508fb08a-89ba-4f4d-a1a9-980afbb62692","ios":"levelo://app?vid=508fb08a-89ba-4f4d-a1a9-980afbb62692"},"vehicle_type_id":"4","last_reported":1737382134,"current_range_meters":36400,"station_id":"ce4bhbp2rcd13ifvqesg","pricing_plan_id":"cebpf4jnsgd1na2vs0mg"},{"bike_id":"4f40d972-06fd-42b6-87d8-47b7f66628c5","system_id":"levelo_inurba_marseille","lat":43.23986,"lon":5.36616,"is_reserved":false,"is_disabled":false,"rental_uris":{"android":"levelo://app?vid=4f40d972-06fd-42b6-87d8-47b7f66628c5","ios":"levelo://app?vid=4f40d972-06fd-42b6-87d8-47b7f66628c5"},"vehicle_type_id":"4","last_reported":1737382134,"current_range_meters":6400,"station_id":"ce4bhi12rcd13ifvqfp0","pricing_plan_id":"cebpf4jnsgd1na2vs0mg"},{"bike_id":"55ffbcd1-eef7-48c6-8e1e-15dc3a2da4c1","system_id":"levelo_inurba_marseille","lat":43.28162,"lon":5.42633,"is_reserved":false,"is_disabled":false,"rental_uris":{"android":"levelo://app?vid=55ffbcd1-eef7-48c6-8e1e-15dc3a2da4c1","ios":"levelo://app?vid=55ffbcd1-eef7-48c6-8e1e-15dc3a2da4c1"},"vehicle_type_id":"4","last_reported":1737382134,"current_range_meters":26000,"station_id":"ce4bhnh2rcd13ifvqgug","pricing_plan_id":"cebpf4jnsgd1na2vs0mg"},{"bike_id":"c95773ea-3deb-4fd7-a02c-5d580aadf1b9","system_id":"levelo_inurba_marseille","lat":43.29323,"lon":5.3715,"is_reserved":false,"is_disabled":false,"rental_uris":{"android":"levelo://app?vid=c95773ea-3deb-4fd7-a02c-5d580aadf1b9","ios":"levelo://app?vid=c95773ea-3deb-4fd7-a02c-5d580aadf1b9"},"vehicle_type_id":"4","last_reported":1737382134,"current_range_meters":35200,"station_id":"ce4bgh92rcd13ifvqb40","pricing_plan_id":"cebpf4jnsgd1na2vs0mg"},{"bike_id":"2398b642-cd0a-4a16-abf3-3ac0b4a8c4a8","system_id":"levelo_inurba_marseille","lat":43.32464,"lon":5.3659,"is_reserved":false,"is_disabled":false,"rental_uris":{"android":"levelo://app?vid=2398b642-cd0a-4a16-abf3-3ac0b4a8c4a8","ios":"levelo://app?vid=2398b642-cd0a-4a16-abf3-3ac0b4a8c4a8"},"vehicle_type_id":"4","last_reported":1737382134,"current_range_meters":16000,"station_id":"ce4bhs12rcd13ifvqhvg","pricing_plan_id":"cebpf4jnsgd1na2vs0mg"},{"bike_id":"8338e30c-ee05-4f1f-82b9-a421d9f7a1ec","system_id":"levelo_inurba_marseille","lat":43.26961,"lon":5.3863,"is_reserved":false,"is_disabled":false,"rental_uris":{"android":"levelo://app?vid=8338e30c-ee05-4f1f-82b9-a421d9f7a1ec","ios":"levelo://app?vid=8338e30c-ee05-4f1f-82b9-a421d9f7a1ec"},"vehicle_type_id":"4","last_reported":1737382134,"current_range_meters":39200,"station_id":"ce4bhh92rcd13ifvqfh0","pricing_plan_id":"cebpf4jnsgd1na2vs0mg"},{"bike_id":"837bce4e-a7bd-4659-ac4a-3e7a7f8d3275","system_id":"levelo_inurba_marseille","lat":43.29897,"lon":5.38156,"is_reserved":false,"is_disabled":false,"rental_uris":{"android":"levelo://app?vid=837bce4e-a7bd-4659-ac4a-3e7a7f8d3275","ios":"levelo://app?vid=837bce4e-a7bd-4659-ac4a-3e7a7f8d3275"},"vehicle_type_id":"4","last_reported":1737382134,"current_range_meters":39200,"station_id":"ce4bgj12rcd13ifvqbc0","pricing_plan_id":"cebpf4jnsgd1na2vs0mg"},{"bike_id":"3133a507-5996-4484-a064-80f7bc3eca44","system_id":"levelo_inurba_marseille","lat":43.30335,"lon":5.40435,"is_reserved":false,"is_disabled":false,"rental_uris":{"android":"levelo://app?vid=3133a507-5996-4484-a064-80f7bc3eca44","ios":"levelo://app?vid=3133a507-5996-4484-a064-80f7bc3eca44"},"vehicle_type_id":"4","last_reported":1737382134,"current_range_meters":28400,"station_id":"ce4bh012rcd13ifvqd10","pricing_plan_id":"cebpf4jnsgd1na2vs0mg"},{"bike_id":"187a71e0-c1c3-4e71-8a26-0d48a596fe6b","system_id":"levelo_inurba_marseille","lat":43.25087,"lon":5.39519,"is_reserved":false,"is_disabled":false,"rental_uris":{"android":"levelo://app?vid=187a71e0-c1c3-4e71-8a26-0d48a596fe6b","ios":"levelo://app?vid=187a71e0-c1c3-4e71-8a26-0d48a596fe6b"},"vehicle_type_id":"4","last_reported":1737382134,"current_range_meters":30400,"station_id":"ce4bhm12rcd13ifvqgkg","pricing_plan_id":"cebpf4jnsgd1na2vs0mg"},{"bike_id":"aeeb7245-8a7c-4b79-b9ac-efca69f7818a","system_id":"levelo_inurba_marseille","lat":43.32121,"lon":5.36767,"is_reserved":false,"is_disabled":false,"rental_uris":{"android":"levelo://app?vid=aeeb7245-8a7c-4b79-b9ac-efca69f7818a","ios":"levelo://app?vid=aeeb7245-8a7c-4b79-b9ac-efca69f7818a"},"vehicle_type_id":"4","last_reported":1737382134,"current_range_meters":16000,"station_id":"ce4bhrh2rcd13ifvqhug","pricing_plan_id":"cebpf4jnsgd1na2vs0mg"},{"bike_id":"de34e565-00c6-4e74-886d-15951c671661","system_id":"levelo_inurba_marseille","lat":43.29062,"lon":5.39992,"is_reserved":false,"is_disabled":false,"rental_uris":{"android":"levelo://app?vid=de34e565-00c6-4e74-886d-15951c671661","ios":"levelo://app?vid=de34e565-00c6-4e74-886d-15951c671661"},"vehicle_type_id":"4","last_reported":1737382134,"current_range_meters":38800,"station_id":"ce4bh392rcd13ifvqdm0","pricing_plan_id":"cebpf4jnsgd1na2vs0mg"},{"bike_id":"5d800b45-3844-4422-a13c-d1611ebb6c01","system_id":"levelo_inurba_marseille","lat":43.283531,"lon":5.391238,"is_reserved":false,"is_disabled":false,"rental_uris":{"android":"levelo://app?vid=5d800b45-3844-4422-a13c-d1611ebb6c01","ios":"levelo://app?vid=5d800b45-3844-4422-a13c-d1611ebb6c01"},"vehicle_type_id":"4","last_reported":1737382134,"current_range_meters":28000,"station_id":"ce4bhoh2rcd13ifvqh5g","pricing_plan_id":"cebpf4jnsgd1na2vs0mg"},{"bike_id":"7555d10f-5228-403b-838d-0dce11b04ab4","system_id":"levelo_inurba_marseille","lat":43.30134,"lon":5.37412,"is_reserved":false,"is_disabled":false,"rental_uris":{"android":"levelo://app?vid=7555d10f-5228-403b-838d-0dce11b04ab4","ios":"levelo://app?vid=7555d10f-5228-403b-838d-0dce11b04ab4"},"vehicle_type_id":"4","last_reported":1737382134,"current_range_meters":38400,"station_id":"ce4bgs92rcd13ifvqcc0","pricing_plan_id":"cebpf4jnsgd1na2vs0mg"},{"bike_id":"9eb335b9-be9e-4d87-ab11-b7aad1d486a4","system_id":"levelo_inurba_marseille","lat":43.23163,"lon":5.43722,"is_reserved":false,"is_disabled":false,"rental_uris":{"android":"levelo://app?vid=9eb335b9-be9e-4d87-ab11-b7aad1d486a4","ios":"levelo://app?vid=9eb335b9-be9e-4d87-ab11-b7aad1d486a4"},"vehicle_type_id":"4","last_reported":1737382134,"current_range_meters":38000,"station_id":"ce4bhmp2rcd13ifvqgog","pricing_plan_id":"cebpf4jnsgd1na2vs0mg"},{"bike_id":"c545f56d-e86e-4a68-8ceb-abc1233e3e9c","system_id":"levelo_inurba_marseille","lat":43.32554,"lon":5.41463,"is_reserved":false,"is_disabled":false,"rental_uris":{"android":"levelo://app?vid=c545f56d-e86e-4a68-8ceb-abc1233e3e9c","ios":"levelo://app?vid=c545f56d-e86e-4a68-8ceb-abc1233e3e9c"},"vehicle_type_id":"4","last_reported":1737382134,"current_range_meters":31200,"station_id":"ce4bhq12rcd13ifvqhhg","pricing_plan_id":"cebpf4jnsgd1na2vs0mg"},{"bike_id":"28918742-ad50-440e-94c6-30cfc3476718","system_id":"levelo_inurba_marseille","lat":43.28108,"lon":5.37837,"is_reserved":false,"is_disabled":false,"rental_uris":{"android":"levelo://app?vid=28918742-ad50-440e-94c6-30cfc3476718","ios":"levelo://app?vid=28918742-ad50-440e-94c6-30cfc3476718"},"vehicle_type_id":"4","last_reported":1737382134,"current_range_meters":38800,"station_id":"ce4bha12rcd13ifvqee0","pricing_plan_id":"cebpf4jnsgd1na2vs0mg"},{"bike_id":"e5a43d98-b13c-4f9c-8e91-474024ee445e","system_id":"levelo_inurba_marseille","lat":43.26951,"lon":5.38623,"is_reserved":false,"is_disabled":false,"rental_uris":{"android":"levelo://app?vid=e5a43d98-b13c-4f9c-8e91-474024ee445e","ios":"levelo://app?vid=e5a43d98-b13c-4f9c-8e91-474024ee445e"},"vehicle_type_id":"4","last_reported":1737382134,"current_range_meters":32800,"station_id":"ce4bhh92rcd13ifvqfh0","pricing_plan_id":"cebpf4jnsgd1na2vs0mg"},{"bike_id":"5434439c-80a7-45ef-8e7d-a897cb833684","system_id":"levelo_inurba_marseille","lat":43.3234,"lon":5.36622,"is_reserved":false,"is_disabled":false,"rental_uris":{"android":"levelo://app?vid=5434439c-80a7-45ef-8e7d-a897cb833684","ios":"levelo://app?vid=5434439c-80a7-45ef-8e7d-a897cb833684"},"vehicle_type_id":"4","last_reported":1737382134,"current_range_meters":7200,"station_id":"","pricing_plan_id":"cebpf4jnsgd1na2vs0mg"},{"bike_id":"6a90710c-c516-4c6e-ae5f-b292940a7c14","system_id":"levelo_inurba_marseille","lat":43.29554,"lon":5.37501,"is_reserved":false,"is_disabled":false,"rental_uris":{"android":"levelo://app?vid=6a90710c-c516-4c6e-ae5f-b292940a7c14","ios":"levelo://app?vid=6a90710c-c516-4c6e-ae5f-b292940a7c14"},"vehicle_type_id":"4","last_reported":1737382134,"current_range_meters":38000,"station_id":"ce4bgh92rcd13ifvqb50","pricing_plan_id":"cebpf4jnsgd1na2vs0mg"},{"bike_id":"11fd930d-55ad-45a3-834b-9225c6541090","system_id":"levelo_inurba_marseille","lat":43.32498,"lon":5.36565,"is_reserved":false,"is_disabled":false,"rental_uris":{"android":"levelo://app?vid=11fd930d-55ad-45a3-834b-9225c6541090","ios":"levelo://app?vid=11fd930d-55ad-45a3-834b-9225c6541090"},"vehicle_type_id":"4","last_reported":1737382134,"current_range_meters":33200,"station_id":"ce4bhs12rcd13ifvqhvg","pricing_plan_id":"cebpf4jnsgd1na2vs0mg"},{"bike_id":"df00be52-92ae-4aee-985f-60baf0786455","system_id":"levelo_inurba_marseille","lat":43.27603,"lon":5.36117,"is_reserved":false,"is_disabled":false,"rental_uris":{"android":"levelo://app?vid=df00be52-92ae-4aee-985f-60baf0786455","ios":"levelo://app?vid=df00be52-92ae-4aee-985f-60baf0786455"},"vehicle_type_id":"4","last_reported":1737382134,"current_range_meters":22800,"station_id":"ce4bgj92rcd13ifvqbe0","pricing_plan_id":"cebpf4jnsgd1na2vs0mg"},{"bike_id":"50267a36-8428-4ee1-ac27-ac6a771a71af","system_id":"levelo_inurba_marseille","lat":43.33717,"lon":5.355576,"is_reserved":false,"is_disabled":true,"rental_uris":{"android":"levelo://app?vid=50267a36-8428-4ee1-ac27-ac6a771a71af","ios":"levelo://app?vid=50267a36-8428-4ee1-ac27-ac6a771a71af"},"vehicle_type_id":"4","last_reported":1737382134,"current_range_meters":400,"station_id":"","pricing_plan_id":"cebpf4jnsgd1na2vs0mg"},{"bike_id":"f5863b18-13a1-4c6e-92de-5668ea912ad3","system_id":"levelo_inurba_marseille","lat":43.26234,"lon":5.40439,"is_reserved":false,"is_disabled":true,"rental_uris":{"android":"levelo://app?vid=f5863b18-13a1-4c6e-92de-5668ea912ad3","ios":"levelo://app?vid=f5863b18-13a1-4c6e-92de-5668ea912ad3"},"vehicle_type_id":"4","last_reported":1737382134,"current_range_meters":0,"station_id":"","pricing_plan_id":"cebpf4jnsgd1na2vs0mg"},{"bike_id":"d56f3ba3-9723-41f7-9882-3ad30310eb78","system_id":"levelo_inurba_marseille","lat":43.337444,"lon":5.374475,"is_reserved":false,"is_disabled":false,"rental_uris":{"android":"levelo://app?vid=d56f3ba3-9723-41f7-9882-3ad30310eb78","ios":"levelo://app?vid=d56f3ba3-9723-41f7-9882-3ad30310eb78"},"vehicle_type_id":"4","last_reported":1737382134,"current_range_meters":38000,"station_id":"","pricing_plan_id":"cebpf4jnsgd1na2vs0mg"},{"bike_id":"eb6fcbf2-4dba-4dcc-a3a1-6b992d95097c","system_id":"levelo_inurba_marseille","lat":43.23966,"lon":5.36638,"is_reserved":false,"is_disabled":false,"rental_uris":{"android":"levelo://app?vid=eb6fcbf2-4dba-4dcc-a3a1-6b992d95097c","ios":"levelo://app?vid=eb6fcbf2-4dba-4dcc-a3a1-6b992d95097c"},"vehicle_type_id":"4","last_reported":1737382134,"current_range_meters":28000,"station_id":"ce4bhi12rcd13ifvqfp0","pricing_plan_id":"cebpf4jnsgd1na2vs0mg"},{"bike_id":"18077c43-1d2d-4d89-afa3-bcb797b52455","system_id":"levelo_inurba_marseille","lat":43.30595,"lon":5.38355,"is_reserved":false,"is_disabled":false,"rental_uris":{"android":"levelo://app?vid=18077c43-1d2d-4d89-afa3-bcb797b52455","ios":"levelo://app?vid=18077c43-1d2d-4d89-afa3-bcb797b52455"},"vehicle_type_id":"4","last_reported":1737382134,"current_range_meters":4800,"station_id":"ce4bgg92rcd13ifvqb30","pricing_plan_id":"cebpf4jnsgd1na2vs0mg"},{"bike_id":"c7cc3d8a-71da-4ee2-a75b-e00177e5ac9a","system_id":"levelo_inurba_marseille","lat":43.26569,"lon":5.37295,"is_reserved":false,"is_disabled":false,"rental_uris":{"android":"levelo://app?vid=c7cc3d8a-71da-4ee2-a75b-e00177e5ac9a","ios":"levelo://app?vid=c7cc3d8a-71da-4ee2-a75b-e00177e5ac9a"},"vehicle_type_id":"4","last_reported":1737382134,"current_range_meters":38800,"station_id":"ce4bhg12rcd13ifvqf70","pricing_plan_id":"cebpf4jnsgd1na2vs0mg"},{"bike_id":"310291eb-51c1-4d9b-a9e0-6140421d3b91","system_id":"levelo_inurba_marseille","lat":43.27924,"lon":5.37999,"is_reserved":false,"is_disabled":false,"rental_uris":{"android":"levelo://app?vid=310291eb-51c1-4d9b-a9e0-6140421d3b91","ios":"levelo://app?vid=310291eb-51c1-4d9b-a9e0-6140421d3b91"},"vehicle_type_id":"4","last_reported":1737382134,"current_range_meters":10000,"station_id":"ce4bhf92rcd13ifvqf50","pricing_plan_id":"cebpf4jnsgd1na2vs0mg"},{"bike_id":"4fe58642-8ec3-4f25-a4fc-eb5dc3dc47a8","system_id":"levelo_inurba_marseille","lat":43.33533,"lon":5.36136,"is_reserved":false,"is_disabled":true,"rental_uris":{"android":"levelo://app?vid=4fe58642-8ec3-4f25-a4fc-eb5dc3dc47a8","ios":"levelo://app?vid=4fe58642-8ec3-4f25-a4fc-eb5dc3dc47a8"},"vehicle_type_id":"4","last_reported":1737382134,"current_range_meters":25600,"station_id":"","pricing_plan_id":"cebpf4jnsgd1na2vs0mg"},{"bike_id":"9cccd2ff-b864-466b-83c6-b52ec2815836","system_id":"levelo_inurba_marseille","lat":43.25707,"lon":5.41138,"is_reserved":false,"is_disabled":false,"rental_uris":{"android":"levelo://app?vid=9cccd2ff-b864-466b-83c6-b52ec2815836","ios":"levelo://app?vid=9cccd2ff-b864-466b-83c6-b52ec2815836"},"vehicle_type_id":"4","last_reported":1737382134,"current_range_meters":32000,"station_id":"ce4bhkp2rcd13ifvqgd0","pricing_plan_id":"cebpf4jnsgd1na2vs0mg"},{"bike_id":"8ba3986b-3e7d-44d2-b647-aea26edf2089","system_id":"levelo_inurba_marseille","lat":43.30549,"lon":5.36688,"is_reserved":false,"is_disabled":false,"rental_uris":{"android":"levelo://app?vid=8ba3986b-3e7d-44d2-b647-aea26edf2089","ios":"levelo://app?vid=8ba3986b-3e7d-44d2-b647-aea26edf2089"},"vehicle_type_id":"4","last_reported":1737382134,"current_range_meters":11200,"station_id":"ce4bgrp2rcd13ifvqc9g","pricing_plan_id":"cebpf4jnsgd1na2vs0mg"},{"bike_id":"26d9ca9f-42b6-4fd2-bd1c-abc472b20b7f","system_id":"levelo_inurba_marseille","lat":43.27372,"lon":5.36246,"is_reserved":false,"is_disabled":false,"rental_uris":{"android":"levelo://app?vid=26d9ca9f-42b6-4fd2-bd1c-abc472b20b7f","ios":"levelo://app?vid=26d9ca9f-42b6-4fd2-bd1c-abc472b20b7f"},"vehicle_type_id":"4","last_reported":1737382134,"current_range_meters":39200,"station_id":"ce4bhbh2rcd13ifvqeo0","pricing_plan_id":"cebpf4jnsgd1na2vs0mg"},{"bike_id":"b5b91842-f1aa-4bba-964f-7a9484225fb0","system_id":"levelo_inurba_marseille","lat":43.25878,"lon":5.39929,"is_reserved":false,"is_disabled":false,"rental_uris":{"android":"levelo://app?vid=b5b91842-f1aa-4bba-964f-7a9484225fb0","ios":"levelo://app?vid=b5b91842-f1aa-4bba-964f-7a9484225fb0"},"vehicle_type_id":"4","last_reported":1737382134,"current_range_meters":39200,"station_id":"ce4bhl92rcd13ifvqghg","pricing_plan_id":"cebpf4jnsgd1na2vs0mg"},{"bike_id":"d93f7db5-a745-4a7d-979a-723fda422ed0","system_id":"levelo_inurba_marseille","lat":43.31491,"lon":5.37307,"is_reserved":false,"is_disabled":false,"rental_uris":{"android":"levelo://app?vid=d93f7db5-a745-4a7d-979a-723fda422ed0","ios":"levelo://app?vid=d93f7db5-a745-4a7d-979a-723fda422ed0"},"vehicle_type_id":"4","last_reported":1737382134,"current_range_meters":38800,"station_id":"ce4bgt12rcd13ifvqcd0","pricing_plan_id":"cebpf4jnsgd1na2vs0mg"},{"bike_id":"13a9853e-21c2-4d7a-8ae7-af374064a8b8","system_id":"levelo_inurba_marseille","lat":43.3177,"lon":5.37403,"is_reserved":false,"is_disabled":false,"rental_uris":{"android":"levelo://app?vid=13a9853e-21c2-4d7a-8ae7-af374064a8b8","ios":"levelo://app?vid=13a9853e-21c2-4d7a-8ae7-af374064a8b8"},"vehicle_type_id":"4","last_reported":1737382134,"current_range_meters":22000,"station_id":"","pricing_plan_id":"cebpf4jnsgd1na2vs0mg"},{"bike_id":"60b7d049-237a-4dbd-ad0c-436ecde1802f","system_id":"levelo_inurba_marseille","lat":43.231964,"lon":5.355614,"is_reserved":false,"is_disabled":false,"rental_uris":{"android":"levelo://app?vid=60b7d049-237a-4dbd-ad0c-436ecde1802f","ios":"levelo://app?vid=60b7d049-237a-4dbd-ad0c-436ecde1802f"},"vehicle_type_id":"4","last_reported":1737382134,"current_range_meters":24800,"station_id":"ce4bhu92rcd13ifvqi70","pricing_plan_id":"cebpf4jnsgd1na2vs0mg"},{"bike_id":"118d8acc-7373-4c07-b70f-a31c57077087","system_id":"levelo_inurba_marseille","lat":43.31496,"lon":5.37304,"is_reserved":false,"is_disabled":false,"rental_uris":{"android":"levelo://app?vid=118d8acc-7373-4c07-b70f-a31c57077087","ios":"levelo://app?vid=118d8acc-7373-4c07-b70f-a31c57077087"},"vehicle_type_id":"4","last_reported":1737382134,"current_range_meters":37600,"station_id":"ce4bgt12rcd13ifvqcd0","pricing_plan_id":"cebpf4jnsgd1na2vs0mg"},{"bike_id":"23a5b3f4-0f7a-4a4e-8090-ef0fdae8d7e5","system_id":"levelo_inurba_marseille","lat":43.32499,"lon":5.3658,"is_reserved":false,"is_disabled":false,"rental_uris":{"android":"levelo://app?vid=23a5b3f4-0f7a-4a4e-8090-ef0fdae8d7e5","ios":"levelo://app?vid=23a5b3f4-0f7a-4a4e-8090-ef0fdae8d7e5"},"vehicle_type_id":"4","last_reported":1737382134,"current_range_meters":14800,"station_id":"ce4bhs12rcd13ifvqhvg","pricing_plan_id":"cebpf4jnsgd1na2vs0mg"},{"bike_id":"267044e7-5931-4cf5-ae82-a68f05037f07","system_id":"levelo_inurba_marseille","lat":43.28946,"lon":5.3632,"is_reserved":false,"is_disabled":true,"rental_uris":{"android":"levelo://app?vid=267044e7-5931-4cf5-ae82-a68f05037f07","ios":"levelo://app?vid=267044e7-5931-4cf5-ae82-a68f05037f07"},"vehicle_type_id":"4","last_reported":1737382134,"current_range_meters":1200,"station_id":"ce4bhc92rcd13ifvqetg","pricing_plan_id":"cebpf4jnsgd1na2vs0mg"},{"bike_id":"cf40481f-97f4-4879-8257-c88865bf4f6c","system_id":"levelo_inurba_marseille","lat":43.24811,"lon":5.37458,"is_reserved":false,"is_disabled":false,"rental_uris":{"android":"levelo://app?vid=cf40481f-97f4-4879-8257-c88865bf4f6c","ios":"levelo://app?vid=cf40481f-97f4-4879-8257-c88865bf4f6c"},"vehicle_type_id":"4","last_reported":1737382134,"current_range_meters":38800,"station_id":"ce4bhgh2rcd13ifvqfb0","pricing_plan_id":"cebpf4jnsgd1na2vs0mg"},{"bike_id":"8a3a0fcc-7ef4-44c2-a48f-4191b9c60868","system_id":"levelo_inurba_marseille","lat":43.32481,"lon":5.36568,"is_reserved":false,"is_disabled":false,"rental_uris":{"android":"levelo://app?vid=8a3a0fcc-7ef4-44c2-a48f-4191b9c60868","ios":"levelo://app?vid=8a3a0fcc-7ef4-44c2-a48f-4191b9c60868"},"vehicle_type_id":"4","last_reported":1737382134,"current_range_meters":4400,"station_id":"ce4bhs12rcd13ifvqhvg","pricing_plan_id":"cebpf4jnsgd1na2vs0mg"},{"bike_id":"423ace4f-d89a-418c-9d4d-6b96b1d05757","system_id":"levelo_inurba_marseille","lat":43.29898,"lon":5.37466,"is_reserved":false,"is_disabled":false,"rental_uris":{"android":"levelo://app?vid=423ace4f-d89a-418c-9d4d-6b96b1d05757","ios":"levelo://app?vid=423ace4f-d89a-418c-9d4d-6b96b1d05757"},"vehicle_type_id":"4","last_reported":1737382134,"current_range_meters":20800,"station_id":"ce4bgjh2rcd13ifvqbg0","pricing_plan_id":"cebpf4jnsgd1na2vs0mg"},{"bike_id":"95b517d0-9dcf-47f9-8053-773bec6e6a69","system_id":"levelo_inurba_marseille","lat":43.26704,"lon":5.39516,"is_reserved":false,"is_disabled":false,"rental_uris":{"android":"levelo://app?vid=95b517d0-9dcf-47f9-8053-773bec6e6a69","ios":"levelo://app?vid=95b517d0-9dcf-47f9-8053-773bec6e6a69"},"vehicle_type_id":"4","last_reported":1737382134,"current_range_meters":8400,"station_id":"","pricing_plan_id":"cebpf4jnsgd1na2vs0mg"},{"bike_id":"ef6995fd-e68e-4985-8c9d-7187adb30bbc","system_id":"levelo_inurba_marseille","lat":43.24627,"lon":5.38805,"is_reserved":false,"is_disabled":false,"rental_uris":{"android":"levelo://app?vid=ef6995fd-e68e-4985-8c9d-7187adb30bbc","ios":"levelo://app?vid=ef6995fd-e68e-4985-8c9d-7187adb30bbc"},"vehicle_type_id":"4","last_reported":1737382134,"current_range_meters":38800,"station_id":"ce4bhg12rcd13ifvqf60","pricing_plan_id":"cebpf4jnsgd1na2vs0mg"},{"bike_id":"c0ec70a3-340f-46df-8940-3d3f1608de3e","system_id":"levelo_inurba_marseille","lat":43.29613,"lon":5.37725,"is_reserved":false,"is_disabled":false,"rental_uris":{"android":"levelo://app?vid=c0ec70a3-340f-46df-8940-3d3f1608de3e","ios":"levelo://app?vid=c0ec70a3-340f-46df-8940-3d3f1608de3e"},"vehicle_type_id":"4","last_reported":1737382134,"current_range_meters":11200,"station_id":"ce4bgi92rcd13ifvqb90","pricing_plan_id":"cebpf4jnsgd1na2vs0mg"},{"bike_id":"2f20fa1e-72f2-426c-8cd2-87effcf8cffe","system_id":"levelo_inurba_marseille","lat":43.28703,"lon":5.37386,"is_reserved":false,"is_disabled":false,"rental_uris":{"android":"levelo://app?vid=2f20fa1e-72f2-426c-8cd2-87effcf8cffe","ios":"levelo://app?vid=2f20fa1e-72f2-426c-8cd2-87effcf8cffe"},"vehicle_type_id":"4","last_reported":1737382134,"current_range_meters":31200,"station_id":"ce4bh3p2rcd13ifvqdq0","pricing_plan_id":"cebpf4jnsgd1na2vs0mg"},{"bike_id":"47ad60ef-9d71-4c2b-9c0f-48487854fa86","system_id":"levelo_inurba_marseille","lat":43.29647,"lon":5.37161,"is_reserved":false,"is_disabled":false,"rental_uris":{"android":"levelo://app?vid=47ad60ef-9d71-4c2b-9c0f-48487854fa86","ios":"levelo://app?vid=47ad60ef-9d71-4c2b-9c0f-48487854fa86"},"vehicle_type_id":"4","last_reported":1737382134,"current_range_meters":38400,"station_id":"ce4bgnh2rcd13ifvqc0g","pricing_plan_id":"cebpf4jnsgd1na2vs0mg"},{"bike_id":"763b6a19-7a9b-4628-bc62-0e1458497b11","system_id":"levelo_inurba_marseille","lat":43.27814,"lon":5.40714,"is_reserved":false,"is_disabled":false,"rental_uris":{"android":"levelo://app?vid=763b6a19-7a9b-4628-bc62-0e1458497b11","ios":"levelo://app?vid=763b6a19-7a9b-4628-bc62-0e1458497b11"},"vehicle_type_id":"4","last_reported":1737382134,"current_range_meters":19600,"station_id":"ce4bhnh2rcd13ifvqgtg","pricing_plan_id":"cebpf4jnsgd1na2vs0mg"},{"bike_id":"b9714942-6669-482c-91f3-a89014ba1447","system_id":"levelo_inurba_marseille","lat":43.3091,"lon":5.36842,"is_reserved":false,"is_disabled":false,"rental_uris":{"android":"levelo://app?vid=b9714942-6669-482c-91f3-a89014ba1447","ios":"levelo://app?vid=b9714942-6669-482c-91f3-a89014ba1447"},"vehicle_type_id":"4","last_reported":1737382134,"current_range_meters":33200,"station_id":"ce4bgn92rcd13ifvqbvg","pricing_plan_id":"cebpf4jnsgd1na2vs0mg"},{"bike_id":"202e79a8-237c-46a9-9026-5c40c313c8a4","system_id":"levelo_inurba_marseille","lat":43.29309,"lon":5.37424,"is_reserved":false,"is_disabled":false,"rental_uris":{"android":"levelo://app?vid=202e79a8-237c-46a9-9026-5c40c313c8a4","ios":"levelo://app?vid=202e79a8-237c-46a9-9026-5c40c313c8a4"},"vehicle_type_id":"4","last_reported":1737382134,"current_range_meters":20000,"station_id":"ce4bgi12rcd13ifvqb70","pricing_plan_id":"cebpf4jnsgd1na2vs0mg"},{"bike_id":"6f9b6c4e-342b-48df-9d0b-1f0700762401","system_id":"levelo_inurba_marseille","lat":43.25727,"lon":5.41114,"is_reserved":false,"is_disabled":false,"rental_uris":{"android":"levelo://app?vid=6f9b6c4e-342b-48df-9d0b-1f0700762401","ios":"levelo://app?vid=6f9b6c4e-342b-48df-9d0b-1f0700762401"},"vehicle_type_id":"4","last_reported":1737382134,"current_range_meters":16800,"station_id":"ce4bhkp2rcd13ifvqgd0","pricing_plan_id":"cebpf4jnsgd1na2vs0mg"},{"bike_id":"5961b515-60f1-4a1c-8177-ae6e3d2a1fe8","system_id":"levelo_inurba_marseille","lat":43.29959,"lon":5.4132,"is_reserved":false,"is_disabled":false,"rental_uris":{"android":"levelo://app?vid=5961b515-60f1-4a1c-8177-ae6e3d2a1fe8","ios":"levelo://app?vid=5961b515-60f1-4a1c-8177-ae6e3d2a1fe8"},"vehicle_type_id":"4","last_reported":1737382134,"current_range_meters":11200,"station_id":"ce4bhp12rcd13ifvqh9g","pricing_plan_id":"cebpf4jnsgd1na2vs0mg"},{"bike_id":"432c47ae-0380-4e8c-833a-83a413fc293f","system_id":"levelo_inurba_marseille","lat":43.2817,"lon":5.42649,"is_reserved":false,"is_disabled":false,"rental_uris":{"android":"levelo://app?vid=432c47ae-0380-4e8c-833a-83a413fc293f","ios":"levelo://app?vid=432c47ae-0380-4e8c-833a-83a413fc293f"},"vehicle_type_id":"4","last_reported":1737382134,"current_range_meters":27600,"station_id":"ce4bhnh2rcd13ifvqgug","pricing_plan_id":"cebpf4jnsgd1na2vs0mg"},{"bike_id":"4dda61a9-3829-4ace-85ae-49fcc3ca21e5","system_id":"levelo_inurba_marseille","lat":43.23161,"lon":5.43703,"is_reserved":false,"is_disabled":false,"rental_uris":{"android":"levelo://app?vid=4dda61a9-3829-4ace-85ae-49fcc3ca21e5","ios":"levelo://app?vid=4dda61a9-3829-4ace-85ae-49fcc3ca21e5"},"vehicle_type_id":"4","last_reported":1737382134,"current_range_meters":17600,"station_id":"ce4bhmp2rcd13ifvqgog","pricing_plan_id":"cebpf4jnsgd1na2vs0mg"},{"bike_id":"c3a502cf-8ade-4420-87b0-051a6b1ff1d3","system_id":"levelo_inurba_marseille","lat":43.29458,"lon":5.38583,"is_reserved":false,"is_disabled":false,"rental_uris":{"android":"levelo://app?vid=c3a502cf-8ade-4420-87b0-051a6b1ff1d3","ios":"levelo://app?vid=c3a502cf-8ade-4420-87b0-051a6b1ff1d3"},"vehicle_type_id":"4","last_reported":1737382134,"current_range_meters":28800,"station_id":"ce4bh2h2rcd13ifvqdh0","pricing_plan_id":"cebpf4jnsgd1na2vs0mg"},{"bike_id":"37def594-d241-48d9-9cdd-96311bde1897","system_id":"levelo_inurba_marseille","lat":43.32103,"lon":5.36782,"is_reserved":false,"is_disabled":false,"rental_uris":{"android":"levelo://app?vid=37def594-d241-48d9-9cdd-96311bde1897","ios":"levelo://app?vid=37def594-d241-48d9-9cdd-96311bde1897"},"vehicle_type_id":"4","last_reported":1737382134,"current_range_meters":37600,"station_id":"ce4bhrh2rcd13ifvqhug","pricing_plan_id":"cebpf4jnsgd1na2vs0mg"},{"bike_id":"34405b41-6cc5-4b3a-876f-38fd11be1250","system_id":"levelo_inurba_marseille","lat":43.25956,"lon":5.40896,"is_reserved":false,"is_disabled":false,"rental_uris":{"android":"levelo://app?vid=34405b41-6cc5-4b3a-876f-38fd11be1250","ios":"levelo://app?vid=34405b41-6cc5-4b3a-876f-38fd11be1250"},"vehicle_type_id":"4","last_reported":1737382134,"current_range_meters":38800,"station_id":"ce4bhm92rcd13ifvqglg","pricing_plan_id":"cebpf4jnsgd1na2vs0mg"},{"bike_id":"6f1b2b09-a7b0-4569-8ae6-e7c005adc101","system_id":"levelo_inurba_marseille","lat":43.28257,"lon":5.35061,"is_reserved":false,"is_disabled":false,"rental_uris":{"android":"levelo://app?vid=6f1b2b09-a7b0-4569-8ae6-e7c005adc101","ios":"levelo://app?vid=6f1b2b09-a7b0-4569-8ae6-e7c005adc101"},"vehicle_type_id":"4","last_reported":1737382134,"current_range_meters":31200,"station_id":"ce4bhbp2rcd13ifvqerg","pricing_plan_id":"cebpf4jnsgd1na2vs0mg"},{"bike_id":"9b570da9-d892-4de0-83fd-31f2509d0191","system_id":"levelo_inurba_marseille","lat":43.27069,"lon":5.42267,"is_reserved":false,"is_disabled":false,"rental_uris":{"android":"levelo://app?vid=9b570da9-d892-4de0-83fd-31f2509d0191","ios":"levelo://app?vid=9b570da9-d892-4de0-83fd-31f2509d0191"},"vehicle_type_id":"4","last_reported":1737382134,"current_range_meters":39200,"station_id":"ce4bhk92rcd13ifvqgb0","pricing_plan_id":"cebpf4jnsgd1na2vs0mg"},