{"last_updated":1701842995,"ttl":30,"version":"2.2","data":{"bikes":[{"bike_id":"5f27c924-e3b9-4809-82b0-7611a46791ac","system_id":"levelo_inurba_marseille","lat":43.309039,"lon":5.371797,"is_reserved":false,"is_disabled":false,"rental_uris":{"android":"levelo://app?vid=5f27c924-e3b9-4809-82b0-7611a46791ac","ios":"levelo://app?vid=5f27c924-e3b9-4809-82b0-7611a46791ac"},"vehicle_type_id":"4","last_reported":1701842995,"current_range_meters":31200,"station_id":"ce4bguh2rcd13ifvqckg","pricing_plan_id":"free"},{"bike_id":"0655a6c7-abf4-4324-b4af-2f69d6a46852","system_id":"levelo_inurba_marseille","lat":43.309039,"lon":5.371797,"is_reserved":false,"is_disabled":false,"rental_uris":{"android":"levelo://app?vid=0655a6c7-abf4-4324-b4af-2f69d6a46852","ios":"levelo://app?vid=0655a6c7-abf4-4324-b4af-2f69d6a46852"},"vehicle_type_id":"4","last_reported":1701842995,"current_range_meters":26400,"station_id":"ce4bguh2rcd13ifvqckg","pricing_plan_id":"free"},{"bike_id":"cfbfd12b-7d66-41c9-aaa4-af928ef383cf","system_id":"levelo_inurba_marseille","lat":43.305455,"lon":5.365465,"is_reserved":false,"is_disabled":false,"rental_uris":{"android":"levelo://app?vid=cfbfd12b-7d66-41c9-aaa4-af928ef383cf","ios":"levelo://app?vid=cfbfd12b-7d66-41c9-aaa4-af928ef383cf"},"vehicle_type_id":"4","last_reported":1701842995,"current_range_meters":26000,"station_id":"ce4bgs12rcd13ifvqcag","pricing_plan_id":"free"},{"bike_id":"46eee191-68bb-4552-ba98-aff6e617aad5","system_id":"levelo_inurba_marseille","lat":43.305368,"lon":5.367343,"is_reserved":false,"is_disabled":false,"rental_uris":{"android":"levelo://app?vid=46eee191-68bb-4552-ba98-aff6e617aad5","ios":"levelo://app?vid=46eee191-68bb-4552-ba98-aff6e617aad5"},"vehicle_type_id":"4","last_reported":1701842995,"current_range_meters":22800,"station_id":"ce4bgrp2rcd13ifvqc9g","pricing_plan_id":"free"},{"bike_id":"c4601912-75f7-48ae-ae24-fa2f90aea7a7","system_id":"levelo_inurba_marseille","lat":43.305714,"lon":5.365633,"is_reserved":false,"is_disabled":false,"rental_uris":{"android":"levelo://app?vid=c4601912-75f7-48ae-ae24-fa2f90aea7a7","ios":"levelo://app?vid=c4601912-75f7-48ae-ae24-fa2f90aea7a7"},"vehicle_type_id":"4","last_reported":1701842995,"current_range_meters":27200,"station_id":"ce4bgs12rcd13ifvqcag","pricing_plan_id":"free"},{"bike_id":"b065b12a-ef87-47d8-8ac6-a38844050d40","system_id":"levelo_inurba_marseille","lat":43.319237,"lon":5.37299,"is_reserved":false,"is_disabled":false,"rental_uris":{"android":"levelo://app?vid=b065b12a-ef87-47d8-8ac6-a38844050d40","ios":"levelo://app?vid=b065b12a-ef87-47d8-8ac6-a38844050d40"},"vehicle_type_id":"4","last_reported":1701842995,"current_range_meters":0,"station_id":"","pricing_plan_id":"free"},{"bike_id":"0998ea92-ad75-45d6-b23c-30711119caeb","system_id":"levelo_inurba_marseille","lat":43.311125,"lon":5.377624,"is_reserved":false,"is_disabled":false,"rental_uris":{"android":"levelo://app?vid=0998ea92-ad75-45d6-b23c-30711119caeb","ios":"levelo://app?vid=0998ea92-ad75-45d6-b23c-30711119caeb"},"vehicle_type_id":"4","last_reported":1701842995,"current_range_meters":24400,"station_id":"ce4bgt92rcd13ifvqcg0","pricing_plan_id":"free"},{"bike_id":"62ef9776-d359-478d-b2b0-5317c40b882c","system_id":"levelo_inurba_marseille","lat":43.317075,"lon":5.377367,"is_reserved":false,"is_disabled":false,"rental_uris":{"android":"levelo://app?vid=62ef9776-d359-478d-b2b0-5317c40b882c","ios":"levelo://app?vid=62ef9776-d359-478d-b2b0-5317c40b882c"},"vehicle_type_id":"4","last_reported":1701842995,"current_range_meters":28000,"station_id":"ce4bgth2rcd13ifvqch0","pricing_plan_id":"free"},{"bike_id":"fb6fd937-527b-4585-9058-0dfdc6436ac8","system_id":"levelo_inurba_marseille","lat":43.31351,"lon":5.37909,"is_reserved":false,"is_disabled":false,"rental_uris":{"android":"levelo://app?vid=fb6fd937-527b-4585-9058-0dfdc6436ac8","ios":"levelo://app?vid=fb6fd937-527b-4585-9058-0dfdc6436ac8"},"vehicle_type_id":"4","last_reported":1701842995,"current_range_meters":7600,"station_id":"","pricing_plan_id":"free"},{"bike_id":"380aaba6-3518-4ef8-b7a0-791d836ad1ab","system_id":"levelo_inurba_marseille","lat":43.301939,"lon":5.366286,"is_reserved":false,"is_disabled":false,"rental_uris":{"android":"levelo://app?vid=380aaba6-3518-4ef8-b7a0-791d836ad1ab","ios":"levelo://app?vid=380aaba6-3518-4ef8-b7a0-791d836ad1ab"},"vehicle_type_id":"4","last_reported":1701842995,"current_range_meters":25200,"station_id":"ce4bgrh2rcd13ifvqc8g","pricing_plan_id":"free"},{"bike_id":"71d575e8-eed2-4bcd-bb66-8939863b10da","system_id":"levelo_inurba_marseille","lat":43.302803,"lon":5.373465,"is_reserved":false,"is_disabled":false,"rental_uris":{"android":"levelo://app?vid=71d575e8-eed2-4bcd-bb66-8939863b10da","ios":"levelo://app?vid=71d575e8-eed2-4bcd-bb66-8939863b10da"},"vehicle_type_id":"4","last_reported":1701842995,"current_range_meters":11600,"station_id":"","pricing_plan_id":"free"},{"bike_id":"176be453-c99f-4ad0-870c-0cfb44599a30","system_id":"levelo_inurba_marseille","lat":43.304606,"lon":5.379026,"is_reserved":false,"is_disabled":false,"rental_uris":{"android":"levelo://app?vid=176be453-c99f-4ad0-870c-0cfb44599a30","ios":"levelo://app?vid=176be453-c99f-4ad0-870c-0cfb44599a30"},"vehicle_type_id":"4","last_reported":1701842995,"current_range_meters":17600,"station_id":"ce4bgup2rcd13ifvqcn0","pricing_plan_id":"free"},{"bike_id":"91a1fb42-c781-4b29-bcd7-527223872e37","system_id":"levelo_inurba_marseille","lat":43.304606,"lon":5.379026,"is_reserved":false,"is_disabled":false,"rental_uris":{"android":"levelo://app?vid=91a1fb42-c781-4b29-bcd7-527223872e37","ios":"levelo://app?vid=91a1fb42-c781-4b29-bcd7-527223872e37"},"vehicle_type_id":"4","last_reported":1701842995,"current_range_meters":8800,"station_id":"ce4bgup2rcd13ifvqcn0","pricing_plan_id":"free"},{"bike_id":"79b4aec9-7e33-4c16-848f-207ff08f453c","system_id":"levelo_inurba_marseille","lat":43.304606,"lon":5.379026,"is_reserved":false,"is_disabled":false,"rental_uris":{"android":"levelo://app?vid=79b4aec9-7e33-4c16-848f-207ff08f453c","ios":"levelo://app?vid=79b4aec9-7e33-4c16-848f-207ff08f453c"},"vehicle_type_id":"4","last_reported":1701842995,"current_range_meters":23200,"station_id":"ce4bgup2rcd13ifvqcn0","pricing_plan_id":"free"},{"bike_id":"a889a367-8fc0-47b0-981a-5b9896a63217","system_id":"levelo_inurba_marseille","lat":43.304606,"lon":5.379026,"is_reserved":false,"is_disabled":false,"rental_uris":{"android":"levelo://app?vid=a889a367-8fc0-47b0-981a-5b9896a63217","ios":"levelo://app?vid=a889a367-8fc0-47b0-981a-5b9896a63217"},"vehicle_type_id":"4","last_reported":1701842995,"current_range_meters":7600,"station_id":"ce4bgup2rcd13ifvqcn0","pricing_plan_id":"free"},{"bike_id":"40e43884-e63b-4b01-a5e1-c4826629a650","system_id":"levelo_inurba_marseille","lat":43.304606,"lon":5.379026,"is_reserved":false,"is_disabled":false,"rental_uris":{"android":"levelo://app?vid=40e43884-e63b-4b01-a5e1-c4826629a650","ios":"levelo://app?vid=40e43884-e63b-4b01-a5e1-c4826629a650"},"vehicle_type_id":"4","last_reported":1701842995,"current_range_meters":8800,"station_id":"ce4bgup2rcd13ifvqcn0","pricing_plan_id":"free"},{"bike_id":"79e88944-54c9-4a41-97c2-e1fbdaa484e1","system_id":"levelo_inurba_marseille","lat":43.304606,"lon":5.379026,"is_reserved":false,"is_disabled":false,"rental_uris":{"android":"levelo://app?vid=79e88944-54c9-4a41-97c2-e1fbdaa484e1","ios":"levelo://app?vid=79e88944-54c9-4a41-97c2-e1fbdaa484e1"},"vehicle_type_id":"4","last_reported":1701842995,"current_range_meters":25200,"station_id":"ce4bgup2rcd13ifvqcn0","pricing_plan_id":"free"},{"bike_id":"6cfea690-576d-4132-8352-645580562b2d","system_id":"levelo_inurba_marseille","lat":43.304606,"lon":5.379026,"is_reserved":false,"is_disabled":false,"rental_uris":{"android":"levelo://app?vid=6cfea690-576d-4132-8352-645580562b2d","ios":"levelo://app?vid=6cfea690-576d-4132-8352-645580562b2d"},"vehicle_type_id":"4","last_reported":1701842995,"current_range_meters":22800,"station_id":"ce4bgup2rcd13ifvqcn0","pricing_plan_id":"free"},{"bike_id":"d3de8a6c-b786-42cb-8f22-2e3c3807dc1b","system_id":"levelo_inurba_marseille","lat":43.304606,"lon":5.379026,"is_reserved":false,"is_disabled":false,"rental_uris":{"android":"levelo://app?vid=d3de8a6c-b786-42cb-8f22-2e3c3807dc1b","ios":"levelo://app?vid=d3de8a6c-b786-42cb-8f22-2e3c3807dc1b"},"vehicle_type_id":"4","last_reported":1701842995,"current_range_meters":25200,"station_id":"ce4bgup2rcd13ifvqcn0","pricing_plan_id":"free"},{"bike_id":"11d37fb1-e412-4513-84f2-72cb13dd2c7d","system_id":"levelo_inurba_marseille","lat":43.304606,"lon":5.379026,"is_reserved":false,"is_disabled":false,"rental_uris":{"android":"levelo://app?vid=11d37fb1-e412-4513-84f2-72cb13dd2c7d","ios":"levelo://app?vid=11d37fb1-e412-4513-84f2-72cb13dd2c7d"},"vehicle_type_id":"4","last_reported":1701842995,"current_range_meters":28400,"station_id":"ce4bgup2rcd13ifvqcn0","pricing_plan_id":"free"},{"bike_id":"b03d0bca-c513-4abf-8d79-298eb1b92b65","system_id":"levelo_inurba_marseille","lat":43.304606,"lon":5.379026,"is_reserved":false,"is_disabled":false,"rental_uris":{"android":"levelo://app?vid=b03d0bca-c513-4abf-8d79-298eb1b92b65","ios":"levelo://app?vid=b03d0bca-c513-4abf-8d79-298eb1b92b65"},"vehicle_type_id":"4","last_reported":1701842995,"current_range_meters":29200,"station_id":"ce4bgup2rcd13ifvqcn0","pricing_plan_id":"free"},{"bike_id":"6005b5be-73b0-4d91-a9e2-3a28fc61fac3","system_id":"levelo_inurba_marseille","lat":43.3045,"lon":5.37906,"is_reserved":false,"is_disabled":false,"rental_uris":{"android":"levelo://app?vid=6005b5be-73b0-4d91-a9e2-3a28fc61fac3","ios":"levelo://app?vid=6005b5be-73b0-4d91-a9e2-3a28fc61fac3"},"vehicle_type_id":"4","last_reported":1701842995,"current_range_meters":5200,"station_id":"ce4bgup2rcd13ifvqcn0","pricing_plan_id":"free"},{"bike_id":"ab542b0a-b258-4b62-baed-c4ff4b3a7961","system_id":"levelo_inurba_marseille","lat":43.32481,"lon":5.36568,"is_reserved":false,"is_disabled":false,"rental_uris":{"android":"levelo://app?vid=ab542b0a-b258-4b62-baed-c4ff4b3a7961","ios":"levelo://app?vid=ab542b0a-b258-4b62-baed-c4ff4b3a7961"},"vehicle_type_id":"4","last_reported":1701842995,"current_range_meters":30000,"station_id":"ce4bhs12rcd13ifvqhvg","pricing_plan_id":"free"},{"bike_id":"a7503af2-3416-42b0-89b3-360ea5b90ea2","system_id":"levelo_inurba_marseille","lat":43.319935,"lon":5.381699,"is_reserved":false,"is_disabled":false,"rental_uris":{"android":"levelo://app?vid=a7503af2-3416-42b0-89b3-360ea5b90ea2","ios":"levelo://app?vid=a7503af2-3416-42b0-89b3-360ea5b90ea2"},"vehicle_type_id":"4","last_reported":1701842995,"current_range_meters":25600,"station_id":"ce4bhr12rcd13ifvqhpg","pricing_plan_id":"free"},{"bike_id":"65f8fa65-6ae7-4e94-86fb-6a8a6a019c04","system_id":"levelo_inurba_marseille","lat":43.319935,"lon":5.381699,"is_reserved":false,"is_disabled":false,"rental_uris":{"android":"levelo://app?vid=65f8fa65-6ae7-4e94-86fb-6a8a6a019c04","ios":"levelo://app?vid=65f8fa65-6ae7-4e94-86fb-6a8a6a019c04"},"vehicle_type_id":"4","last_reported":1701842995,"current_range_meters":10800,"station_id":"ce4bhr12rcd13ifvqhpg","pricing_plan_id":"free"},{"bike_id":"1e44eb00-5254-457d-b804-b536ef4db324","system_id":"levelo_inurba_marseille","lat":43.319935,"lon":5.381699,"is_reserved":false,"is_disabled":false,"rental_uris":{"android":"levelo://app?vid=1e44eb00-5254-457d-b804-b536ef4db324","ios":"levelo://app?vid=1e44eb00-5254-457d-b804-b536ef4db324"},"vehicle_type_id":"4","last_reported":1701842995,"current_range_meters":12800,"station_id":"ce4bhr12rcd13ifvqhpg","pricing_plan_id":"free"},{"bike_id":"8f0e376d-d370-406a-9c0a-dac0b1463e7e","system_id":"levelo_inurba_marseille","lat":43.319997,"lon":5.381594,"is_reserved":false,"is_disabled":false,"rental_uris":{"android":"levelo://app?vid=8f0e376d-d370-406a-9c0a-dac0b1463e7e","ios":"levelo://app?vid=8f0e376d-d370-406a-9c0a-dac0b1463e7e"},"vehicle_type_id":"4","last_reported":1701842995,"current_range_meters":1200,"station_id":"ce4bhr12rcd13ifvqhpg","pricing_plan_id":"free"},{"bike_id":"bd082ecf-686f-49c5-a30a-7ea43132642a","system_id":"levelo_inurba_marseille","lat":43.31358,"lon":5.38495,"is_reserved":false,"is_disabled":false,"rental_uris":{"android":"levelo://app?vid=bd082ecf-686f-49c5-a30a-7ea43132642a","ios":"levelo://app?vid=bd082ecf-686f-49c5-a30a-7ea43132642a"},"vehicle_type_id":"4","last_reported":1701842995,"current_range_meters":0,"station_id":"ce4bgt92rcd13ifvqcf0","pricing_plan_id":"free"},{"bike_id":"6e607b17-1217-44c5-8f8a-73f5ac3b1d18","system_id":"levelo_inurba_marseille","lat":43.299222,"lon":5.365554,"is_reserved":false,"is_disabled":false,"rental_uris":{"android":"levelo://app?vid=6e607b17-1217-44c5-8f8a-73f5ac3b1d18","ios":"levelo://app?vid=6e607b17-1217-44c5-8f8a-73f5ac3b1d18"},"vehicle_type_id":"4","last_reported":1701842995,"current_range_meters":3600,"station_id":"ce4bgm92rcd13ifvqbr0","pricing_plan_id":"free"},{"bike_id":"94b23fb3-6741-4fcc-8be8-5559c7ab90df","system_id":"levelo_inurba_marseille","lat":43.305364,"lon":5.384119,"is_reserved":false,"is_disabled":false,"rental_uris":{"android":"levelo://app?vid=94b23fb3-6741-4fcc-8be8-5559c7ab90df","ios":"levelo://app?vid=94b23fb3-6741-4fcc-8be8-5559c7ab90df"},"vehicle_type_id":"4","last_reported":1701842995,"current_range_meters":27600,"station_id":"ce4bgg92rcd13ifvqb30","pricing_plan_id":"free"},{"bike_id":"fd63a46c-d208-4d0a-a7c0-bddb47d8b313","system_id":"levelo_inurba_marseille","lat":43.311722,"lon":5.387247,"is_reserved":false,"is_disabled":false,"rental_uris":{"android":"levelo://app?vid=fd63a46c-d208-4d0a-a7c0-bddb47d8b313","ios":"levelo://app?vid=fd63a46c-d208-4d0a-a7c0-bddb47d8b313"},"vehicle_type_id":"4","last_reported":1701842995,"current_range_meters":19600,"station_id":"ce4bgv12rcd13ifvqcp0","pricing_plan_id":"free"},{"bike_id":"2e76f4ec-4c49-4885-84df-273462419ffe","system_id":"levelo_inurba_marseille","lat":43.311656,"lon":5.387106,"is_reserved":false,"is_disabled":false,"rental_uris":{"android":"levelo://app?vid=2e76f4ec-4c49-4885-84df-273462419ffe","ios":"levelo://app?vid=2e76f4ec-4c49-4885-84df-273462419ffe"},"vehicle_type_id":"4","last_reported":1701842995,"current_range_meters":13600,"station_id":"ce4bgv12rcd13ifvqcp0","pricing_plan_id":"free"},{"bike_id":"7d8005c6-46e4-426f-b718-71bb16b59421","system_id":"levelo_inurba_marseille","lat":43.311722,"lon":5.387247,"is_reserved":false,"is_disabled":false,"rental_uris":{"android":"levelo://app?vid=7d8005c6-46e4-426f-b718-71bb16b59421","ios":"levelo://app?vid=7d8005c6-46e4-426f-b718-71bb16b59421"},"vehicle_type_id":"4","last_reported":1701842995,"current_range_meters":29600,"station_id":"ce4bgv12rcd13ifvqcp0","pricing_plan_id":"free"},{"bike_id":"69a91a55-a832-4e22-ae50-4d0c9112df97","system_id":"levelo_inurba_marseille","lat":43.297794,"lon":5.370888,"is_reserved":false,"is_disabled":false,"rental_uris":{"android":"levelo://app?vid=69a91a55-a832-4e22-ae50-4d0c9112df97","ios":"levelo://app?vid=69a91a55-a832-4e22-ae50-4d0c9112df97"},"vehicle_type_id":"4","last_reported":1701842995,"current_range_meters":27600,"station_id":"ce4bgop2rcd13ifvqc1g","pricing_plan_id":"free"},{"bike_id":"3611eab9-ed88-408f-b94d-b09812a4463e","system_id":"levelo_inurba_marseille","lat":43.322872,"lon":5.382756,"is_reserved":false,"is_disabled":false,"rental_uris":{"android":"levelo://app?vid=3611eab9-ed88-408f-b94d-b09812a4463e","ios":"levelo://app?vid=3611eab9-ed88-408f-b94d-b09812a4463e"},"vehicle_type_id":"4","last_reported":1701842995,"current_range_meters":26800,"station_id":"ce4bhr12rcd13ifvqhqg","pricing_plan_id":"free"},{"bike_id":"b4879a0b-f87c-476b-ba9f-57011b8686d8","system_id":"levelo_inurba_marseille","lat":43.298218,"lon":5.374416,"is_reserved":false,"is_disabled":false,"rental_uris":{"android":"levelo://app?vid=b4879a0b-f87c-476b-ba9f-57011b8686d8","ios":"levelo://app?vid=b4879a0b-f87c-476b-ba9f-57011b8686d8"},"vehicle_type_id":"4","last_reported":1701842995,"current_range_meters":14800,"station_id":"","pricing_plan_id":"free"},{"bike_id":"73c23a8d-2837-446e-83fd-663e18a9fad1","system_id":"levelo_inurba_marseille","lat":43.328371,"lon":5.366909,"is_reserved":false,"is_disabled":false,"rental_uris":{"android":"levelo://app?vid=73c23a8d-2837-446e-83fd-663e18a9fad1","ios":"levelo://app?vid=73c23a8d-2837-446e-83fd-663e18a9fad1"},"vehicle_type_id":"4","last_reported":1701842995,"current_range_meters":31200,"station_id":"ce4bhs92rcd13ifvqi0g","pricing_plan_id":"free"},{"bike_id":"8146f9b5-b15a-4a68-934b-8d7fdd7ab4e5","system_id":"levelo_inurba_marseille","lat":43.316048,"lon":5.387839,"is_reserved":false,"is_disabled":false,"rental_uris":{"android":"levelo://app?vid=8146f9b5-b15a-4a68-934b-8d7fdd7ab4e5","ios":"levelo://app?vid=8146f9b5-b15a-4a68-934b-8d7fdd7ab4e5"},"vehicle_type_id":"4","last_reported":1701842995,"current_range_meters":18800,"station_id":"","pricing_plan_id":"free"},{"bike_id":"d750d82e-395a-4902-8872-a62e0d37e6ef","system_id":"levelo_inurba_marseille","lat":43.32833,"lon":5.3667,"is_reserved":false,"is_disabled":false,"rental_uris":{"android":"levelo://app?vid=d750d82e-395a-4902-8872-a62e0d37e6ef","ios":"levelo://app?vid=d750d82e-395a-4902-8872-a62e0d37e6ef"},"vehicle_type_id":"4","last_reported":1701842995,"current_range_meters":24000,"station_id":"ce4bhs92rcd13ifvqi0g","pricing_plan_id":"free"},{"bike_id":"3a2dda2e-3aab-4d0e-a954-793f1706ec09","system_id":"levelo_inurba_marseille","lat":43.298802,"lon":5.377566,"is_reserved":false,"is_disabled":false,"rental_uris":{"android":"levelo://app?vid=3a2dda2e-3aab-4d0e-a954-793f1706ec09","ios":"levelo://app?vid=3a2dda2e-3aab-4d0e-a954-793f1706ec09"},"vehicle_type_id":"4","last_reported":1701842995,"current_range_meters":22800,"station_id":"","pricing_plan_id":"free"},{"bike_id":"fad051df-9150-4866-a68e-71dc1b88d26f","system_id":"levelo_inurba_marseille","lat":43.316538,"lon":5.38954,"is_reserved":false,"is_disabled":false,"rental_uris":{"android":"levelo://app?vid=fad051df-9150-4866-a68e-71dc1b88d26f","ios":"levelo://app?vid=fad051df-9150-4866-a68e-71dc1b88d26f"},"vehicle_type_id":"4","last_reported":1701842995,"current_range_meters":10400,"station_id":"","pricing_plan_id":"free"},{"bike_id":"6858f45b-9fe2-4619-93f5-3a86f5d457b9","system_id":"levelo_inurba_marseille","lat":43.3096,"lon":5.39004,"is_reserved":false,"is_disabled":false,"rental_uris":{"android":"levelo://app?vid=6858f45b-9fe2-4619-93f5-3a86f5d457b9","ios":"levelo://app?vid=6858f45b-9fe2-4619-93f5-3a86f5d457b9"},"vehicle_type_id":"4","last_reported":1701842995,"current_range_meters":31200,"station_id":"ce4bgup2rcd13ifvqco0","pricing_plan_id":"free"},{"bike_id":"5b245bbd-e3b1-4c57-b4d5-0d36fadae06a","system_id":"levelo_inurba_marseille","lat":43.299028,"lon":5.381509,"is_reserved":false,"is_disabled":false,"rental_uris":{"android":"levelo://app?vid=5b245bbd-e3b1-4c57-b4d5-0d36fadae06a","ios":"levelo://app?vid=5b245bbd-e3b1-4c57-b4d5-0d36fadae06a"},"vehicle_type_id":"4","last_reported":1701842995,"current_range_meters":27200,"station_id":"ce4bgj12rcd13ifvqbc0","pricing_plan_id":"free"},{"bike_id":"5481d2e2-8d1e-47a9-8f92-3ee95447bc8c","system_id":"levelo_inurba_marseille","lat":43.296921,"lon":5.376579,"is_reserved":false,"is_disabled":false,"rental_uris":{"android":"levelo://app?vid=5481d2e2-8d1e-47a9-8f92-3ee95447bc8c","ios":"levelo://app?vid=5481d2e2-8d1e-47a9-8f92-3ee95447bc8c"},"vehicle_type_id":"4","last_reported":1701842995,"current_range_meters":26000,"station_id":"ce4bgkh2rcd13ifvqbl0","pricing_plan_id":"free"},{"bike_id":"6b06cc57-06d6-4dc8-94d3-2a3dbdb86d2d","system_id":"levelo_inurba_marseille","lat":43.31755,"lon":5.390033,"is_reserved":false,"is_disabled":false,"rental_uris":{"android":"levelo://app?vid=6b06cc57-06d6-4dc8-94d3-2a3dbdb86d2d","ios":"levelo://app?vid=6b06cc57-06d6-4dc8-94d3-2a3dbdb86d2d"},"vehicle_type_id":"4","last_reported":1701842995,"current_range_meters":25600,"station_id":"ce4bhqp2rcd13ifvqhng","pricing_plan_id":"free"},{"bike_id":"4a7d648e-4869-45ed-9885-42883cc8e914","system_id":"levelo_inurba_marseille","lat":43.317557,"lon":5.390173,"is_reserved":false,"is_disabled":false,"rental_uris":{"android":"levelo://app?vid=4a7d648e-4869-45ed-9885-42883cc8e914","ios":"levelo://app?vid=4a7d648e-4869-45ed-9885-42883cc8e914"},"vehicle_type_id":"4","last_reported":1701842995,"current_range_meters":30000,"station_id":"ce4bhqp2rcd13ifvqhng","pricing_plan_id":"free"},{"bike_id":"849a11e0-9ad9-4679-ab3f-3369c8278881","system_id":"levelo_inurba_marseille","lat":43.298037,"lon":5.381066,"is_reserved":false,"is_disabled":false,"rental_uris":{"android":"levelo://app?vid=849a11e0-9ad9-4679-ab3f-3369c8278881","ios":"levelo://app?vid=849a11e0-9ad9-4679-ab3f-3369c8278881"},"vehicle_type_id":"4","last_reported":1701842995,"current_range_meters":29600,"station_id":"ce4bgip2rcd13ifvqbb0","pricing_plan_id":"free"},{"bike_id":"901ad813-d661-4663-aa13-7d18a5f786a4","system_id":"levelo_inurba_marseille","lat":43.304274,"lon":5.388873,"is_reserved":false,"is_disabled":false,"rental_uris":{"android":"levelo://app?vid=901ad813-d661-4663-aa13-7d18a5f786a4","ios":"levelo://app?vid=901ad813-d661-4663-aa13-7d18a5f786a4"},"vehicle_type_id":"4","last_reported":1701842995,"current_range_meters":31200,"station_id":"ce4bgk12rcd13ifvqbi0","pricing_plan_id":"free"},{"bike_id":"76777a9a-d263-4f0f-a99c-0648b72c647d","system_id":"levelo_inurba_marseille","lat":43.304278,"lon":5.388868,"is_reserved":false,"is_disabled":false,"rental_uris":{"android":"levelo://app?vid=76777a9a-d263-4f0f-a99c-0648b72c647d","ios":"levelo://app?vid=76777a9a-d263-4f0f-a99c-0648b72c647d"},"vehicle_type_id":"4","last_reported":1701842995,"current_range_meters":30000,"station_id":"ce4bgk12rcd13ifvqbi0","pricing_plan_id":"free"},{"bike_id":"ae79f685-f122-4368-a8ee-34c58444df36","system_id":"levelo_inurba_marseille","lat":43.297785,"lon":5.38115,"is_reserved":false,"is_disabled":false,"rental_uris":{"android":"levelo://app?vid=ae79f685-f122-4368-a8ee-34c58444df36","ios":"levelo://app?vid=ae79f685-f122-4368-a8ee-34c58444df36"},"vehicle_type_id":"4","last_reported":1701842995,"current_range_meters":10400,"station_id":"ce4bgip2rcd13ifvqbb0","pricing_plan_id":"free"},{"bike_id":"4e9bf7c3-34f1-467d-a2b8-bfeadbb8845c","system_id":"levelo_inurba_marseille","lat":43.299717,"lon":5.384845,"is_reserved":false,"is_disabled":false,"rental_uris":{"android":"levelo://app?vid=4e9bf7c3-34f1-467d-a2b8-bfeadbb8845c","ios":"levelo://app?vid=4e9bf7c3-34f1-467d-a2b8-bfeadbb8845c"},"vehicle_type_id":"4","last_reported":1701842995,"current_range_meters":28000,"station_id":"ce4bgj92rcd13ifvqbd0","pricing_plan_id":"free"},{"bike_id":"58f765c3-5355-409e-90ec-d31de8e8db0a","system_id":"levelo_inurba_marseille","lat":43.299717,"lon":5.384845,"is_reserved":false,"is_disabled":false,"rental_uris":{"android":"levelo://app?vid=58f765c3-5355-409e-90ec-d31de8e8db0a","ios":"levelo://app?vid=58f765c3-5355-409e-90ec-d31de8e8db0a"},"vehicle_type_id":"4","last_reported":1701842995,"current_range_meters":24400,"station_id":"ce4bgj92rcd13ifvqbd0","pricing_plan_id":"free"},{"bike_id":"384c93a9-f8bf-40cb-af12-2ca71f5c33a6","system_id":"levelo_inurba_marseille","lat":43.299707,"lon":5.384859,"is_reserved":false,"is_disabled":false,"rental_uris":{"android":"levelo://app?vid=384c93a9-f8bf-40cb-af12-2ca71f5c33a6","ios":"levelo://app?vid=384c93a9-f8bf-40cb-af12-2ca71f5c33a6"},"vehicle_type_id":"4","last_reported":1701842995,"current_range_meters":30000,"station_id":"ce4bgj92rcd13ifvqbd0","pricing_plan_id":"free"},{"bike_id":"9d5c227b-237c-4d24-b447-b0ae03c9e099","system_id":"levelo_inurba_marseille","lat":43.323631,"lon":5.388761,"is_reserved":false,"is_disabled":false,"rental_uris":{"android":"levelo://app?vid=9d5c227b-237c-4d24-b447-b0ae03c9e099","ios":"levelo://app?vid=9d5c227b-237c-4d24-b447-b0ae03c9e099"},"vehicle_type_id":"4","last_reported":1701842995,"current_range_meters":24400,"station_id":"ce4bhqp2rcd13ifvqhog","pricing_plan_id":"free"},{"bike_id":"abe84497-fb17-455f-b511-71d1ec1fd3ce","system_id":"levelo_inurba_marseille","lat":43.32364,"lon":5.388795,"is_reserved":false,"is_disabled":false,"rental_uris":{"android":"levelo://app?vid=abe84497-fb17-455f-b511-71d1ec1fd3ce","ios":"levelo://app?vid=abe84497-fb17-455f-b511-71d1ec1fd3ce"},"vehicle_type_id":"4","last_reported":1701842995,"current_range_meters":6000,"station_id":"ce4bhqp2rcd13ifvqhog","pricing_plan_id":"free"},{"bike_id":"b8dd85b6-33db-497a-a812-3d411cc80858","system_id":"levelo_inurba_marseille","lat":43.32367,"lon":5.388836,"is_reserved":false,"is_disabled":false,"rental_uris":{"android":"levelo://app?vid=b8dd85b6-33db-497a-a812-3d411cc80858","ios":"levelo://app?vid=b8dd85b6-33db-497a-a812-3d411cc80858"},"vehicle_type_id":"4","last_reported":1701842995,"current_range_meters":15200,"station_id":"ce4bhqp2rcd13ifvqhog","pricing_plan_id":"free"},{"bike_id":"c3643ac2-cdd1-4bd1-99e6-62e33012d634","system_id":"levelo_inurba_marseille","lat":43.323684,"lon":5.388836,"is_reserved":false,"is_disabled":false,"rental_uris":{"android":"levelo://app?vid=c3643ac2-cdd1-4bd1-99e6-62e33012d634","ios":"levelo://app?vid=c3643ac2-cdd1-4bd1-99e6-62e33012d634"},"vehicle_type_id":"4","last_reported":1701842995,"current_range_meters":8800,"station_id":"ce4bhqp2rcd13ifvqhog","pricing_plan_id":"free"},{"bike_id":"07967f1e-00b3-4d63-8ab5-24c06e141a86","system_id":"levelo_inurba_marseille","lat":43.32363,"lon":5.388888,"is_reserved":false,"is_disabled":false,"rental_uris":{"android":"levelo://app?vid=07967f1e-00b3-4d63-8ab5-24c06e141a86","ios":"levelo://app?vid=07967f1e-00b3-4d63-8ab5-24c06e141a86"},"vehicle_type_id":"4","last_reported":1701842995,"current_range_meters":14000,"station_id":"ce4bhqp2rcd13ifvqhog","pricing_plan_id":"free"},{"bike_id":"4be98fa3-91c1-42d7-bd8d-e8b8bdab14e7","system_id":"levelo_inurba_marseille","lat":43.29601,"lon":5.381084,"is_reserved":false,"is_disabled":false,"rental_uris":{"android":"levelo://app?vid=4be98fa3-91c1-42d7-bd8d-e8b8bdab14e7","ios":"levelo://app?vid=4be98fa3-91c1-42d7-bd8d-e8b8bdab14e7"},"vehicle_type_id":"4","last_reported":1701842995,"current_range_meters":29600,"station_id":"ce4bgl12rcd13ifvqbo0","pricing_plan_id":"free"},{"bike_id":"6cf15f05-2828-4f9a-a7d3-54085a8c4fc1","system_id":"levelo_inurba_marseille","lat":43.29601,"lon":5.381084,"is_reserved":false,"is_disabled":false,"rental_uris":{"android":"levelo://app?vid=6cf15f05-2828-4f9a-a7d3-54085a8c4fc1","ios":"levelo://app?vid=6cf15f05-2828-4f9a-a7d3-54085a8c4fc1"},"vehicle_type_id":"4","last_reported":1701842995,"current_range_meters":3200,"station_id":"ce4bgl12rcd13ifvqbo0","pricing_plan_id":"free"},{"bike_id":"15046396-bcf9-4083-9ba1-dd50cd91c6e5","system_id":"levelo_inurba_marseille","lat":43.293009,"lon":5.374584,"is_reserved":false,"is_disabled":false,"rental_uris":{"android":"levelo://app?vid=15046396-bcf9-4083-9ba1-dd50cd91c6e5","ios":"levelo://app?vid=15046396-bcf9-4083-9ba1-dd50cd91c6e5"},"vehicle_type_id":"4","last_reported":1701842995,"current_range_meters":6800,"station_id":"ce4bgi12rcd13ifvqb70","pricing_plan_id":"free"},{"bike_id":"0bf6caad-4e42-46fe-8c15-661305dfad32","system_id":"levelo_inurba_marseille","lat":43.293009,"lon":5.374584,"is_reserved":false,"is_disabled":false,"rental_uris":{"android":"levelo://app?vid=0bf6caad-4e42-46fe-8c15-661305dfad32","ios":"levelo://app?vid=0bf6caad-4e42-46fe-8c15-661305dfad32"},"vehicle_type_id":"4","last_reported":1701842995,"current_range_meters":4000,"station_id":"ce4bgi12rcd13ifvqb70","pricing_plan_id":"free"},{"bike_id":"82a790e9-7f3c-484f-8419-550f59c65258","system_id":"levelo_inurba_marseille","lat":43.292311,"lon":5.360731,"is_reserved":false,"is_disabled":false,"rental_uris":{"android":"levelo://app?vid=82a790e9-7f3c-484f-8419-550f59c65258","ios":"levelo://app?vid=82a790e9-7f3c-484f-8419-550f59c65258"},"vehicle_type_id":"4","last_reported":1701842995,"current_range_meters":24800,"station_id":"ce4bhbh2rcd13ifvqeqg","pricing_plan_id":"free"},{"bike_id":"ed8fcdcf-24dd-4336-85e6-47b761b2a9d2","system_id":"levelo_inurba_marseille","lat":43.29227,"lon":5.36062,"is_reserved":false,"is_disabled":false,"rental_uris":{"android":"levelo://app?vid=ed8fcdcf-24dd-4336-85e6-47b761b2a9d2","ios":"levelo://app?vid=ed8fcdcf-24dd-4336-85e6-47b761b2a9d2"},"vehicle_type_id":"4","last_reported":1701842995,"current_range_meters":24000,"station_id":"ce4bhbh2rcd13ifvqeqg","pricing_plan_id":"free"},{"bike_id":"ebd2800a-30b7-47cd-8f79-5840b3cae5ea","system_id":"levelo_inurba_marseille","lat":43.29214,"lon":5.3605,"is_reserved":false,"is_disabled":false,"rental_uris":{"android":"levelo://app?vid=ebd2800a-30b7-47cd-8f79-5840b3cae5ea","ios":"levelo://app?vid=ebd2800a-30b7-47cd-8f79-5840b3cae5ea"},"vehicle_type_id":"4","last_reported":1701842995,"current_range_meters":16800,"station_id":"ce4bhbh2rcd13ifvqeqg","pricing_plan_id":"free"},{"bike_id":"47fcfc70-7c43-4c76-9435-61534768ea86","system_id":"levelo_inurba_marseille","lat":43.29265,"lon":5.37624,"is_reserved":false,"is_disabled":false,"rental_uris":{"android":"levelo://app?vid=47fcfc70-7c43-4c76-9435-61534768ea86","ios":"levelo://app?vid=47fcfc70-7c43-4c76-9435-61534768ea86"},"vehicle_type_id":"4","last_reported":1701842995,"current_range_meters":10400,"station_id":"ce4bgi12rcd13ifvqb80","pricing_plan_id":"free"},{"bike_id":"18bd0a26-7f41-437e-a9d9-ab82bda9e277","system_id":"levelo_inurba_marseille","lat":43.292663,"lon":5.376394,"is_reserved":false,"is_disabled":false,"rental_uris":{"android":"levelo://app?vid=18bd0a26-7f41-437e-a9d9-ab82bda9e277","ios":"levelo://app?vid=18bd0a26-7f41-437e-a9d9-ab82bda9e277"},"vehicle_type_id":"4","last_reported":1701842995,"current_range_meters":30000,"station_id":"ce4bgi12rcd13ifvqb80","pricing_plan_id":"free"},{"bike_id":"18971369-6b11-4e82-ae2c-84f6c38e190c","system_id":"levelo_inurba_marseille","lat":43.29864,"lon":5.38896,"is_reserved":false,"is_disabled":false,"rental_uris":{"android":"levelo://app?vid=18971369-6b11-4e82-ae2c-84f6c38e190c","ios":"levelo://app?vid=18971369-6b11-4e82-ae2c-84f6c38e190c"},"vehicle_type_id":"4","last_reported":1701842995,"current_range_meters":18800,"station_id":"ce4bh392rcd13ifvqdl0","pricing_plan_id":"free"},{"bike_id":"fa455836-c2af-4213-90e8-a212bd4b1dc5","system_id":"levelo_inurba_marseille","lat":43.29868,"lon":5.38903,"is_reserved":false,"is_disabled":false,"rental_uris":{"android":"levelo://app?vid=fa455836-c2af-4213-90e8-a212bd4b1dc5","ios":"levelo://app?vid=fa455836-c2af-4213-90e8-a212bd4b1dc5"},"vehicle_type_id":"4","last_reported":1701842995,"current_range_meters":24000,"station_id":"ce4bh392rcd13ifvqdl0","pricing_plan_id":"free"},{"bike_id":"03e6c0fe-b662-4064-9e11-cb25d06b296e","system_id":"levelo_inurba_marseille","lat":43.298665,"lon":5.38907,"is_reserved":false,"is_disabled":false,"rental_uris":{"android":"levelo://app?vid=03e6c0fe-b662-4064-9e11-cb25d06b296e","ios":"levelo://app?vid=03e6c0fe-b662-4064-9e11-cb25d06b296e"},"vehicle_type_id":"4","last_reported":1701842995,"current_range_meters":23600,"station_id":"ce4bh392rcd13ifvqdl0","pricing_plan_id":"free"},{"bike_id":"8ce91b26-a046-42c6-8925-f25f5ce5a055","system_id":"levelo_inurba_marseille","lat":43.313266,"lon":5.396919,"is_reserved":false,"is_disabled":false,"rental_uris":{"android":"levelo://app?vid=8ce91b26-a046-42c6-8925-f25f5ce5a055","ios":"levelo://app?vid=8ce91b26-a046-42c6-8925-f25f5ce5a055"},"vehicle_type_id":"4","last_reported":1701842995,"current_range_meters":30000,"station_id":"ce4bgvp2rcd13ifvqcu0","pricing_plan_id":"free"},{"bike_id":"ef4bbb9b-1ecd-40b4-8177-2a0f3eb55d09","system_id":"levelo_inurba_marseille","lat":43.289184,"lon":5.366408,"is_reserved":false,"is_disabled":false,"rental_uris":{"android":"levelo://app?vid=ef4bbb9b-1ecd-40b4-8177-2a0f3eb55d09","ios":"levelo://app?vid=ef4bbb9b-1ecd-40b4-8177-2a0f3eb55d09"},"vehicle_type_id":"4","last_reported":1701842995,"current_range_meters":20800,"station_id":"ce4bhap2rcd13ifvqek0","pricing_plan_id":"free"},{"bike_id":"cedb5ff6-3711-4202-91b1-a327c1e14996","system_id":"levelo_inurba_marseille","lat":43.28929,"lon":5.363898,"is_reserved":false,"is_disabled":false,"rental_uris":{"android":"levelo://app?vid=cedb5ff6-3711-4202-91b1-a327c1e14996","ios":"levelo://app?vid=cedb5ff6-3711-4202-91b1-a327c1e14996"},"vehicle_type_id":"4","last_reported":1701842995,"current_range_meters":27600,"station_id":"ce4bhc92rcd13ifvqetg","pricing_plan_id":"free"},{"bike_id":"a86dcdeb-cc8c-477a-a273-e5febb82626c","system_id":"levelo_inurba_marseille","lat":43.290104,"lon":5.356111,"is_reserved":false,"is_disabled":false,"rental_uris":{"android":"levelo://app?vid=a86dcdeb-cc8c-477a-a273-e5febb82626c","ios":"levelo://app?vid=a86dcdeb-cc8c-477a-a273-e5febb82626c"},"vehicle_type_id":"4","last_reported":1701842995,"current_range_meters":23200,"station_id":"ce4bhb92rcd13ifvqen0","pricing_plan_id":"free"},{"bike_id":"f68e2c8b-de08-4ad7-b342-74483183b5be","system_id":"levelo_inurba_marseille","lat":43.330413,"lon":5.389293,"is_reserved":false,"is_disabled":false,"rental_uris":{"android":"levelo://app?vid=f68e2c8b-de08-4ad7-b342-74483183b5be","ios":"levelo://app?vid=f68e2c8b-de08-4ad7-b342-74483183b5be"},"vehicle_type_id":"4","last_reported":1701842995,"current_range_meters":28800,"station_id":"ce4bhr92rcd13ifvqhrg","pricing_plan_id":"free"},{"bike_id":"392500f7-28a7-4bae-8ae1-e6ff11b6814a","system_id":"levelo_inurba_marseille","lat":43.289741,"lon":5.378306,"is_reserved":false,"is_disabled":false,"rental_uris":{"android":"levelo://app?vid=392500f7-28a7-4bae-8ae1-e6ff11b6814a","ios":"levelo://app?vid=392500f7-28a7-4bae-8ae1-e6ff11b6814a"},"vehicle_type_id":"4","last_reported":1701842995,"current_range_meters":8000,"station_id":"ce4bh9p2rcd13ifvqed0","pricing_plan_id":"free"},{"bike_id":"82cdb325-0ef5-4320-b58c-efac8c28cab7","system_id":"levelo_inurba_marseille","lat":43.28851,"lon":5.35848,"is_reserved":false,"is_disabled":false,"rental_uris":{"android":"levelo://app?vid=82cdb325-0ef5-4320-b58c-efac8c28cab7","ios":"levelo://app?vid=82cdb325-0ef5-4320-b58c-efac8c28cab7"},"vehicle_type_id":"4","last_reported":1701842995,"current_range_meters":9600,"station_id":"ce4bhb12rcd13ifvqem0","pricing_plan_id":"free"},{"bike_id":"8302aefd-687a-4f70-8241-409c6c229323","system_id":"levelo_inurba_marseille","lat":43.28845,"lon":5.35831,"is_reserved":false,"is_disabled":false,"rental_uris":{"android":"levelo://app?vid=8302aefd-687a-4f70-8241-409c6c229323","ios":"levelo://app?vid=8302aefd-687a-4f70-8241-409c6c229323"},"vehicle_type_id":"4","last_reported":1701842995,"current_range_meters":22800,"station_id":"ce4bhb12rcd13ifvqem0","pricing_plan_id":"free"},{"bike_id":"2c27349c-a08e-4864-afc6-9e12897c0efb","system_id":"levelo_inurba_marseille","lat":43.309389,"lon":5.401333,"is_reserved":false,"is_disabled":false,"rental_uris":{"android":"levelo://app?vid=2c27349c-a08e-4864-afc6-9e12897c0efb","ios":"levelo://app?vid=2c27349c-a08e-4864-afc6-9e12897c0efb"},"vehicle_type_id":"4","last_reported":1701842995,"current_range_meters":26400,"station_id":"ce4bgvp2rcd13ifvqct0","pricing_plan_id":"free"},{"bike_id":"a01a8d62-3f82-430f-8cbf-bf5e5048b82c","system_id":"levelo_inurba_marseille","lat":43.337457,"lon":5.374559,"is_reserved":false,"is_disabled":false,"rental_uris":{"android":"levelo://app?vid=a01a8d62-3f82-430f-8cbf-bf5e5048b82c","ios":"levelo://app?vid=a01a8d62-3f82-430f-8cbf-bf5e5048b82c"},"vehicle_type_id":"4","last_reported":1701842995,"current_range_meters":23600,"station_id":"","pricing_plan_id":"free"},{"bike_id":"1fe99cf3-0500-4767-8fa7-0ca5b9e65ba2","system_id":"levelo_inurba_marseille","lat":43.306412,"lon":5.401035,"is_reserved":false,"is_disabled":false,"rental_uris":{"android":"levelo://app?vid=1fe99cf3-0500-4767-8fa7-0ca5b9e65ba2","ios":"levelo://app?vid=1fe99cf3-0500-4767-8fa7-0ca5b9e65ba2"},"vehicle_type_id":"4","last_reported":1701842995,"current_range_meters":28400,"station_id":"ce4bh112rcd13ifvqda0","pricing_plan_id":"free"},{"bike_id":"dc8a7487-5d8c-4b9a-b199-dd6d36dc7383","system_id":"levelo_inurba_marseille","lat":43.306412,"lon":5.401035,"is_reserved":false,"is_disabled":false,"rental_uris":{"android":"levelo://app?vid=dc8a7487-5d8c-4b9a-b199-dd6d36dc7383","ios":"levelo://app?vid=dc8a7487-5d8c-4b9a-b199-dd6d36dc7383"},"vehicle_type_id":"4","last_reported":1701842995,"current_range_meters":22000,"station_id":"ce4bh112rcd13ifvqda0","pricing_plan_id":"free"},{"bike_id":"b1da507f-59bc-4bfa-9de7-dd18b0d37739","system_id":"levelo_inurba_marseille","lat":43.337515,"lon":5.374499,"is_reserved":false,"is_disabled":false,"rental_uris":{"android":"levelo://app?vid=b1da507f-59bc-4bfa-9de7-dd18b0d37739","ios":"levelo://app?vid=b1da507f-59bc-4bfa-9de7-dd18b0d37739"},"vehicle_type_id":"4","last_reported":1701842995,"current_range_meters":30800,"station_id":"","pricing_plan_id":"free"},{"bike_id":"2fbea006-0d22-445c-bfc1-d379dcddc1c1","system_id":"levelo_inurba_marseille","lat":43.337479,"lon":5.374731,"is_reserved":false,"is_disabled":false,"rental_uris":{"android":"levelo://app?vid=2fbea006-0d22-445c-bfc1-d379dcddc1c1","ios":"levelo://app?vid=2fbea006-0d22-445c-bfc1-d379dcddc1c1"},"vehicle_type_id":"4","last_reported":1701842995,"current_range_meters":25600,"station_id":"","pricing_plan_id":"free"},{"bike_id":"61e94894-252e-4e6e-9735-b09eceabfad5","system_id":"levelo_inurba_marseille","lat":43.337466,"lon":5.374806,"is_reserved":false,"is_disabled":false,"rental_uris":{"android":"levelo://app?vid=61e94894-252e-4e6e-9735-b09eceabfad5","ios":"levelo://app?vid=61e94894-252e-4e6e-9735-b09eceabfad5"},"vehicle_type_id":"4","last_reported":1701842995,"current_range_meters":30800,"station_id":"","pricing_plan_id":"free"},{"bike_id":"de139938-7635-4fb2-95a5-c12f2450bafb","system_id":"levelo_inurba_marseille","lat":43.309371,"lon":5.401449,"is_reserved":false,"is_disabled":false,"rental_uris":{"android":"levelo://app?vid=de139938-7635-4fb2-95a5-c12f2450bafb","ios":"levelo://app?vid=de139938-7635-4fb2-95a5-c12f2450bafb"},"vehicle_type_id":"4","last_reported":1701842995,"current_range_meters":7600,"station_id":"ce4bgvp2rcd13ifvqct0","pricing_plan_id":"free"},{"bike_id":"94559e2c-f22c-4ac5-af24-05076ed30144","system_id":"levelo_inurba_marseille","lat":43.337597,"lon":5.374458,"is_reserved":false,"is_disabled":false,"rental_uris":{"android":"levelo://app?vid=94559e2c-f22c-4ac5-af24-05076ed30144","ios":"levelo://app?vid=94559e2c-f22c-4ac5-af24-05076ed30144"},"vehicle_type_id":"4","last_reported":1701842995,"current_range_meters":28000,"station_id":"","pricing_plan_id":"free"},{"bike_id":"f0464f50-e84c-41e8-8839-9b31e220379c","system_id":"levelo_inurba_marseille","lat":43.33759,"lon":5.37484,"is_reserved":false,"is_disabled":false,"rental_uris":{"android":"levelo://app?vid=f0464f50-e84c-41e8-8839-9b31e220379c","ios":"levelo://app?vid=f0464f50-e84c-41e8-8839-9b31e220379c"},"vehicle_type_id":"4","last_reported":1701842995,"current_range_meters":30800,"station_id":"","pricing_plan_id":"free"},{"bike_id":"3bc4e755-50b2-4f94-97bc-8e003e63d446","system_id":"levelo_inurba_marseille","lat":43.28727,"lon":5.36078,"is_reserved":false,"is_disabled":false,"rental_uris":{"android":"levelo://app?vid=3bc4e755-50b2-4f94-97bc-8e003e63d446","ios":"levelo://app?vid=3bc4e755-50b2-4f94-97bc-8e003e63d446"},"vehicle_type_id":"4","last_reported":1701842995,"current_range_meters":30400,"station_id":"cki0cbj6b192h4jlfktg","pricing_plan_id":"free"},{"bike_id":"9b501635-88a4-472d-8ffa-8ee0f6c887d4","system_id":"levelo_inurba_marseille","lat":43.28727,"lon":5.36078,"is_reserved":false,"is_disabled":false,"rental_uris":{"android":"levelo://app?vid=9b501635-88a4-472d-8ffa-8ee0f6c887d4","ios":"levelo://app?vid=9b501635-88a4-472d-8ffa-8ee0f6c887d4"},"vehicle_type_id":"4","last_reported":1701842995,"current_range_meters":22400,"station_id":"cki0cbj6b192h4jlfktg","pricing_plan_id":"free"},{"bike_id":"1658dd3b-9f05-49bc-82a4-60882e063b01","system_id":"levelo_inurba_marseille","lat":43.28727,"lon":5.36078,"is_reserved":false,"is_disabled":false,"rental_uris":{"android":"levelo://app?vid=1658dd3b-9f05-49bc-82a4-60882e063b01","ios":"levelo://app?vid=1658dd3b-9f05-49bc-82a4-60882e063b01"},"vehicle_type_id":"4","last_reported":1701842995,"current_range_meters":22400,"station_id":"cki0cbj6b192h4jlfktg","pricing_plan_id":"free"},{"bike_id":"b1c44fb3-b780-4346-9631-da6afb4f789a","system_id":"levelo_inurba_marseille","lat":43.28727,"lon":5.36078,"is_reserved":false,"is_disabled":false,"rental_uris":{"android":"levelo://app?vid=b1c44fb3-b780-4346-9631-da6afb4f789a","ios":"levelo://app?vid=b1c44fb3-b780-4346-9631-da6afb4f789a"},"vehicle_type_id":"4","last_reported":1701842995,"current_range_meters":29200,"station_id":"cki0cbj6b192h4jlfktg","pricing_plan_id":"free"},{"bike_id":"05b9f037-9b98-4f3e-b7f5-f037052989da","system_id":"levelo_inurba_marseille","lat":43.287167,"lon":5.360848,"is_reserved":false,"is_disabled":false,"rental_uris":{"android":"levelo://app?vid=05b9f037-9b98-4f3e-b7f5-f037052989da","ios":"levelo://app?vid=05b9f037-9b98-4f3e-b7f5-f037052989da"},"vehicle_type_id":"4","last_reported":1701842995,"current_range_meters":18000,"station_id":"cki0cbj6b192h4jlfktg","pricing_plan_id":"free"},{"bike_id":"1fbd3ca7-eb6e-41e3-85f0-c65b53cd56fd","system_id":"levelo_inurba_marseille","lat":43.286591,"lon":5.363346,"is_reserved":false,"is_disabled":false,"rental_uris":{"android":"levelo://app?vid=1fbd3ca7-eb6e-41e3-85f0-c65b53cd56fd","ios":"levelo://app?vid=1fbd3ca7-eb6e-41e3-85f0-c65b53cd56fd"},"vehicle_type_id":"4","last_reported":1701842995,"current_range_meters":30000,"station_id":"ce4bhah2rcd13ifvqej0","pricing_plan_id":"free"},{"bike_id":"235ea772-999e-4135-b664-a90b9a3c6d74","system_id":"levelo_inurba_marseille","lat":43.28696,"lon":5.373859,"is_reserved":false,"is_disabled":false,"rental_uris":{"android":"levelo://app?vid=235ea772-999e-4135-b664-a90b9a3c6d74","ios":"levelo://app?vid=235ea772-999e-4135-b664-a90b9a3c6d74"},"vehicle_type_id":"4","last_reported":1701842995,"current_range_meters":30000,"station_id":"ce4bh3p2rcd13ifvqdq0","pricing_plan_id":"free"},{"bike_id":"c1e27a33-181e-4a5d-8f16-b8e469d2e9ab","system_id":"levelo_inurba_marseille","lat":43.286957,"lon":5.373897,"is_reserved":false,"is_disabled":false,"rental_uris":{"android":"levelo://app?vid=c1e27a33-181e-4a5d-8f16-b8e469d2e9ab","ios":"levelo://app?vid=c1e27a33-181e-4a5d-8f16-b8e469d2e9ab"},"vehicle_type_id":"4","last_reported":1701842995,"current_range_meters":20800,"station_id":"ce4bh3p2rcd13ifvqdq0","pricing_plan_id":"free"},{"bike_id":"18224889-e510-42e5-8c24-808d97ccaf59","system_id":"levelo_inurba_marseille","lat":43.28688,"lon":5.37387,"is_reserved":false,"is_disabled":false,"rental_uris":{"android":"levelo://app?vid=18224889-e510-42e5-8c24-808d97ccaf59","ios":"levelo://app?vid=18224889-e510-42e5-8c24-808d97ccaf59"},"vehicle_type_id":"4","last_reported":1701842995,"current_range_meters":31200,"station_id":"ce4bh3p2rcd13ifvqdq0","pricing_plan_id":"free"},{"bike_id":"760459c5-eb15-4675-9664-44539431afac","system_id":"levelo_inurba_marseille","lat":43.316523,"lon":5.404367,"is_reserved":false,"is_disabled":false,"rental_uris":{"android":"levelo://app?vid=760459c5-eb15-4675-9664-44539431afac","ios":"levelo://app?vid=760459c5-eb15-4675-9664-44539431afac"},"vehicle_type_id":"4","last_reported":1701842995,"current_range_meters":30400,"station_id":"ce4bh012rcd13ifvqd00","pricing_plan_id":"free"},{"bike_id":"f56f8be2-ebde-4d23-8461-f7a6797dcf91","system_id":"levelo_inurba_marseille","lat":43.284538,"lon":5.358657,"is_reserved":false,"is_disabled":false,"rental_uris":{"android":"levelo://app?vid=f56f8be2-ebde-4d23-8461-f7a6797dcf91","ios":"levelo://app?vid=f56f8be2-ebde-4d23-8461-f7a6797dcf91"},"vehicle_type_id":"4","last_reported":1701842995,"current_range_meters":31200,"station_id":"ce4bhah2rcd13ifvqei0","pricing_plan_id":"free"},{"bike_id":"8ecdd6d8-318d-48d6-b323-0a270a0205b8","system_id":"levelo_inurba_marseille","lat":43.284538,"lon":5.358657,"is_reserved":false,"is_disabled":false,"rental_uris":{"android":"levelo://app?vid=8ecdd6d8-318d-48d6-b323-0a270a0205b8","ios":"levelo://app?vid=8ecdd6d8-318d-48d6-b323-0a270a0205b8"},"vehicle_type_id":"4","last_reported":1701842995,"current_range_meters":31200,"station_id":"ce4bhah2rcd13ifvqei0","pricing_plan_id":"free"},{"bike_id":"377edaf2-a03f-485e-8dfc-662d69a5852c","system_id":"levelo_inurba_marseille","lat":43.284538,"lon":5.358657,"is_reserved":false,"is_disabled":false,"rental_uris":{"android":"levelo://app?vid=377edaf2-a03f-485e-8dfc-662d69a5852c","ios":"levelo://app?vid=377edaf2-a03f-485e-8dfc-662d69a5852c"},"vehicle_type_id":"4","last_reported":1701842995,"current_range_meters":31200,"station_id":"ce4bhah2rcd13ifvqei0","pricing_plan_id":"free"},{"bike_id":"8666040e-b6eb-4b35-8626-e4aaade3e572","system_id":"levelo_inurba_marseille","lat":43.284534,"lon":5.358662,"is_reserved":false,"is_disabled":false,"rental_uris":{"android":"levelo://app?vid=8666040e-b6eb-4b35-8626-e4aaade3e572","ios":"levelo://app?vid=8666040e-b6eb-4b35-8626-e4aaade3e572"},"vehicle_type_id":"4","last_reported":1701842995,"current_range_meters":31200,"station_id":"ce4bhah2rcd13ifvqei0","pricing_plan_id":"free"},{"bike_id":"51c79b9f-7d85-4db7-b30c-7d97acf8cc13","system_id":"levelo_inurba_marseille","lat":43.284538,"lon":5.358657,"is_reserved":false,"is_disabled":false,"rental_uris":{"android":"levelo://app?vid=51c79b9f-7d85-4db7-b30c-7d97acf8cc13","ios":"levelo://app?vid=51c79b9f-7d85-4db7-b30c-7d97acf8cc13"},"vehicle_type_id":"4","last_reported":1701842995,"current_range_meters":19600,"station_id":"ce4bhah2rcd13ifvqei0","pricing_plan_id":"free"},{"bike_id":"15a282c0-db38-4075-8cbb-b8ce32797b67","system_id":"levelo_inurba_marseille","lat":43.284534,"lon":5.358662,"is_reserved":false,"is_disabled":false,"rental_uris":{"android":"levelo://app?vid=15a282c0-db38-4075-8cbb-b8ce32797b67","ios":"levelo://app?vid=15a282c0-db38-4075-8cbb-b8ce32797b67"},"vehicle_type_id":"4","last_reported":1701842995,"current_range_meters":22000,"station_id":"ce4bhah2rcd13ifvqei0","pricing_plan_id":"free"},{"bike_id":"2abedbcc-388c-48ad-a06d-cc82bfc9c312","system_id":"levelo_inurba_marseille","lat":43.284538,"lon":5.358657,"is_reserved":false,"is_disabled":false,"rental_uris":{"android":"levelo://app?vid=2abedbcc-388c-48ad-a06d-cc82bfc9c312","ios":"levelo://app?vid=2abedbcc-388c-48ad-a06d-cc82bfc9c312"},"vehicle_type_id":"4","last_reported":1701842995,"current_range_meters":17600,"station_id":"ce4bhah2rcd13ifvqei0","pricing_plan_id":"free"},{"bike_id":"23e20ab3-3c32-4bb8-b269-6448f0753884","system_id":"levelo_inurba_marseille","lat":43.284534,"lon":5.358662,"is_reserved":false,"is_disabled":false,"rental_uris":{"android":"levelo://app?vid=23e20ab3-3c32-4bb8-b269-6448f0753884","ios":"levelo://app?vid=23e20ab3-3c32-4bb8-b269-6448f0753884"},"vehicle_type_id":"4","last_reported":1701842995,"current_range_meters":31200,"station_id":"ce4bhah2rcd13ifvqei0","pricing_plan_id":"free"},{"bike_id":"4087b8bf-134a-46b1-866c-d023b66ba3b3","system_id":"levelo_inurba_marseille","lat":43.284538,"lon":5.358657,"is_reserved":false,"is_disabled":false,"rental_uris":{"android":"levelo://app?vid=4087b8bf-134a-46b1-866c-d023b66ba3b3","ios":"levelo://app?vid=4087b8bf-134a-46b1-866c-d023b66ba3b3"},"vehicle_type_id":"4","last_reported":1701842995,"current_range_meters":31200,"station_id":"ce4bhah2rcd13ifvqei0","pricing_plan_id":"free"},{"bike_id":"073a4a5a-86ff-4e22-8802-80beab51a553","system_id":"levelo_inurba_marseille","lat":43.284534,"lon":5.358662,"is_reserved":false,"is_disabled":false,"rental_uris":{"android":"levelo://app?vid=073a4a5a-86ff-4e22-8802-80beab51a553","ios":"levelo://app?vid=073a4a5a-86ff-4e22-8802-80beab51a553"},"vehicle_type_id":"4","last_reported":1701842995,"current_range_meters":14000,"station_id":"ce4bhah2rcd13ifvqei0","pricing_plan_id":"free"},{"bike_id":"2c0a492b-091c-456e-8699-d46e88668379","system_id":"levelo_inurba_marseille","lat":43.284538,"lon":5.358657,"is_reserved":false,"is_disabled":false,"rental_uris":{"android":"levelo://app?vid=2c0a492b-091c-456e-8699-d46e88668379","ios":"levelo://app?vid=2c0a492b-091c-456e-8699-d46e88668379"},"vehicle_type_id":"4","last_reported":1701842995,"current_range_meters":17200,"station_id":"ce4bhah2rcd13ifvqei0","pricing_plan_id":"free"},{"bike_id":"a867505a-c221-403a-bba6-7f68373835b5","system_id":"levelo_inurba_marseille","lat":43.285856,"lon":5.350771,"is_reserved":false,"is_disabled":false,"rental_uris":{"android":"levelo://app?vid=a867505a-c221-403a-bba6-7f68373835b5","ios":"levelo://app?vid=a867505a-c221-403a-bba6-7f68373835b5"},"vehicle_type_id":"4","last_reported":1701842995,"current_range_meters":16000,"station_id":"ce4bhch2rcd13ifvqeug","pricing_plan_id":"free"},{"bike_id":"ade5ebcd-01db-4b10-b4a8-a32e41c77fca","system_id":"levelo_inurba_marseille","lat":43.319179,"lon":5.407725,"is_reserved":false,"is_disabled":false,"rental_uris":{"android":"levelo://app?vid=ade5ebcd-01db-4b10-b4a8-a32e41c77fca","ios":"levelo://app?vid=ade5ebcd-01db-4b10-b4a8-a32e41c77fca"},"vehicle_type_id":"4","last_reported":1701842995,"current_range_meters":26400,"station_id":"ce4bhq12rcd13ifvqhig","pricing_plan_id":"free"},{"bike_id":"6bc62c74-cb82-479a-ae6b-9258b7fc43b1","system_id":"levelo_inurba_marseille","lat":43.318965,"lon":5.40736,"is_reserved":false,"is_disabled":false,"rental_uris":{"android":"levelo://app?vid=6bc62c74-cb82-479a-ae6b-9258b7fc43b1","ios":"levelo://app?vid=6bc62c74-cb82-479a-ae6b-9258b7fc43b1"},"vehicle_type_id":"4","last_reported":1701842995,"current_range_meters":31200,"station_id":"ce4bhq12rcd13ifvqhig","pricing_plan_id":"free"},{"bike_id":"db920be0-fb0f-4fdb-91ad-92736490ed79","system_id":"levelo_inurba_marseille","lat":43.32335,"lon":5.40623,"is_reserved":false,"is_disabled":false,"rental_uris":{"android":"levelo://app?vid=db920be0-fb0f-4fdb-91ad-92736490ed79","ios":"levelo://app?vid=db920be0-fb0f-4fdb-91ad-92736490ed79"},"vehicle_type_id":"4","last_reported":1701842995,"current_range_meters":24800,"station_id":"ce4bhq92rcd13ifvqhjg","pricing_plan_id":"free"},{"bike_id":"ecec9c76-4e37-40fb-97fa-71e6f1565144","system_id":"levelo_inurba_marseille","lat":43.284793,"lon":5.384113,"is_reserved":false,"is_disabled":false,"rental_uris":{"android":"levelo://app?vid=ecec9c76-4e37-40fb-97fa-71e6f1565144","ios":"levelo://app?vid=ecec9c76-4e37-40fb-97fa-71e6f1565144"},"vehicle_type_id":"4","last_reported":1701842995,"current_range_meters":28800,"station_id":"ce4bh512rcd13ifvqe3g","pricing_plan_id":"free"},{"bike_id":"4fede9ec-a0cf-49bb-b725-0bece9affe4c","system_id":"levelo_inurba_marseille","lat":43.284787,"lon":5.384116,"is_reserved":false,"is_disabled":false,"rental_uris":{"android":"levelo://app?vid=4fede9ec-a0cf-49bb-b725-0bece9affe4c","ios":"levelo://app?vid=4fede9ec-a0cf-49bb-b725-0bece9affe4c"},"vehicle_type_id":"4","last_reported":1701842995,"current_range_meters":18000,"station_id":"ce4bh512rcd13ifvqe3g","pricing_plan_id":"free"},{"bike_id":"21e9f313-4358-4246-886a-7b818e29db6a","system_id":"levelo_inurba_marseille","lat":43.288564,"lon":5.393196,"is_reserved":false,"is_disabled":false,"rental_uris":{"android":"levelo://app?vid=21e9f313-4358-4246-886a-7b818e29db6a","ios":"levelo://app?vid=21e9f313-4358-4246-886a-7b818e29db6a"},"vehicle_type_id":"4","last_reported":1701842995,"current_range_meters":17600,"station_id":"ce4bh2p2rcd13ifvqdi0","pricing_plan_id":"free"},{"bike_id":"d52ac959-1c06-4215-9463-2d5a0ce02c40","system_id":"levelo_inurba_marseille","lat":43.288501,"lon":5.393087,"is_reserved":false,"is_disabled":false,"rental_uris":{"android":"levelo://app?vid=d52ac959-1c06-4215-9463-2d5a0ce02c40","ios":"levelo://app?vid=d52ac959-1c06-4215-9463-2d5a0ce02c40"},"vehicle_type_id":"4","last_reported":1701842995,"current_range_meters":31200,"station_id":"ce4bh2p2rcd13ifvqdi0","pricing_plan_id":"free"},{"bike_id":"7b5e978c-d7f9-467e-8763-8a7497f6e632","system_id":"levelo_inurba_marseille","lat":43.288501,"lon":5.393087,"is_reserved":false,"is_disabled":false,"rental_uris":{"android":"levelo://app?vid=7b5e978c-d7f9-467e-8763-8a7497f6e632","ios":"levelo://app?vid=7b5e978c-d7f9-467e-8763-8a7497f6e632"},"vehicle_type_id":"4","last_reported":1701842995,"current_range_meters":21600,"station_id":"ce4bh2p2rcd13ifvqdi0","pricing_plan_id":"free"},{"bike_id":"9738ce5d-832a-4280-a550-2a00396f74a3","system_id":"levelo_inurba_marseille","lat":43.284217,"lon":5.349697,"is_reserved":false,"is_disabled":false,"rental_uris":{"android":"levelo://app?vid=9738ce5d-832a-4280-a550-2a00396f74a3","ios":"levelo://app?vid=9738ce5d-832a-4280-a550-2a00396f74a3"},"vehicle_type_id":"4","last_reported":1701842995,"current_range_meters":26000,"station_id":"ce4bhbh2rcd13ifvqepg","pricing_plan_id":"free"},{"bike_id":"babf3020-51ba-4fc4-b796-b9e3aefc2f63","system_id":"levelo_inurba_marseille","lat":43.283502,"lon":5.386471,"is_reserved":false,"is_disabled":false,"rental_uris":{"android":"levelo://app?vid=babf3020-51ba-4fc4-b796-b9e3aefc2f63","ios":"levelo://app?vid=babf3020-51ba-4fc4-b796-b9e3aefc2f63"},"vehicle_type_id":"4","last_reported":1701842995,"current_range_meters":29200,"station_id":"ce4bh492rcd13ifvqdvg","pricing_plan_id":"free"},{"bike_id":"59bbb630-b9b5-40a2-be7a-9960104c3558","system_id":"levelo_inurba_marseille","lat":43.282754,"lon":5.350519,"is_reserved":false,"is_disabled":false,"rental_uris":{"android":"levelo://app?vid=59bbb630-b9b5-40a2-be7a-9960104c3558","ios":"levelo://app?vid=59bbb630-b9b5-40a2-be7a-9960104c3558"},"vehicle_type_id":"4","last_reported":1701842995,"current_range_meters":30400,"station_id":"ce4bhbp2rcd13ifvqerg","pricing_plan_id":"free"},{"bike_id":"26a252ad-0eaf-4d47-ac46-ed2a0086a489","system_id":"levelo_inurba_marseille","lat":43.283502,"lon":5.386471,"is_reserved":false,"is_disabled":false,"rental_uris":{"android":"levelo://app?vid=26a252ad-0eaf-4d47-ac46-ed2a0086a489","ios":"levelo://app?vid=26a252ad-0eaf-4d47-ac46-ed2a0086a489"},"vehicle_type_id":"4","last_reported":1701842995,"current_range_meters":23600,"station_id":"ce4bh492rcd13ifvqdvg","pricing_plan_id":"free"},{"bike_id":"d646aa68-9c4d-43d0-ba82-1619c0e4ff50","system_id":"levelo_inurba_marseille","lat":43.282744,"lon":5.350533,"is_reserved":false,"is_disabled":false,"rental_uris":{"android":"levelo://app?vid=d646aa68-9c4d-43d0-ba82-1619c0e4ff50","ios":"levelo://app?vid=d646aa68-9c4d-43d0-ba82-1619c0e4ff50"},"vehicle_type_id":"4","last_reported":1701842995,"current_range_meters":30400,"station_id":"ce4bhbp2rcd13ifvqerg","pricing_plan_id":"free"},{"bike_id":"40a47b5a-3640-4741-9377-dd3714af94e6","system_id":"levelo_inurba_marseille","lat":43.282744,"lon":5.350533,"is_reserved":false,"is_disabled":false,"rental_uris":{"android":"levelo://app?vid=40a47b5a-3640-4741-9377-dd3714af94e6","ios":"levelo://app?vid=40a47b5a-3640-4741-9377-dd3714af94e6"},"vehicle_type_id":"4","last_reported":1701842995,"current_range_meters":18000,"station_id":"ce4bhbp2rcd13ifvqerg","pricing_plan_id":"free"},{"bike_id":"6186e0f7-b8b9-4f39-a579-77b000f1acf6","system_id":"levelo_inurba_marseille","lat":43.290537,"lon":5.399397,"is_reserved":false,"is_disabled":false,"rental_uris":{"android":"levelo://app?vid=6186e0f7-b8b9-4f39-a579-77b000f1acf6","ios":"levelo://app?vid=6186e0f7-b8b9-4f39-a579-77b000f1acf6"},"vehicle_type_id":"4","last_reported":1701842995,"current_range_meters":28800,"station_id":"ce4bh392rcd13ifvqdm0","pricing_plan_id":"free"},{"bike_id":"4af20425-dd25-4f1d-89c3-d29867d8ce0e","system_id":"levelo_inurba_marseille","lat":43.28039,"lon":5.369297,"is_reserved":false,"is_disabled":false,"rental_uris":{"android":"levelo://app?vid=4af20425-dd25-4f1d-89c3-d29867d8ce0e","ios":"levelo://app?vid=4af20425-dd25-4f1d-89c3-d29867d8ce0e"},"vehicle_type_id":"4","last_reported":1701842995,"current_range_meters":12400,"station_id":"ce4bha12rcd13ifvqef0","pricing_plan_id":"free"},{"bike_id":"3e63bd18-083f-433f-90d8-accbcf1dd2cc","system_id":"levelo_inurba_marseille","lat":43.28039,"lon":5.369297,"is_reserved":false,"is_disabled":false,"rental_uris":{"android":"levelo://app?vid=3e63bd18-083f-433f-90d8-accbcf1dd2cc","ios":"levelo://app?vid=3e63bd18-083f-433f-90d8-accbcf1dd2cc"},"vehicle_type_id":"4","last_reported":1701842995,"current_range_meters":30000,"station_id":"ce4bha12rcd13ifvqef0","pricing_plan_id":"free"},{"bike_id":"75972282-15cc-44bc-b5ff-d20e6063f1de","system_id":"levelo_inurba_marseille","lat":43.28039,"lon":5.369297,"is_reserved":false,"is_disabled":false,"rental_uris":{"android":"levelo://app?vid=75972282-15cc-44bc-b5ff-d20e6063f1de","ios":"levelo://app?vid=75972282-15cc-44bc-b5ff-d20e6063f1de"},"vehicle_type_id":"4","last_reported":1701842995,"current_range_meters":19600,"station_id":"ce4bha12rcd13ifvqef0","pricing_plan_id":"free"},{"bike_id":"54ed5a7f-9259-47f8-a381-3ea9ad9e4f00","system_id":"levelo_inurba_marseille","lat":43.28039,"lon":5.369297,"is_reserved":false,"is_disabled":false,"rental_uris":{"android":"levelo://app?vid=54ed5a7f-9259-47f8-a381-3ea9ad9e4f00","ios":"levelo://app?vid=54ed5a7f-9259-47f8-a381-3ea9ad9e4f00"},"vehicle_type_id":"4","last_reported":1701842995,"current_range_meters":11600,"station_id":"ce4bha12rcd13ifvqef0","pricing_plan_id":"free"},{"bike_id":"fa4c094d-7c46-426d-b881-1f52f22868da","system_id":"levelo_inurba_marseille","lat":43.28039,"lon":5.369297,"is_reserved":false,"is_disabled":false,"rental_uris":{"android":"levelo://app?vid=fa4c094d-7c46-426d-b881-1f52f22868da","ios":"levelo://app?vid=fa4c094d-7c46-426d-b881-1f52f22868da"},"vehicle_type_id":"4","last_reported":1701842995,"current_range_meters":18000,"station_id":"ce4bha12rcd13ifvqef0","pricing_plan_id":"free"},{"bike_id":"46553329-d409-4d07-a831-962063d5461e","system_id":"levelo_inurba_marseille","lat":43.29049,"lon":5.39958,"is_reserved":false,"is_disabled":false,"rental_uris":{"android":"levelo://app?vid=46553329-d409-4d07-a831-962063d5461e","ios":"levelo://app?vid=46553329-d409-4d07-a831-962063d5461e"},"vehicle_type_id":"4","last_reported":1701842995,"current_range_meters":27200,"station_id":"ce4bh392rcd13ifvqdm0","pricing_plan_id":"free"},{"bike_id":"7da1ff05-2f94-43e8-b55b-2e79a7fe142a","system_id":"levelo_inurba_marseille","lat":43.29044,"lon":5.39961,"is_reserved":false,"is_disabled":false,"rental_uris":{"android":"levelo://app?vid=7da1ff05-2f94-43e8-b55b-2e79a7fe142a","ios":"levelo://app?vid=7da1ff05-2f94-43e8-b55b-2e79a7fe142a"},"vehicle_type_id":"4","last_reported":1701842995,"current_range_meters":31200,"station_id":"ce4bh392rcd13ifvqdm0","pricing_plan_id":"free"},{"bike_id":"4dd6d4d1-1b13-421e-bfa2-310881eb163e","system_id":"levelo_inurba_marseille","lat":43.290434,"lon":5.399614,"is_reserved":false,"is_disabled":false,"rental_uris":{"android":"levelo://app?vid=4dd6d4d1-1b13-421e-bfa2-310881eb163e","ios":"levelo://app?vid=4dd6d4d1-1b13-421e-bfa2-310881eb163e"},"vehicle_type_id":"4","last_reported":1701842995,"current_range_meters":22400,"station_id":"ce4bh392rcd13ifvqdm0","pricing_plan_id":"free"},{"bike_id":"9e76bb12-f059-404f-b608-dd58c9ba0552","system_id":"levelo_inurba_marseille","lat":43.29041,"lon":5.39967,"is_reserved":false,"is_disabled":false,"rental_uris":{"android":"levelo://app?vid=9e76bb12-f059-404f-b608-dd58c9ba0552","ios":"levelo://app?vid=9e76bb12-f059-404f-b608-dd58c9ba0552"},"vehicle_type_id":"4","last_reported":1701842995,"current_range_meters":26800,"station_id":"ce4bh392rcd13ifvqdm0","pricing_plan_id":"free"},{"bike_id":"c6af7d57-df1b-4747-8b86-8ba8ed28735a","system_id":"levelo_inurba_marseille","lat":43.29045,"lon":5.399745,"is_reserved":false,"is_disabled":false,"rental_uris":{"android":"levelo://app?vid=c6af7d57-df1b-4747-8b86-8ba8ed28735a","ios":"levelo://app?vid=c6af7d57-df1b-4747-8b86-8ba8ed28735a"},"vehicle_type_id":"4","last_reported":1701842995,"current_range_meters":30000,"station_id":"ce4bh392rcd13ifvqdm0","pricing_plan_id":"free"},{"bike_id":"da9a5c58-37bc-4ebd-9509-649b339893d0","system_id":"levelo_inurba_marseille","lat":43.290459,"lon":5.399819,"is_reserved":false,"is_disabled":false,"rental_uris":{"android":"levelo://app?vid=da9a5c58-37bc-4ebd-9509-649b339893d0","ios":"levelo://app?vid=da9a5c58-37bc-4ebd-9509-649b339893d0"},"vehicle_type_id":"4","last_reported":1701842995,"current_range_meters":28400,"station_id":"ce4bh392rcd13ifvqdm0","pricing_plan_id":"free"},{"bike_id":"6914d032-7ab4-468d-bd05-c00330cfa5ca","system_id":"levelo_inurba_marseille","lat":43.29037,"lon":5.39973,"is_reserved":false,"is_disabled":false,"rental_uris":{"android":"levelo://app?vid=6914d032-7ab4-468d-bd05-c00330cfa5ca","ios":"levelo://app?vid=6914d032-7ab4-468d-bd05-c00330cfa5ca"},"vehicle_type_id":"4","last_reported":1701842995,"current_range_meters":30000,"station_id":"ce4bh392rcd13ifvqdm0","pricing_plan_id":"free"},{"bike_id":"2d6eff13-8fda-4cb3-80e8-58657979f93c","system_id":"levelo_inurba_marseille","lat":43.290415,"lon":5.399804,"is_reserved":false,"is_disabled":false,"rental_uris":{"android":"levelo://app?vid=2d6eff13-8fda-4cb3-80e8-58657979f93c","ios":"levelo://app?vid=2d6eff13-8fda-4cb3-80e8-58657979f93c"},"vehicle_type_id":"4","last_reported":1701842995,"current_range_meters":31200,"station_id":"ce4bh392rcd13ifvqdm0","pricing_plan_id":"free"},{"bike_id":"ad21ebd0-8358-4a63-b9ae-b9ea9eba57a7","system_id":"levelo_inurba_marseille","lat":43.290427,"lon":5.399864,"is_reserved":false,"is_disabled":false,"rental_uris":{"android":"levelo://app?vid=ad21ebd0-8358-4a63-b9ae-b9ea9eba57a7","ios":"levelo://app?vid=ad21ebd0-8358-4a63-b9ae-b9ea9eba57a7"},"vehicle_type_id":"4","last_reported":1701842995,"current_range_meters":31200,"station_id":"ce4bh392rcd13ifvqdm0","pricing_plan_id":"free"},{"bike_id":"6c20f491-16b8-4c38-81cf-1d839bbd8ef9","system_id":"levelo_inurba_marseille","lat":43.281044,"lon":5.378308,"is_reserved":false,"is_disabled":false,"rental_uris":{"android":"levelo://app?vid=6c20f491-16b8-4c38-81cf-1d839bbd8ef9","ios":"levelo://app?vid=6c20f491-16b8-4c38-81cf-1d839bbd8ef9"},"vehicle_type_id":"4","last_reported":1701842995,"current_range_meters":30000,"station_id":"ce4bha12rcd13ifvqee0","pricing_plan_id":"free"},{"bike_id":"988b1224-06ac-49dd-be2a-e5f947f36139","system_id":"levelo_inurba_marseille","lat":43.281044,"lon":5.378308,"is_reserved":false,"is_disabled":false,"rental_uris":{"android":"levelo://app?vid=988b1224-06ac-49dd-be2a-e5f947f36139","ios":"levelo://app?vid=988b1224-06ac-49dd-be2a-e5f947f36139"},"vehicle_type_id":"4","last_reported":1701842995,"current_range_meters":27200,"station_id":"ce4bha12rcd13ifvqee0","pricing_plan_id":"free"},{"bike_id":"abb54b0a-7865-4306-a9c4-4277023e5162","system_id":"levelo_inurba_marseille","lat":43.281044,"lon":5.378308,"is_reserved":false,"is_disabled":false,"rental_uris":{"android":"levelo://app?vid=abb54b0a-7865-4306-a9c4-4277023e5162","ios":"levelo://app?vid=abb54b0a-7865-4306-a9c4-4277023e5162"},"vehicle_type_id":"4","last_reported":1701842995,"current_range_meters":5200,"station_id":"ce4bha12rcd13ifvqee0","pricing_plan_id":"free"},{"bike_id":"4412e6de-eb02-4ba1-9c5f-53a7a320083f","system_id":"levelo_inurba_marseille","lat":43.28094,"lon":5.378445,"is_reserved":false,"is_disabled":false,"rental_uris":{"android":"levelo://app?vid=4412e6de-eb02-4ba1-9c5f-53a7a320083f","ios":"levelo://app?vid=4412e6de-eb02-4ba1-9c5f-53a7a320083f"},"vehicle_type_id":"4","last_reported":1701842995,"current_range_meters":20000,"station_id":"ce4bha12rcd13ifvqee0","pricing_plan_id":"free"},{"bike_id":"3b4ac1c6-6cbf-4e90-b601-9d8596040740","system_id":"levelo_inurba_marseille","lat":43.284462,"lon":5.392121,"is_reserved":false,"is_disabled":false,"rental_uris":{"android":"levelo://app?vid=3b4ac1c6-6cbf-4e90-b601-9d8596040740","ios":"levelo://app?vid=3b4ac1c6-6cbf-4e90-b601-9d8596040740"},"vehicle_type_id":"4","last_reported":1701842995,"current_range_meters":10000,"station_id":"ce4bhoh2rcd13ifvqh5g","pricing_plan_id":"free"},{"bike_id":"30faf595-d9a3-4e34-b5a3-d9005e5d8d47","system_id":"levelo_inurba_marseille","lat":43.28432,"lon":5.39181,"is_reserved":false,"is_disabled":false,"rental_uris":{"android":"levelo://app?vid=30faf595-d9a3-4e34-b5a3-d9005e5d8d47","ios":"levelo://app?vid=30faf595-d9a3-4e34-b5a3-d9005e5d8d47"},"vehicle_type_id":"4","last_reported":1701842995,"current_range_meters":7600,"station_id":"ce4bhoh2rcd13ifvqh5g","pricing_plan_id":"free"},{"bike_id":"e8014cea-c9dd-4195-91da-914c84f626a2","system_id":"levelo_inurba_marseille","lat":43.28432,"lon":5.39188,"is_reserved":false,"is_disabled":false,"rental_uris":{"android":"levelo://app?vid=e8014cea-c9dd-4195-91da-914c84f626a2","ios":"levelo://app?vid=e8014cea-c9dd-4195-91da-914c84f626a2"},"vehicle_type_id":"4","last_reported":1701842995,"current_range_meters":16800,"station_id":"ce4bhoh2rcd13ifvqh5g","pricing_plan_id":"free"},{"bike_id":"b03d3379-3aea-49d3-a5ac-5ae96e10a08d","system_id":"levelo_inurba_marseille","lat":43.28573,"lon":5.394992,"is_reserved":false,"is_disabled":false,"rental_uris":{"android":"levelo://app?vid=b03d3379-3aea-49d3-a5ac-5ae96e10a08d","ios":"levelo://app?vid=b03d3379-3aea-49d3-a5ac-5ae96e10a08d"},"vehicle_type_id":"4","last_reported":1701842995,"current_range_meters":14000,"station_id":"ce4bh292rcd13ifvqdg0","pricing_plan_id":"free"},{"bike_id":"35c24e5c-0f71-4fb4-9169-b0334483ea65","system_id":"levelo_inurba_marseille","lat":43.285742,"lon":5.395004,"is_reserved":false,"is_disabled":false,"rental_uris":{"android":"levelo://app?vid=35c24e5c-0f71-4fb4-9169-b0334483ea65","ios":"levelo://app?vid=35c24e5c-0f71-4fb4-9169-b0334483ea65"},"vehicle_type_id":"4","last_reported":1701842995,"current_range_meters":28800,"station_id":"ce4bh292rcd13ifvqdg0","pricing_plan_id":"free"},{"bike_id":"537b6760-696d-4ecd-93fb-02bd18532c61","system_id":"levelo_inurba_marseille","lat":43.28573,"lon":5.394992,"is_reserved":false,"is_disabled":false,"rental_uris":{"android":"levelo://app?vid=537b6760-696d-4ecd-93fb-02bd18532c61","ios":"levelo://app?vid=537b6760-696d-4ecd-93fb-02bd18532c61"},"vehicle_type_id":"4","last_reported":1701842995,"current_range_meters":31200,"station_id":"ce4bh292rcd13ifvqdg0","pricing_plan_id":"free"},{"bike_id":"2f5c4560-0878-4aff-b74b-f90e1e833532","system_id":"levelo_inurba_marseille","lat":43.326605,"lon":5.409903,"is_reserved":false,"is_disabled":false,"rental_uris":{"android":"levelo://app?vid=2f5c4560-0878-4aff-b74b-f90e1e833532","ios":"levelo://app?vid=2f5c4560-0878-4aff-b74b-f90e1e833532"},"vehicle_type_id":"4","last_reported":1701842995,"current_range_meters":28000,"station_id":"ce4bhpp2rcd13ifvqhgg","pricing_plan_id":"free"},{"bike_id":"9faba46c-ddb2-4ff9-abba-999d21209561","system_id":"levelo_inurba_marseille","lat":43.304188,"lon":5.412904,"is_reserved":false,"is_disabled":false,"rental_uris":{"android":"levelo://app?vid=9faba46c-ddb2-4ff9-abba-999d21209561","ios":"levelo://app?vid=9faba46c-ddb2-4ff9-abba-999d21209561"},"vehicle_type_id":"4","last_reported":1701842995,"current_range_meters":28800,"station_id":"ce4bhop2rcd13ifvqh8g","pricing_plan_id":"free"},{"bike_id":"605025cf-6133-4ca6-94f3-146cb8bd30a1","system_id":"levelo_inurba_marseille","lat":43.320045,"lon":5.415046,"is_reserved":false,"is_disabled":false,"rental_uris":{"android":"levelo://app?vid=605025cf-6133-4ca6-94f3-146cb8bd30a1","ios":"levelo://app?vid=605025cf-6133-4ca6-94f3-146cb8bd30a1"},"vehicle_type_id":"4","last_reported":1701842995,"current_range_meters":22000,"station_id":"ce4bhq92rcd13ifvqhkg","pricing_plan_id":"free"},{"bike_id":"e5d6c46c-88df-4016-89e2-55665425c00c","system_id":"levelo_inurba_marseille","lat":43.320045,"lon":5.415046,"is_reserved":false,"is_disabled":false,"rental_uris":{"android":"levelo://app?vid=e5d6c46c-88df-4016-89e2-55665425c00c","ios":"levelo://app?vid=e5d6c46c-88df-4016-89e2-55665425c00c"},"vehicle_type_id":"4","last_reported":1701842995,"current_range_meters":31200,"station_id":"ce4bhq92rcd13ifvqhkg","pricing_plan_id":"free"},{"bike_id":"338dbf78-7f2f-4851-be50-5d0f51031a97","system_id":"levelo_inurba_marseille","lat":43.292569,"lon":5.409107,"is_reserved":false,"is_disabled":false,"rental_uris":{"android":"levelo://app?vid=338dbf78-7f2f-4851-be50-5d0f51031a97","ios":"levelo://app?vid=338dbf78-7f2f-4851-be50-5d0f51031a97"},"vehicle_type_id":"4","last_reported":1701842995,"current_range_meters":25600,"station_id":"ce4bh192rcd13ifvqdc0","pricing_plan_id":"free"},{"bike_id":"66900054-2c43-4986-be1a-34ce600d185f","system_id":"levelo_inurba_marseille","lat":43.280784,"lon":5.396622,"is_reserved":false,"is_disabled":false,"rental_uris":{"android":"levelo://app?vid=66900054-2c43-4986-be1a-34ce600d185f","ios":"levelo://app?vid=66900054-2c43-4986-be1a-34ce600d185f"},"vehicle_type_id":"4","last_reported":1701842995,"current_range_meters":26800,"station_id":"ce4bho12rcd13ifvqh2g","pricing_plan_id":"free"},{"bike_id":"e653648a-b829-4301-bab0-7c830288dee0","system_id":"levelo_inurba_marseille","lat":43.303837,"lon":5.418724,"is_reserved":false,"is_disabled":false,"rental_uris":{"android":"levelo://app?vid=e653648a-b829-4301-bab0-7c830288dee0","ios":"levelo://app?vid=e653648a-b829-4301-bab0-7c830288dee0"},"vehicle_type_id":"4","last_reported":1701842995,"current_range_meters":30800,"station_id":"ce4bhop2rcd13ifvqh7g","pricing_plan_id":"free"},{"bike_id":"277807d3-0fac-4204-a839-b8ca8c686400","system_id":"levelo_inurba_marseille","lat":43.303837,"lon":5.418724,"is_reserved":false,"is_disabled":false,"rental_uris":{"android":"levelo://app?vid=277807d3-0fac-4204-a839-b8ca8c686400","ios":"levelo://app?vid=277807d3-0fac-4204-a839-b8ca8c686400"},"vehicle_type_id":"4","last_reported":1701842995,"current_range_meters":28000,"station_id":"ce4bhop2rcd13ifvqh7g","pricing_plan_id":"free"},{"bike_id":"8d3318de-ae70-4d4c-a0c3-af014cb01a56","system_id":"levelo_inurba_marseille","lat":43.278401,"lon":5.392152,"is_reserved":false,"is_disabled":false,"rental_uris":{"android":"levelo://app?vid=8d3318de-ae70-4d4c-a0c3-af014cb01a56","ios":"levelo://app?vid=8d3318de-ae70-4d4c-a0c3-af014cb01a56"},"vehicle_type_id":"4","last_reported":1701842995,"current_range_meters":28000,"station_id":"ce4bhjp2rcd13ifvqga0","pricing_plan_id":"free"},{"bike_id":"836698bf-0593-4c6f-a29c-25959d245d4a","system_id":"levelo_inurba_marseille","lat":43.273613,"lon":5.362705,"is_reserved":false,"is_disabled":false,"rental_uris":{"android":"levelo://app?vid=836698bf-0593-4c6f-a29c-25959d245d4a","ios":"levelo://app?vid=836698bf-0593-4c6f-a29c-25959d245d4a"},"vehicle_type_id":"4","last_reported":1701842995,"current_range_meters":27200,"station_id":"ce4bhbh2rcd13ifvqeo0","pricing_plan_id":"free"},{"bike_id":"9fd44b34-882b-417d-a6b8-bfa85ff544cf","system_id":"levelo_inurba_marseille","lat":43.33612,"lon":5.410321,"is_reserved":false,"is_disabled":false,"rental_uris":{"android":"levelo://app?vid=9fd44b34-882b-417d-a6b8-bfa85ff544cf","ios":"levelo://app?vid=9fd44b34-882b-417d-a6b8-bfa85ff544cf"},"vehicle_type_id":"4","last_reported":1701842995,"current_range_meters":27600,"station_id":"ce4bhqh2rcd13ifvqhmg","pricing_plan_id":"free"},{"bike_id":"b1e0d68f-b5ce-4efc-a11d-bb9890d3062f","system_id":"levelo_inurba_marseille","lat":43.278791,"lon":5.394893,"is_reserved":false,"is_disabled":false,"rental_uris":{"android":"levelo://app?vid=b1e0d68f-b5ce-4efc-a11d-bb9890d3062f","ios":"levelo://app?vid=b1e0d68f-b5ce-4efc-a11d-bb9890d3062f"},"vehicle_type_id":"4","last_reported":1701842995,"current_range_meters":26400,"station_id":"","pricing_plan_id":"free"},{"bike_id":"2c337d2b-cceb-4a65-b16d-e1c20cfe6466","system_id":"levelo_inurba_marseille","lat":43.279975,"lon":5.40009,"is_reserved":false,"is_disabled":false,"rental_uris":{"android":"levelo://app?vid=2c337d2b-cceb-4a65-b16d-e1c20cfe6466","ios":"levelo://app?vid=2c337d2b-cceb-4a65-b16d-e1c20cfe6466"},"vehicle_type_id":"4","last_reported":1701842995,"current_range_meters":30400,"station_id":"ce4bho92rcd13ifvqh4g","pricing_plan_id":"free"},{"bike_id":"5c10bde1-24aa-4e39-bdd5-9dcf98042632","system_id":"levelo_inurba_marseille","lat":43.317121,"lon":5.423936,"is_reserved":false,"is_disabled":false,"rental_uris":{"android":"levelo://app?vid=5c10bde1-24aa-4e39-bdd5-9dcf98042632","ios":"levelo://app?vid=5c10bde1-24aa-4e39-bdd5-9dcf98042632"},"vehicle_type_id":"4","last_reported":1701842995,"current_range_meters":29200,"station_id":"ce4bhp92rcd13ifvqhbg","pricing_plan_id":"free"},{"bike_id":"dd6b756e-3032-4bf3-8729-0e0248edbc6c","system_id":"levelo_inurba_marseille","lat":43.317121,"lon":5.423936,"is_reserved":false,"is_disabled":false,"rental_uris":{"android":"levelo://app?vid=dd6b756e-3032-4bf3-8729-0e0248edbc6c","ios":"levelo://app?vid=dd6b756e-3032-4bf3-8729-0e0248edbc6c"},"vehicle_type_id":"4","last_reported":1701842995,"current_range_meters":31200,"station_id":"ce4bhp92rcd13ifvqhbg","pricing_plan_id":"free"},{"bike_id":"989a01d2-f2a9-4c11-8a79-9792d64b5413","system_id":"levelo_inurba_marseille","lat":43.27622,"lon":5.39483,"is_reserved":false,"is_disabled":false,"rental_uris":{"android":"levelo://app?vid=989a01d2-f2a9-4c11-8a79-9792d64b5413","ios":"levelo://app?vid=989a01d2-f2a9-4c11-8a79-9792d64b5413"},"vehicle_type_id":"4","last_reported":1701842995,"current_range_meters":10000,"station_id":"","pricing_plan_id":"free"},{"bike_id":"354d4287-7d7e-4bcb-93a2-6e310ddd5d92","system_id":"levelo_inurba_marseille","lat":43.310785,"lon":5.424305,"is_reserved":false,"is_disabled":false,"rental_uris":{"android":"levelo://app?vid=354d4287-7d7e-4bcb-93a2-6e310ddd5d92","ios":"levelo://app?vid=354d4287-7d7e-4bcb-93a2-6e310ddd5d92"},"vehicle_type_id":"4","last_reported":1701842995,"current_range_meters":26000,"station_id":"ce4bhp92rcd13ifvqhag","pricing_plan_id":"free"},{"bike_id":"35583fe3-d19c-4d33-bdaf-ce96ce3f04aa","system_id":"levelo_inurba_marseille","lat":43.340804,"lon":5.410219,"is_reserved":false,"is_disabled":false,"rental_uris":{"android":"levelo://app?vid=35583fe3-d19c-4d33-bdaf-ce96ce3f04aa","ios":"levelo://app?vid=35583fe3-d19c-4d33-bdaf-ce96ce3f04aa"},"vehicle_type_id":"4","last_reported":1701842995,"current_range_meters":25600,"station_id":"ce4bhqh2rcd13ifvqhlg","pricing_plan_id":"free"},{"bike_id":"910fd3aa-d2e0-4553-894a-6161d41c7fcd","system_id":"levelo_inurba_marseille","lat":43.27571,"lon":5.395332,"is_reserved":false,"is_disabled":false,"rental_uris":{"android":"levelo://app?vid=910fd3aa-d2e0-4553-894a-6161d41c7fcd","ios":"levelo://app?vid=910fd3aa-d2e0-4553-894a-6161d41c7fcd"},"vehicle_type_id":"4","last_reported":1701842995,"current_range_meters":4000,"station_id":"","pricing_plan_id":"free"},{"bike_id":"ab3cea41-20c5-4dad-8c4b-1d1da6b6b0b7","system_id":"levelo_inurba_marseille","lat":43.273125,"lon":5.390731,"is_reserved":false,"is_disabled":false,"rental_uris":{"android":"levelo://app?vid=ab3cea41-20c5-4dad-8c4b-1d1da6b6b0b7","ios":"levelo://app?vid=ab3cea41-20c5-4dad-8c4b-1d1da6b6b0b7"},"vehicle_type_id":"4","last_reported":1701842995,"current_range_meters":31600,"station_id":"ce4bhgp2rcd13ifvqfe0","pricing_plan_id":"free"},{"bike_id":"0debc1b1-b0b0-4512-99aa-fb482d2414d0","system_id":"levelo_inurba_marseille","lat":43.273129,"lon":5.390725,"is_reserved":false,"is_disabled":false,"rental_uris":{"android":"levelo://app?vid=0debc1b1-b0b0-4512-99aa-fb482d2414d0","ios":"levelo://app?vid=0debc1b1-b0b0-4512-99aa-fb482d2414d0"},"vehicle_type_id":"4","last_reported":1701842995,"current_range_meters":28000,"station_id":"ce4bhgp2rcd13ifvqfe0","pricing_plan_id":"free"},{"bike_id":"c59ed57f-8eeb-4e5e-ada5-941d308f390c","system_id":"levelo_inurba_marseille","lat":43.273125,"lon":5.390731,"is_reserved":false,"is_disabled":false,"rental_uris":{"android":"levelo://app?vid=c59ed57f-8eeb-4e5e-ada5-941d308f390c","ios":"levelo://app?vid=c59ed57f-8eeb-4e5e-ada5-941d308f390c"},"vehicle_type_id":"4","last_reported":1701842995,"current_range_meters":23600,"station_id":"ce4bhgp2rcd13ifvqfe0","pricing_plan_id":"free"},{"bike_id":"146933d4-ae13-45f7-922b-b93ca7376187","system_id":"levelo_inurba_marseille","lat":43.295523,"lon":5.422926,"is_reserved":false,"is_disabled":false,"rental_uris":{"android":"levelo://app?vid=146933d4-ae13-45f7-922b-b93ca7376187","ios":"levelo://app?vid=146933d4-ae13-45f7-922b-b93ca7376187"},"vehicle_type_id":"4","last_reported":1701842995,"current_range_meters":31200,"station_id":"ce4bhph2rcd13ifvqhdg","pricing_plan_id":"free"},{"bike_id":"10e20d9f-d548-4113-81d2-b27fe9c849b1","system_id":"levelo_inurba_marseille","lat":43.272116,"lon":5.391763,"is_reserved":false,"is_disabled":false,"rental_uris":{"android":"levelo://app?vid=10e20d9f-d548-4113-81d2-b27fe9c849b1","ios":"levelo://app?vid=10e20d9f-d548-4113-81d2-b27fe9c849b1"},"vehicle_type_id":"4","last_reported":1701842995,"current_range_meters":30800,"station_id":"ce4bhhp2rcd13ifvqfm0","pricing_plan_id":"free"},{"bike_id":"f8554868-6d5e-4901-96b9-c906b60c70cf","system_id":"levelo_inurba_marseille","lat":43.272124,"lon":5.391768,"is_reserved":false,"is_disabled":false,"rental_uris":{"android":"levelo://app?vid=f8554868-6d5e-4901-96b9-c906b60c70cf","ios":"levelo://app?vid=f8554868-6d5e-4901-96b9-c906b60c70cf"},"vehicle_type_id":"4","last_reported":1701842995,"current_range_meters":27200,"station_id":"ce4bhhp2rcd13ifvqfm0","pricing_plan_id":"free"},{"bike_id":"93d02322-6712-44a9-b549-ee8a528bf2bc","system_id":"levelo_inurba_marseille","lat":43.272118,"lon":5.391758,"is_reserved":false,"is_disabled":false,"rental_uris":{"android":"levelo://app?vid=93d02322-6712-44a9-b549-ee8a528bf2bc","ios":"levelo://app?vid=93d02322-6712-44a9-b549-ee8a528bf2bc"},"vehicle_type_id":"4","last_reported":1701842995,"current_range_meters":24000,"station_id":"ce4bhhp2rcd13ifvqfm0","pricing_plan_id":"free"},{"bike_id":"4aaafaa4-5992-4d41-aca4-45ea537c3e9e","system_id":"levelo_inurba_marseille","lat":43.27214,"lon":5.3925,"is_reserved":false,"is_disabled":false,"rental_uris":{"android":"levelo://app?vid=4aaafaa4-5992-4d41-aca4-45ea537c3e9e","ios":"levelo://app?vid=4aaafaa4-5992-4d41-aca4-45ea537c3e9e"},"vehicle_type_id":"4","last_reported":1701842995,"current_range_meters":14400,"station_id":"","pricing_plan_id":"free"},{"bike_id":"23e7805f-31cb-46bd-9a5d-81b63aeaaaeb","system_id":"levelo_inurba_marseille","lat":43.278128,"lon":5.407195,"is_reserved":false,"is_disabled":false,"rental_uris":{"android":"levelo://app?vid=23e7805f-31cb-46bd-9a5d-81b63aeaaaeb","ios":"levelo://app?vid=23e7805f-31cb-46bd-9a5d-81b63aeaaaeb"},"vehicle_type_id":"4","last_reported":1701842995,"current_range_meters":18400,"station_id":"ce4bhnh2rcd13ifvqgtg","pricing_plan_id":"free"},{"bike_id":"ad7b8c4c-f36c-4ad3-970c-75ebd695c360","system_id":"levelo_inurba_marseille","lat":43.278128,"lon":5.407195,"is_reserved":false,"is_disabled":false,"rental_uris":{"android":"levelo://app?vid=ad7b8c4c-f36c-4ad3-970c-75ebd695c360","ios":"levelo://app?vid=ad7b8c4c-f36c-4ad3-970c-75ebd695c360"},"vehicle_type_id":"4","last_reported":1701842995,"current_range_meters":30400,"station_id":"ce4bhnh2rcd13ifvqgtg","pricing_plan_id":"free"},{"bike_id":"a6f33f78-b9bb-4932-80af-5b43dd5bb9d9","system_id":"levelo_inurba_marseille","lat":43.269319,"lon":5.389397,"is_reserved":false,"is_disabled":false,"rental_uris":{"android":"levelo://app?vid=a6f33f78-b9bb-4932-80af-5b43dd5bb9d9","ios":"levelo://app?vid=a6f33f78-b9bb-4932-80af-5b43dd5bb9d9"},"vehicle_type_id":"4","last_reported":1701842995,"current_range_meters":28400,"station_id":"ce4bhhh2rcd13ifvqfl0","pricing_plan_id":"free"},{"bike_id":"8209aafb-2027-4cbd-8eb8-0e1c3363e94b","system_id":"levelo_inurba_marseille","lat":43.26681,"lon":5.382694,"is_reserved":false,"is_disabled":false,"rental_uris":{"android":"levelo://app?vid=8209aafb-2027-4cbd-8eb8-0e1c3363e94b","ios":"levelo://app?vid=8209aafb-2027-4cbd-8eb8-0e1c3363e94b"},"vehicle_type_id":"4","last_reported":1701842995,"current_range_meters":27200,"station_id":"ce4bhg92rcd13ifvqf90","pricing_plan_id":"free"},{"bike_id":"1ccdf379-a16a-4b4d-aac2-f0555b1e4d46","system_id":"levelo_inurba_marseille","lat":43.26681,"lon":5.382694,"is_reserved":false,"is_disabled":false,"rental_uris":{"android":"levelo://app?vid=1ccdf379-a16a-4b4d-aac2-f0555b1e4d46","ios":"levelo://app?vid=1ccdf379-a16a-4b4d-aac2-f0555b1e4d46"},"vehicle_type_id":"4","last_reported":1701842995,"current_range_meters":26000,"station_id":"ce4bhg92rcd13ifvqf90","pricing_plan_id":"free"},{"bike_id":"a4170f54-00ac-456c-b9a7-c78894468c22","system_id":"levelo_inurba_marseille","lat":43.26681,"lon":5.382694,"is_reserved":false,"is_disabled":false,"rental_uris":{"android":"levelo://app?vid=a4170f54-00ac-456c-b9a7-c78894468c22","ios":"levelo://app?vid=a4170f54-00ac-456c-b9a7-c78894468c22"},"vehicle_type_id":"4","last_reported":1701842995,"current_range_meters":31200,"station_id":"ce4bhg92rcd13ifvqf90","pricing_plan_id":"free"},{"bike_id":"fd7dc284-0814-4428-a04a-046099187059","system_id":"levelo_inurba_marseille","lat":43.26679,"lon":5.38269,"is_reserved":false,"is_disabled":false,"rental_uris":{"android":"levelo://app?vid=fd7dc284-0814-4428-a04a-046099187059","ios":"levelo://app?vid=fd7dc284-0814-4428-a04a-046099187059"},"vehicle_type_id":"4","last_reported":1701842995,"current_range_meters":28000,"station_id":"ce4bhg92rcd13ifvqf90","pricing_plan_id":"free"},{"bike_id":"a096c7b6-0324-45c5-aebe-20feced15eca","system_id":"levelo_inurba_marseille","lat":43.26681,"lon":5.382694,"is_reserved":false,"is_disabled":false,"rental_uris":{"android":"levelo://app?vid=a096c7b6-0324-45c5-aebe-20feced15eca","ios":"levelo://app?vid=a096c7b6-0324-45c5-aebe-20feced15eca"},"vehicle_type_id":"4","last_reported":1701842995,"current_range_meters":26800,"station_id":"ce4bhg92rcd13ifvqf90","pricing_plan_id":"free"},{"bike_id":"6b5e992e-9e20-496f-81c7-c8f53534a18a","system_id":"levelo_inurba_marseille","lat":43.26681,"lon":5.382694,"is_reserved":false,"is_disabled":false,"rental_uris":{"android":"levelo://app?vid=6b5e992e-9e20-496f-81c7-c8f53534a18a","ios":"levelo://app?vid=6b5e992e-9e20-496f-81c7-c8f53534a18a"},"vehicle_type_id":"4","last_reported":1701842995,"current_range_meters":24800,"station_id":"ce4bhg92rcd13ifvqf90","pricing_plan_id":"free"},{"bike_id":"d83c1d29-0c1c-499a-bafb-c8e63eefe8ff","system_id":"levelo_inurba_marseille","lat":43.266745,"lon":5.382725,"is_reserved":false,"is_disabled":false,"rental_uris":{"android":"levelo://app?vid=d83c1d29-0c1c-499a-bafb-c8e63eefe8ff","ios":"levelo://app?vid=d83c1d29-0c1c-499a-bafb-c8e63eefe8ff"},"vehicle_type_id":"4","last_reported":1701842995,"current_range_meters":25600,"station_id":"ce4bhg92rcd13ifvqf90","pricing_plan_id":"free"},{"bike_id":"bad9e360-778a-4ca8-adb3-23ee572322aa","system_id":"levelo_inurba_marseille","lat":43.266745,"lon":5.382825,"is_reserved":false,"is_disabled":false,"rental_uris":{"android":"levelo://app?vid=bad9e360-778a-4ca8-adb3-23ee572322aa","ios":"levelo://app?vid=bad9e360-778a-4ca8-adb3-23ee572322aa"},"vehicle_type_id":"4","last_reported":1701842995,"current_range_meters":13200,"station_id":"ce4bhg92rcd13ifvqf90","pricing_plan_id":"free"},{"bike_id":"e3afb33b-f178-4023-ae29-a73ff7261972","system_id":"levelo_inurba_marseille","lat":43.289743,"lon":5.378304,"is_reserved":false,"is_disabled":false,"rental_uris":{"android":"levelo://app?vid=e3afb33b-f178-4023-ae29-a73ff7261972","ios":"levelo://app?vid=e3afb33b-f178-4023-ae29-a73ff7261972"},"vehicle_type_id":"4","last_reported":1701842995,"current_range_meters":23600,"station_id":"ce4bh9p2rcd13ifvqed0","pricing_plan_id":"free"},{"bike_id":"fd555b7a-845c-4552-9660-a518d699d4a6","system_id":"levelo_inurba_marseille","lat":43.267966,"lon":5.393976,"is_reserved":false,"is_disabled":false,"rental_uris":{"android":"levelo://app?vid=fd555b7a-845c-4552-9660-a518d699d4a6","ios":"levelo://app?vid=fd555b7a-845c-4552-9660-a518d699d4a6"},"vehicle_type_id":"4","last_reported":1701842995,"current_range_meters":31200,"station_id":"ce4bhh12rcd13ifvqfg0","pricing_plan_id":"free"},{"bike_id":"e4dc3351-de07-4ef2-ab13-e6cdbe7a11b3","system_id":"levelo_inurba_marseille","lat":43.267966,"lon":5.393976,"is_reserved":false,"is_disabled":false,"rental_uris":{"android":"levelo://app?vid=e4dc3351-de07-4ef2-ab13-e6cdbe7a11b3","ios":"levelo://app?vid=e4dc3351-de07-4ef2-ab13-e6cdbe7a11b3"},"vehicle_type_id":"4","last_reported":1701842995,"current_range_meters":9200,"station_id":"ce4bhh12rcd13ifvqfg0","pricing_plan_id":"free"},{"bike_id":"8e50a2a3-63a6-454e-bfc7-0d30cf65c822","system_id":"levelo_inurba_marseille","lat":43.308051,"lon":5.43527,"is_reserved":false,"is_disabled":false,"rental_uris":{"android":"levelo://app?vid=8e50a2a3-63a6-454e-bfc7-0d30cf65c822","ios":"levelo://app?vid=8e50a2a3-63a6-454e-bfc7-0d30cf65c822"},"vehicle_type_id":"4","last_reported":1701842995,"current_range_meters":30000,"station_id":"ce4bhph2rcd13ifvqheg","pricing_plan_id":"free"},{"bike_id":"4da8d4ff-cca1-4bbf-8bff-5890c75198a3","system_id":"levelo_inurba_marseille","lat":43.261782,"lon":5.374515,"is_reserved":false,"is_disabled":false,"rental_uris":{"android":"levelo://app?vid=4da8d4ff-cca1-4bbf-8bff-5890c75198a3","ios":"levelo://app?vid=4da8d4ff-cca1-4bbf-8bff-5890c75198a3"},"vehicle_type_id":"4","last_reported":1701842995,"current_range_meters":15600,"station_id":"ce4bhgp2rcd13ifvqfc0","pricing_plan_id":"free"},{"bike_id":"ef578f86-bf4b-4e76-b5b9-fe00b0f64dcc","system_id":"levelo_inurba_marseille","lat":43.261867,"lon":5.374424,"is_reserved":false,"is_disabled":false,"rental_uris":{"android":"levelo://app?vid=ef578f86-bf4b-4e76-b5b9-fe00b0f64dcc","ios":"levelo://app?vid=ef578f86-bf4b-4e76-b5b9-fe00b0f64dcc"},"vehicle_type_id":"4","last_reported":1701842995,"current_range_meters":31200,"station_id":"ce4bhgp2rcd13ifvqfc0","pricing_plan_id":"free"},{"bike_id":"a256b908-7140-4ae0-aa15-504799516201","system_id":"levelo_inurba_marseille","lat":43.261782,"lon":5.374515,"is_reserved":false,"is_disabled":false,"rental_uris":{"android":"levelo://app?vid=a256b908-7140-4ae0-aa15-504799516201","ios":"levelo://app?vid=a256b908-7140-4ae0-aa15-504799516201"},"vehicle_type_id":"4","last_reported":1701842995,"current_range_meters":20800,"station_id":"ce4bhgp2rcd13ifvqfc0","pricing_plan_id":"free"},{"bike_id":"64b92630-41b1-408c-905e-9edc2aae542a","system_id":"levelo_inurba_marseille","lat":43.2618,"lon":5.37442,"is_reserved":false,"is_disabled":false,"rental_uris":{"android":"levelo://app?vid=64b92630-41b1-408c-905e-9edc2aae542a","ios":"levelo://app?vid=64b92630-41b1-408c-905e-9edc2aae542a"},"vehicle_type_id":"4","last_reported":1701842995,"current_range_meters":29600,"station_id":"ce4bhgp2rcd13ifvqfc0","pricing_plan_id":"free"},{"bike_id":"e3b38ee4-eaa0-4a98-a2cc-1dfbdbf6ce43","system_id":"levelo_inurba_marseille","lat":43.31715,"lon":5.43708,"is_reserved":false,"is_disabled":false,"rental_uris":{"android":"levelo://app?vid=e3b38ee4-eaa0-4a98-a2cc-1dfbdbf6ce43","ios":"levelo://app?vid=e3b38ee4-eaa0-4a98-a2cc-1dfbdbf6ce43"},"vehicle_type_id":"4","last_reported":1701842995,"current_range_meters":14800,"station_id":"ce4bhp92rcd13ifvqhcg","pricing_plan_id":"free"},{"bike_id":"29666f4f-8c2f-4d16-8f73-ba9f7e5ded49","system_id":"levelo_inurba_marseille","lat":43.261782,"lon":5.374515,"is_reserved":false,"is_disabled":false,"rental_uris":{"android":"levelo://app?vid=29666f4f-8c2f-4d16-8f73-ba9f7e5ded49","ios":"levelo://app?vid=29666f4f-8c2f-4d16-8f73-ba9f7e5ded49"},"vehicle_type_id":"4","last_reported":1701842995,"current_range_meters":12800,"station_id":"ce4bhgp2rcd13ifvqfc0","pricing_plan_id":"free"},{"bike_id":"ce63206a-4c55-4867-9ae3-5b995ed6f84c","system_id":"levelo_inurba_marseille","lat":43.271368,"lon":5.40928,"is_reserved":false,"is_disabled":false,"rental_uris":{"android":"levelo://app?vid=ce63206a-4c55-4867-9ae3-5b995ed6f84c","ios":"levelo://app?vid=ce63206a-4c55-4867-9ae3-5b995ed6f84c"},"vehicle_type_id":"4","last_reported":1701842995,"current_range_meters":31200,"station_id":"ce4bhl12rcd13ifvqgf0","pricing_plan_id":"free"},{"bike_id":"da966aee-446d-419d-82fa-15da7f2fb1f2","system_id":"levelo_inurba_marseille","lat":43.271368,"lon":5.40928,"is_reserved":false,"is_disabled":false,"rental_uris":{"android":"levelo://app?vid=da966aee-446d-419d-82fa-15da7f2fb1f2","ios":"levelo://app?vid=da966aee-446d-419d-82fa-15da7f2fb1f2"},"vehicle_type_id":"4","last_reported":1701842995,"current_range_meters":18000,"station_id":"ce4bhl12rcd13ifvqgf0","pricing_plan_id":"free"},{"bike_id":"37038aca-97ca-4cb2-81d0-9a4826818ca5","system_id":"levelo_inurba_marseille","lat":43.26202,"lon":5.379299,"is_reserved":false,"is_disabled":false,"rental_uris":{"android":"levelo://app?vid=37038aca-97ca-4cb2-81d0-9a4826818ca5","ios":"levelo://app?vid=37038aca-97ca-4cb2-81d0-9a4826818ca5"},"vehicle_type_id":"4","last_reported":1701842995,"current_range_meters":28400,"station_id":"ce4bhjp2rcd13ifvqg90","pricing_plan_id":"free"},{"bike_id":"c767e99e-1927-4c14-b7fe-3da9a58a3d73","system_id":"levelo_inurba_marseille","lat":43.267959,"lon":5.402687,"is_reserved":false,"is_disabled":false,"rental_uris":{"android":"levelo://app?vid=c767e99e-1927-4c14-b7fe-3da9a58a3d73","ios":"levelo://app?vid=c767e99e-1927-4c14-b7fe-3da9a58a3d73"},"vehicle_type_id":"4","last_reported":1701842995,"current_range_meters":28000,"station_id":"ce501612rcd8frsf0b60","pricing_plan_id":"free"},{"bike_id":"16076b9d-08c1-4b78-aef5-4c8ec51413f4","system_id":"levelo_inurba_marseille","lat":43.298768,"lon":5.43643,"is_reserved":false,"is_disabled":false,"rental_uris":{"android":"levelo://app?vid=16076b9d-08c1-4b78-aef5-4c8ec51413f4","ios":"levelo://app?vid=16076b9d-08c1-4b78-aef5-4c8ec51413f4"},"vehicle_type_id":"4","last_reported":1701842995,"current_range_meters":15200,"station_id":"ce4bhpp2rcd13ifvqhfg","pricing_plan_id":"free"},{"bike_id":"c54cd023-a6f2-4d68-aabc-4be9f862ccbb","system_id":"levelo_inurba_marseille","lat":43.298768,"lon":5.43643,"is_reserved":false,"is_disabled":false,"rental_uris":{"android":"levelo://app?vid=c54cd023-a6f2-4d68-aabc-4be9f862ccbb","ios":"levelo://app?vid=c54cd023-a6f2-4d68-aabc-4be9f862ccbb"},"vehicle_type_id":"4","last_reported":1701842995,"current_range_meters":31200,"station_id":"ce4bhpp2rcd13ifvqhfg","pricing_plan_id":"free"},{"bike_id":"ba882977-fd65-46db-93f4-a6a150eccdcb","system_id":"levelo_inurba_marseille","lat":43.281548,"lon":5.42643,"is_reserved":false,"is_disabled":false,"rental_uris":{"android":"levelo://app?vid=ba882977-fd65-46db-93f4-a6a150eccdcb","ios":"levelo://app?vid=ba882977-fd65-46db-93f4-a6a150eccdcb"},"vehicle_type_id":"4","last_reported":1701842995,"current_range_meters":25200,"station_id":"ce4bhnh2rcd13ifvqgug","pricing_plan_id":"free"},{"bike_id":"ee3f0752-b275-4948-a5e5-3ea20bb15c3f","system_id":"levelo_inurba_marseille","lat":43.2607,"lon":5.393983,"is_reserved":false,"is_disabled":false,"rental_uris":{"android":"levelo://app?vid=ee3f0752-b275-4948-a5e5-3ea20bb15c3f","ios":"levelo://app?vid=ee3f0752-b275-4948-a5e5-3ea20bb15c3f"},"vehicle_type_id":"4","last_reported":1701842995,"current_range_meters":22800,"station_id":"ce4bhh92rcd13ifvqfj0","pricing_plan_id":"free"},{"bike_id":"27e05443-4c1a-4d3d-99c9-39e4a9fc4815","system_id":"levelo_inurba_marseille","lat":43.275028,"lon":5.424534,"is_reserved":false,"is_disabled":false,"rental_uris":{"android":"levelo://app?vid=27e05443-4c1a-4d3d-99c9-39e4a9fc4815","ios":"levelo://app?vid=27e05443-4c1a-4d3d-99c9-39e4a9fc4815"},"vehicle_type_id":"4","last_reported":1701842995,"current_range_meters":26800,"station_id":"ce4bhn92rcd13ifvqgrg","pricing_plan_id":"free"},{"bike_id":"56a66b8d-f2c9-4d86-b6da-0f4d9fdfa5f2","system_id":"levelo_inurba_marseille","lat":43.25588,"lon":5.38224,"is_reserved":false,"is_disabled":false,"rental_uris":{"android":"levelo://app?vid=56a66b8d-f2c9-4d86-b6da-0f4d9fdfa5f2","ios":"levelo://app?vid=56a66b8d-f2c9-4d86-b6da-0f4d9fdfa5f2"},"vehicle_type_id":"4","last_reported":1701842995,"current_range_meters":12800,"station_id":"ce4bhih2rcd13ifvqfs0","pricing_plan_id":"free"},{"bike_id":"17f04a7c-4c0d-410b-8b98-175b327b84b8","system_id":"levelo_inurba_marseille","lat":43.258224,"lon":5.394369,"is_reserved":false,"is_disabled":false,"rental_uris":{"android":"levelo://app?vid=17f04a7c-4c0d-410b-8b98-175b327b84b8","ios":"levelo://app?vid=17f04a7c-4c0d-410b-8b98-175b327b84b8"},"vehicle_type_id":"4","last_reported":1701842995,"current_range_meters":30400,"station_id":"ce4bhip2rcd13ifvqft0","pricing_plan_id":"free"},{"bike_id":"f6225bef-2316-4fa7-a461-2a35560205b5","system_id":"levelo_inurba_marseille","lat":43.25509,"lon":5.37648,"is_reserved":false,"is_disabled":false,"rental_uris":{"android":"levelo://app?vid=f6225bef-2316-4fa7-a461-2a35560205b5","ios":"levelo://app?vid=f6225bef-2316-4fa7-a461-2a35560205b5"},"vehicle_type_id":"4","last_reported":1701842995,"current_range_meters":26000,"station_id":"ce4bhh12rcd13ifvqff0","pricing_plan_id":"free"},{"bike_id":"5e5e7574-4f45-48e4-936b-03f30d961b04","system_id":"levelo_inurba_marseille","lat":43.25507,"lon":5.37649,"is_reserved":false,"is_disabled":false,"rental_uris":{"android":"levelo://app?vid=5e5e7574-4f45-48e4-936b-03f30d961b04","ios":"levelo://app?vid=5e5e7574-4f45-48e4-936b-03f30d961b04"},"vehicle_type_id":"4","last_reported":1701842995,"current_range_meters":18400,"station_id":"ce4bhh12rcd13ifvqff0","pricing_plan_id":"free"},{"bike_id":"379e0731-7f57-4502-8a2a-0fb434ea06dd","system_id":"levelo_inurba_marseille","lat":43.255745,"lon":5.382365,"is_reserved":false,"is_disabled":false,"rental_uris":{"android":"levelo://app?vid=379e0731-7f57-4502-8a2a-0fb434ea06dd","ios":"levelo://app?vid=379e0731-7f57-4502-8a2a-0fb434ea06dd"},"vehicle_type_id":"4","last_reported":1701842995,"current_range_meters":26000,"station_id":"ce4bhih2rcd13ifvqfs0","pricing_plan_id":"free"},{"bike_id":"e0f2affa-09b0-4bf8-96bb-ed8a1d4d1221","system_id":"levelo_inurba_marseille","lat":43.25504,"lon":5.37646,"is_reserved":false,"is_disabled":false,"rental_uris":{"android":"levelo://app?vid=e0f2affa-09b0-4bf8-96bb-ed8a1d4d1221","ios":"levelo://app?vid=e0f2affa-09b0-4bf8-96bb-ed8a1d4d1221"},"vehicle_type_id":"4","last_reported":1701842995,"current_range_meters":26400,"station_id":"ce4bhh12rcd13ifvqff0","pricing_plan_id":"free"},{"bike_id":"20e9d879-7ab6-4d31-9ea0-b43d6766c982","system_id":"levelo_inurba_marseille","lat":43.25503,"lon":5.37647,"is_reserved":false,"is_disabled":false,"rental_uris":{"android":"levelo://app?vid=20e9d879-7ab6-4d31-9ea0-b43d6766c982","ios":"levelo://app?vid=20e9d879-7ab6-4d31-9ea0-b43d6766c982"},"vehicle_type_id":"4","last_reported":1701842995,"current_range_meters":28800,"station_id":"ce4bhh12rcd13ifvqff0","pricing_plan_id":"free"},{"bike_id":"ca9332e9-cbef-43ed-9c45-0222a0848c83","system_id":"levelo_inurba_marseille","lat":43.255017,"lon":5.376489,"is_reserved":false,"is_disabled":false,"rental_uris":{"android":"levelo://app?vid=ca9332e9-cbef-43ed-9c45-0222a0848c83","ios":"levelo://app?vid=ca9332e9-cbef-43ed-9c45-0222a0848c83"},"vehicle_type_id":"4","last_reported":1701842995,"current_range_meters":30000,"station_id":"ce4bhh12rcd13ifvqff0","pricing_plan_id":"free"},{"bike_id":"247af584-b3f4-42a0-9236-07d89794d35d","system_id":"levelo_inurba_marseille","lat":43.270721,"lon":5.422764,"is_reserved":false,"is_disabled":false,"rental_uris":{"android":"levelo://app?vid=247af584-b3f4-42a0-9236-07d89794d35d","ios":"levelo://app?vid=247af584-b3f4-42a0-9236-07d89794d35d"},"vehicle_type_id":"4","last_reported":1701842995,"current_range_meters":28400,"station_id":"ce4bhk92rcd13ifvqgb0","pricing_plan_id":"free"},{"bike_id":"c808fd05-3396-47eb-a8be-22cb6b8a77b4","system_id":"levelo_inurba_marseille","lat":43.270683,"lon":5.422763,"is_reserved":false,"is_disabled":false,"rental_uris":{"android":"levelo://app?vid=c808fd05-3396-47eb-a8be-22cb6b8a77b4","ios":"levelo://app?vid=c808fd05-3396-47eb-a8be-22cb6b8a77b4"},"vehicle_type_id":"4","last_reported":1701842995,"current_range_meters":20000,"station_id":"ce4bhk92rcd13ifvqgb0","pricing_plan_id":"free"},{"bike_id":"8fc31891-07e7-42e9-9ea3-99bdd8d73bf3","system_id":"levelo_inurba_marseille","lat":43.270669,"lon":5.422775,"is_reserved":false,"is_disabled":false,"rental_uris":{"android":"levelo://app?vid=8fc31891-07e7-42e9-9ea3-99bdd8d73bf3","ios":"levelo://app?vid=8fc31891-07e7-42e9-9ea3-99bdd8d73bf3"},"vehicle_type_id":"4","last_reported":1701842995,"current_range_meters":19200,"station_id":"ce4bhk92rcd13ifvqgb0","pricing_plan_id":"free"},{"bike_id":"85461d52-108f-4674-9751-e4e6d032a0f3","system_id":"levelo_inurba_marseille","lat":43.257079,"lon":5.411051,"is_reserved":false,"is_disabled":false,"rental_uris":{"android":"levelo://app?vid=85461d52-108f-4674-9751-e4e6d032a0f3","ios":"levelo://app?vid=85461d52-108f-4674-9751-e4e6d032a0f3"},"vehicle_type_id":"4","last_reported":1701842995,"current_range_meters":11600,"station_id":"ce4bhkp2rcd13ifvqgd0","pricing_plan_id":"free"},{"bike_id":"5e03874a-61c5-470c-8350-111f23e224ac","system_id":"levelo_inurba_marseille","lat":43.257079,"lon":5.411051,"is_reserved":false,"is_disabled":false,"rental_uris":{"android":"levelo://app?vid=5e03874a-61c5-470c-8350-111f23e224ac","ios":"levelo://app?vid=5e03874a-61c5-470c-8350-111f23e224ac"},"vehicle_type_id":"4","last_reported":1701842995,"current_range_meters":31200,"station_id":"ce4bhkp2rcd13ifvqgd0","pricing_plan_id":"free"},{"bike_id":"d9778b34-be45-4a9e-815f-34fa65ab33d0","system_id":"levelo_inurba_marseille","lat":43.257079,"lon":5.411051,"is_reserved":false,"is_disabled":false,"rental_uris":{"android":"levelo://app?vid=d9778b34-be45-4a9e-815f-34fa65ab33d0","ios":"levelo://app?vid=d9778b34-be45-4a9e-815f-34fa65ab33d0"},"vehicle_type_id":"4","last_reported":1701842995,"current_range_meters":26000,"station_id":"ce4bhkp2rcd13ifvqgd0","pricing_plan_id":"free"},{"bike_id":"9831ea30-a414-4016-af10-11af522b70bf","system_id":"levelo_inurba_marseille","lat":43.257132,"lon":5.411106,"is_reserved":false,"is_disabled":false,"rental_uris":{"android":"levelo://app?vid=9831ea30-a414-4016-af10-11af522b70bf","ios":"levelo://app?vid=9831ea30-a414-4016-af10-11af522b70bf"},"vehicle_type_id":"4","last_reported":1701842995,"current_range_meters":25200,"station_id":"ce4bhkp2rcd13ifvqgd0","pricing_plan_id":"free"},{"bike_id":"41b314fe-f153-4859-ab5f-b5fb41d78049","system_id":"levelo_inurba_marseille","lat":43.25003,"lon":5.38908,"is_reserved":false,"is_disabled":false,"rental_uris":{"android":"levelo://app?vid=41b314fe-f153-4859-ab5f-b5fb41d78049","ios":"levelo://app?vid=41b314fe-f153-4859-ab5f-b5fb41d78049"},"vehicle_type_id":"4","last_reported":1701842995,"current_range_meters":19600,"station_id":"ce4bhgp2rcd13ifvqfd0","pricing_plan_id":"free"},{"bike_id":"48dc9184-0093-4297-8c17-8210f1b80a56","system_id":"levelo_inurba_marseille","lat":43.2481,"lon":5.37455,"is_reserved":false,"is_disabled":false,"rental_uris":{"android":"levelo://app?vid=48dc9184-0093-4297-8c17-8210f1b80a56","ios":"levelo://app?vid=48dc9184-0093-4297-8c17-8210f1b80a56"},"vehicle_type_id":"4","last_reported":1701842995,"current_range_meters":10000,"station_id":"ce4bhgh2rcd13ifvqfb0","pricing_plan_id":"free"},{"bike_id":"cd974829-e7ba-4c3e-8574-9c9abd6d45f3","system_id":"levelo_inurba_marseille","lat":43.2479,"lon":5.374457,"is_reserved":false,"is_disabled":false,"rental_uris":{"android":"levelo://app?vid=cd974829-e7ba-4c3e-8574-9c9abd6d45f3","ios":"levelo://app?vid=cd974829-e7ba-4c3e-8574-9c9abd6d45f3"},"vehicle_type_id":"4","last_reported":1701842995,"current_range_meters":27600,"station_id":"ce4bhgh2rcd13ifvqfb0","pricing_plan_id":"free"},{"bike_id":"96da180c-7b6f-4c60-8c7c-dbf05c2d449c","system_id":"levelo_inurba_marseille","lat":43.250966,"lon":5.395186,"is_reserved":false,"is_disabled":false,"rental_uris":{"android":"levelo://app?vid=96da180c-7b6f-4c60-8c7c-dbf05c2d449c","ios":"levelo://app?vid=96da180c-7b6f-4c60-8c7c-dbf05c2d449c"},"vehicle_type_id":"4","last_reported":1701842995,"current_range_meters":26000,"station_id":"ce4bhm12rcd13ifvqgkg","pricing_plan_id":"free"},{"bike_id":"e68cfafb-784c-4d25-b8a5-401a4f504e08","system_id":"levelo_inurba_marseille","lat":43.246795,"lon":5.381639,"is_reserved":false,"is_disabled":false,"rental_uris":{"android":"levelo://app?vid=e68cfafb-784c-4d25-b8a5-401a4f504e08","ios":"levelo://app?vid=e68cfafb-784c-4d25-b8a5-401a4f504e08"},"vehicle_type_id":"4","last_reported":1701842995,"current_range_meters":8000,"station_id":"ce4bhih2rcd13ifvqfr0","pricing_plan_id":"free"},{"bike_id":"7fa12c18-a7c6-491a-85c1-eafba9158c72","system_id":"levelo_inurba_marseille","lat":43.24693,"lon":5.382096,"is_reserved":false,"is_disabled":false,"rental_uris":{"android":"levelo://app?vid=7fa12c18-a7c6-491a-85c1-eafba9158c72","ios":"levelo://app?vid=7fa12c18-a7c6-491a-85c1-eafba9158c72"},