{"last_updated":1760976739,"ttl":60,"version":"2.2","data":{"bikes":[{"bike_id":"ac573479-0b35-4a56-bd7b-5315cef04290","system_id":"levelo_inurba_marseille","lat":43.261921,"lon":5.374498,"is_reserved":false,"is_disabled":false,"rental_uris":{"android":"levelo://app?vid=ac573479-0b35-4a56-bd7b-5315cef04290","ios":"levelo://app?vid=ac573479-0b35-4a56-bd7b-5315cef04290"},"vehicle_type_id":"4","last_reported":1760976739,"current_range_meters":2800,"station_id":"ce4bhgp2rcd13ifvqfc0","pricing_plan_id":"cebpf4jnsgd1na2vs0mg"},{"bike_id":"f7c8f693-1cb9-4f45-a809-cd76181c6642","system_id":"levelo_inurba_marseille","lat":43.225328,"lon":5.348353,"is_reserved":false,"is_disabled":false,"rental_uris":{"android":"levelo://app?vid=f7c8f693-1cb9-4f45-a809-cd76181c6642","ios":"levelo://app?vid=f7c8f693-1cb9-4f45-a809-cd76181c6642"},"vehicle_type_id":"4","last_reported":1760976739,"current_range_meters":2800,"station_id":"ce4bhoh2rcd13ifvqh5g","pricing_plan_id":"cebpf4jnsgd1na2vs0mg"},{"bike_id":"5bd9155f-156c-49c8-8b0f-833732c1c592","system_id":"levelo_inurba_marseille","lat":43.2854,"lon":5.44138,"is_reserved":false,"is_disabled":false,"rental_uris":{"android":"levelo://app?vid=5bd9155f-156c-49c8-8b0f-833732c1c592","ios":"levelo://app?vid=5bd9155f-156c-49c8-8b0f-833732c1c592"},"vehicle_type_id":"4","last_reported":1760976739,"current_range_meters":3200,"station_id":"st_d3j3df2ikq2c7380ej80","pricing_plan_id":"cebpf4jnsgd1na2vs0mg"},{"bike_id":"1d0377a5-2a3b-41b2-b100-7da923a522ac","system_id":"levelo_inurba_marseille","lat":43.33176,"lon":5.38171,"is_reserved":false,"is_disabled":false,"rental_uris":{"android":"levelo://app?vid=1d0377a5-2a3b-41b2-b100-7da923a522ac","ios":"levelo://app?vid=1d0377a5-2a3b-41b2-b100-7da923a522ac"},"vehicle_type_id":"4","last_reported":1760976739,"current_range_meters":3200,"station_id":"","pricing_plan_id":"cebpf4jnsgd1na2vs0mg"},{"bike_id":"86d07695-6e77-4403-adea-eb648d5884da","system_id":"levelo_inurba_marseille","lat":43.283199,"lon":5.385108,"is_reserved":false,"is_disabled":false,"rental_uris":{"android":"levelo://app?vid=86d07695-6e77-4403-adea-eb648d5884da","ios":"levelo://app?vid=86d07695-6e77-4403-adea-eb648d5884da"},"vehicle_type_id":"4","last_reported":1760976739,"current_range_meters":3200,"station_id":"ce4bhg12rcd13ifvqf80","pricing_plan_id":"cebpf4jnsgd1na2vs0mg"},{"bike_id":"e7e8b93c-02d4-466b-82b5-3f4c4f15c2ae","system_id":"levelo_inurba_marseille","lat":43.288145,"lon":5.438473,"is_reserved":false,"is_disabled":false,"rental_uris":{"android":"levelo://app?vid=e7e8b93c-02d4-466b-82b5-3f4c4f15c2ae","ios":"levelo://app?vid=e7e8b93c-02d4-466b-82b5-3f4c4f15c2ae"},"vehicle_type_id":"4","last_reported":1760976739,"current_range_meters":3200,"station_id":"","pricing_plan_id":"cebpf4jnsgd1na2vs0mg"},{"bike_id":"3170a251-d687-456b-9940-32507cf0a3e8","system_id":"levelo_inurba_marseille","lat":43.29597,"lon":5.3773,"is_reserved":false,"is_disabled":true,"rental_uris":{"android":"levelo://app?vid=3170a251-d687-456b-9940-32507cf0a3e8","ios":"levelo://app?vid=3170a251-d687-456b-9940-32507cf0a3e8"},"vehicle_type_id":"4","last_reported":1760976739,"current_range_meters":3200,"station_id":"ce4bgi92rcd13ifvqb90","pricing_plan_id":"cebpf4jnsgd1na2vs0mg"},{"bike_id":"341025ca-ef2d-442d-80ac-78ca83dc4a7c","system_id":"levelo_inurba_marseille","lat":43.29917,"lon":5.3696,"is_reserved":false,"is_disabled":false,"rental_uris":{"android":"levelo://app?vid=341025ca-ef2d-442d-80ac-78ca83dc4a7c","ios":"levelo://app?vid=341025ca-ef2d-442d-80ac-78ca83dc4a7c"},"vehicle_type_id":"4","last_reported":1760976739,"current_range_meters":3200,"station_id":"","pricing_plan_id":"cebpf4jnsgd1na2vs0mg"},{"bike_id":"eee10d38-7225-4227-ab16-c6edef8aa371","system_id":"levelo_inurba_marseille","lat":43.28689,"lon":5.38657,"is_reserved":false,"is_disabled":false,"rental_uris":{"android":"levelo://app?vid=eee10d38-7225-4227-ab16-c6edef8aa371","ios":"levelo://app?vid=eee10d38-7225-4227-ab16-c6edef8aa371"},"vehicle_type_id":"4","last_reported":1760976739,"current_range_meters":3200,"station_id":"ce4bh492rcd13ifvqdug","pricing_plan_id":"cebpf4jnsgd1na2vs0mg"},{"bike_id":"0a414463-fe1a-4833-8a11-178a3c2c879a","system_id":"levelo_inurba_marseille","lat":43.29852,"lon":5.37897,"is_reserved":false,"is_disabled":false,"rental_uris":{"android":"levelo://app?vid=0a414463-fe1a-4833-8a11-178a3c2c879a","ios":"levelo://app?vid=0a414463-fe1a-4833-8a11-178a3c2c879a"},"vehicle_type_id":"4","last_reported":1760976739,"current_range_meters":3600,"station_id":"","pricing_plan_id":"cebpf4jnsgd1na2vs0mg"},{"bike_id":"4d523ced-0655-4c9f-bd0d-9dfded5fe780","system_id":"levelo_inurba_marseille","lat":43.29041,"lon":5.38642,"is_reserved":false,"is_disabled":false,"rental_uris":{"android":"levelo://app?vid=4d523ced-0655-4c9f-bd0d-9dfded5fe780","ios":"levelo://app?vid=4d523ced-0655-4c9f-bd0d-9dfded5fe780"},"vehicle_type_id":"4","last_reported":1760976739,"current_range_meters":3600,"station_id":"ce4bh4p2rcd13ifvqe0g","pricing_plan_id":"cebpf4jnsgd1na2vs0mg"},{"bike_id":"fffebab3-11c1-4f52-8efc-3753b1ae8560","system_id":"levelo_inurba_marseille","lat":43.29512,"lon":5.39395,"is_reserved":false,"is_disabled":false,"rental_uris":{"android":"levelo://app?vid=fffebab3-11c1-4f52-8efc-3753b1ae8560","ios":"levelo://app?vid=fffebab3-11c1-4f52-8efc-3753b1ae8560"},"vehicle_type_id":"4","last_reported":1760976739,"current_range_meters":3600,"station_id":"ce4bh292rcd13ifvqdf0","pricing_plan_id":"cebpf4jnsgd1na2vs0mg"},{"bike_id":"4265191d-f88e-448b-ae08-9c6611451f20","system_id":"levelo_inurba_marseille","lat":43.29784,"lon":5.39329,"is_reserved":false,"is_disabled":false,"rental_uris":{"android":"levelo://app?vid=4265191d-f88e-448b-ae08-9c6611451f20","ios":"levelo://app?vid=4265191d-f88e-448b-ae08-9c6611451f20"},"vehicle_type_id":"4","last_reported":1760976739,"current_range_meters":4000,"station_id":"chh1huq6cuj3fo74tm60","pricing_plan_id":"cebpf4jnsgd1na2vs0mg"},{"bike_id":"605f100b-c561-4a19-ac26-e66769ae7550","system_id":"levelo_inurba_marseille","lat":43.29491,"lon":5.4331,"is_reserved":false,"is_disabled":false,"rental_uris":{"android":"levelo://app?vid=605f100b-c561-4a19-ac26-e66769ae7550","ios":"levelo://app?vid=605f100b-c561-4a19-ac26-e66769ae7550"},"vehicle_type_id":"4","last_reported":1760976739,"current_range_meters":4000,"station_id":"st_d3j5ugp08ojc73fj9d10","pricing_plan_id":"cebpf4jnsgd1na2vs0mg"},{"bike_id":"ee05ab4b-b72f-453e-8914-a9150b6d1bdd","system_id":"levelo_inurba_marseille","lat":43.28612,"lon":5.35105,"is_reserved":false,"is_disabled":false,"rental_uris":{"android":"levelo://app?vid=ee05ab4b-b72f-453e-8914-a9150b6d1bdd","ios":"levelo://app?vid=ee05ab4b-b72f-453e-8914-a9150b6d1bdd"},"vehicle_type_id":"4","last_reported":1760976739,"current_range_meters":4400,"station_id":"","pricing_plan_id":"cebpf4jnsgd1na2vs0mg"},{"bike_id":"9cb6e77f-cbf0-4f1d-bc95-7e97acc3d0ca","system_id":"levelo_inurba_marseille","lat":43.27373,"lon":5.36256,"is_reserved":false,"is_disabled":false,"rental_uris":{"android":"levelo://app?vid=9cb6e77f-cbf0-4f1d-bc95-7e97acc3d0ca","ios":"levelo://app?vid=9cb6e77f-cbf0-4f1d-bc95-7e97acc3d0ca"},"vehicle_type_id":"4","last_reported":1760976739,"current_range_meters":4800,"station_id":"ce4bhbh2rcd13ifvqeo0","pricing_plan_id":"cebpf4jnsgd1na2vs0mg"},{"bike_id":"cc1a9908-a728-4458-87b4-4a7f10314d4c","system_id":"levelo_inurba_marseille","lat":43.27494,"lon":5.42457,"is_reserved":false,"is_disabled":false,"rental_uris":{"android":"levelo://app?vid=cc1a9908-a728-4458-87b4-4a7f10314d4c","ios":"levelo://app?vid=cc1a9908-a728-4458-87b4-4a7f10314d4c"},"vehicle_type_id":"4","last_reported":1760976739,"current_range_meters":4800,"station_id":"ce4bhn92rcd13ifvqgrg","pricing_plan_id":"cebpf4jnsgd1na2vs0mg"},{"bike_id":"6ab24d57-951b-45a3-a954-6f5c21ecde6e","system_id":"levelo_inurba_marseille","lat":43.30729,"lon":5.42443,"is_reserved":false,"is_disabled":false,"rental_uris":{"android":"levelo://app?vid=6ab24d57-951b-45a3-a954-6f5c21ecde6e","ios":"levelo://app?vid=6ab24d57-951b-45a3-a954-6f5c21ecde6e"},"vehicle_type_id":"4","last_reported":1760976739,"current_range_meters":4800,"station_id":"st_cvj6ca6bvosntc0bfgr0","pricing_plan_id":"cebpf4jnsgd1na2vs0mg"},{"bike_id":"e978660f-731d-4a95-8df5-e0a54d8fe8be","system_id":"levelo_inurba_marseille","lat":43.21186,"lon":5.35084,"is_reserved":false,"is_disabled":false,"rental_uris":{"android":"levelo://app?vid=e978660f-731d-4a95-8df5-e0a54d8fe8be","ios":"levelo://app?vid=e978660f-731d-4a95-8df5-e0a54d8fe8be"},"vehicle_type_id":"4","last_reported":1760976739,"current_range_meters":5600,"station_id":"st_cvj6sg6p6f1abm77japg","pricing_plan_id":"cebpf4jnsgd1na2vs0mg"},{"bike_id":"01b60453-c2f3-46a4-a128-c7b0281e7b28","system_id":"levelo_inurba_marseille","lat":43.28876,"lon":5.35835,"is_reserved":false,"is_disabled":false,"rental_uris":{"android":"levelo://app?vid=01b60453-c2f3-46a4-a128-c7b0281e7b28","ios":"levelo://app?vid=01b60453-c2f3-46a4-a128-c7b0281e7b28"},"vehicle_type_id":"4","last_reported":1760976739,"current_range_meters":5600,"station_id":"ce4bhb12rcd13ifvqem0","pricing_plan_id":"cebpf4jnsgd1na2vs0mg"},{"bike_id":"0f7a5e57-b6c9-443d-a6ff-6e1c4750d191","system_id":"levelo_inurba_marseille","lat":43.28421,"lon":5.3498,"is_reserved":false,"is_disabled":false,"rental_uris":{"android":"levelo://app?vid=0f7a5e57-b6c9-443d-a6ff-6e1c4750d191","ios":"levelo://app?vid=0f7a5e57-b6c9-443d-a6ff-6e1c4750d191"},"vehicle_type_id":"4","last_reported":1760976739,"current_range_meters":6000,"station_id":"ce4bhbh2rcd13ifvqepg","pricing_plan_id":"cebpf4jnsgd1na2vs0mg"},{"bike_id":"365b1110-8604-4b2d-ad9b-3263b8a258f2","system_id":"levelo_inurba_marseille","lat":43.28655,"lon":5.3634,"is_reserved":false,"is_disabled":false,"rental_uris":{"android":"levelo://app?vid=365b1110-8604-4b2d-ad9b-3263b8a258f2","ios":"levelo://app?vid=365b1110-8604-4b2d-ad9b-3263b8a258f2"},"vehicle_type_id":"4","last_reported":1760976739,"current_range_meters":6000,"station_id":"ce4bhah2rcd13ifvqej0","pricing_plan_id":"cebpf4jnsgd1na2vs0mg"},{"bike_id":"ac6d2c4d-74a8-443d-a9f9-0d9807feacda","system_id":"levelo_inurba_marseille","lat":43.33772,"lon":5.37469,"is_reserved":false,"is_disabled":false,"rental_uris":{"android":"levelo://app?vid=ac6d2c4d-74a8-443d-a9f9-0d9807feacda","ios":"levelo://app?vid=ac6d2c4d-74a8-443d-a9f9-0d9807feacda"},"vehicle_type_id":"4","last_reported":1760976739,"current_range_meters":6000,"station_id":"","pricing_plan_id":"cebpf4jnsgd1na2vs0mg"},{"bike_id":"2010d1c0-54eb-4cf9-b5e7-d1f1f50ca71a","system_id":"levelo_inurba_marseille","lat":43.25328,"lon":5.42178,"is_reserved":false,"is_disabled":false,"rental_uris":{"android":"levelo://app?vid=2010d1c0-54eb-4cf9-b5e7-d1f1f50ca71a","ios":"levelo://app?vid=2010d1c0-54eb-4cf9-b5e7-d1f1f50ca71a"},"vehicle_type_id":"4","last_reported":1760976739,"current_range_meters":6400,"station_id":"st_d2m65c5bi1j21697t3ng","pricing_plan_id":"cebpf4jnsgd1na2vs0mg"},{"bike_id":"b8502cde-1ec2-4341-ba4d-410a04afe60a","system_id":"levelo_inurba_marseille","lat":43.290394,"lon":5.399501,"is_reserved":false,"is_disabled":true,"rental_uris":{"android":"levelo://app?vid=b8502cde-1ec2-4341-ba4d-410a04afe60a","ios":"levelo://app?vid=b8502cde-1ec2-4341-ba4d-410a04afe60a"},"vehicle_type_id":"4","last_reported":1760976739,"current_range_meters":6400,"station_id":"ce4bh392rcd13ifvqdm0","pricing_plan_id":"cebpf4jnsgd1na2vs0mg"},{"bike_id":"f2c2aff1-9bc7-4a12-838f-ecd94714584c","system_id":"levelo_inurba_marseille","lat":43.29278,"lon":5.40113,"is_reserved":false,"is_disabled":false,"rental_uris":{"android":"levelo://app?vid=f2c2aff1-9bc7-4a12-838f-ecd94714584c","ios":"levelo://app?vid=f2c2aff1-9bc7-4a12-838f-ecd94714584c"},"vehicle_type_id":"4","last_reported":1760976739,"current_range_meters":6400,"station_id":"ce4bh312rcd13ifvqdk0","pricing_plan_id":"cebpf4jnsgd1na2vs0mg"},{"bike_id":"63af7f75-ae37-4bd3-9613-127db36eb0c3","system_id":"levelo_inurba_marseille","lat":43.28859,"lon":5.42524,"is_reserved":false,"is_disabled":false,"rental_uris":{"android":"levelo://app?vid=63af7f75-ae37-4bd3-9613-127db36eb0c3","ios":"levelo://app?vid=63af7f75-ae37-4bd3-9613-127db36eb0c3"},"vehicle_type_id":"4","last_reported":1760976739,"current_range_meters":6400,"station_id":"st_d3b462108ojc7389ooeg","pricing_plan_id":"cebpf4jnsgd1na2vs0mg"},{"bike_id":"1dcd2007-9a94-4bc0-bcab-451392c0c825","system_id":"levelo_inurba_marseille","lat":43.29789,"lon":5.37658,"is_reserved":false,"is_disabled":false,"rental_uris":{"android":"levelo://app?vid=1dcd2007-9a94-4bc0-bcab-451392c0c825","ios":"levelo://app?vid=1dcd2007-9a94-4bc0-bcab-451392c0c825"},"vehicle_type_id":"4","last_reported":1760976739,"current_range_meters":6400,"station_id":"","pricing_plan_id":"cebpf4jnsgd1na2vs0mg"},{"bike_id":"92a4c54e-1924-4e71-bd6c-6e63ea351fc2","system_id":"levelo_inurba_marseille","lat":43.28408,"lon":5.37528,"is_reserved":false,"is_disabled":false,"rental_uris":{"android":"levelo://app?vid=92a4c54e-1924-4e71-bd6c-6e63ea351fc2","ios":"levelo://app?vid=92a4c54e-1924-4e71-bd6c-6e63ea351fc2"},"vehicle_type_id":"4","last_reported":1760976739,"current_range_meters":6400,"station_id":"ce4bh412rcd13ifvqds0","pricing_plan_id":"cebpf4jnsgd1na2vs0mg"},{"bike_id":"0fe5f988-499b-40e5-a930-cd6431a1b2ca","system_id":"levelo_inurba_marseille","lat":43.28321,"lon":5.39829,"is_reserved":false,"is_disabled":false,"rental_uris":{"android":"levelo://app?vid=0fe5f988-499b-40e5-a930-cd6431a1b2ca","ios":"levelo://app?vid=0fe5f988-499b-40e5-a930-cd6431a1b2ca"},"vehicle_type_id":"4","last_reported":1760976739,"current_range_meters":6800,"station_id":"","pricing_plan_id":"cebpf4jnsgd1na2vs0mg"},{"bike_id":"5f6ea2cd-7667-4e2b-a124-8a9a828daba4","system_id":"levelo_inurba_marseille","lat":43.25108,"lon":5.40329,"is_reserved":false,"is_disabled":false,"rental_uris":{"android":"levelo://app?vid=5f6ea2cd-7667-4e2b-a124-8a9a828daba4","ios":"levelo://app?vid=5f6ea2cd-7667-4e2b-a124-8a9a828daba4"},"vehicle_type_id":"4","last_reported":1760976739,"current_range_meters":6800,"station_id":"ce4bhlh2rcd13ifvqgig","pricing_plan_id":"cebpf4jnsgd1na2vs0mg"},{"bike_id":"b9f4c452-f1a0-4b31-854c-2325a5b73556","system_id":"levelo_inurba_marseille","lat":43.21463,"lon":5.34305,"is_reserved":false,"is_disabled":false,"rental_uris":{"android":"levelo://app?vid=b9f4c452-f1a0-4b31-854c-2325a5b73556","ios":"levelo://app?vid=b9f4c452-f1a0-4b31-854c-2325a5b73556"},"vehicle_type_id":"4","last_reported":1760976739,"current_range_meters":6800,"station_id":"","pricing_plan_id":"cebpf4jnsgd1na2vs0mg"},{"bike_id":"a2f9241d-221b-492e-8caa-b499331bd447","system_id":"levelo_inurba_marseille","lat":43.30978,"lon":5.3903,"is_reserved":false,"is_disabled":false,"rental_uris":{"android":"levelo://app?vid=a2f9241d-221b-492e-8caa-b499331bd447","ios":"levelo://app?vid=a2f9241d-221b-492e-8caa-b499331bd447"},"vehicle_type_id":"4","last_reported":1760976739,"current_range_meters":7200,"station_id":"ce4bgup2rcd13ifvqco0","pricing_plan_id":"cebpf4jnsgd1na2vs0mg"},{"bike_id":"c36d6ad6-987d-4e65-8f53-01ba60fc15b2","system_id":"levelo_inurba_marseille","lat":43.246575,"lon":5.381691,"is_reserved":false,"is_disabled":false,"rental_uris":{"android":"levelo://app?vid=c36d6ad6-987d-4e65-8f53-01ba60fc15b2","ios":"levelo://app?vid=c36d6ad6-987d-4e65-8f53-01ba60fc15b2"},"vehicle_type_id":"4","last_reported":1760976739,"current_range_meters":7200,"station_id":"","pricing_plan_id":"cebpf4jnsgd1na2vs0mg"},{"bike_id":"9dd1d8fe-c2a8-4a70-a175-61f5f9fe7fd2","system_id":"levelo_inurba_marseille","lat":43.315501,"lon":5.390252,"is_reserved":false,"is_disabled":false,"rental_uris":{"android":"levelo://app?vid=9dd1d8fe-c2a8-4a70-a175-61f5f9fe7fd2","ios":"levelo://app?vid=9dd1d8fe-c2a8-4a70-a175-61f5f9fe7fd2"},"vehicle_type_id":"4","last_reported":1760976739,"current_range_meters":8000,"station_id":"","pricing_plan_id":"cebpf4jnsgd1na2vs0mg"},{"bike_id":"8cd818e3-a9e2-4f48-92b2-26306f507696","system_id":"levelo_inurba_marseille","lat":43.31349,"lon":5.37913,"is_reserved":false,"is_disabled":false,"rental_uris":{"android":"levelo://app?vid=8cd818e3-a9e2-4f48-92b2-26306f507696","ios":"levelo://app?vid=8cd818e3-a9e2-4f48-92b2-26306f507696"},"vehicle_type_id":"4","last_reported":1760976739,"current_range_meters":8000,"station_id":"","pricing_plan_id":"cebpf4jnsgd1na2vs0mg"},{"bike_id":"d7acbb66-a6b0-4178-8567-5a30cb55c6ea","system_id":"levelo_inurba_marseille","lat":43.27618,"lon":5.36109,"is_reserved":false,"is_disabled":false,"rental_uris":{"android":"levelo://app?vid=d7acbb66-a6b0-4178-8567-5a30cb55c6ea","ios":"levelo://app?vid=d7acbb66-a6b0-4178-8567-5a30cb55c6ea"},"vehicle_type_id":"4","last_reported":1760976739,"current_range_meters":8000,"station_id":"ce4bgj92rcd13ifvqbe0","pricing_plan_id":"cebpf4jnsgd1na2vs0mg"},{"bike_id":"241f4278-8126-4dad-bdde-bbda289230ee","system_id":"levelo_inurba_marseille","lat":43.320035,"lon":5.381575,"is_reserved":false,"is_disabled":false,"rental_uris":{"android":"levelo://app?vid=241f4278-8126-4dad-bdde-bbda289230ee","ios":"levelo://app?vid=241f4278-8126-4dad-bdde-bbda289230ee"},"vehicle_type_id":"4","last_reported":1760976739,"current_range_meters":8000,"station_id":"ce4bhr12rcd13ifvqhpg","pricing_plan_id":"cebpf4jnsgd1na2vs0mg"},{"bike_id":"e786d301-6201-4da4-b2a0-0ddbe8bc7cf2","system_id":"levelo_inurba_marseille","lat":43.258225,"lon":5.394358,"is_reserved":false,"is_disabled":false,"rental_uris":{"android":"levelo://app?vid=e786d301-6201-4da4-b2a0-0ddbe8bc7cf2","ios":"levelo://app?vid=e786d301-6201-4da4-b2a0-0ddbe8bc7cf2"},"vehicle_type_id":"4","last_reported":1760976739,"current_range_meters":8400,"station_id":"ce4bhip2rcd13ifvqft0","pricing_plan_id":"cebpf4jnsgd1na2vs0mg"},{"bike_id":"0a950a0d-01ce-40b2-be0e-ad7894fd72f2","system_id":"levelo_inurba_marseille","lat":43.320993,"lon":5.367745,"is_reserved":false,"is_disabled":true,"rental_uris":{"android":"levelo://app?vid=0a950a0d-01ce-40b2-be0e-ad7894fd72f2","ios":"levelo://app?vid=0a950a0d-01ce-40b2-be0e-ad7894fd72f2"},"vehicle_type_id":"4","last_reported":1760976739,"current_range_meters":8400,"station_id":"ce4bhrh2rcd13ifvqhug","pricing_plan_id":"cebpf4jnsgd1na2vs0mg"},{"bike_id":"86ce52f8-f590-4694-90e1-216ddc477b29","system_id":"levelo_inurba_marseille","lat":43.30968,"lon":5.3812,"is_reserved":false,"is_disabled":false,"rental_uris":{"android":"levelo://app?vid=86ce52f8-f590-4694-90e1-216ddc477b29","ios":"levelo://app?vid=86ce52f8-f590-4694-90e1-216ddc477b29"},"vehicle_type_id":"4","last_reported":1760976739,"current_range_meters":8400,"station_id":"","pricing_plan_id":"cebpf4jnsgd1na2vs0mg"},{"bike_id":"5235b0d4-12d0-4a01-9e4b-07f4d12cd66b","system_id":"levelo_inurba_marseille","lat":43.25493,"lon":5.37663,"is_reserved":false,"is_disabled":false,"rental_uris":{"android":"levelo://app?vid=5235b0d4-12d0-4a01-9e4b-07f4d12cd66b","ios":"levelo://app?vid=5235b0d4-12d0-4a01-9e4b-07f4d12cd66b"},"vehicle_type_id":"4","last_reported":1760976739,"current_range_meters":8400,"station_id":"ce4bhh12rcd13ifvqff0","pricing_plan_id":"cebpf4jnsgd1na2vs0mg"},{"bike_id":"7b19c310-77ca-4170-9d91-a49e8f013c7b","system_id":"levelo_inurba_marseille","lat":43.28701,"lon":5.39982,"is_reserved":false,"is_disabled":false,"rental_uris":{"android":"levelo://app?vid=7b19c310-77ca-4170-9d91-a49e8f013c7b","ios":"levelo://app?vid=7b19c310-77ca-4170-9d91-a49e8f013c7b"},"vehicle_type_id":"4","last_reported":1760976739,"current_range_meters":8400,"station_id":"ce4bho92rcd13ifvqh3g","pricing_plan_id":"cebpf4jnsgd1na2vs0mg"},{"bike_id":"2c59cc86-a348-4735-8f6f-75bf0e4aac2c","system_id":"levelo_inurba_marseille","lat":43.33123,"lon":5.39134,"is_reserved":false,"is_disabled":false,"rental_uris":{"android":"levelo://app?vid=2c59cc86-a348-4735-8f6f-75bf0e4aac2c","ios":"levelo://app?vid=2c59cc86-a348-4735-8f6f-75bf0e4aac2c"},"vehicle_type_id":"4","last_reported":1760976739,"current_range_meters":8400,"station_id":"","pricing_plan_id":"cebpf4jnsgd1na2vs0mg"},{"bike_id":"e41350f9-c04b-4b00-9b47-f6058a58cd13","system_id":"levelo_inurba_marseille","lat":43.29931,"lon":5.36547,"is_reserved":false,"is_disabled":false,"rental_uris":{"android":"levelo://app?vid=e41350f9-c04b-4b00-9b47-f6058a58cd13","ios":"levelo://app?vid=e41350f9-c04b-4b00-9b47-f6058a58cd13"},"vehicle_type_id":"4","last_reported":1760976739,"current_range_meters":8800,"station_id":"ce4bgm92rcd13ifvqbr0","pricing_plan_id":"cebpf4jnsgd1na2vs0mg"},{"bike_id":"5e4cf118-be29-4027-8858-46364448aa2e","system_id":"levelo_inurba_marseille","lat":43.269795,"lon":5.392528,"is_reserved":false,"is_disabled":false,"rental_uris":{"android":"levelo://app?vid=5e4cf118-be29-4027-8858-46364448aa2e","ios":"levelo://app?vid=5e4cf118-be29-4027-8858-46364448aa2e"},"vehicle_type_id":"4","last_reported":1760976739,"current_range_meters":8800,"station_id":"ce4bhi12rcd13ifvqfq0","pricing_plan_id":"cebpf4jnsgd1na2vs0mg"},{"bike_id":"676d88a8-f06e-4192-886d-e52926318b91","system_id":"levelo_inurba_marseille","lat":43.21189,"lon":5.35084,"is_reserved":false,"is_disabled":false,"rental_uris":{"android":"levelo://app?vid=676d88a8-f06e-4192-886d-e52926318b91","ios":"levelo://app?vid=676d88a8-f06e-4192-886d-e52926318b91"},"vehicle_type_id":"4","last_reported":1760976739,"current_range_meters":8800,"station_id":"st_cvj6sg6p6f1abm77japg","pricing_plan_id":"cebpf4jnsgd1na2vs0mg"},{"bike_id":"7fd36eea-805d-4dce-89b5-46f277eaf158","system_id":"levelo_inurba_marseille","lat":43.305097,"lon":5.366695,"is_reserved":false,"is_disabled":false,"rental_uris":{"android":"levelo://app?vid=7fd36eea-805d-4dce-89b5-46f277eaf158","ios":"levelo://app?vid=7fd36eea-805d-4dce-89b5-46f277eaf158"},"vehicle_type_id":"4","last_reported":1760976739,"current_range_meters":8800,"station_id":"","pricing_plan_id":"cebpf4jnsgd1na2vs0mg"},{"bike_id":"679c3c1f-72e8-4456-b0d9-4c2ad9c70dd9","system_id":"levelo_inurba_marseille","lat":43.211965,"lon":5.35066,"is_reserved":false,"is_disabled":false,"rental_uris":{"android":"levelo://app?vid=679c3c1f-72e8-4456-b0d9-4c2ad9c70dd9","ios":"levelo://app?vid=679c3c1f-72e8-4456-b0d9-4c2ad9c70dd9"},"vehicle_type_id":"4","last_reported":1760976739,"current_range_meters":8800,"station_id":"st_cvj6sg6p6f1abm77japg","pricing_plan_id":"cebpf4jnsgd1na2vs0mg"},{"bike_id":"8e7a7794-b8ae-43a7-91fd-daf4a2ca216c","system_id":"levelo_inurba_marseille","lat":43.30602,"lon":5.37223,"is_reserved":false,"is_disabled":false,"rental_uris":{"android":"levelo://app?vid=8e7a7794-b8ae-43a7-91fd-daf4a2ca216c","ios":"levelo://app?vid=8e7a7794-b8ae-43a7-91fd-daf4a2ca216c"},"vehicle_type_id":"4","last_reported":1760976739,"current_range_meters":8800,"station_id":"ce4bgqh2rcd13ifvqc4g","pricing_plan_id":"cebpf4jnsgd1na2vs0mg"},{"bike_id":"1450981b-104c-4212-9b96-94e78687f823","system_id":"levelo_inurba_marseille","lat":43.27949,"lon":5.41051,"is_reserved":false,"is_disabled":false,"rental_uris":{"android":"levelo://app?vid=1450981b-104c-4212-9b96-94e78687f823","ios":"levelo://app?vid=1450981b-104c-4212-9b96-94e78687f823"},"vehicle_type_id":"4","last_reported":1760976739,"current_range_meters":8800,"station_id":"ce4bhnp2rcd13ifvqh0g","pricing_plan_id":"cebpf4jnsgd1na2vs0mg"},{"bike_id":"b6c96865-3542-4e09-a1b0-283e97502d96","system_id":"levelo_inurba_marseille","lat":43.293039,"lon":5.374623,"is_reserved":false,"is_disabled":false,"rental_uris":{"android":"levelo://app?vid=b6c96865-3542-4e09-a1b0-283e97502d96","ios":"levelo://app?vid=b6c96865-3542-4e09-a1b0-283e97502d96"},"vehicle_type_id":"4","last_reported":1760976739,"current_range_meters":8800,"station_id":"ce4bgh92rcd13ifvqb50","pricing_plan_id":"cebpf4jnsgd1na2vs0mg"},{"bike_id":"7a8ac50b-c3a4-490a-8f96-9c005f89ed5d","system_id":"levelo_inurba_marseille","lat":43.26521,"lon":5.39049,"is_reserved":false,"is_disabled":false,"rental_uris":{"android":"levelo://app?vid=7a8ac50b-c3a4-490a-8f96-9c005f89ed5d","ios":"levelo://app?vid=7a8ac50b-c3a4-490a-8f96-9c005f89ed5d"},"vehicle_type_id":"4","last_reported":1760976739,"current_range_meters":9200,"station_id":"","pricing_plan_id":"cebpf4jnsgd1na2vs0mg"},{"bike_id":"e015a312-f4e2-4fa5-962c-4dc7593461dd","system_id":"levelo_inurba_marseille","lat":43.27377,"lon":5.36251,"is_reserved":false,"is_disabled":false,"rental_uris":{"android":"levelo://app?vid=e015a312-f4e2-4fa5-962c-4dc7593461dd","ios":"levelo://app?vid=e015a312-f4e2-4fa5-962c-4dc7593461dd"},"vehicle_type_id":"4","last_reported":1760976739,"current_range_meters":9200,"station_id":"","pricing_plan_id":"cebpf4jnsgd1na2vs0mg"},{"bike_id":"e36bfb68-2042-49fc-823e-08e28e519a3d","system_id":"levelo_inurba_marseille","lat":43.32039,"lon":5.41554,"is_reserved":false,"is_disabled":false,"rental_uris":{"android":"levelo://app?vid=e36bfb68-2042-49fc-823e-08e28e519a3d","ios":"levelo://app?vid=e36bfb68-2042-49fc-823e-08e28e519a3d"},"vehicle_type_id":"4","last_reported":1760976739,"current_range_meters":9200,"station_id":"ce4bhq92rcd13ifvqhkg","pricing_plan_id":"cebpf4jnsgd1na2vs0mg"},{"bike_id":"54ec785c-ce4c-4ee9-a1ac-506315729005","system_id":"levelo_inurba_marseille","lat":43.27616,"lon":5.36111,"is_reserved":false,"is_disabled":false,"rental_uris":{"android":"levelo://app?vid=54ec785c-ce4c-4ee9-a1ac-506315729005","ios":"levelo://app?vid=54ec785c-ce4c-4ee9-a1ac-506315729005"},"vehicle_type_id":"4","last_reported":1760976739,"current_range_meters":9200,"station_id":"ce4bgj92rcd13ifvqbe0","pricing_plan_id":"cebpf4jnsgd1na2vs0mg"},{"bike_id":"d1668fd5-d05d-42a9-b5d1-4388db8ac6a3","system_id":"levelo_inurba_marseille","lat":43.31764,"lon":5.39029,"is_reserved":false,"is_disabled":false,"rental_uris":{"android":"levelo://app?vid=d1668fd5-d05d-42a9-b5d1-4388db8ac6a3","ios":"levelo://app?vid=d1668fd5-d05d-42a9-b5d1-4388db8ac6a3"},"vehicle_type_id":"4","last_reported":1760976739,"current_range_meters":9200,"station_id":"ce4bhqp2rcd13ifvqhng","pricing_plan_id":"cebpf4jnsgd1na2vs0mg"},{"bike_id":"0f787efd-37ca-4060-a03d-15d3c3ce389f","system_id":"levelo_inurba_marseille","lat":43.300001,"lon":5.373536,"is_reserved":false,"is_disabled":false,"rental_uris":{"android":"levelo://app?vid=0f787efd-37ca-4060-a03d-15d3c3ce389f","ios":"levelo://app?vid=0f787efd-37ca-4060-a03d-15d3c3ce389f"},"vehicle_type_id":"4","last_reported":1760976739,"current_range_meters":9200,"station_id":"","pricing_plan_id":"cebpf4jnsgd1na2vs0mg"},{"bike_id":"a463e313-a49e-4913-86e0-55372fde2260","system_id":"levelo_inurba_marseille","lat":43.33245,"lon":5.44188,"is_reserved":false,"is_disabled":true,"rental_uris":{"android":"levelo://app?vid=a463e313-a49e-4913-86e0-55372fde2260","ios":"levelo://app?vid=a463e313-a49e-4913-86e0-55372fde2260"},"vehicle_type_id":"4","last_reported":1760976739,"current_range_meters":9600,"station_id":"","pricing_plan_id":"cebpf4jnsgd1na2vs0mg"},{"bike_id":"3cab6837-9492-4b2f-9f11-6d7fb4de0695","system_id":"levelo_inurba_marseille","lat":43.295724,"lon":5.36765,"is_reserved":false,"is_disabled":true,"rental_uris":{"android":"levelo://app?vid=3cab6837-9492-4b2f-9f11-6d7fb4de0695","ios":"levelo://app?vid=3cab6837-9492-4b2f-9f11-6d7fb4de0695"},"vehicle_type_id":"4","last_reported":1760976739,"current_range_meters":9600,"station_id":"ce4bgph2rcd13ifvqc2g","pricing_plan_id":"cebpf4jnsgd1na2vs0mg"},{"bike_id":"6dc3935e-9803-4d9b-97f4-116d7064c126","system_id":"levelo_inurba_marseille","lat":43.276194,"lon":5.361075,"is_reserved":false,"is_disabled":false,"rental_uris":{"android":"levelo://app?vid=6dc3935e-9803-4d9b-97f4-116d7064c126","ios":"levelo://app?vid=6dc3935e-9803-4d9b-97f4-116d7064c126"},"vehicle_type_id":"4","last_reported":1760976739,"current_range_meters":9600,"station_id":"ce4bgj92rcd13ifvqbe0","pricing_plan_id":"cebpf4jnsgd1na2vs0mg"},{"bike_id":"245a030c-0c43-41f8-a4cc-088d55252b06","system_id":"levelo_inurba_marseille","lat":43.24474,"lon":5.36944,"is_reserved":false,"is_disabled":false,"rental_uris":{"android":"levelo://app?vid=245a030c-0c43-41f8-a4cc-088d55252b06","ios":"levelo://app?vid=245a030c-0c43-41f8-a4cc-088d55252b06"},"vehicle_type_id":"4","last_reported":1760976739,"current_range_meters":9600,"station_id":"","pricing_plan_id":"cebpf4jnsgd1na2vs0mg"},{"bike_id":"4bbd6801-e86f-4670-a08c-5a08e1dabb92","system_id":"levelo_inurba_marseille","lat":43.29211,"lon":5.38092,"is_reserved":false,"is_disabled":false,"rental_uris":{"android":"levelo://app?vid=4bbd6801-e86f-4670-a08c-5a08e1dabb92","ios":"levelo://app?vid=4bbd6801-e86f-4670-a08c-5a08e1dabb92"},"vehicle_type_id":"4","last_reported":1760976739,"current_range_meters":9600,"station_id":"","pricing_plan_id":"cebpf4jnsgd1na2vs0mg"},{"bike_id":"9652283e-21f4-4490-ac9e-ffa9429f0005","system_id":"levelo_inurba_marseille","lat":43.29019,"lon":5.40492,"is_reserved":false,"is_disabled":false,"rental_uris":{"android":"levelo://app?vid=9652283e-21f4-4490-ac9e-ffa9429f0005","ios":"levelo://app?vid=9652283e-21f4-4490-ac9e-ffa9429f0005"},"vehicle_type_id":"4","last_reported":1760976739,"current_range_meters":9600,"station_id":"","pricing_plan_id":"cebpf4jnsgd1na2vs0mg"},{"bike_id":"a7f997d3-a4f9-4f30-bdce-2ddde27a7b05","system_id":"levelo_inurba_marseille","lat":43.28166,"lon":5.37693,"is_reserved":false,"is_disabled":false,"rental_uris":{"android":"levelo://app?vid=a7f997d3-a4f9-4f30-bdce-2ddde27a7b05","ios":"levelo://app?vid=a7f997d3-a4f9-4f30-bdce-2ddde27a7b05"},"vehicle_type_id":"4","last_reported":1760976739,"current_range_meters":9600,"station_id":"","pricing_plan_id":"cebpf4jnsgd1na2vs0mg"},{"bike_id":"486fdc60-6474-4ddf-ab7c-3d68e10cdc63","system_id":"levelo_inurba_marseille","lat":43.28768,"lon":5.38412,"is_reserved":false,"is_disabled":false,"rental_uris":{"android":"levelo://app?vid=486fdc60-6474-4ddf-ab7c-3d68e10cdc63","ios":"levelo://app?vid=486fdc60-6474-4ddf-ab7c-3d68e10cdc63"},"vehicle_type_id":"4","last_reported":1760976739,"current_range_meters":9600,"station_id":"","pricing_plan_id":"cebpf4jnsgd1na2vs0mg"},{"bike_id":"00cefd78-ca0e-46e4-bf04-cb62919adc5e","system_id":"levelo_inurba_marseille","lat":43.279989,"lon":5.416679,"is_reserved":false,"is_disabled":false,"rental_uris":{"android":"levelo://app?vid=00cefd78-ca0e-46e4-bf04-cb62919adc5e","ios":"levelo://app?vid=00cefd78-ca0e-46e4-bf04-cb62919adc5e"},"vehicle_type_id":"4","last_reported":1760976739,"current_range_meters":9600,"station_id":"ce4bho12rcd13ifvqh1g","pricing_plan_id":"cebpf4jnsgd1na2vs0mg"},{"bike_id":"c77bea15-5296-40cf-b5eb-3fcd8e7216c1","system_id":"levelo_inurba_marseille","lat":43.303508,"lon":5.41876,"is_reserved":false,"is_disabled":false,"rental_uris":{"android":"levelo://app?vid=c77bea15-5296-40cf-b5eb-3fcd8e7216c1","ios":"levelo://app?vid=c77bea15-5296-40cf-b5eb-3fcd8e7216c1"},"vehicle_type_id":"4","last_reported":1760976739,"current_range_meters":9600,"station_id":"ce4bhop2rcd13ifvqh7g","pricing_plan_id":"cebpf4jnsgd1na2vs0mg"},{"bike_id":"2f414f8c-fe0d-4f1c-8c00-f5d04292df62","system_id":"levelo_inurba_marseille","lat":43.32364,"lon":5.36757,"is_reserved":false,"is_disabled":false,"rental_uris":{"android":"levelo://app?vid=2f414f8c-fe0d-4f1c-8c00-f5d04292df62","ios":"levelo://app?vid=2f414f8c-fe0d-4f1c-8c00-f5d04292df62"},"vehicle_type_id":"4","last_reported":1760976739,"current_range_meters":10000,"station_id":"ce4bhsh2rcd13ifvqi2g","pricing_plan_id":"cebpf4jnsgd1na2vs0mg"},{"bike_id":"905a1232-ea00-4efd-b8da-0adf713300fb","system_id":"levelo_inurba_marseille","lat":43.24068,"lon":5.37736,"is_reserved":false,"is_disabled":false,"rental_uris":{"android":"levelo://app?vid=905a1232-ea00-4efd-b8da-0adf713300fb","ios":"levelo://app?vid=905a1232-ea00-4efd-b8da-0adf713300fb"},"vehicle_type_id":"4","last_reported":1760976739,"current_range_meters":10000,"station_id":"ce4bhnp2rcd13ifvqgvg","pricing_plan_id":"cebpf4jnsgd1na2vs0mg"},{"bike_id":"8f5b4e3f-d0c8-438b-955e-3fd6c08bc9d3","system_id":"levelo_inurba_marseille","lat":43.24174,"lon":5.36384,"is_reserved":false,"is_disabled":false,"rental_uris":{"android":"levelo://app?vid=8f5b4e3f-d0c8-438b-955e-3fd6c08bc9d3","ios":"levelo://app?vid=8f5b4e3f-d0c8-438b-955e-3fd6c08bc9d3"},"vehicle_type_id":"4","last_reported":1760976739,"current_range_meters":10800,"station_id":"cpo36qri1sfpv3e86is0","pricing_plan_id":"cebpf4jnsgd1na2vs0mg"},{"bike_id":"18ea6c3c-c20e-4e8d-90da-6256f3e055f0","system_id":"levelo_inurba_marseille","lat":43.30128,"lon":5.38785,"is_reserved":false,"is_disabled":false,"rental_uris":{"android":"levelo://app?vid=18ea6c3c-c20e-4e8d-90da-6256f3e055f0","ios":"levelo://app?vid=18ea6c3c-c20e-4e8d-90da-6256f3e055f0"},"vehicle_type_id":"4","last_reported":1760976739,"current_range_meters":10800,"station_id":"ce4bghh2rcd13ifvqb60","pricing_plan_id":"cebpf4jnsgd1na2vs0mg"},{"bike_id":"fa135660-5e92-4769-af7c-21f32f1d2382","system_id":"levelo_inurba_marseille","lat":43.29097,"lon":5.38124,"is_reserved":false,"is_disabled":false,"rental_uris":{"android":"levelo://app?vid=fa135660-5e92-4769-af7c-21f32f1d2382","ios":"levelo://app?vid=fa135660-5e92-4769-af7c-21f32f1d2382"},"vehicle_type_id":"4","last_reported":1760976739,"current_range_meters":10800,"station_id":"ce4bh512rcd13ifvqe2g","pricing_plan_id":"cebpf4jnsgd1na2vs0mg"},{"bike_id":"793bd619-12af-4bc1-a674-b70d86b415bd","system_id":"levelo_inurba_marseille","lat":43.3312,"lon":5.39131,"is_reserved":false,"is_disabled":false,"rental_uris":{"android":"levelo://app?vid=793bd619-12af-4bc1-a674-b70d86b415bd","ios":"levelo://app?vid=793bd619-12af-4bc1-a674-b70d86b415bd"},"vehicle_type_id":"4","last_reported":1760976739,"current_range_meters":10800,"station_id":"","pricing_plan_id":"cebpf4jnsgd1na2vs0mg"},{"bike_id":"35ab5dfd-833c-4c2a-948c-9579e63b93ba","system_id":"levelo_inurba_marseille","lat":43.289308,"lon":5.383959,"is_reserved":false,"is_disabled":false,"rental_uris":{"android":"levelo://app?vid=35ab5dfd-833c-4c2a-948c-9579e63b93ba","ios":"levelo://app?vid=35ab5dfd-833c-4c2a-948c-9579e63b93ba"},"vehicle_type_id":"4","last_reported":1760976739,"current_range_meters":10800,"station_id":"ce4bh612rcd13ifvqe6g","pricing_plan_id":"cebpf4jnsgd1na2vs0mg"},{"bike_id":"da22a6bb-ece8-4168-87fa-39fdca8adc0a","system_id":"levelo_inurba_marseille","lat":43.248064,"lon":5.374574,"is_reserved":false,"is_disabled":false,"rental_uris":{"android":"levelo://app?vid=da22a6bb-ece8-4168-87fa-39fdca8adc0a","ios":"levelo://app?vid=da22a6bb-ece8-4168-87fa-39fdca8adc0a"},"vehicle_type_id":"4","last_reported":1760976739,"current_range_meters":10800,"station_id":"ce4bhgh2rcd13ifvqfb0","pricing_plan_id":"cebpf4jnsgd1na2vs0mg"},{"bike_id":"59aed43f-13a8-4014-b2c4-38bf40a4080c","system_id":"levelo_inurba_marseille","lat":43.26895,"lon":5.4011,"is_reserved":false,"is_disabled":true,"rental_uris":{"android":"levelo://app?vid=59aed43f-13a8-4014-b2c4-38bf40a4080c","ios":"levelo://app?vid=59aed43f-13a8-4014-b2c4-38bf40a4080c"},"vehicle_type_id":"4","last_reported":1760976739,"current_range_meters":11200,"station_id":"cjm6bp8fraef2m0cb0m0","pricing_plan_id":"cebpf4jnsgd1na2vs0mg"},{"bike_id":"78fe83c7-5376-41e5-afa1-483e220954a6","system_id":"levelo_inurba_marseille","lat":43.291574,"lon":5.370648,"is_reserved":false,"is_disabled":false,"rental_uris":{"android":"levelo://app?vid=78fe83c7-5376-41e5-afa1-483e220954a6","ios":"levelo://app?vid=78fe83c7-5376-41e5-afa1-483e220954a6"},"vehicle_type_id":"4","last_reported":1760976739,"current_range_meters":11200,"station_id":"","pricing_plan_id":"cebpf4jnsgd1na2vs0mg"},{"bike_id":"fbf45233-5b2e-47b2-8f6d-b078fe72be0d","system_id":"levelo_inurba_marseille","lat":43.298121,"lon":5.440671,"is_reserved":false,"is_disabled":false,"rental_uris":{"android":"levelo://app?vid=fbf45233-5b2e-47b2-8f6d-b078fe72be0d","ios":"levelo://app?vid=fbf45233-5b2e-47b2-8f6d-b078fe72be0d"},"vehicle_type_id":"4","last_reported":1760976739,"current_range_meters":11200,"station_id":"","pricing_plan_id":"cebpf4jnsgd1na2vs0mg"},{"bike_id":"b64f5a90-0c5f-4ae5-b1e4-8d412cb049d3","system_id":"levelo_inurba_marseille","lat":43.27369,"lon":5.41515,"is_reserved":false,"is_disabled":false,"rental_uris":{"android":"levelo://app?vid=b64f5a90-0c5f-4ae5-b1e4-8d412cb049d3","ios":"levelo://app?vid=b64f5a90-0c5f-4ae5-b1e4-8d412cb049d3"},"vehicle_type_id":"4","last_reported":1760976739,"current_range_meters":11200,"station_id":"","pricing_plan_id":"cebpf4jnsgd1na2vs0mg"},{"bike_id":"9d449aff-01f0-4b92-9983-749d954577ea","system_id":"levelo_inurba_marseille","lat":43.27242,"lon":5.40076,"is_reserved":false,"is_disabled":false,"rental_uris":{"android":"levelo://app?vid=9d449aff-01f0-4b92-9983-749d954577ea","ios":"levelo://app?vid=9d449aff-01f0-4b92-9983-749d954577ea"},"vehicle_type_id":"4","last_reported":1760976739,"current_range_meters":11200,"station_id":"","pricing_plan_id":"cebpf4jnsgd1na2vs0mg"},{"bike_id":"b52685f1-5782-4f11-87c7-1dc9cebce4f0","system_id":"levelo_inurba_marseille","lat":43.27801,"lon":5.4073,"is_reserved":false,"is_disabled":false,"rental_uris":{"android":"levelo://app?vid=b52685f1-5782-4f11-87c7-1dc9cebce4f0","ios":"levelo://app?vid=b52685f1-5782-4f11-87c7-1dc9cebce4f0"},"vehicle_type_id":"4","last_reported":1760976739,"current_range_meters":11200,"station_id":"ce4bhnh2rcd13ifvqgtg","pricing_plan_id":"cebpf4jnsgd1na2vs0mg"},{"bike_id":"f267e188-1878-4f43-bd70-901d643af689","system_id":"levelo_inurba_marseille","lat":43.309321,"lon":5.401529,"is_reserved":false,"is_disabled":false,"rental_uris":{"android":"levelo://app?vid=f267e188-1878-4f43-bd70-901d643af689","ios":"levelo://app?vid=f267e188-1878-4f43-bd70-901d643af689"},"vehicle_type_id":"4","last_reported":1760976739,"current_range_meters":11200,"station_id":"ce4bgvp2rcd13ifvqct0","pricing_plan_id":"cebpf4jnsgd1na2vs0mg"},{"bike_id":"599c01b3-22df-4a9a-9d4e-358da650153e","system_id":"levelo_inurba_marseille","lat":43.337444,"lon":5.374475,"is_reserved":false,"is_disabled":false,"rental_uris":{"android":"levelo://app?vid=599c01b3-22df-4a9a-9d4e-358da650153e","ios":"levelo://app?vid=599c01b3-22df-4a9a-9d4e-358da650153e"},"vehicle_type_id":"4","last_reported":1760976739,"current_range_meters":11200,"station_id":"","pricing_plan_id":"cebpf4jnsgd1na2vs0mg"},{"bike_id":"a0c6418e-ad4c-4bd7-8eb8-f1b12776473d","system_id":"levelo_inurba_marseille","lat":43.30501,"lon":5.38072,"is_reserved":false,"is_disabled":false,"rental_uris":{"android":"levelo://app?vid=a0c6418e-ad4c-4bd7-8eb8-f1b12776473d","ios":"levelo://app?vid=a0c6418e-ad4c-4bd7-8eb8-f1b12776473d"},"vehicle_type_id":"4","last_reported":1760976739,"current_range_meters":11200,"station_id":"","pricing_plan_id":"cebpf4jnsgd1na2vs0mg"},{"bike_id":"dde75b88-ae6b-435b-a57e-449367fe22d5","system_id":"levelo_inurba_marseille","lat":43.24682,"lon":5.38146,"is_reserved":false,"is_disabled":true,"rental_uris":{"android":"levelo://app?vid=dde75b88-ae6b-435b-a57e-449367fe22d5","ios":"levelo://app?vid=dde75b88-ae6b-435b-a57e-449367fe22d5"},"vehicle_type_id":"4","last_reported":1760976739,"current_range_meters":11200,"station_id":"ce4bhih2rcd13ifvqfr0","pricing_plan_id":"cebpf4jnsgd1na2vs0mg"},{"bike_id":"ad9ff92d-a73f-4591-b6d4-bb3f850fa8bd","system_id":"levelo_inurba_marseille","lat":43.30931,"lon":5.40049,"is_reserved":false,"is_disabled":false,"rental_uris":{"android":"levelo://app?vid=ad9ff92d-a73f-4591-b6d4-bb3f850fa8bd","ios":"levelo://app?vid=ad9ff92d-a73f-4591-b6d4-bb3f850fa8bd"},"vehicle_type_id":"4","last_reported":1760976739,"current_range_meters":11200,"station_id":"","pricing_plan_id":"cebpf4jnsgd1na2vs0mg"},{"bike_id":"c530e950-50a8-4b2f-81e6-a5f7e6f752e8","system_id":"levelo_inurba_marseille","lat":43.33759,"lon":5.37473,"is_reserved":false,"is_disabled":false,"rental_uris":{"android":"levelo://app?vid=c530e950-50a8-4b2f-81e6-a5f7e6f752e8","ios":"levelo://app?vid=c530e950-50a8-4b2f-81e6-a5f7e6f752e8"},"vehicle_type_id":"4","last_reported":1760976739,"current_range_meters":11600,"station_id":"","pricing_plan_id":"cebpf4jnsgd1na2vs0mg"},{"bike_id":"d7d77088-f5a9-496b-9f01-98c80fd008c5","system_id":"levelo_inurba_marseille","lat":43.27808,"lon":5.40716,"is_reserved":false,"is_disabled":false,"rental_uris":{"android":"levelo://app?vid=d7d77088-f5a9-496b-9f01-98c80fd008c5","ios":"levelo://app?vid=d7d77088-f5a9-496b-9f01-98c80fd008c5"},"vehicle_type_id":"4","last_reported":1760976739,"current_range_meters":11600,"station_id":"ce4bhnh2rcd13ifvqgtg","pricing_plan_id":"cebpf4jnsgd1na2vs0mg"},{"bike_id":"d6318f9e-0184-4ff6-931a-ee0c5a28c2b7","system_id":"levelo_inurba_marseille","lat":43.231862,"lon":5.355569,"is_reserved":false,"is_disabled":false,"rental_uris":{"android":"levelo://app?vid=d6318f9e-0184-4ff6-931a-ee0c5a28c2b7","ios":"levelo://app?vid=d6318f9e-0184-4ff6-931a-ee0c5a28c2b7"},"vehicle_type_id":"4","last_reported":1760976739,"current_range_meters":11600,"station_id":"ce4bhu92rcd13ifvqi70","pricing_plan_id":"cebpf4jnsgd1na2vs0mg"},{"bike_id":"11af2c33-7571-4194-9fd5-89fa69cb43b5","system_id":"levelo_inurba_marseille","lat":43.24687,"lon":5.38163,"is_reserved":false,"is_disabled":false,"rental_uris":{"android":"levelo://app?vid=11af2c33-7571-4194-9fd5-89fa69cb43b5","ios":"levelo://app?vid=11af2c33-7571-4194-9fd5-89fa69cb43b5"},"vehicle_type_id":"4","last_reported":1760976739,"current_range_meters":12000,"station_id":"ce4bhih2rcd13ifvqfr0","pricing_plan_id":"cebpf4jnsgd1na2vs0mg"},{"bike_id":"8e1fc719-6181-46e6-8ce4-25169e80aa35","system_id":"levelo_inurba_marseille","lat":43.29167,"lon":5.37148,"is_reserved":false,"is_disabled":false,"rental_uris":{"android":"levelo://app?vid=8e1fc719-6181-46e6-8ce4-25169e80aa35","ios":"levelo://app?vid=8e1fc719-6181-46e6-8ce4-25169e80aa35"},"vehicle_type_id":"4","last_reported":1760976739,"current_range_meters":12000,"station_id":"ce4bha92rcd13ifvqeh0","pricing_plan_id":"cebpf4jnsgd1na2vs0mg"},{"bike_id":"15420d38-a7a6-4ef1-a6fb-d9427abf4333","system_id":"levelo_inurba_marseille","lat":43.30482,"lon":5.40078,"is_reserved":false,"is_disabled":false,"rental_uris":{"android":"levelo://app?vid=15420d38-a7a6-4ef1-a6fb-d9427abf4333","ios":"levelo://app?vid=15420d38-a7a6-4ef1-a6fb-d9427abf4333"},"vehicle_type_id":"4","last_reported":1760976739,"current_range_meters":12000,"station_id":"","pricing_plan_id":"cebpf4jnsgd1na2vs0mg"},{"bike_id":"b84f5d5c-4af3-41b9-bd23-a606402416d4","system_id":"levelo_inurba_marseille","lat":43.32041,"lon":5.41543,"is_reserved":false,"is_disabled":false,"rental_uris":{"android":"levelo://app?vid=b84f5d5c-4af3-41b9-bd23-a606402416d4","ios":"levelo://app?vid=b84f5d5c-4af3-41b9-bd23-a606402416d4"},"vehicle_type_id":"4","last_reported":1760976739,"current_range_meters":12000,"station_id":"","pricing_plan_id":"cebpf4jnsgd1na2vs0mg"},{"bike_id":"7ff2918d-0447-411a-aad2-d1891f822240","system_id":"levelo_inurba_marseille","lat":43.29536,"lon":5.39027,"is_reserved":false,"is_disabled":false,"rental_uris":{"android":"levelo://app?vid=7ff2918d-0447-411a-aad2-d1891f822240","ios":"levelo://app?vid=7ff2918d-0447-411a-aad2-d1891f822240"},"vehicle_type_id":"4","last_reported":1760976739,"current_range_meters":12000,"station_id":"ce4bh3p2rcd13ifvqdp0","pricing_plan_id":"cebpf4jnsgd1na2vs0mg"},{"bike_id":"cf8062ff-66fa-49bf-bc2d-f047219c91ce","system_id":"levelo_inurba_marseille","lat":43.27174,"lon":5.41002,"is_reserved":false,"is_disabled":false,"rental_uris":{"android":"levelo://app?vid=cf8062ff-66fa-49bf-bc2d-f047219c91ce","ios":"levelo://app?vid=cf8062ff-66fa-49bf-bc2d-f047219c91ce"},"vehicle_type_id":"4","last_reported":1760976739,"current_range_meters":12000,"station_id":"ce4bhl12rcd13ifvqgf0","pricing_plan_id":"cebpf4jnsgd1na2vs0mg"},{"bike_id":"b795dcee-745f-4569-9cc0-ecc3631ffb10","system_id":"levelo_inurba_marseille","lat":43.29958,"lon":5.37126,"is_reserved":false,"is_disabled":false,"rental_uris":{"android":"levelo://app?vid=b795dcee-745f-4569-9cc0-ecc3631ffb10","ios":"levelo://app?vid=b795dcee-745f-4569-9cc0-ecc3631ffb10"},"vehicle_type_id":"4","last_reported":1760976739,"current_range_meters":12400,"station_id":"ce4bgr92rcd13ifvqc7g","pricing_plan_id":"cebpf4jnsgd1na2vs0mg"},{"bike_id":"c2c126fe-6c84-4d4a-aabc-eea88bb59579","system_id":"levelo_inurba_marseille","lat":43.28678,"lon":5.38668,"is_reserved":false,"is_disabled":true,"rental_uris":{"android":"levelo://app?vid=c2c126fe-6c84-4d4a-aabc-eea88bb59579","ios":"levelo://app?vid=c2c126fe-6c84-4d4a-aabc-eea88bb59579"},"vehicle_type_id":"4","last_reported":1760976739,"current_range_meters":12400,"station_id":"ce4bh492rcd13ifvqdug","pricing_plan_id":"cebpf4jnsgd1na2vs0mg"},{"bike_id":"06304d67-2f71-4da4-8d5b-852de302d833","system_id":"levelo_inurba_marseille","lat":43.2949,"lon":5.43307,"is_reserved":false,"is_disabled":false,"rental_uris":{"android":"levelo://app?vid=06304d67-2f71-4da4-8d5b-852de302d833","ios":"levelo://app?vid=06304d67-2f71-4da4-8d5b-852de302d833"},"vehicle_type_id":"4","last_reported":1760976739,"current_range_meters":12400,"station_id":"st_d3j5ugp08ojc73fj9d10","pricing_plan_id":"cebpf4jnsgd1na2vs0mg"},{"bike_id":"c38d4779-18e1-43c4-a71d-5d81c3a33a62","system_id":"levelo_inurba_marseille","lat":43.29797,"lon":5.38095,"is_reserved":false,"is_disabled":true,"rental_uris":{"android":"levelo://app?vid=c38d4779-18e1-43c4-a71d-5d81c3a33a62","ios":"levelo://app?vid=c38d4779-18e1-43c4-a71d-5d81c3a33a62"},"vehicle_type_id":"4","last_reported":1760976739,"current_range_meters":12400,"station_id":"ce4bgip2rcd13ifvqbb0","pricing_plan_id":"cebpf4jnsgd1na2vs0mg"},{"bike_id":"faa3e668-6719-4125-8206-72a0a37494c0","system_id":"levelo_inurba_marseille","lat":43.26925,"lon":5.40256,"is_reserved":false,"is_disabled":true,"rental_uris":{"android":"levelo://app?vid=faa3e668-6719-4125-8206-72a0a37494c0","ios":"levelo://app?vid=faa3e668-6719-4125-8206-72a0a37494c0"},"vehicle_type_id":"4","last_reported":1760976739,"current_range_meters":12400,"station_id":"cjm6bp8fraef2m0cb0m0","pricing_plan_id":"cebpf4jnsgd1na2vs0mg"},{"bike_id":"6431081f-6387-4849-b946-3e23264b16df","system_id":"levelo_inurba_marseille","lat":43.302131,"lon":5.394726,"is_reserved":false,"is_disabled":false,"rental_uris":{"android":"levelo://app?vid=6431081f-6387-4849-b946-3e23264b16df","ios":"levelo://app?vid=6431081f-6387-4849-b946-3e23264b16df"},"vehicle_type_id":"4","last_reported":1760976739,"current_range_meters":12400,"station_id":"ce4bh0p2rcd13ifvqd70","pricing_plan_id":"cebpf4jnsgd1na2vs0mg"},{"bike_id":"25692812-6513-48cc-878b-b86b30ea2e1e","system_id":"levelo_inurba_marseille","lat":43.27607,"lon":5.36112,"is_reserved":false,"is_disabled":false,"rental_uris":{"android":"levelo://app?vid=25692812-6513-48cc-878b-b86b30ea2e1e","ios":"levelo://app?vid=25692812-6513-48cc-878b-b86b30ea2e1e"},"vehicle_type_id":"4","last_reported":1760976739,"current_range_meters":12800,"station_id":"ce4bgj92rcd13ifvqbe0","pricing_plan_id":"cebpf4jnsgd1na2vs0mg"},{"bike_id":"61da2458-70a9-42a1-8ec8-8c8bac515284","system_id":"levelo_inurba_marseille","lat":43.290039,"lon":5.356241,"is_reserved":false,"is_disabled":false,"rental_uris":{"android":"levelo://app?vid=61da2458-70a9-42a1-8ec8-8c8bac515284","ios":"levelo://app?vid=61da2458-70a9-42a1-8ec8-8c8bac515284"},"vehicle_type_id":"4","last_reported":1760976739,"current_range_meters":12800,"station_id":"ce4bhb92rcd13ifvqen0","pricing_plan_id":"cebpf4jnsgd1na2vs0mg"},{"bike_id":"6e8ed827-a6f7-46f1-ad28-2f0468b71691","system_id":"levelo_inurba_marseille","lat":43.32121,"lon":5.36799,"is_reserved":false,"is_disabled":true,"rental_uris":{"android":"levelo://app?vid=6e8ed827-a6f7-46f1-ad28-2f0468b71691","ios":"levelo://app?vid=6e8ed827-a6f7-46f1-ad28-2f0468b71691"},"vehicle_type_id":"4","last_reported":1760976739,"current_range_meters":12800,"station_id":"ce4bhrh2rcd13ifvqhug","pricing_plan_id":"cebpf4jnsgd1na2vs0mg"},{"bike_id":"071e898f-8a31-4dba-959b-b2095e68eb23","system_id":"levelo_inurba_marseille","lat":43.26556,"lon":5.39017,"is_reserved":false,"is_disabled":false,"rental_uris":{"android":"levelo://app?vid=071e898f-8a31-4dba-959b-b2095e68eb23","ios":"levelo://app?vid=071e898f-8a31-4dba-959b-b2095e68eb23"},"vehicle_type_id":"4","last_reported":1760976739,"current_range_meters":12800,"station_id":"ce4bhe12rcd13ifvqf30","pricing_plan_id":"cebpf4jnsgd1na2vs0mg"},{"bike_id":"06c84d1b-6e81-4ab2-ab43-e166647822bc","system_id":"levelo_inurba_marseille","lat":43.28905,"lon":5.36855,"is_reserved":false,"is_disabled":false,"rental_uris":{"android":"levelo://app?vid=06c84d1b-6e81-4ab2-ab43-e166647822bc","ios":"levelo://app?vid=06c84d1b-6e81-4ab2-ab43-e166647822bc"},"vehicle_type_id":"4","last_reported":1760976739,"current_range_meters":13600,"station_id":"","pricing_plan_id":"cebpf4jnsgd1na2vs0mg"},{"bike_id":"a0b20e78-fa73-4b51-a447-d944430610d9","system_id":"levelo_inurba_marseille","lat":43.30427,"lon":5.3891,"is_reserved":false,"is_disabled":false,"rental_uris":{"android":"levelo://app?vid=a0b20e78-fa73-4b51-a447-d944430610d9","ios":"levelo://app?vid=a0b20e78-fa73-4b51-a447-d944430610d9"},"vehicle_type_id":"4","last_reported":1760976739,"current_range_meters":13600,"station_id":"ce4bgk12rcd13ifvqbi0","pricing_plan_id":"cebpf4jnsgd1na2vs0mg"},{"bike_id":"35d8b230-e487-439a-9c56-35e9d4b94c5e","system_id":"levelo_inurba_marseille","lat":43.243791,"lon":5.370629,"is_reserved":false,"is_disabled":false,"rental_uris":{"android":"levelo://app?vid=35d8b230-e487-439a-9c56-35e9d4b94c5e","ios":"levelo://app?vid=35d8b230-e487-439a-9c56-35e9d4b94c5e"},"vehicle_type_id":"4","last_reported":1760976739,"current_range_meters":13600,"station_id":"ce4bhhh2rcd13ifvqfk0","pricing_plan_id":"cebpf4jnsgd1na2vs0mg"},{"bike_id":"50256437-f563-4e18-83ab-119789c51b86","system_id":"levelo_inurba_marseille","lat":43.31705,"lon":5.37625,"is_reserved":false,"is_disabled":false,"rental_uris":{"android":"levelo://app?vid=50256437-f563-4e18-83ab-119789c51b86","ios":"levelo://app?vid=50256437-f563-4e18-83ab-119789c51b86"},"vehicle_type_id":"4","last_reported":1760976739,"current_range_meters":14000,"station_id":"","pricing_plan_id":"cebpf4jnsgd1na2vs0mg"},{"bike_id":"e2cc1335-de59-46f2-b145-0d8b227ea7b6","system_id":"levelo_inurba_marseille","lat":43.2794,"lon":5.4105,"is_reserved":false,"is_disabled":false,"rental_uris":{"android":"levelo://app?vid=e2cc1335-de59-46f2-b145-0d8b227ea7b6","ios":"levelo://app?vid=e2cc1335-de59-46f2-b145-0d8b227ea7b6"},"vehicle_type_id":"4","last_reported":1760976739,"current_range_meters":14000,"station_id":"ce4bhnp2rcd13ifvqh0g","pricing_plan_id":"cebpf4jnsgd1na2vs0mg"},{"bike_id":"b90ad6e3-43cb-4c56-af32-2ba59669ca71","system_id":"levelo_inurba_marseille","lat":43.3093,"lon":5.40138,"is_reserved":false,"is_disabled":false,"rental_uris":{"android":"levelo://app?vid=b90ad6e3-43cb-4c56-af32-2ba59669ca71","ios":"levelo://app?vid=b90ad6e3-43cb-4c56-af32-2ba59669ca71"},"vehicle_type_id":"4","last_reported":1760976739,"current_range_meters":14000,"station_id":"ce4bgvp2rcd13ifvqct0","pricing_plan_id":"cebpf4jnsgd1na2vs0mg"},{"bike_id":"44def8bb-fc22-46bb-a308-b8e670ec5dfd","system_id":"levelo_inurba_marseille","lat":43.30131,"lon":5.37428,"is_reserved":false,"is_disabled":true,"rental_uris":{"android":"levelo://app?vid=44def8bb-fc22-46bb-a308-b8e670ec5dfd","ios":"levelo://app?vid=44def8bb-fc22-46bb-a308-b8e670ec5dfd"},"vehicle_type_id":"4","last_reported":1760976739,"current_range_meters":14000,"station_id":"ce4bgs92rcd13ifvqcc0","pricing_plan_id":"cebpf4jnsgd1na2vs0mg"},{"bike_id":"32dbdba0-e039-4c71-9c95-70d7b309a29d","system_id":"levelo_inurba_marseille","lat":43.282115,"lon":5.349922,"is_reserved":false,"is_disabled":false,"rental_uris":{"android":"levelo://app?vid=32dbdba0-e039-4c71-9c95-70d7b309a29d","ios":"levelo://app?vid=32dbdba0-e039-4c71-9c95-70d7b309a29d"},"vehicle_type_id":"4","last_reported":1760976739,"current_range_meters":14000,"station_id":"","pricing_plan_id":"cebpf4jnsgd1na2vs0mg"},{"bike_id":"5a35347d-1dbb-434c-8651-0148cd77cd1e","system_id":"levelo_inurba_marseille","lat":43.3175,"lon":5.38585,"is_reserved":false,"is_disabled":false,"rental_uris":{"android":"levelo://app?vid=5a35347d-1dbb-434c-8651-0148cd77cd1e","ios":"levelo://app?vid=5a35347d-1dbb-434c-8651-0148cd77cd1e"},"vehicle_type_id":"4","last_reported":1760976739,"current_range_meters":14000,"station_id":"","pricing_plan_id":"cebpf4jnsgd1na2vs0mg"},{"bike_id":"2ab235ce-ce1c-4e5a-b8f7-e903ac97becc","system_id":"levelo_inurba_marseille","lat":43.33476,"lon":5.40008,"is_reserved":false,"is_disabled":false,"rental_uris":{"android":"levelo://app?vid=2ab235ce-ce1c-4e5a-b8f7-e903ac97becc","ios":"levelo://app?vid=2ab235ce-ce1c-4e5a-b8f7-e903ac97becc"},"vehicle_type_id":"4","last_reported":1760976739,"current_range_meters":14000,"station_id":"","pricing_plan_id":"cebpf4jnsgd1na2vs0mg"},{"bike_id":"8758806c-a775-4e20-b8bd-1fb9bd76f1c5","system_id":"levelo_inurba_marseille","lat":43.296666,"lon":5.387036,"is_reserved":false,"is_disabled":false,"rental_uris":{"android":"levelo://app?vid=8758806c-a775-4e20-b8bd-1fb9bd76f1c5","ios":"levelo://app?vid=8758806c-a775-4e20-b8bd-1fb9bd76f1c5"},"vehicle_type_id":"4","last_reported":1760976739,"current_range_meters":14400,"station_id":"","pricing_plan_id":"cebpf4jnsgd1na2vs0mg"},{"bike_id":"5a18ae2d-3a59-4d1a-87b1-6175a65af0eb","system_id":"levelo_inurba_marseille","lat":43.2463,"lon":5.43148,"is_reserved":false,"is_disabled":false,"rental_uris":{"android":"levelo://app?vid=5a18ae2d-3a59-4d1a-87b1-6175a65af0eb","ios":"levelo://app?vid=5a18ae2d-3a59-4d1a-87b1-6175a65af0eb"},"vehicle_type_id":"4","last_reported":1760976739,"current_range_meters":14400,"station_id":"st_d2m6c4gdas8pm72e190g","pricing_plan_id":"cebpf4jnsgd1na2vs0mg"},{"bike_id":"80edf2d1-c6f0-4ada-b510-33baf1bb4ab9","system_id":"levelo_inurba_marseille","lat":43.30149,"lon":5.39835,"is_reserved":false,"is_disabled":false,"rental_uris":{"android":"levelo://app?vid=80edf2d1-c6f0-4ada-b510-33baf1bb4ab9","ios":"levelo://app?vid=80edf2d1-c6f0-4ada-b510-33baf1bb4ab9"},"vehicle_type_id":"4","last_reported":1760976739,"current_range_meters":14400,"station_id":"ce4bh0h2rcd13ifvqd40","pricing_plan_id":"cebpf4jnsgd1na2vs0mg"},{"bike_id":"934a37a3-cd77-494a-8f99-60803cc2ff5e","system_id":"levelo_inurba_marseille","lat":43.30462,"lon":5.37903,"is_reserved":false,"is_disabled":false,"rental_uris":{"android":"levelo://app?vid=934a37a3-cd77-494a-8f99-60803cc2ff5e","ios":"levelo://app?vid=934a37a3-cd77-494a-8f99-60803cc2ff5e"},"vehicle_type_id":"4","last_reported":1760976739,"current_range_meters":14400,"station_id":"ce4bgup2rcd13ifvqcn0","pricing_plan_id":"cebpf4jnsgd1na2vs0mg"},{"bike_id":"9953bb32-6d68-488a-9e42-24a31e2ab81f","system_id":"levelo_inurba_marseille","lat":43.31525,"lon":5.38034,"is_reserved":false,"is_disabled":false,"rental_uris":{"android":"levelo://app?vid=9953bb32-6d68-488a-9e42-24a31e2ab81f","ios":"levelo://app?vid=9953bb32-6d68-488a-9e42-24a31e2ab81f"},"vehicle_type_id":"4","last_reported":1760976739,"current_range_meters":14800,"station_id":"ce4bhsp2rcd13ifvqi50","pricing_plan_id":"cebpf4jnsgd1na2vs0mg"},{"bike_id":"83d00457-c2b3-458e-bed3-c7a5d917db9b","system_id":"levelo_inurba_marseille","lat":43.29532,"lon":5.39031,"is_reserved":false,"is_disabled":false,"rental_uris":{"android":"levelo://app?vid=83d00457-c2b3-458e-bed3-c7a5d917db9b","ios":"levelo://app?vid=83d00457-c2b3-458e-bed3-c7a5d917db9b"},"vehicle_type_id":"4","last_reported":1760976739,"current_range_meters":14800,"station_id":"ce4bh3p2rcd13ifvqdp0","pricing_plan_id":"cebpf4jnsgd1na2vs0mg"},{"bike_id":"a7ba6a6a-8dda-4e76-8a63-3f1cbbb0d6aa","system_id":"levelo_inurba_marseille","lat":43.34133,"lon":5.40907,"is_reserved":false,"is_disabled":false,"rental_uris":{"android":"levelo://app?vid=a7ba6a6a-8dda-4e76-8a63-3f1cbbb0d6aa","ios":"levelo://app?vid=a7ba6a6a-8dda-4e76-8a63-3f1cbbb0d6aa"},"vehicle_type_id":"4","last_reported":1760976739,"current_range_meters":15200,"station_id":"ce4bhqh2rcd13ifvqhlg","pricing_plan_id":"cebpf4jnsgd1na2vs0mg"},{"bike_id":"2e67643b-d341-4102-ab0e-b8ecc435eb92","system_id":"levelo_inurba_marseille","lat":43.31528,"lon":5.38744,"is_reserved":false,"is_disabled":false,"rental_uris":{"android":"levelo://app?vid=2e67643b-d341-4102-ab0e-b8ecc435eb92","ios":"levelo://app?vid=2e67643b-d341-4102-ab0e-b8ecc435eb92"},"vehicle_type_id":"4","last_reported":1760976739,"current_range_meters":15200,"station_id":"","pricing_plan_id":"cebpf4jnsgd1na2vs0mg"},{"bike_id":"5f1015a4-e527-423a-8450-0f79576a99ad","system_id":"levelo_inurba_marseille","lat":43.302945,"lon":5.435166,"is_reserved":false,"is_disabled":false,"rental_uris":{"android":"levelo://app?vid=5f1015a4-e527-423a-8450-0f79576a99ad","ios":"levelo://app?vid=5f1015a4-e527-423a-8450-0f79576a99ad"},"vehicle_type_id":"4","last_reported":1760976739,"current_range_meters":15200,"station_id":"","pricing_plan_id":"cebpf4jnsgd1na2vs0mg"},{"bike_id":"f213b68f-b58c-47cf-ab61-5f2ad820541e","system_id":"levelo_inurba_marseille","lat":43.29538,"lon":5.38533,"is_reserved":false,"is_disabled":false,"rental_uris":{"android":"levelo://app?vid=f213b68f-b58c-47cf-ab61-5f2ad820541e","ios":"levelo://app?vid=f213b68f-b58c-47cf-ab61-5f2ad820541e"},"vehicle_type_id":"4","last_reported":1760976739,"current_range_meters":15200,"station_id":"ce4bgih2rcd13ifvqba0","pricing_plan_id":"cebpf4jnsgd1na2vs0mg"},{"bike_id":"a27423e0-ceb0-4a8f-86e7-7b89077ab2b5","system_id":"levelo_inurba_marseille","lat":43.281674,"lon":5.36115,"is_reserved":false,"is_disabled":false,"rental_uris":{"android":"levelo://app?vid=a27423e0-ceb0-4a8f-86e7-7b89077ab2b5","ios":"levelo://app?vid=a27423e0-ceb0-4a8f-86e7-7b89077ab2b5"},"vehicle_type_id":"4","last_reported":1760976739,"current_range_meters":16000,"station_id":"","pricing_plan_id":"cebpf4jnsgd1na2vs0mg"},{"bike_id":"1c3a62d6-9dc5-4b1d-b145-ff75c0ccb3b4","system_id":"levelo_inurba_marseille","lat":43.2827,"lon":5.35058,"is_reserved":false,"is_disabled":false,"rental_uris":{"android":"levelo://app?vid=1c3a62d6-9dc5-4b1d-b145-ff75c0ccb3b4","ios":"levelo://app?vid=1c3a62d6-9dc5-4b1d-b145-ff75c0ccb3b4"},"vehicle_type_id":"4","last_reported":1760976739,"current_range_meters":16000,"station_id":"","pricing_plan_id":"cebpf4jnsgd1na2vs0mg"},{"bike_id":"9d3ae994-9f8f-4684-818a-9e47b87560ff","system_id":"levelo_inurba_marseille","lat":43.25728,"lon":5.41112,"is_reserved":false,"is_disabled":false,"rental_uris":{"android":"levelo://app?vid=9d3ae994-9f8f-4684-818a-9e47b87560ff","ios":"levelo://app?vid=9d3ae994-9f8f-4684-818a-9e47b87560ff"},"vehicle_type_id":"4","last_reported":1760976739,"current_range_meters":16400,"station_id":"ce4bhkp2rcd13ifvqgd0","pricing_plan_id":"cebpf4jnsgd1na2vs0mg"},{"bike_id":"6ad10a4e-7a41-4fbf-866f-3132d49472b5","system_id":"levelo_inurba_marseille","lat":43.2847,"lon":5.38421,"is_reserved":false,"is_disabled":false,"rental_uris":{"android":"levelo://app?vid=6ad10a4e-7a41-4fbf-866f-3132d49472b5","ios":"levelo://app?vid=6ad10a4e-7a41-4fbf-866f-3132d49472b5"},"vehicle_type_id":"4","last_reported":1760976739,"current_range_meters":16400,"station_id":"ce4bh512rcd13ifvqe3g","pricing_plan_id":"cebpf4jnsgd1na2vs0mg"},{"bike_id":"b14fa3f8-aae1-46e3-b682-dad93ba86e32","system_id":"levelo_inurba_marseille","lat":43.25091,"lon":5.39505,"is_reserved":false,"is_disabled":false,"rental_uris":{"android":"levelo://app?vid=b14fa3f8-aae1-46e3-b682-dad93ba86e32","ios":"levelo://app?vid=b14fa3f8-aae1-46e3-b682-dad93ba86e32"},"vehicle_type_id":"4","last_reported":1760976739,"current_range_meters":16400,"station_id":"ce4bhm12rcd13ifvqgkg","pricing_plan_id":"cebpf4jnsgd1na2vs0mg"},{"bike_id":"2f09c9be-359a-414b-9339-b6dbcd93427c","system_id":"levelo_inurba_marseille","lat":43.29592,"lon":5.38096,"is_reserved":false,"is_disabled":true,"rental_uris":{"android":"levelo://app?vid=2f09c9be-359a-414b-9339-b6dbcd93427c","ios":"levelo://app?vid=2f09c9be-359a-414b-9339-b6dbcd93427c"},"vehicle_type_id":"4","last_reported":1760976739,"current_range_meters":16400,"station_id":"ce4bgl12rcd13ifvqbo0","pricing_plan_id":"cebpf4jnsgd1na2vs0mg"},{"bike_id":"f7bc1b94-a8e8-42b5-9694-5993a69ba238","system_id":"levelo_inurba_marseille","lat":43.25106,"lon":5.40354,"is_reserved":false,"is_disabled":true,"rental_uris":{"android":"levelo://app?vid=f7bc1b94-a8e8-42b5-9694-5993a69ba238","ios":"levelo://app?vid=f7bc1b94-a8e8-42b5-9694-5993a69ba238"},"vehicle_type_id":"4","last_reported":1760976739,"current_range_meters":16400,"station_id":"ce4bhlh2rcd13ifvqgig","pricing_plan_id":"cebpf4jnsgd1na2vs0mg"},{"bike_id":"10ff78bf-5180-4d52-8fff-804b6316dff9","system_id":"levelo_inurba_marseille","lat":43.28479,"lon":5.38414,"is_reserved":false,"is_disabled":false,"rental_uris":{"android":"levelo://app?vid=10ff78bf-5180-4d52-8fff-804b6316dff9","ios":"levelo://app?vid=10ff78bf-5180-4d52-8fff-804b6316dff9"},"vehicle_type_id":"4","last_reported":1760976739,"current_range_meters":16400,"station_id":"ce4bh512rcd13ifvqe3g","pricing_plan_id":"cebpf4jnsgd1na2vs0mg"},{"bike_id":"b63f4144-84f6-4ba1-b6df-f6ebabe9ef26","system_id":"levelo_inurba_marseille","lat":43.27986,"lon":5.40379,"is_reserved":false,"is_disabled":false,"rental_uris":{"android":"levelo://app?vid=b63f4144-84f6-4ba1-b6df-f6ebabe9ef26","ios":"levelo://app?vid=b63f4144-84f6-4ba1-b6df-f6ebabe9ef26"},"vehicle_type_id":"4","last_reported":1760976739,"current_range_meters":16400,"station_id":"","pricing_plan_id":"cebpf4jnsgd1na2vs0mg"},{"bike_id":"20d9d3c4-a46a-4dac-bafb-410f46cebfba","system_id":"levelo_inurba_marseille","lat":43.25838,"lon":5.39362,"is_reserved":false,"is_disabled":false,"rental_uris":{"android":"levelo://app?vid=20d9d3c4-a46a-4dac-bafb-410f46cebfba","ios":"levelo://app?vid=20d9d3c4-a46a-4dac-bafb-410f46cebfba"},"vehicle_type_id":"4","last_reported":1760976739,"current_range_meters":16800,"station_id":"","pricing_plan_id":"cebpf4jnsgd1na2vs0mg"},{"bike_id":"3500c908-297e-4054-9aba-70ee2962e831","system_id":"levelo_inurba_marseille","lat":43.31738,"lon":5.39048,"is_reserved":false,"is_disabled":false,"rental_uris":{"android":"levelo://app?vid=3500c908-297e-4054-9aba-70ee2962e831","ios":"levelo://app?vid=3500c908-297e-4054-9aba-70ee2962e831"},"vehicle_type_id":"4","last_reported":1760976739,"current_range_meters":16800,"station_id":"ce4bhqp2rcd13ifvqhng","pricing_plan_id":"cebpf4jnsgd1na2vs0mg"},{"bike_id":"ef3774b1-bdf9-4056-add3-bfdb9f0aa5b9","system_id":"levelo_inurba_marseille","lat":43.25823,"lon":5.39439,"is_reserved":false,"is_disabled":false,"rental_uris":{"android":"levelo://app?vid=ef3774b1-bdf9-4056-add3-bfdb9f0aa5b9","ios":"levelo://app?vid=ef3774b1-bdf9-4056-add3-bfdb9f0aa5b9"},"vehicle_type_id":"4","last_reported":1760976739,"current_range_meters":16800,"station_id":"ce4bhip2rcd13ifvqft0","pricing_plan_id":"cebpf4jnsgd1na2vs0mg"},{"bike_id":"737796b0-9eed-4879-8123-81b53466978c","system_id":"levelo_inurba_marseille","lat":43.27988,"lon":5.41662,"is_reserved":false,"is_disabled":false,"rental_uris":{"android":"levelo://app?vid=737796b0-9eed-4879-8123-81b53466978c","ios":"levelo://app?vid=737796b0-9eed-4879-8123-81b53466978c"},"vehicle_type_id":"4","last_reported":1760976739,"current_range_meters":16800,"station_id":"ce4bho12rcd13ifvqh1g","pricing_plan_id":"cebpf4jnsgd1na2vs0mg"},{"bike_id":"ee541b89-16c0-411b-94f7-b1b83718973b","system_id":"levelo_inurba_marseille","lat":43.27992,"lon":5.4168,"is_reserved":false,"is_disabled":false,"rental_uris":{"android":"levelo://app?vid=ee541b89-16c0-411b-94f7-b1b83718973b","ios":"levelo://app?vid=ee541b89-16c0-411b-94f7-b1b83718973b"},"vehicle_type_id":"4","last_reported":1760976739,"current_range_meters":16800,"station_id":"ce4bho12rcd13ifvqh1g","pricing_plan_id":"cebpf4jnsgd1na2vs0mg"},{"bike_id":"d950ada0-7546-479b-b1de-6e0c92ac2fca","system_id":"levelo_inurba_marseille","lat":43.290281,"lon":5.386537,"is_reserved":false,"is_disabled":true,"rental_uris":{"android":"levelo://app?vid=d950ada0-7546-479b-b1de-6e0c92ac2fca","ios":"levelo://app?vid=d950ada0-7546-479b-b1de-6e0c92ac2fca"},"vehicle_type_id":"4","last_reported":1760976739,"current_range_meters":16800,"station_id":"ce4bh4p2rcd13ifvqe0g","pricing_plan_id":"cebpf4jnsgd1na2vs0mg"},{"bike_id":"3182913d-7f39-4887-9cb4-1b23a352f7bb","system_id":"levelo_inurba_marseille","lat":43.29167,"lon":5.37165,"is_reserved":false,"is_disabled":false,"rental_uris":{"android":"levelo://app?vid=3182913d-7f39-4887-9cb4-1b23a352f7bb","ios":"levelo://app?vid=3182913d-7f39-4887-9cb4-1b23a352f7bb"},"vehicle_type_id":"4","last_reported":1760976739,"current_range_meters":16800,"station_id":"ce4bha92rcd13ifvqeh0","pricing_plan_id":"cebpf4jnsgd1na2vs0mg"},{"bike_id":"40617a59-a4c2-4066-ac53-b4f37168ac6f","system_id":"levelo_inurba_marseille","lat":43.337736,"lon":5.374688,"is_reserved":false,"is_disabled":false,"rental_uris":{"android":"levelo://app?vid=40617a59-a4c2-4066-ac53-b4f37168ac6f","ios":"levelo://app?vid=40617a59-a4c2-4066-ac53-b4f37168ac6f"},"vehicle_type_id":"4","last_reported":1760976739,"current_range_meters":16800,"station_id":"","pricing_plan_id":"cebpf4jnsgd1na2vs0mg"},{"bike_id":"07f325ca-c2d1-4e58-a530-daa3ae8a034b","system_id":"levelo_inurba_marseille","lat":43.286594,"lon":5.363467,"is_reserved":false,"is_disabled":false,"rental_uris":{"android":"levelo://app?vid=07f325ca-c2d1-4e58-a530-daa3ae8a034b","ios":"levelo://app?vid=07f325ca-c2d1-4e58-a530-daa3ae8a034b"},"vehicle_type_id":"4","last_reported":1760976739,"current_range_meters":16800,"station_id":"ce4bhah2rcd13ifvqej0","pricing_plan_id":"cebpf4jnsgd1na2vs0mg"},{"bike_id":"0902f8f5-2693-425a-bff3-5d901bf02c48","system_id":"levelo_inurba_marseille","lat":43.243863,"lon":5.370553,"is_reserved":false,"is_disabled":false,"rental_uris":{"android":"levelo://app?vid=0902f8f5-2693-425a-bff3-5d901bf02c48","ios":"levelo://app?vid=0902f8f5-2693-425a-bff3-5d901bf02c48"},"vehicle_type_id":"4","last_reported":1760976739,"current_range_meters":17200,"station_id":"","pricing_plan_id":"cebpf4jnsgd1na2vs0mg"},{"bike_id":"ecc71f2f-a8c8-48f2-a3d5-7917b274cd85","system_id":"levelo_inurba_marseille","lat":43.28283,"lon":5.39667,"is_reserved":false,"is_disabled":false,"rental_uris":{"android":"levelo://app?vid=ecc71f2f-a8c8-48f2-a3d5-7917b274cd85","ios":"levelo://app?vid=ecc71f2f-a8c8-48f2-a3d5-7917b274cd85"},"vehicle_type_id":"4","last_reported":1760976739,"current_range_meters":17200,"station_id":"","pricing_plan_id":"cebpf4jnsgd1na2vs0mg"},{"bike_id":"525ac142-3ff9-4596-94cb-3ef0374db211","system_id":"levelo_inurba_marseille","lat":43.26506,"lon":5.389629,"is_reserved":false,"is_disabled":false,"rental_uris":{"android":"levelo://app?vid=525ac142-3ff9-4596-94cb-3ef0374db211","ios":"levelo://app?vid=525ac142-3ff9-4596-94cb-3ef0374db211"},"vehicle_type_id":"4","last_reported":1760976739,"current_range_meters":17200,"station_id":"ce4bhe12rcd13ifvqf30","pricing_plan_id":"cebpf4jnsgd1na2vs0mg"},{"bike_id":"0db9ab5d-e4b9-4e8d-8841-4099a10de2ae","system_id":"levelo_inurba_marseille","lat":43.28483,"lon":5.48401,"is_reserved":false,"is_disabled":false,"rental_uris":{"android":"levelo://app?vid=0db9ab5d-e4b9-4e8d-8841-4099a10de2ae","ios":"levelo://app?vid=0db9ab5d-e4b9-4e8d-8841-4099a10de2ae"},"vehicle_type_id":"4","last_reported":1760976739,"current_range_meters":17200,"station_id":"st_d3jp68qikq2c7381ktn0","pricing_plan_id":"cebpf4jnsgd1na2vs0mg"},{"bike_id":"03b63163-09d2-4c11-af7e-24a829304669","system_id":"levelo_inurba_marseille","lat":43.30302,"lon":5.39213,"is_reserved":false,"is_disabled":false,"rental_uris":{"android":"levelo://app?vid=03b63163-09d2-4c11-af7e-24a829304669","ios":"levelo://app?vid=03b63163-09d2-4c11-af7e-24a829304669"},"vehicle_type_id":"4","last_reported":1760976739,"current_range_meters":17200,"station_id":"ce4bgkh2rcd13ifvqbk0","pricing_plan_id":"cebpf4jnsgd1na2vs0mg"},{"bike_id":"8941138c-7657-4fe9-99e8-6bc3d84595db","system_id":"levelo_inurba_marseille","lat":43.29225,"lon":5.36057,"is_reserved":false,"is_disabled":false,"rental_uris":{"android":"levelo://app?vid=8941138c-7657-4fe9-99e8-6bc3d84595db","ios":"levelo://app?vid=8941138c-7657-4fe9-99e8-6bc3d84595db"},"vehicle_type_id":"4","last_reported":1760976739,"current_range_meters":17200,"station_id":"ce4bhbh2rcd13ifvqeqg","pricing_plan_id":"cebpf4jnsgd1na2vs0mg"},{"bike_id":"650bb74a-57ef-4e4a-8406-528f721d7e7f","system_id":"levelo_inurba_marseille","lat":43.28708,"lon":5.37374,"is_reserved":false,"is_disabled":false,"rental_uris":{"android":"levelo://app?vid=650bb74a-57ef-4e4a-8406-528f721d7e7f","ios":"levelo://app?vid=650bb74a-57ef-4e4a-8406-528f721d7e7f"},"vehicle_type_id":"4","last_reported":1760976739,"current_range_meters":17200,"station_id":"ce4bh3p2rcd13ifvqdq0","pricing_plan_id":"cebpf4jnsgd1na2vs0mg"},{"bike_id":"d8ce8491-25e7-4f84-8373-cc25897ada4d","system_id":"levelo_inurba_marseille","lat":43.225532,"lon":5.416412,"is_reserved":false,"is_disabled":false,"rental_uris":{"android":"levelo://app?vid=d8ce8491-25e7-4f84-8373-cc25897ada4d","ios":"levelo://app?vid=d8ce8491-25e7-4f84-8373-cc25897ada4d"},"vehicle_type_id":"4","last_reported":1760976739,"current_range_meters":17200,"station_id":"st_d2o4gvlbi1j2169b742g","pricing_plan_id":"cebpf4jnsgd1na2vs0mg"},{"bike_id":"e1f4e2e7-e979-4bb5-8ac3-370c17ac4622","system_id":"levelo_inurba_marseille","lat":43.28861,"lon":5.42522,"is_reserved":false,"is_disabled":false,"rental_uris":{"android":"levelo://app?vid=e1f4e2e7-e979-4bb5-8ac3-370c17ac4622","ios":"levelo://app?vid=e1f4e2e7-e979-4bb5-8ac3-370c17ac4622"},"vehicle_type_id":"4","last_reported":1760976739,"current_range_meters":17600,"station_id":"st_d3b462108ojc7389ooeg","pricing_plan_id":"cebpf4jnsgd1na2vs0mg"},{"bike_id":"b4dd57b5-fcf3-46d4-8f00-44cd689898c9","system_id":"levelo_inurba_marseille","lat":43.25337,"lon":5.42169,"is_reserved":false,"is_disabled":false,"rental_uris":{"android":"levelo://app?vid=b4dd57b5-fcf3-46d4-8f00-44cd689898c9","ios":"levelo://app?vid=b4dd57b5-fcf3-46d4-8f00-44cd689898c9"},"vehicle_type_id":"4","last_reported":1760976739,"current_range_meters":17600,"station_id":"st_d2m65c5bi1j21697t3ng","pricing_plan_id":"cebpf4jnsgd1na2vs0mg"},{"bike_id":"c110ea28-d213-4d71-b227-e07b59bd1258","system_id":"levelo_inurba_marseille","lat":43.25869,"lon":5.39898,"is_reserved":false,"is_disabled":false,"rental_uris":{"android":"levelo://app?vid=c110ea28-d213-4d71-b227-e07b59bd1258","ios":"levelo://app?vid=c110ea28-d213-4d71-b227-e07b59bd1258"},"vehicle_type_id":"4","last_reported":1760976739,"current_range_meters":17600,"station_id":"ce4bhl92rcd13ifvqghg","pricing_plan_id":"cebpf4jnsgd1na2vs0mg"},{"bike_id":"63cea3a2-4c18-45b4-8601-ebd6a16be24a","system_id":"levelo_inurba_marseille","lat":43.3172,"lon":5.42398,"is_reserved":false,"is_disabled":false,"rental_uris":{"android":"levelo://app?vid=63cea3a2-4c18-45b4-8601-ebd6a16be24a","ios":"levelo://app?vid=63cea3a2-4c18-45b4-8601-ebd6a16be24a"},"vehicle_type_id":"4","last_reported":1760976739,"current_range_meters":17600,"station_id":"ce4bhp92rcd13ifvqhbg","pricing_plan_id":"cebpf4jnsgd1na2vs0mg"},{"bike_id":"fa344610-9bdf-47a1-9d9d-a659d006d2c1","system_id":"levelo_inurba_marseille","lat":43.27604,"lon":5.36122,"is_reserved":false,"is_disabled":true,"rental_uris":{"android":"levelo://app?vid=fa344610-9bdf-47a1-9d9d-a659d006d2c1","ios":"levelo://app?vid=fa344610-9bdf-47a1-9d9d-a659d006d2c1"},"vehicle_type_id":"4","last_reported":1760976739,"current_range_meters":17600,"station_id":"ce4bgj92rcd13ifvqbe0","pricing_plan_id":"cebpf4jnsgd1na2vs0mg"},{"bike_id":"46f9692e-919f-4134-8c97-1776688996d4","system_id":"levelo_inurba_marseille","lat":43.29566,"lon":5.39986,"is_reserved":false,"is_disabled":false,"rental_uris":{"android":"levelo://app?vid=46f9692e-919f-4134-8c97-1776688996d4","ios":"levelo://app?vid=46f9692e-919f-4134-8c97-1776688996d4"},"vehicle_type_id":"4","last_reported":1760976739,"current_range_meters":17600,"station_id":"ce4bh312rcd13ifvqdj0","pricing_plan_id":"cebpf4jnsgd1na2vs0mg"},{"bike_id":"595ab7b3-f565-46b3-b868-042c1f5ec1ab","system_id":"levelo_inurba_marseille","lat":43.25569,"lon":5.38229,"is_reserved":false,"is_disabled":false,"rental_uris":{"android":"levelo://app?vid=595ab7b3-f565-46b3-b868-042c1f5ec1ab","ios":"levelo://app?vid=595ab7b3-f565-46b3-b868-042c1f5ec1ab"},"vehicle_type_id":"4","last_reported":1760976739,"current_range_meters":17600,"station_id":"ce4bhih2rcd13ifvqfs0","pricing_plan_id":"cebpf4jnsgd1na2vs0mg"},{"bike_id":"9685b534-3028-459a-908a-5c3c4b067a77","system_id":"levelo_inurba_marseille","lat":43.2795,"lon":5.38741,"is_reserved":false,"is_disabled":false,"rental_uris":{"android":"levelo://app?vid=9685b534-3028-459a-908a-5c3c4b067a77","ios":"levelo://app?vid=9685b534-3028-459a-908a-5c3c4b067a77"},"vehicle_type_id":"4","last_reported":1760976739,"current_range_meters":17600,"station_id":"ce4bhg12rcd13ifvqf80","pricing_plan_id":"cebpf4jnsgd1na2vs0mg"},{"bike_id":"8d424099-a491-4f9a-968b-40e3fbcc3df2","system_id":"levelo_inurba_marseille","lat":43.2549,"lon":5.39404,"is_reserved":false,"is_disabled":false,"rental_uris":{"android":"levelo://app?vid=8d424099-a491-4f9a-968b-40e3fbcc3df2","ios":"levelo://app?vid=8d424099-a491-4f9a-968b-40e3fbcc3df2"},"vehicle_type_id":"4","last_reported":1760976739,"current_range_meters":17600,"station_id":"ce4bhh92rcd13ifvqfj0","pricing_plan_id":"cebpf4jnsgd1na2vs0mg"},{"bike_id":"5128c0fe-4dbd-436c-953e-b5f17c8ff496","system_id":"levelo_inurba_marseille","lat":43.24389,"lon":5.37071,"is_reserved":false,"is_disabled":true,"rental_uris":{"android":"levelo://app?vid=5128c0fe-4dbd-436c-953e-b5f17c8ff496","ios":"levelo://app?vid=5128c0fe-4dbd-436c-953e-b5f17c8ff496"},"vehicle_type_id":"4","last_reported":1760976739,"current_range_meters":17600,"station_id":"ce4bhhh2rcd13ifvqfk0","pricing_plan_id":"cebpf4jnsgd1na2vs0mg"},{"bike_id":"9c882443-49a2-480d-8caf-b6fafbd1ba97","system_id":"levelo_inurba_marseille","lat":43.275389,"lon":5.427709,"is_reserved":false,"is_disabled":false,"rental_uris":{"android":"levelo://app?vid=9c882443-49a2-480d-8caf-b6fafbd1ba97","ios":"levelo://app?vid=9c882443-49a2-480d-8caf-b6fafbd1ba97"},"vehicle_type_id":"4","last_reported":1760976739,"current_range_meters":17600,"station_id":"","pricing_plan_id":"cebpf4jnsgd1na2vs0mg"},{"bike_id":"e7611cfa-682f-4ccd-96c5-464cc6f40597","system_id":"levelo_inurba_marseille","lat":43.22567,"lon":5.4163,"is_reserved":false,"is_disabled":false,"rental_uris":{"android":"levelo://app?vid=e7611cfa-682f-4ccd-96c5-464cc6f40597","ios":"levelo://app?vid=e7611cfa-682f-4ccd-96c5-464cc6f40597"},"vehicle_type_id":"4","last_reported":1760976739,"current_range_meters":17600,"station_id":"st_d2o4gvlbi1j2169b742g","pricing_plan_id":"cebpf4jnsgd1na2vs0mg"},{"bike_id":"ddb42857-0aae-4463-929a-292b5c49d408","system_id":"levelo_inurba_marseille","lat":43.29278,"lon":5.40128,"is_reserved":false,"is_disabled":false,"rental_uris":{"android":"levelo://app?vid=ddb42857-0aae-4463-929a-292b5c49d408","ios":"levelo://app?vid=ddb42857-0aae-4463-929a-292b5c49d408"},"vehicle_type_id":"4","last_reported":1760976739,"current_range_meters":17600,"station_id":"ce4bh312rcd13ifvqdk0","pricing_plan_id":"cebpf4jnsgd1na2vs0mg"},{"bike_id":"26a47936-248a-4509-9172-73bff6c9fadc","system_id":"levelo_inurba_marseille","lat":43.309998,"lon":5.389321,"is_reserved":false,"is_disabled":false,"rental_uris":{"android":"levelo://app?vid=26a47936-248a-4509-9172-73bff6c9fadc","ios":"levelo://app?vid=26a47936-248a-4509-9172-73bff6c9fadc"},"vehicle_type_id":"4","last_reported":1760976739,"current_range_meters":18000,"station_id":"ce4bgup2rcd13ifvqco0","pricing_plan_id":"cebpf4jnsgd1na2vs0mg"},{"bike_id":"b957c03c-c49b-4436-b663-41be95719730","system_id":"levelo_inurba_marseille","lat":43.29232,"lon":5.38451,"is_reserved":false,"is_disabled":false,"rental_uris":{"android":"levelo://app?vid=b957c03c-c49b-4436-b663-41be95719730","ios":"levelo://app?vid=b957c03c-c49b-4436-b663-41be95719730"},"vehicle_type_id":"4","last_reported":1760976739,"current_range_meters":18000,"station_id":"ce4bh692rcd13ifvqea0","pricing_plan_id":"cebpf4jnsgd1na2vs0mg"},{"bike_id":"92b02659-bc59-48cf-ba8c-7deb756ff706","system_id":"levelo_inurba_marseille","lat":43.29563,"lon":5.37528,"is_reserved":false,"is_disabled":false,"rental_uris":{"android":"levelo://app?vid=92b02659-bc59-48cf-ba8c-7deb756ff706","ios":"levelo://app?vid=92b02659-bc59-48cf-ba8c-7deb756ff706"},"vehicle_type_id":"4","last_reported":1760976739,"current_range_meters":18000,"station_id":"ce4bgh92rcd13ifvqb50","pricing_plan_id":"cebpf4jnsgd1na2vs0mg"},{"bike_id":"ddf1938a-3832-4ae7-8006-63d9e29f0044","system_id":"levelo_inurba_marseille","lat":43.23154,"lon":5.43711,"is_reserved":false,"is_disabled":false,"rental_uris":{"android":"levelo://app?vid=ddf1938a-3832-4ae7-8006-63d9e29f0044","ios":"levelo://app?vid=ddf1938a-3832-4ae7-8006-63d9e29f0044"},"vehicle_type_id":"4","last_reported":1760976739,"current_range_meters":18000,"station_id":"ce4bhmp2rcd13ifvqgog","pricing_plan_id":"cebpf4jnsgd1na2vs0mg"},{"bike_id":"72d5bbb6-0721-4f71-9159-fb97b85cb230","system_id":"levelo_inurba_marseille","lat":43.32354,"lon":5.36758,"is_reserved":false,"is_disabled":false,"rental_uris":{"android":"levelo://app?vid=72d5bbb6-0721-4f71-9159-fb97b85cb230","ios":"levelo://app?vid=72d5bbb6-0721-4f71-9159-fb97b85cb230"},"vehicle_type_id":"4","last_reported":1760976739,"current_range_meters":18000,"station_id":"ce4bhsh2rcd13ifvqi2g","pricing_plan_id":"cebpf4jnsgd1na2vs0mg"},{"bike_id":"c9c1af49-9e6d-4de6-adde-aea85d12b1bb","system_id":"levelo_inurba_marseille","lat":43.32579,"lon":5.42405,"is_reserved":false,"is_disabled":false,"rental_uris":{"android":"levelo://app?vid=c9c1af49-9e6d-4de6-adde-aea85d12b1bb","ios":"levelo://app?vid=c9c1af49-9e6d-4de6-adde-aea85d12b1bb"},"vehicle_type_id":"4","last_reported":1760976739,"current_range_meters":18000,"station_id":"","pricing_plan_id":"cebpf4jnsgd1na2vs0mg"},{"bike_id":"b33ba7be-cfd3-435d-a14c-afa8fe5496bc","system_id":"levelo_inurba_marseille","lat":43.27615,"lon":5.36123,"is_reserved":false,"is_disabled":false,"rental_uris":{"android":"levelo://app?vid=b33ba7be-cfd3-435d-a14c-afa8fe5496bc","ios":"levelo://app?vid=b33ba7be-cfd3-435d-a14c-afa8fe5496bc"},"vehicle_type_id":"4","last_reported":1760976739,"current_range_meters":18000,"station_id":"ce4bgj92rcd13ifvqbe0","pricing_plan_id":"cebpf4jnsgd1na2vs0mg"},{"bike_id":"038ae94f-1bed-4406-9b8b-2d0bb027916a","system_id":"levelo_inurba_marseille","lat":43.29522,"lon":5.39039,"is_reserved":false,"is_disabled":false,"rental_uris":{"android":"levelo://app?vid=038ae94f-1bed-4406-9b8b-2d0bb027916a","ios":"levelo://app?vid=038ae94f-1bed-4406-9b8b-2d0bb027916a"},"vehicle_type_id":"4","last_reported":1760976739,"current_range_meters":18000,"station_id":"ce4bh3p2rcd13ifvqdp0","pricing_plan_id":"cebpf4jnsgd1na2vs0mg"},{"bike_id":"312c3216-4b35-45b8-bddc-9036bcdee6d5","system_id":"levelo_inurba_marseille","lat":43.25111,"lon":5.40327,"is_reserved":false,"is_disabled":false,"rental_uris":{"android":"levelo://app?vid=312c3216-4b35-45b8-bddc-9036bcdee6d5","ios":"levelo://app?vid=312c3216-4b35-45b8-bddc-9036bcdee6d5"},"vehicle_type_id":"4","last_reported":1760976739,"current_range_meters":18000,"station_id":"ce4bhlh2rcd13ifvqgig","pricing_plan_id":"cebpf4jnsgd1na2vs0mg"},{"bike_id":"d7c871da-327a-4c2e-a445-e974b1ea0dea","system_id":"levelo_inurba_marseille","lat":43.283539,"lon":5.380978,"is_reserved":false,"is_disabled":false,"rental_uris":{"android":"levelo://app?vid=d7c871da-327a-4c2e-a445-e974b1ea0dea","ios":"levelo://app?vid=d7c871da-327a-4c2e-a445-e974b1ea0dea"},"vehicle_type_id":"4","last_reported":1760976739,"current_range_meters":18800,"station_id":"ce4bh412rcd13ifvqdr0","pricing_plan_id":"cebpf4jnsgd1na2vs0mg"},{"bike_id":"74d4c845-b3fc-423c-b1cb-c0637059eeb7","system_id":"levelo_inurba_marseille","lat":43.28869,"lon":5.35808,"is_reserved":false,"is_disabled":false,"rental_uris":{"android":"levelo://app?vid=74d4c845-b3fc-423c-b1cb-c0637059eeb7","ios":"levelo://app?vid=74d4c845-b3fc-423c-b1cb-c0637059eeb7"},"vehicle_type_id":"4","last_reported":1760976739,"current_range_meters":18800,"station_id":"ce4bhb12rcd13ifvqem0","pricing_plan_id":"cebpf4jnsgd1na2vs0mg"},{"bike_id":"326efe0c-d68a-41d8-9299-2582ccef39c8","system_id":"levelo_inurba_marseille","lat":43.2987,"lon":5.39745,"is_reserved":false,"is_disabled":false,"rental_uris":{"android":"levelo://app?vid=326efe0c-d68a-41d8-9299-2582ccef39c8","ios":"levelo://app?vid=326efe0c-d68a-41d8-9299-2582ccef39c8"},"vehicle_type_id":"4","last_reported":1760976739,"current_range_meters":18800,"station_id":"ce4bh0h2rcd13ifvqd50","pricing_plan_id":"cebpf4jnsgd1na2vs0mg"},{"bike_id":"d21d91e8-7a75-4548-82c3-1b3109a71ef6","system_id":"levelo_inurba_marseille","lat":43.33154,"lon":5.35497,"is_reserved":false,"is_disabled":false,"rental_uris":{"android":"levelo://app?vid=d21d91e8-7a75-4548-82c3-1b3109a71ef6","ios":"levelo://app?vid=d21d91e8-7a75-4548-82c3-1b3109a71ef6"},"vehicle_type_id":"4","last_reported":1760976739,"current_range_meters":18800,"station_id":"","pricing_plan_id":"cebpf4jnsgd1na2vs0mg"},{"bike_id":"f1b8e04f-457e-461e-a0a7-0d512845fe50","system_id":"levelo_inurba_marseille","lat":43.34085,"lon":5.40405,"is_reserved":false,"is_disabled":false,"rental_uris":{"android":"levelo://app?vid=f1b8e04f-457e-461e-a0a7-0d512845fe50","ios":"levelo://app?vid=f1b8e04f-457e-461e-a0a7-0d512845fe50"},"vehicle_type_id":"4","last_reported":1760976739,"current_range_meters":18800,"station_id":"","pricing_plan_id":"cebpf4jnsgd1na2vs0mg"},{"bike_id":"70676c39-2541-4676-97a5-34e7ecbc5eb5","system_id":"levelo_inurba_marseille","lat":43.2606,"lon":5.394,"is_reserved":false,"is_disabled":false,"rental_uris":{"android":"levelo://app?vid=70676c39-2541-4676-97a5-34e7ecbc5eb5","ios":"levelo://app?vid=70676c39-2541-4676-97a5-34e7ecbc5eb5"},"vehicle_type_id":"4","last_reported":1760976739,"current_range_meters":19200,"station_id":"ce4bhh92rcd13ifvqfj0","pricing_plan_id":"cebpf4jnsgd1na2vs0mg"},{"bike_id":"1de6ebd8-d371-4192-8a8a-740773cc8f40","system_id":"levelo_inurba_marseille","lat":43.286455,"lon":5.385455,"is_reserved":false,"is_disabled":false,"rental_uris":{"android":"levelo://app?vid=1de6ebd8-d371-4192-8a8a-740773cc8f40","ios":"levelo://app?vid=1de6ebd8-d371-4192-8a8a-740773cc8f40"},"vehicle_type_id":"4","last_reported":1760976739,"current_range_meters":19200,"station_id":"","pricing_plan_id":"cebpf4jnsgd1na2vs0mg"},{"bike_id":"c45648bf-426f-4cd0-9d82-bddecf26652a","system_id":"levelo_inurba_marseille","lat":43.29454,"lon":5.397487,"is_reserved":false,"is_disabled":false,"rental_uris":{"android":"levelo://app?vid=c45648bf-426f-4cd0-9d82-bddecf26652a","ios":"levelo://app?vid=c45648bf-426f-4cd0-9d82-bddecf26652a"},"vehicle_type_id":"4","last_reported":1760976739,"current_range_meters":19200,"station_id":"ce4bh3h2rcd13ifvqdo0","pricing_plan_id":"cebpf4jnsgd1na2vs0mg"},{"bike_id":"83f2ec6e-0d6e-42a5-99f1-1274eafafc19","system_id":"levelo_inurba_marseille","lat":43.27179,"lon":5.41002,"is_reserved":false,"is_disabled":false,"rental_uris":{"android":"levelo://app?vid=83f2ec6e-0d6e-42a5-99f1-1274eafafc19","ios":"levelo://app?vid=83f2ec6e-0d6e-42a5-99f1-1274eafafc19"},"vehicle_type_id":"4","last_reported":1760976739,"current_range_meters":19200,"station_id":"ce4bhl12rcd13ifvqgf0","pricing_plan_id":"cebpf4jnsgd1na2vs0mg"},{"bike_id":"e16744f4-d13d-4ad4-a36f-bca1a403f797","system_id":"levelo_inurba_marseille","lat":43.28926,"lon":5.38391,"is_reserved":false,"is_disabled":false,"rental_uris":{"android":"levelo://app?vid=e16744f4-d13d-4ad4-a36f-bca1a403f797","ios":"levelo://app?vid=e16744f4-d13d-4ad4-a36f-bca1a403f797"},"vehicle_type_id":"4","last_reported":1760976739,"current_range_meters":19200,"station_id":"ce4bh612rcd13ifvqe6g","pricing_plan_id":"cebpf4jnsgd1na2vs0mg"},{"bike_id":"9f82ab14-18ed-451e-a592-be1133611cf0","system_id":"levelo_inurba_marseille","lat":43.27829,"lon":5.3921,"is_reserved":false,"is_disabled":false,"rental_uris":{"android":"levelo://app?vid=9f82ab14-18ed-451e-a592-be1133611cf0","ios":"levelo://app?vid=9f82ab14-18ed-451e-a592-be1133611cf0"},"vehicle_type_id":"4","last_reported":1760976739,"current_range_meters":19200,"station_id":"ce4bhjp2rcd13ifvqga0","pricing_plan_id":"cebpf4jnsgd1na2vs0mg"},{"bike_id":"d95c7e50-8a0b-4fd1-a7d3-bc18df2154f2","system_id":"levelo_inurba_marseille","lat":43.3014,"lon":5.39855,"is_reserved":false,"is_disabled":false,"rental_uris":{"android":"levelo://app?vid=d95c7e50-8a0b-4fd1-a7d3-bc18df2154f2","ios":"levelo://app?vid=d95c7e50-8a0b-4fd1-a7d3-bc18df2154f2"},"vehicle_type_id":"4","last_reported":1760976739,"current_range_meters":19200,"station_id":"ce4bh0h2rcd13ifvqd40","pricing_plan_id":"cebpf4jnsgd1na2vs0mg"},{"bike_id":"393cb4aa-a852-46d8-91f6-053fce75cf93","system_id":"levelo_inurba_marseille","lat":43.27482,"lon":5.42479,"is_reserved":false,"is_disabled":true,"rental_uris":{"android":"levelo://app?vid=393cb4aa-a852-46d8-91f6-053fce75cf93","ios":"levelo://app?vid=393cb4aa-a852-46d8-91f6-053fce75cf93"},"vehicle_type_id":"4","last_reported":1760976739,"current_range_meters":19200,"station_id":"ce4bhn92rcd13ifvqgrg","pricing_plan_id":"cebpf4jnsgd1na2vs0mg"},{"bike_id":"c71062df-2e0b-4447-9245-37625669e5c2","system_id":"levelo_inurba_marseille","lat":43.29273,"lon":5.4032,"is_reserved":false,"is_disabled":false,"rental_uris":{"android":"levelo://app?vid=c71062df-2e0b-4447-9245-37625669e5c2","ios":"levelo://app?vid=c71062df-2e0b-4447-9245-37625669e5c2"},"vehicle_type_id":"4","last_reported":1760976739,"current_range_meters":19200,"station_id":"","pricing_plan_id":"cebpf4jnsgd1na2vs0mg"},{"bike_id":"5c6534e2-36c2-4023-b35d-6364fb858aa9","system_id":"levelo_inurba_marseille","lat":43.29331,"lon":5.3707,"is_reserved":false,"is_disabled":false,"rental_uris":{"android":"levelo://app?vid=5c6534e2-36c2-4023-b35d-6364fb858aa9","ios":"levelo://app?vid=5c6534e2-36c2-4023-b35d-6364fb858aa9"},"vehicle_type_id":"4","last_reported":1760976739,"current_range_meters":19200,"station_id":"","pricing_plan_id":"cebpf4jnsgd1na2vs0mg"},{"bike_id":"b3f980a7-f16c-4c01-979c-e745e813a0e5","system_id":"levelo_inurba_marseille","lat":43.29021,"lon":5.38143,"is_reserved":false,"is_disabled":false,"rental_uris":{"android":"levelo://app?vid=b3f980a7-f16c-4c01-979c-e745e813a0e5","ios":"levelo://app?vid=b3f980a7-f16c-4c01-979c-e745e813a0e5"},"vehicle_type_id":"4","last_reported":1760976739,"current_range_meters":19200,"station_id":"ce4bh4p2rcd13ifvqe1g","pricing_plan_id":"cebpf4jnsgd1na2vs0mg"},{"bike_id":"ad04aa29-7725-4d94-9c03-3dc9757bd8e8","system_id":"levelo_inurba_marseille","lat":43.29664,"lon":5.36024,"is_reserved":false,"is_disabled":false,"rental_uris":{"android":"levelo://app?vid=ad04aa29-7725-4d94-9c03-3dc9757bd8e8","ios":"levelo://app?vid=ad04aa29-7725-4d94-9c03-3dc9757bd8e8"},"vehicle_type_id":"4","last_reported":1760976739,"current_range_meters":19200,"station_id":"","pricing_plan_id":"cebpf4jnsgd1na2vs0mg"},{"bike_id":"9b12efb8-4745-48c9-b6b8-0c8b6b7dbcf5","system_id":"levelo_inurba_marseille","lat":43.30491,"lon":5.38247,"is_reserved":false,"is_disabled":false,"rental_uris":{"android":"levelo://app?vid=9b12efb8-4745-48c9-b6b8-0c8b6b7dbcf5","ios":"levelo://app?vid=9b12efb8-4745-48c9-b6b8-0c8b6b7dbcf5"},"vehicle_type_id":"4","last_reported":1760976739,"current_range_meters":19200,"station_id":"","pricing_plan_id":"cebpf4jnsgd1na2vs0mg"},{"bike_id":"91ab1363-742f-48b4-afbf-c5038ebf28ea","system_id":"levelo_inurba_marseille","lat":43.28068,"lon":5.37777,"is_reserved":false,"is_disabled":false,"rental_uris":{"android":"levelo://app?vid=91ab1363-742f-48b4-afbf-c5038ebf28ea","ios":"levelo://app?vid=91ab1363-742f-48b4-afbf-c5038ebf28ea"},"vehicle_type_id":"4","last_reported":1760976739,"current_range_meters":19600,"station_id":"","pricing_plan_id":"cebpf4jnsgd1na2vs0mg"},{"bike_id":"f20d68d9-84a9-4d06-9083-2ed5731bb49d","system_id":"levelo_inurba_marseille","lat":43.27985,"lon":5.41657,"is_reserved":false,"is_disabled":false,"rental_uris":{"android":"levelo://app?vid=f20d68d9-84a9-4d06-9083-2ed5731bb49d","ios":"levelo://app?vid=f20d68d9-84a9-4d06-9083-2ed5731bb49d"},"vehicle_type_id":"4","last_reported":1760976739,"current_range_meters":19600,"station_id":"ce4bho12rcd13ifvqh1g","pricing_plan_id":"cebpf4jnsgd1na2vs0mg"},{"bike_id":"bf4cb43d-a5cd-4494-b968-bf7557d186a3","system_id":"levelo_inurba_marseille","lat":43.29276,"lon":5.401147,"is_reserved":false,"is_disabled":false,"rental_uris":{"android":"levelo://app?vid=bf4cb43d-a5cd-4494-b968-bf7557d186a3","ios":"levelo://app?vid=bf4cb43d-a5cd-4494-b968-bf7557d186a3"},"vehicle_type_id":"4","last_reported":1760976739,"current_range_meters":19600,"station_id":"","pricing_plan_id":"cebpf4jnsgd1na2vs0mg"},{"bike_id":"1c5f894c-28be-45f9-81bc-458a2962c69b","system_id":"levelo_inurba_marseille","lat":43.271985,"lon":5.409906,"is_reserved":false,"is_disabled":true,"rental_uris":{"android":"levelo://app?vid=1c5f894c-28be-45f9-81bc-458a2962c69b","ios":"levelo://app?vid=1c5f894c-28be-45f9-81bc-458a2962c69b"},"vehicle_type_id":"4","last_reported":1760976739,"current_range_meters":19600,"station_id":"ce4bhl12rcd13ifvqgf0","pricing_plan_id":"cebpf4jnsgd1na2vs0mg"},{"bike_id":"ee3c4b3d-6631-4ed9-b054-c03cc7063bd8","system_id":"levelo_inurba_marseille","lat":43.28464,"lon":5.35873,"is_reserved":false,"is_disabled":false,"rental_uris":{"android":"levelo://app?vid=ee3c4b3d-6631-4ed9-b054-c03cc7063bd8","ios":"levelo://app?vid=ee3c4b3d-6631-4ed9-b054-c03cc7063bd8"},"vehicle_type_id":"4","last_reported":1760976739,"current_range_meters":19600,"station_id":"ce4bhah2rcd13ifvqei0","pricing_plan_id":"cebpf4jnsgd1na2vs0mg"},{"bike_id":"5b13ae95-9abd-427e-b11b-454fe27a30f4","system_id":"levelo_inurba_marseille","lat":43.308937,"lon":5.396591,"is_reserved":false,"is_disabled":true,"rental_uris":{"android":"levelo://app?vid=5b13ae95-9abd-427e-b11b-454fe27a30f4","ios":"levelo://app?vid=5b13ae95-9abd-427e-b11b-454fe27a30f4"},"vehicle_type_id":"4","last_reported":1760976739,"current_range_meters":19600,"station_id":"ce4bh012rcd13ifvqcv0","pricing_plan_id":"cebpf4jnsgd1na2vs0mg"},{"bike_id":"28e6627f-8c24-4349-8844-06040cec7b18","system_id":"levelo_inurba_marseille","lat":43.28565,"lon":5.39499,"is_reserved":false,"is_disabled":false,"rental_uris":{"android":"levelo://app?vid=28e6627f-8c24-4349-8844-06040cec7b18","ios":"levelo://app?vid=28e6627f-8c24-4349-8844-06040cec7b18"},"vehicle_type_id":"4","last_reported":1760976739,"current_range_meters":20000,"station_id":"ce4bh292rcd13ifvqdg0","pricing_plan_id":"cebpf4jnsgd1na2vs0mg"},{"bike_id":"bcc57d73-ed78-4372-88b7-bc5bc4efe681","system_id":"levelo_inurba_marseille","lat":43.284263,"lon":5.391955,"is_reserved":false,"is_disabled":false,"rental_uris":{"android":"levelo://app?vid=bcc57d73-ed78-4372-88b7-bc5bc4efe681","ios":"levelo://app?vid=bcc57d73-ed78-4372-88b7-bc5bc4efe681"},"vehicle_type_id":"4","last_reported":1760976739,"current_range_meters":20000,"station_id":"ce4bhoh2rcd13ifvqh5g","pricing_plan_id":"cebpf4jnsgd1na2vs0mg"},{"bike_id":"8b09adc9-50d7-4020-b9de-acdb64c5faf9","system_id":"levelo_inurba_marseille","lat":43.29464,"lon":5.39612,"is_reserved":false,"is_disabled":false,"rental_uris":{"android":"levelo://app?vid=8b09adc9-50d7-4020-b9de-acdb64c5faf9","ios":"levelo://app?vid=8b09adc9-50d7-4020-b9de-acdb64c5faf9"},"vehicle_type_id":"4","last_reported":1760976739,"current_range_meters":20000,"station_id":"","pricing_plan_id":"cebpf4jnsgd1na2vs0mg"},{"bike_id":"15157440-24b9-40e6-b7a4-71d37be57a4a","system_id":"levelo_inurba_marseille","lat":43.29524,"lon":5.39408,"is_reserved":false,"is_disabled":false,"rental_uris":{"android":"levelo://app?vid=15157440-24b9-40e6-b7a4-71d37be57a4a","ios":"levelo://app?vid=15157440-24b9-40e6-b7a4-71d37be57a4a"},"vehicle_type_id":"4","last_reported":1760976739,"current_range_meters":20400,"station_id":"ce4bh292rcd13ifvqdf0","pricing_plan_id":"cebpf4jnsgd1na2vs0mg"},{"bike_id":"608f184a-906f-4cc6-afdd-f263c26077ad","system_id":"levelo_inurba_marseille","lat":43.254859,"lon":5.376138,"is_reserved":false,"is_disabled":false,"rental_uris":{"android":"levelo://app?vid=608f184a-906f-4cc6-afdd-f263c26077ad","ios":"levelo://app?vid=608f184a-906f-4cc6-afdd-f263c26077ad"},"vehicle_type_id":"4","last_reported":1760976739,"current_range_meters":20400,"station_id":"ce4bhh12rcd13ifvqff0","pricing_plan_id":"cebpf4jnsgd1na2vs0mg"},{"bike_id":"ceedc452-f436-4994-ac01-c6c43898b914","system_id":"levelo_inurba_marseille","lat":43.337835,"lon":5.374294,"is_reserved":false,"is_disabled":false,"rental_uris":{"android":"levelo://app?vid=ceedc452-f436-4994-ac01-c6c43898b914","ios":"levelo://app?vid=ceedc452-f436-4994-ac01-c6c43898b914"},"vehicle_type_id":"4","last_reported":1760976739,"current_range_meters":20400,"station_id":"","pricing_plan_id":"cebpf4jnsgd1na2vs0mg"},{"bike_id":"2d209636-4bbc-4cc1-a195-9f1ca6f0e42f","system_id":"levelo_inurba_marseille","lat":43.2952,"lon":5.3905,"is_reserved":false,"is_disabled":false,"rental_uris":{"android":"levelo://app?vid=2d209636-4bbc-4cc1-a195-9f1ca6f0e42f","ios":"levelo://app?vid=2d209636-4bbc-4cc1-a195-9f1ca6f0e42f"},"vehicle_type_id":"4","last_reported":1760976739,"current_range_meters":20400,"station_id":"ce4bh3p2rcd13ifvqdp0","pricing_plan_id":"cebpf4jnsgd1na2vs0mg"},{"bike_id":"bd32ef73-c08c-4cb9-8d0c-897ba2966023","system_id":"levelo_inurba_marseille","lat":43.2467,"lon":5.38156,"is_reserved":false,"is_disabled":false,"rental_uris":{"android":"levelo://app?vid=bd32ef73-c08c-4cb9-8d0c-897ba2966023","ios":"levelo://app?vid=bd32ef73-c08c-4cb9-8d0c-897ba2966023"},"vehicle_type_id":"4","last_reported":1760976739,"current_range_meters":20800,"station_id":"ce4bhih2rcd13ifvqfr0","pricing_plan_id":"cebpf4jnsgd1na2vs0mg"},{"bike_id":"3b528d44-a10e-4100-a703-df005339dfb5","system_id":"levelo_inurba_marseille","lat":43.29774,"lon":5.39328,"is_reserved":false,"is_disabled":false,"rental_uris":{"android":"levelo://app?vid=3b528d44-a10e-4100-a703-df005339dfb5","ios":"levelo://app?vid=3b528d44-a10e-4100-a703-df005339dfb5"},"vehicle_type_id":"4","last_reported":1760976739,"current_range_meters":20800,"station_id":"chh1huq6cuj3fo74tm60","pricing_plan_id":"cebpf4jnsgd1na2vs0mg"},{"bike_id":"16c89344-2b65-485b-9c1f-32cbe4def4cd","system_id":"levelo_inurba_marseille","lat":43.29432,"lon":5.40261,"is_reserved":false,"is_disabled":false,"rental_uris":{"android":"levelo://app?vid=16c89344-2b65-485b-9c1f-32cbe4def4cd","ios":"levelo://app?vid=16c89344-2b65-485b-9c1f-32cbe4def4cd"},"vehicle_type_id":"4","last_reported":1760976739,"current_range_meters":20800,"station_id":"","pricing_plan_id":"cebpf4jnsgd1na2vs0mg"},{"bike_id":"a58bbaa8-7441-42dd-ad47-1d89bd73bc88","system_id":"levelo_inurba_marseille","lat":43.280642,"lon":5.352788,"is_reserved":false,"is_disabled":false,"rental_uris":{"android":"levelo://app?vid=a58bbaa8-7441-42dd-ad47-1d89bd73bc88","ios":"levelo://app?vid=a58bbaa8-7441-42dd-ad47-1d89bd73bc88"},"vehicle_type_id":"4","last_reported":1760976739,"current_range_meters":20800,"station_id":"","pricing_plan_id":"cebpf4jnsgd1na2vs0mg"},{"bike_id":"5cfa14d3-4145-4361-820f-2a5e3cc48054","system_id":"levelo_inurba_marseille","lat":43.23149,"lon":5.43703,"is_reserved":false,"is_disabled":true,"rental_uris":{"android":"levelo://app?vid=5cfa14d3-4145-4361-820f-2a5e3cc48054","ios":"levelo://app?vid=5cfa14d3-4145-4361-820f-2a5e3cc48054"},"vehicle_type_id":"4","last_reported":1760976739,"current_range_meters":20800,"station_id":"ce4bhmp2rcd13ifvqgog","pricing_plan_id":"cebpf4jnsgd1na2vs0mg"},{"bike_id":"ab4d8caa-343d-44e8-a035-8c31f8227a02","system_id":"levelo_inurba_marseille","lat":43.25333,"lon":5.4218,"is_reserved":false,"is_disabled":false,"rental_uris":{"android":"levelo://app?vid=ab4d8caa-343d-44e8-a035-8c31f8227a02","ios":"levelo://app?vid=ab4d8caa-343d-44e8-a035-8c31f8227a02"},"vehicle_type_id":"4","last_reported":1760976739,"current_range_meters":20800,"station_id":"st_d2m65c5bi1j21697t3ng","pricing_plan_id":"cebpf4jnsgd1na2vs0mg"},{"bike_id":"624f36eb-06b3-4c11-9dd1-f96f196a56b0","system_id":"levelo_inurba_marseille","lat":43.28043,"lon":5.36939,"is_reserved":false,"is_disabled":true,"rental_uris":{"android":"levelo://app?vid=624f36eb-06b3-4c11-9dd1-f96f196a56b0","ios":"levelo://app?vid=624f36eb-06b3-4c11-9dd1-f96f196a56b0"},"vehicle_type_id":"4","last_reported":1760976739,"current_range_meters":20800,"station_id":"ce4bha12rcd13ifvqef0","pricing_plan_id":"cebpf4jnsgd1na2vs0mg"},{"bike_id":"4a62364a-bbde-4eb3-8976-ccf4dcaf5039","system_id":"levelo_inurba_marseille","lat":43.33001,"lon":5.37307,"is_reserved":false,"is_disabled":false,"rental_uris":{"android":"levelo://app?vid=4a62364a-bbde-4eb3-8976-ccf4dcaf5039","ios":"levelo://app?vid=4a62364a-bbde-4eb3-8976-ccf4dcaf5039"},"vehicle_type_id":"4","last_reported":1760976739,"current_range_meters":21600,"station_id":"","pricing_plan_id":"cebpf4jnsgd1na2vs0mg"},{"bike_id":"4e966834-7ec7-4494-bd46-79436902c148","system_id":"levelo_inurba_marseille","lat":43.27955,"lon":5.4166,"is_reserved":false,"is_disabled":false,"rental_uris":{"android":"levelo://app?vid=4e966834-7ec7-4494-bd46-79436902c148","ios":"levelo://app?vid=4e966834-7ec7-4494-bd46-79436902c148"},"vehicle_type_id":"4","last_reported":1760976739,"current_range_meters":21600,"station_id":"ce4bho12rcd13ifvqh1g","pricing_plan_id":"cebpf4jnsgd1na2vs0mg"},{"bike_id":"9714add7-695d-440f-9c4e-beccd33a1dd1","system_id":"levelo_inurba_marseille","lat":43.29533,"lon":5.38537,"is_reserved":false,"is_disabled":false,"rental_uris":{"android":"levelo://app?vid=9714add7-695d-440f-9c4e-beccd33a1dd1","ios":"levelo://app?vid=9714add7-695d-440f-9c4e-beccd33a1dd1"},"vehicle_type_id":"4","last_reported":1760976739,"current_range_meters":21600,"station_id":"ce4bgih2rcd13ifvqba0","pricing_plan_id":"cebpf4jnsgd1na2vs0mg"},{"bike_id":"0fd20ff1-dc9d-4c7a-8b8e-e96d491b20d2","system_id":"levelo_inurba_marseille","lat":43.265,"lon":5.39538,"is_reserved":false,"is_disabled":false,"rental_uris":{"android":"levelo://app?vid=0fd20ff1-dc9d-4c7a-8b8e-e96d491b20d2","ios":"levelo://app?vid=0fd20ff1-dc9d-4c7a-8b8e-e96d491b20d2"},"vehicle_type_id":"4","last_reported":1760976739,"current_range_meters":22000,"station_id":"ce4bhi12rcd13ifvqfq0","pricing_plan_id":"cebpf4jnsgd1na2vs0mg"},{"bike_id":"639e838c-3b01-48b8-91f2-534173cfc4a2","system_id":"levelo_inurba_marseille","lat":43.29613,"lon":5.38104,"is_reserved":false,"is_disabled":true,"rental_uris":{"android":"levelo://app?vid=639e838c-3b01-48b8-91f2-534173cfc4a2","ios":"levelo://app?vid=639e838c-3b01-48b8-91f2-534173cfc4a2"},"vehicle_type_id":"4","last_reported":1760976739,"current_range_meters":22000,"station_id":"ce4bgl12rcd13ifvqbo0","pricing_plan_id":"cebpf4jnsgd1na2vs0mg"},{"bike_id":"1e15b472-beee-4278-ab24-fab824ac931c","system_id":"levelo_inurba_marseille","lat":43.29533,"lon":5.38544,"is_reserved":false,"is_disabled":false,"rental_uris":{"android":"levelo://app?vid=1e15b472-beee-4278-ab24-fab824ac931c","ios":"levelo://app?vid=1e15b472-beee-4278-ab24-fab824ac931c"},"vehicle_type_id":"4","last_reported":1760976739,"current_range_meters":22000,"station_id":"ce4bgih2rcd13ifvqba0","pricing_plan_id":"cebpf4jnsgd1na2vs0mg"},{"bike_id":"38a6cc47-a7a1-4d0f-94f2-0ace4d8f3c5a","system_id":"levelo_inurba_marseille","lat":43.30256,"lon":5.40077,"is_reserved":false,"is_disabled":false,"rental_uris":{"android":"levelo://app?vid=38a6cc47-a7a1-4d0f-94f2-0ace4d8f3c5a","ios":"levelo://app?vid=38a6cc47-a7a1-4d0f-94f2-0ace4d8f3c5a"},"vehicle_type_id":"4","last_reported":1760976739,"current_range_meters":22000,"station_id":"ce4bgvh2rcd13ifvqcs0","pricing_plan_id":"cebpf4jnsgd1na2vs0mg"},{"bike_id":"8e07abdb-c432-4805-804c-08f280756ae5","system_id":"levelo_inurba_marseille","lat":43.30407,"lon":5.38903,"is_reserved":false,"is_disabled":false,"rental_uris":{"android":"levelo://app?vid=8e07abdb-c432-4805-804c-08f280756ae5","ios":"levelo://app?vid=8e07abdb-c432-4805-804c-08f280756ae5"},"vehicle_type_id":"4","last_reported":1760976739,"current_range_meters":22400,"station_id":"ce4bgk12rcd13ifvqbi0","pricing_plan_id":"cebpf4jnsgd1na2vs0mg"},{"bike_id":"d4420bba-5508-4d29-85ac-a3a7dd19c766","system_id":"levelo_inurba_marseille","lat":43.32267,"lon":5.36901,"is_reserved":false,"is_disabled":false,"rental_uris":{"android":"levelo://app?vid=d4420bba-5508-4d29-85ac-a3a7dd19c766","ios":"levelo://app?vid=d4420bba-5508-4d29-85ac-a3a7dd19c766"},"vehicle_type_id":"4","last_reported":1760976739,"current_range_meters":22400,"station_id":"","pricing_plan_id":"cebpf4jnsgd1na2vs0mg"},