{"last_updated":1731701456,"ttl":60,"version":"2.2","data":{"bikes":[{"bike_id":"2a4f068a-bf44-4be8-9720-65434032f534","system_id":"levelo_inurba_marseille","lat":43.29105,"lon":5.38986,"is_reserved":false,"is_disabled":false,"rental_uris":{"android":"levelo://app?vid=2a4f068a-bf44-4be8-9720-65434032f534","ios":"levelo://app?vid=2a4f068a-bf44-4be8-9720-65434032f534"},"vehicle_type_id":"4","last_reported":1731701456,"current_range_meters":11600,"station_id":"","pricing_plan_id":"cebpf4jnsgd1na2vs0mg"},{"bike_id":"d23182b5-adfc-48c3-b485-8166e71322f6","system_id":"levelo_inurba_marseille","lat":43.28455,"lon":5.35898,"is_reserved":false,"is_disabled":false,"rental_uris":{"android":"levelo://app?vid=d23182b5-adfc-48c3-b485-8166e71322f6","ios":"levelo://app?vid=d23182b5-adfc-48c3-b485-8166e71322f6"},"vehicle_type_id":"4","last_reported":1731701456,"current_range_meters":21600,"station_id":"ce4bhah2rcd13ifvqei0","pricing_plan_id":"cebpf4jnsgd1na2vs0mg"},{"bike_id":"ac044103-3d53-41c7-80f9-f8ff015e3c1b","system_id":"levelo_inurba_marseille","lat":43.28609,"lon":5.37062,"is_reserved":false,"is_disabled":false,"rental_uris":{"android":"levelo://app?vid=ac044103-3d53-41c7-80f9-f8ff015e3c1b","ios":"levelo://app?vid=ac044103-3d53-41c7-80f9-f8ff015e3c1b"},"vehicle_type_id":"4","last_reported":1731701456,"current_range_meters":4800,"station_id":"ce4bht12rcd13ifvqi60","pricing_plan_id":"cebpf4jnsgd1na2vs0mg"},{"bike_id":"5856ad94-bc0e-4f57-993d-864d7234767f","system_id":"levelo_inurba_marseille","lat":43.33763,"lon":5.37483,"is_reserved":false,"is_disabled":false,"rental_uris":{"android":"levelo://app?vid=5856ad94-bc0e-4f57-993d-864d7234767f","ios":"levelo://app?vid=5856ad94-bc0e-4f57-993d-864d7234767f"},"vehicle_type_id":"4","last_reported":1731701456,"current_range_meters":36400,"station_id":"","pricing_plan_id":"cebpf4jnsgd1na2vs0mg"},{"bike_id":"ad0119b6-f36e-41d0-aff8-49bbee3c2d02","system_id":"levelo_inurba_marseille","lat":43.31715,"lon":5.40435,"is_reserved":false,"is_disabled":false,"rental_uris":{"android":"levelo://app?vid=ad0119b6-f36e-41d0-aff8-49bbee3c2d02","ios":"levelo://app?vid=ad0119b6-f36e-41d0-aff8-49bbee3c2d02"},"vehicle_type_id":"4","last_reported":1731701456,"current_range_meters":10800,"station_id":"ce4bh012rcd13ifvqd00","pricing_plan_id":"cebpf4jnsgd1na2vs0mg"},{"bike_id":"545910de-5d03-492c-80d8-aab32be353e3","system_id":"levelo_inurba_marseille","lat":43.29683,"lon":5.37283,"is_reserved":false,"is_disabled":false,"rental_uris":{"android":"levelo://app?vid=545910de-5d03-492c-80d8-aab32be353e3","ios":"levelo://app?vid=545910de-5d03-492c-80d8-aab32be353e3"},"vehicle_type_id":"4","last_reported":1731701456,"current_range_meters":30000,"station_id":"ce4bgk12rcd13ifvqbj0","pricing_plan_id":"cebpf4jnsgd1na2vs0mg"},{"bike_id":"e669f0ce-dbeb-4431-b052-0fd7081a0115","system_id":"levelo_inurba_marseille","lat":43.31682,"lon":5.40477,"is_reserved":false,"is_disabled":false,"rental_uris":{"android":"levelo://app?vid=e669f0ce-dbeb-4431-b052-0fd7081a0115","ios":"levelo://app?vid=e669f0ce-dbeb-4431-b052-0fd7081a0115"},"vehicle_type_id":"4","last_reported":1731701456,"current_range_meters":3200,"station_id":"ce4bh012rcd13ifvqd00","pricing_plan_id":"cebpf4jnsgd1na2vs0mg"},{"bike_id":"f9d5a31a-de2a-41c3-bf45-b741085cb25b","system_id":"levelo_inurba_marseille","lat":43.28152,"lon":5.42638,"is_reserved":false,"is_disabled":false,"rental_uris":{"android":"levelo://app?vid=f9d5a31a-de2a-41c3-bf45-b741085cb25b","ios":"levelo://app?vid=f9d5a31a-de2a-41c3-bf45-b741085cb25b"},"vehicle_type_id":"4","last_reported":1731701456,"current_range_meters":38800,"station_id":"ce4bhnh2rcd13ifvqgug","pricing_plan_id":"cebpf4jnsgd1na2vs0mg"},{"bike_id":"4a57a19f-875b-4013-ac46-1961e12e4ccb","system_id":"levelo_inurba_marseille","lat":43.29278,"lon":5.40111,"is_reserved":false,"is_disabled":false,"rental_uris":{"android":"levelo://app?vid=4a57a19f-875b-4013-ac46-1961e12e4ccb","ios":"levelo://app?vid=4a57a19f-875b-4013-ac46-1961e12e4ccb"},"vehicle_type_id":"4","last_reported":1731701456,"current_range_meters":16000,"station_id":"ce4bh312rcd13ifvqdk0","pricing_plan_id":"cebpf4jnsgd1na2vs0mg"},{"bike_id":"84cc5144-b016-4647-b52c-cd52296b45fa","system_id":"levelo_inurba_marseille","lat":43.29597,"lon":5.38097,"is_reserved":false,"is_disabled":false,"rental_uris":{"android":"levelo://app?vid=84cc5144-b016-4647-b52c-cd52296b45fa","ios":"levelo://app?vid=84cc5144-b016-4647-b52c-cd52296b45fa"},"vehicle_type_id":"4","last_reported":1731701456,"current_range_meters":33600,"station_id":"ce4bgl12rcd13ifvqbo0","pricing_plan_id":"cebpf4jnsgd1na2vs0mg"},{"bike_id":"301c37c7-8102-484a-bb27-9b181007b646","system_id":"levelo_inurba_marseille","lat":43.32287,"lon":5.38255,"is_reserved":false,"is_disabled":false,"rental_uris":{"android":"levelo://app?vid=301c37c7-8102-484a-bb27-9b181007b646","ios":"levelo://app?vid=301c37c7-8102-484a-bb27-9b181007b646"},"vehicle_type_id":"4","last_reported":1731701456,"current_range_meters":37600,"station_id":"ce4bhr12rcd13ifvqhqg","pricing_plan_id":"cebpf4jnsgd1na2vs0mg"},{"bike_id":"032ce453-8eab-4e86-a761-033f2cb26fc2","system_id":"levelo_inurba_marseille","lat":43.29404,"lon":5.38613,"is_reserved":false,"is_disabled":false,"rental_uris":{"android":"levelo://app?vid=032ce453-8eab-4e86-a761-033f2cb26fc2","ios":"levelo://app?vid=032ce453-8eab-4e86-a761-033f2cb26fc2"},"vehicle_type_id":"4","last_reported":1731701456,"current_range_meters":4400,"station_id":"ce4bh2h2rcd13ifvqdh0","pricing_plan_id":"cebpf4jnsgd1na2vs0mg"},{"bike_id":"2b0a7153-8b33-4b27-835a-298e284f7de3","system_id":"levelo_inurba_marseille","lat":43.28694,"lon":5.37384,"is_reserved":false,"is_disabled":false,"rental_uris":{"android":"levelo://app?vid=2b0a7153-8b33-4b27-835a-298e284f7de3","ios":"levelo://app?vid=2b0a7153-8b33-4b27-835a-298e284f7de3"},"vehicle_type_id":"4","last_reported":1731701456,"current_range_meters":37600,"station_id":"ce4bh3p2rcd13ifvqdq0","pricing_plan_id":"cebpf4jnsgd1na2vs0mg"},{"bike_id":"770ca12f-ef56-42bc-8234-9f7d69c5f9ba","system_id":"levelo_inurba_marseille","lat":43.29259,"lon":5.40906,"is_reserved":false,"is_disabled":false,"rental_uris":{"android":"levelo://app?vid=770ca12f-ef56-42bc-8234-9f7d69c5f9ba","ios":"levelo://app?vid=770ca12f-ef56-42bc-8234-9f7d69c5f9ba"},"vehicle_type_id":"4","last_reported":1731701456,"current_range_meters":30000,"station_id":"ce4bh192rcd13ifvqdc0","pricing_plan_id":"cebpf4jnsgd1na2vs0mg"},{"bike_id":"94bede9d-62af-4498-9261-0039e806fa17","system_id":"levelo_inurba_marseille","lat":43.2844,"lon":5.39203,"is_reserved":false,"is_disabled":false,"rental_uris":{"android":"levelo://app?vid=94bede9d-62af-4498-9261-0039e806fa17","ios":"levelo://app?vid=94bede9d-62af-4498-9261-0039e806fa17"},"vehicle_type_id":"4","last_reported":1731701456,"current_range_meters":33600,"station_id":"ce4bhoh2rcd13ifvqh5g","pricing_plan_id":"cebpf4jnsgd1na2vs0mg"},{"bike_id":"19d74dfb-15c9-47d0-859a-f6a70d86118a","system_id":"levelo_inurba_marseille","lat":43.31686,"lon":5.40475,"is_reserved":false,"is_disabled":false,"rental_uris":{"android":"levelo://app?vid=19d74dfb-15c9-47d0-859a-f6a70d86118a","ios":"levelo://app?vid=19d74dfb-15c9-47d0-859a-f6a70d86118a"},"vehicle_type_id":"4","last_reported":1731701456,"current_range_meters":9600,"station_id":"ce4bh012rcd13ifvqd00","pricing_plan_id":"cebpf4jnsgd1na2vs0mg"},{"bike_id":"0d218d69-6f2b-4723-97e8-b51e4d9b09db","system_id":"levelo_inurba_marseille","lat":43.29421,"lon":5.38622,"is_reserved":false,"is_disabled":false,"rental_uris":{"android":"levelo://app?vid=0d218d69-6f2b-4723-97e8-b51e4d9b09db","ios":"levelo://app?vid=0d218d69-6f2b-4723-97e8-b51e4d9b09db"},"vehicle_type_id":"4","last_reported":1731701456,"current_range_meters":27200,"station_id":"ce4bh2h2rcd13ifvqdh0","pricing_plan_id":"cebpf4jnsgd1na2vs0mg"},{"bike_id":"e6041af5-5eaf-4493-9815-672b45b94902","system_id":"levelo_inurba_marseille","lat":43.29258,"lon":5.38427,"is_reserved":false,"is_disabled":false,"rental_uris":{"android":"levelo://app?vid=e6041af5-5eaf-4493-9815-672b45b94902","ios":"levelo://app?vid=e6041af5-5eaf-4493-9815-672b45b94902"},"vehicle_type_id":"4","last_reported":1731701456,"current_range_meters":25600,"station_id":"ce4bh692rcd13ifvqea0","pricing_plan_id":"cebpf4jnsgd1na2vs0mg"},{"bike_id":"b286a076-cae4-4eaf-a73e-cfccbd875304","system_id":"levelo_inurba_marseille","lat":43.29096,"lon":5.38159,"is_reserved":false,"is_disabled":false,"rental_uris":{"android":"levelo://app?vid=b286a076-cae4-4eaf-a73e-cfccbd875304","ios":"levelo://app?vid=b286a076-cae4-4eaf-a73e-cfccbd875304"},"vehicle_type_id":"4","last_reported":1731701456,"current_range_meters":38800,"station_id":"ce4bh512rcd13ifvqe2g","pricing_plan_id":"cebpf4jnsgd1na2vs0mg"},{"bike_id":"906347f7-b857-4677-b3f3-7720e8dfadfc","system_id":"levelo_inurba_marseille","lat":43.2694,"lon":5.40245,"is_reserved":false,"is_disabled":false,"rental_uris":{"android":"levelo://app?vid=906347f7-b857-4677-b3f3-7720e8dfadfc","ios":"levelo://app?vid=906347f7-b857-4677-b3f3-7720e8dfadfc"},"vehicle_type_id":"4","last_reported":1731701456,"current_range_meters":10000,"station_id":"cjm6bp8fraef2m0cb0m0","pricing_plan_id":"cebpf4jnsgd1na2vs0mg"},{"bike_id":"db9c4623-6b4f-48fa-bdb7-216ff2d37a41","system_id":"levelo_inurba_marseille","lat":43.29569,"lon":5.3751,"is_reserved":false,"is_disabled":false,"rental_uris":{"android":"levelo://app?vid=db9c4623-6b4f-48fa-bdb7-216ff2d37a41","ios":"levelo://app?vid=db9c4623-6b4f-48fa-bdb7-216ff2d37a41"},"vehicle_type_id":"4","last_reported":1731701456,"current_range_meters":38800,"station_id":"ce4bgh92rcd13ifvqb50","pricing_plan_id":"cebpf4jnsgd1na2vs0mg"},{"bike_id":"6b0ea79e-cb12-4a50-9845-e4686b3cacc8","system_id":"levelo_inurba_marseille","lat":43.295751,"lon":5.399791,"is_reserved":false,"is_disabled":false,"rental_uris":{"android":"levelo://app?vid=6b0ea79e-cb12-4a50-9845-e4686b3cacc8","ios":"levelo://app?vid=6b0ea79e-cb12-4a50-9845-e4686b3cacc8"},"vehicle_type_id":"4","last_reported":1731701456,"current_range_meters":17200,"station_id":"","pricing_plan_id":"cebpf4jnsgd1na2vs0mg"},{"bike_id":"d1658b93-d7f7-40d5-8254-375e20319a01","system_id":"levelo_inurba_marseille","lat":43.28927,"lon":5.36386,"is_reserved":false,"is_disabled":false,"rental_uris":{"android":"levelo://app?vid=d1658b93-d7f7-40d5-8254-375e20319a01","ios":"levelo://app?vid=d1658b93-d7f7-40d5-8254-375e20319a01"},"vehicle_type_id":"4","last_reported":1731701456,"current_range_meters":38800,"station_id":"ce4bhc92rcd13ifvqetg","pricing_plan_id":"cebpf4jnsgd1na2vs0mg"},{"bike_id":"74f314a3-feb1-4afd-875a-c49ec39378f4","system_id":"levelo_inurba_marseille","lat":43.310735,"lon":5.383425,"is_reserved":false,"is_disabled":false,"rental_uris":{"android":"levelo://app?vid=74f314a3-feb1-4afd-875a-c49ec39378f4","ios":"levelo://app?vid=74f314a3-feb1-4afd-875a-c49ec39378f4"},"vehicle_type_id":"4","last_reported":1731701456,"current_range_meters":36800,"station_id":"ce4bgv92rcd13ifvqcr0","pricing_plan_id":"cebpf4jnsgd1na2vs0mg"},{"bike_id":"4a74f469-1d99-48ee-a8ca-9199898c00a4","system_id":"levelo_inurba_marseille","lat":43.23192,"lon":5.35544,"is_reserved":false,"is_disabled":false,"rental_uris":{"android":"levelo://app?vid=4a74f469-1d99-48ee-a8ca-9199898c00a4","ios":"levelo://app?vid=4a74f469-1d99-48ee-a8ca-9199898c00a4"},"vehicle_type_id":"4","last_reported":1731701456,"current_range_meters":12800,"station_id":"ce4bhu92rcd13ifvqi70","pricing_plan_id":"cebpf4jnsgd1na2vs0mg"},{"bike_id":"80c583dd-7b7a-4ca0-919e-53ec756eaf80","system_id":"levelo_inurba_marseille","lat":43.25718,"lon":5.41111,"is_reserved":false,"is_disabled":false,"rental_uris":{"android":"levelo://app?vid=80c583dd-7b7a-4ca0-919e-53ec756eaf80","ios":"levelo://app?vid=80c583dd-7b7a-4ca0-919e-53ec756eaf80"},"vehicle_type_id":"4","last_reported":1731701456,"current_range_meters":26000,"station_id":"ce4bhkp2rcd13ifvqgd0","pricing_plan_id":"cebpf4jnsgd1na2vs0mg"},{"bike_id":"5f553ee6-3a65-4d44-830e-271ebbbebd7b","system_id":"levelo_inurba_marseille","lat":43.29301,"lon":5.37174,"is_reserved":false,"is_disabled":false,"rental_uris":{"android":"levelo://app?vid=5f553ee6-3a65-4d44-830e-271ebbbebd7b","ios":"levelo://app?vid=5f553ee6-3a65-4d44-830e-271ebbbebd7b"},"vehicle_type_id":"4","last_reported":1731701456,"current_range_meters":27200,"station_id":"ce4bgh92rcd13ifvqb40","pricing_plan_id":"cebpf4jnsgd1na2vs0mg"},{"bike_id":"0978d62f-8646-46f9-8614-539a1ffca0b6","system_id":"levelo_inurba_marseille","lat":43.29283,"lon":5.37449,"is_reserved":false,"is_disabled":false,"rental_uris":{"android":"levelo://app?vid=0978d62f-8646-46f9-8614-539a1ffca0b6","ios":"levelo://app?vid=0978d62f-8646-46f9-8614-539a1ffca0b6"},"vehicle_type_id":"4","last_reported":1731701456,"current_range_meters":28400,"station_id":"ce4bgi12rcd13ifvqb70","pricing_plan_id":"cebpf4jnsgd1na2vs0mg"},{"bike_id":"2161c847-3b67-46c6-8e1f-dc6f895bc212","system_id":"levelo_inurba_marseille","lat":43.3123,"lon":5.36862,"is_reserved":false,"is_disabled":false,"rental_uris":{"android":"levelo://app?vid=2161c847-3b67-46c6-8e1f-dc6f895bc212","ios":"levelo://app?vid=2161c847-3b67-46c6-8e1f-dc6f895bc212"},"vehicle_type_id":"4","last_reported":1731701456,"current_range_meters":16400,"station_id":"ce4bgl92rcd13ifvqbq0","pricing_plan_id":"cebpf4jnsgd1na2vs0mg"},{"bike_id":"1a5f7162-1e0d-48b6-8868-15218bcf9eec","system_id":"levelo_inurba_marseille","lat":43.273193,"lon":5.390682,"is_reserved":false,"is_disabled":false,"rental_uris":{"android":"levelo://app?vid=1a5f7162-1e0d-48b6-8868-15218bcf9eec","ios":"levelo://app?vid=1a5f7162-1e0d-48b6-8868-15218bcf9eec"},"vehicle_type_id":"4","last_reported":1731701456,"current_range_meters":18000,"station_id":"ce4bhgp2rcd13ifvqfe0","pricing_plan_id":"cebpf4jnsgd1na2vs0mg"},{"bike_id":"1447453d-44ef-4d83-a7aa-409207c1d839","system_id":"levelo_inurba_marseille","lat":43.26781,"lon":5.39423,"is_reserved":false,"is_disabled":false,"rental_uris":{"android":"levelo://app?vid=1447453d-44ef-4d83-a7aa-409207c1d839","ios":"levelo://app?vid=1447453d-44ef-4d83-a7aa-409207c1d839"},"vehicle_type_id":"4","last_reported":1731701456,"current_range_meters":38800,"station_id":"ce4bhh12rcd13ifvqfg0","pricing_plan_id":"cebpf4jnsgd1na2vs0mg"},{"bike_id":"3e940ab3-f695-4e47-841a-fe97c2add564","system_id":"levelo_inurba_marseille","lat":43.29597,"lon":5.38103,"is_reserved":false,"is_disabled":false,"rental_uris":{"android":"levelo://app?vid=3e940ab3-f695-4e47-841a-fe97c2add564","ios":"levelo://app?vid=3e940ab3-f695-4e47-841a-fe97c2add564"},"vehicle_type_id":"4","last_reported":1731701456,"current_range_meters":22400,"station_id":"ce4bgl12rcd13ifvqbo0","pricing_plan_id":"cebpf4jnsgd1na2vs0mg"},{"bike_id":"1a147607-2adf-4023-8f96-913d3fece036","system_id":"levelo_inurba_marseille","lat":43.28612,"lon":5.35103,"is_reserved":false,"is_disabled":false,"rental_uris":{"android":"levelo://app?vid=1a147607-2adf-4023-8f96-913d3fece036","ios":"levelo://app?vid=1a147607-2adf-4023-8f96-913d3fece036"},"vehicle_type_id":"4","last_reported":1731701456,"current_range_meters":34800,"station_id":"ce4bhch2rcd13ifvqeug","pricing_plan_id":"cebpf4jnsgd1na2vs0mg"},{"bike_id":"05ad8848-006b-41cc-af94-6c0dcb54f44b","system_id":"levelo_inurba_marseille","lat":43.27839,"lon":5.39213,"is_reserved":false,"is_disabled":false,"rental_uris":{"android":"levelo://app?vid=05ad8848-006b-41cc-af94-6c0dcb54f44b","ios":"levelo://app?vid=05ad8848-006b-41cc-af94-6c0dcb54f44b"},"vehicle_type_id":"4","last_reported":1731701456,"current_range_meters":28800,"station_id":"ce4bhjp2rcd13ifvqga0","pricing_plan_id":"cebpf4jnsgd1na2vs0mg"},{"bike_id":"163bc152-5555-4932-96f3-2bd060bede8c","system_id":"levelo_inurba_marseille","lat":43.29262,"lon":5.38441,"is_reserved":false,"is_disabled":false,"rental_uris":{"android":"levelo://app?vid=163bc152-5555-4932-96f3-2bd060bede8c","ios":"levelo://app?vid=163bc152-5555-4932-96f3-2bd060bede8c"},"vehicle_type_id":"4","last_reported":1731701456,"current_range_meters":4800,"station_id":"ce4bh692rcd13ifvqea0","pricing_plan_id":"cebpf4jnsgd1na2vs0mg"},{"bike_id":"8f3f005b-1fa8-4588-9707-789bc2b3c923","system_id":"levelo_inurba_marseille","lat":43.2417,"lon":5.36397,"is_reserved":false,"is_disabled":false,"rental_uris":{"android":"levelo://app?vid=8f3f005b-1fa8-4588-9707-789bc2b3c923","ios":"levelo://app?vid=8f3f005b-1fa8-4588-9707-789bc2b3c923"},"vehicle_type_id":"4","last_reported":1731701456,"current_range_meters":6000,"station_id":"cpo36qri1sfpv3e86is0","pricing_plan_id":"cebpf4jnsgd1na2vs0mg"},{"bike_id":"8b8db2cd-4be5-4475-8bd3-593499edc13e","system_id":"levelo_inurba_marseille","lat":43.29415,"lon":5.38631,"is_reserved":false,"is_disabled":false,"rental_uris":{"android":"levelo://app?vid=8b8db2cd-4be5-4475-8bd3-593499edc13e","ios":"levelo://app?vid=8b8db2cd-4be5-4475-8bd3-593499edc13e"},"vehicle_type_id":"4","last_reported":1731701456,"current_range_meters":6800,"station_id":"ce4bh2h2rcd13ifvqdh0","pricing_plan_id":"cebpf4jnsgd1na2vs0mg"},{"bike_id":"c27ed8f2-6525-40ba-ab1c-d82471e1713b","system_id":"levelo_inurba_marseille","lat":43.29294,"lon":5.37464,"is_reserved":false,"is_disabled":false,"rental_uris":{"android":"levelo://app?vid=c27ed8f2-6525-40ba-ab1c-d82471e1713b","ios":"levelo://app?vid=c27ed8f2-6525-40ba-ab1c-d82471e1713b"},"vehicle_type_id":"4","last_reported":1731701456,"current_range_meters":18000,"station_id":"ce4bgi12rcd13ifvqb70","pricing_plan_id":"cebpf4jnsgd1na2vs0mg"},{"bike_id":"b9efefa7-5a06-49f5-a1d1-95910b309ae9","system_id":"levelo_inurba_marseille","lat":43.28001,"lon":5.40006,"is_reserved":false,"is_disabled":false,"rental_uris":{"android":"levelo://app?vid=b9efefa7-5a06-49f5-a1d1-95910b309ae9","ios":"levelo://app?vid=b9efefa7-5a06-49f5-a1d1-95910b309ae9"},"vehicle_type_id":"4","last_reported":1731701456,"current_range_meters":26800,"station_id":"ce4bho92rcd13ifvqh4g","pricing_plan_id":"cebpf4jnsgd1na2vs0mg"},{"bike_id":"a71adc12-31a2-4702-82ec-108c5d269938","system_id":"levelo_inurba_marseille","lat":43.28139,"lon":5.42636,"is_reserved":false,"is_disabled":false,"rental_uris":{"android":"levelo://app?vid=a71adc12-31a2-4702-82ec-108c5d269938","ios":"levelo://app?vid=a71adc12-31a2-4702-82ec-108c5d269938"},"vehicle_type_id":"4","last_reported":1731701456,"current_range_meters":29600,"station_id":"ce4bhnh2rcd13ifvqgug","pricing_plan_id":"cebpf4jnsgd1na2vs0mg"},{"bike_id":"792ba918-f0aa-452f-8f68-1a7a13f87316","system_id":"levelo_inurba_marseille","lat":43.24661,"lon":5.38161,"is_reserved":false,"is_disabled":false,"rental_uris":{"android":"levelo://app?vid=792ba918-f0aa-452f-8f68-1a7a13f87316","ios":"levelo://app?vid=792ba918-f0aa-452f-8f68-1a7a13f87316"},"vehicle_type_id":"4","last_reported":1731701456,"current_range_meters":24800,"station_id":"ce4bhih2rcd13ifvqfr0","pricing_plan_id":"cebpf4jnsgd1na2vs0mg"},{"bike_id":"deb1e51d-bc7a-4a72-a228-5ffde0d8ffa4","system_id":"levelo_inurba_marseille","lat":43.30634,"lon":5.40097,"is_reserved":false,"is_disabled":false,"rental_uris":{"android":"levelo://app?vid=deb1e51d-bc7a-4a72-a228-5ffde0d8ffa4","ios":"levelo://app?vid=deb1e51d-bc7a-4a72-a228-5ffde0d8ffa4"},"vehicle_type_id":"4","last_reported":1731701456,"current_range_meters":2800,"station_id":"ce4bh112rcd13ifvqda0","pricing_plan_id":"cebpf4jnsgd1na2vs0mg"},{"bike_id":"c65e52a0-e3a4-4282-9efa-1544b6bec433","system_id":"levelo_inurba_marseille","lat":43.29866,"lon":5.39737,"is_reserved":false,"is_disabled":false,"rental_uris":{"android":"levelo://app?vid=c65e52a0-e3a4-4282-9efa-1544b6bec433","ios":"levelo://app?vid=c65e52a0-e3a4-4282-9efa-1544b6bec433"},"vehicle_type_id":"4","last_reported":1731701456,"current_range_meters":16400,"station_id":"ce4bh0h2rcd13ifvqd50","pricing_plan_id":"cebpf4jnsgd1na2vs0mg"},{"bike_id":"712ca738-8afa-47be-a2bf-b34feb7209b4","system_id":"levelo_inurba_marseille","lat":43.29097,"lon":5.38135,"is_reserved":false,"is_disabled":false,"rental_uris":{"android":"levelo://app?vid=712ca738-8afa-47be-a2bf-b34feb7209b4","ios":"levelo://app?vid=712ca738-8afa-47be-a2bf-b34feb7209b4"},"vehicle_type_id":"4","last_reported":1731701456,"current_range_meters":33600,"station_id":"ce4bh512rcd13ifvqe2g","pricing_plan_id":"cebpf4jnsgd1na2vs0mg"},{"bike_id":"3a08c426-b565-4804-acfc-42300ebeffb9","system_id":"levelo_inurba_marseille","lat":43.31708,"lon":5.43694,"is_reserved":false,"is_disabled":false,"rental_uris":{"android":"levelo://app?vid=3a08c426-b565-4804-acfc-42300ebeffb9","ios":"levelo://app?vid=3a08c426-b565-4804-acfc-42300ebeffb9"},"vehicle_type_id":"4","last_reported":1731701456,"current_range_meters":4400,"station_id":"ce4bhp92rcd13ifvqhcg","pricing_plan_id":"cebpf4jnsgd1na2vs0mg"},{"bike_id":"8c31062f-666c-4fff-a2ba-041daa2ec7aa","system_id":"levelo_inurba_marseille","lat":43.27065,"lon":5.42275,"is_reserved":false,"is_disabled":false,"rental_uris":{"android":"levelo://app?vid=8c31062f-666c-4fff-a2ba-041daa2ec7aa","ios":"levelo://app?vid=8c31062f-666c-4fff-a2ba-041daa2ec7aa"},"vehicle_type_id":"4","last_reported":1731701456,"current_range_meters":39200,"station_id":"ce4bhk92rcd13ifvqgb0","pricing_plan_id":"cebpf4jnsgd1na2vs0mg"},{"bike_id":"eb52ea8d-44fb-4072-9cb9-e461292752a7","system_id":"levelo_inurba_marseille","lat":43.34135,"lon":5.409,"is_reserved":false,"is_disabled":false,"rental_uris":{"android":"levelo://app?vid=eb52ea8d-44fb-4072-9cb9-e461292752a7","ios":"levelo://app?vid=eb52ea8d-44fb-4072-9cb9-e461292752a7"},"vehicle_type_id":"4","last_reported":1731701456,"current_range_meters":17200,"station_id":"ce4bhqh2rcd13ifvqhlg","pricing_plan_id":"cebpf4jnsgd1na2vs0mg"},{"bike_id":"fcd3e0a7-bbac-46f7-82d9-70244351bb5a","system_id":"levelo_inurba_marseille","lat":43.29187,"lon":5.3931,"is_reserved":false,"is_disabled":false,"rental_uris":{"android":"levelo://app?vid=fcd3e0a7-bbac-46f7-82d9-70244351bb5a","ios":"levelo://app?vid=fcd3e0a7-bbac-46f7-82d9-70244351bb5a"},"vehicle_type_id":"4","last_reported":1731701456,"current_range_meters":24000,"station_id":"ce4bh192rcd13ifvqdd0","pricing_plan_id":"cebpf4jnsgd1na2vs0mg"},{"bike_id":"b02351d1-a4b7-46dc-9b5b-ae06a6abb7f7","system_id":"levelo_inurba_marseille","lat":43.29275,"lon":5.40114,"is_reserved":false,"is_disabled":false,"rental_uris":{"android":"levelo://app?vid=b02351d1-a4b7-46dc-9b5b-ae06a6abb7f7","ios":"levelo://app?vid=b02351d1-a4b7-46dc-9b5b-ae06a6abb7f7"},"vehicle_type_id":"4","last_reported":1731701456,"current_range_meters":4000,"station_id":"ce4bh312rcd13ifvqdk0","pricing_plan_id":"cebpf4jnsgd1na2vs0mg"},{"bike_id":"df8ff6a7-9964-4c2b-8f61-3c498e6ffa21","system_id":"levelo_inurba_marseille","lat":43.27917,"lon":5.3958,"is_reserved":false,"is_disabled":false,"rental_uris":{"android":"levelo://app?vid=df8ff6a7-9964-4c2b-8f61-3c498e6ffa21","ios":"levelo://app?vid=df8ff6a7-9964-4c2b-8f61-3c498e6ffa21"},"vehicle_type_id":"4","last_reported":1731701456,"current_range_meters":24400,"station_id":"ce4bhf92rcd13ifvqf40","pricing_plan_id":"cebpf4jnsgd1na2vs0mg"},{"bike_id":"6b8eba9e-251e-401f-9b82-4a96d08ef40f","system_id":"levelo_inurba_marseille","lat":43.33015,"lon":5.39043,"is_reserved":false,"is_disabled":false,"rental_uris":{"android":"levelo://app?vid=6b8eba9e-251e-401f-9b82-4a96d08ef40f","ios":"levelo://app?vid=6b8eba9e-251e-401f-9b82-4a96d08ef40f"},"vehicle_type_id":"4","last_reported":1731701456,"current_range_meters":22000,"station_id":"ce4bhr92rcd13ifvqhrg","pricing_plan_id":"cebpf4jnsgd1na2vs0mg"},{"bike_id":"1501fa8f-c37f-482d-accb-dfa3b7e508ef","system_id":"levelo_inurba_marseille","lat":43.29294,"lon":5.37452,"is_reserved":false,"is_disabled":false,"rental_uris":{"android":"levelo://app?vid=1501fa8f-c37f-482d-accb-dfa3b7e508ef","ios":"levelo://app?vid=1501fa8f-c37f-482d-accb-dfa3b7e508ef"},"vehicle_type_id":"4","last_reported":1731701456,"current_range_meters":38800,"station_id":"ce4bgi12rcd13ifvqb70","pricing_plan_id":"cebpf4jnsgd1na2vs0mg"},{"bike_id":"c974cc8b-299b-4d52-81c8-4e50a91b9225","system_id":"levelo_inurba_marseille","lat":43.33745,"lon":5.37487,"is_reserved":false,"is_disabled":false,"rental_uris":{"android":"levelo://app?vid=c974cc8b-299b-4d52-81c8-4e50a91b9225","ios":"levelo://app?vid=c974cc8b-299b-4d52-81c8-4e50a91b9225"},"vehicle_type_id":"4","last_reported":1731701456,"current_range_meters":37600,"station_id":"","pricing_plan_id":"cebpf4jnsgd1na2vs0mg"},{"bike_id":"f86a601e-26e3-440e-a7e5-894f75bad9f4","system_id":"levelo_inurba_marseille","lat":43.337444,"lon":5.374475,"is_reserved":false,"is_disabled":false,"rental_uris":{"android":"levelo://app?vid=f86a601e-26e3-440e-a7e5-894f75bad9f4","ios":"levelo://app?vid=f86a601e-26e3-440e-a7e5-894f75bad9f4"},"vehicle_type_id":"4","last_reported":1731701456,"current_range_meters":22400,"station_id":"","pricing_plan_id":"cebpf4jnsgd1na2vs0mg"},{"bike_id":"b02cad58-3de4-410a-a29d-78e174a9d94a","system_id":"levelo_inurba_marseille","lat":43.23194,"lon":5.35549,"is_reserved":false,"is_disabled":false,"rental_uris":{"android":"levelo://app?vid=b02cad58-3de4-410a-a29d-78e174a9d94a","ios":"levelo://app?vid=b02cad58-3de4-410a-a29d-78e174a9d94a"},"vehicle_type_id":"4","last_reported":1731701456,"current_range_meters":38800,"station_id":"ce4bhu92rcd13ifvqi70","pricing_plan_id":"cebpf4jnsgd1na2vs0mg"},{"bike_id":"ffe3deb4-afc7-44b1-bd8f-358a1ff214f9","system_id":"levelo_inurba_marseille","lat":43.29255,"lon":5.38432,"is_reserved":false,"is_disabled":false,"rental_uris":{"android":"levelo://app?vid=ffe3deb4-afc7-44b1-bd8f-358a1ff214f9","ios":"levelo://app?vid=ffe3deb4-afc7-44b1-bd8f-358a1ff214f9"},"vehicle_type_id":"4","last_reported":1731701456,"current_range_meters":6400,"station_id":"ce4bh692rcd13ifvqea0","pricing_plan_id":"cebpf4jnsgd1na2vs0mg"},{"bike_id":"4eb1283e-ebd9-4171-b00c-7c8e8eca9226","system_id":"levelo_inurba_marseille","lat":43.25716,"lon":5.41101,"is_reserved":false,"is_disabled":false,"rental_uris":{"android":"levelo://app?vid=4eb1283e-ebd9-4171-b00c-7c8e8eca9226","ios":"levelo://app?vid=4eb1283e-ebd9-4171-b00c-7c8e8eca9226"},"vehicle_type_id":"4","last_reported":1731701456,"current_range_meters":8800,"station_id":"ce4bhkp2rcd13ifvqgd0","pricing_plan_id":"cebpf4jnsgd1na2vs0mg"},{"bike_id":"1dfcb876-9391-489a-b953-bfa996b1c072","system_id":"levelo_inurba_marseille","lat":43.29196,"lon":5.35808,"is_reserved":false,"is_disabled":false,"rental_uris":{"android":"levelo://app?vid=1dfcb876-9391-489a-b953-bfa996b1c072","ios":"levelo://app?vid=1dfcb876-9391-489a-b953-bfa996b1c072"},"vehicle_type_id":"4","last_reported":1731701456,"current_range_meters":32400,"station_id":"ce4bhb12rcd13ifvqel0","pricing_plan_id":"cebpf4jnsgd1na2vs0mg"},{"bike_id":"642f5def-6e78-4f7e-9ac0-941a94e86de5","system_id":"levelo_inurba_marseille","lat":43.31679,"lon":5.40467,"is_reserved":false,"is_disabled":false,"rental_uris":{"android":"levelo://app?vid=642f5def-6e78-4f7e-9ac0-941a94e86de5","ios":"levelo://app?vid=642f5def-6e78-4f7e-9ac0-941a94e86de5"},"vehicle_type_id":"4","last_reported":1731701456,"current_range_meters":6400,"station_id":"ce4bh012rcd13ifvqd00","pricing_plan_id":"cebpf4jnsgd1na2vs0mg"},{"bike_id":"5c018657-365c-4832-9402-9c991360b6b3","system_id":"levelo_inurba_marseille","lat":43.29289,"lon":5.37451,"is_reserved":false,"is_disabled":false,"rental_uris":{"android":"levelo://app?vid=5c018657-365c-4832-9402-9c991360b6b3","ios":"levelo://app?vid=5c018657-365c-4832-9402-9c991360b6b3"},"vehicle_type_id":"4","last_reported":1731701456,"current_range_meters":19200,"station_id":"ce4bgi12rcd13ifvqb70","pricing_plan_id":"cebpf4jnsgd1na2vs0mg"},{"bike_id":"949fb656-36ac-4f21-a6b7-809d9782713b","system_id":"levelo_inurba_marseille","lat":43.29225,"lon":5.3606,"is_reserved":false,"is_disabled":false,"rental_uris":{"android":"levelo://app?vid=949fb656-36ac-4f21-a6b7-809d9782713b","ios":"levelo://app?vid=949fb656-36ac-4f21-a6b7-809d9782713b"},"vehicle_type_id":"4","last_reported":1731701456,"current_range_meters":34000,"station_id":"ce4bhbh2rcd13ifvqeqg","pricing_plan_id":"cebpf4jnsgd1na2vs0mg"},{"bike_id":"d94748f8-40ee-4468-9ec9-f30930775c57","system_id":"levelo_inurba_marseille","lat":43.27175,"lon":5.4099,"is_reserved":false,"is_disabled":false,"rental_uris":{"android":"levelo://app?vid=d94748f8-40ee-4468-9ec9-f30930775c57","ios":"levelo://app?vid=d94748f8-40ee-4468-9ec9-f30930775c57"},"vehicle_type_id":"4","last_reported":1731701456,"current_range_meters":38800,"station_id":"ce4bhl12rcd13ifvqgf0","pricing_plan_id":"cebpf4jnsgd1na2vs0mg"},{"bike_id":"baf948ad-adf3-41b6-8605-0b0f6b24354d","system_id":"levelo_inurba_marseille","lat":43.27884,"lon":5.36905,"is_reserved":false,"is_disabled":false,"rental_uris":{"android":"levelo://app?vid=baf948ad-adf3-41b6-8605-0b0f6b24354d","ios":"levelo://app?vid=baf948ad-adf3-41b6-8605-0b0f6b24354d"},"vehicle_type_id":"4","last_reported":1731701456,"current_range_meters":4800,"station_id":"","pricing_plan_id":"cebpf4jnsgd1na2vs0mg"},{"bike_id":"64121eb1-1cd1-4b91-ae8d-ec5240440754","system_id":"levelo_inurba_marseille","lat":43.2781,"lon":5.40709,"is_reserved":false,"is_disabled":false,"rental_uris":{"android":"levelo://app?vid=64121eb1-1cd1-4b91-ae8d-ec5240440754","ios":"levelo://app?vid=64121eb1-1cd1-4b91-ae8d-ec5240440754"},"vehicle_type_id":"4","last_reported":1731701456,"current_range_meters":12800,"station_id":"ce4bhnh2rcd13ifvqgtg","pricing_plan_id":"cebpf4jnsgd1na2vs0mg"},{"bike_id":"e5e57e56-f1b3-4d61-967f-2a9f27844dd5","system_id":"levelo_inurba_marseille","lat":43.29786,"lon":5.38086,"is_reserved":false,"is_disabled":false,"rental_uris":{"android":"levelo://app?vid=e5e57e56-f1b3-4d61-967f-2a9f27844dd5","ios":"levelo://app?vid=e5e57e56-f1b3-4d61-967f-2a9f27844dd5"},"vehicle_type_id":"4","last_reported":1731701456,"current_range_meters":19600,"station_id":"ce4bgip2rcd13ifvqbb0","pricing_plan_id":"cebpf4jnsgd1na2vs0mg"},{"bike_id":"7c033157-f21b-4369-9708-1f8e0c296e6a","system_id":"levelo_inurba_marseille","lat":43.3107,"lon":5.3835,"is_reserved":false,"is_disabled":false,"rental_uris":{"android":"levelo://app?vid=7c033157-f21b-4369-9708-1f8e0c296e6a","ios":"levelo://app?vid=7c033157-f21b-4369-9708-1f8e0c296e6a"},"vehicle_type_id":"4","last_reported":1731701456,"current_range_meters":38800,"station_id":"ce4bgv92rcd13ifvqcr0","pricing_plan_id":"cebpf4jnsgd1na2vs0mg"},{"bike_id":"f6c2a73b-a1f8-49d3-bbd3-78364e79a0f8","system_id":"levelo_inurba_marseille","lat":43.3154,"lon":5.38019,"is_reserved":false,"is_disabled":false,"rental_uris":{"android":"levelo://app?vid=f6c2a73b-a1f8-49d3-bbd3-78364e79a0f8","ios":"levelo://app?vid=f6c2a73b-a1f8-49d3-bbd3-78364e79a0f8"},"vehicle_type_id":"4","last_reported":1731701456,"current_range_meters":37600,"station_id":"ce4bhsp2rcd13ifvqi50","pricing_plan_id":"cebpf4jnsgd1na2vs0mg"},{"bike_id":"5c28af49-1311-42ec-956b-05a6cb87cb8d","system_id":"levelo_inurba_marseille","lat":43.27947,"lon":5.41036,"is_reserved":false,"is_disabled":false,"rental_uris":{"android":"levelo://app?vid=5c28af49-1311-42ec-956b-05a6cb87cb8d","ios":"levelo://app?vid=5c28af49-1311-42ec-956b-05a6cb87cb8d"},"vehicle_type_id":"4","last_reported":1731701456,"current_range_meters":38800,"station_id":"ce4bhnp2rcd13ifvqh0g","pricing_plan_id":"cebpf4jnsgd1na2vs0mg"},{"bike_id":"253a0e3e-0de0-4d5a-9bb7-e3a1a3abba46","system_id":"levelo_inurba_marseille","lat":43.28146,"lon":5.42637,"is_reserved":false,"is_disabled":false,"rental_uris":{"android":"levelo://app?vid=253a0e3e-0de0-4d5a-9bb7-e3a1a3abba46","ios":"levelo://app?vid=253a0e3e-0de0-4d5a-9bb7-e3a1a3abba46"},"vehicle_type_id":"4","last_reported":1731701456,"current_range_meters":38800,"station_id":"ce4bhnh2rcd13ifvqgug","pricing_plan_id":"cebpf4jnsgd1na2vs0mg"},{"bike_id":"409d1b4c-f5ab-4bea-995d-9e84bd4a4a1f","system_id":"levelo_inurba_marseille","lat":43.28701,"lon":5.39989,"is_reserved":false,"is_disabled":false,"rental_uris":{"android":"levelo://app?vid=409d1b4c-f5ab-4bea-995d-9e84bd4a4a1f","ios":"levelo://app?vid=409d1b4c-f5ab-4bea-995d-9e84bd4a4a1f"},"vehicle_type_id":"4","last_reported":1731701456,"current_range_meters":12000,"station_id":"ce4bho92rcd13ifvqh3g","pricing_plan_id":"cebpf4jnsgd1na2vs0mg"},{"bike_id":"46632805-d598-46ca-8978-4f5e71b702c6","system_id":"levelo_inurba_marseille","lat":43.28155,"lon":5.42639,"is_reserved":false,"is_disabled":false,"rental_uris":{"android":"levelo://app?vid=46632805-d598-46ca-8978-4f5e71b702c6","ios":"levelo://app?vid=46632805-d598-46ca-8978-4f5e71b702c6"},"vehicle_type_id":"4","last_reported":1731701456,"current_range_meters":38800,"station_id":"ce4bhnh2rcd13ifvqgug","pricing_plan_id":"cebpf4jnsgd1na2vs0mg"},{"bike_id":"0de16575-9969-4afc-8a88-03fabce64374","system_id":"levelo_inurba_marseille","lat":43.292725,"lon":5.40111,"is_reserved":false,"is_disabled":false,"rental_uris":{"android":"levelo://app?vid=0de16575-9969-4afc-8a88-03fabce64374","ios":"levelo://app?vid=0de16575-9969-4afc-8a88-03fabce64374"},"vehicle_type_id":"4","last_reported":1731701456,"current_range_meters":22400,"station_id":"ce4bh092rcd13ifvqd20","pricing_plan_id":"cebpf4jnsgd1na2vs0mg"},{"bike_id":"bff2b802-22fb-4440-9ddd-c6e48a3f3504","system_id":"levelo_inurba_marseille","lat":43.32329,"lon":5.40618,"is_reserved":false,"is_disabled":false,"rental_uris":{"android":"levelo://app?vid=bff2b802-22fb-4440-9ddd-c6e48a3f3504","ios":"levelo://app?vid=bff2b802-22fb-4440-9ddd-c6e48a3f3504"},"vehicle_type_id":"4","last_reported":1731701456,"current_range_meters":28000,"station_id":"ce4bhq92rcd13ifvqhjg","pricing_plan_id":"cebpf4jnsgd1na2vs0mg"},{"bike_id":"d01dca5e-5b16-48ef-9899-62a24cb1091b","system_id":"levelo_inurba_marseille","lat":43.30595,"lon":5.37223,"is_reserved":false,"is_disabled":false,"rental_uris":{"android":"levelo://app?vid=d01dca5e-5b16-48ef-9899-62a24cb1091b","ios":"levelo://app?vid=d01dca5e-5b16-48ef-9899-62a24cb1091b"},"vehicle_type_id":"4","last_reported":1731701456,"current_range_meters":34800,"station_id":"ce4bgqh2rcd13ifvqc4g","pricing_plan_id":"cebpf4jnsgd1na2vs0mg"},{"bike_id":"4468dbc5-0553-4052-8030-a1bec167814a","system_id":"levelo_inurba_marseille","lat":43.29904,"lon":5.38136,"is_reserved":false,"is_disabled":false,"rental_uris":{"android":"levelo://app?vid=4468dbc5-0553-4052-8030-a1bec167814a","ios":"levelo://app?vid=4468dbc5-0553-4052-8030-a1bec167814a"},"vehicle_type_id":"4","last_reported":1731701456,"current_range_meters":32800,"station_id":"ce4bgj12rcd13ifvqbc0","pricing_plan_id":"cebpf4jnsgd1na2vs0mg"},{"bike_id":"5036e623-d798-4627-84b0-c6cd439eb1b8","system_id":"levelo_inurba_marseille","lat":43.28146,"lon":5.42642,"is_reserved":false,"is_disabled":false,"rental_uris":{"android":"levelo://app?vid=5036e623-d798-4627-84b0-c6cd439eb1b8","ios":"levelo://app?vid=5036e623-d798-4627-84b0-c6cd439eb1b8"},"vehicle_type_id":"4","last_reported":1731701456,"current_range_meters":29600,"station_id":"ce4bhnh2rcd13ifvqgug","pricing_plan_id":"cebpf4jnsgd1na2vs0mg"},{"bike_id":"2c7da520-bf3f-4579-bbaf-d8bed38515fb","system_id":"levelo_inurba_marseille","lat":43.24652,"lon":5.38897,"is_reserved":false,"is_disabled":false,"rental_uris":{"android":"levelo://app?vid=2c7da520-bf3f-4579-bbaf-d8bed38515fb","ios":"levelo://app?vid=2c7da520-bf3f-4579-bbaf-d8bed38515fb"},"vehicle_type_id":"4","last_reported":1731701456,"current_range_meters":38800,"station_id":"ce4bhg12rcd13ifvqf60","pricing_plan_id":"cebpf4jnsgd1na2vs0mg"},{"bike_id":"8893f2f1-2edb-4438-9753-3811227c3612","system_id":"levelo_inurba_marseille","lat":43.29418,"lon":5.38623,"is_reserved":false,"is_disabled":false,"rental_uris":{"android":"levelo://app?vid=8893f2f1-2edb-4438-9753-3811227c3612","ios":"levelo://app?vid=8893f2f1-2edb-4438-9753-3811227c3612"},"vehicle_type_id":"4","last_reported":1731701456,"current_range_meters":38800,"station_id":"ce4bh2h2rcd13ifvqdh0","pricing_plan_id":"cebpf4jnsgd1na2vs0mg"},{"bike_id":"b8e0adfd-dc7d-42dd-a2e4-574f06410f3c","system_id":"levelo_inurba_marseille","lat":43.27811,"lon":5.40705,"is_reserved":false,"is_disabled":false,"rental_uris":{"android":"levelo://app?vid=b8e0adfd-dc7d-42dd-a2e4-574f06410f3c","ios":"levelo://app?vid=b8e0adfd-dc7d-42dd-a2e4-574f06410f3c"},"vehicle_type_id":"4","last_reported":1731701456,"current_range_meters":9200,"station_id":"ce4bhnh2rcd13ifvqgtg","pricing_plan_id":"cebpf4jnsgd1na2vs0mg"},{"bike_id":"5ae1b6d8-8b91-47e7-ba4c-33af259774da","system_id":"levelo_inurba_marseille","lat":43.29404,"lon":5.38613,"is_reserved":false,"is_disabled":false,"rental_uris":{"android":"levelo://app?vid=5ae1b6d8-8b91-47e7-ba4c-33af259774da","ios":"levelo://app?vid=5ae1b6d8-8b91-47e7-ba4c-33af259774da"},"vehicle_type_id":"4","last_reported":1731701456,"current_range_meters":36800,"station_id":"ce4bh2h2rcd13ifvqdh0","pricing_plan_id":"cebpf4jnsgd1na2vs0mg"},{"bike_id":"60346686-846e-43e0-b1f0-095f872d71c2","system_id":"levelo_inurba_marseille","lat":43.337444,"lon":5.374475,"is_reserved":false,"is_disabled":false,"rental_uris":{"android":"levelo://app?vid=60346686-846e-43e0-b1f0-095f872d71c2","ios":"levelo://app?vid=60346686-846e-43e0-b1f0-095f872d71c2"},"vehicle_type_id":"4","last_reported":1731701456,"current_range_meters":38000,"station_id":"","pricing_plan_id":"cebpf4jnsgd1na2vs0mg"},{"bike_id":"a65706ee-6478-482e-b96b-de9c20f7d999","system_id":"levelo_inurba_marseille","lat":43.31701,"lon":5.37759,"is_reserved":false,"is_disabled":false,"rental_uris":{"android":"levelo://app?vid=a65706ee-6478-482e-b96b-de9c20f7d999","ios":"levelo://app?vid=a65706ee-6478-482e-b96b-de9c20f7d999"},"vehicle_type_id":"4","last_reported":1731701456,"current_range_meters":37600,"station_id":"ce4bgth2rcd13ifvqch0","pricing_plan_id":"cebpf4jnsgd1na2vs0mg"},{"bike_id":"1a6c2e39-ee41-499e-a838-14830822d3f7","system_id":"levelo_inurba_marseille","lat":43.28929,"lon":5.38393,"is_reserved":false,"is_disabled":false,"rental_uris":{"android":"levelo://app?vid=1a6c2e39-ee41-499e-a838-14830822d3f7","ios":"levelo://app?vid=1a6c2e39-ee41-499e-a838-14830822d3f7"},"vehicle_type_id":"4","last_reported":1731701456,"current_range_meters":17600,"station_id":"ce4bh612rcd13ifvqe6g","pricing_plan_id":"cebpf4jnsgd1na2vs0mg"},{"bike_id":"a65a2419-69e6-4d19-b1e3-3abe61fd327b","system_id":"levelo_inurba_marseille","lat":43.24813,"lon":5.37463,"is_reserved":false,"is_disabled":false,"rental_uris":{"android":"levelo://app?vid=a65a2419-69e6-4d19-b1e3-3abe61fd327b","ios":"levelo://app?vid=a65a2419-69e6-4d19-b1e3-3abe61fd327b"},"vehicle_type_id":"4","last_reported":1731701456,"current_range_meters":38800,"station_id":"ce4bhgh2rcd13ifvqfb0","pricing_plan_id":"cebpf4jnsgd1na2vs0mg"},{"bike_id":"d206d41a-8ea1-48b7-8dea-76f005b54e28","system_id":"levelo_inurba_marseille","lat":43.337444,"lon":5.374475,"is_reserved":false,"is_disabled":false,"rental_uris":{"android":"levelo://app?vid=d206d41a-8ea1-48b7-8dea-76f005b54e28","ios":"levelo://app?vid=d206d41a-8ea1-48b7-8dea-76f005b54e28"},"vehicle_type_id":"4","last_reported":1731701456,"current_range_meters":26800,"station_id":"","pricing_plan_id":"cebpf4jnsgd1na2vs0mg"},{"bike_id":"7386319e-0d6c-493a-904a-1c5207db3d50","system_id":"levelo_inurba_marseille","lat":43.23191,"lon":5.39982,"is_reserved":false,"is_disabled":false,"rental_uris":{"android":"levelo://app?vid=7386319e-0d6c-493a-904a-1c5207db3d50","ios":"levelo://app?vid=7386319e-0d6c-493a-904a-1c5207db3d50"},"vehicle_type_id":"4","last_reported":1731701456,"current_range_meters":22000,"station_id":"ce4bhn12rcd13ifvqgqg","pricing_plan_id":"cebpf4jnsgd1na2vs0mg"},{"bike_id":"833e03e1-4c2a-4d48-b02a-e51996b7b259","system_id":"levelo_inurba_marseille","lat":43.26488,"lon":5.39547,"is_reserved":false,"is_disabled":false,"rental_uris":{"android":"levelo://app?vid=833e03e1-4c2a-4d48-b02a-e51996b7b259","ios":"levelo://app?vid=833e03e1-4c2a-4d48-b02a-e51996b7b259"},"vehicle_type_id":"4","last_reported":1731701456,"current_range_meters":6800,"station_id":"ce4bhi12rcd13ifvqfq0","pricing_plan_id":"cebpf4jnsgd1na2vs0mg"},{"bike_id":"0c74b2b4-80f3-40b0-b2f6-d790f2096ec6","system_id":"levelo_inurba_marseille","lat":43.29292,"lon":5.3715,"is_reserved":false,"is_disabled":false,"rental_uris":{"android":"levelo://app?vid=0c74b2b4-80f3-40b0-b2f6-d790f2096ec6","ios":"levelo://app?vid=0c74b2b4-80f3-40b0-b2f6-d790f2096ec6"},"vehicle_type_id":"4","last_reported":1731701456,"current_range_meters":20800,"station_id":"ce4bgh92rcd13ifvqb40","pricing_plan_id":"cebpf4jnsgd1na2vs0mg"},{"bike_id":"7ed9272f-670f-4906-b1e9-a820402ae58a","system_id":"levelo_inurba_marseille","lat":43.31529,"lon":5.3804,"is_reserved":false,"is_disabled":false,"rental_uris":{"android":"levelo://app?vid=7ed9272f-670f-4906-b1e9-a820402ae58a","ios":"levelo://app?vid=7ed9272f-670f-4906-b1e9-a820402ae58a"},"vehicle_type_id":"4","last_reported":1731701456,"current_range_meters":17200,"station_id":"ce4bhsp2rcd13ifvqi50","pricing_plan_id":"cebpf4jnsgd1na2vs0mg"},{"bike_id":"963e5493-1e1e-4e84-8dcb-e5db09ee7ae9","system_id":"levelo_inurba_marseille","lat":43.26214,"lon":5.37437,"is_reserved":false,"is_disabled":false,"rental_uris":{"android":"levelo://app?vid=963e5493-1e1e-4e84-8dcb-e5db09ee7ae9","ios":"levelo://app?vid=963e5493-1e1e-4e84-8dcb-e5db09ee7ae9"},"vehicle_type_id":"4","last_reported":1731701456,"current_range_meters":36400,"station_id":"ce4bhgp2rcd13ifvqfc0","pricing_plan_id":"cebpf4jnsgd1na2vs0mg"},{"bike_id":"d233dbcd-80fd-436d-8310-ae0ed767e7a3","system_id":"levelo_inurba_marseille","lat":43.27059,"lon":5.40257,"is_reserved":false,"is_disabled":false,"rental_uris":{"android":"levelo://app?vid=d233dbcd-80fd-436d-8310-ae0ed767e7a3","ios":"levelo://app?vid=d233dbcd-80fd-436d-8310-ae0ed767e7a3"},"vehicle_type_id":"4","last_reported":1731701456,"current_range_meters":17600,"station_id":"ce4bhk92rcd13ifvqgc0","pricing_plan_id":"cebpf4jnsgd1na2vs0mg"},{"bike_id":"b7464ff0-b586-4ba8-a349-8e1b2ceff652","system_id":"levelo_inurba_marseille","lat":43.29581,"lon":5.37524,"is_reserved":false,"is_disabled":false,"rental_uris":{"android":"levelo://app?vid=b7464ff0-b586-4ba8-a349-8e1b2ceff652","ios":"levelo://app?vid=b7464ff0-b586-4ba8-a349-8e1b2ceff652"},"vehicle_type_id":"4","last_reported":1731701456,"current_range_meters":22800,"station_id":"ce4bgh92rcd13ifvqb50","pricing_plan_id":"cebpf4jnsgd1na2vs0mg"},{"bike_id":"9a44d2a4-2be2-4623-b633-8751508e9e84","system_id":"levelo_inurba_marseille","lat":43.29049,"lon":5.35919,"is_reserved":false,"is_disabled":false,"rental_uris":{"android":"levelo://app?vid=9a44d2a4-2be2-4623-b633-8751508e9e84","ios":"levelo://app?vid=9a44d2a4-2be2-4623-b633-8751508e9e84"},"vehicle_type_id":"4","last_reported":1731701456,"current_range_meters":36000,"station_id":"ce4bha92rcd13ifvqeg0","pricing_plan_id":"cebpf4jnsgd1na2vs0mg"},{"bike_id":"1252811b-6a0c-4c35-bf70-d3d61b2082c0","system_id":"levelo_inurba_marseille","lat":43.29419,"lon":5.38632,"is_reserved":false,"is_disabled":false,"rental_uris":{"android":"levelo://app?vid=1252811b-6a0c-4c35-bf70-d3d61b2082c0","ios":"levelo://app?vid=1252811b-6a0c-4c35-bf70-d3d61b2082c0"},"vehicle_type_id":"4","last_reported":1731701456,"current_range_meters":34000,"station_id":"ce4bh2h2rcd13ifvqdh0","pricing_plan_id":"cebpf4jnsgd1na2vs0mg"},{"bike_id":"af8b8071-04c1-4a21-b440-b986dfe536bc","system_id":"levelo_inurba_marseille","lat":43.31686,"lon":5.40484,"is_reserved":false,"is_disabled":false,"rental_uris":{"android":"levelo://app?vid=af8b8071-04c1-4a21-b440-b986dfe536bc","ios":"levelo://app?vid=af8b8071-04c1-4a21-b440-b986dfe536bc"},"vehicle_type_id":"4","last_reported":1731701456,"current_range_meters":8000,"station_id":"ce4bh012rcd13ifvqd00","pricing_plan_id":"cebpf4jnsgd1na2vs0mg"},{"bike_id":"1d1da4c9-e222-4045-a315-95ad45a051f4","system_id":"levelo_inurba_marseille","lat":43.29439,"lon":5.38612,"is_reserved":false,"is_disabled":false,"rental_uris":{"android":"levelo://app?vid=1d1da4c9-e222-4045-a315-95ad45a051f4","ios":"levelo://app?vid=1d1da4c9-e222-4045-a315-95ad45a051f4"},"vehicle_type_id":"4","last_reported":1731701456,"current_range_meters":34800,"station_id":"ce4bh2h2rcd13ifvqdh0","pricing_plan_id":"cebpf4jnsgd1na2vs0mg"},{"bike_id":"02cd9ed9-9426-42d3-ae55-3e7328b6ea0b","system_id":"levelo_inurba_marseille","lat":43.28703,"lon":5.39989,"is_reserved":false,"is_disabled":false,"rental_uris":{"android":"levelo://app?vid=02cd9ed9-9426-42d3-ae55-3e7328b6ea0b","ios":"levelo://app?vid=02cd9ed9-9426-42d3-ae55-3e7328b6ea0b"},"vehicle_type_id":"4","last_reported":1731701456,"current_range_meters":10800,"station_id":"ce4bho92rcd13ifvqh3g","pricing_plan_id":"cebpf4jnsgd1na2vs0mg"},{"bike_id":"d31a6e09-2b17-425b-bb86-650ed8d3ab37","system_id":"levelo_inurba_marseille","lat":43.29259,"lon":5.38444,"is_reserved":false,"is_disabled":false,"rental_uris":{"android":"levelo://app?vid=d31a6e09-2b17-425b-bb86-650ed8d3ab37","ios":"levelo://app?vid=d31a6e09-2b17-425b-bb86-650ed8d3ab37"},"vehicle_type_id":"4","last_reported":1731701456,"current_range_meters":38800,"station_id":"ce4bh692rcd13ifvqea0","pricing_plan_id":"cebpf4jnsgd1na2vs0mg"},{"bike_id":"87156f78-2e09-4e66-89df-0a85c184e89b","system_id":"levelo_inurba_marseille","lat":43.27942,"lon":5.41039,"is_reserved":false,"is_disabled":false,"rental_uris":{"android":"levelo://app?vid=87156f78-2e09-4e66-89df-0a85c184e89b","ios":"levelo://app?vid=87156f78-2e09-4e66-89df-0a85c184e89b"},"vehicle_type_id":"4","last_reported":1731701456,"current_range_meters":29600,"station_id":"ce4bhnp2rcd13ifvqh0g","pricing_plan_id":"cebpf4jnsgd1na2vs0mg"},{"bike_id":"2bbf25ad-cebd-4231-9288-c67b4de08039","system_id":"levelo_inurba_marseille","lat":43.24067,"lon":5.37762,"is_reserved":false,"is_disabled":false,"rental_uris":{"android":"levelo://app?vid=2bbf25ad-cebd-4231-9288-c67b4de08039","ios":"levelo://app?vid=2bbf25ad-cebd-4231-9288-c67b4de08039"},"vehicle_type_id":"4","last_reported":1731701456,"current_range_meters":28400,"station_id":"ce4bhnp2rcd13ifvqgvg","pricing_plan_id":"cebpf4jnsgd1na2vs0mg"},{"bike_id":"7be9199b-afb6-4033-aaf6-16840ab51d79","system_id":"levelo_inurba_marseille","lat":43.30884,"lon":5.39635,"is_reserved":false,"is_disabled":false,"rental_uris":{"android":"levelo://app?vid=7be9199b-afb6-4033-aaf6-16840ab51d79","ios":"levelo://app?vid=7be9199b-afb6-4033-aaf6-16840ab51d79"},"vehicle_type_id":"4","last_reported":1731701456,"current_range_meters":31200,"station_id":"ce4bh012rcd13ifvqcv0","pricing_plan_id":"cebpf4jnsgd1na2vs0mg"},{"bike_id":"cab35850-219b-4032-b189-de1e44b38556","system_id":"levelo_inurba_marseille","lat":43.29264,"lon":5.38439,"is_reserved":false,"is_disabled":false,"rental_uris":{"android":"levelo://app?vid=cab35850-219b-4032-b189-de1e44b38556","ios":"levelo://app?vid=cab35850-219b-4032-b189-de1e44b38556"},"vehicle_type_id":"4","last_reported":1731701456,"current_range_meters":23200,"station_id":"ce4bh692rcd13ifvqea0","pricing_plan_id":"cebpf4jnsgd1na2vs0mg"},{"bike_id":"9a9ac399-58ab-4244-81ef-c8efe4b73deb","system_id":"levelo_inurba_marseille","lat":43.29628,"lon":5.38687,"is_reserved":false,"is_disabled":false,"rental_uris":{"android":"levelo://app?vid=9a9ac399-58ab-4244-81ef-c8efe4b73deb","ios":"levelo://app?vid=9a9ac399-58ab-4244-81ef-c8efe4b73deb"},"vehicle_type_id":"4","last_reported":1731701456,"current_range_meters":25600,"station_id":"","pricing_plan_id":"cebpf4jnsgd1na2vs0mg"},{"bike_id":"04246129-5461-4657-8b0a-917c23e4a028","system_id":"levelo_inurba_marseille","lat":43.27172,"lon":5.40987,"is_reserved":false,"is_disabled":false,"rental_uris":{"android":"levelo://app?vid=04246129-5461-4657-8b0a-917c23e4a028","ios":"levelo://app?vid=04246129-5461-4657-8b0a-917c23e4a028"},"vehicle_type_id":"4","last_reported":1731701456,"current_range_meters":24800,"station_id":"ce4bhl12rcd13ifvqgf0","pricing_plan_id":"cebpf4jnsgd1na2vs0mg"},{"bike_id":"19e053ec-1908-42ad-9570-59f83f58d488","system_id":"levelo_inurba_marseille","lat":43.2929,"lon":5.37448,"is_reserved":false,"is_disabled":false,"rental_uris":{"android":"levelo://app?vid=19e053ec-1908-42ad-9570-59f83f58d488","ios":"levelo://app?vid=19e053ec-1908-42ad-9570-59f83f58d488"},"vehicle_type_id":"4","last_reported":1731701456,"current_range_meters":25600,"station_id":"ce4bgi12rcd13ifvqb70","pricing_plan_id":"cebpf4jnsgd1na2vs0mg"},{"bike_id":"6b930bb0-3ea4-403c-9be6-f331472051b4","system_id":"levelo_inurba_marseille","lat":43.29796,"lon":5.38083,"is_reserved":false,"is_disabled":false,"rental_uris":{"android":"levelo://app?vid=6b930bb0-3ea4-403c-9be6-f331472051b4","ios":"levelo://app?vid=6b930bb0-3ea4-403c-9be6-f331472051b4"},"vehicle_type_id":"4","last_reported":1731701456,"current_range_meters":25600,"station_id":"ce4bgip2rcd13ifvqbb0","pricing_plan_id":"cebpf4jnsgd1na2vs0mg"},{"bike_id":"83806030-b0ab-4190-8460-b682dd2859d0","system_id":"levelo_inurba_marseille","lat":43.28563,"lon":5.39496,"is_reserved":false,"is_disabled":false,"rental_uris":{"android":"levelo://app?vid=83806030-b0ab-4190-8460-b682dd2859d0","ios":"levelo://app?vid=83806030-b0ab-4190-8460-b682dd2859d0"},"vehicle_type_id":"4","last_reported":1731701456,"current_range_meters":38800,"station_id":"ce4bh292rcd13ifvqdg0","pricing_plan_id":"cebpf4jnsgd1na2vs0mg"},{"bike_id":"e9b0b5a9-9ea0-4cf3-a37d-1961f782713d","system_id":"levelo_inurba_marseille","lat":43.29525,"lon":5.38544,"is_reserved":false,"is_disabled":false,"rental_uris":{"android":"levelo://app?vid=e9b0b5a9-9ea0-4cf3-a37d-1961f782713d","ios":"levelo://app?vid=e9b0b5a9-9ea0-4cf3-a37d-1961f782713d"},"vehicle_type_id":"4","last_reported":1731701456,"current_range_meters":16000,"station_id":"ce4bgih2rcd13ifvqba0","pricing_plan_id":"cebpf4jnsgd1na2vs0mg"},{"bike_id":"5da27930-dcd7-4991-a2fa-9e1b388387c3","system_id":"levelo_inurba_marseille","lat":43.24667,"lon":5.38156,"is_reserved":false,"is_disabled":false,"rental_uris":{"android":"levelo://app?vid=5da27930-dcd7-4991-a2fa-9e1b388387c3","ios":"levelo://app?vid=5da27930-dcd7-4991-a2fa-9e1b388387c3"},"vehicle_type_id":"4","last_reported":1731701456,"current_range_meters":32400,"station_id":"ce4bhih2rcd13ifvqfr0","pricing_plan_id":"cebpf4jnsgd1na2vs0mg"},{"bike_id":"e0a50b92-2a41-45ff-bfbc-c6ffc781939f","system_id":"levelo_inurba_marseille","lat":43.32366,"lon":5.38881,"is_reserved":false,"is_disabled":false,"rental_uris":{"android":"levelo://app?vid=e0a50b92-2a41-45ff-bfbc-c6ffc781939f","ios":"levelo://app?vid=e0a50b92-2a41-45ff-bfbc-c6ffc781939f"},"vehicle_type_id":"4","last_reported":1731701456,"current_range_meters":3600,"station_id":"ce4bhqp2rcd13ifvqhog","pricing_plan_id":"cebpf4jnsgd1na2vs0mg"},{"bike_id":"e40acb1f-7c3b-464f-a385-d83d7c01e615","system_id":"levelo_inurba_marseille","lat":43.32285,"lon":5.38259,"is_reserved":false,"is_disabled":false,"rental_uris":{"android":"levelo://app?vid=e40acb1f-7c3b-464f-a385-d83d7c01e615","ios":"levelo://app?vid=e40acb1f-7c3b-464f-a385-d83d7c01e615"},"vehicle_type_id":"4","last_reported":1731701456,"current_range_meters":19600,"station_id":"ce4bhr12rcd13ifvqhqg","pricing_plan_id":"cebpf4jnsgd1na2vs0mg"},{"bike_id":"383dbfdd-dadc-4957-9c5a-2d452e2c74c2","system_id":"levelo_inurba_marseille","lat":43.29535,"lon":5.3854,"is_reserved":false,"is_disabled":false,"rental_uris":{"android":"levelo://app?vid=383dbfdd-dadc-4957-9c5a-2d452e2c74c2","ios":"levelo://app?vid=383dbfdd-dadc-4957-9c5a-2d452e2c74c2"},"vehicle_type_id":"4","last_reported":1731701456,"current_range_meters":36400,"station_id":"ce4bgih2rcd13ifvqba0","pricing_plan_id":"cebpf4jnsgd1na2vs0mg"},{"bike_id":"9267eaff-932d-40f5-8681-b471c217336a","system_id":"levelo_inurba_marseille","lat":43.24647,"lon":5.38885,"is_reserved":false,"is_disabled":false,"rental_uris":{"android":"levelo://app?vid=9267eaff-932d-40f5-8681-b471c217336a","ios":"levelo://app?vid=9267eaff-932d-40f5-8681-b471c217336a"},"vehicle_type_id":"4","last_reported":1731701456,"current_range_meters":39200,"station_id":"ce4bhg12rcd13ifvqf60","pricing_plan_id":"cebpf4jnsgd1na2vs0mg"},{"bike_id":"6130b50e-237e-4455-bf2d-e5209d08270f","system_id":"levelo_inurba_marseille","lat":43.33023,"lon":5.39044,"is_reserved":false,"is_disabled":false,"rental_uris":{"android":"levelo://app?vid=6130b50e-237e-4455-bf2d-e5209d08270f","ios":"levelo://app?vid=6130b50e-237e-4455-bf2d-e5209d08270f"},"vehicle_type_id":"4","last_reported":1731701456,"current_range_meters":29600,"station_id":"ce4bhr92rcd13ifvqhrg","pricing_plan_id":"cebpf4jnsgd1na2vs0mg"},{"bike_id":"16d52ad4-5875-46b6-b40e-5a25366847d3","system_id":"levelo_inurba_marseille","lat":43.29267,"lon":5.38425,"is_reserved":false,"is_disabled":false,"rental_uris":{"android":"levelo://app?vid=16d52ad4-5875-46b6-b40e-5a25366847d3","ios":"levelo://app?vid=16d52ad4-5875-46b6-b40e-5a25366847d3"},"vehicle_type_id":"4","last_reported":1731701456,"current_range_meters":15200,"station_id":"ce4bh692rcd13ifvqea0","pricing_plan_id":"cebpf4jnsgd1na2vs0mg"},{"bike_id":"6d06542c-6aed-42b1-b82d-3575e35c9fb8","system_id":"levelo_inurba_marseille","lat":43.26062,"lon":5.39393,"is_reserved":false,"is_disabled":false,"rental_uris":{"android":"levelo://app?vid=6d06542c-6aed-42b1-b82d-3575e35c9fb8","ios":"levelo://app?vid=6d06542c-6aed-42b1-b82d-3575e35c9fb8"},"vehicle_type_id":"4","last_reported":1731701456,"current_range_meters":38800,"station_id":"ce4bhh92rcd13ifvqfj0","pricing_plan_id":"cebpf4jnsgd1na2vs0mg"},{"bike_id":"509d64f4-cfa2-4d8d-ae9e-ece948a7d89e","system_id":"levelo_inurba_marseille","lat":43.29432,"lon":5.39749,"is_reserved":false,"is_disabled":false,"rental_uris":{"android":"levelo://app?vid=509d64f4-cfa2-4d8d-ae9e-ece948a7d89e","ios":"levelo://app?vid=509d64f4-cfa2-4d8d-ae9e-ece948a7d89e"},"vehicle_type_id":"4","last_reported":1731701456,"current_range_meters":30400,"station_id":"ce4bh3h2rcd13ifvqdo0","pricing_plan_id":"cebpf4jnsgd1na2vs0mg"},{"bike_id":"1cf741d7-e403-4869-b6f3-8348c73bd258","system_id":"levelo_inurba_marseille","lat":43.27994,"lon":5.40001,"is_reserved":false,"is_disabled":false,"rental_uris":{"android":"levelo://app?vid=1cf741d7-e403-4869-b6f3-8348c73bd258","ios":"levelo://app?vid=1cf741d7-e403-4869-b6f3-8348c73bd258"},"vehicle_type_id":"4","last_reported":1731701456,"current_range_meters":8000,"station_id":"ce4bho92rcd13ifvqh4g","pricing_plan_id":"cebpf4jnsgd1na2vs0mg"},{"bike_id":"e11e250e-6dc6-4e02-8dbe-c6016fb10149","system_id":"levelo_inurba_marseille","lat":43.287196,"lon":5.360885,"is_reserved":false,"is_disabled":false,"rental_uris":{"android":"levelo://app?vid=e11e250e-6dc6-4e02-8dbe-c6016fb10149","ios":"levelo://app?vid=e11e250e-6dc6-4e02-8dbe-c6016fb10149"},"vehicle_type_id":"4","last_reported":1731701456,"current_range_meters":8400,"station_id":"cki0cbj6b192h4jlfktg","pricing_plan_id":"cebpf4jnsgd1na2vs0mg"},{"bike_id":"c74f110d-168f-41a7-a48a-157d79ae2196","system_id":"levelo_inurba_marseille","lat":43.33017,"lon":5.39045,"is_reserved":false,"is_disabled":false,"rental_uris":{"android":"levelo://app?vid=c74f110d-168f-41a7-a48a-157d79ae2196","ios":"levelo://app?vid=c74f110d-168f-41a7-a48a-157d79ae2196"},"vehicle_type_id":"4","last_reported":1731701456,"current_range_meters":36400,"station_id":"ce4bhr92rcd13ifvqhrg","pricing_plan_id":"cebpf4jnsgd1na2vs0mg"},{"bike_id":"caf4f242-e64f-44e9-a152-92b036f59ba6","system_id":"levelo_inurba_marseille","lat":43.341406,"lon":5.409062,"is_reserved":false,"is_disabled":false,"rental_uris":{"android":"levelo://app?vid=caf4f242-e64f-44e9-a152-92b036f59ba6","ios":"levelo://app?vid=caf4f242-e64f-44e9-a152-92b036f59ba6"},"vehicle_type_id":"4","last_reported":1731701456,"current_range_meters":6400,"station_id":"ce4bhqh2rcd13ifvqhlg","pricing_plan_id":"cebpf4jnsgd1na2vs0mg"},{"bike_id":"60000695-b60c-402b-8a73-53db1460db14","system_id":"levelo_inurba_marseille","lat":43.31681,"lon":5.40478,"is_reserved":false,"is_disabled":false,"rental_uris":{"android":"levelo://app?vid=60000695-b60c-402b-8a73-53db1460db14","ios":"levelo://app?vid=60000695-b60c-402b-8a73-53db1460db14"},"vehicle_type_id":"4","last_reported":1731701456,"current_range_meters":28800,"station_id":"ce4bh012rcd13ifvqd00","pricing_plan_id":"cebpf4jnsgd1na2vs0mg"},{"bike_id":"3b3d662c-686a-4ba3-b7b2-3b40fe46acd2","system_id":"levelo_inurba_marseille","lat":43.28975,"lon":5.37842,"is_reserved":false,"is_disabled":false,"rental_uris":{"android":"levelo://app?vid=3b3d662c-686a-4ba3-b7b2-3b40fe46acd2","ios":"levelo://app?vid=3b3d662c-686a-4ba3-b7b2-3b40fe46acd2"},"vehicle_type_id":"4","last_reported":1731701456,"current_range_meters":38800,"station_id":"ce4bh9p2rcd13ifvqed0","pricing_plan_id":"cebpf4jnsgd1na2vs0mg"},{"bike_id":"76fda271-4bcd-4529-8397-8074a1eff7fe","system_id":"levelo_inurba_marseille","lat":43.337444,"lon":5.374475,"is_reserved":false,"is_disabled":false,"rental_uris":{"android":"levelo://app?vid=76fda271-4bcd-4529-8397-8074a1eff7fe","ios":"levelo://app?vid=76fda271-4bcd-4529-8397-8074a1eff7fe"},"vehicle_type_id":"4","last_reported":1731701456,"current_range_meters":36400,"station_id":"","pricing_plan_id":"cebpf4jnsgd1na2vs0mg"},{"bike_id":"5c538d0f-9136-4735-8ea8-3c3fb2ae89db","system_id":"levelo_inurba_marseille","lat":43.29592,"lon":5.38098,"is_reserved":false,"is_disabled":false,"rental_uris":{"android":"levelo://app?vid=5c538d0f-9136-4735-8ea8-3c3fb2ae89db","ios":"levelo://app?vid=5c538d0f-9136-4735-8ea8-3c3fb2ae89db"},"vehicle_type_id":"4","last_reported":1731701456,"current_range_meters":36800,"station_id":"ce4bgl12rcd13ifvqbo0","pricing_plan_id":"cebpf4jnsgd1na2vs0mg"},{"bike_id":"7125cda5-6cac-4f0d-b24c-2d801b2955b5","system_id":"levelo_inurba_marseille","lat":43.2318,"lon":5.39982,"is_reserved":false,"is_disabled":false,"rental_uris":{"android":"levelo://app?vid=7125cda5-6cac-4f0d-b24c-2d801b2955b5","ios":"levelo://app?vid=7125cda5-6cac-4f0d-b24c-2d801b2955b5"},"vehicle_type_id":"4","last_reported":1731701456,"current_range_meters":38800,"station_id":"ce4bhn12rcd13ifvqgqg","pricing_plan_id":"cebpf4jnsgd1na2vs0mg"},{"bike_id":"aa75e17a-5aa3-4b70-8cc1-015be5fd06f8","system_id":"levelo_inurba_marseille","lat":43.30133,"lon":5.37425,"is_reserved":false,"is_disabled":false,"rental_uris":{"android":"levelo://app?vid=aa75e17a-5aa3-4b70-8cc1-015be5fd06f8","ios":"levelo://app?vid=aa75e17a-5aa3-4b70-8cc1-015be5fd06f8"},"vehicle_type_id":"4","last_reported":1731701456,"current_range_meters":38000,"station_id":"ce4bgs92rcd13ifvqcc0","pricing_plan_id":"cebpf4jnsgd1na2vs0mg"},{"bike_id":"de4e3896-0c91-4eb1-b204-320b3c3297a8","system_id":"levelo_inurba_marseille","lat":43.23204,"lon":5.40006,"is_reserved":false,"is_disabled":false,"rental_uris":{"android":"levelo://app?vid=de4e3896-0c91-4eb1-b204-320b3c3297a8","ios":"levelo://app?vid=de4e3896-0c91-4eb1-b204-320b3c3297a8"},"vehicle_type_id":"4","last_reported":1731701456,"current_range_meters":24000,"station_id":"ce4bhn12rcd13ifvqgqg","pricing_plan_id":"cebpf4jnsgd1na2vs0mg"},{"bike_id":"0798270e-42c9-4323-819e-b75eb6dce35a","system_id":"levelo_inurba_marseille","lat":43.27812,"lon":5.4071,"is_reserved":false,"is_disabled":false,"rental_uris":{"android":"levelo://app?vid=0798270e-42c9-4323-819e-b75eb6dce35a","ios":"levelo://app?vid=0798270e-42c9-4323-819e-b75eb6dce35a"},"vehicle_type_id":"4","last_reported":1731701456,"current_range_meters":38800,"station_id":"ce4bhnh2rcd13ifvqgtg","pricing_plan_id":"cebpf4jnsgd1na2vs0mg"},{"bike_id":"c42c41ac-35cf-4582-9351-24c71b6cc45e","system_id":"levelo_inurba_marseille","lat":43.31707,"lon":5.37742,"is_reserved":false,"is_disabled":false,"rental_uris":{"android":"levelo://app?vid=c42c41ac-35cf-4582-9351-24c71b6cc45e","ios":"levelo://app?vid=c42c41ac-35cf-4582-9351-24c71b6cc45e"},"vehicle_type_id":"4","last_reported":1731701456,"current_range_meters":8000,"station_id":"ce4bgth2rcd13ifvqch0","pricing_plan_id":"cebpf4jnsgd1na2vs0mg"},{"bike_id":"017fb1b6-54dd-49b6-81b9-1528503b3b9b","system_id":"levelo_inurba_marseille","lat":43.3009,"lon":5.39075,"is_reserved":false,"is_disabled":false,"rental_uris":{"android":"levelo://app?vid=017fb1b6-54dd-49b6-81b9-1528503b3b9b","ios":"levelo://app?vid=017fb1b6-54dd-49b6-81b9-1528503b3b9b"},"vehicle_type_id":"4","last_reported":1731701456,"current_range_meters":6800,"station_id":"ce4bh192rcd13ifvqdb0","pricing_plan_id":"cebpf4jnsgd1na2vs0mg"},{"bike_id":"862a0738-37c6-4949-a1c7-43ce857c2ac1","system_id":"levelo_inurba_marseille","lat":43.29292,"lon":5.37156,"is_reserved":false,"is_disabled":false,"rental_uris":{"android":"levelo://app?vid=862a0738-37c6-4949-a1c7-43ce857c2ac1","ios":"levelo://app?vid=862a0738-37c6-4949-a1c7-43ce857c2ac1"},"vehicle_type_id":"4","last_reported":1731701456,"current_range_meters":30000,"station_id":"ce4bgh92rcd13ifvqb40","pricing_plan_id":"cebpf4jnsgd1na2vs0mg"},{"bike_id":"6d757fef-4f26-43f9-ac2c-ffab39bf7dae","system_id":"levelo_inurba_marseille","lat":43.32249,"lon":5.36901,"is_reserved":false,"is_disabled":false,"rental_uris":{"android":"levelo://app?vid=6d757fef-4f26-43f9-ac2c-ffab39bf7dae","ios":"levelo://app?vid=6d757fef-4f26-43f9-ac2c-ffab39bf7dae"},"vehicle_type_id":"4","last_reported":1731701456,"current_range_meters":22800,"station_id":"","pricing_plan_id":"cebpf4jnsgd1na2vs0mg"},{"bike_id":"aec93d03-95e9-4c76-980a-735748bbdad5","system_id":"levelo_inurba_marseille","lat":43.28147,"lon":5.42638,"is_reserved":false,"is_disabled":false,"rental_uris":{"android":"levelo://app?vid=aec93d03-95e9-4c76-980a-735748bbdad5","ios":"levelo://app?vid=aec93d03-95e9-4c76-980a-735748bbdad5"},"vehicle_type_id":"4","last_reported":1731701456,"current_range_meters":16800,"station_id":"ce4bhnh2rcd13ifvqgug","pricing_plan_id":"cebpf4jnsgd1na2vs0mg"},{"bike_id":"9ea18f81-8b1f-4777-b35f-e3d99be27e4f","system_id":"levelo_inurba_marseille","lat":43.26029,"lon":5.37549,"is_reserved":false,"is_disabled":false,"rental_uris":{"android":"levelo://app?vid=9ea18f81-8b1f-4777-b35f-e3d99be27e4f","ios":"levelo://app?vid=9ea18f81-8b1f-4777-b35f-e3d99be27e4f"},"vehicle_type_id":"4","last_reported":1731701456,"current_range_meters":38800,"station_id":"ce4bhgh2rcd13ifvqfa0","pricing_plan_id":"cebpf4jnsgd1na2vs0mg"},{"bike_id":"004af383-0d61-41f0-979b-fe8d5ecec5f1","system_id":"levelo_inurba_marseille","lat":43.28458,"lon":5.3589,"is_reserved":false,"is_disabled":false,"rental_uris":{"android":"levelo://app?vid=004af383-0d61-41f0-979b-fe8d5ecec5f1","ios":"levelo://app?vid=004af383-0d61-41f0-979b-fe8d5ecec5f1"},"vehicle_type_id":"4","last_reported":1731701456,"current_range_meters":33200,"station_id":"ce4bhah2rcd13ifvqei0","pricing_plan_id":"cebpf4jnsgd1na2vs0mg"},{"bike_id":"0a9751da-8684-43f9-b53f-6389ddca1500","system_id":"levelo_inurba_marseille","lat":43.31884,"lon":5.40726,"is_reserved":false,"is_disabled":false,"rental_uris":{"android":"levelo://app?vid=0a9751da-8684-43f9-b53f-6389ddca1500","ios":"levelo://app?vid=0a9751da-8684-43f9-b53f-6389ddca1500"},"vehicle_type_id":"4","last_reported":1731701456,"current_range_meters":26800,"station_id":"ce4bhq12rcd13ifvqhig","pricing_plan_id":"cebpf4jnsgd1na2vs0mg"},{"bike_id":"10fad15c-179d-4cd6-bcd4-04a8998cadcc","system_id":"levelo_inurba_marseille","lat":43.25112,"lon":5.40322,"is_reserved":false,"is_disabled":false,"rental_uris":{"android":"levelo://app?vid=10fad15c-179d-4cd6-bcd4-04a8998cadcc","ios":"levelo://app?vid=10fad15c-179d-4cd6-bcd4-04a8998cadcc"},"vehicle_type_id":"4","last_reported":1731701456,"current_range_meters":17600,"station_id":"ce4bhlh2rcd13ifvqgig","pricing_plan_id":"cebpf4jnsgd1na2vs0mg"},{"bike_id":"d27a3475-2e52-4b6c-9dea-c67313b855a8","system_id":"levelo_inurba_marseille","lat":43.31895,"lon":5.40723,"is_reserved":false,"is_disabled":false,"rental_uris":{"android":"levelo://app?vid=d27a3475-2e52-4b6c-9dea-c67313b855a8","ios":"levelo://app?vid=d27a3475-2e52-4b6c-9dea-c67313b855a8"},"vehicle_type_id":"4","last_reported":1731701456,"current_range_meters":32400,"station_id":"ce4bhq12rcd13ifvqhig","pricing_plan_id":"cebpf4jnsgd1na2vs0mg"},{"bike_id":"d0a33f3e-77e0-42b9-b35b-ff7c08929662","system_id":"levelo_inurba_marseille","lat":43.28002,"lon":5.4001,"is_reserved":false,"is_disabled":false,"rental_uris":{"android":"levelo://app?vid=d0a33f3e-77e0-42b9-b35b-ff7c08929662","ios":"levelo://app?vid=d0a33f3e-77e0-42b9-b35b-ff7c08929662"},"vehicle_type_id":"4","last_reported":1731701456,"current_range_meters":37600,"station_id":"ce4bho92rcd13ifvqh4g","pricing_plan_id":"cebpf4jnsgd1na2vs0mg"},{"bike_id":"cc6dab0b-8834-4ae3-9cdd-a2d3b1edd735","system_id":"levelo_inurba_marseille","lat":43.3229,"lon":5.38261,"is_reserved":false,"is_disabled":false,"rental_uris":{"android":"levelo://app?vid=cc6dab0b-8834-4ae3-9cdd-a2d3b1edd735","ios":"levelo://app?vid=cc6dab0b-8834-4ae3-9cdd-a2d3b1edd735"},"vehicle_type_id":"4","last_reported":1731701456,"current_range_meters":35200,"station_id":"ce4bhr12rcd13ifvqhqg","pricing_plan_id":"cebpf4jnsgd1na2vs0mg"},{"bike_id":"ed080eb2-a49b-4dc5-8bdd-b50f9279778d","system_id":"levelo_inurba_marseille","lat":43.29527,"lon":5.38537,"is_reserved":false,"is_disabled":false,"rental_uris":{"android":"levelo://app?vid=ed080eb2-a49b-4dc5-8bdd-b50f9279778d","ios":"levelo://app?vid=ed080eb2-a49b-4dc5-8bdd-b50f9279778d"},"vehicle_type_id":"4","last_reported":1731701456,"current_range_meters":32400,"station_id":"ce4bgih2rcd13ifvqba0","pricing_plan_id":"cebpf4jnsgd1na2vs0mg"},{"bike_id":"c32cb617-b374-4b74-8210-e0f4e45c9111","system_id":"levelo_inurba_marseille","lat":43.2781,"lon":5.40712,"is_reserved":false,"is_disabled":false,"rental_uris":{"android":"levelo://app?vid=c32cb617-b374-4b74-8210-e0f4e45c9111","ios":"levelo://app?vid=c32cb617-b374-4b74-8210-e0f4e45c9111"},"vehicle_type_id":"4","last_reported":1731701456,"current_range_meters":38400,"station_id":"ce4bhnh2rcd13ifvqgtg","pricing_plan_id":"cebpf4jnsgd1na2vs0mg"},{"bike_id":"052602e7-441a-4ef9-8d1e-ed6059e73ec4","system_id":"levelo_inurba_marseille","lat":43.27497,"lon":5.42452,"is_reserved":false,"is_disabled":false,"rental_uris":{"android":"levelo://app?vid=052602e7-441a-4ef9-8d1e-ed6059e73ec4","ios":"levelo://app?vid=052602e7-441a-4ef9-8d1e-ed6059e73ec4"},"vehicle_type_id":"4","last_reported":1731701456,"current_range_meters":38400,"station_id":"ce4bhn92rcd13ifvqgrg","pricing_plan_id":"cebpf4jnsgd1na2vs0mg"},{"bike_id":"b6e29239-107b-4bf3-9a6d-4106d6b8d40f","system_id":"levelo_inurba_marseille","lat":43.3025,"lon":5.40051,"is_reserved":false,"is_disabled":false,"rental_uris":{"android":"levelo://app?vid=b6e29239-107b-4bf3-9a6d-4106d6b8d40f","ios":"levelo://app?vid=b6e29239-107b-4bf3-9a6d-4106d6b8d40f"},"vehicle_type_id":"4","last_reported":1731701456,"current_range_meters":18800,"station_id":"ce4bgvh2rcd13ifvqcs0","pricing_plan_id":"cebpf4jnsgd1na2vs0mg"},{"bike_id":"e9df3c2c-92fe-4690-8adb-6107d20c9039","system_id":"levelo_inurba_marseille","lat":43.28982,"lon":5.37825,"is_reserved":false,"is_disabled":false,"rental_uris":{"android":"levelo://app?vid=e9df3c2c-92fe-4690-8adb-6107d20c9039","ios":"levelo://app?vid=e9df3c2c-92fe-4690-8adb-6107d20c9039"},"vehicle_type_id":"4","last_reported":1731701456,"current_range_meters":22000,"station_id":"ce4bh9p2rcd13ifvqed0","pricing_plan_id":"cebpf4jnsgd1na2vs0mg"},{"bike_id":"34bdca7d-abda-4d07-9242-48f39b225a36","system_id":"levelo_inurba_marseille","lat":43.290222,"lon":5.375119,"is_reserved":false,"is_disabled":false,"rental_uris":{"android":"levelo://app?vid=34bdca7d-abda-4d07-9242-48f39b225a36","ios":"levelo://app?vid=34bdca7d-abda-4d07-9242-48f39b225a36"},"vehicle_type_id":"4","last_reported":1731701456,"current_range_meters":3200,"station_id":"ce4bhah2rcd13ifvqei0","pricing_plan_id":"cebpf4jnsgd1na2vs0mg"},{"bike_id":"7711065b-52dd-46a8-8998-4346164affaa","system_id":"levelo_inurba_marseille","lat":43.29246,"lon":5.40902,"is_reserved":false,"is_disabled":false,"rental_uris":{"android":"levelo://app?vid=7711065b-52dd-46a8-8998-4346164affaa","ios":"levelo://app?vid=7711065b-52dd-46a8-8998-4346164affaa"},"vehicle_type_id":"4","last_reported":1731701456,"current_range_meters":38800,"station_id":"ce4bh192rcd13ifvqdc0","pricing_plan_id":"cebpf4jnsgd1na2vs0mg"},{"bike_id":"a2def2cd-8741-4844-bfc2-1160d12b92d7","system_id":"levelo_inurba_marseille","lat":43.29525,"lon":5.38548,"is_reserved":false,"is_disabled":false,"rental_uris":{"android":"levelo://app?vid=a2def2cd-8741-4844-bfc2-1160d12b92d7","ios":"levelo://app?vid=a2def2cd-8741-4844-bfc2-1160d12b92d7"},"vehicle_type_id":"4","last_reported":1731701456,"current_range_meters":16000,"station_id":"ce4bgih2rcd13ifvqba0","pricing_plan_id":"cebpf4jnsgd1na2vs0mg"},{"bike_id":"08f2da3e-9a4f-4bf2-9ab5-de990ce33744","system_id":"levelo_inurba_marseille","lat":43.30643,"lon":5.36841,"is_reserved":false,"is_disabled":false,"rental_uris":{"android":"levelo://app?vid=08f2da3e-9a4f-4bf2-9ab5-de990ce33744","ios":"levelo://app?vid=08f2da3e-9a4f-4bf2-9ab5-de990ce33744"},"vehicle_type_id":"4","last_reported":1731701456,"current_range_meters":37600,"station_id":"","pricing_plan_id":"cebpf4jnsgd1na2vs0mg"},{"bike_id":"f6135ef9-6012-4ead-b8c1-bfcf7f6f5ea1","system_id":"levelo_inurba_marseille","lat":43.267303,"lon":5.383445,"is_reserved":false,"is_disabled":false,"rental_uris":{"android":"levelo://app?vid=f6135ef9-6012-4ead-b8c1-bfcf7f6f5ea1","ios":"levelo://app?vid=f6135ef9-6012-4ead-b8c1-bfcf7f6f5ea1"},"vehicle_type_id":"4","last_reported":1731701456,"current_range_meters":20800,"station_id":"","pricing_plan_id":"cebpf4jnsgd1na2vs0mg"},{"bike_id":"337552e9-9e69-4fae-9c81-107a97262863","system_id":"levelo_inurba_marseille","lat":43.2318,"lon":5.39992,"is_reserved":false,"is_disabled":false,"rental_uris":{"android":"levelo://app?vid=337552e9-9e69-4fae-9c81-107a97262863","ios":"levelo://app?vid=337552e9-9e69-4fae-9c81-107a97262863"},"vehicle_type_id":"4","last_reported":1731701456,"current_range_meters":14000,"station_id":"ce4bhn12rcd13ifvqgqg","pricing_plan_id":"cebpf4jnsgd1na2vs0mg"},{"bike_id":"f1e0f3dd-a15a-4f0c-a853-07b7313ac16b","system_id":"levelo_inurba_marseille","lat":43.31886,"lon":5.40728,"is_reserved":false,"is_disabled":false,"rental_uris":{"android":"levelo://app?vid=f1e0f3dd-a15a-4f0c-a853-07b7313ac16b","ios":"levelo://app?vid=f1e0f3dd-a15a-4f0c-a853-07b7313ac16b"},"vehicle_type_id":"4","last_reported":1731701456,"current_range_meters":32000,"station_id":"ce4bhq12rcd13ifvqhig","pricing_plan_id":"cebpf4jnsgd1na2vs0mg"},{"bike_id":"6562d6dd-89a8-4ac5-9423-749d1506b781","system_id":"levelo_inurba_marseille","lat":43.29264,"lon":5.38447,"is_reserved":false,"is_disabled":false,"rental_uris":{"android":"levelo://app?vid=6562d6dd-89a8-4ac5-9423-749d1506b781","ios":"levelo://app?vid=6562d6dd-89a8-4ac5-9423-749d1506b781"},"vehicle_type_id":"4","last_reported":1731701456,"current_range_meters":6800,"station_id":"ce4bh692rcd13ifvqea0","pricing_plan_id":"cebpf4jnsgd1na2vs0mg"},{"bike_id":"967244b9-b814-4893-9606-88db1b070921","system_id":"levelo_inurba_marseille","lat":43.303159,"lon":5.368535,"is_reserved":false,"is_disabled":false,"rental_uris":{"android":"levelo://app?vid=967244b9-b814-4893-9606-88db1b070921","ios":"levelo://app?vid=967244b9-b814-4893-9606-88db1b070921"},"vehicle_type_id":"4","last_reported":1731701456,"current_range_meters":24400,"station_id":"ce4bgqh2rcd13ifvqc5g","pricing_plan_id":"cebpf4jnsgd1na2vs0mg"},{"bike_id":"b54f4471-f146-477a-ade3-58e1dea1b85e","system_id":"levelo_inurba_marseille","lat":43.337444,"lon":5.374475,"is_reserved":false,"is_disabled":false,"rental_uris":{"android":"levelo://app?vid=b54f4471-f146-477a-ade3-58e1dea1b85e","ios":"levelo://app?vid=b54f4471-f146-477a-ade3-58e1dea1b85e"},"vehicle_type_id":"4","last_reported":1731701456,"current_range_meters":36000,"station_id":"","pricing_plan_id":"cebpf4jnsgd1na2vs0mg"},{"bike_id":"21a747e6-6182-4b48-a794-f6a738a85e1f","system_id":"levelo_inurba_marseille","lat":43.29298,"lon":5.3746,"is_reserved":false,"is_disabled":false,"rental_uris":{"android":"levelo://app?vid=21a747e6-6182-4b48-a794-f6a738a85e1f","ios":"levelo://app?vid=21a747e6-6182-4b48-a794-f6a738a85e1f"},"vehicle_type_id":"4","last_reported":1731701456,"current_range_meters":30800,"station_id":"ce4bgi12rcd13ifvqb70","pricing_plan_id":"cebpf4jnsgd1na2vs0mg"},{"bike_id":"01b2a653-973a-4e3f-b370-01c891de3f4a","system_id":"levelo_inurba_marseille","lat":43.2893,"lon":5.36648,"is_reserved":false,"is_disabled":false,"rental_uris":{"android":"levelo://app?vid=01b2a653-973a-4e3f-b370-01c891de3f4a","ios":"levelo://app?vid=01b2a653-973a-4e3f-b370-01c891de3f4a"},"vehicle_type_id":"4","last_reported":1731701456,"current_range_meters":28800,"station_id":"ce4bhap2rcd13ifvqek0","pricing_plan_id":"cebpf4jnsgd1na2vs0mg"},{"bike_id":"805cfe6b-be44-4949-bab5-57b1ce8478a4","system_id":"levelo_inurba_marseille","lat":43.33752,"lon":5.37459,"is_reserved":false,"is_disabled":false,"rental_uris":{"android":"levelo://app?vid=805cfe6b-be44-4949-bab5-57b1ce8478a4","ios":"levelo://app?vid=805cfe6b-be44-4949-bab5-57b1ce8478a4"},"vehicle_type_id":"4","last_reported":1731701456,"current_range_meters":32400,"station_id":"","pricing_plan_id":"cebpf4jnsgd1na2vs0mg"},{"bike_id":"53d59ff4-f347-4a49-b20b-42579b6711bd","system_id":"levelo_inurba_marseille","lat":43.29972,"lon":5.37172,"is_reserved":false,"is_disabled":false,"rental_uris":{"android":"levelo://app?vid=53d59ff4-f347-4a49-b20b-42579b6711bd","ios":"levelo://app?vid=53d59ff4-f347-4a49-b20b-42579b6711bd"},"vehicle_type_id":"4","last_reported":1731701456,"current_range_meters":7200,"station_id":"ce4bgr92rcd13ifvqc7g","pricing_plan_id":"cebpf4jnsgd1na2vs0mg"},{"bike_id":"3cd2663d-ddea-4c47-bfe3-6f60b341aaa3","system_id":"levelo_inurba_marseille","lat":43.27814,"lon":5.40705,"is_reserved":false,"is_disabled":false,"rental_uris":{"android":"levelo://app?vid=3cd2663d-ddea-4c47-bfe3-6f60b341aaa3","ios":"levelo://app?vid=3cd2663d-ddea-4c47-bfe3-6f60b341aaa3"},"vehicle_type_id":"4","last_reported":1731701456,"current_range_meters":10000,"station_id":"ce4bhnh2rcd13ifvqgtg","pricing_plan_id":"cebpf4jnsgd1na2vs0mg"},{"bike_id":"6b48a124-f75a-425d-81f5-768069f8eb4a","system_id":"levelo_inurba_marseille","lat":43.2847,"lon":5.38413,"is_reserved":false,"is_disabled":false,"rental_uris":{"android":"levelo://app?vid=6b48a124-f75a-425d-81f5-768069f8eb4a","ios":"levelo://app?vid=6b48a124-f75a-425d-81f5-768069f8eb4a"},"vehicle_type_id":"4","last_reported":1731701456,"current_range_meters":6800,"station_id":"ce4bh512rcd13ifvqe3g","pricing_plan_id":"cebpf4jnsgd1na2vs0mg"},{"bike_id":"615cd994-d13c-46b8-be29-42ceb034a276","system_id":"levelo_inurba_marseille","lat":43.29262,"lon":5.3843,"is_reserved":false,"is_disabled":false,"rental_uris":{"android":"levelo://app?vid=615cd994-d13c-46b8-be29-42ceb034a276","ios":"levelo://app?vid=615cd994-d13c-46b8-be29-42ceb034a276"},"vehicle_type_id":"4","last_reported":1731701456,"current_range_meters":36800,"station_id":"ce4bh692rcd13ifvqea0","pricing_plan_id":"cebpf4jnsgd1na2vs0mg"},{"bike_id":"66d67a48-6ac7-4f55-8619-5dc10efa5469","system_id":"levelo_inurba_marseille","lat":43.33598,"lon":5.41013,"is_reserved":false,"is_disabled":false,"rental_uris":{"android":"levelo://app?vid=66d67a48-6ac7-4f55-8619-5dc10efa5469","ios":"levelo://app?vid=66d67a48-6ac7-4f55-8619-5dc10efa5469"},"vehicle_type_id":"4","last_reported":1731701456,"current_range_meters":7200,"station_id":"ce4bhqh2rcd13ifvqhmg","pricing_plan_id":"cebpf4jnsgd1na2vs0mg"},{"bike_id":"6e42e305-cc81-47db-b26f-5d46102f1927","system_id":"levelo_inurba_marseille","lat":43.29092,"lon":5.38134,"is_reserved":false,"is_disabled":false,"rental_uris":{"android":"levelo://app?vid=6e42e305-cc81-47db-b26f-5d46102f1927","ios":"levelo://app?vid=6e42e305-cc81-47db-b26f-5d46102f1927"},"vehicle_type_id":"4","last_reported":1731701456,"current_range_meters":11200,"station_id":"ce4bh512rcd13ifvqe2g","pricing_plan_id":"cebpf4jnsgd1na2vs0mg"},{"bike_id":"ca655f3b-8380-4045-b3f8-8acaa0e83ede","system_id":"levelo_inurba_marseille","lat":43.33733,"lon":5.37456,"is_reserved":false,"is_disabled":false,"rental_uris":{"android":"levelo://app?vid=ca655f3b-8380-4045-b3f8-8acaa0e83ede","ios":"levelo://app?vid=ca655f3b-8380-4045-b3f8-8acaa0e83ede"},"vehicle_type_id":"4","last_reported":1731701456,"current_range_meters":35600,"station_id":"","pricing_plan_id":"cebpf4jnsgd1na2vs0mg"},{"bike_id":"32ba1723-32e5-43c1-9709-29055c645cc9","system_id":"levelo_inurba_marseille","lat":43.29881,"lon":5.389,"is_reserved":false,"is_disabled":false,"rental_uris":{"android":"levelo://app?vid=32ba1723-32e5-43c1-9709-29055c645cc9","ios":"levelo://app?vid=32ba1723-32e5-43c1-9709-29055c645cc9"},"vehicle_type_id":"4","last_reported":1731701456,"current_range_meters":24000,"station_id":"ce4bh392rcd13ifvqdl0","pricing_plan_id":"cebpf4jnsgd1na2vs0mg"},{"bike_id":"eeee108a-0c4d-4aae-9f19-d70e79b8d29f","system_id":"levelo_inurba_marseille","lat":43.32483,"lon":5.36558,"is_reserved":false,"is_disabled":false,"rental_uris":{"android":"levelo://app?vid=eeee108a-0c4d-4aae-9f19-d70e79b8d29f","ios":"levelo://app?vid=eeee108a-0c4d-4aae-9f19-d70e79b8d29f"},"vehicle_type_id":"4","last_reported":1731701456,"current_range_meters":26000,"station_id":"ce4bhs12rcd13ifvqhvg","pricing_plan_id":"cebpf4jnsgd1na2vs0mg"},{"bike_id":"a76c06a1-893d-4f58-a130-821d68a62cd4","system_id":"levelo_inurba_marseille","lat":43.290314,"lon":5.375583,"is_reserved":false,"is_disabled":false,"rental_uris":{"android":"levelo://app?vid=a76c06a1-893d-4f58-a130-821d68a62cd4","ios":"levelo://app?vid=a76c06a1-893d-4f58-a130-821d68a62cd4"},"vehicle_type_id":"4","last_reported":1731701456,"current_range_meters":9200,"station_id":"ce4bh692rcd13ifvqe90","pricing_plan_id":"cebpf4jnsgd1na2vs0mg"},{"bike_id":"a6b8c285-acc9-4039-9531-1aae39136a33","system_id":"levelo_inurba_marseille","lat":43.312042,"lon":5.367348,"is_reserved":false,"is_disabled":false,"rental_uris":{"android":"levelo://app?vid=a6b8c285-acc9-4039-9531-1aae39136a33","ios":"levelo://app?vid=a6b8c285-acc9-4039-9531-1aae39136a33"},"vehicle_type_id":"4","last_reported":1731701456,"current_range_meters":18000,"station_id":"","pricing_plan_id":"cebpf4jnsgd1na2vs0mg"},{"bike_id":"ebcbc26a-0484-40a4-8792-8bd74acf68ef","system_id":"levelo_inurba_marseille","lat":43.29262,"lon":5.38439,"is_reserved":false,"is_disabled":false,"rental_uris":{"android":"levelo://app?vid=ebcbc26a-0484-40a4-8792-8bd74acf68ef","ios":"levelo://app?vid=ebcbc26a-0484-40a4-8792-8bd74acf68ef"},"vehicle_type_id":"4","last_reported":1731701456,"current_range_meters":19200,"station_id":"ce4bh692rcd13ifvqea0","pricing_plan_id":"cebpf4jnsgd1na2vs0mg"},{"bike_id":"3970a7f0-dce1-4c4b-a449-ca18b6197f0d","system_id":"levelo_inurba_marseille","lat":43.25109,"lon":5.40316,"is_reserved":false,"is_disabled":false,"rental_uris":{"android":"levelo://app?vid=3970a7f0-dce1-4c4b-a449-ca18b6197f0d","ios":"levelo://app?vid=3970a7f0-dce1-4c4b-a449-ca18b6197f0d"},"vehicle_type_id":"4","last_reported":1731701456,"current_range_meters":17600,"station_id":"ce4bhlh2rcd13ifvqgig","pricing_plan_id":"cebpf4jnsgd1na2vs0mg"},{"bike_id":"5c254126-8805-4ed8-9520-9f63561143b3","system_id":"levelo_inurba_marseille","lat":43.24168,"lon":5.3639,"is_reserved":false,"is_disabled":false,"rental_uris":{"android":"levelo://app?vid=5c254126-8805-4ed8-9520-9f63561143b3","ios":"levelo://app?vid=5c254126-8805-4ed8-9520-9f63561143b3"},"vehicle_type_id":"4","last_reported":1731701456,"current_range_meters":25200,"station_id":"cpo36qri1sfpv3e86is0","pricing_plan_id":"cebpf4jnsgd1na2vs0mg"},{"bike_id":"73f67389-bc64-4ccb-bae5-f97accc880eb","system_id":"levelo_inurba_marseille","lat":43.29421,"lon":5.38625,"is_reserved":false,"is_disabled":false,"rental_uris":{"android":"levelo://app?vid=73f67389-bc64-4ccb-bae5-f97accc880eb","ios":"levelo://app?vid=73f67389-bc64-4ccb-bae5-f97accc880eb"},"vehicle_type_id":"4","last_reported":1731701456,"current_range_meters":8800,"station_id":"ce4bh2h2rcd13ifvqdh0","pricing_plan_id":"cebpf4jnsgd1na2vs0mg"},{"bike_id":"95189523-b163-438d-9cb1-f7dc4435500d","system_id":"levelo_inurba_marseille","lat":43.32334,"lon":5.40624,"is_reserved":false,"is_disabled":false,"rental_uris":{"android":"levelo://app?vid=95189523-b163-438d-9cb1-f7dc4435500d","ios":"levelo://app?vid=95189523-b163-438d-9cb1-f7dc4435500d"},"vehicle_type_id":"4","last_reported":1731701456,"current_range_meters":5600,"station_id":"ce4bhq92rcd13ifvqhjg","pricing_plan_id":"cebpf4jnsgd1na2vs0mg"},{"bike_id":"40a00824-9105-42da-bd2d-cd332ad8945e","system_id":"levelo_inurba_marseille","lat":43.30138,"lon":5.38782,"is_reserved":false,"is_disabled":false,"rental_uris":{"android":"levelo://app?vid=40a00824-9105-42da-bd2d-cd332ad8945e","ios":"levelo://app?vid=40a00824-9105-42da-bd2d-cd332ad8945e"},"vehicle_type_id":"4","last_reported":1731701456,"current_range_meters":38400,"station_id":"ce4bghh2rcd13ifvqb60","pricing_plan_id":"cebpf4jnsgd1na2vs0mg"},{"bike_id":"50ae3ec0-9f46-43fd-819a-4c7a80c3cf46","system_id":"levelo_inurba_marseille","lat":43.28845,"lon":5.35841,"is_reserved":false,"is_disabled":false,"rental_uris":{"android":"levelo://app?vid=50ae3ec0-9f46-43fd-819a-4c7a80c3cf46","ios":"levelo://app?vid=50ae3ec0-9f46-43fd-819a-4c7a80c3cf46"},"vehicle_type_id":"4","last_reported":1731701456,"current_range_meters":38000,"station_id":"ce4bhb12rcd13ifvqem0","pricing_plan_id":"cebpf4jnsgd1na2vs0mg"},{"bike_id":"a1cf96a5-8724-4d7e-8b5b-bd9515f6986e","system_id":"levelo_inurba_marseille","lat":43.29293,"lon":5.37442,"is_reserved":false,"is_disabled":false,"rental_uris":{"android":"levelo://app?vid=a1cf96a5-8724-4d7e-8b5b-bd9515f6986e","ios":"levelo://app?vid=a1cf96a5-8724-4d7e-8b5b-bd9515f6986e"},"vehicle_type_id":"4","last_reported":1731701456,"current_range_meters":38800,"station_id":"ce4bgi12rcd13ifvqb70","pricing_plan_id":"cebpf4jnsgd1na2vs0mg"},{"bike_id":"6ef266d1-92eb-440d-9bcd-6ee947c0d029","system_id":"levelo_inurba_marseille","lat":43.27487,"lon":5.42447,"is_reserved":false,"is_disabled":false,"rental_uris":{"android":"levelo://app?vid=6ef266d1-92eb-440d-9bcd-6ee947c0d029","ios":"levelo://app?vid=6ef266d1-92eb-440d-9bcd-6ee947c0d029"},"vehicle_type_id":"4","last_reported":1731701456,"current_range_meters":35600,"station_id":"ce4bhn92rcd13ifvqgrg","pricing_plan_id":"cebpf4jnsgd1na2vs0mg"},{"bike_id":"56e128db-d281-4e18-8304-040ffeba0eed","system_id":"levelo_inurba_marseille","lat":43.2942,"lon":5.38629,"is_reserved":false,"is_disabled":false,"rental_uris":{"android":"levelo://app?vid=56e128db-d281-4e18-8304-040ffeba0eed","ios":"levelo://app?vid=56e128db-d281-4e18-8304-040ffeba0eed"},"vehicle_type_id":"4","last_reported":1731701456,"current_range_meters":20000,"station_id":"ce4bh2h2rcd13ifvqdh0","pricing_plan_id":"cebpf4jnsgd1na2vs0mg"},{"bike_id":"1ae8fe75-00ad-479b-a755-74d45d76bfbe","system_id":"levelo_inurba_marseille","lat":43.24167,"lon":5.36392,"is_reserved":false,"is_disabled":false,"rental_uris":{"android":"levelo://app?vid=1ae8fe75-00ad-479b-a755-74d45d76bfbe","ios":"levelo://app?vid=1ae8fe75-00ad-479b-a755-74d45d76bfbe"},"vehicle_type_id":"4","last_reported":1731701456,"current_range_meters":9200,"station_id":"cpo36qri1sfpv3e86is0","pricing_plan_id":"cebpf4jnsgd1na2vs0mg"},{"bike_id":"25814bd3-d4dd-4170-aae5-5225113c94cc","system_id":"levelo_inurba_marseille","lat":43.29265,"lon":5.38537,"is_reserved":false,"is_disabled":false,"rental_uris":{"android":"levelo://app?vid=25814bd3-d4dd-4170-aae5-5225113c94cc","ios":"levelo://app?vid=25814bd3-d4dd-4170-aae5-5225113c94cc"},"vehicle_type_id":"4","last_reported":1731701456,"current_range_meters":8800,"station_id":"","pricing_plan_id":"cebpf4jnsgd1na2vs0mg"},{"bike_id":"5df34f29-1a7a-4221-97e5-c009d97a2929","system_id":"levelo_inurba_marseille","lat":43.23838,"lon":5.36535,"is_reserved":false,"is_disabled":false,"rental_uris":{"android":"levelo://app?vid=5df34f29-1a7a-4221-97e5-c009d97a2929","ios":"levelo://app?vid=5df34f29-1a7a-4221-97e5-c009d97a2929"},"vehicle_type_id":"4","last_reported":1731701456,"current_range_meters":12400,"station_id":"","pricing_plan_id":"cebpf4jnsgd1na2vs0mg"},{"bike_id":"92ac4858-87d6-4ceb-8f6e-004635a816a8","system_id":"levelo_inurba_marseille","lat":43.2779,"lon":5.4073,"is_reserved":false,"is_disabled":false,"rental_uris":{"android":"levelo://app?vid=92ac4858-87d6-4ceb-8f6e-004635a816a8","ios":"levelo://app?vid=92ac4858-87d6-4ceb-8f6e-004635a816a8"},"vehicle_type_id":"4","last_reported":1731701456,"current_range_meters":36000,"station_id":"ce4bhnh2rcd13ifvqgtg","pricing_plan_id":"cebpf4jnsgd1na2vs0mg"},{"bike_id":"acccc9dd-ae8e-4182-bf16-701672e8ed55","system_id":"levelo_inurba_marseille","lat":43.25718,"lon":5.41106,"is_reserved":false,"is_disabled":false,"rental_uris":{"android":"levelo://app?vid=acccc9dd-ae8e-4182-bf16-701672e8ed55","ios":"levelo://app?vid=acccc9dd-ae8e-4182-bf16-701672e8ed55"},"vehicle_type_id":"4","last_reported":1731701456,"current_range_meters":38800,"station_id":"ce4bhkp2rcd13ifvqgd0","pricing_plan_id":"cebpf4jnsgd1na2vs0mg"},{"bike_id":"347c7842-b74d-475c-9f43-0b98799e9df1","system_id":"levelo_inurba_marseille","lat":43.32338,"lon":5.40612,"is_reserved":false,"is_disabled":false,"rental_uris":{"android":"levelo://app?vid=347c7842-b74d-475c-9f43-0b98799e9df1","ios":"levelo://app?vid=347c7842-b74d-475c-9f43-0b98799e9df1"},"vehicle_type_id":"4","last_reported":1731701456,"current_range_meters":6400,"station_id":"ce4bhq92rcd13ifvqhjg","pricing_plan_id":"cebpf4jnsgd1na2vs0mg"},{"bike_id":"ec2cfdc2-4f84-4e38-a19d-43ff2b2c9286","system_id":"levelo_inurba_marseille","lat":43.31682,"lon":5.40473,"is_reserved":false,"is_disabled":false,"rental_uris":{"android":"levelo://app?vid=ec2cfdc2-4f84-4e38-a19d-43ff2b2c9286","ios":"levelo://app?vid=ec2cfdc2-4f84-4e38-a19d-43ff2b2c9286"},"vehicle_type_id":"4","last_reported":1731701456,"current_range_meters":10800,"station_id":"ce4bh012rcd13ifvqd00","pricing_plan_id":"cebpf4jnsgd1na2vs0mg"},{"bike_id":"d9723130-1d63-4516-b5f3-f49746021bcf","system_id":"levelo_inurba_marseille","lat":43.29787,"lon":5.38109,"is_reserved":false,"is_disabled":false,"rental_uris":{"android":"levelo://app?vid=d9723130-1d63-4516-b5f3-f49746021bcf","ios":"levelo://app?vid=d9723130-1d63-4516-b5f3-f49746021bcf"},"vehicle_type_id":"4","last_reported":1731701456,"current_range_meters":31200,"station_id":"ce4bgip2rcd13ifvqbb0","pricing_plan_id":"cebpf4jnsgd1na2vs0mg"},{"bike_id":"139d00fc-e67b-449a-9fd4-0db893561dc2","system_id":"levelo_inurba_marseille","lat":43.33756,"lon":5.37418,"is_reserved":false,"is_disabled":false,"rental_uris":{"android":"levelo://app?vid=139d00fc-e67b-449a-9fd4-0db893561dc2","ios":"levelo://app?vid=139d00fc-e67b-449a-9fd4-0db893561dc2"},"vehicle_type_id":"4","last_reported":1731701456,"current_range_meters":8400,"station_id":"","pricing_plan_id":"cebpf4jnsgd1na2vs0mg"},{"bike_id":"bdda4347-118f-4304-b506-09b4b5e15b39","system_id":"levelo_inurba_marseille","lat":43.33723,"lon":5.39186,"is_reserved":false,"is_disabled":false,"rental_uris":{"android":"levelo://app?vid=bdda4347-118f-4304-b506-09b4b5e15b39","ios":"levelo://app?vid=bdda4347-118f-4304-b506-09b4b5e15b39"},"vehicle_type_id":"4","last_reported":1731701456,"current_range_meters":18000,"station_id":"ce4bhr92rcd13ifvqhsg","pricing_plan_id":"cebpf4jnsgd1na2vs0mg"},{"bike_id":"33d11ece-d040-4857-8fd2-e02b3e60c387","system_id":"levelo_inurba_marseille","lat":43.24179,"lon":5.39725,"is_reserved":false,"is_disabled":false,"rental_uris":{"android":"levelo://app?vid=33d11ece-d040-4857-8fd2-e02b3e60c387","ios":"levelo://app?vid=33d11ece-d040-4857-8fd2-e02b3e60c387"},"vehicle_type_id":"4","last_reported":1731701456,"current_range_meters":18800,"station_id":"ce4bhn12rcd13ifvqgpg","pricing_plan_id":"cebpf4jnsgd1na2vs0mg"},{"bike_id":"73f27fd7-a76a-4cfc-aff3-71d20a7e3783","system_id":"levelo_inurba_marseille","lat":43.30138,"lon":5.39867,"is_reserved":false,"is_disabled":false,"rental_uris":{"android":"levelo://app?vid=73f27fd7-a76a-4cfc-aff3-71d20a7e3783","ios":"levelo://app?vid=73f27fd7-a76a-4cfc-aff3-71d20a7e3783"},"vehicle_type_id":"4","last_reported":1731701456,"current_range_meters":22000,"station_id":"ce4bhn92rcd13ifvqgrg","pricing_plan_id":"cebpf4jnsgd1na2vs0mg"},{"bike_id":"d31897b2-bad5-43fb-8f45-49616a44181e","system_id":"levelo_inurba_marseille","lat":43.28965,"lon":5.37835,"is_reserved":false,"is_disabled":false,"rental_uris":{"android":"levelo://app?vid=d31897b2-bad5-43fb-8f45-49616a44181e","ios":"levelo://app?vid=d31897b2-bad5-43fb-8f45-49616a44181e"},"vehicle_type_id":"4","last_reported":1731701456,"current_range_meters":22800,"station_id":"ce4bh9p2rcd13ifvqed0","pricing_plan_id":"cebpf4jnsgd1na2vs0mg"},{"bike_id":"5626e7a2-cc8c-4e27-8b85-6724b1d55d1e","system_id":"levelo_inurba_marseille","lat":43.33715,"lon":5.39187,"is_reserved":false,"is_disabled":false,"rental_uris":{"android":"levelo://app?vid=5626e7a2-cc8c-4e27-8b85-6724b1d55d1e","ios":"levelo://app?vid=5626e7a2-cc8c-4e27-8b85-6724b1d55d1e"},"vehicle_type_id":"4","last_reported":1731701456,"current_range_meters":38000,"station_id":"ce4bhr92rcd13ifvqhsg","pricing_plan_id":"cebpf4jnsgd1na2vs0mg"},{"bike_id":"b771a46c-660a-4371-a519-19e5a5daec20","system_id":"levelo_inurba_marseille","lat":43.31158,"lon":5.38714,"is_reserved":false,"is_disabled":false,"rental_uris":{"android":"levelo://app?vid=b771a46c-660a-4371-a519-19e5a5daec20","ios":"levelo://app?vid=b771a46c-660a-4371-a519-19e5a5daec20"},"vehicle_type_id":"4","last_reported":1731701456,"current_range_meters":0,"station_id":"ce4bgv12rcd13ifvqcp0","pricing_plan_id":"cebpf4jnsgd1na2vs0mg"},{"bike_id":"037d1d01-2d7d-4633-aa8f-e9a2f7158ca1","system_id":"levelo_inurba_marseille","lat":43.31685,"lon":5.40478,"is_reserved":false,"is_disabled":false,"rental_uris":{"android":"levelo://app?vid=037d1d01-2d7d-4633-aa8f-e9a2f7158ca1","ios":"levelo://app?vid=037d1d01-2d7d-4633-aa8f-e9a2f7158ca1"},"vehicle_type_id":"4","last_reported":1731701456,"current_range_meters":28400,"station_id":"ce4bh012rcd13ifvqd00","pricing_plan_id":"cebpf4jnsgd1na2vs0mg"},{"bike_id":"03d1db55-50b8-4b7f-aebc-97c9e70bb1be","system_id":"levelo_inurba_marseille","lat":43.31685,"lon":5.40475,"is_reserved":false,"is_disabled":false,"rental_uris":{"android":"levelo://app?vid=03d1db55-50b8-4b7f-aebc-97c9e70bb1be","ios":"levelo://app?vid=03d1db55-50b8-4b7f-aebc-97c9e70bb1be"},"vehicle_type_id":"4","last_reported":1731701456,"current_range_meters":8000,"station_id":"ce4bh012rcd13ifvqd00","pricing_plan_id":"cebpf4jnsgd1na2vs0mg"},{"bike_id":"e1fdae3d-859b-438c-8667-d45338d823a7","system_id":"levelo_inurba_marseille","lat":43.32284,"lon":5.38256,"is_reserved":false,"is_disabled":false,"rental_uris":{"android":"levelo://app?vid=e1fdae3d-859b-438c-8667-d45338d823a7","ios":"levelo://app?vid=e1fdae3d-859b-438c-8667-d45338d823a7"},"vehicle_type_id":"4","last_reported":1731701456,"current_range_meters":38800,"station_id":"ce4bhr12rcd13ifvqhqg","pricing_plan_id":"cebpf4jnsgd1na2vs0mg"},{"bike_id":"6d6992bf-ade3-4a22-a168-306dafdc4544","system_id":"levelo_inurba_marseille","lat":43.2417,"lon":5.36391,"is_reserved":false,"is_disabled":false,"rental_uris":{"android":"levelo://app?vid=6d6992bf-ade3-4a22-a168-306dafdc4544","ios":"levelo://app?vid=6d6992bf-ade3-4a22-a168-306dafdc4544"},"vehicle_type_id":"4","last_reported":1731701456,"current_range_meters":36800,"station_id":"cpo36qri1sfpv3e86is0","pricing_plan_id":"cebpf4jnsgd1na2vs0mg"},{"bike_id":"074c6971-4ae7-4906-8673-1607af29a7e1","system_id":"levelo_inurba_marseille","lat":43.25091,"lon":5.39533,"is_reserved":false,"is_disabled":false,"rental_uris":{"android":"levelo://app?vid=074c6971-4ae7-4906-8673-1607af29a7e1","ios":"levelo://app?vid=074c6971-4ae7-4906-8673-1607af29a7e1"},"vehicle_type_id":"4","last_reported":1731701456,"current_range_meters":36400,"station_id":"ce4bhm12rcd13ifvqgkg","pricing_plan_id":"cebpf4jnsgd1na2vs0mg"},{"bike_id":"20ddaa96-8059-4b0c-a6da-7c38ec03adb5","system_id":"levelo_inurba_marseille","lat":43.29572,"lon":5.37513,"is_reserved":false,"is_disabled":false,"rental_uris":{"android":"levelo://app?vid=20ddaa96-8059-4b0c-a6da-7c38ec03adb5","ios":"levelo://app?vid=20ddaa96-8059-4b0c-a6da-7c38ec03adb5"},"vehicle_type_id":"4","last_reported":1731701456,"current_range_meters":38400,"station_id":"ce4bgh92rcd13ifvqb50","pricing_plan_id":"cebpf4jnsgd1na2vs0mg"},{"bike_id":"9f9b69b4-6bc2-4771-a8dc-e865e22beb9d","system_id":"levelo_inurba_marseille","lat":43.28468,"lon":5.38425,"is_reserved":false,"is_disabled":false,"rental_uris":{"android":"levelo://app?vid=9f9b69b4-6bc2-4771-a8dc-e865e22beb9d","ios":"levelo://app?vid=9f9b69b4-6bc2-4771-a8dc-e865e22beb9d"},"vehicle_type_id":"4","last_reported":1731701456,"current_range_meters":38800,"station_id":"ce4bh512rcd13ifvqe3g","pricing_plan_id":"cebpf4jnsgd1na2vs0mg"},{"bike_id":"eef5d37c-5bfd-4c76-81bd-46afa511c5a9","system_id":"levelo_inurba_marseille","lat":43.33014,"lon":5.39027,"is_reserved":false,"is_disabled":false,"rental_uris":{"android":"levelo://app?vid=eef5d37c-5bfd-4c76-81bd-46afa511c5a9","ios":"levelo://app?vid=eef5d37c-5bfd-4c76-81bd-46afa511c5a9"},"vehicle_type_id":"4","last_reported":1731701456,"current_range_meters":38800,"station_id":"ce4bhr92rcd13ifvqhrg","pricing_plan_id":"cebpf4jnsgd1na2vs0mg"},{"bike_id":"38c07ca3-7a2e-47bf-b138-6534efa21f8b","system_id":"levelo_inurba_marseille","lat":43.31357,"lon":5.38492,"is_reserved":false,"is_disabled":false,"rental_uris":{"android":"levelo://app?vid=38c07ca3-7a2e-47bf-b138-6534efa21f8b","ios":"levelo://app?vid=38c07ca3-7a2e-47bf-b138-6534efa21f8b"},"vehicle_type_id":"4","last_reported":1731701456,"current_range_meters":28800,"station_id":"ce4bgt92rcd13ifvqcf0","pricing_plan_id":"cebpf4jnsgd1na2vs0mg"},{"bike_id":"d5c330c4-6dea-4300-b38a-203587c7b5f5","system_id":"levelo_inurba_marseille","lat":43.29258,"lon":5.38441,"is_reserved":false,"is_disabled":false,"rental_uris":{"android":"levelo://app?vid=d5c330c4-6dea-4300-b38a-203587c7b5f5","ios":"levelo://app?vid=d5c330c4-6dea-4300-b38a-203587c7b5f5"},"vehicle_type_id":"4","last_reported":1731701456,"current_range_meters":25600,"station_id":"ce4bh692rcd13ifvqea0","pricing_plan_id":"cebpf4jnsgd1na2vs0mg"},{"bike_id":"1707cb1e-404f-449a-8ec1-810d24d3f970","system_id":"levelo_inurba_marseille","lat":43.23173,"lon":5.39975,"is_reserved":false,"is_disabled":false,"rental_uris":{"android":"levelo://app?vid=1707cb1e-404f-449a-8ec1-810d24d3f970","ios":"levelo://app?vid=1707cb1e-404f-449a-8ec1-810d24d3f970"},"vehicle_type_id":"4","last_reported":1731701456,"current_range_meters":28800,"station_id":"ce4bhn12rcd13ifvqgqg","pricing_plan_id":"cebpf4jnsgd1na2vs0mg"},{"bike_id":"befa9607-4b1a-47cf-bbdb-e2a16cc6d0e7","system_id":"levelo_inurba_marseille","lat":43.26056,"lon":5.39391,"is_reserved":false,"is_disabled":false,"rental_uris":{"android":"levelo://app?vid=befa9607-4b1a-47cf-bbdb-e2a16cc6d0e7","ios":"levelo://app?vid=befa9607-4b1a-47cf-bbdb-e2a16cc6d0e7"},"vehicle_type_id":"4","last_reported":1731701456,"current_range_meters":26800,"station_id":"ce4bhh92rcd13ifvqfj0","pricing_plan_id":"cebpf4jnsgd1na2vs0mg"},{"bike_id":"ff273380-c91d-4de0-97f4-4e62bfd1e6c1","system_id":"levelo_inurba_marseille","lat":43.29649,"lon":5.37648,"is_reserved":false,"is_disabled":false,"rental_uris":{"android":"levelo://app?vid=ff273380-c91d-4de0-97f4-4e62bfd1e6c1","ios":"levelo://app?vid=ff273380-c91d-4de0-97f4-4e62bfd1e6c1"},"vehicle_type_id":"4","last_reported":1731701456,"current_range_meters":15200,"station_id":"","pricing_plan_id":"cebpf4jnsgd1na2vs0mg"},{"bike_id":"4ee4605c-22f2-4532-b44d-f5fb03fd5142","system_id":"levelo_inurba_marseille","lat":43.30794,"lon":5.43518,"is_reserved":false,"is_disabled":false,"rental_uris":{"android":"levelo://app?vid=4ee4605c-22f2-4532-b44d-f5fb03fd5142","ios":"levelo://app?vid=4ee4605c-22f2-4532-b44d-f5fb03fd5142"},"vehicle_type_id":"4","last_reported":1731701456,"current_range_meters":24000,"station_id":"ce4bhph2rcd13ifvqheg","pricing_plan_id":"cebpf4jnsgd1na2vs0mg"},{"bike_id":"be0ff003-1a66-409b-9f0d-7fd522bff067","system_id":"levelo_inurba_marseille","lat":43.26209,"lon":5.37438,"is_reserved":false,"is_disabled":false,"rental_uris":{"android":"levelo://app?vid=be0ff003-1a66-409b-9f0d-7fd522bff067","ios":"levelo://app?vid=be0ff003-1a66-409b-9f0d-7fd522bff067"},"vehicle_type_id":"4","last_reported":1731701456,"current_range_meters":25200,"station_id":"ce4bhgp2rcd13ifvqfc0","pricing_plan_id":"cebpf4jnsgd1na2vs0mg"},{"bike_id":"5272b2ec-a9ed-416c-a49f-2c6e003fb127","system_id":"levelo_inurba_marseille","lat":43.25115,"lon":5.40312,"is_reserved":false,"is_disabled":false,"rental_uris":{"android":"levelo://app?vid=5272b2ec-a9ed-416c-a49f-2c6e003fb127","ios":"levelo://app?vid=5272b2ec-a9ed-416c-a49f-2c6e003fb127"},"vehicle_type_id":"4","last_reported":1731701456,"current_range_meters":28000,"station_id":"ce4bhlh2rcd13ifvqgig","pricing_plan_id":"cebpf4jnsgd1na2vs0mg"},{"bike_id":"d5ca87ef-1eaf-43ac-b7c5-feab87b033b7","system_id":"levelo_inurba_marseille","lat":43.29416,"lon":5.38624,"is_reserved":false,"is_disabled":false,"rental_uris":{"android":"levelo://app?vid=d5ca87ef-1eaf-43ac-b7c5-feab87b033b7","ios":"levelo://app?vid=d5ca87ef-1eaf-43ac-b7c5-feab87b033b7"},"vehicle_type_id":"4","last_reported":1731701456,"current_range_meters":6000,"station_id":"ce4bh2h2rcd13ifvqdh0","pricing_plan_id":"cebpf4jnsgd1na2vs0mg"},{"bike_id":"ffc56c39-f6da-4d00-bd37-57df1eff0c09","system_id":"levelo_inurba_marseille","lat":43.29416,"lon":5.3862,"is_reserved":false,"is_disabled":false,"rental_uris":{"android":"levelo://app?vid=ffc56c39-f6da-4d00-bd37-57df1eff0c09","ios":"levelo://app?vid=ffc56c39-f6da-4d00-bd37-57df1eff0c09"},"vehicle_type_id":"4","last_reported":1731701456,"current_range_meters":6000,"station_id":"ce4bh2h2rcd13ifvqdh0","pricing_plan_id":"cebpf4jnsgd1na2vs0mg"},{"bike_id":"41866121-0e44-49f7-ac96-b40ec0c14349","system_id":"levelo_inurba_marseille","lat":43.317146,"lon":5.437046,"is_reserved":false,"is_disabled":false,"rental_uris":{"android":"levelo://app?vid=41866121-0e44-49f7-ac96-b40ec0c14349","ios":"levelo://app?vid=41866121-0e44-49f7-ac96-b40ec0c14349"},"vehicle_type_id":"4","last_reported":1731701456,"current_range_meters":12400,"station_id":"ce4bhp92rcd13ifvqhcg","pricing_plan_id":"cebpf4jnsgd1na2vs0mg"},{"bike_id":"33d2cecb-1721-412b-a019-cc221a64400e","system_id":"levelo_inurba_marseille","lat":43.32483,"lon":5.36578,"is_reserved":false,"is_disabled":false,"rental_uris":{"android":"levelo://app?vid=33d2cecb-1721-412b-a019-cc221a64400e","ios":"levelo://app?vid=33d2cecb-1721-412b-a019-cc221a64400e"},"vehicle_type_id":"4","last_reported":1731701456,"current_range_meters":38400,"station_id":"ce4bhs12rcd13ifvqhvg","pricing_plan_id":"cebpf4jnsgd1na2vs0mg"},{"bike_id":"c66ce8f9-c8e2-4cdf-bb34-1b442ee1de03","system_id":"levelo_inurba_marseille","lat":43.29099,"lon":5.38154,"is_reserved":false,"is_disabled":false,"rental_uris":{"android":"levelo://app?vid=c66ce8f9-c8e2-4cdf-bb34-1b442ee1de03","ios":"levelo://app?vid=c66ce8f9-c8e2-4cdf-bb34-1b442ee1de03"},"vehicle_type_id":"4","last_reported":1731701456,"current_range_meters":38800,"station_id":"ce4bh512rcd13ifvqe2g","pricing_plan_id":"cebpf4jnsgd1na2vs0mg"},{"bike_id":"3c83333d-ab0c-4691-9a9a-7fb1d751f8bd","system_id":"levelo_inurba_marseille","lat":43.294189,"lon":5.386301,"is_reserved":false,"is_disabled":false,"rental_uris":{"android":"levelo://app?vid=3c83333d-ab0c-4691-9a9a-7fb1d751f8bd","ios":"levelo://app?vid=3c83333d-ab0c-4691-9a9a-7fb1d751f8bd"},"vehicle_type_id":"4","last_reported":1731701456,"current_range_meters":25600,"station_id":"ce4bh2h2rcd13ifvqdh0","pricing_plan_id":"cebpf4jnsgd1na2vs0mg"},{"bike_id":"b5914c97-297b-4321-833d-7a3a172f11f2","system_id":"levelo_inurba_marseille","lat":43.27839,"lon":5.39211,"is_reserved":false,"is_disabled":false,"rental_uris":{"android":"levelo://app?vid=b5914c97-297b-4321-833d-7a3a172f11f2","ios":"levelo://app?vid=b5914c97-297b-4321-833d-7a3a172f11f2"},"vehicle_type_id":"4","last_reported":1731701456,"current_range_meters":10000,"station_id":"ce4bhjp2rcd13ifvqga0","pricing_plan_id":"cebpf4jnsgd1na2vs0mg"},{"bike_id":"99ef64cb-274b-4df9-be85-b826d8f358f5","system_id":"levelo_inurba_marseille","lat":43.3169,"lon":5.4048,"is_reserved":false,"is_disabled":false,"rental_uris":{"android":"levelo://app?vid=99ef64cb-274b-4df9-be85-b826d8f358f5","ios":"levelo://app?vid=99ef64cb-274b-4df9-be85-b826d8f358f5"},"vehicle_type_id":"4","last_reported":1731701456,"current_range_meters":9200,"station_id":"ce4bh012rcd13ifvqd00","pricing_plan_id":"cebpf4jnsgd1na2vs0mg"},{"bike_id":"b752a634-4d86-4bb7-82e4-8b0bbbdb1e37","system_id":"levelo_inurba_marseille","lat":43.29786,"lon":5.38105,"is_reserved":false,"is_disabled":false,"rental_uris":{"android":"levelo://app?vid=b752a634-4d86-4bb7-82e4-8b0bbbdb1e37","ios":"levelo://app?vid=b752a634-4d86-4bb7-82e4-8b0bbbdb1e37"},