{"last_updated":1726960083,"ttl":30,"version":"2.2","data":{"bikes":[{"bike_id":"6c983da8-5e83-4d39-bd23-28bb1a85d35d","system_id":"levelo_inurba_marseille","lat":43.29976,"lon":5.37172,"is_reserved":false,"is_disabled":false,"rental_uris":{"android":"levelo://app?vid=6c983da8-5e83-4d39-bd23-28bb1a85d35d","ios":"levelo://app?vid=6c983da8-5e83-4d39-bd23-28bb1a85d35d"},"vehicle_type_id":"4","last_reported":1726960083,"current_range_meters":8800,"station_id":"ce4bgr92rcd13ifvqc7g","pricing_plan_id":"cebpf4jnsgd1na2vs0mg"},{"bike_id":"fd84f170-c075-4570-a556-c5e617e29406","system_id":"levelo_inurba_marseille","lat":43.28322,"lon":5.40905,"is_reserved":false,"is_disabled":false,"rental_uris":{"android":"levelo://app?vid=fd84f170-c075-4570-a556-c5e617e29406","ios":"levelo://app?vid=fd84f170-c075-4570-a556-c5e617e29406"},"vehicle_type_id":"4","last_reported":1726960083,"current_range_meters":20400,"station_id":"","pricing_plan_id":"cebpf4jnsgd1na2vs0mg"},{"bike_id":"aac789a5-b870-4344-b0f5-765a335001d6","system_id":"levelo_inurba_marseille","lat":43.2792,"lon":5.39579,"is_reserved":false,"is_disabled":false,"rental_uris":{"android":"levelo://app?vid=aac789a5-b870-4344-b0f5-765a335001d6","ios":"levelo://app?vid=aac789a5-b870-4344-b0f5-765a335001d6"},"vehicle_type_id":"4","last_reported":1726960083,"current_range_meters":38400,"station_id":"ce4bhf92rcd13ifvqf40","pricing_plan_id":"cebpf4jnsgd1na2vs0mg"},{"bike_id":"09ef34b6-482f-4988-9331-10658115e1c1","system_id":"levelo_inurba_marseille","lat":43.3153,"lon":5.38033,"is_reserved":false,"is_disabled":false,"rental_uris":{"android":"levelo://app?vid=09ef34b6-482f-4988-9331-10658115e1c1","ios":"levelo://app?vid=09ef34b6-482f-4988-9331-10658115e1c1"},"vehicle_type_id":"4","last_reported":1726960083,"current_range_meters":20400,"station_id":"ce4bhsp2rcd13ifvqi50","pricing_plan_id":"cebpf4jnsgd1na2vs0mg"},{"bike_id":"05b3d3f0-277c-4707-9e53-54651bbeddc0","system_id":"levelo_inurba_marseille","lat":43.28283,"lon":5.35074,"is_reserved":false,"is_disabled":false,"rental_uris":{"android":"levelo://app?vid=05b3d3f0-277c-4707-9e53-54651bbeddc0","ios":"levelo://app?vid=05b3d3f0-277c-4707-9e53-54651bbeddc0"},"vehicle_type_id":"4","last_reported":1726960083,"current_range_meters":28000,"station_id":"ce4bhbp2rcd13ifvqerg","pricing_plan_id":"cebpf4jnsgd1na2vs0mg"},{"bike_id":"a643492e-5eaa-4d09-a7d3-25007ed87681","system_id":"levelo_inurba_marseille","lat":43.25579,"lon":5.38229,"is_reserved":false,"is_disabled":false,"rental_uris":{"android":"levelo://app?vid=a643492e-5eaa-4d09-a7d3-25007ed87681","ios":"levelo://app?vid=a643492e-5eaa-4d09-a7d3-25007ed87681"},"vehicle_type_id":"4","last_reported":1726960083,"current_range_meters":38800,"station_id":"ce4bhih2rcd13ifvqfs0","pricing_plan_id":"cebpf4jnsgd1na2vs0mg"},{"bike_id":"28945e67-1a6f-4331-b9bc-8faa8d6ac21a","system_id":"levelo_inurba_marseille","lat":43.306061,"lon":5.37224,"is_reserved":false,"is_disabled":false,"rental_uris":{"android":"levelo://app?vid=28945e67-1a6f-4331-b9bc-8faa8d6ac21a","ios":"levelo://app?vid=28945e67-1a6f-4331-b9bc-8faa8d6ac21a"},"vehicle_type_id":"4","last_reported":1726960083,"current_range_meters":24000,"station_id":"ce4bgqh2rcd13ifvqc4g","pricing_plan_id":"cebpf4jnsgd1na2vs0mg"},{"bike_id":"9f38294e-12e2-4aea-b025-0df1d7948b00","system_id":"levelo_inurba_marseille","lat":43.24549,"lon":5.39525,"is_reserved":false,"is_disabled":false,"rental_uris":{"android":"levelo://app?vid=9f38294e-12e2-4aea-b025-0df1d7948b00","ios":"levelo://app?vid=9f38294e-12e2-4aea-b025-0df1d7948b00"},"vehicle_type_id":"4","last_reported":1726960083,"current_range_meters":36000,"station_id":"ce4bhlp2rcd13ifvqgjg","pricing_plan_id":"cebpf4jnsgd1na2vs0mg"},{"bike_id":"34b59753-bea4-4bbc-98c3-8930d2cc79d7","system_id":"levelo_inurba_marseille","lat":43.29558,"lon":5.42292,"is_reserved":false,"is_disabled":false,"rental_uris":{"android":"levelo://app?vid=34b59753-bea4-4bbc-98c3-8930d2cc79d7","ios":"levelo://app?vid=34b59753-bea4-4bbc-98c3-8930d2cc79d7"},"vehicle_type_id":"4","last_reported":1726960083,"current_range_meters":38000,"station_id":"ce4bhph2rcd13ifvqhdg","pricing_plan_id":"cebpf4jnsgd1na2vs0mg"},{"bike_id":"89cdcc83-7aab-4c78-8e76-aa0ccb30eb08","system_id":"levelo_inurba_marseille","lat":43.31714,"lon":5.43708,"is_reserved":false,"is_disabled":false,"rental_uris":{"android":"levelo://app?vid=89cdcc83-7aab-4c78-8e76-aa0ccb30eb08","ios":"levelo://app?vid=89cdcc83-7aab-4c78-8e76-aa0ccb30eb08"},"vehicle_type_id":"4","last_reported":1726960083,"current_range_meters":24400,"station_id":"ce4bhp92rcd13ifvqhcg","pricing_plan_id":"cebpf4jnsgd1na2vs0mg"},{"bike_id":"192ab39d-1d6c-4d0e-92f0-62fa03baae18","system_id":"levelo_inurba_marseille","lat":43.31376,"lon":5.38502,"is_reserved":false,"is_disabled":false,"rental_uris":{"android":"levelo://app?vid=192ab39d-1d6c-4d0e-92f0-62fa03baae18","ios":"levelo://app?vid=192ab39d-1d6c-4d0e-92f0-62fa03baae18"},"vehicle_type_id":"4","last_reported":1726960083,"current_range_meters":17200,"station_id":"ce4bgt92rcd13ifvqcf0","pricing_plan_id":"cebpf4jnsgd1na2vs0mg"},{"bike_id":"fdb98555-9b1e-4aa4-a074-66c6ff4cdde6","system_id":"levelo_inurba_marseille","lat":43.3149,"lon":5.37299,"is_reserved":false,"is_disabled":false,"rental_uris":{"android":"levelo://app?vid=fdb98555-9b1e-4aa4-a074-66c6ff4cdde6","ios":"levelo://app?vid=fdb98555-9b1e-4aa4-a074-66c6ff4cdde6"},"vehicle_type_id":"4","last_reported":1726960083,"current_range_meters":38800,"station_id":"ce4bgt12rcd13ifvqcd0","pricing_plan_id":"cebpf4jnsgd1na2vs0mg"},{"bike_id":"8f8c63c5-4bfa-42e3-a098-389afd659dd3","system_id":"levelo_inurba_marseille","lat":43.29572,"lon":5.39972,"is_reserved":false,"is_disabled":false,"rental_uris":{"android":"levelo://app?vid=8f8c63c5-4bfa-42e3-a098-389afd659dd3","ios":"levelo://app?vid=8f8c63c5-4bfa-42e3-a098-389afd659dd3"},"vehicle_type_id":"4","last_reported":1726960083,"current_range_meters":19600,"station_id":"ce4bh312rcd13ifvqdj0","pricing_plan_id":"cebpf4jnsgd1na2vs0mg"},{"bike_id":"f6153498-302e-48b7-ac4d-b25f8d056815","system_id":"levelo_inurba_marseille","lat":43.29693,"lon":5.37363,"is_reserved":false,"is_disabled":false,"rental_uris":{"android":"levelo://app?vid=f6153498-302e-48b7-ac4d-b25f8d056815","ios":"levelo://app?vid=f6153498-302e-48b7-ac4d-b25f8d056815"},"vehicle_type_id":"4","last_reported":1726960083,"current_range_meters":19600,"station_id":"","pricing_plan_id":"cebpf4jnsgd1na2vs0mg"},{"bike_id":"d7110171-9395-4012-bade-0282d04d79f6","system_id":"levelo_inurba_marseille","lat":43.31364,"lon":5.38503,"is_reserved":false,"is_disabled":false,"rental_uris":{"android":"levelo://app?vid=d7110171-9395-4012-bade-0282d04d79f6","ios":"levelo://app?vid=d7110171-9395-4012-bade-0282d04d79f6"},"vehicle_type_id":"4","last_reported":1726960083,"current_range_meters":39200,"station_id":"ce4bgt92rcd13ifvqcf0","pricing_plan_id":"cebpf4jnsgd1na2vs0mg"},{"bike_id":"797bf7f9-3a34-4b7c-9ca4-f3086ed9d032","system_id":"levelo_inurba_marseille","lat":43.29023,"lon":5.3864,"is_reserved":false,"is_disabled":false,"rental_uris":{"android":"levelo://app?vid=797bf7f9-3a34-4b7c-9ca4-f3086ed9d032","ios":"levelo://app?vid=797bf7f9-3a34-4b7c-9ca4-f3086ed9d032"},"vehicle_type_id":"4","last_reported":1726960083,"current_range_meters":39200,"station_id":"ce4bh4p2rcd13ifvqe0g","pricing_plan_id":"cebpf4jnsgd1na2vs0mg"},{"bike_id":"f1a1b266-38cd-4948-a071-219f89de7e58","system_id":"levelo_inurba_marseille","lat":43.28704,"lon":5.37374,"is_reserved":false,"is_disabled":false,"rental_uris":{"android":"levelo://app?vid=f1a1b266-38cd-4948-a071-219f89de7e58","ios":"levelo://app?vid=f1a1b266-38cd-4948-a071-219f89de7e58"},"vehicle_type_id":"4","last_reported":1726960083,"current_range_meters":39200,"station_id":"ce4bh3p2rcd13ifvqdq0","pricing_plan_id":"cebpf4jnsgd1na2vs0mg"},{"bike_id":"29c3801a-7b4c-47aa-a6ad-d81b447de9a5","system_id":"levelo_inurba_marseille","lat":43.30424,"lon":5.41282,"is_reserved":false,"is_disabled":false,"rental_uris":{"android":"levelo://app?vid=29c3801a-7b4c-47aa-a6ad-d81b447de9a5","ios":"levelo://app?vid=29c3801a-7b4c-47aa-a6ad-d81b447de9a5"},"vehicle_type_id":"4","last_reported":1726960083,"current_range_meters":28000,"station_id":"ce4bhop2rcd13ifvqh8g","pricing_plan_id":"cebpf4jnsgd1na2vs0mg"},{"bike_id":"dd61549d-48e7-4a71-a4b7-6d238de3a967","system_id":"levelo_inurba_marseille","lat":43.28346,"lon":5.38099,"is_reserved":false,"is_disabled":false,"rental_uris":{"android":"levelo://app?vid=dd61549d-48e7-4a71-a4b7-6d238de3a967","ios":"levelo://app?vid=dd61549d-48e7-4a71-a4b7-6d238de3a967"},"vehicle_type_id":"4","last_reported":1726960083,"current_range_meters":20000,"station_id":"ce4bh412rcd13ifvqdr0","pricing_plan_id":"cebpf4jnsgd1na2vs0mg"},{"bike_id":"b9043ee7-1b51-4205-a7f8-061a93eb7c50","system_id":"levelo_inurba_marseille","lat":43.3189,"lon":5.4073,"is_reserved":false,"is_disabled":false,"rental_uris":{"android":"levelo://app?vid=b9043ee7-1b51-4205-a7f8-061a93eb7c50","ios":"levelo://app?vid=b9043ee7-1b51-4205-a7f8-061a93eb7c50"},"vehicle_type_id":"4","last_reported":1726960083,"current_range_meters":39200,"station_id":"ce4bhq12rcd13ifvqhig","pricing_plan_id":"cebpf4jnsgd1na2vs0mg"},{"bike_id":"3c168981-3815-461f-893b-90b4ce403053","system_id":"levelo_inurba_marseille","lat":43.25867,"lon":5.39895,"is_reserved":false,"is_disabled":false,"rental_uris":{"android":"levelo://app?vid=3c168981-3815-461f-893b-90b4ce403053","ios":"levelo://app?vid=3c168981-3815-461f-893b-90b4ce403053"},"vehicle_type_id":"4","last_reported":1726960083,"current_range_meters":27600,"station_id":"ce4bhl92rcd13ifvqghg","pricing_plan_id":"cebpf4jnsgd1na2vs0mg"},{"bike_id":"20a042f1-81aa-4cde-8548-4f002e395336","system_id":"levelo_inurba_marseille","lat":43.30931,"lon":5.40153,"is_reserved":false,"is_disabled":false,"rental_uris":{"android":"levelo://app?vid=20a042f1-81aa-4cde-8548-4f002e395336","ios":"levelo://app?vid=20a042f1-81aa-4cde-8548-4f002e395336"},"vehicle_type_id":"4","last_reported":1726960083,"current_range_meters":38800,"station_id":"ce4bgvp2rcd13ifvqct0","pricing_plan_id":"cebpf4jnsgd1na2vs0mg"},{"bike_id":"3f3a1968-161c-4281-9dac-b1f6f3f79cd0","system_id":"levelo_inurba_marseille","lat":43.27494,"lon":5.42449,"is_reserved":false,"is_disabled":false,"rental_uris":{"android":"levelo://app?vid=3f3a1968-161c-4281-9dac-b1f6f3f79cd0","ios":"levelo://app?vid=3f3a1968-161c-4281-9dac-b1f6f3f79cd0"},"vehicle_type_id":"4","last_reported":1726960083,"current_range_meters":19200,"station_id":"ce4bhn92rcd13ifvqgrg","pricing_plan_id":"cebpf4jnsgd1na2vs0mg"},{"bike_id":"db0871a2-4011-460b-a315-33d8d8b57d85","system_id":"levelo_inurba_marseille","lat":43.29558,"lon":5.42282,"is_reserved":false,"is_disabled":false,"rental_uris":{"android":"levelo://app?vid=db0871a2-4011-460b-a315-33d8d8b57d85","ios":"levelo://app?vid=db0871a2-4011-460b-a315-33d8d8b57d85"},"vehicle_type_id":"4","last_reported":1726960083,"current_range_meters":30800,"station_id":"ce4bhph2rcd13ifvqhdg","pricing_plan_id":"cebpf4jnsgd1na2vs0mg"},{"bike_id":"cf92ce99-a4fb-4cfb-9548-f2da4ea07951","system_id":"levelo_inurba_marseille","lat":43.30197,"lon":5.36627,"is_reserved":false,"is_disabled":false,"rental_uris":{"android":"levelo://app?vid=cf92ce99-a4fb-4cfb-9548-f2da4ea07951","ios":"levelo://app?vid=cf92ce99-a4fb-4cfb-9548-f2da4ea07951"},"vehicle_type_id":"4","last_reported":1726960083,"current_range_meters":29600,"station_id":"ce4bgrh2rcd13ifvqc8g","pricing_plan_id":"cebpf4jnsgd1na2vs0mg"},{"bike_id":"769aa380-47af-43dd-aae0-a3742784d091","system_id":"levelo_inurba_marseille","lat":43.29513,"lon":5.39398,"is_reserved":false,"is_disabled":false,"rental_uris":{"android":"levelo://app?vid=769aa380-47af-43dd-aae0-a3742784d091","ios":"levelo://app?vid=769aa380-47af-43dd-aae0-a3742784d091"},"vehicle_type_id":"4","last_reported":1726960083,"current_range_meters":27200,"station_id":"ce4bh292rcd13ifvqdf0","pricing_plan_id":"cebpf4jnsgd1na2vs0mg"},{"bike_id":"ebabfaca-3986-4d00-be3b-c82a93b1fd1c","system_id":"levelo_inurba_marseille","lat":43.31382,"lon":5.38498,"is_reserved":false,"is_disabled":false,"rental_uris":{"android":"levelo://app?vid=ebabfaca-3986-4d00-be3b-c82a93b1fd1c","ios":"levelo://app?vid=ebabfaca-3986-4d00-be3b-c82a93b1fd1c"},"vehicle_type_id":"4","last_reported":1726960083,"current_range_meters":8400,"station_id":"ce4bgt92rcd13ifvqcf0","pricing_plan_id":"cebpf4jnsgd1na2vs0mg"},{"bike_id":"62d1882c-a800-4e22-a2f4-dfbdf75c7337","system_id":"levelo_inurba_marseille","lat":43.31368,"lon":5.38502,"is_reserved":false,"is_disabled":false,"rental_uris":{"android":"levelo://app?vid=62d1882c-a800-4e22-a2f4-dfbdf75c7337","ios":"levelo://app?vid=62d1882c-a800-4e22-a2f4-dfbdf75c7337"},"vehicle_type_id":"4","last_reported":1726960083,"current_range_meters":36400,"station_id":"ce4bgt92rcd13ifvqcf0","pricing_plan_id":"cebpf4jnsgd1na2vs0mg"},{"bike_id":"765fcc44-248d-45e5-95bf-89cb71612a65","system_id":"levelo_inurba_marseille","lat":43.29254,"lon":5.40908,"is_reserved":false,"is_disabled":false,"rental_uris":{"android":"levelo://app?vid=765fcc44-248d-45e5-95bf-89cb71612a65","ios":"levelo://app?vid=765fcc44-248d-45e5-95bf-89cb71612a65"},"vehicle_type_id":"4","last_reported":1726960083,"current_range_meters":32800,"station_id":"ce4bh192rcd13ifvqdc0","pricing_plan_id":"cebpf4jnsgd1na2vs0mg"},{"bike_id":"b4be7ef9-49d5-42a8-8c8f-611d7e773b28","system_id":"levelo_inurba_marseille","lat":43.312286,"lon":5.368638,"is_reserved":false,"is_disabled":false,"rental_uris":{"android":"levelo://app?vid=b4be7ef9-49d5-42a8-8c8f-611d7e773b28","ios":"levelo://app?vid=b4be7ef9-49d5-42a8-8c8f-611d7e773b28"},"vehicle_type_id":"4","last_reported":1726960083,"current_range_meters":24800,"station_id":"ce4bgl92rcd13ifvqbq0","pricing_plan_id":"cebpf4jnsgd1na2vs0mg"},{"bike_id":"cfda1d30-9e72-459e-b052-6118a1998ffc","system_id":"levelo_inurba_marseille","lat":43.3266,"lon":5.40994,"is_reserved":false,"is_disabled":false,"rental_uris":{"android":"levelo://app?vid=cfda1d30-9e72-459e-b052-6118a1998ffc","ios":"levelo://app?vid=cfda1d30-9e72-459e-b052-6118a1998ffc"},"vehicle_type_id":"4","last_reported":1726960083,"current_range_meters":39200,"station_id":"ce4bhpp2rcd13ifvqhgg","pricing_plan_id":"cebpf4jnsgd1na2vs0mg"},{"bike_id":"fce2583f-d181-4213-bc60-59986246c80f","system_id":"levelo_inurba_marseille","lat":43.31364,"lon":5.38502,"is_reserved":false,"is_disabled":false,"rental_uris":{"android":"levelo://app?vid=fce2583f-d181-4213-bc60-59986246c80f","ios":"levelo://app?vid=fce2583f-d181-4213-bc60-59986246c80f"},"vehicle_type_id":"4","last_reported":1726960083,"current_range_meters":9200,"station_id":"ce4bgt92rcd13ifvqcf0","pricing_plan_id":"cebpf4jnsgd1na2vs0mg"},{"bike_id":"92888caa-2365-44ae-94c7-445388f2bb38","system_id":"levelo_inurba_marseille","lat":43.2998,"lon":5.37177,"is_reserved":false,"is_disabled":false,"rental_uris":{"android":"levelo://app?vid=92888caa-2365-44ae-94c7-445388f2bb38","ios":"levelo://app?vid=92888caa-2365-44ae-94c7-445388f2bb38"},"vehicle_type_id":"4","last_reported":1726960083,"current_range_meters":6400,"station_id":"ce4bgr92rcd13ifvqc7g","pricing_plan_id":"cebpf4jnsgd1na2vs0mg"},{"bike_id":"6419325f-76c1-4392-9dbc-8446db0b27c5","system_id":"levelo_inurba_marseille","lat":43.30271,"lon":5.38383,"is_reserved":false,"is_disabled":false,"rental_uris":{"android":"levelo://app?vid=6419325f-76c1-4392-9dbc-8446db0b27c5","ios":"levelo://app?vid=6419325f-76c1-4392-9dbc-8446db0b27c5"},"vehicle_type_id":"4","last_reported":1726960083,"current_range_meters":19200,"station_id":"","pricing_plan_id":"cebpf4jnsgd1na2vs0mg"},{"bike_id":"fe6f06e3-532c-4b69-ba49-0d605444bd5f","system_id":"levelo_inurba_marseille","lat":43.29912,"lon":5.37474,"is_reserved":false,"is_disabled":false,"rental_uris":{"android":"levelo://app?vid=fe6f06e3-532c-4b69-ba49-0d605444bd5f","ios":"levelo://app?vid=fe6f06e3-532c-4b69-ba49-0d605444bd5f"},"vehicle_type_id":"4","last_reported":1726960083,"current_range_meters":39200,"station_id":"ce4bgjh2rcd13ifvqbg0","pricing_plan_id":"cebpf4jnsgd1na2vs0mg"},{"bike_id":"3ac4ff59-d6f9-4444-978f-307b63dc0507","system_id":"levelo_inurba_marseille","lat":43.287281,"lon":5.388616,"is_reserved":false,"is_disabled":false,"rental_uris":{"android":"levelo://app?vid=3ac4ff59-d6f9-4444-978f-307b63dc0507","ios":"levelo://app?vid=3ac4ff59-d6f9-4444-978f-307b63dc0507"},"vehicle_type_id":"4","last_reported":1726960083,"current_range_meters":6800,"station_id":"","pricing_plan_id":"cebpf4jnsgd1na2vs0mg"},{"bike_id":"2abfd0da-52ff-49fd-a5cb-a8f4dd818089","system_id":"levelo_inurba_marseille","lat":43.28158,"lon":5.42653,"is_reserved":false,"is_disabled":false,"rental_uris":{"android":"levelo://app?vid=2abfd0da-52ff-49fd-a5cb-a8f4dd818089","ios":"levelo://app?vid=2abfd0da-52ff-49fd-a5cb-a8f4dd818089"},"vehicle_type_id":"4","last_reported":1726960083,"current_range_meters":38800,"station_id":"ce4bhnh2rcd13ifvqgug","pricing_plan_id":"cebpf4jnsgd1na2vs0mg"},{"bike_id":"edfb1ff5-b81b-4225-8da9-100a9115b1e3","system_id":"levelo_inurba_marseille","lat":43.29735,"lon":5.36561,"is_reserved":false,"is_disabled":false,"rental_uris":{"android":"levelo://app?vid=edfb1ff5-b81b-4225-8da9-100a9115b1e3","ios":"levelo://app?vid=edfb1ff5-b81b-4225-8da9-100a9115b1e3"},"vehicle_type_id":"4","last_reported":1726960083,"current_range_meters":6400,"station_id":"","pricing_plan_id":"cebpf4jnsgd1na2vs0mg"},{"bike_id":"d7f55d81-6ff8-469d-8c1a-cfa4397979cf","system_id":"levelo_inurba_marseille","lat":43.29285,"lon":5.3744,"is_reserved":false,"is_disabled":false,"rental_uris":{"android":"levelo://app?vid=d7f55d81-6ff8-469d-8c1a-cfa4397979cf","ios":"levelo://app?vid=d7f55d81-6ff8-469d-8c1a-cfa4397979cf"},"vehicle_type_id":"4","last_reported":1726960083,"current_range_meters":28400,"station_id":"ce4bgi12rcd13ifvqb70","pricing_plan_id":"cebpf4jnsgd1na2vs0mg"},{"bike_id":"fb6934fd-0f84-475c-a266-0c68b4eaf556","system_id":"levelo_inurba_marseille","lat":43.284188,"lon":5.375047,"is_reserved":false,"is_disabled":false,"rental_uris":{"android":"levelo://app?vid=fb6934fd-0f84-475c-a266-0c68b4eaf556","ios":"levelo://app?vid=fb6934fd-0f84-475c-a266-0c68b4eaf556"},"vehicle_type_id":"4","last_reported":1726960083,"current_range_meters":22000,"station_id":"ce4bh412rcd13ifvqds0","pricing_plan_id":"cebpf4jnsgd1na2vs0mg"},{"bike_id":"d7548774-83fd-461b-93ed-a3d21bdd0279","system_id":"levelo_inurba_marseille","lat":43.29973,"lon":5.3718,"is_reserved":false,"is_disabled":false,"rental_uris":{"android":"levelo://app?vid=d7548774-83fd-461b-93ed-a3d21bdd0279","ios":"levelo://app?vid=d7548774-83fd-461b-93ed-a3d21bdd0279"},"vehicle_type_id":"4","last_reported":1726960083,"current_range_meters":24800,"station_id":"ce4bgr92rcd13ifvqc7g","pricing_plan_id":"cebpf4jnsgd1na2vs0mg"},{"bike_id":"1e36dc23-aa9d-4cac-91fc-380ccf78f185","system_id":"levelo_inurba_marseille","lat":43.29872,"lon":5.3973,"is_reserved":false,"is_disabled":false,"rental_uris":{"android":"levelo://app?vid=1e36dc23-aa9d-4cac-91fc-380ccf78f185","ios":"levelo://app?vid=1e36dc23-aa9d-4cac-91fc-380ccf78f185"},"vehicle_type_id":"4","last_reported":1726960083,"current_range_meters":39200,"station_id":"ce4bh0h2rcd13ifvqd50","pricing_plan_id":"cebpf4jnsgd1na2vs0mg"},{"bike_id":"631488bc-ca0a-465d-b540-dc0fc292dcb4","system_id":"levelo_inurba_marseille","lat":43.31366,"lon":5.385,"is_reserved":false,"is_disabled":false,"rental_uris":{"android":"levelo://app?vid=631488bc-ca0a-465d-b540-dc0fc292dcb4","ios":"levelo://app?vid=631488bc-ca0a-465d-b540-dc0fc292dcb4"},"vehicle_type_id":"4","last_reported":1726960083,"current_range_meters":18800,"station_id":"ce4bgt92rcd13ifvqcf0","pricing_plan_id":"cebpf4jnsgd1na2vs0mg"},{"bike_id":"6f003448-7068-454d-86b3-2e3d1719b984","system_id":"levelo_inurba_marseille","lat":43.30414,"lon":5.38853,"is_reserved":false,"is_disabled":false,"rental_uris":{"android":"levelo://app?vid=6f003448-7068-454d-86b3-2e3d1719b984","ios":"levelo://app?vid=6f003448-7068-454d-86b3-2e3d1719b984"},"vehicle_type_id":"4","last_reported":1726960083,"current_range_meters":30400,"station_id":"ce4bgk12rcd13ifvqbi0","pricing_plan_id":"cebpf4jnsgd1na2vs0mg"},{"bike_id":"b249283a-eb5c-4a0c-b026-6affa081eeeb","system_id":"levelo_inurba_marseille","lat":43.30132,"lon":5.38779,"is_reserved":false,"is_disabled":false,"rental_uris":{"android":"levelo://app?vid=b249283a-eb5c-4a0c-b026-6affa081eeeb","ios":"levelo://app?vid=b249283a-eb5c-4a0c-b026-6affa081eeeb"},"vehicle_type_id":"4","last_reported":1726960083,"current_range_meters":6400,"station_id":"ce4bghh2rcd13ifvqb60","pricing_plan_id":"cebpf4jnsgd1na2vs0mg"},{"bike_id":"eb51972c-e901-47c9-aa4c-bb287b81e5fb","system_id":"levelo_inurba_marseille","lat":43.31757,"lon":5.3902,"is_reserved":false,"is_disabled":false,"rental_uris":{"android":"levelo://app?vid=eb51972c-e901-47c9-aa4c-bb287b81e5fb","ios":"levelo://app?vid=eb51972c-e901-47c9-aa4c-bb287b81e5fb"},"vehicle_type_id":"4","last_reported":1726960083,"current_range_meters":39200,"station_id":"ce4bhqp2rcd13ifvqhng","pricing_plan_id":"cebpf4jnsgd1na2vs0mg"},{"bike_id":"9b270c0b-276d-47a0-b1ea-db76f7a1e4e2","system_id":"levelo_inurba_marseille","lat":43.27375,"lon":5.36254,"is_reserved":false,"is_disabled":false,"rental_uris":{"android":"levelo://app?vid=9b270c0b-276d-47a0-b1ea-db76f7a1e4e2","ios":"levelo://app?vid=9b270c0b-276d-47a0-b1ea-db76f7a1e4e2"},"vehicle_type_id":"4","last_reported":1726960083,"current_range_meters":39200,"station_id":"ce4bhbh2rcd13ifvqeo0","pricing_plan_id":"cebpf4jnsgd1na2vs0mg"},{"bike_id":"03bad859-4358-4bb4-9b18-007f8463f1b5","system_id":"levelo_inurba_marseille","lat":43.23183,"lon":5.39992,"is_reserved":false,"is_disabled":false,"rental_uris":{"android":"levelo://app?vid=03bad859-4358-4bb4-9b18-007f8463f1b5","ios":"levelo://app?vid=03bad859-4358-4bb4-9b18-007f8463f1b5"},"vehicle_type_id":"4","last_reported":1726960083,"current_range_meters":36000,"station_id":"ce4bhn12rcd13ifvqgqg","pricing_plan_id":"cebpf4jnsgd1na2vs0mg"},{"bike_id":"72893abd-c62a-46e9-b638-e54ec5476bce","system_id":"levelo_inurba_marseille","lat":43.30415,"lon":5.41283,"is_reserved":false,"is_disabled":false,"rental_uris":{"android":"levelo://app?vid=72893abd-c62a-46e9-b638-e54ec5476bce","ios":"levelo://app?vid=72893abd-c62a-46e9-b638-e54ec5476bce"},"vehicle_type_id":"4","last_reported":1726960083,"current_range_meters":26000,"station_id":"ce4bhop2rcd13ifvqh8g","pricing_plan_id":"cebpf4jnsgd1na2vs0mg"},{"bike_id":"ea219450-0551-484e-bdfc-3c198bec9523","system_id":"levelo_inurba_marseille","lat":43.25871,"lon":5.39897,"is_reserved":false,"is_disabled":false,"rental_uris":{"android":"levelo://app?vid=ea219450-0551-484e-bdfc-3c198bec9523","ios":"levelo://app?vid=ea219450-0551-484e-bdfc-3c198bec9523"},"vehicle_type_id":"4","last_reported":1726960083,"current_range_meters":24800,"station_id":"ce4bhl92rcd13ifvqghg","pricing_plan_id":"cebpf4jnsgd1na2vs0mg"},{"bike_id":"1acee133-f313-4d90-8b46-80ddf8fa5494","system_id":"levelo_inurba_marseille","lat":43.24658,"lon":5.38895,"is_reserved":false,"is_disabled":false,"rental_uris":{"android":"levelo://app?vid=1acee133-f313-4d90-8b46-80ddf8fa5494","ios":"levelo://app?vid=1acee133-f313-4d90-8b46-80ddf8fa5494"},"vehicle_type_id":"4","last_reported":1726960083,"current_range_meters":12400,"station_id":"ce4bhg12rcd13ifvqf60","pricing_plan_id":"cebpf4jnsgd1na2vs0mg"},{"bike_id":"f0653a7d-ee4b-47ef-87ab-99f603cee044","system_id":"levelo_inurba_marseille","lat":43.2956,"lon":5.42291,"is_reserved":false,"is_disabled":false,"rental_uris":{"android":"levelo://app?vid=f0653a7d-ee4b-47ef-87ab-99f603cee044","ios":"levelo://app?vid=f0653a7d-ee4b-47ef-87ab-99f603cee044"},"vehicle_type_id":"4","last_reported":1726960083,"current_range_meters":16000,"station_id":"ce4bhph2rcd13ifvqhdg","pricing_plan_id":"cebpf4jnsgd1na2vs0mg"},{"bike_id":"d3c8bcf3-ce9a-45dd-8fb2-5e123cc5d07b","system_id":"levelo_inurba_marseille","lat":43.3024,"lon":5.40062,"is_reserved":false,"is_disabled":false,"rental_uris":{"android":"levelo://app?vid=d3c8bcf3-ce9a-45dd-8fb2-5e123cc5d07b","ios":"levelo://app?vid=d3c8bcf3-ce9a-45dd-8fb2-5e123cc5d07b"},"vehicle_type_id":"4","last_reported":1726960083,"current_range_meters":14800,"station_id":"ce4bgvh2rcd13ifvqcs0","pricing_plan_id":"cebpf4jnsgd1na2vs0mg"},{"bike_id":"ac42eb2a-831f-44d6-9e0b-81838770d7a8","system_id":"levelo_inurba_marseille","lat":43.30432,"lon":5.38884,"is_reserved":false,"is_disabled":false,"rental_uris":{"android":"levelo://app?vid=ac42eb2a-831f-44d6-9e0b-81838770d7a8","ios":"levelo://app?vid=ac42eb2a-831f-44d6-9e0b-81838770d7a8"},"vehicle_type_id":"4","last_reported":1726960083,"current_range_meters":38000,"station_id":"ce4bgk12rcd13ifvqbi0","pricing_plan_id":"cebpf4jnsgd1na2vs0mg"},{"bike_id":"73c7be31-c09e-4d3b-a821-d101f9423d42","system_id":"levelo_inurba_marseille","lat":43.2952,"lon":5.39399,"is_reserved":false,"is_disabled":false,"rental_uris":{"android":"levelo://app?vid=73c7be31-c09e-4d3b-a821-d101f9423d42","ios":"levelo://app?vid=73c7be31-c09e-4d3b-a821-d101f9423d42"},"vehicle_type_id":"4","last_reported":1726960083,"current_range_meters":24000,"station_id":"ce4bh292rcd13ifvqdf0","pricing_plan_id":"cebpf4jnsgd1na2vs0mg"},{"bike_id":"4ae60b0d-a4d2-489b-9c5b-4575b3e2dfc3","system_id":"levelo_inurba_marseille","lat":43.23967,"lon":5.36629,"is_reserved":false,"is_disabled":false,"rental_uris":{"android":"levelo://app?vid=4ae60b0d-a4d2-489b-9c5b-4575b3e2dfc3","ios":"levelo://app?vid=4ae60b0d-a4d2-489b-9c5b-4575b3e2dfc3"},"vehicle_type_id":"4","last_reported":1726960083,"current_range_meters":22000,"station_id":"ce4bhi12rcd13ifvqfp0","pricing_plan_id":"cebpf4jnsgd1na2vs0mg"},{"bike_id":"b8551741-31d4-463a-9ee0-5ca196eb1a9b","system_id":"levelo_inurba_marseille","lat":43.30315,"lon":5.36904,"is_reserved":false,"is_disabled":false,"rental_uris":{"android":"levelo://app?vid=b8551741-31d4-463a-9ee0-5ca196eb1a9b","ios":"levelo://app?vid=b8551741-31d4-463a-9ee0-5ca196eb1a9b"},"vehicle_type_id":"4","last_reported":1726960083,"current_range_meters":39200,"station_id":"ce4bgqh2rcd13ifvqc5g","pricing_plan_id":"cebpf4jnsgd1na2vs0mg"},{"bike_id":"d0c4130d-b4cc-4fdc-a74a-2a4a57298361","system_id":"levelo_inurba_marseille","lat":43.29197,"lon":5.39326,"is_reserved":false,"is_disabled":false,"rental_uris":{"android":"levelo://app?vid=d0c4130d-b4cc-4fdc-a74a-2a4a57298361","ios":"levelo://app?vid=d0c4130d-b4cc-4fdc-a74a-2a4a57298361"},"vehicle_type_id":"4","last_reported":1726960083,"current_range_meters":10000,"station_id":"ce4bh192rcd13ifvqdd0","pricing_plan_id":"cebpf4jnsgd1na2vs0mg"},{"bike_id":"38c4787b-3262-4750-bd86-0d940a72a75e","system_id":"levelo_inurba_marseille","lat":43.28433,"lon":5.39183,"is_reserved":false,"is_disabled":false,"rental_uris":{"android":"levelo://app?vid=38c4787b-3262-4750-bd86-0d940a72a75e","ios":"levelo://app?vid=38c4787b-3262-4750-bd86-0d940a72a75e"},"vehicle_type_id":"4","last_reported":1726960083,"current_range_meters":27600,"station_id":"ce4bhoh2rcd13ifvqh5g","pricing_plan_id":"cebpf4jnsgd1na2vs0mg"},{"bike_id":"34feade1-d183-43eb-bd1c-66275da496da","system_id":"levelo_inurba_marseille","lat":43.29983,"lon":5.37176,"is_reserved":false,"is_disabled":false,"rental_uris":{"android":"levelo://app?vid=34feade1-d183-43eb-bd1c-66275da496da","ios":"levelo://app?vid=34feade1-d183-43eb-bd1c-66275da496da"},"vehicle_type_id":"4","last_reported":1726960083,"current_range_meters":38800,"station_id":"ce4bgr92rcd13ifvqc7g","pricing_plan_id":"cebpf4jnsgd1na2vs0mg"},{"bike_id":"54b7f973-33ed-4b77-bfc3-7847058bc7a6","system_id":"levelo_inurba_marseille","lat":43.31727,"lon":5.42404,"is_reserved":false,"is_disabled":false,"rental_uris":{"android":"levelo://app?vid=54b7f973-33ed-4b77-bfc3-7847058bc7a6","ios":"levelo://app?vid=54b7f973-33ed-4b77-bfc3-7847058bc7a6"},"vehicle_type_id":"4","last_reported":1726960083,"current_range_meters":39200,"station_id":"ce4bhp92rcd13ifvqhbg","pricing_plan_id":"cebpf4jnsgd1na2vs0mg"},{"bike_id":"324838dc-eded-4141-be86-0d69b3166d8a","system_id":"levelo_inurba_marseille","lat":43.23456,"lon":5.381,"is_reserved":false,"is_disabled":false,"rental_uris":{"android":"levelo://app?vid=324838dc-eded-4141-be86-0d69b3166d8a","ios":"levelo://app?vid=324838dc-eded-4141-be86-0d69b3166d8a"},"vehicle_type_id":"4","last_reported":1726960083,"current_range_meters":10800,"station_id":"","pricing_plan_id":"cebpf4jnsgd1na2vs0mg"},{"bike_id":"eb9f67ff-4867-449f-b00d-9cbb0674363e","system_id":"levelo_inurba_marseille","lat":43.29033,"lon":5.38119,"is_reserved":false,"is_disabled":false,"rental_uris":{"android":"levelo://app?vid=eb9f67ff-4867-449f-b00d-9cbb0674363e","ios":"levelo://app?vid=eb9f67ff-4867-449f-b00d-9cbb0674363e"},"vehicle_type_id":"4","last_reported":1726960083,"current_range_meters":38800,"station_id":"ce4bh4p2rcd13ifvqe1g","pricing_plan_id":"cebpf4jnsgd1na2vs0mg"},{"bike_id":"423f020e-2129-42e2-848b-369681b4cc36","system_id":"levelo_inurba_marseille","lat":43.29193,"lon":5.39316,"is_reserved":false,"is_disabled":false,"rental_uris":{"android":"levelo://app?vid=423f020e-2129-42e2-848b-369681b4cc36","ios":"levelo://app?vid=423f020e-2129-42e2-848b-369681b4cc36"},"vehicle_type_id":"4","last_reported":1726960083,"current_range_meters":39200,"station_id":"ce4bh192rcd13ifvqdd0","pricing_plan_id":"cebpf4jnsgd1na2vs0mg"},{"bike_id":"5419b1bf-d37c-4076-a34c-52ede101758e","system_id":"levelo_inurba_marseille","lat":43.337444,"lon":5.374475,"is_reserved":false,"is_disabled":false,"rental_uris":{"android":"levelo://app?vid=5419b1bf-d37c-4076-a34c-52ede101758e","ios":"levelo://app?vid=5419b1bf-d37c-4076-a34c-52ede101758e"},"vehicle_type_id":"4","last_reported":1726960083,"current_range_meters":30800,"station_id":"","pricing_plan_id":"cebpf4jnsgd1na2vs0mg"},{"bike_id":"7bcdaccf-a697-4456-bc71-ff9f60492078","system_id":"levelo_inurba_marseille","lat":43.27671,"lon":5.38879,"is_reserved":false,"is_disabled":false,"rental_uris":{"android":"levelo://app?vid=7bcdaccf-a697-4456-bc71-ff9f60492078","ios":"levelo://app?vid=7bcdaccf-a697-4456-bc71-ff9f60492078"},"vehicle_type_id":"4","last_reported":1726960083,"current_range_meters":2800,"station_id":"ce4bhi12rcd13ifvqfo0","pricing_plan_id":"cebpf4jnsgd1na2vs0mg"},{"bike_id":"013a1a54-8c71-4d7d-ad66-178705a1f09a","system_id":"levelo_inurba_marseille","lat":43.2587,"lon":5.39898,"is_reserved":false,"is_disabled":false,"rental_uris":{"android":"levelo://app?vid=013a1a54-8c71-4d7d-ad66-178705a1f09a","ios":"levelo://app?vid=013a1a54-8c71-4d7d-ad66-178705a1f09a"},"vehicle_type_id":"4","last_reported":1726960083,"current_range_meters":39200,"station_id":"ce4bhl92rcd13ifvqghg","pricing_plan_id":"cebpf4jnsgd1na2vs0mg"},{"bike_id":"3d11801b-4666-46ed-99aa-aabfb05b911e","system_id":"levelo_inurba_marseille","lat":43.31988,"lon":5.3815,"is_reserved":false,"is_disabled":false,"rental_uris":{"android":"levelo://app?vid=3d11801b-4666-46ed-99aa-aabfb05b911e","ios":"levelo://app?vid=3d11801b-4666-46ed-99aa-aabfb05b911e"},"vehicle_type_id":"4","last_reported":1726960083,"current_range_meters":40000,"station_id":"ce4bhr12rcd13ifvqhpg","pricing_plan_id":"cebpf4jnsgd1na2vs0mg"},{"bike_id":"dff99519-3ce6-4a7d-8583-6caabe4fa6d0","system_id":"levelo_inurba_marseille","lat":43.281158,"lon":5.378467,"is_reserved":false,"is_disabled":false,"rental_uris":{"android":"levelo://app?vid=dff99519-3ce6-4a7d-8583-6caabe4fa6d0","ios":"levelo://app?vid=dff99519-3ce6-4a7d-8583-6caabe4fa6d0"},"vehicle_type_id":"4","last_reported":1726960083,"current_range_meters":11200,"station_id":"ce4bh0p2rcd13ifvqd80","pricing_plan_id":"cebpf4jnsgd1na2vs0mg"},{"bike_id":"0789c753-7296-4e61-9942-17d9551f6f04","system_id":"levelo_inurba_marseille","lat":43.29093,"lon":5.38142,"is_reserved":false,"is_disabled":false,"rental_uris":{"android":"levelo://app?vid=0789c753-7296-4e61-9942-17d9551f6f04","ios":"levelo://app?vid=0789c753-7296-4e61-9942-17d9551f6f04"},"vehicle_type_id":"4","last_reported":1726960083,"current_range_meters":38800,"station_id":"ce4bh512rcd13ifvqe2g","pricing_plan_id":"cebpf4jnsgd1na2vs0mg"},{"bike_id":"470259e3-b1c4-4a86-b9be-ae3f1006b367","system_id":"levelo_inurba_marseille","lat":43.3133,"lon":5.39703,"is_reserved":false,"is_disabled":false,"rental_uris":{"android":"levelo://app?vid=470259e3-b1c4-4a86-b9be-ae3f1006b367","ios":"levelo://app?vid=470259e3-b1c4-4a86-b9be-ae3f1006b367"},"vehicle_type_id":"4","last_reported":1726960083,"current_range_meters":39200,"station_id":"ce4bgvp2rcd13ifvqcu0","pricing_plan_id":"cebpf4jnsgd1na2vs0mg"},{"bike_id":"c26e9c00-e11a-49ce-8d19-ce45b61b3f51","system_id":"levelo_inurba_marseille","lat":43.31071,"lon":5.38339,"is_reserved":false,"is_disabled":false,"rental_uris":{"android":"levelo://app?vid=c26e9c00-e11a-49ce-8d19-ce45b61b3f51","ios":"levelo://app?vid=c26e9c00-e11a-49ce-8d19-ce45b61b3f51"},"vehicle_type_id":"4","last_reported":1726960083,"current_range_meters":9200,"station_id":"ce4bgv92rcd13ifvqcr0","pricing_plan_id":"cebpf4jnsgd1na2vs0mg"},{"bike_id":"6e2fd8fb-799c-468d-a60b-38d2bf81aa37","system_id":"levelo_inurba_marseille","lat":43.23965,"lon":5.36621,"is_reserved":false,"is_disabled":false,"rental_uris":{"android":"levelo://app?vid=6e2fd8fb-799c-468d-a60b-38d2bf81aa37","ios":"levelo://app?vid=6e2fd8fb-799c-468d-a60b-38d2bf81aa37"},"vehicle_type_id":"4","last_reported":1726960083,"current_range_meters":37600,"station_id":"ce4bhi12rcd13ifvqfp0","pricing_plan_id":"cebpf4jnsgd1na2vs0mg"},{"bike_id":"5f970973-f4f4-4937-9fbe-7af0359838f0","system_id":"levelo_inurba_marseille","lat":43.32337,"lon":5.40623,"is_reserved":false,"is_disabled":false,"rental_uris":{"android":"levelo://app?vid=5f970973-f4f4-4937-9fbe-7af0359838f0","ios":"levelo://app?vid=5f970973-f4f4-4937-9fbe-7af0359838f0"},"vehicle_type_id":"4","last_reported":1726960083,"current_range_meters":28800,"station_id":"ce4bhq92rcd13ifvqhjg","pricing_plan_id":"cebpf4jnsgd1na2vs0mg"},{"bike_id":"f59f9f07-2020-454d-8f62-ca65292624a4","system_id":"levelo_inurba_marseille","lat":43.31334,"lon":5.39705,"is_reserved":false,"is_disabled":false,"rental_uris":{"android":"levelo://app?vid=f59f9f07-2020-454d-8f62-ca65292624a4","ios":"levelo://app?vid=f59f9f07-2020-454d-8f62-ca65292624a4"},"vehicle_type_id":"4","last_reported":1726960083,"current_range_meters":38400,"station_id":"ce4bgvp2rcd13ifvqcu0","pricing_plan_id":"cebpf4jnsgd1na2vs0mg"},{"bike_id":"4a9091f0-d040-4566-98c6-4467a353e86e","system_id":"levelo_inurba_marseille","lat":43.25866,"lon":5.39896,"is_reserved":false,"is_disabled":false,"rental_uris":{"android":"levelo://app?vid=4a9091f0-d040-4566-98c6-4467a353e86e","ios":"levelo://app?vid=4a9091f0-d040-4566-98c6-4467a353e86e"},"vehicle_type_id":"4","last_reported":1726960083,"current_range_meters":7200,"station_id":"ce4bhl92rcd13ifvqghg","pricing_plan_id":"cebpf4jnsgd1na2vs0mg"},{"bike_id":"4d6f1b65-a95d-4510-bfbf-2bbf8ac25c86","system_id":"levelo_inurba_marseille","lat":43.31529,"lon":5.38027,"is_reserved":false,"is_disabled":false,"rental_uris":{"android":"levelo://app?vid=4d6f1b65-a95d-4510-bfbf-2bbf8ac25c86","ios":"levelo://app?vid=4d6f1b65-a95d-4510-bfbf-2bbf8ac25c86"},"vehicle_type_id":"4","last_reported":1726960083,"current_range_meters":34000,"station_id":"ce4bhsp2rcd13ifvqi50","pricing_plan_id":"cebpf4jnsgd1na2vs0mg"},{"bike_id":"6d3676a2-69dc-4d73-a5bc-b779365eea08","system_id":"levelo_inurba_marseille","lat":43.29537,"lon":5.39397,"is_reserved":false,"is_disabled":false,"rental_uris":{"android":"levelo://app?vid=6d3676a2-69dc-4d73-a5bc-b779365eea08","ios":"levelo://app?vid=6d3676a2-69dc-4d73-a5bc-b779365eea08"},"vehicle_type_id":"4","last_reported":1726960083,"current_range_meters":6400,"station_id":"ce4bh292rcd13ifvqdf0","pricing_plan_id":"cebpf4jnsgd1na2vs0mg"},{"bike_id":"f196cae4-4da8-4191-8e3a-3f8fcdaa11a6","system_id":"levelo_inurba_marseille","lat":43.31074,"lon":5.38363,"is_reserved":false,"is_disabled":false,"rental_uris":{"android":"levelo://app?vid=f196cae4-4da8-4191-8e3a-3f8fcdaa11a6","ios":"levelo://app?vid=f196cae4-4da8-4191-8e3a-3f8fcdaa11a6"},"vehicle_type_id":"4","last_reported":1726960083,"current_range_meters":36400,"station_id":"ce4bgv92rcd13ifvqcr0","pricing_plan_id":"cebpf4jnsgd1na2vs0mg"},{"bike_id":"d45967ed-8556-4fdd-b155-3dd503464baa","system_id":"levelo_inurba_marseille","lat":43.29561,"lon":5.42296,"is_reserved":false,"is_disabled":false,"rental_uris":{"android":"levelo://app?vid=d45967ed-8556-4fdd-b155-3dd503464baa","ios":"levelo://app?vid=d45967ed-8556-4fdd-b155-3dd503464baa"},"vehicle_type_id":"4","last_reported":1726960083,"current_range_meters":20000,"station_id":"ce4bhph2rcd13ifvqhdg","pricing_plan_id":"cebpf4jnsgd1na2vs0mg"},{"bike_id":"149779fc-bc45-458a-857f-33707eedaf6a","system_id":"levelo_inurba_marseille","lat":43.23198,"lon":5.35555,"is_reserved":false,"is_disabled":false,"rental_uris":{"android":"levelo://app?vid=149779fc-bc45-458a-857f-33707eedaf6a","ios":"levelo://app?vid=149779fc-bc45-458a-857f-33707eedaf6a"},"vehicle_type_id":"4","last_reported":1726960083,"current_range_meters":18000,"station_id":"ce4bhu92rcd13ifvqi70","pricing_plan_id":"cebpf4jnsgd1na2vs0mg"},{"bike_id":"adea4142-201e-4d62-8b5f-c33b95d4ba3b","system_id":"levelo_inurba_marseille","lat":43.29424,"lon":5.39752,"is_reserved":false,"is_disabled":false,"rental_uris":{"android":"levelo://app?vid=adea4142-201e-4d62-8b5f-c33b95d4ba3b","ios":"levelo://app?vid=adea4142-201e-4d62-8b5f-c33b95d4ba3b"},"vehicle_type_id":"4","last_reported":1726960083,"current_range_meters":39200,"station_id":"ce4bh3h2rcd13ifvqdo0","pricing_plan_id":"cebpf4jnsgd1na2vs0mg"},{"bike_id":"61a9b8a7-9ccd-441e-9f1c-f2b68a748f3f","system_id":"levelo_inurba_marseille","lat":43.26485,"lon":5.39548,"is_reserved":false,"is_disabled":false,"rental_uris":{"android":"levelo://app?vid=61a9b8a7-9ccd-441e-9f1c-f2b68a748f3f","ios":"levelo://app?vid=61a9b8a7-9ccd-441e-9f1c-f2b68a748f3f"},"vehicle_type_id":"4","last_reported":1726960083,"current_range_meters":38800,"station_id":"ce4bhi12rcd13ifvqfq0","pricing_plan_id":"cebpf4jnsgd1na2vs0mg"},{"bike_id":"6937374d-4b18-4b2b-aca0-836151556e44","system_id":"levelo_inurba_marseille","lat":43.241302,"lon":5.378714,"is_reserved":false,"is_disabled":false,"rental_uris":{"android":"levelo://app?vid=6937374d-4b18-4b2b-aca0-836151556e44","ios":"levelo://app?vid=6937374d-4b18-4b2b-aca0-836151556e44"},"vehicle_type_id":"4","last_reported":1726960083,"current_range_meters":38000,"station_id":"ce4bhnp2rcd13ifvqgvg","pricing_plan_id":"cebpf4jnsgd1na2vs0mg"},{"bike_id":"9c953aea-1601-4259-a38b-3d5e06643e05","system_id":"levelo_inurba_marseille","lat":43.27621,"lon":5.36109,"is_reserved":false,"is_disabled":false,"rental_uris":{"android":"levelo://app?vid=9c953aea-1601-4259-a38b-3d5e06643e05","ios":"levelo://app?vid=9c953aea-1601-4259-a38b-3d5e06643e05"},"vehicle_type_id":"4","last_reported":1726960083,"current_range_meters":38800,"station_id":"ce4bgj92rcd13ifvqbe0","pricing_plan_id":"cebpf4jnsgd1na2vs0mg"},{"bike_id":"039d98d7-7c59-426e-931f-998890f6dd69","system_id":"levelo_inurba_marseille","lat":43.23152,"lon":5.43713,"is_reserved":false,"is_disabled":false,"rental_uris":{"android":"levelo://app?vid=039d98d7-7c59-426e-931f-998890f6dd69","ios":"levelo://app?vid=039d98d7-7c59-426e-931f-998890f6dd69"},"vehicle_type_id":"4","last_reported":1726960083,"current_range_meters":9200,"station_id":"ce4bhmp2rcd13ifvqgog","pricing_plan_id":"cebpf4jnsgd1na2vs0mg"},{"bike_id":"d1a7c670-84be-4413-83a8-34963ddc1e32","system_id":"levelo_inurba_marseille","lat":43.29959,"lon":5.41318,"is_reserved":false,"is_disabled":false,"rental_uris":{"android":"levelo://app?vid=d1a7c670-84be-4413-83a8-34963ddc1e32","ios":"levelo://app?vid=d1a7c670-84be-4413-83a8-34963ddc1e32"},"vehicle_type_id":"4","last_reported":1726960083,"current_range_meters":38000,"station_id":"ce4bhp12rcd13ifvqh9g","pricing_plan_id":"cebpf4jnsgd1na2vs0mg"},{"bike_id":"3029a821-4f09-426b-9136-c97c9c0dcd3a","system_id":"levelo_inurba_marseille","lat":43.26492,"lon":5.39557,"is_reserved":false,"is_disabled":false,"rental_uris":{"android":"levelo://app?vid=3029a821-4f09-426b-9136-c97c9c0dcd3a","ios":"levelo://app?vid=3029a821-4f09-426b-9136-c97c9c0dcd3a"},"vehicle_type_id":"4","last_reported":1726960083,"current_range_meters":38800,"station_id":"ce4bhi12rcd13ifvqfq0","pricing_plan_id":"cebpf4jnsgd1na2vs0mg"},{"bike_id":"c7881626-2436-4186-85f5-d9d06c60a31e","system_id":"levelo_inurba_marseille","lat":43.31491,"lon":5.37311,"is_reserved":false,"is_disabled":false,"rental_uris":{"android":"levelo://app?vid=c7881626-2436-4186-85f5-d9d06c60a31e","ios":"levelo://app?vid=c7881626-2436-4186-85f5-d9d06c60a31e"},"vehicle_type_id":"4","last_reported":1726960083,"current_range_meters":25200,"station_id":"ce4bgt12rcd13ifvqcd0","pricing_plan_id":"cebpf4jnsgd1na2vs0mg"},{"bike_id":"604c9531-be4f-4974-bfe2-bd7828d7386f","system_id":"levelo_inurba_marseille","lat":43.29896,"lon":5.4367,"is_reserved":false,"is_disabled":false,"rental_uris":{"android":"levelo://app?vid=604c9531-be4f-4974-bfe2-bd7828d7386f","ios":"levelo://app?vid=604c9531-be4f-4974-bfe2-bd7828d7386f"},"vehicle_type_id":"4","last_reported":1726960083,"current_range_meters":20800,"station_id":"ce4bhpp2rcd13ifvqhfg","pricing_plan_id":"cebpf4jnsgd1na2vs0mg"},{"bike_id":"1f3a3473-3fe1-47b2-88c5-6d07c135debc","system_id":"levelo_inurba_marseille","lat":43.29516,"lon":5.39037,"is_reserved":false,"is_disabled":false,"rental_uris":{"android":"levelo://app?vid=1f3a3473-3fe1-47b2-88c5-6d07c135debc","ios":"levelo://app?vid=1f3a3473-3fe1-47b2-88c5-6d07c135debc"},"vehicle_type_id":"4","last_reported":1726960083,"current_range_meters":38000,"station_id":"ce4bh3p2rcd13ifvqdp0","pricing_plan_id":"cebpf4jnsgd1na2vs0mg"},{"bike_id":"b56bf66c-a563-43fb-beea-fd31c9167817","system_id":"levelo_inurba_marseille","lat":43.30152,"lon":5.37418,"is_reserved":false,"is_disabled":false,"rental_uris":{"android":"levelo://app?vid=b56bf66c-a563-43fb-beea-fd31c9167817","ios":"levelo://app?vid=b56bf66c-a563-43fb-beea-fd31c9167817"},"vehicle_type_id":"4","last_reported":1726960083,"current_range_meters":39200,"station_id":"ce4bgs92rcd13ifvqcc0","pricing_plan_id":"cebpf4jnsgd1na2vs0mg"},{"bike_id":"dffd4f54-b346-4788-86ea-8f518e84719a","system_id":"levelo_inurba_marseille","lat":43.31892,"lon":5.40737,"is_reserved":false,"is_disabled":false,"rental_uris":{"android":"levelo://app?vid=dffd4f54-b346-4788-86ea-8f518e84719a","ios":"levelo://app?vid=dffd4f54-b346-4788-86ea-8f518e84719a"},"vehicle_type_id":"4","last_reported":1726960083,"current_range_meters":23200,"station_id":"ce4bhq12rcd13ifvqhig","pricing_plan_id":"cebpf4jnsgd1na2vs0mg"},{"bike_id":"5f8017fd-2854-4d54-a61e-9ecbd726ccc2","system_id":"levelo_inurba_marseille","lat":43.27837,"lon":5.39206,"is_reserved":false,"is_disabled":false,"rental_uris":{"android":"levelo://app?vid=5f8017fd-2854-4d54-a61e-9ecbd726ccc2","ios":"levelo://app?vid=5f8017fd-2854-4d54-a61e-9ecbd726ccc2"},"vehicle_type_id":"4","last_reported":1726960083,"current_range_meters":23200,"station_id":"ce4bhjp2rcd13ifvqga0","pricing_plan_id":"cebpf4jnsgd1na2vs0mg"},{"bike_id":"90d8a09e-2181-4187-81ec-24698bc4e496","system_id":"levelo_inurba_marseille","lat":43.28702,"lon":5.39978,"is_reserved":false,"is_disabled":false,"rental_uris":{"android":"levelo://app?vid=90d8a09e-2181-4187-81ec-24698bc4e496","ios":"levelo://app?vid=90d8a09e-2181-4187-81ec-24698bc4e496"},"vehicle_type_id":"4","last_reported":1726960083,"current_range_meters":22800,"station_id":"ce4bho92rcd13ifvqh3g","pricing_plan_id":"cebpf4jnsgd1na2vs0mg"},{"bike_id":"2571b01e-c23b-4645-9fb5-0f68e38a0041","system_id":"levelo_inurba_marseille","lat":43.30936,"lon":5.40145,"is_reserved":false,"is_disabled":false,"rental_uris":{"android":"levelo://app?vid=2571b01e-c23b-4645-9fb5-0f68e38a0041","ios":"levelo://app?vid=2571b01e-c23b-4645-9fb5-0f68e38a0041"},"vehicle_type_id":"4","last_reported":1726960083,"current_range_meters":24400,"station_id":"ce4bgvp2rcd13ifvqct0","pricing_plan_id":"cebpf4jnsgd1na2vs0mg"},{"bike_id":"7c45df27-7ef6-468e-b331-208ce3ceb575","system_id":"levelo_inurba_marseille","lat":43.29533,"lon":5.3854,"is_reserved":false,"is_disabled":false,"rental_uris":{"android":"levelo://app?vid=7c45df27-7ef6-468e-b331-208ce3ceb575","ios":"levelo://app?vid=7c45df27-7ef6-468e-b331-208ce3ceb575"},"vehicle_type_id":"4","last_reported":1726960083,"current_range_meters":34000,"station_id":"ce4bh3p2rcd13ifvqdq0","pricing_plan_id":"cebpf4jnsgd1na2vs0mg"},{"bike_id":"82b80d90-efee-4d08-bb62-a4010aa341d2","system_id":"levelo_inurba_marseille","lat":43.305917,"lon":5.393635,"is_reserved":false,"is_disabled":false,"rental_uris":{"android":"levelo://app?vid=82b80d90-efee-4d08-bb62-a4010aa341d2","ios":"levelo://app?vid=82b80d90-efee-4d08-bb62-a4010aa341d2"},"vehicle_type_id":"4","last_reported":1726960083,"current_range_meters":20400,"station_id":"ce4bgup2rcd13ifvqco0","pricing_plan_id":"cebpf4jnsgd1na2vs0mg"},{"bike_id":"97f3b290-84c6-4932-8cf2-83c9b90d4817","system_id":"levelo_inurba_marseille","lat":43.24997,"lon":5.38936,"is_reserved":false,"is_disabled":false,"rental_uris":{"android":"levelo://app?vid=97f3b290-84c6-4932-8cf2-83c9b90d4817","ios":"levelo://app?vid=97f3b290-84c6-4932-8cf2-83c9b90d4817"},"vehicle_type_id":"4","last_reported":1726960083,"current_range_meters":4400,"station_id":"ce4bhgp2rcd13ifvqfd0","pricing_plan_id":"cebpf4jnsgd1na2vs0mg"},{"bike_id":"189444ec-2794-4930-a7b3-661e38ee257c","system_id":"levelo_inurba_marseille","lat":43.24166,"lon":5.36388,"is_reserved":false,"is_disabled":false,"rental_uris":{"android":"levelo://app?vid=189444ec-2794-4930-a7b3-661e38ee257c","ios":"levelo://app?vid=189444ec-2794-4930-a7b3-661e38ee257c"},"vehicle_type_id":"4","last_reported":1726960083,"current_range_meters":24000,"station_id":"cpo36qri1sfpv3e86is0","pricing_plan_id":"cebpf4jnsgd1na2vs0mg"},{"bike_id":"a8d42cf3-65fd-4e73-93d7-47142c435399","system_id":"levelo_inurba_marseille","lat":43.34386,"lon":5.4084,"is_reserved":false,"is_disabled":false,"rental_uris":{"android":"levelo://app?vid=a8d42cf3-65fd-4e73-93d7-47142c435399","ios":"levelo://app?vid=a8d42cf3-65fd-4e73-93d7-47142c435399"},"vehicle_type_id":"4","last_reported":1726960083,"current_range_meters":24800,"station_id":"","pricing_plan_id":"cebpf4jnsgd1na2vs0mg"},{"bike_id":"affeab95-004c-4559-a39d-9d9c7e294ed6","system_id":"levelo_inurba_marseille","lat":43.24178,"lon":5.39732,"is_reserved":false,"is_disabled":false,"rental_uris":{"android":"levelo://app?vid=affeab95-004c-4559-a39d-9d9c7e294ed6","ios":"levelo://app?vid=affeab95-004c-4559-a39d-9d9c7e294ed6"},"vehicle_type_id":"4","last_reported":1726960083,"current_range_meters":8400,"station_id":"ce4bhn12rcd13ifvqgpg","pricing_plan_id":"cebpf4jnsgd1na2vs0mg"},{"bike_id":"2747e2c1-9ef7-4c7f-b359-70679c357edc","system_id":"levelo_inurba_marseille","lat":43.33024,"lon":5.39044,"is_reserved":false,"is_disabled":false,"rental_uris":{"android":"levelo://app?vid=2747e2c1-9ef7-4c7f-b359-70679c357edc","ios":"levelo://app?vid=2747e2c1-9ef7-4c7f-b359-70679c357edc"},"vehicle_type_id":"4","last_reported":1726960083,"current_range_meters":32800,"station_id":"ce4bhr92rcd13ifvqhrg","pricing_plan_id":"cebpf4jnsgd1na2vs0mg"},{"bike_id":"ca6cfcad-1e5e-46e0-bcbd-4d4375771e42","system_id":"levelo_inurba_marseille","lat":43.29441,"lon":5.39748,"is_reserved":false,"is_disabled":false,"rental_uris":{"android":"levelo://app?vid=ca6cfcad-1e5e-46e0-bcbd-4d4375771e42","ios":"levelo://app?vid=ca6cfcad-1e5e-46e0-bcbd-4d4375771e42"},"vehicle_type_id":"4","last_reported":1726960083,"current_range_meters":30800,"station_id":"ce4bh3h2rcd13ifvqdo0","pricing_plan_id":"cebpf4jnsgd1na2vs0mg"},{"bike_id":"221210ad-c544-48ba-a377-690ee81a77ca","system_id":"levelo_inurba_marseille","lat":43.28721,"lon":5.3794,"is_reserved":false,"is_disabled":false,"rental_uris":{"android":"levelo://app?vid=221210ad-c544-48ba-a377-690ee81a77ca","ios":"levelo://app?vid=221210ad-c544-48ba-a377-690ee81a77ca"},"vehicle_type_id":"4","last_reported":1726960083,"current_range_meters":20800,"station_id":"ce4bh9p2rcd13ifvqec0","pricing_plan_id":"cebpf4jnsgd1na2vs0mg"},{"bike_id":"eb0e566e-7d71-4cc0-bc76-de33a9fd73a8","system_id":"levelo_inurba_marseille","lat":43.23189,"lon":5.35547,"is_reserved":false,"is_disabled":false,"rental_uris":{"android":"levelo://app?vid=eb0e566e-7d71-4cc0-bc76-de33a9fd73a8","ios":"levelo://app?vid=eb0e566e-7d71-4cc0-bc76-de33a9fd73a8"},"vehicle_type_id":"4","last_reported":1726960083,"current_range_meters":38800,"station_id":"ce4bhu92rcd13ifvqi70","pricing_plan_id":"cebpf4jnsgd1na2vs0mg"},{"bike_id":"6922abe7-0799-44bc-8bb7-c59742963b7b","system_id":"levelo_inurba_marseille","lat":43.28682,"lon":5.3997,"is_reserved":false,"is_disabled":false,"rental_uris":{"android":"levelo://app?vid=6922abe7-0799-44bc-8bb7-c59742963b7b","ios":"levelo://app?vid=6922abe7-0799-44bc-8bb7-c59742963b7b"},"vehicle_type_id":"4","last_reported":1726960083,"current_range_meters":22800,"station_id":"ce4bho92rcd13ifvqh3g","pricing_plan_id":"cebpf4jnsgd1na2vs0mg"},{"bike_id":"25f9ca0e-ee16-446e-8126-381cccc02458","system_id":"levelo_inurba_marseille","lat":43.31331,"lon":5.39691,"is_reserved":false,"is_disabled":false,"rental_uris":{"android":"levelo://app?vid=25f9ca0e-ee16-446e-8126-381cccc02458","ios":"levelo://app?vid=25f9ca0e-ee16-446e-8126-381cccc02458"},"vehicle_type_id":"4","last_reported":1726960083,"current_range_meters":28400,"station_id":"ce4bgvp2rcd13ifvqcu0","pricing_plan_id":"cebpf4jnsgd1na2vs0mg"},{"bike_id":"04999a37-2436-4404-8c16-cd85cf9b7a10","system_id":"levelo_inurba_marseille","lat":43.33024,"lon":5.39045,"is_reserved":false,"is_disabled":false,"rental_uris":{"android":"levelo://app?vid=04999a37-2436-4404-8c16-cd85cf9b7a10","ios":"levelo://app?vid=04999a37-2436-4404-8c16-cd85cf9b7a10"},"vehicle_type_id":"4","last_reported":1726960083,"current_range_meters":38800,"station_id":"ce4bhr92rcd13ifvqhrg","pricing_plan_id":"cebpf4jnsgd1na2vs0mg"},{"bike_id":"c90889c6-4c61-48f2-b140-89043e514d7b","system_id":"levelo_inurba_marseille","lat":43.2594,"lon":5.409,"is_reserved":false,"is_disabled":false,"rental_uris":{"android":"levelo://app?vid=c90889c6-4c61-48f2-b140-89043e514d7b","ios":"levelo://app?vid=c90889c6-4c61-48f2-b140-89043e514d7b"},"vehicle_type_id":"4","last_reported":1726960083,"current_range_meters":4400,"station_id":"ce4bhm92rcd13ifvqglg","pricing_plan_id":"cebpf4jnsgd1na2vs0mg"},{"bike_id":"b9ed473c-04e3-4cf6-84bf-28bfa3738b26","system_id":"levelo_inurba_marseille","lat":43.26217,"lon":5.37448,"is_reserved":false,"is_disabled":false,"rental_uris":{"android":"levelo://app?vid=b9ed473c-04e3-4cf6-84bf-28bfa3738b26","ios":"levelo://app?vid=b9ed473c-04e3-4cf6-84bf-28bfa3738b26"},"vehicle_type_id":"4","last_reported":1726960083,"current_range_meters":30400,"station_id":"","pricing_plan_id":"cebpf4jnsgd1na2vs0mg"},{"bike_id":"ac7aac9d-d5b2-4a0b-a4ac-3081ed6eabeb","system_id":"levelo_inurba_marseille","lat":43.29434,"lon":5.39752,"is_reserved":false,"is_disabled":false,"rental_uris":{"android":"levelo://app?vid=ac7aac9d-d5b2-4a0b-a4ac-3081ed6eabeb","ios":"levelo://app?vid=ac7aac9d-d5b2-4a0b-a4ac-3081ed6eabeb"},"vehicle_type_id":"4","last_reported":1726960083,"current_range_meters":16400,"station_id":"ce4bh3h2rcd13ifvqdo0","pricing_plan_id":"cebpf4jnsgd1na2vs0mg"},{"bike_id":"f23dc631-c722-4468-ba44-e9f53d7f19cd","system_id":"levelo_inurba_marseille","lat":43.28721,"lon":5.36091,"is_reserved":false,"is_disabled":false,"rental_uris":{"android":"levelo://app?vid=f23dc631-c722-4468-ba44-e9f53d7f19cd","ios":"levelo://app?vid=f23dc631-c722-4468-ba44-e9f53d7f19cd"},"vehicle_type_id":"4","last_reported":1726960083,"current_range_meters":4000,"station_id":"cki0cbj6b192h4jlfktg","pricing_plan_id":"cebpf4jnsgd1na2vs0mg"},{"bike_id":"5d991e98-79d5-4dc0-9a6a-d2306ad42c9d","system_id":"levelo_inurba_marseille","lat":43.29572,"lon":5.42267,"is_reserved":false,"is_disabled":false,"rental_uris":{"android":"levelo://app?vid=5d991e98-79d5-4dc0-9a6a-d2306ad42c9d","ios":"levelo://app?vid=5d991e98-79d5-4dc0-9a6a-d2306ad42c9d"},"vehicle_type_id":"4","last_reported":1726960083,"current_range_meters":40000,"station_id":"ce4bhph2rcd13ifvqhdg","pricing_plan_id":"cebpf4jnsgd1na2vs0mg"},{"bike_id":"3588ed4b-a839-4c36-8772-3fa913acb2d5","system_id":"levelo_inurba_marseille","lat":43.30329,"lon":5.40436,"is_reserved":false,"is_disabled":false,"rental_uris":{"android":"levelo://app?vid=3588ed4b-a839-4c36-8772-3fa913acb2d5","ios":"levelo://app?vid=3588ed4b-a839-4c36-8772-3fa913acb2d5"},"vehicle_type_id":"4","last_reported":1726960083,"current_range_meters":38800,"station_id":"ce4bh012rcd13ifvqd10","pricing_plan_id":"cebpf4jnsgd1na2vs0mg"},{"bike_id":"e5a1c0e7-6dbe-4fc0-91d4-a39431861126","system_id":"levelo_inurba_marseille","lat":43.26941,"lon":5.40252,"is_reserved":false,"is_disabled":false,"rental_uris":{"android":"levelo://app?vid=e5a1c0e7-6dbe-4fc0-91d4-a39431861126","ios":"levelo://app?vid=e5a1c0e7-6dbe-4fc0-91d4-a39431861126"},"vehicle_type_id":"4","last_reported":1726960083,"current_range_meters":39200,"station_id":"cjm6bp8fraef2m0cb0m0","pricing_plan_id":"cebpf4jnsgd1na2vs0mg"},{"bike_id":"db3e6781-6aaf-49ab-a69b-f951f8ee4f70","system_id":"levelo_inurba_marseille","lat":43.31375,"lon":5.38501,"is_reserved":false,"is_disabled":false,"rental_uris":{"android":"levelo://app?vid=db3e6781-6aaf-49ab-a69b-f951f8ee4f70","ios":"levelo://app?vid=db3e6781-6aaf-49ab-a69b-f951f8ee4f70"},"vehicle_type_id":"4","last_reported":1726960083,"current_range_meters":33200,"station_id":"ce4bgt92rcd13ifvqcf0","pricing_plan_id":"cebpf4jnsgd1na2vs0mg"},{"bike_id":"7b9dd459-340b-4978-bfb0-6c163a5263e8","system_id":"levelo_inurba_marseille","lat":43.23193,"lon":5.35547,"is_reserved":false,"is_disabled":false,"rental_uris":{"android":"levelo://app?vid=7b9dd459-340b-4978-bfb0-6c163a5263e8","ios":"levelo://app?vid=7b9dd459-340b-4978-bfb0-6c163a5263e8"},"vehicle_type_id":"4","last_reported":1726960083,"current_range_meters":39200,"station_id":"ce4bhu92rcd13ifvqi70","pricing_plan_id":"cebpf4jnsgd1na2vs0mg"},{"bike_id":"29b855c6-6850-450a-8464-ea1d36666abe","system_id":"levelo_inurba_marseille","lat":43.26955,"lon":5.38629,"is_reserved":false,"is_disabled":false,"rental_uris":{"android":"levelo://app?vid=29b855c6-6850-450a-8464-ea1d36666abe","ios":"levelo://app?vid=29b855c6-6850-450a-8464-ea1d36666abe"},"vehicle_type_id":"4","last_reported":1726960083,"current_range_meters":30000,"station_id":"ce4bhh92rcd13ifvqfh0","pricing_plan_id":"cebpf4jnsgd1na2vs0mg"},{"bike_id":"9eb342ac-6683-4b0e-9068-9b33551dfa85","system_id":"levelo_inurba_marseille","lat":43.27375,"lon":5.36248,"is_reserved":false,"is_disabled":false,"rental_uris":{"android":"levelo://app?vid=9eb342ac-6683-4b0e-9068-9b33551dfa85","ios":"levelo://app?vid=9eb342ac-6683-4b0e-9068-9b33551dfa85"},"vehicle_type_id":"4","last_reported":1726960083,"current_range_meters":39200,"station_id":"ce4bhbh2rcd13ifvqeo0","pricing_plan_id":"cebpf4jnsgd1na2vs0mg"},{"bike_id":"4d0b0c31-bba7-4fcb-872f-26cec37fccb3","system_id":"levelo_inurba_marseille","lat":43.27617,"lon":5.3612,"is_reserved":false,"is_disabled":false,"rental_uris":{"android":"levelo://app?vid=4d0b0c31-bba7-4fcb-872f-26cec37fccb3","ios":"levelo://app?vid=4d0b0c31-bba7-4fcb-872f-26cec37fccb3"},"vehicle_type_id":"4","last_reported":1726960083,"current_range_meters":38800,"station_id":"ce4bgj92rcd13ifvqbe0","pricing_plan_id":"cebpf4jnsgd1na2vs0mg"},{"bike_id":"82596a06-ff6c-4fb5-be3f-fd6ac5718f7c","system_id":"levelo_inurba_marseille","lat":43.31335,"lon":5.397,"is_reserved":false,"is_disabled":false,"rental_uris":{"android":"levelo://app?vid=82596a06-ff6c-4fb5-be3f-fd6ac5718f7c","ios":"levelo://app?vid=82596a06-ff6c-4fb5-be3f-fd6ac5718f7c"},"vehicle_type_id":"4","last_reported":1726960083,"current_range_meters":22800,"station_id":"ce4bgvp2rcd13ifvqcu0","pricing_plan_id":"cebpf4jnsgd1na2vs0mg"},{"bike_id":"b89430d4-c788-4bb8-9453-baeb00ece028","system_id":"levelo_inurba_marseille","lat":43.25573,"lon":5.38232,"is_reserved":false,"is_disabled":false,"rental_uris":{"android":"levelo://app?vid=b89430d4-c788-4bb8-9453-baeb00ece028","ios":"levelo://app?vid=b89430d4-c788-4bb8-9453-baeb00ece028"},"vehicle_type_id":"4","last_reported":1726960083,"current_range_meters":38800,"station_id":"ce4bhih2rcd13ifvqfs0","pricing_plan_id":"cebpf4jnsgd1na2vs0mg"},{"bike_id":"695aecc5-47eb-42b6-b509-bb05dd03a93d","system_id":"levelo_inurba_marseille","lat":43.28352,"lon":5.38099,"is_reserved":false,"is_disabled":false,"rental_uris":{"android":"levelo://app?vid=695aecc5-47eb-42b6-b509-bb05dd03a93d","ios":"levelo://app?vid=695aecc5-47eb-42b6-b509-bb05dd03a93d"},"vehicle_type_id":"4","last_reported":1726960083,"current_range_meters":10000,"station_id":"ce4bh412rcd13ifvqdr0","pricing_plan_id":"cebpf4jnsgd1na2vs0mg"},{"bike_id":"36ea34aa-955a-48e2-b4cd-0defaa557440","system_id":"levelo_inurba_marseille","lat":43.29441,"lon":5.39756,"is_reserved":false,"is_disabled":false,"rental_uris":{"android":"levelo://app?vid=36ea34aa-955a-48e2-b4cd-0defaa557440","ios":"levelo://app?vid=36ea34aa-955a-48e2-b4cd-0defaa557440"},"vehicle_type_id":"4","last_reported":1726960083,"current_range_meters":3200,"station_id":"ce4bh3h2rcd13ifvqdo0","pricing_plan_id":"cebpf4jnsgd1na2vs0mg"},{"bike_id":"7f2c3b52-767b-41f4-8d00-ece76b9ce578","system_id":"levelo_inurba_marseille","lat":43.28484,"lon":5.38411,"is_reserved":false,"is_disabled":false,"rental_uris":{"android":"levelo://app?vid=7f2c3b52-767b-41f4-8d00-ece76b9ce578","ios":"levelo://app?vid=7f2c3b52-767b-41f4-8d00-ece76b9ce578"},"vehicle_type_id":"4","last_reported":1726960083,"current_range_meters":28800,"station_id":"ce4bh512rcd13ifvqe3g","pricing_plan_id":"cebpf4jnsgd1na2vs0mg"},{"bike_id":"71aa8592-ddf7-4343-aed4-c00d3433340f","system_id":"levelo_inurba_marseille","lat":43.337444,"lon":5.374475,"is_reserved":false,"is_disabled":false,"rental_uris":{"android":"levelo://app?vid=71aa8592-ddf7-4343-aed4-c00d3433340f","ios":"levelo://app?vid=71aa8592-ddf7-4343-aed4-c00d3433340f"},"vehicle_type_id":"4","last_reported":1726960083,"current_range_meters":34000,"station_id":"","pricing_plan_id":"cebpf4jnsgd1na2vs0mg"},{"bike_id":"3740c6df-06cd-419b-9ae6-b8d9e5eff548","system_id":"levelo_inurba_marseille","lat":43.2753,"lon":5.40935,"is_reserved":false,"is_disabled":false,"rental_uris":{"android":"levelo://app?vid=3740c6df-06cd-419b-9ae6-b8d9e5eff548","ios":"levelo://app?vid=3740c6df-06cd-419b-9ae6-b8d9e5eff548"},"vehicle_type_id":"4","last_reported":1726960083,"current_range_meters":16000,"station_id":"","pricing_plan_id":"cebpf4jnsgd1na2vs0mg"},{"bike_id":"c416d47b-78f0-43eb-bd10-52cd2f01cf9a","system_id":"levelo_inurba_marseille","lat":43.31071,"lon":5.38356,"is_reserved":false,"is_disabled":false,"rental_uris":{"android":"levelo://app?vid=c416d47b-78f0-43eb-bd10-52cd2f01cf9a","ios":"levelo://app?vid=c416d47b-78f0-43eb-bd10-52cd2f01cf9a"},"vehicle_type_id":"4","last_reported":1726960083,"current_range_meters":11600,"station_id":"ce4bgv92rcd13ifvqcr0","pricing_plan_id":"cebpf4jnsgd1na2vs0mg"},{"bike_id":"24b701c1-093d-43eb-bb30-7e4b77d24f49","system_id":"levelo_inurba_marseille","lat":43.32539,"lon":5.41438,"is_reserved":false,"is_disabled":false,"rental_uris":{"android":"levelo://app?vid=24b701c1-093d-43eb-bb30-7e4b77d24f49","ios":"levelo://app?vid=24b701c1-093d-43eb-bb30-7e4b77d24f49"},"vehicle_type_id":"4","last_reported":1726960083,"current_range_meters":20400,"station_id":"ce4bhq12rcd13ifvqhhg","pricing_plan_id":"cebpf4jnsgd1na2vs0mg"},{"bike_id":"33ef26f8-933d-4a23-a2fb-f3a05d501574","system_id":"levelo_inurba_marseille","lat":43.25092,"lon":5.39525,"is_reserved":false,"is_disabled":false,"rental_uris":{"android":"levelo://app?vid=33ef26f8-933d-4a23-a2fb-f3a05d501574","ios":"levelo://app?vid=33ef26f8-933d-4a23-a2fb-f3a05d501574"},"vehicle_type_id":"4","last_reported":1726960083,"current_range_meters":39200,"station_id":"ce4bhm12rcd13ifvqgkg","pricing_plan_id":"cebpf4jnsgd1na2vs0mg"},{"bike_id":"de474168-7d22-423b-8aa5-2f9882a9c626","system_id":"levelo_inurba_marseille","lat":43.3078,"lon":5.37658,"is_reserved":false,"is_disabled":false,"rental_uris":{"android":"levelo://app?vid=de474168-7d22-423b-8aa5-2f9882a9c626","ios":"levelo://app?vid=de474168-7d22-423b-8aa5-2f9882a9c626"},"vehicle_type_id":"4","last_reported":1726960083,"current_range_meters":39200,"station_id":"ce4bgv92rcd13ifvqcq0","pricing_plan_id":"cebpf4jnsgd1na2vs0mg"},{"bike_id":"031c7f84-a43a-4deb-9b43-a573dd4a878e","system_id":"levelo_inurba_marseille","lat":43.30536,"lon":5.3665,"is_reserved":false,"is_disabled":false,"rental_uris":{"android":"levelo://app?vid=031c7f84-a43a-4deb-9b43-a573dd4a878e","ios":"levelo://app?vid=031c7f84-a43a-4deb-9b43-a573dd4a878e"},"vehicle_type_id":"4","last_reported":1726960083,"current_range_meters":28800,"station_id":"","pricing_plan_id":"cebpf4jnsgd1na2vs0mg"},{"bike_id":"28899bbf-43c6-44fe-bc87-11c1926b2ab8","system_id":"levelo_inurba_marseille","lat":43.2621,"lon":5.37922,"is_reserved":false,"is_disabled":false,"rental_uris":{"android":"levelo://app?vid=28899bbf-43c6-44fe-bc87-11c1926b2ab8","ios":"levelo://app?vid=28899bbf-43c6-44fe-bc87-11c1926b2ab8"},"vehicle_type_id":"4","last_reported":1726960083,"current_range_meters":38800,"station_id":"ce4bhjp2rcd13ifvqg90","pricing_plan_id":"cebpf4jnsgd1na2vs0mg"},{"bike_id":"1de5a332-ecc8-4166-b2bb-a60de45f557a","system_id":"levelo_inurba_marseille","lat":43.29511,"lon":5.39031,"is_reserved":false,"is_disabled":false,"rental_uris":{"android":"levelo://app?vid=1de5a332-ecc8-4166-b2bb-a60de45f557a","ios":"levelo://app?vid=1de5a332-ecc8-4166-b2bb-a60de45f557a"},"vehicle_type_id":"4","last_reported":1726960083,"current_range_meters":28000,"station_id":"ce4bh3p2rcd13ifvqdp0","pricing_plan_id":"cebpf4jnsgd1na2vs0mg"},{"bike_id":"461fe284-eae3-49fe-a8c9-7ed58c2e4f86","system_id":"levelo_inurba_marseille","lat":43.28108,"lon":5.37834,"is_reserved":false,"is_disabled":false,"rental_uris":{"android":"levelo://app?vid=461fe284-eae3-49fe-a8c9-7ed58c2e4f86","ios":"levelo://app?vid=461fe284-eae3-49fe-a8c9-7ed58c2e4f86"},"vehicle_type_id":"4","last_reported":1726960083,"current_range_meters":39200,"station_id":"ce4bha12rcd13ifvqee0","pricing_plan_id":"cebpf4jnsgd1na2vs0mg"},{"bike_id":"a10b667c-5c71-439c-b705-2ac42af47b78","system_id":"levelo_inurba_marseille","lat":43.299042,"lon":5.381432,"is_reserved":false,"is_disabled":false,"rental_uris":{"android":"levelo://app?vid=a10b667c-5c71-439c-b705-2ac42af47b78","ios":"levelo://app?vid=a10b667c-5c71-439c-b705-2ac42af47b78"},"vehicle_type_id":"4","last_reported":1726960083,"current_range_meters":38000,"station_id":"ce4bgj12rcd13ifvqbc0","pricing_plan_id":"cebpf4jnsgd1na2vs0mg"},{"bike_id":"6528ea46-21d2-4392-8d15-a2e18652b29e","system_id":"levelo_inurba_marseille","lat":43.29216,"lon":5.39331,"is_reserved":false,"is_disabled":false,"rental_uris":{"android":"levelo://app?vid=6528ea46-21d2-4392-8d15-a2e18652b29e","ios":"levelo://app?vid=6528ea46-21d2-4392-8d15-a2e18652b29e"},"vehicle_type_id":"4","last_reported":1726960083,"current_range_meters":38400,"station_id":"ce4bh192rcd13ifvqdd0","pricing_plan_id":"cebpf4jnsgd1na2vs0mg"},{"bike_id":"314fbbe9-5fd9-4d9d-bd10-270759356c42","system_id":"levelo_inurba_marseille","lat":43.31364,"lon":5.38492,"is_reserved":false,"is_disabled":false,"rental_uris":{"android":"levelo://app?vid=314fbbe9-5fd9-4d9d-bd10-270759356c42","ios":"levelo://app?vid=314fbbe9-5fd9-4d9d-bd10-270759356c42"},"vehicle_type_id":"4","last_reported":1726960083,"current_range_meters":38000,"station_id":"ce4bgt92rcd13ifvqcf0","pricing_plan_id":"cebpf4jnsgd1na2vs0mg"},{"bike_id":"241e2c01-a65a-410b-ab27-432829a871bc","system_id":"levelo_inurba_marseille","lat":43.28106,"lon":5.37828,"is_reserved":false,"is_disabled":false,"rental_uris":{"android":"levelo://app?vid=241e2c01-a65a-410b-ab27-432829a871bc","ios":"levelo://app?vid=241e2c01-a65a-410b-ab27-432829a871bc"},"vehicle_type_id":"4","last_reported":1726960083,"current_range_meters":27200,"station_id":"ce4bha12rcd13ifvqee0","pricing_plan_id":"cebpf4jnsgd1na2vs0mg"},{"bike_id":"c6ece7c7-4ec5-4120-b681-3c568db59171","system_id":"levelo_inurba_marseille","lat":43.30608,"lon":5.37227,"is_reserved":false,"is_disabled":false,"rental_uris":{"android":"levelo://app?vid=c6ece7c7-4ec5-4120-b681-3c568db59171","ios":"levelo://app?vid=c6ece7c7-4ec5-4120-b681-3c568db59171"},"vehicle_type_id":"4","last_reported":1726960083,"current_range_meters":38800,"station_id":"ce4bgqh2rcd13ifvqc4g","pricing_plan_id":"cebpf4jnsgd1na2vs0mg"},{"bike_id":"03f621fd-0c59-4370-ac12-41d1af7650ef","system_id":"levelo_inurba_marseille","lat":43.29201,"lon":5.39327,"is_reserved":false,"is_disabled":false,"rental_uris":{"android":"levelo://app?vid=03f621fd-0c59-4370-ac12-41d1af7650ef","ios":"levelo://app?vid=03f621fd-0c59-4370-ac12-41d1af7650ef"},"vehicle_type_id":"4","last_reported":1726960083,"current_range_meters":9200,"station_id":"ce4bh192rcd13ifvqdd0","pricing_plan_id":"cebpf4jnsgd1na2vs0mg"},{"bike_id":"5d25ee9c-d4e4-4f57-abed-71f448373e13","system_id":"levelo_inurba_marseille","lat":43.29974,"lon":5.37173,"is_reserved":false,"is_disabled":false,"rental_uris":{"android":"levelo://app?vid=5d25ee9c-d4e4-4f57-abed-71f448373e13","ios":"levelo://app?vid=5d25ee9c-d4e4-4f57-abed-71f448373e13"},"vehicle_type_id":"4","last_reported":1726960083,"current_range_meters":31200,"station_id":"ce4bgr92rcd13ifvqc7g","pricing_plan_id":"cebpf4jnsgd1na2vs0mg"},{"bike_id":"02415616-385e-4f14-93d0-2ad915d17a0f","system_id":"levelo_inurba_marseille","lat":43.31336,"lon":5.39702,"is_reserved":false,"is_disabled":false,"rental_uris":{"android":"levelo://app?vid=02415616-385e-4f14-93d0-2ad915d17a0f","ios":"levelo://app?vid=02415616-385e-4f14-93d0-2ad915d17a0f"},"vehicle_type_id":"4","last_reported":1726960083,"current_range_meters":38800,"station_id":"ce4bgvp2rcd13ifvqcu0","pricing_plan_id":"cebpf4jnsgd1na2vs0mg"},{"bike_id":"40f76e9d-c4d4-4e89-b102-5cd9a5126209","system_id":"levelo_inurba_marseille","lat":43.31261,"lon":5.4017,"is_reserved":false,"is_disabled":false,"rental_uris":{"android":"levelo://app?vid=40f76e9d-c4d4-4e89-b102-5cd9a5126209","ios":"levelo://app?vid=40f76e9d-c4d4-4e89-b102-5cd9a5126209"},"vehicle_type_id":"4","last_reported":1726960083,"current_range_meters":38400,"station_id":"ce4bh092rcd13ifvqd30","pricing_plan_id":"cebpf4jnsgd1na2vs0mg"},{"bike_id":"dbcf8e5d-b72d-4da0-bd86-876ea83e918b","system_id":"levelo_inurba_marseille","lat":43.28672,"lon":5.38668,"is_reserved":false,"is_disabled":false,"rental_uris":{"android":"levelo://app?vid=dbcf8e5d-b72d-4da0-bd86-876ea83e918b","ios":"levelo://app?vid=dbcf8e5d-b72d-4da0-bd86-876ea83e918b"},"vehicle_type_id":"4","last_reported":1726960083,"current_range_meters":27200,"station_id":"ce4bh492rcd13ifvqdug","pricing_plan_id":"cebpf4jnsgd1na2vs0mg"},{"bike_id":"883a8373-fa49-4c16-afa2-a07cfcf5850d","system_id":"levelo_inurba_marseille","lat":43.30211,"lon":5.39473,"is_reserved":false,"is_disabled":false,"rental_uris":{"android":"levelo://app?vid=883a8373-fa49-4c16-afa2-a07cfcf5850d","ios":"levelo://app?vid=883a8373-fa49-4c16-afa2-a07cfcf5850d"},"vehicle_type_id":"4","last_reported":1726960083,"current_range_meters":28400,"station_id":"ce4bh0p2rcd13ifvqd70","pricing_plan_id":"cebpf4jnsgd1na2vs0mg"},{"bike_id":"e3fc2cc1-4e84-4c18-9abb-c61433f31188","system_id":"levelo_inurba_marseille","lat":43.25583,"lon":5.38232,"is_reserved":false,"is_disabled":false,"rental_uris":{"android":"levelo://app?vid=e3fc2cc1-4e84-4c18-9abb-c61433f31188","ios":"levelo://app?vid=e3fc2cc1-4e84-4c18-9abb-c61433f31188"},"vehicle_type_id":"4","last_reported":1726960083,"current_range_meters":22800,"station_id":"ce4bhih2rcd13ifvqfs0","pricing_plan_id":"cebpf4jnsgd1na2vs0mg"},{"bike_id":"692b2245-a9fc-4357-bfcf-d9c8b2d6d6cd","system_id":"levelo_inurba_marseille","lat":43.304393,"lon":5.397588,"is_reserved":false,"is_disabled":false,"rental_uris":{"android":"levelo://app?vid=692b2245-a9fc-4357-bfcf-d9c8b2d6d6cd","ios":"levelo://app?vid=692b2245-a9fc-4357-bfcf-d9c8b2d6d6cd"},"vehicle_type_id":"4","last_reported":1726960083,"current_range_meters":37600,"station_id":"ce4bh092rcd13ifvqd20","pricing_plan_id":"cebpf4jnsgd1na2vs0mg"},{"bike_id":"bca0aa49-c7d2-4c11-88f5-f1e59b0dafbc","system_id":"levelo_inurba_marseille","lat":43.2762,"lon":5.36105,"is_reserved":false,"is_disabled":false,"rental_uris":{"android":"levelo://app?vid=bca0aa49-c7d2-4c11-88f5-f1e59b0dafbc","ios":"levelo://app?vid=bca0aa49-c7d2-4c11-88f5-f1e59b0dafbc"},"vehicle_type_id":"4","last_reported":1726960083,"current_range_meters":20400,"station_id":"ce4bgj92rcd13ifvqbe0","pricing_plan_id":"cebpf4jnsgd1na2vs0mg"},{"bike_id":"426daa47-bfc5-4503-bc56-880669d79926","system_id":"levelo_inurba_marseille","lat":43.29881,"lon":5.39728,"is_reserved":false,"is_disabled":false,"rental_uris":{"android":"levelo://app?vid=426daa47-bfc5-4503-bc56-880669d79926","ios":"levelo://app?vid=426daa47-bfc5-4503-bc56-880669d79926"},"vehicle_type_id":"4","last_reported":1726960083,"current_range_meters":35600,"station_id":"ce4bh0h2rcd13ifvqd50","pricing_plan_id":"cebpf4jnsgd1na2vs0mg"},{"bike_id":"1575e777-51f8-479e-bd95-714cef91a125","system_id":"levelo_inurba_marseille","lat":43.24177,"lon":5.3971,"is_reserved":false,"is_disabled":false,"rental_uris":{"android":"levelo://app?vid=1575e777-51f8-479e-bd95-714cef91a125","ios":"levelo://app?vid=1575e777-51f8-479e-bd95-714cef91a125"},"vehicle_type_id":"4","last_reported":1726960083,"current_range_meters":29600,"station_id":"ce4bhn12rcd13ifvqgpg","pricing_plan_id":"cebpf4jnsgd1na2vs0mg"},{"bike_id":"4f6cd953-65f5-4d4f-a052-70118d864e1d","system_id":"levelo_inurba_marseille","lat":43.29889,"lon":5.43672,"is_reserved":false,"is_disabled":false,"rental_uris":{"android":"levelo://app?vid=4f6cd953-65f5-4d4f-a052-70118d864e1d","ios":"levelo://app?vid=4f6cd953-65f5-4d4f-a052-70118d864e1d"},"vehicle_type_id":"4","last_reported":1726960083,"current_range_meters":6400,"station_id":"ce4bhpp2rcd13ifvqhfg","pricing_plan_id":"cebpf4jnsgd1na2vs0mg"},{"bike_id":"ab03fbd4-771e-4097-be15-28a0898ddabb","system_id":"levelo_inurba_marseille","lat":43.31888,"lon":5.40736,"is_reserved":false,"is_disabled":false,"rental_uris":{"android":"levelo://app?vid=ab03fbd4-771e-4097-be15-28a0898ddabb","ios":"levelo://app?vid=ab03fbd4-771e-4097-be15-28a0898ddabb"},"vehicle_type_id":"4","last_reported":1726960083,"current_range_meters":36800,"station_id":"ce4bhq12rcd13ifvqhig","pricing_plan_id":"cebpf4jnsgd1na2vs0mg"},{"bike_id":"776a1687-8659-4d17-8970-54743c1fad10","system_id":"levelo_inurba_marseille","lat":43.31068,"lon":5.38355,"is_reserved":false,"is_disabled":false,"rental_uris":{"android":"levelo://app?vid=776a1687-8659-4d17-8970-54743c1fad10","ios":"levelo://app?vid=776a1687-8659-4d17-8970-54743c1fad10"},"vehicle_type_id":"4","last_reported":1726960083,"current_range_meters":36800,"station_id":"ce4bgv92rcd13ifvqcr0","pricing_plan_id":"cebpf4jnsgd1na2vs0mg"},{"bike_id":"d9e213ca-e541-459d-93e9-f901cb508c67","system_id":"levelo_inurba_marseille","lat":43.31707,"lon":5.37758,"is_reserved":false,"is_disabled":false,"rental_uris":{"android":"levelo://app?vid=d9e213ca-e541-459d-93e9-f901cb508c67","ios":"levelo://app?vid=d9e213ca-e541-459d-93e9-f901cb508c67"},"vehicle_type_id":"4","last_reported":1726960083,"current_range_meters":22400,"station_id":"ce4bgth2rcd13ifvqch0","pricing_plan_id":"cebpf4jnsgd1na2vs0mg"},{"bike_id":"742fe014-1f5e-499c-bbc5-66a0cbb87904","system_id":"levelo_inurba_marseille","lat":43.23204,"lon":5.35557,"is_reserved":false,"is_disabled":false,"rental_uris":{"android":"levelo://app?vid=742fe014-1f5e-499c-bbc5-66a0cbb87904","ios":"levelo://app?vid=742fe014-1f5e-499c-bbc5-66a0cbb87904"},"vehicle_type_id":"4","last_reported":1726960083,"current_range_meters":36800,"station_id":"ce4bhu92rcd13ifvqi70","pricing_plan_id":"cebpf4jnsgd1na2vs0mg"},{"bike_id":"2a8006f5-9457-4964-a071-8d871b373331","system_id":"levelo_inurba_marseille","lat":43.30424,"lon":5.38884,"is_reserved":false,"is_disabled":false,"rental_uris":{"android":"levelo://app?vid=2a8006f5-9457-4964-a071-8d871b373331","ios":"levelo://app?vid=2a8006f5-9457-4964-a071-8d871b373331"},"vehicle_type_id":"4","last_reported":1726960083,"current_range_meters":8400,"station_id":"ce4bgk12rcd13ifvqbi0","pricing_plan_id":"cebpf4jnsgd1na2vs0mg"},{"bike_id":"320a348b-312f-4667-86c9-a1598946795f","system_id":"levelo_inurba_marseille","lat":43.32365,"lon":5.38887,"is_reserved":false,"is_disabled":false,"rental_uris":{"android":"levelo://app?vid=320a348b-312f-4667-86c9-a1598946795f","ios":"levelo://app?vid=320a348b-312f-4667-86c9-a1598946795f"},"vehicle_type_id":"4","last_reported":1726960083,"current_range_meters":36000,"station_id":"ce4bhqp2rcd13ifvqhog","pricing_plan_id":"cebpf4jnsgd1na2vs0mg"},{"bike_id":"7580070f-7973-4da9-a3f4-451599e5fffe","system_id":"levelo_inurba_marseille","lat":43.28935,"lon":5.39621,"is_reserved":false,"is_disabled":false,"rental_uris":{"android":"levelo://app?vid=7580070f-7973-4da9-a3f4-451599e5fffe","ios":"levelo://app?vid=7580070f-7973-4da9-a3f4-451599e5fffe"},"vehicle_type_id":"4","last_reported":1726960083,"current_range_meters":39200,"station_id":"ce4bh3h2rcd13ifvqdn0","pricing_plan_id":"cebpf4jnsgd1na2vs0mg"},{"bike_id":"0c0d2d63-7460-4d97-9458-85a3fcba4061","system_id":"levelo_inurba_marseille","lat":43.27946,"lon":5.41052,"is_reserved":false,"is_disabled":false,"rental_uris":{"android":"levelo://app?vid=0c0d2d63-7460-4d97-9458-85a3fcba4061","ios":"levelo://app?vid=0c0d2d63-7460-4d97-9458-85a3fcba4061"},"vehicle_type_id":"4","last_reported":1726960083,"current_range_meters":27200,"station_id":"ce4bhnp2rcd13ifvqh0g","pricing_plan_id":"cebpf4jnsgd1na2vs0mg"},{"bike_id":"15bfb919-6e1f-4e7f-83e8-9b12fb95fcef","system_id":"levelo_inurba_marseille","lat":43.31378,"lon":5.38502,"is_reserved":false,"is_disabled":false,"rental_uris":{"android":"levelo://app?vid=15bfb919-6e1f-4e7f-83e8-9b12fb95fcef","ios":"levelo://app?vid=15bfb919-6e1f-4e7f-83e8-9b12fb95fcef"},"vehicle_type_id":"4","last_reported":1726960083,"current_range_meters":23200,"station_id":"ce4bgt92rcd13ifvqcf0","pricing_plan_id":"cebpf4jnsgd1na2vs0mg"},{"bike_id":"feb42740-c719-4916-9efa-d99f861e0e6d","system_id":"levelo_inurba_marseille","lat":43.32482,"lon":5.36574,"is_reserved":false,"is_disabled":false,"rental_uris":{"android":"levelo://app?vid=feb42740-c719-4916-9efa-d99f861e0e6d","ios":"levelo://app?vid=feb42740-c719-4916-9efa-d99f861e0e6d"},"vehicle_type_id":"4","last_reported":1726960083,"current_range_meters":38000,"station_id":"ce4bhs12rcd13ifvqhvg","pricing_plan_id":"cebpf4jnsgd1na2vs0mg"},{"bike_id":"77e0abfb-1ede-4fdc-ba8e-9c7bd66f0ad4","system_id":"levelo_inurba_marseille","lat":43.29584,"lon":5.37649,"is_reserved":false,"is_disabled":false,"rental_uris":{"android":"levelo://app?vid=77e0abfb-1ede-4fdc-ba8e-9c7bd66f0ad4","ios":"levelo://app?vid=77e0abfb-1ede-4fdc-ba8e-9c7bd66f0ad4"},"vehicle_type_id":"4","last_reported":1726960083,"current_range_meters":8000,"station_id":"","pricing_plan_id":"cebpf4jnsgd1na2vs0mg"},{"bike_id":"5ce6ca70-38c1-446a-8e79-d58050d35527","system_id":"levelo_inurba_marseille","lat":43.26566,"lon":5.39003,"is_reserved":false,"is_disabled":false,"rental_uris":{"android":"levelo://app?vid=5ce6ca70-38c1-446a-8e79-d58050d35527","ios":"levelo://app?vid=5ce6ca70-38c1-446a-8e79-d58050d35527"},"vehicle_type_id":"4","last_reported":1726960083,"current_range_meters":27600,"station_id":"ce4bhe12rcd13ifvqf30","pricing_plan_id":"cebpf4jnsgd1na2vs0mg"},{"bike_id":"6ab6933a-1d40-4dbd-8eb1-cb7ef6a30762","system_id":"levelo_inurba_marseille","lat":43.29188,"lon":5.39332,"is_reserved":false,"is_disabled":false,"rental_uris":{"android":"levelo://app?vid=6ab6933a-1d40-4dbd-8eb1-cb7ef6a30762","ios":"levelo://app?vid=6ab6933a-1d40-4dbd-8eb1-cb7ef6a30762"},"vehicle_type_id":"4","last_reported":1726960083,"current_range_meters":19600,"station_id":"ce4bh192rcd13ifvqdd0","pricing_plan_id":"cebpf4jnsgd1na2vs0mg"},{"bike_id":"2ed077f1-a76e-4ade-9169-7f9158707235","system_id":"levelo_inurba_marseille","lat":43.24667,"lon":5.38165,"is_reserved":false,"is_disabled":false,"rental_uris":{"android":"levelo://app?vid=2ed077f1-a76e-4ade-9169-7f9158707235","ios":"levelo://app?vid=2ed077f1-a76e-4ade-9169-7f9158707235"},"vehicle_type_id":"4","last_reported":1726960083,"current_range_meters":10000,"station_id":"ce4bhih2rcd13ifvqfr0","pricing_plan_id":"cebpf4jnsgd1na2vs0mg"},{"bike_id":"fce734b4-6c36-4cb6-983c-c95238702258","system_id":"levelo_inurba_marseille","lat":43.31077,"lon":5.38104,"is_reserved":false,"is_disabled":false,"rental_uris":{"android":"levelo://app?vid=fce734b4-6c36-4cb6-983c-c95238702258","ios":"levelo://app?vid=fce734b4-6c36-4cb6-983c-c95238702258"},"vehicle_type_id":"4","last_reported":1726960083,"current_range_meters":16400,"station_id":"","pricing_plan_id":"cebpf4jnsgd1na2vs0mg"},{"bike_id":"ab164393-cd31-4221-b165-f26296d40d00","system_id":"levelo_inurba_marseille","lat":43.3108,"lon":5.42433,"is_reserved":false,"is_disabled":false,"rental_uris":{"android":"levelo://app?vid=ab164393-cd31-4221-b165-f26296d40d00","ios":"levelo://app?vid=ab164393-cd31-4221-b165-f26296d40d00"},"vehicle_type_id":"4","last_reported":1726960083,"current_range_meters":13600,"station_id":"ce4bhp92rcd13ifvqhag","pricing_plan_id":"cebpf4jnsgd1na2vs0mg"},{"bike_id":"4bf9bad2-5ff0-497e-80dc-91099f373503","system_id":"levelo_inurba_marseille","lat":43.250997,"lon":5.395254,"is_reserved":false,"is_disabled":false,"rental_uris":{"android":"levelo://app?vid=4bf9bad2-5ff0-497e-80dc-91099f373503","ios":"levelo://app?vid=4bf9bad2-5ff0-497e-80dc-91099f373503"},"vehicle_type_id":"4","last_reported":1726960083,"current_range_meters":34800,"station_id":"ce4bhm12rcd13ifvqgkg","pricing_plan_id":"cebpf4jnsgd1na2vs0mg"},{"bike_id":"641f5b3a-0958-49cd-babc-8214d157118d","system_id":"levelo_inurba_marseille","lat":43.28442,"lon":5.3918,"is_reserved":false,"is_disabled":false,"rental_uris":{"android":"levelo://app?vid=641f5b3a-0958-49cd-babc-8214d157118d","ios":"levelo://app?vid=641f5b3a-0958-49cd-babc-8214d157118d"},"vehicle_type_id":"4","last_reported":1726960083,"current_range_meters":32000,"station_id":"ce4bhoh2rcd13ifvqh5g","pricing_plan_id":"cebpf4jnsgd1na2vs0mg"},{"bike_id":"a27dbfcf-fdb2-45f8-985f-42b146435a71","system_id":"levelo_inurba_marseille","lat":43.32338,"lon":5.40618,"is_reserved":false,"is_disabled":false,"rental_uris":{"android":"levelo://app?vid=a27dbfcf-fdb2-45f8-985f-42b146435a71","ios":"levelo://app?vid=a27dbfcf-fdb2-45f8-985f-42b146435a71"},"vehicle_type_id":"4","last_reported":1726960083,"current_range_meters":39200,"station_id":"ce4bhq92rcd13ifvqhjg","pricing_plan_id":"cebpf4jnsgd1na2vs0mg"},{"bike_id":"f74941be-f473-4ce7-9230-0799526567ae","system_id":"levelo_inurba_marseille","lat":43.23191,"lon":5.35545,"is_reserved":false,"is_disabled":false,"rental_uris":{"android":"levelo://app?vid=f74941be-f473-4ce7-9230-0799526567ae","ios":"levelo://app?vid=f74941be-f473-4ce7-9230-0799526567ae"},"vehicle_type_id":"4","last_reported":1726960083,"current_range_meters":39200,"station_id":"ce4bhu92rcd13ifvqi70","pricing_plan_id":"cebpf4jnsgd1na2vs0mg"},{"bike_id":"c3f6fc78-a7a6-4b9f-9488-35ae5c146315","system_id":"levelo_inurba_marseille","lat":43.26184,"lon":5.37441,"is_reserved":false,"is_disabled":false,"rental_uris":{"android":"levelo://app?vid=c3f6fc78-a7a6-4b9f-9488-35ae5c146315","ios":"levelo://app?vid=c3f6fc78-a7a6-4b9f-9488-35ae5c146315"},"vehicle_type_id":"4","last_reported":1726960083,"current_range_meters":38800,"station_id":"ce4bhgp2rcd13ifvqfc0","pricing_plan_id":"cebpf4jnsgd1na2vs0mg"},{"bike_id":"835e4c9e-ad92-4033-ade3-5c140676b483","system_id":"levelo_inurba_marseille","lat":43.28665,"lon":5.38663,"is_reserved":false,"is_disabled":false,"rental_uris":{"android":"levelo://app?vid=835e4c9e-ad92-4033-ade3-5c140676b483","ios":"levelo://app?vid=835e4c9e-ad92-4033-ade3-5c140676b483"},"vehicle_type_id":"4","last_reported":1726960083,"current_range_meters":38800,"station_id":"ce4bh492rcd13ifvqdug","pricing_plan_id":"cebpf4jnsgd1na2vs0mg"},{"bike_id":"1b0377f1-d878-4328-a741-9dcdd239aabf","system_id":"levelo_inurba_marseille","lat":43.31384,"lon":5.38505,"is_reserved":false,"is_disabled":false,"rental_uris":{"android":"levelo://app?vid=1b0377f1-d878-4328-a741-9dcdd239aabf","ios":"levelo://app?vid=1b0377f1-d878-4328-a741-9dcdd239aabf"},"vehicle_type_id":"4","last_reported":1726960083,"current_range_meters":23200,"station_id":"ce4bgt92rcd13ifvqcf0","pricing_plan_id":"cebpf4jnsgd1na2vs0mg"},{"bike_id":"77f07a41-1013-4818-87b4-f8e40986639e","system_id":"levelo_inurba_marseille","lat":43.26803,"lon":5.4027,"is_reserved":false,"is_disabled":false,"rental_uris":{"android":"levelo://app?vid=77f07a41-1013-4818-87b4-f8e40986639e","ios":"levelo://app?vid=77f07a41-1013-4818-87b4-f8e40986639e"},"vehicle_type_id":"4","last_reported":1726960083,"current_range_meters":38800,"station_id":"ce501612rcd8frsf0b60","pricing_plan_id":"cebpf4jnsgd1na2vs0mg"},{"bike_id":"bc2224ad-a18e-479e-9927-fa7d79220cd4","system_id":"levelo_inurba_marseille","lat":43.32333,"lon":5.40614,"is_reserved":false,"is_disabled":false,"rental_uris":{"android":"levelo://app?vid=bc2224ad-a18e-479e-9927-fa7d79220cd4","ios":"levelo://app?vid=bc2224ad-a18e-479e-9927-fa7d79220cd4"},"vehicle_type_id":"4","last_reported":1726960083,"current_range_meters":39200,"station_id":"ce4bhq92rcd13ifvqhjg","pricing_plan_id":"cebpf4jnsgd1na2vs0mg"},{"bike_id":"4bb7a675-da9b-4975-873c-414cafad6126","system_id":"levelo_inurba_marseille","lat":43.28455,"lon":5.35887,"is_reserved":false,"is_disabled":false,"rental_uris":{"android":"levelo://app?vid=4bb7a675-da9b-4975-873c-414cafad6126","ios":"levelo://app?vid=4bb7a675-da9b-4975-873c-414cafad6126"},"vehicle_type_id":"4","last_reported":1726960083,"current_range_meters":12800,"station_id":"ce4bhah2rcd13ifvqei0","pricing_plan_id":"cebpf4jnsgd1na2vs0mg"},{"bike_id":"6a27e725-2d8c-4144-8185-44daee5ca0de","system_id":"levelo_inurba_marseille","lat":43.31756,"lon":5.3902,"is_reserved":false,"is_disabled":false,"rental_uris":{"android":"levelo://app?vid=6a27e725-2d8c-4144-8185-44daee5ca0de","ios":"levelo://app?vid=6a27e725-2d8c-4144-8185-44daee5ca0de"},"vehicle_type_id":"4","last_reported":1726960083,"current_range_meters":22400,"station_id":"ce4bhqp2rcd13ifvqhng","pricing_plan_id":"cebpf4jnsgd1na2vs0mg"},{"bike_id":"e78643e9-7111-4678-b6dd-04037d1221cb","system_id":"levelo_inurba_marseille","lat":43.30431,"lon":5.38887,"is_reserved":false,"is_disabled":false,"rental_uris":{"android":"levelo://app?vid=e78643e9-7111-4678-b6dd-04037d1221cb","ios":"levelo://app?vid=e78643e9-7111-4678-b6dd-04037d1221cb"},"vehicle_type_id":"4","last_reported":1726960083,"current_range_meters":39200,"station_id":"ce4bgk12rcd13ifvqbi0","pricing_plan_id":"cebpf4jnsgd1na2vs0mg"},{"bike_id":"aa18d1b9-803b-47fa-bea1-cb0edab5554a","system_id":"levelo_inurba_marseille","lat":43.28707,"lon":5.39976,"is_reserved":false,"is_disabled":false,"rental_uris":{"android":"levelo://app?vid=aa18d1b9-803b-47fa-bea1-cb0edab5554a","ios":"levelo://app?vid=aa18d1b9-803b-47fa-bea1-cb0edab5554a"},"vehicle_type_id":"4","last_reported":1726960083,"current_range_meters":25200,"station_id":"ce4bho92rcd13ifvqh3g","pricing_plan_id":"cebpf4jnsgd1na2vs0mg"},{"bike_id":"949472d1-97b4-4563-9061-d4d0ed91b910","system_id":"levelo_inurba_marseille","lat":43.32366,"lon":5.38885,"is_reserved":false,"is_disabled":false,"rental_uris":{"android":"levelo://app?vid=949472d1-97b4-4563-9061-d4d0ed91b910","ios":"levelo://app?vid=949472d1-97b4-4563-9061-d4d0ed91b910"},"vehicle_type_id":"4","last_reported":1726960083,"current_range_meters":27200,"station_id":"ce4bhqp2rcd13ifvqhog","pricing_plan_id":"cebpf4jnsgd1na2vs0mg"},{"bike_id":"2ce07468-9b3e-42a6-a2fd-7625bfc9d4c1","system_id":"levelo_inurba_marseille","lat":43.28271,"lon":5.35043,"is_reserved":false,"is_disabled":false,"rental_uris":{"android":"levelo://app?vid=2ce07468-9b3e-42a6-a2fd-7625bfc9d4c1","ios":"levelo://app?vid=2ce07468-9b3e-42a6-a2fd-7625bfc9d4c1"},"vehicle_type_id":"4","last_reported":1726960083,"current_range_meters":4000,"station_id":"ce4bhbp2rcd13ifvqerg","pricing_plan_id":"cebpf4jnsgd1na2vs0mg"},{"bike_id":"6c4c3607-82cf-4fe2-8301-90c894cc563f","system_id":"levelo_inurba_marseille","lat":43.31385,"lon":5.38506,"is_reserved":false,"is_disabled":false,"rental_uris":{"android":"levelo://app?vid=6c4c3607-82cf-4fe2-8301-90c894cc563f","ios":"levelo://app?vid=6c4c3607-82cf-4fe2-8301-90c894cc563f"},"vehicle_type_id":"4","last_reported":1726960083,"current_range_meters":35200,"station_id":"ce4bgt92rcd13ifvqcf0","pricing_plan_id":"cebpf4jnsgd1na2vs0mg"},{"bike_id":"5313fd38-c2ab-4aa7-89f5-f02e99e34d8d","system_id":"levelo_inurba_marseille","lat":43.28659,"lon":5.38666,"is_reserved":false,"is_disabled":false,"rental_uris":{"android":"levelo://app?vid=5313fd38-c2ab-4aa7-89f5-f02e99e34d8d","ios":"levelo://app?vid=5313fd38-c2ab-4aa7-89f5-f02e99e34d8d"},"vehicle_type_id":"4","last_reported":1726960083,"current_range_meters":38400,"station_id":"ce4bh492rcd13ifvqdug","pricing_plan_id":"cebpf4jnsgd1na2vs0mg"},{"bike_id":"fb2b63d9-4a26-4602-9a57-d2caab531ee7","system_id":"levelo_inurba_marseille","lat":43.33725,"lon":5.3919,"is_reserved":false,"is_disabled":false,"rental_uris":{"android":"levelo://app?vid=fb2b63d9-4a26-4602-9a57-d2caab531ee7","ios":"levelo://app?vid=fb2b63d9-4a26-4602-9a57-d2caab531ee7"},"vehicle_type_id":"4","last_reported":1726960083,"current_range_meters":36400,"station_id":"ce4bhr92rcd13ifvqhsg","pricing_plan_id":"cebpf4jnsgd1na2vs0mg"},{"bike_id":"d541ed92-cfeb-48b8-b34c-853ebcc5b103","system_id":"levelo_inurba_marseille","lat":43.29031,"lon":5.3864,"is_reserved":false,"is_disabled":false,"rental_uris":{"android":"levelo://app?vid=d541ed92-cfeb-48b8-b34c-853ebcc5b103","ios":"levelo://app?vid=d541ed92-cfeb-48b8-b34c-853ebcc5b103"},"vehicle_type_id":"4","last_reported":1726960083,"current_range_meters":38400,"station_id":"ce4bh4p2rcd13ifvqe0g","pricing_plan_id":"cebpf4jnsgd1na2vs0mg"},{"bike_id":"f783e93b-35a6-4c96-a417-f5cb58c7485b","system_id":"levelo_inurba_marseille","lat":43.29518,"lon":5.39402,"is_reserved":false,"is_disabled":false,"rental_uris":{"android":"levelo://app?vid=f783e93b-35a6-4c96-a417-f5cb58c7485b","ios":"levelo://app?vid=f783e93b-35a6-4c96-a417-f5cb58c7485b"},"vehicle_type_id":"4","last_reported":1726960083,"current_range_meters":8000,"station_id":"ce4bh292rcd13ifvqdf0","pricing_plan_id":"cebpf4jnsgd1na2vs0mg"},{"bike_id":"a9f970fa-8fa9-4f75-a9c9-ba0a24a4c539","system_id":"levelo_inurba_marseille","lat":43.28418,"lon":5.349768,"is_reserved":false,"is_disabled":false,"rental_uris":{"android":"levelo://app?vid=a9f970fa-8fa9-4f75-a9c9-ba0a24a4c539","ios":"levelo://app?vid=a9f970fa-8fa9-4f75-a9c9-ba0a24a4c539"},"vehicle_type_id":"4","last_reported":1726960083,"current_range_meters":17200,"station_id":"ce4bhbh2rcd13ifvqepg","pricing_plan_id":"cebpf4jnsgd1na2vs0mg"},{"bike_id":"8d2776c3-c406-4ac8-93b3-c349ce95e846","system_id":"levelo_inurba_marseille","lat":43.31155,"lon":5.38704,"is_reserved":false,"is_disabled":false,"rental_uris":{"android":"levelo://app?vid=8d2776c3-c406-4ac8-93b3-c349ce95e846","ios":"levelo://app?vid=8d2776c3-c406-4ac8-93b3-c349ce95e846"},"vehicle_type_id":"4","last_reported":1726960083,"current_range_meters":17600,"station_id":"ce4bgv12rcd13ifvqcp0","pricing_plan_id":"cebpf4jnsgd1na2vs0mg"},{"bike_id":"81e8a86a-4d58-4722-9832-59112c9b49a3","system_id":"levelo_inurba_marseille","lat":43.289429,"lon":5.363937,"is_reserved":false,"is_disabled":false,"rental_uris":{"android":"levelo://app?vid=81e8a86a-4d58-4722-9832-59112c9b49a3","ios":"levelo://app?vid=81e8a86a-4d58-4722-9832-59112c9b49a3"},"vehicle_type_id":"4","last_reported":1726960083,"current_range_meters":36800,"station_id":"ce4bhc92rcd13ifvqetg","pricing_plan_id":"cebpf4jnsgd1na2vs0mg"},{"bike_id":"64587697-05e9-4548-8588-ba3be5577708","system_id":"levelo_inurba_marseille","lat":43.2926,"lon":5.40906,"is_reserved":false,"is_disabled":false,"rental_uris":{"android":"levelo://app?vid=64587697-05e9-4548-8588-ba3be5577708","ios":"levelo://app?vid=64587697-05e9-4548-8588-ba3be5577708"},"vehicle_type_id":"4","last_reported":1726960083,"current_range_meters":9600,"station_id":"ce4bh192rcd13ifvqdc0","pricing_plan_id":"cebpf4jnsgd1na2vs0mg"},{"bike_id":"5e89eb86-04c1-4929-b3ce-44c08ecb21db","system_id":"levelo_inurba_marseille","lat":43.31071,"lon":5.38357,"is_reserved":false,"is_disabled":false,"rental_uris":{"android":"levelo://app?vid=5e89eb86-04c1-4929-b3ce-44c08ecb21db","ios":"levelo://app?vid=5e89eb86-04c1-4929-b3ce-44c08ecb21db"},"vehicle_type_id":"4","last_reported":1726960083,"current_range_meters":35200,"station_id":"ce4bgv92rcd13ifvqcr0","pricing_plan_id":"cebpf4jnsgd1na2vs0mg"},{"bike_id":"fa690805-233a-4a70-a9f3-33f1b67cdb1f","system_id":"levelo_inurba_marseille","lat":43.32285,"lon":5.38269,"is_reserved":false,"is_disabled":false,"rental_uris":{"android":"levelo://app?vid=fa690805-233a-4a70-a9f3-33f1b67cdb1f","ios":"levelo://app?vid=fa690805-233a-4a70-a9f3-33f1b67cdb1f"},"vehicle_type_id":"4","last_reported":1726960083,"current_range_meters":10000,"station_id":"ce4bhr12rcd13ifvqhqg","pricing_plan_id":"cebpf4jnsgd1na2vs0mg"},{"bike_id":"f6d53afc-4121-4dc7-9acf-b06309ffb8ff","system_id":"levelo_inurba_marseille","lat":43.279065,"lon":5.380121,"is_reserved":false,"is_disabled":false,"rental_uris":{"android":"levelo://app?vid=f6d53afc-4121-4dc7-9acf-b06309ffb8ff","ios":"levelo://app?vid=f6d53afc-4121-4dc7-9acf-b06309ffb8ff"},"vehicle_type_id":"4","last_reported":1726960083,"current_range_meters":20000,"station_id":"ce4bhf92rcd13ifvqf50","pricing_plan_id":"cebpf4jnsgd1na2vs0mg"},{"bike_id":"69cf606e-21f6-4a46-9d4b-1cf16e1a2ff5","system_id":"levelo_inurba_marseille","lat":43.29518,"lon":5.39402,"is_reserved":false,"is_disabled":false,"rental_uris":{"android":"levelo://app?vid=69cf606e-21f6-4a46-9d4b-1cf16e1a2ff5","ios":"levelo://app?vid=69cf606e-21f6-4a46-9d4b-1cf16e1a2ff5"},"vehicle_type_id":"4","last_reported":1726960083,"current_range_meters":38800,"station_id":"ce4bh292rcd13ifvqdf0","pricing_plan_id":"cebpf4jnsgd1na2vs0mg"},{"bike_id":"80e63dfc-a645-4d2f-a0b5-3f87a2df0aaa","system_id":"levelo_inurba_marseille","lat":43.2466,"lon":5.38163,"is_reserved":false,"is_disabled":false,"rental_uris":{"android":"levelo://app?vid=80e63dfc-a645-4d2f-a0b5-3f87a2df0aaa","ios":"levelo://app?vid=80e63dfc-a645-4d2f-a0b5-3f87a2df0aaa"},"vehicle_type_id":"4","last_reported":1726960083,"current_range_meters":30000,"station_id":"ce4bhih2rcd13ifvqfr0","pricing_plan_id":"cebpf4jnsgd1na2vs0mg"},{"bike_id":"491ce18c-ec2b-44ec-a4ed-854ea56973e2","system_id":"levelo_inurba_marseille","lat":43.31065,"lon":5.38347,"is_reserved":false,"is_disabled":false,"rental_uris":{"android":"levelo://app?vid=491ce18c-ec2b-44ec-a4ed-854ea56973e2","ios":"levelo://app?vid=491ce18c-ec2b-44ec-a4ed-854ea56973e2"},"vehicle_type_id":"4","last_reported":1726960083,"current_range_meters":12000,"station_id":"ce4bgv92rcd13ifvqcr0","pricing_plan_id":"cebpf4jnsgd1na2vs0mg"},{"bike_id":"c557ed26-c8fd-45b9-a9cf-0a27fd81ef9d","system_id":"levelo_inurba_marseille","lat":43.30304,"lon":5.36892,"is_reserved":false,"is_disabled":false,"rental_uris":{"android":"levelo://app?vid=c557ed26-c8fd-45b9-a9cf-0a27fd81ef9d","ios":"levelo://app?vid=c557ed26-c8fd-45b9-a9cf-0a27fd81ef9d"},"vehicle_type_id":"4","last_reported":1726960083,"current_range_meters":25200,"station_id":"ce4bgqh2rcd13ifvqc5g","pricing_plan_id":"cebpf4jnsgd1na2vs0mg"},{"bike_id":"2d16c83d-f343-4160-b777-e89736c6b52e","system_id":"levelo_inurba_marseille","lat":43.295563,"lon":5.422946,"is_reserved":false,"is_disabled":false,"rental_uris":{"android":"levelo://app?vid=2d16c83d-f343-4160-b777-e89736c6b52e","ios":"levelo://app?vid=2d16c83d-f343-4160-b777-e89736c6b52e"},"vehicle_type_id":"4","last_reported":1726960083,"current_range_meters":25200,"station_id":"ce4bhph2rcd13ifvqhdg","pricing_plan_id":"cebpf4jnsgd1na2vs0mg"},{"bike_id":"1fb6c4de-0707-47fd-86d9-1aa9947a8cd4","system_id":"levelo_inurba_marseille","lat":43.29913,"lon":5.37189,"is_reserved":false,"is_disabled":false,"rental_uris":{"android":"levelo://app?vid=1fb6c4de-0707-47fd-86d9-1aa9947a8cd4","ios":"levelo://app?vid=1fb6c4de-0707-47fd-86d9-1aa9947a8cd4"},"vehicle_type_id":"4","last_reported":1726960083,"current_range_meters":37600,"station_id":"ce4bgr92rcd13ifvqc7g","pricing_plan_id":"cebpf4jnsgd1na2vs0mg"},{"bike_id":"99f7c695-6320-410a-9a48-9a5e68fe6c24","system_id":"levelo_inurba_marseille","lat":43.31361,"lon":5.38498,"is_reserved":false,"is_disabled":false,"rental_uris":{"android":"levelo://app?vid=99f7c695-6320-410a-9a48-9a5e68fe6c24","ios":"levelo://app?vid=99f7c695-6320-410a-9a48-9a5e68fe6c24"},"vehicle_type_id":"4","last_reported":1726960083,"current_range_meters":10800,"station_id":"ce4bgt92rcd13ifvqcf0","pricing_plan_id":"cebpf4jnsgd1na2vs0mg"},{"bike_id":"b2763354-ec6c-4733-8de6-6c4493759ae9","system_id":"levelo_inurba_marseille","lat":43.29051,"lon":5.4014,"is_reserved":false,"is_disabled":false,"rental_uris":{"android":"levelo://app?vid=b2763354-ec6c-4733-8de6-6c4493759ae9","ios":"levelo://app?vid=b2763354-ec6c-4733-8de6-6c4493759ae9"},"vehicle_type_id":"4","last_reported":1726960083,"current_range_meters":11200,"station_id":"","pricing_plan_id":"cebpf4jnsgd1na2vs0mg"},{"bike_id":"2a02db94-e9e5-4250-bb8b-fd12e5afc898","system_id":"levelo_inurba_marseille","lat":43.265698,"lon":5.39014,"is_reserved":false,"is_disabled":false,"rental_uris":{"android":"levelo://app?vid=2a02db94-e9e5-4250-bb8b-fd12e5afc898","ios":"levelo://app?vid=2a02db94-e9e5-4250-bb8b-fd12e5afc898"},"vehicle_type_id":"4","last_reported":1726960083,"current_range_meters":32000,"station_id":"ce4bhe12rcd13ifvqf30","pricing_plan_id":"cebpf4jnsgd1na2vs0mg"},{"bike_id":"d9d2187b-426e-44eb-86ce-229bc41c4bf1","system_id":"levelo_inurba_marseille","lat":43.24065,"lon":5.37745,"is_reserved":false,"is_disabled":false,"rental_uris":{"android":"levelo://app?vid=d9d2187b-426e-44eb-86ce-229bc41c4bf1","ios":"levelo://app?vid=d9d2187b-426e-44eb-86ce-229bc41c4bf1"},"vehicle_type_id":"4","last_reported":1726960083,"current_range_meters":8400,"station_id":"ce4bhnp2rcd13ifvqgvg","pricing_plan_id":"cebpf4jnsgd1na2vs0mg"},{"bike_id":"25132b35-4706-43bb-a221-fa452b170781","system_id":"levelo_inurba_marseille","lat":43.30304,"lon":5.40363,"is_reserved":false,"is_disabled":false,"rental_uris":{"android":"levelo://app?vid=25132b35-4706-43bb-a221-fa452b170781","ios":"levelo://app?vid=25132b35-4706-43bb-a221-fa452b170781"},"vehicle_type_id":"4","last_reported":1726960083,"current_range_meters":2800,"station_id":"","pricing_plan_id":"cebpf4jnsgd1na2vs0mg"},{"bike_id":"f1bed7b7-f5a6-42f5-af78-0892a6fb7385","system_id":"levelo_inurba_marseille","lat":43.309023,"lon":5.368454,"is_reserved":false,"is_disabled":false,"rental_uris":{"android":"levelo://app?vid=f1bed7b7-f5a6-42f5-af78-0892a6fb7385","ios":"levelo://app?vid=f1bed7b7-f5a6-42f5-af78-0892a6fb7385"},"vehicle_type_id":"4","last_reported":1726960083,"current_range_meters":36800,"station_id":"ce4bgn92rcd13ifvqbvg","pricing_plan_id":"cebpf4jnsgd1na2vs0mg"},{"bike_id":"e31de2a4-85fb-467d-a504-2f3cf4294688","system_id":"levelo_inurba_marseille","lat":43.25823,"lon":5.39424,"is_reserved":false,"is_disabled":false,"rental_uris":{"android":"levelo://app?vid=e31de2a4-85fb-467d-a504-2f3cf4294688","ios":"levelo://app?vid=e31de2a4-85fb-467d-a504-2f3cf4294688"},"vehicle_type_id":"4","last_reported":1726960083,"current_range_meters":30800,"station_id":"ce4bhip2rcd13ifvqft0","pricing_plan_id":"cebpf4jnsgd1na2vs0mg"},{"bike_id":"2bb7f320-ae8b-41c8-b4b9-85984e51b0d4","system_id":"levelo_inurba_marseille","lat":43.31354,"lon":5.38496,"is_reserved":false,"is_disabled":false,"rental_uris":{"android":"levelo://app?vid=2bb7f320-ae8b-41c8-b4b9-85984e51b0d4","ios":"levelo://app?vid=2bb7f320-ae8b-41c8-b4b9-85984e51b0d4"},"vehicle_type_id":"4","last_reported":1726960083,"current_range_meters":17200,"station_id":"ce4bgt92rcd13ifvqcf0","pricing_plan_id":"cebpf4jnsgd1na2vs0mg"},{"bike_id":"17e22667-a0d1-469c-be61-93db13a87b72","system_id":"levelo_inurba_marseille","lat":43.29978,"lon":5.38488,"is_reserved":false,"is_disabled":false,"rental_uris":{"android":"levelo://app?vid=17e22667-a0d1-469c-be61-93db13a87b72","ios":"levelo://app?vid=17e22667-a0d1-469c-be61-93db13a87b72"},"vehicle_type_id":"4","last_reported":1726960083,"current_range_meters":21600,"station_id":"ce4bgj92rcd13ifvqbd0","pricing_plan_id":"cebpf4jnsgd1na2vs0mg"},{"bike_id":"b5312d09-7495-4a11-9270-8b8509805415","system_id":"levelo_inurba_marseille","lat":43.26546,"lon":5.37291,"is_reserved":false,"is_disabled":false,"rental_uris":{"android":"levelo://app?vid=b5312d09-7495-4a11-9270-8b8509805415","ios":"levelo://app?vid=b5312d09-7495-4a11-9270-8b8509805415"},"vehicle_type_id":"4","last_reported":1726960083,"current_range_meters":38800,"station_id":"ce4bhg12rcd13ifvqf70","pricing_plan_id":"cebpf4jnsgd1na2vs0mg"},{"bike_id":"46fbb630-09e8-4170-9be5-4fdb9fc3d75f","system_id":"levelo_inurba_marseille","lat":43.324766,"lon":5.365655,"is_reserved":false,"is_disabled":false,"rental_uris":{"android":"levelo://app?vid=46fbb630-09e8-4170-9be5-4fdb9fc3d75f","ios":"levelo://app?vid=46fbb630-09e8-4170-9be5-4fdb9fc3d75f"},"vehicle_type_id":"4","last_reported":1726960083,"current_range_meters":40000,"station_id":"ce4bhs12rcd13ifvqhvg","pricing_plan_id":"cebpf4jnsgd1na2vs0mg"},{"bike_id":"19db1c0f-4ae9-4f59-a0d4-fe153e1d6197","system_id":"levelo_inurba_marseille","lat":43.29266,"lon":5.38441,"is_reserved":false,"is_disabled":false,"rental_uris":{"android":"levelo://app?vid=19db1c0f-4ae9-4f59-a0d4-fe153e1d6197","ios":"levelo://app?vid=19db1c0f-4ae9-4f59-a0d4-fe153e1d6197"},"vehicle_type_id":"4","last_reported":1726960083,"current_range_meters":12800,"station_id":"ce4bh692rcd13ifvqea0","pricing_plan_id":"cebpf4jnsgd1na2vs0mg"},{"bike_id":"2b40b9d7-323b-4207-b2de-d3cf4cff3e1f","system_id":"levelo_inurba_marseille","lat":43.23197,"lon":5.35552,"is_reserved":false,"is_disabled":false,"rental_uris":{"android":"levelo://app?vid=2b40b9d7-323b-4207-b2de-d3cf4cff3e1f","ios":"levelo://app?vid=2b40b9d7-323b-4207-b2de-d3cf4cff3e1f"},"vehicle_type_id":"4","last_reported":1726960083,"current_range_meters":18000,"station_id":"ce4bhu92rcd13ifvqi70","pricing_plan_id":"cebpf4jnsgd1na2vs0mg"},{"bike_id":"f1c65647-c1b0-4c23-bf04-752b6fa29535","system_id":"levelo_inurba_marseille","lat":43.31709,"lon":5.37755,"is_reserved":false,"is_disabled":false,"rental_uris":{"android":"levelo://app?vid=f1c65647-c1b0-4c23-bf04-752b6fa29535","ios":"levelo://app?vid=f1c65647-c1b0-4c23-bf04-752b6fa29535"},"vehicle_type_id":"4","last_reported":1726960083,"current_range_meters":39200,"station_id":"ce4bgth2rcd13ifvqch0","pricing_plan_id":"cebpf4jnsgd1na2vs0mg"},{"bike_id":"d44b20e9-1ac7-439b-8b3e-74095a8d7cf0","system_id":"levelo_inurba_marseille","lat":43.290178,"lon":5.386408,"is_reserved":false,"is_disabled":false,"rental_uris":{"android":"levelo://app?vid=d44b20e9-1ac7-439b-8b3e-74095a8d7cf0","ios":"levelo://app?vid=d44b20e9-1ac7-439b-8b3e-74095a8d7cf0"},"vehicle_type_id":"4","last_reported":1726960083,"current_range_meters":38800,"station_id":"ce4bh4p2rcd13ifvqe0g","pricing_plan_id":"cebpf4jnsgd1na2vs0mg"},{"bike_id":"9cd954ea-03ae-4f3d-9b99-5f5907b07d5e","system_id":"levelo_inurba_marseille","lat":43.27377,"lon":5.36256,"is_reserved":false,"is_disabled":false,"rental_uris":{"android":"levelo://app?vid=9cd954ea-03ae-4f3d-9b99-5f5907b07d5e","ios":"levelo://app?vid=9cd954ea-03ae-4f3d-9b99-5f5907b07d5e"},"vehicle_type_id":"4","last_reported":1726960083,"current_range_meters":10800,"station_id":"ce4bhbh2rcd13ifvqeo0","pricing_plan_id":"cebpf4jnsgd1na2vs0mg"},{"bike_id":"9f125b04-9b15-4419-bd68-031fb7013f27","system_id":"levelo_inurba_marseille","lat":43.32369,"lon":5.38886,"is_reserved":false,"is_disabled":false,"rental_uris":{"android":"levelo://app?vid=9f125b04-9b15-4419-bd68-031fb7013f27","ios":"levelo://app?vid=9f125b04-9b15-4419-bd68-031fb7013f27"},"vehicle_type_id":"4","last_reported":1726960083,"current_range_meters":22000,"station_id":"ce4bhqp2rcd13ifvqhog","pricing_plan_id":"cebpf4jnsgd1na2vs0mg"},