{"last_updated":1727871468,"ttl":60,"version":"2.2","data":{"bikes":[{"bike_id":"8c96f663-1bb7-4888-b19f-c54dd97d8787","system_id":"levelo_inurba_marseille","lat":43.30455,"lon":5.38913,"is_reserved":false,"is_disabled":false,"rental_uris":{"android":"levelo://app?vid=8c96f663-1bb7-4888-b19f-c54dd97d8787","ios":"levelo://app?vid=8c96f663-1bb7-4888-b19f-c54dd97d8787"},"vehicle_type_id":"4","last_reported":1727871469,"current_range_meters":39200,"station_id":"ce4bgk12rcd13ifvqbi0","pricing_plan_id":"cebpf4jnsgd1na2vs0mg"},{"bike_id":"98bbd9c1-8307-405d-9250-6682408d96e2","system_id":"levelo_inurba_marseille","lat":43.33744,"lon":5.37491,"is_reserved":false,"is_disabled":false,"rental_uris":{"android":"levelo://app?vid=98bbd9c1-8307-405d-9250-6682408d96e2","ios":"levelo://app?vid=98bbd9c1-8307-405d-9250-6682408d96e2"},"vehicle_type_id":"4","last_reported":1727871469,"current_range_meters":38000,"station_id":"","pricing_plan_id":"cebpf4jnsgd1na2vs0mg"},{"bike_id":"9cbd5e5d-4526-4da2-a147-66de63a0e891","system_id":"levelo_inurba_marseille","lat":43.30139,"lon":5.3986,"is_reserved":false,"is_disabled":false,"rental_uris":{"android":"levelo://app?vid=9cbd5e5d-4526-4da2-a147-66de63a0e891","ios":"levelo://app?vid=9cbd5e5d-4526-4da2-a147-66de63a0e891"},"vehicle_type_id":"4","last_reported":1727871469,"current_range_meters":15200,"station_id":"ce4bh0h2rcd13ifvqd40","pricing_plan_id":"cebpf4jnsgd1na2vs0mg"},{"bike_id":"e98b185b-99e4-42a7-93ba-a6fa6c4cf0db","system_id":"levelo_inurba_marseille","lat":43.304604,"lon":5.378962,"is_reserved":false,"is_disabled":false,"rental_uris":{"android":"levelo://app?vid=e98b185b-99e4-42a7-93ba-a6fa6c4cf0db","ios":"levelo://app?vid=e98b185b-99e4-42a7-93ba-a6fa6c4cf0db"},"vehicle_type_id":"4","last_reported":1727871469,"current_range_meters":37600,"station_id":"ce4bgup2rcd13ifvqcn0","pricing_plan_id":"cebpf4jnsgd1na2vs0mg"},{"bike_id":"49cd4443-d6dd-4b0a-b11d-28dd808839ca","system_id":"levelo_inurba_marseille","lat":43.27376,"lon":5.36258,"is_reserved":false,"is_disabled":false,"rental_uris":{"android":"levelo://app?vid=49cd4443-d6dd-4b0a-b11d-28dd808839ca","ios":"levelo://app?vid=49cd4443-d6dd-4b0a-b11d-28dd808839ca"},"vehicle_type_id":"4","last_reported":1727871469,"current_range_meters":33200,"station_id":"ce4bhbh2rcd13ifvqeo0","pricing_plan_id":"cebpf4jnsgd1na2vs0mg"},{"bike_id":"c9d21d93-4991-4925-bdde-e80d62e3a069","system_id":"levelo_inurba_marseille","lat":43.24179,"lon":5.39724,"is_reserved":false,"is_disabled":false,"rental_uris":{"android":"levelo://app?vid=c9d21d93-4991-4925-bdde-e80d62e3a069","ios":"levelo://app?vid=c9d21d93-4991-4925-bdde-e80d62e3a069"},"vehicle_type_id":"4","last_reported":1727871469,"current_range_meters":8400,"station_id":"ce4bhn12rcd13ifvqgpg","pricing_plan_id":"cebpf4jnsgd1na2vs0mg"},{"bike_id":"5fd15e53-1e22-4a08-9119-be6d27e37e0b","system_id":"levelo_inurba_marseille","lat":43.28932,"lon":5.39621,"is_reserved":false,"is_disabled":false,"rental_uris":{"android":"levelo://app?vid=5fd15e53-1e22-4a08-9119-be6d27e37e0b","ios":"levelo://app?vid=5fd15e53-1e22-4a08-9119-be6d27e37e0b"},"vehicle_type_id":"4","last_reported":1727871469,"current_range_meters":38800,"station_id":"ce4bh3h2rcd13ifvqdn0","pricing_plan_id":"cebpf4jnsgd1na2vs0mg"},{"bike_id":"fae6ddb2-d1f7-43b9-a224-1bd9ea8519b2","system_id":"levelo_inurba_marseille","lat":43.289346,"lon":5.38393,"is_reserved":false,"is_disabled":false,"rental_uris":{"android":"levelo://app?vid=fae6ddb2-d1f7-43b9-a224-1bd9ea8519b2","ios":"levelo://app?vid=fae6ddb2-d1f7-43b9-a224-1bd9ea8519b2"},"vehicle_type_id":"4","last_reported":1727871469,"current_range_meters":16400,"station_id":"ce4bh612rcd13ifvqe6g","pricing_plan_id":"cebpf4jnsgd1na2vs0mg"},{"bike_id":"5bdbddef-7c49-4aaf-a0e0-b986edba5701","system_id":"levelo_inurba_marseille","lat":43.28693,"lon":5.39994,"is_reserved":false,"is_disabled":false,"rental_uris":{"android":"levelo://app?vid=5bdbddef-7c49-4aaf-a0e0-b986edba5701","ios":"levelo://app?vid=5bdbddef-7c49-4aaf-a0e0-b986edba5701"},"vehicle_type_id":"4","last_reported":1727871469,"current_range_meters":36400,"station_id":"ce4bho92rcd13ifvqh3g","pricing_plan_id":"cebpf4jnsgd1na2vs0mg"},{"bike_id":"5f2e32d7-6e0b-4351-b5ce-fc3369e0c7f5","system_id":"levelo_inurba_marseille","lat":43.23177,"lon":5.39974,"is_reserved":false,"is_disabled":false,"rental_uris":{"android":"levelo://app?vid=5f2e32d7-6e0b-4351-b5ce-fc3369e0c7f5","ios":"levelo://app?vid=5f2e32d7-6e0b-4351-b5ce-fc3369e0c7f5"},"vehicle_type_id":"4","last_reported":1727871469,"current_range_meters":28400,"station_id":"ce4bhn12rcd13ifvqgqg","pricing_plan_id":"cebpf4jnsgd1na2vs0mg"},{"bike_id":"52e52c29-d147-4193-bc95-6b632343d54e","system_id":"levelo_inurba_marseille","lat":43.29621,"lon":5.37717,"is_reserved":false,"is_disabled":false,"rental_uris":{"android":"levelo://app?vid=52e52c29-d147-4193-bc95-6b632343d54e","ios":"levelo://app?vid=52e52c29-d147-4193-bc95-6b632343d54e"},"vehicle_type_id":"4","last_reported":1727871469,"current_range_meters":27200,"station_id":"ce4bgi92rcd13ifvqb90","pricing_plan_id":"cebpf4jnsgd1na2vs0mg"},{"bike_id":"2cad5652-fa10-4eea-9898-51dcbdd14760","system_id":"levelo_inurba_marseille","lat":43.293104,"lon":5.371653,"is_reserved":false,"is_disabled":false,"rental_uris":{"android":"levelo://app?vid=2cad5652-fa10-4eea-9898-51dcbdd14760","ios":"levelo://app?vid=2cad5652-fa10-4eea-9898-51dcbdd14760"},"vehicle_type_id":"4","last_reported":1727871469,"current_range_meters":32000,"station_id":"ce4bgh92rcd13ifvqb40","pricing_plan_id":"cebpf4jnsgd1na2vs0mg"},{"bike_id":"dcdb6f70-46d6-4d91-a9fb-9edec8f0d8b1","system_id":"levelo_inurba_marseille","lat":43.30126,"lon":5.3984,"is_reserved":false,"is_disabled":false,"rental_uris":{"android":"levelo://app?vid=dcdb6f70-46d6-4d91-a9fb-9edec8f0d8b1","ios":"levelo://app?vid=dcdb6f70-46d6-4d91-a9fb-9edec8f0d8b1"},"vehicle_type_id":"4","last_reported":1727871469,"current_range_meters":29600,"station_id":"ce4bh0h2rcd13ifvqd40","pricing_plan_id":"cebpf4jnsgd1na2vs0mg"},{"bike_id":"cc1b0ea3-ad3d-4cdd-bd2d-01272f02e72c","system_id":"levelo_inurba_marseille","lat":43.300937,"lon":5.39069,"is_reserved":false,"is_disabled":false,"rental_uris":{"android":"levelo://app?vid=cc1b0ea3-ad3d-4cdd-bd2d-01272f02e72c","ios":"levelo://app?vid=cc1b0ea3-ad3d-4cdd-bd2d-01272f02e72c"},"vehicle_type_id":"4","last_reported":1727871469,"current_range_meters":35200,"station_id":"ce4bh192rcd13ifvqdb0","pricing_plan_id":"cebpf4jnsgd1na2vs0mg"},{"bike_id":"1bad5df1-dc2a-41bd-b57f-127b322c5631","system_id":"levelo_inurba_marseille","lat":43.30544,"lon":5.38413,"is_reserved":false,"is_disabled":false,"rental_uris":{"android":"levelo://app?vid=1bad5df1-dc2a-41bd-b57f-127b322c5631","ios":"levelo://app?vid=1bad5df1-dc2a-41bd-b57f-127b322c5631"},"vehicle_type_id":"4","last_reported":1727871469,"current_range_meters":28400,"station_id":"ce4bgg92rcd13ifvqb30","pricing_plan_id":"cebpf4jnsgd1na2vs0mg"},{"bike_id":"ec3b6650-0a81-4fb7-8f04-b3eb2064e07d","system_id":"levelo_inurba_marseille","lat":43.29574,"lon":5.37528,"is_reserved":false,"is_disabled":false,"rental_uris":{"android":"levelo://app?vid=ec3b6650-0a81-4fb7-8f04-b3eb2064e07d","ios":"levelo://app?vid=ec3b6650-0a81-4fb7-8f04-b3eb2064e07d"},"vehicle_type_id":"4","last_reported":1727871469,"current_range_meters":11200,"station_id":"ce4bgh92rcd13ifvqb50","pricing_plan_id":"cebpf4jnsgd1na2vs0mg"},{"bike_id":"3266d668-2f81-4f3b-ae04-8070b32a0e52","system_id":"levelo_inurba_marseille","lat":43.33023,"lon":5.39045,"is_reserved":false,"is_disabled":false,"rental_uris":{"android":"levelo://app?vid=3266d668-2f81-4f3b-ae04-8070b32a0e52","ios":"levelo://app?vid=3266d668-2f81-4f3b-ae04-8070b32a0e52"},"vehicle_type_id":"4","last_reported":1727871469,"current_range_meters":38800,"station_id":"ce4bhr92rcd13ifvqhrg","pricing_plan_id":"cebpf4jnsgd1na2vs0mg"},{"bike_id":"9be5b0ff-0133-4d88-a566-3d4f835df562","system_id":"levelo_inurba_marseille","lat":43.30592,"lon":5.3721,"is_reserved":false,"is_disabled":false,"rental_uris":{"android":"levelo://app?vid=9be5b0ff-0133-4d88-a566-3d4f835df562","ios":"levelo://app?vid=9be5b0ff-0133-4d88-a566-3d4f835df562"},"vehicle_type_id":"4","last_reported":1727871469,"current_range_meters":12800,"station_id":"ce4bgqh2rcd13ifvqc4g","pricing_plan_id":"cebpf4jnsgd1na2vs0mg"},{"bike_id":"97f9d537-3cc6-47de-9339-350458eb5069","system_id":"levelo_inurba_marseille","lat":43.29623,"lon":5.37715,"is_reserved":false,"is_disabled":false,"rental_uris":{"android":"levelo://app?vid=97f9d537-3cc6-47de-9339-350458eb5069","ios":"levelo://app?vid=97f9d537-3cc6-47de-9339-350458eb5069"},"vehicle_type_id":"4","last_reported":1727871469,"current_range_meters":27200,"station_id":"ce4bgi92rcd13ifvqb90","pricing_plan_id":"cebpf4jnsgd1na2vs0mg"},{"bike_id":"47d8f791-e55c-4c96-b451-0f256b212cb8","system_id":"levelo_inurba_marseille","lat":43.28941,"lon":5.36646,"is_reserved":false,"is_disabled":false,"rental_uris":{"android":"levelo://app?vid=47d8f791-e55c-4c96-b451-0f256b212cb8","ios":"levelo://app?vid=47d8f791-e55c-4c96-b451-0f256b212cb8"},"vehicle_type_id":"4","last_reported":1727871469,"current_range_meters":17200,"station_id":"ce4bhap2rcd13ifvqek0","pricing_plan_id":"cebpf4jnsgd1na2vs0mg"},{"bike_id":"f72bec66-9abe-49d0-8192-5496d8165f64","system_id":"levelo_inurba_marseille","lat":43.26683,"lon":5.38271,"is_reserved":false,"is_disabled":false,"rental_uris":{"android":"levelo://app?vid=f72bec66-9abe-49d0-8192-5496d8165f64","ios":"levelo://app?vid=f72bec66-9abe-49d0-8192-5496d8165f64"},"vehicle_type_id":"4","last_reported":1727871469,"current_range_meters":38800,"station_id":"ce4bhg92rcd13ifvqf90","pricing_plan_id":"cebpf4jnsgd1na2vs0mg"},{"bike_id":"2296704e-06fc-4da4-b868-3c6979869b57","system_id":"levelo_inurba_marseille","lat":43.2998,"lon":5.37163,"is_reserved":false,"is_disabled":false,"rental_uris":{"android":"levelo://app?vid=2296704e-06fc-4da4-b868-3c6979869b57","ios":"levelo://app?vid=2296704e-06fc-4da4-b868-3c6979869b57"},"vehicle_type_id":"4","last_reported":1727871469,"current_range_meters":21600,"station_id":"ce4bgr92rcd13ifvqc7g","pricing_plan_id":"cebpf4jnsgd1na2vs0mg"},{"bike_id":"775b89d5-55a6-47fd-a8df-2816fe3497e0","system_id":"levelo_inurba_marseille","lat":43.337444,"lon":5.374475,"is_reserved":false,"is_disabled":false,"rental_uris":{"android":"levelo://app?vid=775b89d5-55a6-47fd-a8df-2816fe3497e0","ios":"levelo://app?vid=775b89d5-55a6-47fd-a8df-2816fe3497e0"},"vehicle_type_id":"4","last_reported":1727871469,"current_range_meters":16400,"station_id":"","pricing_plan_id":"cebpf4jnsgd1na2vs0mg"},{"bike_id":"6dc0a7c3-dc0b-409e-8225-d79d8fcef48b","system_id":"levelo_inurba_marseille","lat":43.33028,"lon":5.39045,"is_reserved":false,"is_disabled":false,"rental_uris":{"android":"levelo://app?vid=6dc0a7c3-dc0b-409e-8225-d79d8fcef48b","ios":"levelo://app?vid=6dc0a7c3-dc0b-409e-8225-d79d8fcef48b"},"vehicle_type_id":"4","last_reported":1727871469,"current_range_meters":35200,"station_id":"ce4bhr92rcd13ifvqhrg","pricing_plan_id":"cebpf4jnsgd1na2vs0mg"},{"bike_id":"ec1c3e2c-022c-4156-88fa-de4eba1043d2","system_id":"levelo_inurba_marseille","lat":43.25008,"lon":5.38914,"is_reserved":false,"is_disabled":false,"rental_uris":{"android":"levelo://app?vid=ec1c3e2c-022c-4156-88fa-de4eba1043d2","ios":"levelo://app?vid=ec1c3e2c-022c-4156-88fa-de4eba1043d2"},"vehicle_type_id":"4","last_reported":1727871469,"current_range_meters":33600,"station_id":"ce4bhgp2rcd13ifvqfd0","pricing_plan_id":"cebpf4jnsgd1na2vs0mg"},{"bike_id":"822311af-4b28-4562-8e45-81287e2e9498","system_id":"levelo_inurba_marseille","lat":43.23152,"lon":5.43722,"is_reserved":false,"is_disabled":false,"rental_uris":{"android":"levelo://app?vid=822311af-4b28-4562-8e45-81287e2e9498","ios":"levelo://app?vid=822311af-4b28-4562-8e45-81287e2e9498"},"vehicle_type_id":"4","last_reported":1727871469,"current_range_meters":20000,"station_id":"ce4bhmp2rcd13ifvqgog","pricing_plan_id":"cebpf4jnsgd1na2vs0mg"},{"bike_id":"186d1d7d-1293-4df2-9a3c-509d9f14d3c3","system_id":"levelo_inurba_marseille","lat":43.25928,"lon":5.40906,"is_reserved":false,"is_disabled":false,"rental_uris":{"android":"levelo://app?vid=186d1d7d-1293-4df2-9a3c-509d9f14d3c3","ios":"levelo://app?vid=186d1d7d-1293-4df2-9a3c-509d9f14d3c3"},"vehicle_type_id":"4","last_reported":1727871469,"current_range_meters":28400,"station_id":"ce4bhm92rcd13ifvqglg","pricing_plan_id":"cebpf4jnsgd1na2vs0mg"},{"bike_id":"21bd0eaa-d1a8-4886-9288-7871e0263a69","system_id":"levelo_inurba_marseille","lat":43.30542,"lon":5.36523,"is_reserved":false,"is_disabled":false,"rental_uris":{"android":"levelo://app?vid=21bd0eaa-d1a8-4886-9288-7871e0263a69","ios":"levelo://app?vid=21bd0eaa-d1a8-4886-9288-7871e0263a69"},"vehicle_type_id":"4","last_reported":1727871469,"current_range_meters":6000,"station_id":"ce4bgs12rcd13ifvqcag","pricing_plan_id":"cebpf4jnsgd1na2vs0mg"},{"bike_id":"1ed8582d-7899-444b-b13b-c772b64db595","system_id":"levelo_inurba_marseille","lat":43.337444,"lon":5.374475,"is_reserved":false,"is_disabled":false,"rental_uris":{"android":"levelo://app?vid=1ed8582d-7899-444b-b13b-c772b64db595","ios":"levelo://app?vid=1ed8582d-7899-444b-b13b-c772b64db595"},"vehicle_type_id":"4","last_reported":1727871469,"current_range_meters":38800,"station_id":"ce4bh0p2rcd13ifvqd70","pricing_plan_id":"cebpf4jnsgd1na2vs0mg"},{"bike_id":"0f20138e-3e3d-41a5-8400-1e8163d4deb9","system_id":"levelo_inurba_marseille","lat":43.24667,"lon":5.38159,"is_reserved":false,"is_disabled":false,"rental_uris":{"android":"levelo://app?vid=0f20138e-3e3d-41a5-8400-1e8163d4deb9","ios":"levelo://app?vid=0f20138e-3e3d-41a5-8400-1e8163d4deb9"},"vehicle_type_id":"4","last_reported":1727871469,"current_range_meters":8800,"station_id":"ce4bhih2rcd13ifvqfr0","pricing_plan_id":"cebpf4jnsgd1na2vs0mg"},{"bike_id":"656d5df6-48ce-4f86-a061-4c4cd051f912","system_id":"levelo_inurba_marseille","lat":43.30145,"lon":5.38081,"is_reserved":false,"is_disabled":false,"rental_uris":{"android":"levelo://app?vid=656d5df6-48ce-4f86-a061-4c4cd051f912","ios":"levelo://app?vid=656d5df6-48ce-4f86-a061-4c4cd051f912"},"vehicle_type_id":"4","last_reported":1727871469,"current_range_meters":38800,"station_id":"ce4bgjp2rcd13ifvqbh0","pricing_plan_id":"cebpf4jnsgd1na2vs0mg"},{"bike_id":"91aa9156-b7cc-4733-b415-df1a0f563d58","system_id":"levelo_inurba_marseille","lat":43.22934,"lon":5.3538,"is_reserved":false,"is_disabled":false,"rental_uris":{"android":"levelo://app?vid=91aa9156-b7cc-4733-b415-df1a0f563d58","ios":"levelo://app?vid=91aa9156-b7cc-4733-b415-df1a0f563d58"},"vehicle_type_id":"4","last_reported":1727871469,"current_range_meters":24400,"station_id":"cpo3532slgdg3j2ikp40","pricing_plan_id":"cebpf4jnsgd1na2vs0mg"},{"bike_id":"090d5a86-fe63-4869-b020-abe162420927","system_id":"levelo_inurba_marseille","lat":43.28464,"lon":5.35898,"is_reserved":false,"is_disabled":false,"rental_uris":{"android":"levelo://app?vid=090d5a86-fe63-4869-b020-abe162420927","ios":"levelo://app?vid=090d5a86-fe63-4869-b020-abe162420927"},"vehicle_type_id":"4","last_reported":1727871469,"current_range_meters":22800,"station_id":"ce4bhah2rcd13ifvqei0","pricing_plan_id":"cebpf4jnsgd1na2vs0mg"},{"bike_id":"83630813-6fe3-47f0-ae7d-360eeadf90ad","system_id":"levelo_inurba_marseille","lat":43.29979,"lon":5.37169,"is_reserved":false,"is_disabled":false,"rental_uris":{"android":"levelo://app?vid=83630813-6fe3-47f0-ae7d-360eeadf90ad","ios":"levelo://app?vid=83630813-6fe3-47f0-ae7d-360eeadf90ad"},"vehicle_type_id":"4","last_reported":1727871469,"current_range_meters":24800,"station_id":"ce4bgr92rcd13ifvqc7g","pricing_plan_id":"cebpf4jnsgd1na2vs0mg"},{"bike_id":"c2f37ace-8fc8-4022-82a5-40b506e360ee","system_id":"levelo_inurba_marseille","lat":43.317103,"lon":5.377374,"is_reserved":false,"is_disabled":false,"rental_uris":{"android":"levelo://app?vid=c2f37ace-8fc8-4022-82a5-40b506e360ee","ios":"levelo://app?vid=c2f37ace-8fc8-4022-82a5-40b506e360ee"},"vehicle_type_id":"4","last_reported":1727871469,"current_range_meters":21600,"station_id":"ce4bgth2rcd13ifvqch0","pricing_plan_id":"cebpf4jnsgd1na2vs0mg"},{"bike_id":"d8b770fd-2389-4bb4-9928-2519373ef5f7","system_id":"levelo_inurba_marseille","lat":43.29847,"lon":5.36273,"is_reserved":false,"is_disabled":false,"rental_uris":{"android":"levelo://app?vid=d8b770fd-2389-4bb4-9928-2519373ef5f7","ios":"levelo://app?vid=d8b770fd-2389-4bb4-9928-2519373ef5f7"},"vehicle_type_id":"4","last_reported":1727871469,"current_range_meters":10800,"station_id":"ce4bgpp2rcd13ifvqc3g","pricing_plan_id":"cebpf4jnsgd1na2vs0mg"},{"bike_id":"30292d63-33f0-4c90-a9e9-a4f3e5b2f036","system_id":"levelo_inurba_marseille","lat":43.31493,"lon":5.37301,"is_reserved":false,"is_disabled":false,"rental_uris":{"android":"levelo://app?vid=30292d63-33f0-4c90-a9e9-a4f3e5b2f036","ios":"levelo://app?vid=30292d63-33f0-4c90-a9e9-a4f3e5b2f036"},"vehicle_type_id":"4","last_reported":1727871469,"current_range_meters":12000,"station_id":"ce4bgt12rcd13ifvqcd0","pricing_plan_id":"cebpf4jnsgd1na2vs0mg"},{"bike_id":"342f352f-c615-460d-bcae-9706bc5aaa6e","system_id":"levelo_inurba_marseille","lat":43.28158,"lon":5.42636,"is_reserved":false,"is_disabled":false,"rental_uris":{"android":"levelo://app?vid=342f352f-c615-460d-bcae-9706bc5aaa6e","ios":"levelo://app?vid=342f352f-c615-460d-bcae-9706bc5aaa6e"},"vehicle_type_id":"4","last_reported":1727871469,"current_range_meters":26000,"station_id":"ce4bhnh2rcd13ifvqgug","pricing_plan_id":"cebpf4jnsgd1na2vs0mg"},{"bike_id":"cc9d4531-cffd-4890-8c6b-c2edec9c7366","system_id":"levelo_inurba_marseille","lat":43.30591,"lon":5.3721,"is_reserved":false,"is_disabled":false,"rental_uris":{"android":"levelo://app?vid=cc9d4531-cffd-4890-8c6b-c2edec9c7366","ios":"levelo://app?vid=cc9d4531-cffd-4890-8c6b-c2edec9c7366"},"vehicle_type_id":"4","last_reported":1727871469,"current_range_meters":20000,"station_id":"ce4bgqh2rcd13ifvqc4g","pricing_plan_id":"cebpf4jnsgd1na2vs0mg"},{"bike_id":"d1f0d014-7557-47d8-822b-5e26ceaae108","system_id":"levelo_inurba_marseille","lat":43.23185,"lon":5.39987,"is_reserved":false,"is_disabled":false,"rental_uris":{"android":"levelo://app?vid=d1f0d014-7557-47d8-822b-5e26ceaae108","ios":"levelo://app?vid=d1f0d014-7557-47d8-822b-5e26ceaae108"},"vehicle_type_id":"4","last_reported":1727871469,"current_range_meters":12400,"station_id":"ce4bhn12rcd13ifvqgqg","pricing_plan_id":"cebpf4jnsgd1na2vs0mg"},{"bike_id":"51109cfb-118c-4ad3-9746-177bf75e1db3","system_id":"levelo_inurba_marseille","lat":43.31122,"lon":5.37752,"is_reserved":false,"is_disabled":false,"rental_uris":{"android":"levelo://app?vid=51109cfb-118c-4ad3-9746-177bf75e1db3","ios":"levelo://app?vid=51109cfb-118c-4ad3-9746-177bf75e1db3"},"vehicle_type_id":"4","last_reported":1727871469,"current_range_meters":6400,"station_id":"ce4bgt92rcd13ifvqcg0","pricing_plan_id":"cebpf4jnsgd1na2vs0mg"},{"bike_id":"d2b517f7-7cfe-465b-b8e9-46be13a7979d","system_id":"levelo_inurba_marseille","lat":43.279099,"lon":5.379957,"is_reserved":false,"is_disabled":false,"rental_uris":{"android":"levelo://app?vid=d2b517f7-7cfe-465b-b8e9-46be13a7979d","ios":"levelo://app?vid=d2b517f7-7cfe-465b-b8e9-46be13a7979d"},"vehicle_type_id":"4","last_reported":1727871469,"current_range_meters":38800,"station_id":"ce4bhg12rcd13ifvqf80","pricing_plan_id":"cebpf4jnsgd1na2vs0mg"},{"bike_id":"a32e6350-58b1-4ab3-99f4-754aab2fed37","system_id":"levelo_inurba_marseille","lat":43.28465,"lon":5.35894,"is_reserved":false,"is_disabled":false,"rental_uris":{"android":"levelo://app?vid=a32e6350-58b1-4ab3-99f4-754aab2fed37","ios":"levelo://app?vid=a32e6350-58b1-4ab3-99f4-754aab2fed37"},"vehicle_type_id":"4","last_reported":1727871469,"current_range_meters":30400,"station_id":"ce4bhah2rcd13ifvqei0","pricing_plan_id":"cebpf4jnsgd1na2vs0mg"},{"bike_id":"be19b1fe-4ab5-45f0-a575-f506ba21f8b3","system_id":"levelo_inurba_marseille","lat":43.29204,"lon":5.39312,"is_reserved":false,"is_disabled":false,"rental_uris":{"android":"levelo://app?vid=be19b1fe-4ab5-45f0-a575-f506ba21f8b3","ios":"levelo://app?vid=be19b1fe-4ab5-45f0-a575-f506ba21f8b3"},"vehicle_type_id":"4","last_reported":1727871469,"current_range_meters":26000,"station_id":"ce4bh192rcd13ifvqdd0","pricing_plan_id":"cebpf4jnsgd1na2vs0mg"},{"bike_id":"3a48058d-bdb7-4fa4-aea5-da158a7a0b38","system_id":"levelo_inurba_marseille","lat":43.33028,"lon":5.39043,"is_reserved":false,"is_disabled":false,"rental_uris":{"android":"levelo://app?vid=3a48058d-bdb7-4fa4-aea5-da158a7a0b38","ios":"levelo://app?vid=3a48058d-bdb7-4fa4-aea5-da158a7a0b38"},"vehicle_type_id":"4","last_reported":1727871469,"current_range_meters":32000,"station_id":"ce4bhr92rcd13ifvqhrg","pricing_plan_id":"cebpf4jnsgd1na2vs0mg"},{"bike_id":"2392ac77-55f7-4c80-af73-e5c5c755b68a","system_id":"levelo_inurba_marseille","lat":43.26563,"lon":5.37279,"is_reserved":false,"is_disabled":false,"rental_uris":{"android":"levelo://app?vid=2392ac77-55f7-4c80-af73-e5c5c755b68a","ios":"levelo://app?vid=2392ac77-55f7-4c80-af73-e5c5c755b68a"},"vehicle_type_id":"4","last_reported":1727871469,"current_range_meters":27600,"station_id":"ce4bhg12rcd13ifvqf70","pricing_plan_id":"cebpf4jnsgd1na2vs0mg"},{"bike_id":"bcdd85f6-85a5-4d66-8cd4-e19f862a7f49","system_id":"levelo_inurba_marseille","lat":43.25109,"lon":5.40322,"is_reserved":false,"is_disabled":false,"rental_uris":{"android":"levelo://app?vid=bcdd85f6-85a5-4d66-8cd4-e19f862a7f49","ios":"levelo://app?vid=bcdd85f6-85a5-4d66-8cd4-e19f862a7f49"},"vehicle_type_id":"4","last_reported":1727871469,"current_range_meters":14800,"station_id":"ce4bhlh2rcd13ifvqgig","pricing_plan_id":"cebpf4jnsgd1na2vs0mg"},{"bike_id":"a1ac91c2-e22c-4ece-bfe2-4d5e13ad6026","system_id":"levelo_inurba_marseille","lat":43.34074,"lon":5.41998,"is_reserved":false,"is_disabled":false,"rental_uris":{"android":"levelo://app?vid=a1ac91c2-e22c-4ece-bfe2-4d5e13ad6026","ios":"levelo://app?vid=a1ac91c2-e22c-4ece-bfe2-4d5e13ad6026"},"vehicle_type_id":"4","last_reported":1727871469,"current_range_meters":4800,"station_id":"","pricing_plan_id":"cebpf4jnsgd1na2vs0mg"},{"bike_id":"a2b2e7ec-9291-4e2e-99f8-400018f4dc70","system_id":"levelo_inurba_marseille","lat":43.30535,"lon":5.36699,"is_reserved":false,"is_disabled":false,"rental_uris":{"android":"levelo://app?vid=a2b2e7ec-9291-4e2e-99f8-400018f4dc70","ios":"levelo://app?vid=a2b2e7ec-9291-4e2e-99f8-400018f4dc70"},"vehicle_type_id":"4","last_reported":1727871469,"current_range_meters":39200,"station_id":"ce4bgrp2rcd13ifvqc9g","pricing_plan_id":"cebpf4jnsgd1na2vs0mg"},{"bike_id":"b1084ad7-81fb-4dca-8507-ef712dadf163","system_id":"levelo_inurba_marseille","lat":43.30541,"lon":5.36556,"is_reserved":false,"is_disabled":false,"rental_uris":{"android":"levelo://app?vid=b1084ad7-81fb-4dca-8507-ef712dadf163","ios":"levelo://app?vid=b1084ad7-81fb-4dca-8507-ef712dadf163"},"vehicle_type_id":"4","last_reported":1727871469,"current_range_meters":39200,"station_id":"ce4bgs12rcd13ifvqcag","pricing_plan_id":"cebpf4jnsgd1na2vs0mg"},{"bike_id":"609844d3-402e-4c83-8b7f-d2093120cb67","system_id":"levelo_inurba_marseille","lat":43.32543,"lon":5.41453,"is_reserved":false,"is_disabled":false,"rental_uris":{"android":"levelo://app?vid=609844d3-402e-4c83-8b7f-d2093120cb67","ios":"levelo://app?vid=609844d3-402e-4c83-8b7f-d2093120cb67"},"vehicle_type_id":"4","last_reported":1727871469,"current_range_meters":36000,"station_id":"ce4bhq12rcd13ifvqhhg","pricing_plan_id":"cebpf4jnsgd1na2vs0mg"},{"bike_id":"c64ff77d-3632-4073-a0d7-4043c7110954","system_id":"levelo_inurba_marseille","lat":43.23177,"lon":5.39981,"is_reserved":false,"is_disabled":false,"rental_uris":{"android":"levelo://app?vid=c64ff77d-3632-4073-a0d7-4043c7110954","ios":"levelo://app?vid=c64ff77d-3632-4073-a0d7-4043c7110954"},"vehicle_type_id":"4","last_reported":1727871469,"current_range_meters":20400,"station_id":"ce4bhn12rcd13ifvqgqg","pricing_plan_id":"cebpf4jnsgd1na2vs0mg"},{"bike_id":"8d3622d7-7ae8-4674-a466-eb513d115408","system_id":"levelo_inurba_marseille","lat":43.2857,"lon":5.39487,"is_reserved":false,"is_disabled":false,"rental_uris":{"android":"levelo://app?vid=8d3622d7-7ae8-4674-a466-eb513d115408","ios":"levelo://app?vid=8d3622d7-7ae8-4674-a466-eb513d115408"},"vehicle_type_id":"4","last_reported":1727871469,"current_range_meters":36400,"station_id":"ce4bh292rcd13ifvqdg0","pricing_plan_id":"cebpf4jnsgd1na2vs0mg"},{"bike_id":"649b0ebd-72c1-4ccb-bdb5-0127394604e7","system_id":"levelo_inurba_marseille","lat":43.33613,"lon":5.41021,"is_reserved":false,"is_disabled":false,"rental_uris":{"android":"levelo://app?vid=649b0ebd-72c1-4ccb-bdb5-0127394604e7","ios":"levelo://app?vid=649b0ebd-72c1-4ccb-bdb5-0127394604e7"},"vehicle_type_id":"4","last_reported":1727871469,"current_range_meters":37600,"station_id":"ce4bhqh2rcd13ifvqhmg","pricing_plan_id":"cebpf4jnsgd1na2vs0mg"},{"bike_id":"9bfdb473-fd7a-4156-9bb9-7bc2ddab44a0","system_id":"levelo_inurba_marseille","lat":43.29937,"lon":5.36554,"is_reserved":false,"is_disabled":false,"rental_uris":{"android":"levelo://app?vid=9bfdb473-fd7a-4156-9bb9-7bc2ddab44a0","ios":"levelo://app?vid=9bfdb473-fd7a-4156-9bb9-7bc2ddab44a0"},"vehicle_type_id":"4","last_reported":1727871469,"current_range_meters":4400,"station_id":"ce4bgm92rcd13ifvqbr0","pricing_plan_id":"cebpf4jnsgd1na2vs0mg"},{"bike_id":"24e55eaa-7433-4bee-a692-466c60f34e16","system_id":"levelo_inurba_marseille","lat":43.2743,"lon":5.39413,"is_reserved":false,"is_disabled":false,"rental_uris":{"android":"levelo://app?vid=24e55eaa-7433-4bee-a692-466c60f34e16","ios":"levelo://app?vid=24e55eaa-7433-4bee-a692-466c60f34e16"},"vehicle_type_id":"4","last_reported":1727871469,"current_range_meters":4800,"station_id":"ce4bhdp2rcd13ifvqf20","pricing_plan_id":"cebpf4jnsgd1na2vs0mg"},{"bike_id":"9e6f82c5-7edd-4d61-8fe9-86f829a7226e","system_id":"levelo_inurba_marseille","lat":43.2315,"lon":5.43722,"is_reserved":false,"is_disabled":false,"rental_uris":{"android":"levelo://app?vid=9e6f82c5-7edd-4d61-8fe9-86f829a7226e","ios":"levelo://app?vid=9e6f82c5-7edd-4d61-8fe9-86f829a7226e"},"vehicle_type_id":"4","last_reported":1727871469,"current_range_meters":11200,"station_id":"ce4bhmp2rcd13ifvqgog","pricing_plan_id":"cebpf4jnsgd1na2vs0mg"},{"bike_id":"5a0d3d90-449e-478b-94b1-488eb695ddbe","system_id":"levelo_inurba_marseille","lat":43.29843,"lon":5.36269,"is_reserved":false,"is_disabled":false,"rental_uris":{"android":"levelo://app?vid=5a0d3d90-449e-478b-94b1-488eb695ddbe","ios":"levelo://app?vid=5a0d3d90-449e-478b-94b1-488eb695ddbe"},"vehicle_type_id":"4","last_reported":1727871469,"current_range_meters":36400,"station_id":"ce4bgpp2rcd13ifvqc3g","pricing_plan_id":"cebpf4jnsgd1na2vs0mg"},{"bike_id":"9c2ceccf-22b3-46ff-b3d3-fc888a155293","system_id":"levelo_inurba_marseille","lat":43.29979,"lon":5.38471,"is_reserved":false,"is_disabled":false,"rental_uris":{"android":"levelo://app?vid=9c2ceccf-22b3-46ff-b3d3-fc888a155293","ios":"levelo://app?vid=9c2ceccf-22b3-46ff-b3d3-fc888a155293"},"vehicle_type_id":"4","last_reported":1727871469,"current_range_meters":38000,"station_id":"ce4bgj92rcd13ifvqbd0","pricing_plan_id":"cebpf4jnsgd1na2vs0mg"},{"bike_id":"a253aee3-25a2-4169-81f0-7160ec578495","system_id":"levelo_inurba_marseille","lat":43.27367,"lon":5.36245,"is_reserved":false,"is_disabled":false,"rental_uris":{"android":"levelo://app?vid=a253aee3-25a2-4169-81f0-7160ec578495","ios":"levelo://app?vid=a253aee3-25a2-4169-81f0-7160ec578495"},"vehicle_type_id":"4","last_reported":1727871469,"current_range_meters":38800,"station_id":"ce4bhbh2rcd13ifvqeo0","pricing_plan_id":"cebpf4jnsgd1na2vs0mg"},{"bike_id":"39c7dc54-6d62-4b84-92eb-f8a41a50040c","system_id":"levelo_inurba_marseille","lat":43.23154,"lon":5.43694,"is_reserved":false,"is_disabled":false,"rental_uris":{"android":"levelo://app?vid=39c7dc54-6d62-4b84-92eb-f8a41a50040c","ios":"levelo://app?vid=39c7dc54-6d62-4b84-92eb-f8a41a50040c"},"vehicle_type_id":"4","last_reported":1727871469,"current_range_meters":25600,"station_id":"ce4bhmp2rcd13ifvqgog","pricing_plan_id":"cebpf4jnsgd1na2vs0mg"},{"bike_id":"fec1c4e0-ecc5-4650-bb2c-a7b963c3d8fe","system_id":"levelo_inurba_marseille","lat":43.27809,"lon":5.40712,"is_reserved":false,"is_disabled":false,"rental_uris":{"android":"levelo://app?vid=fec1c4e0-ecc5-4650-bb2c-a7b963c3d8fe","ios":"levelo://app?vid=fec1c4e0-ecc5-4650-bb2c-a7b963c3d8fe"},"vehicle_type_id":"4","last_reported":1727871469,"current_range_meters":13600,"station_id":"ce4bhnh2rcd13ifvqgtg","pricing_plan_id":"cebpf4jnsgd1na2vs0mg"},{"bike_id":"123ff6ed-4385-4a10-999b-eb298bcab43c","system_id":"levelo_inurba_marseille","lat":43.33025,"lon":5.39038,"is_reserved":false,"is_disabled":false,"rental_uris":{"android":"levelo://app?vid=123ff6ed-4385-4a10-999b-eb298bcab43c","ios":"levelo://app?vid=123ff6ed-4385-4a10-999b-eb298bcab43c"},"vehicle_type_id":"4","last_reported":1727871469,"current_range_meters":39200,"station_id":"ce4bhr92rcd13ifvqhrg","pricing_plan_id":"cebpf4jnsgd1na2vs0mg"},{"bike_id":"2f0cb966-c503-4774-a1eb-49425088694c","system_id":"levelo_inurba_marseille","lat":43.28459,"lon":5.3588,"is_reserved":false,"is_disabled":false,"rental_uris":{"android":"levelo://app?vid=2f0cb966-c503-4774-a1eb-49425088694c","ios":"levelo://app?vid=2f0cb966-c503-4774-a1eb-49425088694c"},"vehicle_type_id":"4","last_reported":1727871469,"current_range_meters":24800,"station_id":"ce4bhah2rcd13ifvqei0","pricing_plan_id":"cebpf4jnsgd1na2vs0mg"},{"bike_id":"ffb3eacf-2c73-408f-9756-03986960bcba","system_id":"levelo_inurba_marseille","lat":43.29032,"lon":5.38649,"is_reserved":false,"is_disabled":false,"rental_uris":{"android":"levelo://app?vid=ffb3eacf-2c73-408f-9756-03986960bcba","ios":"levelo://app?vid=ffb3eacf-2c73-408f-9756-03986960bcba"},"vehicle_type_id":"4","last_reported":1727871469,"current_range_meters":35200,"station_id":"ce4bh4p2rcd13ifvqe0g","pricing_plan_id":"cebpf4jnsgd1na2vs0mg"},{"bike_id":"1794d20a-df0b-4ea1-ae72-151344cf2f86","system_id":"levelo_inurba_marseille","lat":43.26689,"lon":5.38268,"is_reserved":false,"is_disabled":false,"rental_uris":{"android":"levelo://app?vid=1794d20a-df0b-4ea1-ae72-151344cf2f86","ios":"levelo://app?vid=1794d20a-df0b-4ea1-ae72-151344cf2f86"},"vehicle_type_id":"4","last_reported":1727871469,"current_range_meters":3600,"station_id":"ce4bhg92rcd13ifvqf90","pricing_plan_id":"cebpf4jnsgd1na2vs0mg"},{"bike_id":"93bf69e9-b00a-4bc9-85ff-b5ae8559a8cc","system_id":"levelo_inurba_marseille","lat":43.26558,"lon":5.37286,"is_reserved":false,"is_disabled":false,"rental_uris":{"android":"levelo://app?vid=93bf69e9-b00a-4bc9-85ff-b5ae8559a8cc","ios":"levelo://app?vid=93bf69e9-b00a-4bc9-85ff-b5ae8559a8cc"},"vehicle_type_id":"4","last_reported":1727871469,"current_range_meters":6400,"station_id":"ce4bhg12rcd13ifvqf70","pricing_plan_id":"cebpf4jnsgd1na2vs0mg"},{"bike_id":"ae8dd289-29de-4fee-9dea-67ad8a4371aa","system_id":"levelo_inurba_marseille","lat":43.28931,"lon":5.36392,"is_reserved":false,"is_disabled":false,"rental_uris":{"android":"levelo://app?vid=ae8dd289-29de-4fee-9dea-67ad8a4371aa","ios":"levelo://app?vid=ae8dd289-29de-4fee-9dea-67ad8a4371aa"},"vehicle_type_id":"4","last_reported":1727871469,"current_range_meters":20800,"station_id":"ce4bhc92rcd13ifvqetg","pricing_plan_id":"cebpf4jnsgd1na2vs0mg"},{"bike_id":"81c8f3eb-4f47-48de-b362-cac094d7e803","system_id":"levelo_inurba_marseille","lat":43.25934,"lon":5.4091,"is_reserved":false,"is_disabled":false,"rental_uris":{"android":"levelo://app?vid=81c8f3eb-4f47-48de-b362-cac094d7e803","ios":"levelo://app?vid=81c8f3eb-4f47-48de-b362-cac094d7e803"},"vehicle_type_id":"4","last_reported":1727871469,"current_range_meters":7200,"station_id":"ce4bhm92rcd13ifvqglg","pricing_plan_id":"cebpf4jnsgd1na2vs0mg"},{"bike_id":"b7c611cc-aabd-4df5-b04e-8205e95c62ec","system_id":"levelo_inurba_marseille","lat":43.30646,"lon":5.43537,"is_reserved":false,"is_disabled":false,"rental_uris":{"android":"levelo://app?vid=b7c611cc-aabd-4df5-b04e-8205e95c62ec","ios":"levelo://app?vid=b7c611cc-aabd-4df5-b04e-8205e95c62ec"},"vehicle_type_id":"4","last_reported":1727871469,"current_range_meters":33600,"station_id":"ce4bhph2rcd13ifvqheg","pricing_plan_id":"cebpf4jnsgd1na2vs0mg"},{"bike_id":"c0e673e5-8784-41f7-9894-4c390ef358f1","system_id":"levelo_inurba_marseille","lat":43.28663,"lon":5.36347,"is_reserved":false,"is_disabled":false,"rental_uris":{"android":"levelo://app?vid=c0e673e5-8784-41f7-9894-4c390ef358f1","ios":"levelo://app?vid=c0e673e5-8784-41f7-9894-4c390ef358f1"},"vehicle_type_id":"4","last_reported":1727871469,"current_range_meters":32800,"station_id":"ce4bhah2rcd13ifvqej0","pricing_plan_id":"cebpf4jnsgd1na2vs0mg"},{"bike_id":"bafc9508-95ba-4a76-8a6a-613a1b101af5","system_id":"levelo_inurba_marseille","lat":43.3054,"lon":5.36551,"is_reserved":false,"is_disabled":false,"rental_uris":{"android":"levelo://app?vid=bafc9508-95ba-4a76-8a6a-613a1b101af5","ios":"levelo://app?vid=bafc9508-95ba-4a76-8a6a-613a1b101af5"},"vehicle_type_id":"4","last_reported":1727871469,"current_range_meters":10800,"station_id":"ce4bgs12rcd13ifvqcag","pricing_plan_id":"cebpf4jnsgd1na2vs0mg"},{"bike_id":"223a2484-cd11-4be1-8670-e1417af85c09","system_id":"levelo_inurba_marseille","lat":43.24077,"lon":5.37754,"is_reserved":false,"is_disabled":false,"rental_uris":{"android":"levelo://app?vid=223a2484-cd11-4be1-8670-e1417af85c09","ios":"levelo://app?vid=223a2484-cd11-4be1-8670-e1417af85c09"},"vehicle_type_id":"4","last_reported":1727871469,"current_range_meters":11200,"station_id":"ce4bhnp2rcd13ifvqgvg","pricing_plan_id":"cebpf4jnsgd1na2vs0mg"},{"bike_id":"3bb2d3e7-5aa1-4521-98a8-026a51b80a36","system_id":"levelo_inurba_marseille","lat":43.27054,"lon":5.40264,"is_reserved":false,"is_disabled":false,"rental_uris":{"android":"levelo://app?vid=3bb2d3e7-5aa1-4521-98a8-026a51b80a36","ios":"levelo://app?vid=3bb2d3e7-5aa1-4521-98a8-026a51b80a36"},"vehicle_type_id":"4","last_reported":1727871469,"current_range_meters":16800,"station_id":"ce4bhk92rcd13ifvqgc0","pricing_plan_id":"cebpf4jnsgd1na2vs0mg"},{"bike_id":"49f70484-8757-4395-998e-fc3633fa05de","system_id":"levelo_inurba_marseille","lat":43.32547,"lon":5.41431,"is_reserved":false,"is_disabled":false,"rental_uris":{"android":"levelo://app?vid=49f70484-8757-4395-998e-fc3633fa05de","ios":"levelo://app?vid=49f70484-8757-4395-998e-fc3633fa05de"},"vehicle_type_id":"4","last_reported":1727871469,"current_range_meters":25200,"station_id":"ce4bhq12rcd13ifvqhhg","pricing_plan_id":"cebpf4jnsgd1na2vs0mg"},{"bike_id":"fceaeb14-0563-4b0f-885e-a63c514d85cd","system_id":"levelo_inurba_marseille","lat":43.28415,"lon":5.34984,"is_reserved":false,"is_disabled":false,"rental_uris":{"android":"levelo://app?vid=fceaeb14-0563-4b0f-885e-a63c514d85cd","ios":"levelo://app?vid=fceaeb14-0563-4b0f-885e-a63c514d85cd"},"vehicle_type_id":"4","last_reported":1727871469,"current_range_meters":38800,"station_id":"ce4bhbh2rcd13ifvqepg","pricing_plan_id":"cebpf4jnsgd1na2vs0mg"},{"bike_id":"630bf99b-8da5-4fa5-9381-4552175c26f1","system_id":"levelo_inurba_marseille","lat":43.30919,"lon":5.36841,"is_reserved":false,"is_disabled":false,"rental_uris":{"android":"levelo://app?vid=630bf99b-8da5-4fa5-9381-4552175c26f1","ios":"levelo://app?vid=630bf99b-8da5-4fa5-9381-4552175c26f1"},"vehicle_type_id":"4","last_reported":1727871469,"current_range_meters":38800,"station_id":"ce4bgn92rcd13ifvqbvg","pricing_plan_id":"cebpf4jnsgd1na2vs0mg"},{"bike_id":"f8f518e3-bd48-40f5-801a-4ead88758ee2","system_id":"levelo_inurba_marseille","lat":43.32113,"lon":5.36772,"is_reserved":false,"is_disabled":false,"rental_uris":{"android":"levelo://app?vid=f8f518e3-bd48-40f5-801a-4ead88758ee2","ios":"levelo://app?vid=f8f518e3-bd48-40f5-801a-4ead88758ee2"},"vehicle_type_id":"4","last_reported":1727871469,"current_range_meters":9600,"station_id":"ce4bhrh2rcd13ifvqhug","pricing_plan_id":"cebpf4jnsgd1na2vs0mg"},{"bike_id":"2a8cc7b3-66c8-45ec-8738-d6a235e02807","system_id":"levelo_inurba_marseille","lat":43.32539,"lon":5.41448,"is_reserved":false,"is_disabled":false,"rental_uris":{"android":"levelo://app?vid=2a8cc7b3-66c8-45ec-8738-d6a235e02807","ios":"levelo://app?vid=2a8cc7b3-66c8-45ec-8738-d6a235e02807"},"vehicle_type_id":"4","last_reported":1727871469,"current_range_meters":24800,"station_id":"ce4bhq12rcd13ifvqhhg","pricing_plan_id":"cebpf4jnsgd1na2vs0mg"},{"bike_id":"4d9634dc-0e08-4305-b89e-cbeefd6168b4","system_id":"levelo_inurba_marseille","lat":43.30882,"lon":5.37198,"is_reserved":false,"is_disabled":false,"rental_uris":{"android":"levelo://app?vid=4d9634dc-0e08-4305-b89e-cbeefd6168b4","ios":"levelo://app?vid=4d9634dc-0e08-4305-b89e-cbeefd6168b4"},"vehicle_type_id":"4","last_reported":1727871469,"current_range_meters":11200,"station_id":"ce4bguh2rcd13ifvqckg","pricing_plan_id":"cebpf4jnsgd1na2vs0mg"},{"bike_id":"b8d0f0fe-9829-4e25-b3fc-9da75c2774f3","system_id":"levelo_inurba_marseille","lat":43.25935,"lon":5.40913,"is_reserved":false,"is_disabled":false,"rental_uris":{"android":"levelo://app?vid=b8d0f0fe-9829-4e25-b3fc-9da75c2774f3","ios":"levelo://app?vid=b8d0f0fe-9829-4e25-b3fc-9da75c2774f3"},"vehicle_type_id":"4","last_reported":1727871469,"current_range_meters":16400,"station_id":"ce4bhm92rcd13ifvqglg","pricing_plan_id":"cebpf4jnsgd1na2vs0mg"},{"bike_id":"1090c467-845e-4a37-83b2-277521f93c9a","system_id":"levelo_inurba_marseille","lat":43.27614,"lon":5.36107,"is_reserved":false,"is_disabled":false,"rental_uris":{"android":"levelo://app?vid=1090c467-845e-4a37-83b2-277521f93c9a","ios":"levelo://app?vid=1090c467-845e-4a37-83b2-277521f93c9a"},"vehicle_type_id":"4","last_reported":1727871469,"current_range_meters":23200,"station_id":"ce4bgj92rcd13ifvqbe0","pricing_plan_id":"cebpf4jnsgd1na2vs0mg"},{"bike_id":"add29882-e415-4ee9-8de1-1553af38535a","system_id":"levelo_inurba_marseille","lat":43.25116,"lon":5.40322,"is_reserved":false,"is_disabled":false,"rental_uris":{"android":"levelo://app?vid=add29882-e415-4ee9-8de1-1553af38535a","ios":"levelo://app?vid=add29882-e415-4ee9-8de1-1553af38535a"},"vehicle_type_id":"4","last_reported":1727871469,"current_range_meters":38800,"station_id":"ce4bhlh2rcd13ifvqgig","pricing_plan_id":"cebpf4jnsgd1na2vs0mg"},{"bike_id":"91b10d81-ee63-4d4b-b9ba-21e9744b0964","system_id":"levelo_inurba_marseille","lat":43.27813,"lon":5.40708,"is_reserved":false,"is_disabled":false,"rental_uris":{"android":"levelo://app?vid=91b10d81-ee63-4d4b-b9ba-21e9744b0964","ios":"levelo://app?vid=91b10d81-ee63-4d4b-b9ba-21e9744b0964"},"vehicle_type_id":"4","last_reported":1727871469,"current_range_meters":28400,"station_id":"ce4bhnh2rcd13ifvqgtg","pricing_plan_id":"cebpf4jnsgd1na2vs0mg"},{"bike_id":"7539fe9f-e13a-4923-aa36-2b94104bfe75","system_id":"levelo_inurba_marseille","lat":43.287203,"lon":5.360798,"is_reserved":false,"is_disabled":false,"rental_uris":{"android":"levelo://app?vid=7539fe9f-e13a-4923-aa36-2b94104bfe75","ios":"levelo://app?vid=7539fe9f-e13a-4923-aa36-2b94104bfe75"},"vehicle_type_id":"4","last_reported":1727871469,"current_range_meters":4400,"station_id":"ce4bgt12rcd13ifvqcd0","pricing_plan_id":"cebpf4jnsgd1na2vs0mg"},{"bike_id":"62d9cf17-26e9-40b8-94e7-9cf72e0293ee","system_id":"levelo_inurba_marseille","lat":43.30803,"lon":5.43511,"is_reserved":false,"is_disabled":false,"rental_uris":{"android":"levelo://app?vid=62d9cf17-26e9-40b8-94e7-9cf72e0293ee","ios":"levelo://app?vid=62d9cf17-26e9-40b8-94e7-9cf72e0293ee"},"vehicle_type_id":"4","last_reported":1727871469,"current_range_meters":16000,"station_id":"ce4bhph2rcd13ifvqheg","pricing_plan_id":"cebpf4jnsgd1na2vs0mg"},{"bike_id":"c002c026-0bec-4143-99f2-9e088f70f49b","system_id":"levelo_inurba_marseille","lat":43.25821,"lon":5.39433,"is_reserved":false,"is_disabled":false,"rental_uris":{"android":"levelo://app?vid=c002c026-0bec-4143-99f2-9e088f70f49b","ios":"levelo://app?vid=c002c026-0bec-4143-99f2-9e088f70f49b"},"vehicle_type_id":"4","last_reported":1727871469,"current_range_meters":38000,"station_id":"ce4bhip2rcd13ifvqft0","pricing_plan_id":"cebpf4jnsgd1na2vs0mg"},{"bike_id":"db85d372-cbf4-48ca-97fd-c9307927e51f","system_id":"levelo_inurba_marseille","lat":43.28702,"lon":5.39981,"is_reserved":false,"is_disabled":false,"rental_uris":{"android":"levelo://app?vid=db85d372-cbf4-48ca-97fd-c9307927e51f","ios":"levelo://app?vid=db85d372-cbf4-48ca-97fd-c9307927e51f"},"vehicle_type_id":"4","last_reported":1727871469,"current_range_meters":21600,"station_id":"ce4bho92rcd13ifvqh3g","pricing_plan_id":"cebpf4jnsgd1na2vs0mg"},{"bike_id":"b1c59b33-0c17-43c3-b285-0af4cf6e0d27","system_id":"levelo_inurba_marseille","lat":43.29557,"lon":5.42287,"is_reserved":false,"is_disabled":false,"rental_uris":{"android":"levelo://app?vid=b1c59b33-0c17-43c3-b285-0af4cf6e0d27","ios":"levelo://app?vid=b1c59b33-0c17-43c3-b285-0af4cf6e0d27"},"vehicle_type_id":"4","last_reported":1727871469,"current_range_meters":30000,"station_id":"ce4bhph2rcd13ifvqhdg","pricing_plan_id":"cebpf4jnsgd1na2vs0mg"},{"bike_id":"dee5a0e8-5130-4846-b687-1699c6e18d76","system_id":"levelo_inurba_marseille","lat":43.337444,"lon":5.374475,"is_reserved":false,"is_disabled":false,"rental_uris":{"android":"levelo://app?vid=dee5a0e8-5130-4846-b687-1699c6e18d76","ios":"levelo://app?vid=dee5a0e8-5130-4846-b687-1699c6e18d76"},"vehicle_type_id":"4","last_reported":1727871469,"current_range_meters":36000,"station_id":"","pricing_plan_id":"cebpf4jnsgd1na2vs0mg"},{"bike_id":"94eb947a-ad36-47f0-bbd9-f03b94063c72","system_id":"levelo_inurba_marseille","lat":43.26943,"lon":5.40249,"is_reserved":false,"is_disabled":false,"rental_uris":{"android":"levelo://app?vid=94eb947a-ad36-47f0-bbd9-f03b94063c72","ios":"levelo://app?vid=94eb947a-ad36-47f0-bbd9-f03b94063c72"},"vehicle_type_id":"4","last_reported":1727871469,"current_range_meters":9200,"station_id":"cjm6bp8fraef2m0cb0m0","pricing_plan_id":"cebpf4jnsgd1na2vs0mg"},{"bike_id":"bade70f9-e511-4283-b212-5526921bfb00","system_id":"levelo_inurba_marseille","lat":43.32544,"lon":5.41434,"is_reserved":false,"is_disabled":false,"rental_uris":{"android":"levelo://app?vid=bade70f9-e511-4283-b212-5526921bfb00","ios":"levelo://app?vid=bade70f9-e511-4283-b212-5526921bfb00"},"vehicle_type_id":"4","last_reported":1727871469,"current_range_meters":7200,"station_id":"ce4bhq12rcd13ifvqhhg","pricing_plan_id":"cebpf4jnsgd1na2vs0mg"},{"bike_id":"db59371a-bb8b-44ab-a1e2-48ff612a5e37","system_id":"levelo_inurba_marseille","lat":43.23194,"lon":5.35553,"is_reserved":false,"is_disabled":false,"rental_uris":{"android":"levelo://app?vid=db59371a-bb8b-44ab-a1e2-48ff612a5e37","ios":"levelo://app?vid=db59371a-bb8b-44ab-a1e2-48ff612a5e37"},"vehicle_type_id":"4","last_reported":1727871469,"current_range_meters":3200,"station_id":"ce4bhu92rcd13ifvqi70","pricing_plan_id":"cebpf4jnsgd1na2vs0mg"},{"bike_id":"aa199af6-60c1-4e19-a744-b8982759679a","system_id":"levelo_inurba_marseille","lat":43.30332,"lon":5.40437,"is_reserved":false,"is_disabled":false,"rental_uris":{"android":"levelo://app?vid=aa199af6-60c1-4e19-a744-b8982759679a","ios":"levelo://app?vid=aa199af6-60c1-4e19-a744-b8982759679a"},"vehicle_type_id":"4","last_reported":1727871469,"current_range_meters":36800,"station_id":"ce4bh012rcd13ifvqd10","pricing_plan_id":"cebpf4jnsgd1na2vs0mg"},{"bike_id":"e9691131-5904-441d-921e-e351b694467d","system_id":"levelo_inurba_marseille","lat":43.304108,"lon":5.378236,"is_reserved":false,"is_disabled":false,"rental_uris":{"android":"levelo://app?vid=e9691131-5904-441d-921e-e351b694467d","ios":"levelo://app?vid=e9691131-5904-441d-921e-e351b694467d"},"vehicle_type_id":"4","last_reported":1727871469,"current_range_meters":24000,"station_id":"ce4bgup2rcd13ifvqcn0","pricing_plan_id":"cebpf4jnsgd1na2vs0mg"},{"bike_id":"066a2b3f-1eeb-4f98-b3df-8b743072430c","system_id":"levelo_inurba_marseille","lat":43.25499,"lon":5.37649,"is_reserved":false,"is_disabled":false,"rental_uris":{"android":"levelo://app?vid=066a2b3f-1eeb-4f98-b3df-8b743072430c","ios":"levelo://app?vid=066a2b3f-1eeb-4f98-b3df-8b743072430c"},"vehicle_type_id":"4","last_reported":1727871469,"current_range_meters":17200,"station_id":"ce4bhh12rcd13ifvqff0","pricing_plan_id":"cebpf4jnsgd1na2vs0mg"},{"bike_id":"7bc21cda-5ae8-4a23-81d9-9177900c8295","system_id":"levelo_inurba_marseille","lat":43.27811,"lon":5.40714,"is_reserved":false,"is_disabled":false,"rental_uris":{"android":"levelo://app?vid=7bc21cda-5ae8-4a23-81d9-9177900c8295","ios":"levelo://app?vid=7bc21cda-5ae8-4a23-81d9-9177900c8295"},"vehicle_type_id":"4","last_reported":1727871469,"current_range_meters":12800,"station_id":"ce4bhnh2rcd13ifvqgtg","pricing_plan_id":"cebpf4jnsgd1na2vs0mg"},{"bike_id":"02569ebf-c9d3-4eb5-8e01-b6ffcc28e82d","system_id":"levelo_inurba_marseille","lat":43.26397,"lon":5.39093,"is_reserved":false,"is_disabled":false,"rental_uris":{"android":"levelo://app?vid=02569ebf-c9d3-4eb5-8e01-b6ffcc28e82d","ios":"levelo://app?vid=02569ebf-c9d3-4eb5-8e01-b6ffcc28e82d"},"vehicle_type_id":"4","last_reported":1727871469,"current_range_meters":15200,"station_id":"ce4bhi12rcd13ifvqfq0","pricing_plan_id":"cebpf4jnsgd1na2vs0mg"},{"bike_id":"cbee49b2-04d9-44b6-be11-58dbd8401c38","system_id":"levelo_inurba_marseille","lat":43.29898,"lon":5.37496,"is_reserved":false,"is_disabled":false,"rental_uris":{"android":"levelo://app?vid=cbee49b2-04d9-44b6-be11-58dbd8401c38","ios":"levelo://app?vid=cbee49b2-04d9-44b6-be11-58dbd8401c38"},"vehicle_type_id":"4","last_reported":1727871469,"current_range_meters":38000,"station_id":"ce4bgjh2rcd13ifvqbg0","pricing_plan_id":"cebpf4jnsgd1na2vs0mg"},{"bike_id":"9e0f8531-ac87-4939-876c-6806e8dfeda9","system_id":"levelo_inurba_marseille","lat":43.23151,"lon":5.43709,"is_reserved":false,"is_disabled":false,"rental_uris":{"android":"levelo://app?vid=9e0f8531-ac87-4939-876c-6806e8dfeda9","ios":"levelo://app?vid=9e0f8531-ac87-4939-876c-6806e8dfeda9"},"vehicle_type_id":"4","last_reported":1727871469,"current_range_meters":8000,"station_id":"ce4bhmp2rcd13ifvqgog","pricing_plan_id":"cebpf4jnsgd1na2vs0mg"},{"bike_id":"53c6fe7a-c5f0-4c29-bdb6-08c6c7db5c71","system_id":"levelo_inurba_marseille","lat":43.32082,"lon":5.36758,"is_reserved":false,"is_disabled":false,"rental_uris":{"android":"levelo://app?vid=53c6fe7a-c5f0-4c29-bdb6-08c6c7db5c71","ios":"levelo://app?vid=53c6fe7a-c5f0-4c29-bdb6-08c6c7db5c71"},"vehicle_type_id":"4","last_reported":1727871469,"current_range_meters":16400,"station_id":"ce4bhrh2rcd13ifvqhug","pricing_plan_id":"cebpf4jnsgd1na2vs0mg"},{"bike_id":"bfec98b7-2387-47b4-bb11-1e1cfe31ebb1","system_id":"levelo_inurba_marseille","lat":43.23153,"lon":5.43717,"is_reserved":false,"is_disabled":false,"rental_uris":{"android":"levelo://app?vid=bfec98b7-2387-47b4-bb11-1e1cfe31ebb1","ios":"levelo://app?vid=bfec98b7-2387-47b4-bb11-1e1cfe31ebb1"},"vehicle_type_id":"4","last_reported":1727871469,"current_range_meters":19600,"station_id":"ce4bhmp2rcd13ifvqgog","pricing_plan_id":"cebpf4jnsgd1na2vs0mg"},{"bike_id":"6ce60676-3f86-4aaa-a5df-572436c32ad4","system_id":"levelo_inurba_marseille","lat":43.22797,"lon":5.3527,"is_reserved":false,"is_disabled":false,"rental_uris":{"android":"levelo://app?vid=6ce60676-3f86-4aaa-a5df-572436c32ad4","ios":"levelo://app?vid=6ce60676-3f86-4aaa-a5df-572436c32ad4"},"vehicle_type_id":"4","last_reported":1727871469,"current_range_meters":24400,"station_id":"ce4bhu92rcd13ifvqi70","pricing_plan_id":"cebpf4jnsgd1na2vs0mg"},{"bike_id":"4468b5d4-1685-4490-93ec-e9e63be7cd0e","system_id":"levelo_inurba_marseille","lat":43.31058,"lon":5.40087,"is_reserved":false,"is_disabled":false,"rental_uris":{"android":"levelo://app?vid=4468b5d4-1685-4490-93ec-e9e63be7cd0e","ios":"levelo://app?vid=4468b5d4-1685-4490-93ec-e9e63be7cd0e"},"vehicle_type_id":"4","last_reported":1727871469,"current_range_meters":4000,"station_id":"","pricing_plan_id":"cebpf4jnsgd1na2vs0mg"},{"bike_id":"df952b1f-0654-4cff-8972-4495d5d3b837","system_id":"levelo_inurba_marseille","lat":43.33751,"lon":5.37455,"is_reserved":false,"is_disabled":false,"rental_uris":{"android":"levelo://app?vid=df952b1f-0654-4cff-8972-4495d5d3b837","ios":"levelo://app?vid=df952b1f-0654-4cff-8972-4495d5d3b837"},"vehicle_type_id":"4","last_reported":1727871469,"current_range_meters":26800,"station_id":"","pricing_plan_id":"cebpf4jnsgd1na2vs0mg"},{"bike_id":"b25e4383-99cd-4093-bd4d-9338a6b6425b","system_id":"levelo_inurba_marseille","lat":43.309086,"lon":5.368451,"is_reserved":false,"is_disabled":false,"rental_uris":{"android":"levelo://app?vid=b25e4383-99cd-4093-bd4d-9338a6b6425b","ios":"levelo://app?vid=b25e4383-99cd-4093-bd4d-9338a6b6425b"},"vehicle_type_id":"4","last_reported":1727871469,"current_range_meters":8000,"station_id":"ce4bgn92rcd13ifvqbvg","pricing_plan_id":"cebpf4jnsgd1na2vs0mg"},{"bike_id":"f654a9e9-484c-4214-adf0-00846f333beb","system_id":"levelo_inurba_marseille","lat":43.290741,"lon":5.375488,"is_reserved":false,"is_disabled":false,"rental_uris":{"android":"levelo://app?vid=f654a9e9-484c-4214-adf0-00846f333beb","ios":"levelo://app?vid=f654a9e9-484c-4214-adf0-00846f333beb"},"vehicle_type_id":"4","last_reported":1727871469,"current_range_meters":8000,"station_id":"ce4bh692rcd13ifvqe90","pricing_plan_id":"cebpf4jnsgd1na2vs0mg"},{"bike_id":"06a12064-f103-4303-998c-1a94f1c4ce1b","system_id":"levelo_inurba_marseille","lat":43.2842,"lon":5.37502,"is_reserved":false,"is_disabled":false,"rental_uris":{"android":"levelo://app?vid=06a12064-f103-4303-998c-1a94f1c4ce1b","ios":"levelo://app?vid=06a12064-f103-4303-998c-1a94f1c4ce1b"},"vehicle_type_id":"4","last_reported":1727871469,"current_range_meters":10000,"station_id":"ce4bh412rcd13ifvqds0","pricing_plan_id":"cebpf4jnsgd1na2vs0mg"},{"bike_id":"83cb0b81-1a4b-4ee5-b871-3cea1d5628b9","system_id":"levelo_inurba_marseille","lat":43.2804,"lon":5.36943,"is_reserved":false,"is_disabled":false,"rental_uris":{"android":"levelo://app?vid=83cb0b81-1a4b-4ee5-b871-3cea1d5628b9","ios":"levelo://app?vid=83cb0b81-1a4b-4ee5-b871-3cea1d5628b9"},"vehicle_type_id":"4","last_reported":1727871469,"current_range_meters":5600,"station_id":"ce4bha12rcd13ifvqef0","pricing_plan_id":"cebpf4jnsgd1na2vs0mg"},{"bike_id":"6ca0f3ec-905f-49c2-a7b7-4f12b8c47a64","system_id":"levelo_inurba_marseille","lat":43.28159,"lon":5.4264,"is_reserved":false,"is_disabled":false,"rental_uris":{"android":"levelo://app?vid=6ca0f3ec-905f-49c2-a7b7-4f12b8c47a64","ios":"levelo://app?vid=6ca0f3ec-905f-49c2-a7b7-4f12b8c47a64"},"vehicle_type_id":"4","last_reported":1727871469,"current_range_meters":22800,"station_id":"ce4bhnh2rcd13ifvqgug","pricing_plan_id":"cebpf4jnsgd1na2vs0mg"},{"bike_id":"024d3c4b-ef4f-4056-8073-3c6f338ee710","system_id":"levelo_inurba_marseille","lat":43.30454,"lon":5.38996,"is_reserved":false,"is_disabled":false,"rental_uris":{"android":"levelo://app?vid=024d3c4b-ef4f-4056-8073-3c6f338ee710","ios":"levelo://app?vid=024d3c4b-ef4f-4056-8073-3c6f338ee710"},"vehicle_type_id":"4","last_reported":1727871469,"current_range_meters":17200,"station_id":"","pricing_plan_id":"cebpf4jnsgd1na2vs0mg"},{"bike_id":"685b90ce-814b-4273-8784-07bec12d9d85","system_id":"levelo_inurba_marseille","lat":43.28937,"lon":5.36637,"is_reserved":false,"is_disabled":false,"rental_uris":{"android":"levelo://app?vid=685b90ce-814b-4273-8784-07bec12d9d85","ios":"levelo://app?vid=685b90ce-814b-4273-8784-07bec12d9d85"},"vehicle_type_id":"4","last_reported":1727871469,"current_range_meters":9200,"station_id":"ce4bhap2rcd13ifvqek0","pricing_plan_id":"cebpf4jnsgd1na2vs0mg"},{"bike_id":"2294c29d-1733-4448-a2d8-f9c7dcda5c93","system_id":"levelo_inurba_marseille","lat":43.29525,"lon":5.37501,"is_reserved":false,"is_disabled":false,"rental_uris":{"android":"levelo://app?vid=2294c29d-1733-4448-a2d8-f9c7dcda5c93","ios":"levelo://app?vid=2294c29d-1733-4448-a2d8-f9c7dcda5c93"},"vehicle_type_id":"4","last_reported":1727871469,"current_range_meters":14400,"station_id":"ce4bgkp2rcd13ifvqbmg","pricing_plan_id":"cebpf4jnsgd1na2vs0mg"},{"bike_id":"7bb41cee-bbf2-4cb9-b053-b4b65ed6d515","system_id":"levelo_inurba_marseille","lat":43.28001,"lon":5.40017,"is_reserved":false,"is_disabled":false,"rental_uris":{"android":"levelo://app?vid=7bb41cee-bbf2-4cb9-b053-b4b65ed6d515","ios":"levelo://app?vid=7bb41cee-bbf2-4cb9-b053-b4b65ed6d515"},"vehicle_type_id":"4","last_reported":1727871469,"current_range_meters":6400,"station_id":"ce4bho92rcd13ifvqh4g","pricing_plan_id":"cebpf4jnsgd1na2vs0mg"},{"bike_id":"92778824-43d0-48af-977c-04511febaa5e","system_id":"levelo_inurba_marseille","lat":43.3374,"lon":5.37434,"is_reserved":false,"is_disabled":false,"rental_uris":{"android":"levelo://app?vid=92778824-43d0-48af-977c-04511febaa5e","ios":"levelo://app?vid=92778824-43d0-48af-977c-04511febaa5e"},"vehicle_type_id":"4","last_reported":1727871469,"current_range_meters":34000,"station_id":"","pricing_plan_id":"cebpf4jnsgd1na2vs0mg"},{"bike_id":"f9104789-07dd-4d3c-94f3-a1c602d8a7ca","system_id":"levelo_inurba_marseille","lat":43.24805,"lon":5.37452,"is_reserved":false,"is_disabled":false,"rental_uris":{"android":"levelo://app?vid=f9104789-07dd-4d3c-94f3-a1c602d8a7ca","ios":"levelo://app?vid=f9104789-07dd-4d3c-94f3-a1c602d8a7ca"},"vehicle_type_id":"4","last_reported":1727871469,"current_range_meters":24800,"station_id":"ce4bhgh2rcd13ifvqfb0","pricing_plan_id":"cebpf4jnsgd1na2vs0mg"},{"bike_id":"4f6b844e-d2cf-490a-8106-86117d25078a","system_id":"levelo_inurba_marseille","lat":43.33724,"lon":5.39178,"is_reserved":false,"is_disabled":false,"rental_uris":{"android":"levelo://app?vid=4f6b844e-d2cf-490a-8106-86117d25078a","ios":"levelo://app?vid=4f6b844e-d2cf-490a-8106-86117d25078a"},"vehicle_type_id":"4","last_reported":1727871469,"current_range_meters":17200,"station_id":"ce4bhr92rcd13ifvqhsg","pricing_plan_id":"cebpf4jnsgd1na2vs0mg"},{"bike_id":"7755968c-1dde-4b85-b4c1-da09675a4ad3","system_id":"levelo_inurba_marseille","lat":43.25819,"lon":5.39428,"is_reserved":false,"is_disabled":false,"rental_uris":{"android":"levelo://app?vid=7755968c-1dde-4b85-b4c1-da09675a4ad3","ios":"levelo://app?vid=7755968c-1dde-4b85-b4c1-da09675a4ad3"},"vehicle_type_id":"4","last_reported":1727871469,"current_range_meters":14000,"station_id":"ce4bhip2rcd13ifvqft0","pricing_plan_id":"cebpf4jnsgd1na2vs0mg"},{"bike_id":"d882c178-db66-4976-adc4-d612f68051db","system_id":"levelo_inurba_marseille","lat":43.25869,"lon":5.39901,"is_reserved":false,"is_disabled":false,"rental_uris":{"android":"levelo://app?vid=d882c178-db66-4976-adc4-d612f68051db","ios":"levelo://app?vid=d882c178-db66-4976-adc4-d612f68051db"},"vehicle_type_id":"4","last_reported":1727871469,"current_range_meters":38800,"station_id":"ce4bhl92rcd13ifvqghg","pricing_plan_id":"cebpf4jnsgd1na2vs0mg"},{"bike_id":"590c219b-44eb-4eef-a843-ffa96ba3ae6f","system_id":"levelo_inurba_marseille","lat":43.25502,"lon":5.37648,"is_reserved":false,"is_disabled":false,"rental_uris":{"android":"levelo://app?vid=590c219b-44eb-4eef-a843-ffa96ba3ae6f","ios":"levelo://app?vid=590c219b-44eb-4eef-a843-ffa96ba3ae6f"},"vehicle_type_id":"4","last_reported":1727871469,"current_range_meters":36800,"station_id":"ce4bhh12rcd13ifvqff0","pricing_plan_id":"cebpf4jnsgd1na2vs0mg"},{"bike_id":"c24e5f50-a926-40d1-bdc1-3f195a81d222","system_id":"levelo_inurba_marseille","lat":43.25824,"lon":5.39431,"is_reserved":false,"is_disabled":false,"rental_uris":{"android":"levelo://app?vid=c24e5f50-a926-40d1-bdc1-3f195a81d222","ios":"levelo://app?vid=c24e5f50-a926-40d1-bdc1-3f195a81d222"},"vehicle_type_id":"4","last_reported":1727871469,"current_range_meters":10000,"station_id":"ce4bhip2rcd13ifvqft0","pricing_plan_id":"cebpf4jnsgd1na2vs0mg"},{"bike_id":"bb849960-dd70-43a1-a265-5b6dd8d44c4d","system_id":"levelo_inurba_marseille","lat":43.30602,"lon":5.393633,"is_reserved":false,"is_disabled":false,"rental_uris":{"android":"levelo://app?vid=bb849960-dd70-43a1-a265-5b6dd8d44c4d","ios":"levelo://app?vid=bb849960-dd70-43a1-a265-5b6dd8d44c4d"},"vehicle_type_id":"4","last_reported":1727871469,"current_range_meters":15200,"station_id":"ce4bh112rcd13ifvqda0","pricing_plan_id":"cebpf4jnsgd1na2vs0mg"},{"bike_id":"389dbe3b-4b02-4d49-9def-1a6fa2f84c9b","system_id":"levelo_inurba_marseille","lat":43.30553,"lon":5.36523,"is_reserved":false,"is_disabled":false,"rental_uris":{"android":"levelo://app?vid=389dbe3b-4b02-4d49-9def-1a6fa2f84c9b","ios":"levelo://app?vid=389dbe3b-4b02-4d49-9def-1a6fa2f84c9b"},"vehicle_type_id":"4","last_reported":1727871469,"current_range_meters":30400,"station_id":"ce4bgs12rcd13ifvqcag","pricing_plan_id":"cebpf4jnsgd1na2vs0mg"},{"bike_id":"5ea38191-8eac-4f85-987e-707618f50b71","system_id":"levelo_inurba_marseille","lat":43.29539,"lon":5.37498,"is_reserved":false,"is_disabled":false,"rental_uris":{"android":"levelo://app?vid=5ea38191-8eac-4f85-987e-707618f50b71","ios":"levelo://app?vid=5ea38191-8eac-4f85-987e-707618f50b71"},"vehicle_type_id":"4","last_reported":1727871469,"current_range_meters":6800,"station_id":"ce4bgkp2rcd13ifvqbmg","pricing_plan_id":"cebpf4jnsgd1na2vs0mg"},{"bike_id":"33efb312-7ac0-443f-af7e-d1b49299b3f0","system_id":"levelo_inurba_marseille","lat":43.28,"lon":5.40009,"is_reserved":false,"is_disabled":false,"rental_uris":{"android":"levelo://app?vid=33efb312-7ac0-443f-af7e-d1b49299b3f0","ios":"levelo://app?vid=33efb312-7ac0-443f-af7e-d1b49299b3f0"},"vehicle_type_id":"4","last_reported":1727871469,"current_range_meters":22400,"station_id":"ce4bho92rcd13ifvqh4g","pricing_plan_id":"cebpf4jnsgd1na2vs0mg"},{"bike_id":"e87b5406-bfc3-450b-90be-ea33674025e0","system_id":"levelo_inurba_marseille","lat":43.31354,"lon":5.36704,"is_reserved":false,"is_disabled":false,"rental_uris":{"android":"levelo://app?vid=e87b5406-bfc3-450b-90be-ea33674025e0","ios":"levelo://app?vid=e87b5406-bfc3-450b-90be-ea33674025e0"},"vehicle_type_id":"4","last_reported":1727871469,"current_range_meters":37600,"station_id":"ce4bgr92rcd13ifvqc6g","pricing_plan_id":"cebpf4jnsgd1na2vs0mg"},{"bike_id":"6796b85b-186e-4826-846b-8b2d09404de7","system_id":"levelo_inurba_marseille","lat":43.27905,"lon":5.38002,"is_reserved":false,"is_disabled":false,"rental_uris":{"android":"levelo://app?vid=6796b85b-186e-4826-846b-8b2d09404de7","ios":"levelo://app?vid=6796b85b-186e-4826-846b-8b2d09404de7"},"vehicle_type_id":"4","last_reported":1727871469,"current_range_meters":24000,"station_id":"ce4bhf92rcd13ifvqf50","pricing_plan_id":"cebpf4jnsgd1na2vs0mg"},{"bike_id":"c244e587-9a91-480e-9773-c2a924aa0b3c","system_id":"levelo_inurba_marseille","lat":43.28867,"lon":5.35829,"is_reserved":false,"is_disabled":false,"rental_uris":{"android":"levelo://app?vid=c244e587-9a91-480e-9773-c2a924aa0b3c","ios":"levelo://app?vid=c244e587-9a91-480e-9773-c2a924aa0b3c"},"vehicle_type_id":"4","last_reported":1727871469,"current_range_meters":4400,"station_id":"ce4bhb12rcd13ifvqem0","pricing_plan_id":"cebpf4jnsgd1na2vs0mg"},{"bike_id":"fb24f99c-d4d3-4517-807d-112fe1300ff7","system_id":"levelo_inurba_marseille","lat":43.3153,"lon":5.38029,"is_reserved":false,"is_disabled":false,"rental_uris":{"android":"levelo://app?vid=fb24f99c-d4d3-4517-807d-112fe1300ff7","ios":"levelo://app?vid=fb24f99c-d4d3-4517-807d-112fe1300ff7"},"vehicle_type_id":"4","last_reported":1727871469,"current_range_meters":25200,"station_id":"ce4bhsp2rcd13ifvqi50","pricing_plan_id":"cebpf4jnsgd1na2vs0mg"},{"bike_id":"020cc63e-a76e-4683-9146-ae8f92152aa5","system_id":"levelo_inurba_marseille","lat":43.3027,"lon":5.37693,"is_reserved":false,"is_disabled":false,"rental_uris":{"android":"levelo://app?vid=020cc63e-a76e-4683-9146-ae8f92152aa5","ios":"levelo://app?vid=020cc63e-a76e-4683-9146-ae8f92152aa5"},"vehicle_type_id":"4","last_reported":1727871469,"current_range_meters":19200,"station_id":"ce4bguh2rcd13ifvqcj0","pricing_plan_id":"cebpf4jnsgd1na2vs0mg"},{"bike_id":"c8e4ff73-620c-4248-92f7-758d5098242c","system_id":"levelo_inurba_marseille","lat":43.22934,"lon":5.3538,"is_reserved":false,"is_disabled":false,"rental_uris":{"android":"levelo://app?vid=c8e4ff73-620c-4248-92f7-758d5098242c","ios":"levelo://app?vid=c8e4ff73-620c-4248-92f7-758d5098242c"},"vehicle_type_id":"4","last_reported":1727871469,"current_range_meters":32000,"station_id":"cpo3532slgdg3j2ikp40","pricing_plan_id":"cebpf4jnsgd1na2vs0mg"},{"bike_id":"bcf826d8-8152-432e-a5a1-d68375b78a85","system_id":"levelo_inurba_marseille","lat":43.3255,"lon":5.41435,"is_reserved":false,"is_disabled":false,"rental_uris":{"android":"levelo://app?vid=bcf826d8-8152-432e-a5a1-d68375b78a85","ios":"levelo://app?vid=bcf826d8-8152-432e-a5a1-d68375b78a85"},"vehicle_type_id":"4","last_reported":1727871469,"current_range_meters":38800,"station_id":"ce4bhq12rcd13ifvqhhg","pricing_plan_id":"cebpf4jnsgd1na2vs0mg"},{"bike_id":"5d526f2f-1a11-4ccc-9555-ff0239302168","system_id":"levelo_inurba_marseille","lat":43.284626,"lon":5.384068,"is_reserved":false,"is_disabled":false,"rental_uris":{"android":"levelo://app?vid=5d526f2f-1a11-4ccc-9555-ff0239302168","ios":"levelo://app?vid=5d526f2f-1a11-4ccc-9555-ff0239302168"},"vehicle_type_id":"4","last_reported":1727871469,"current_range_meters":12800,"station_id":"ce4bh512rcd13ifvqe3g","pricing_plan_id":"cebpf4jnsgd1na2vs0mg"},{"bike_id":"f4b63362-470f-4ad5-b0c8-67c9655a4bf0","system_id":"levelo_inurba_marseille","lat":43.28976,"lon":5.37826,"is_reserved":false,"is_disabled":false,"rental_uris":{"android":"levelo://app?vid=f4b63362-470f-4ad5-b0c8-67c9655a4bf0","ios":"levelo://app?vid=f4b63362-470f-4ad5-b0c8-67c9655a4bf0"},"vehicle_type_id":"4","last_reported":1727871469,"current_range_meters":32000,"station_id":"ce4bh9p2rcd13ifvqed0","pricing_plan_id":"cebpf4jnsgd1na2vs0mg"},{"bike_id":"efd07ffe-b211-4ab1-b31b-a3f625d94f9d","system_id":"levelo_inurba_marseille","lat":43.29978,"lon":5.3849,"is_reserved":false,"is_disabled":false,"rental_uris":{"android":"levelo://app?vid=efd07ffe-b211-4ab1-b31b-a3f625d94f9d","ios":"levelo://app?vid=efd07ffe-b211-4ab1-b31b-a3f625d94f9d"},"vehicle_type_id":"4","last_reported":1727871469,"current_range_meters":39200,"station_id":"ce4bgj92rcd13ifvqbd0","pricing_plan_id":"cebpf4jnsgd1na2vs0mg"},{"bike_id":"a6dee003-1feb-474f-90ab-955ae11dce3f","system_id":"levelo_inurba_marseille","lat":43.29784,"lon":5.37091,"is_reserved":false,"is_disabled":false,"rental_uris":{"android":"levelo://app?vid=a6dee003-1feb-474f-90ab-955ae11dce3f","ios":"levelo://app?vid=a6dee003-1feb-474f-90ab-955ae11dce3f"},"vehicle_type_id":"4","last_reported":1727871469,"current_range_meters":17600,"station_id":"ce4bgop2rcd13ifvqc1g","pricing_plan_id":"cebpf4jnsgd1na2vs0mg"},{"bike_id":"4bd2bdb0-2428-4b26-b66c-938192bf3d68","system_id":"levelo_inurba_marseille","lat":43.33757,"lon":5.37417,"is_reserved":false,"is_disabled":false,"rental_uris":{"android":"levelo://app?vid=4bd2bdb0-2428-4b26-b66c-938192bf3d68","ios":"levelo://app?vid=4bd2bdb0-2428-4b26-b66c-938192bf3d68"},"vehicle_type_id":"4","last_reported":1727871469,"current_range_meters":33600,"station_id":"","pricing_plan_id":"cebpf4jnsgd1na2vs0mg"},{"bike_id":"6958483d-32b5-4520-a921-dc71aaf2fc02","system_id":"levelo_inurba_marseille","lat":43.30117,"lon":5.39846,"is_reserved":false,"is_disabled":false,"rental_uris":{"android":"levelo://app?vid=6958483d-32b5-4520-a921-dc71aaf2fc02","ios":"levelo://app?vid=6958483d-32b5-4520-a921-dc71aaf2fc02"},"vehicle_type_id":"4","last_reported":1727871469,"current_range_meters":8800,"station_id":"ce4bh0h2rcd13ifvqd40","pricing_plan_id":"cebpf4jnsgd1na2vs0mg"},{"bike_id":"c6aefcac-9b59-4be9-ba9c-464572888e5a","system_id":"levelo_inurba_marseille","lat":43.30541,"lon":5.36696,"is_reserved":false,"is_disabled":false,"rental_uris":{"android":"levelo://app?vid=c6aefcac-9b59-4be9-ba9c-464572888e5a","ios":"levelo://app?vid=c6aefcac-9b59-4be9-ba9c-464572888e5a"},"vehicle_type_id":"4","last_reported":1727871469,"current_range_meters":39200,"station_id":"ce4bgrp2rcd13ifvqc9g","pricing_plan_id":"cebpf4jnsgd1na2vs0mg"},{"bike_id":"e327d4c5-e7de-478d-89b6-da24369c6f53","system_id":"levelo_inurba_marseille","lat":43.29851,"lon":5.36271,"is_reserved":false,"is_disabled":false,"rental_uris":{"android":"levelo://app?vid=e327d4c5-e7de-478d-89b6-da24369c6f53","ios":"levelo://app?vid=e327d4c5-e7de-478d-89b6-da24369c6f53"},"vehicle_type_id":"4","last_reported":1727871469,"current_range_meters":37600,"station_id":"ce4bgpp2rcd13ifvqc3g","pricing_plan_id":"cebpf4jnsgd1na2vs0mg"},{"bike_id":"2885728e-9639-4530-a3f5-6d89e3fb3c5f","system_id":"levelo_inurba_marseille","lat":43.28935,"lon":5.38402,"is_reserved":false,"is_disabled":false,"rental_uris":{"android":"levelo://app?vid=2885728e-9639-4530-a3f5-6d89e3fb3c5f","ios":"levelo://app?vid=2885728e-9639-4530-a3f5-6d89e3fb3c5f"},"vehicle_type_id":"4","last_reported":1727871469,"current_range_meters":3200,"station_id":"ce4bh612rcd13ifvqe6g","pricing_plan_id":"cebpf4jnsgd1na2vs0mg"},{"bike_id":"1dbf0c27-607a-49d6-a694-bdbd40bb9841","system_id":"levelo_inurba_marseille","lat":43.301636,"lon":5.400741,"is_reserved":false,"is_disabled":false,"rental_uris":{"android":"levelo://app?vid=1dbf0c27-607a-49d6-a694-bdbd40bb9841","ios":"levelo://app?vid=1dbf0c27-607a-49d6-a694-bdbd40bb9841"},"vehicle_type_id":"4","last_reported":1727871469,"current_range_meters":4800,"station_id":"ce4bgvh2rcd13ifvqcs0","pricing_plan_id":"cebpf4jnsgd1na2vs0mg"},{"bike_id":"c7b9d95c-e0a1-459d-b666-50e7dd71d420","system_id":"levelo_inurba_marseille","lat":43.25728,"lon":5.41105,"is_reserved":false,"is_disabled":false,"rental_uris":{"android":"levelo://app?vid=c7b9d95c-e0a1-459d-b666-50e7dd71d420","ios":"levelo://app?vid=c7b9d95c-e0a1-459d-b666-50e7dd71d420"},"vehicle_type_id":"4","last_reported":1727871469,"current_range_meters":6000,"station_id":"ce4bhkp2rcd13ifvqgd0","pricing_plan_id":"cebpf4jnsgd1na2vs0mg"},{"bike_id":"f5b27ee4-0356-4239-be51-51d62fe7d592","system_id":"levelo_inurba_marseille","lat":43.303162,"lon":5.369097,"is_reserved":false,"is_disabled":false,"rental_uris":{"android":"levelo://app?vid=f5b27ee4-0356-4239-be51-51d62fe7d592","ios":"levelo://app?vid=f5b27ee4-0356-4239-be51-51d62fe7d592"},"vehicle_type_id":"4","last_reported":1727871469,"current_range_meters":15200,"station_id":"ce4bgqh2rcd13ifvqc5g","pricing_plan_id":"cebpf4jnsgd1na2vs0mg"},{"bike_id":"85bd2cab-714c-48ca-8a5a-5e4c60f19e3b","system_id":"levelo_inurba_marseille","lat":43.30419,"lon":5.39748,"is_reserved":false,"is_disabled":false,"rental_uris":{"android":"levelo://app?vid=85bd2cab-714c-48ca-8a5a-5e4c60f19e3b","ios":"levelo://app?vid=85bd2cab-714c-48ca-8a5a-5e4c60f19e3b"},"vehicle_type_id":"4","last_reported":1727871469,"current_range_meters":19600,"station_id":"ce4bh092rcd13ifvqd20","pricing_plan_id":"cebpf4jnsgd1na2vs0mg"},{"bike_id":"1e2737e7-54c2-4f7b-aa39-91934f88be6c","system_id":"levelo_inurba_marseille","lat":43.26056,"lon":5.39391,"is_reserved":false,"is_disabled":false,"rental_uris":{"android":"levelo://app?vid=1e2737e7-54c2-4f7b-aa39-91934f88be6c","ios":"levelo://app?vid=1e2737e7-54c2-4f7b-aa39-91934f88be6c"},"vehicle_type_id":"4","last_reported":1727871469,"current_range_meters":20000,"station_id":"ce4bhh92rcd13ifvqfj0","pricing_plan_id":"cebpf4jnsgd1na2vs0mg"},{"bike_id":"e49be07e-284b-413e-9a27-5733c0012d70","system_id":"levelo_inurba_marseille","lat":43.28703,"lon":5.39989,"is_reserved":false,"is_disabled":false,"rental_uris":{"android":"levelo://app?vid=e49be07e-284b-413e-9a27-5733c0012d70","ios":"levelo://app?vid=e49be07e-284b-413e-9a27-5733c0012d70"},"vehicle_type_id":"4","last_reported":1727871469,"current_range_meters":24800,"station_id":"ce4bhjp2rcd13ifvqg90","pricing_plan_id":"cebpf4jnsgd1na2vs0mg"},{"bike_id":"66c1cfb0-2b20-433a-94b2-c02013f6c4e9","system_id":"levelo_inurba_marseille","lat":43.30545,"lon":5.36524,"is_reserved":false,"is_disabled":false,"rental_uris":{"android":"levelo://app?vid=66c1cfb0-2b20-433a-94b2-c02013f6c4e9","ios":"levelo://app?vid=66c1cfb0-2b20-433a-94b2-c02013f6c4e9"},"vehicle_type_id":"4","last_reported":1727871469,"current_range_meters":16400,"station_id":"ce4bgs12rcd13ifvqcag","pricing_plan_id":"cebpf4jnsgd1na2vs0mg"},{"bike_id":"5232706d-f6ed-49c5-82b0-3d08f9db9c69","system_id":"levelo_inurba_marseille","lat":43.29837,"lon":5.36263,"is_reserved":false,"is_disabled":false,"rental_uris":{"android":"levelo://app?vid=5232706d-f6ed-49c5-82b0-3d08f9db9c69","ios":"levelo://app?vid=5232706d-f6ed-49c5-82b0-3d08f9db9c69"},"vehicle_type_id":"4","last_reported":1727871469,"current_range_meters":38800,"station_id":"ce4bgpp2rcd13ifvqc3g","pricing_plan_id":"cebpf4jnsgd1na2vs0mg"},{"bike_id":"6ca24f61-090a-4715-a991-883ca237ff8b","system_id":"levelo_inurba_marseille","lat":43.29846,"lon":5.36275,"is_reserved":false,"is_disabled":false,"rental_uris":{"android":"levelo://app?vid=6ca24f61-090a-4715-a991-883ca237ff8b","ios":"levelo://app?vid=6ca24f61-090a-4715-a991-883ca237ff8b"},"vehicle_type_id":"4","last_reported":1727871469,"current_range_meters":38000,"station_id":"ce4bgpp2rcd13ifvqc3g","pricing_plan_id":"cebpf4jnsgd1na2vs0mg"},{"bike_id":"08de1c68-063f-4139-9e12-5fef21f1834e","system_id":"levelo_inurba_marseille","lat":43.27942,"lon":5.41046,"is_reserved":false,"is_disabled":false,"rental_uris":{"android":"levelo://app?vid=08de1c68-063f-4139-9e12-5fef21f1834e","ios":"levelo://app?vid=08de1c68-063f-4139-9e12-5fef21f1834e"},"vehicle_type_id":"4","last_reported":1727871469,"current_range_meters":16400,"station_id":"ce4bhnp2rcd13ifvqh0g","pricing_plan_id":"cebpf4jnsgd1na2vs0mg"},{"bike_id":"23fcd5dc-52e3-40b6-b601-8da82c35b64a","system_id":"levelo_inurba_marseille","lat":43.23198,"lon":5.35542,"is_reserved":false,"is_disabled":false,"rental_uris":{"android":"levelo://app?vid=23fcd5dc-52e3-40b6-b601-8da82c35b64a","ios":"levelo://app?vid=23fcd5dc-52e3-40b6-b601-8da82c35b64a"},"vehicle_type_id":"4","last_reported":1727871469,"current_range_meters":6800,"station_id":"ce4bhu92rcd13ifvqi70","pricing_plan_id":"cebpf4jnsgd1na2vs0mg"},{"bike_id":"8eebbf9b-09d5-41f7-9fcb-1a511b9e8ee3","system_id":"levelo_inurba_marseille","lat":43.23149,"lon":5.43714,"is_reserved":false,"is_disabled":false,"rental_uris":{"android":"levelo://app?vid=8eebbf9b-09d5-41f7-9fcb-1a511b9e8ee3","ios":"levelo://app?vid=8eebbf9b-09d5-41f7-9fcb-1a511b9e8ee3"},"vehicle_type_id":"4","last_reported":1727871469,"current_range_meters":38800,"station_id":"ce4bhmp2rcd13ifvqgog","pricing_plan_id":"cebpf4jnsgd1na2vs0mg"},{"bike_id":"2ca90086-5f0b-4ee6-a9f9-0148aa41858c","system_id":"levelo_inurba_marseille","lat":43.28932,"lon":5.3964,"is_reserved":false,"is_disabled":false,"rental_uris":{"android":"levelo://app?vid=2ca90086-5f0b-4ee6-a9f9-0148aa41858c","ios":"levelo://app?vid=2ca90086-5f0b-4ee6-a9f9-0148aa41858c"},"vehicle_type_id":"4","last_reported":1727871469,"current_range_meters":20800,"station_id":"ce4bh3h2rcd13ifvqdn0","pricing_plan_id":"cebpf4jnsgd1na2vs0mg"},{"bike_id":"e42f06fb-e68c-455e-ad73-728083505ef2","system_id":"levelo_inurba_marseille","lat":43.231537,"lon":5.437172,"is_reserved":false,"is_disabled":false,"rental_uris":{"android":"levelo://app?vid=e42f06fb-e68c-455e-ad73-728083505ef2","ios":"levelo://app?vid=e42f06fb-e68c-455e-ad73-728083505ef2"},"vehicle_type_id":"4","last_reported":1727871469,"current_range_meters":2800,"station_id":"ce4bhmp2rcd13ifvqgog","pricing_plan_id":"cebpf4jnsgd1na2vs0mg"},{"bike_id":"772088a0-7828-4f69-ba5d-0f6cdb83dec2","system_id":"levelo_inurba_marseille","lat":43.337444,"lon":5.374475,"is_reserved":false,"is_disabled":false,"rental_uris":{"android":"levelo://app?vid=772088a0-7828-4f69-ba5d-0f6cdb83dec2","ios":"levelo://app?vid=772088a0-7828-4f69-ba5d-0f6cdb83dec2"},"vehicle_type_id":"4","last_reported":1727871469,"current_range_meters":6400,"station_id":"","pricing_plan_id":"cebpf4jnsgd1na2vs0mg"},{"bike_id":"000e6282-7e26-4623-b1a1-adad7d3be404","system_id":"levelo_inurba_marseille","lat":43.30939,"lon":5.40155,"is_reserved":false,"is_disabled":false,"rental_uris":{"android":"levelo://app?vid=000e6282-7e26-4623-b1a1-adad7d3be404","ios":"levelo://app?vid=000e6282-7e26-4623-b1a1-adad7d3be404"},"vehicle_type_id":"4","last_reported":1727871469,"current_range_meters":9600,"station_id":"ce4bgl92rcd13ifvqbq0","pricing_plan_id":"cebpf4jnsgd1na2vs0mg"},{"bike_id":"3c421237-806a-4fc9-8da4-8a392ea67998","system_id":"levelo_inurba_marseille","lat":43.33612,"lon":5.41029,"is_reserved":false,"is_disabled":false,"rental_uris":{"android":"levelo://app?vid=3c421237-806a-4fc9-8da4-8a392ea67998","ios":"levelo://app?vid=3c421237-806a-4fc9-8da4-8a392ea67998"},"vehicle_type_id":"4","last_reported":1727871469,"current_range_meters":6400,"station_id":"ce4bhqh2rcd13ifvqhmg","pricing_plan_id":"cebpf4jnsgd1na2vs0mg"},{"bike_id":"1e089eda-5fdf-430b-8ddf-22c56210335b","system_id":"levelo_inurba_marseille","lat":43.30332,"lon":5.40432,"is_reserved":false,"is_disabled":false,"rental_uris":{"android":"levelo://app?vid=1e089eda-5fdf-430b-8ddf-22c56210335b","ios":"levelo://app?vid=1e089eda-5fdf-430b-8ddf-22c56210335b"},"vehicle_type_id":"4","last_reported":1727871469,"current_range_meters":13600,"station_id":"ce4bh012rcd13ifvqd10","pricing_plan_id":"cebpf4jnsgd1na2vs0mg"},{"bike_id":"cd3e27ce-ec21-407b-bf7b-d0ca5c1037c8","system_id":"levelo_inurba_marseille","lat":43.32537,"lon":5.41441,"is_reserved":false,"is_disabled":false,"rental_uris":{"android":"levelo://app?vid=cd3e27ce-ec21-407b-bf7b-d0ca5c1037c8","ios":"levelo://app?vid=cd3e27ce-ec21-407b-bf7b-d0ca5c1037c8"},"vehicle_type_id":"4","last_reported":1727871469,"current_range_meters":38800,"station_id":"ce4bhq12rcd13ifvqhhg","pricing_plan_id":"cebpf4jnsgd1na2vs0mg"},{"bike_id":"94d9bc4a-82f0-4ac5-ae34-6e5d598ca057","system_id":"levelo_inurba_marseille","lat":43.29878,"lon":5.38906,"is_reserved":false,"is_disabled":false,"rental_uris":{"android":"levelo://app?vid=94d9bc4a-82f0-4ac5-ae34-6e5d598ca057","ios":"levelo://app?vid=94d9bc4a-82f0-4ac5-ae34-6e5d598ca057"},"vehicle_type_id":"4","last_reported":1727871469,"current_range_meters":30800,"station_id":"ce4bh392rcd13ifvqdl0","pricing_plan_id":"cebpf4jnsgd1na2vs0mg"},{"bike_id":"45f8e0ed-ddf9-4941-9be0-9d860410fc4d","system_id":"levelo_inurba_marseille","lat":43.27063,"lon":5.402508,"is_reserved":false,"is_disabled":false,"rental_uris":{"android":"levelo://app?vid=45f8e0ed-ddf9-4941-9be0-9d860410fc4d","ios":"levelo://app?vid=45f8e0ed-ddf9-4941-9be0-9d860410fc4d"},"vehicle_type_id":"4","last_reported":1727871469,"current_range_meters":38800,"station_id":"ce4bhk92rcd13ifvqgc0","pricing_plan_id":"cebpf4jnsgd1na2vs0mg"},{"bike_id":"f2eafe04-603e-4fb0-8676-42d468e4f953","system_id":"levelo_inurba_marseille","lat":43.33757,"lon":5.37446,"is_reserved":false,"is_disabled":false,"rental_uris":{"android":"levelo://app?vid=f2eafe04-603e-4fb0-8676-42d468e4f953","ios":"levelo://app?vid=f2eafe04-603e-4fb0-8676-42d468e4f953"},"vehicle_type_id":"4","last_reported":1727871469,"current_range_meters":38800,"station_id":"","pricing_plan_id":"cebpf4jnsgd1na2vs0mg"},{"bike_id":"34fff848-aa21-474d-9417-99f4479f83e8","system_id":"levelo_inurba_marseille","lat":43.30929,"lon":5.40133,"is_reserved":false,"is_disabled":false,"rental_uris":{"android":"levelo://app?vid=34fff848-aa21-474d-9417-99f4479f83e8","ios":"levelo://app?vid=34fff848-aa21-474d-9417-99f4479f83e8"},"vehicle_type_id":"4","last_reported":1727871469,"current_range_meters":28000,"station_id":"ce4bgvp2rcd13ifvqct0","pricing_plan_id":"cebpf4jnsgd1na2vs0mg"},{"bike_id":"281397b2-4be2-4024-ace3-b3d0de89e672","system_id":"levelo_inurba_marseille","lat":43.279099,"lon":5.379957,"is_reserved":false,"is_disabled":false,"rental_uris":{"android":"levelo://app?vid=281397b2-4be2-4024-ace3-b3d0de89e672","ios":"levelo://app?vid=281397b2-4be2-4024-ace3-b3d0de89e672"},"vehicle_type_id":"4","last_reported":1727871469,"current_range_meters":12400,"station_id":"ce4bhg12rcd13ifvqf80","pricing_plan_id":"cebpf4jnsgd1na2vs0mg"},{"bike_id":"2aafd4e2-07bb-44eb-8824-42bc691fcc7f","system_id":"levelo_inurba_marseille","lat":43.27903,"lon":5.38015,"is_reserved":false,"is_disabled":false,"rental_uris":{"android":"levelo://app?vid=2aafd4e2-07bb-44eb-8824-42bc691fcc7f","ios":"levelo://app?vid=2aafd4e2-07bb-44eb-8824-42bc691fcc7f"},"vehicle_type_id":"4","last_reported":1727871469,"current_range_meters":12000,"station_id":"ce4bhf92rcd13ifvqf50","pricing_plan_id":"cebpf4jnsgd1na2vs0mg"},{"bike_id":"6c23e710-fc3f-4b12-9fba-27a0d3d5059d","system_id":"levelo_inurba_marseille","lat":43.337444,"lon":5.374475,"is_reserved":false,"is_disabled":false,"rental_uris":{"android":"levelo://app?vid=6c23e710-fc3f-4b12-9fba-27a0d3d5059d","ios":"levelo://app?vid=6c23e710-fc3f-4b12-9fba-27a0d3d5059d"},"vehicle_type_id":"4","last_reported":1727871469,"current_range_meters":38800,"station_id":"ce4bho92rcd13ifvqh3g","pricing_plan_id":"cebpf4jnsgd1na2vs0mg"},{"bike_id":"58d98179-192e-40b3-bd30-87f0ef125508","system_id":"levelo_inurba_marseille","lat":43.3133,"lon":5.39688,"is_reserved":false,"is_disabled":false,"rental_uris":{"android":"levelo://app?vid=58d98179-192e-40b3-bd30-87f0ef125508","ios":"levelo://app?vid=58d98179-192e-40b3-bd30-87f0ef125508"},"vehicle_type_id":"4","last_reported":1727871469,"current_range_meters":13600,"station_id":"ce4bgvp2rcd13ifvqcu0","pricing_plan_id":"cebpf4jnsgd1na2vs0mg"},{"bike_id":"0b713052-8d27-4997-bc52-3e98a9e8eb2c","system_id":"levelo_inurba_marseille","lat":43.28942,"lon":5.39626,"is_reserved":false,"is_disabled":false,"rental_uris":{"android":"levelo://app?vid=0b713052-8d27-4997-bc52-3e98a9e8eb2c","ios":"levelo://app?vid=0b713052-8d27-4997-bc52-3e98a9e8eb2c"},"vehicle_type_id":"4","last_reported":1727871469,"current_range_meters":22800,"station_id":"ce4bh3h2rcd13ifvqdn0","pricing_plan_id":"cebpf4jnsgd1na2vs0mg"},{"bike_id":"421320c4-fc10-46b2-9e08-cf54e950812c","system_id":"levelo_inurba_marseille","lat":43.2656,"lon":5.3728,"is_reserved":false,"is_disabled":false,"rental_uris":{"android":"levelo://app?vid=421320c4-fc10-46b2-9e08-cf54e950812c","ios":"levelo://app?vid=421320c4-fc10-46b2-9e08-cf54e950812c"},"vehicle_type_id":"4","last_reported":1727871469,"current_range_meters":24400,"station_id":"ce4bhg12rcd13ifvqf70","pricing_plan_id":"cebpf4jnsgd1na2vs0mg"},{"bike_id":"ad28b974-a1dd-405b-a2ee-a662c97739b1","system_id":"levelo_inurba_marseille","lat":43.28444,"lon":5.39201,"is_reserved":false,"is_disabled":false,"rental_uris":{"android":"levelo://app?vid=ad28b974-a1dd-405b-a2ee-a662c97739b1","ios":"levelo://app?vid=ad28b974-a1dd-405b-a2ee-a662c97739b1"},"vehicle_type_id":"4","last_reported":1727871469,"current_range_meters":25600,"station_id":"ce4bhoh2rcd13ifvqh5g","pricing_plan_id":"cebpf4jnsgd1na2vs0mg"},{"bike_id":"ae8fe54b-0758-4598-a3a6-368c8971129e","system_id":"levelo_inurba_marseille","lat":43.30544,"lon":5.36519,"is_reserved":false,"is_disabled":false,"rental_uris":{"android":"levelo://app?vid=ae8fe54b-0758-4598-a3a6-368c8971129e","ios":"levelo://app?vid=ae8fe54b-0758-4598-a3a6-368c8971129e"},"vehicle_type_id":"4","last_reported":1727871469,"current_range_meters":35600,"station_id":"ce4bgs12rcd13ifvqcag","pricing_plan_id":"cebpf4jnsgd1na2vs0mg"},{"bike_id":"229ad853-cd9a-4326-9244-8eae5bc31049","system_id":"levelo_inurba_marseille","lat":43.259666,"lon":5.375471,"is_reserved":false,"is_disabled":false,"rental_uris":{"android":"levelo://app?vid=229ad853-cd9a-4326-9244-8eae5bc31049","ios":"levelo://app?vid=229ad853-cd9a-4326-9244-8eae5bc31049"},"vehicle_type_id":"4","last_reported":1727871469,"current_range_meters":19200,"station_id":"ce4bhgh2rcd13ifvqfb0","pricing_plan_id":"cebpf4jnsgd1na2vs0mg"},{"bike_id":"31bc2871-e234-4169-b029-9e2c04eb52ac","system_id":"levelo_inurba_marseille","lat":43.33606,"lon":5.41033,"is_reserved":false,"is_disabled":false,"rental_uris":{"android":"levelo://app?vid=31bc2871-e234-4169-b029-9e2c04eb52ac","ios":"levelo://app?vid=31bc2871-e234-4169-b029-9e2c04eb52ac"},"vehicle_type_id":"4","last_reported":1727871469,"current_range_meters":36800,"station_id":"ce4bhqh2rcd13ifvqhmg","pricing_plan_id":"cebpf4jnsgd1na2vs0mg"},{"bike_id":"8b5f467a-4bb8-44a5-9d6f-94cb788e23e5","system_id":"levelo_inurba_marseille","lat":43.30453,"lon":5.37901,"is_reserved":false,"is_disabled":false,"rental_uris":{"android":"levelo://app?vid=8b5f467a-4bb8-44a5-9d6f-94cb788e23e5","ios":"levelo://app?vid=8b5f467a-4bb8-44a5-9d6f-94cb788e23e5"},"vehicle_type_id":"4","last_reported":1727871469,"current_range_meters":39200,"station_id":"ce4bgup2rcd13ifvqcn0","pricing_plan_id":"cebpf4jnsgd1na2vs0mg"},{"bike_id":"f9059654-f6b7-481d-9d48-eb9afea1ab25","system_id":"levelo_inurba_marseille","lat":43.2782,"lon":5.40717,"is_reserved":false,"is_disabled":false,"rental_uris":{"android":"levelo://app?vid=f9059654-f6b7-481d-9d48-eb9afea1ab25","ios":"levelo://app?vid=f9059654-f6b7-481d-9d48-eb9afea1ab25"},"vehicle_type_id":"4","last_reported":1727871469,"current_range_meters":6000,"station_id":"ce4bhnh2rcd13ifvqgtg","pricing_plan_id":"cebpf4jnsgd1na2vs0mg"},{"bike_id":"54a859cb-7ffc-41d5-97aa-78085a0f2c51","system_id":"levelo_inurba_marseille","lat":43.32539,"lon":5.41432,"is_reserved":false,"is_disabled":false,"rental_uris":{"android":"levelo://app?vid=54a859cb-7ffc-41d5-97aa-78085a0f2c51","ios":"levelo://app?vid=54a859cb-7ffc-41d5-97aa-78085a0f2c51"},"vehicle_type_id":"4","last_reported":1727871469,"current_range_meters":33600,"station_id":"ce4bhq12rcd13ifvqhhg","pricing_plan_id":"cebpf4jnsgd1na2vs0mg"},{"bike_id":"0927edc0-a2c0-428a-a1e9-31ec3c4f6f54","system_id":"levelo_inurba_marseille","lat":43.30602,"lon":5.393678,"is_reserved":false,"is_disabled":false,"rental_uris":{"android":"levelo://app?vid=0927edc0-a2c0-428a-a1e9-31ec3c4f6f54","ios":"levelo://app?vid=0927edc0-a2c0-428a-a1e9-31ec3c4f6f54"},"vehicle_type_id":"4","last_reported":1727871469,"current_range_meters":14400,"station_id":"ce4bh0p2rcd13ifvqd80","pricing_plan_id":"cebpf4jnsgd1na2vs0mg"},{"bike_id":"b3988bd0-b870-43ec-b253-16935f88b4c8","system_id":"levelo_inurba_marseille","lat":43.28419,"lon":5.34983,"is_reserved":false,"is_disabled":false,"rental_uris":{"android":"levelo://app?vid=b3988bd0-b870-43ec-b253-16935f88b4c8","ios":"levelo://app?vid=b3988bd0-b870-43ec-b253-16935f88b4c8"},"vehicle_type_id":"4","last_reported":1727871469,"current_range_meters":38000,"station_id":"ce4bhbh2rcd13ifvqepg","pricing_plan_id":"cebpf4jnsgd1na2vs0mg"},{"bike_id":"cde967ad-955f-46e6-9736-bf46ef9b9092","system_id":"levelo_inurba_marseille","lat":43.29704,"lon":5.36604,"is_reserved":false,"is_disabled":false,"rental_uris":{"android":"levelo://app?vid=cde967ad-955f-46e6-9736-bf46ef9b9092","ios":"levelo://app?vid=cde967ad-955f-46e6-9736-bf46ef9b9092"},"vehicle_type_id":"4","last_reported":1727871469,"current_range_meters":24000,"station_id":"ce4bgn12rcd13ifvqbt0","pricing_plan_id":"cebpf4jnsgd1na2vs0mg"},{"bike_id":"16d0b1bd-77be-44f3-8829-9c3f4674a608","system_id":"levelo_inurba_marseille","lat":43.31226,"lon":5.36851,"is_reserved":false,"is_disabled":false,"rental_uris":{"android":"levelo://app?vid=16d0b1bd-77be-44f3-8829-9c3f4674a608","ios":"levelo://app?vid=16d0b1bd-77be-44f3-8829-9c3f4674a608"},"vehicle_type_id":"4","last_reported":1727871469,"current_range_meters":38800,"station_id":"ce4bgl92rcd13ifvqbq0","pricing_plan_id":"cebpf4jnsgd1na2vs0mg"},{"bike_id":"043ba09d-7b03-4a0f-ad88-d46248238d7a","system_id":"levelo_inurba_marseille","lat":43.29265,"lon":5.36846,"is_reserved":false,"is_disabled":false,"rental_uris":{"android":"levelo://app?vid=043ba09d-7b03-4a0f-ad88-d46248238d7a","ios":"levelo://app?vid=043ba09d-7b03-4a0f-ad88-d46248238d7a"},"vehicle_type_id":"4","last_reported":1727871469,"current_range_meters":36800,"station_id":"ce4bhbp2rcd13ifvqesg","pricing_plan_id":"cebpf4jnsgd1na2vs0mg"},{"bike_id":"2651ad90-9ce5-4203-874f-d90525abf165","system_id":"levelo_inurba_marseille","lat":43.30445,"lon":5.37903,"is_reserved":false,"is_disabled":false,"rental_uris":{"android":"levelo://app?vid=2651ad90-9ce5-4203-874f-d90525abf165","ios":"levelo://app?vid=2651ad90-9ce5-4203-874f-d90525abf165"},"vehicle_type_id":"4","last_reported":1727871469,"current_range_meters":8800,"station_id":"ce4bgup2rcd13ifvqcn0","pricing_plan_id":"cebpf4jnsgd1na2vs0mg"},{"bike_id":"852ba5a7-b345-437d-b953-0681eef052a1","system_id":"levelo_inurba_marseille","lat":43.31901,"lon":5.40808,"is_reserved":false,"is_disabled":false,"rental_uris":{"android":"levelo://app?vid=852ba5a7-b345-437d-b953-0681eef052a1","ios":"levelo://app?vid=852ba5a7-b345-437d-b953-0681eef052a1"},"vehicle_type_id":"4","last_reported":1727871469,"current_range_meters":38000,"station_id":"ce4bho92rcd13ifvqh3g","pricing_plan_id":"cebpf4jnsgd1na2vs0mg"},{"bike_id":"abd5d167-e57c-484c-802a-fa7bc8898347","system_id":"levelo_inurba_marseille","lat":43.28409,"lon":5.34982,"is_reserved":false,"is_disabled":false,"rental_uris":{"android":"levelo://app?vid=abd5d167-e57c-484c-802a-fa7bc8898347","ios":"levelo://app?vid=abd5d167-e57c-484c-802a-fa7bc8898347"},"vehicle_type_id":"4","last_reported":1727871469,"current_range_meters":38800,"station_id":"ce4bhbh2rcd13ifvqepg","pricing_plan_id":"cebpf4jnsgd1na2vs0mg"},{"bike_id":"da77e428-61a6-4be7-88ce-1231fc0f6be2","system_id":"levelo_inurba_marseille","lat":43.29896,"lon":5.39747,"is_reserved":false,"is_disabled":false,"rental_uris":{"android":"levelo://app?vid=da77e428-61a6-4be7-88ce-1231fc0f6be2","ios":"levelo://app?vid=da77e428-61a6-4be7-88ce-1231fc0f6be2"},"vehicle_type_id":"4","last_reported":1727871469,"current_range_meters":30000,"station_id":"ce4bh0h2rcd13ifvqd50","pricing_plan_id":"cebpf4jnsgd1na2vs0mg"},{"bike_id":"7c7831b8-5083-4675-8d1a-f60c9fd82b32","system_id":"levelo_inurba_marseille","lat":43.25712,"lon":5.41053,"is_reserved":false,"is_disabled":false,"rental_uris":{"android":"levelo://app?vid=7c7831b8-5083-4675-8d1a-f60c9fd82b32","ios":"levelo://app?vid=7c7831b8-5083-4675-8d1a-f60c9fd82b32"},"vehicle_type_id":"4","last_reported":1727871469,"current_range_meters":19600,"station_id":"ce4bhkp2rcd13ifvqgd0","pricing_plan_id":"cebpf4jnsgd1na2vs0mg"},{"bike_id":"8e04e756-45a8-4231-8aa2-ed12843ddb07","system_id":"levelo_inurba_marseille","lat":43.30276,"lon":5.37702,"is_reserved":false,"is_disabled":false,"rental_uris":{"android":"levelo://app?vid=8e04e756-45a8-4231-8aa2-ed12843ddb07","ios":"levelo://app?vid=8e04e756-45a8-4231-8aa2-ed12843ddb07"},"vehicle_type_id":"4","last_reported":1727871469,"current_range_meters":37600,"station_id":"ce4bguh2rcd13ifvqcj0","pricing_plan_id":"cebpf4jnsgd1na2vs0mg"},{"bike_id":"d6510766-cb48-4660-8486-39a5cd4666b7","system_id":"levelo_inurba_marseille","lat":43.24389,"lon":5.37057,"is_reserved":false,"is_disabled":false,"rental_uris":{"android":"levelo://app?vid=d6510766-cb48-4660-8486-39a5cd4666b7","ios":"levelo://app?vid=d6510766-cb48-4660-8486-39a5cd4666b7"},"vehicle_type_id":"4","last_reported":1727871469,"current_range_meters":36400,"station_id":"ce4bhhh2rcd13ifvqfk0","pricing_plan_id":"cebpf4jnsgd1na2vs0mg"},{"bike_id":"5084d4e8-22d7-4248-aec8-4997331ff1e0","system_id":"levelo_inurba_marseille","lat":43.22924,"lon":5.35375,"is_reserved":false,"is_disabled":false,"rental_uris":{"android":"levelo://app?vid=5084d4e8-22d7-4248-aec8-4997331ff1e0","ios":"levelo://app?vid=5084d4e8-22d7-4248-aec8-4997331ff1e0"},"vehicle_type_id":"4","last_reported":1727871469,"current_range_meters":38800,"station_id":"cpo3532slgdg3j2ikp40","pricing_plan_id":"cebpf4jnsgd1na2vs0mg"},{"bike_id":"21cd8bee-8581-4f36-9fc1-52a9ec9169ef","system_id":"levelo_inurba_marseille","lat":43.23151,"lon":5.43704,"is_reserved":false,"is_disabled":false,"rental_uris":{"android":"levelo://app?vid=21cd8bee-8581-4f36-9fc1-52a9ec9169ef","ios":"levelo://app?vid=21cd8bee-8581-4f36-9fc1-52a9ec9169ef"},"vehicle_type_id":"4","last_reported":1727871469,"current_range_meters":38400,"station_id":"ce4bhmp2rcd13ifvqgog","pricing_plan_id":"cebpf4jnsgd1na2vs0mg"},{"bike_id":"6153543f-5e3f-48f0-9614-a51a9c3ce506","system_id":"levelo_inurba_marseille","lat":43.33022,"lon":5.39036,"is_reserved":false,"is_disabled":false,"rental_uris":{"android":"levelo://app?vid=6153543f-5e3f-48f0-9614-a51a9c3ce506","ios":"levelo://app?vid=6153543f-5e3f-48f0-9614-a51a9c3ce506"},"vehicle_type_id":"4","last_reported":1727871469,"current_range_meters":30400,"station_id":"ce4bhr92rcd13ifvqhrg","pricing_plan_id":"cebpf4jnsgd1na2vs0mg"},{"bike_id":"7e350479-327e-4b6e-a073-d7dcef6f424a","system_id":"levelo_inurba_marseille","lat":43.30277,"lon":5.37718,"is_reserved":false,"is_disabled":false,"rental_uris":{"android":"levelo://app?vid=7e350479-327e-4b6e-a073-d7dcef6f424a","ios":"levelo://app?vid=7e350479-327e-4b6e-a073-d7dcef6f424a"},"vehicle_type_id":"4","last_reported":1727871469,"current_range_meters":36000,"station_id":"ce4bguh2rcd13ifvqcj0","pricing_plan_id":"cebpf4jnsgd1na2vs0mg"},{"bike_id":"d8366149-ec40-4652-a491-417ff42d6a78","system_id":"levelo_inurba_marseille","lat":43.250859,"lon":5.395151,"is_reserved":false,"is_disabled":false,"rental_uris":{"android":"levelo://app?vid=d8366149-ec40-4652-a491-417ff42d6a78","ios":"levelo://app?vid=d8366149-ec40-4652-a491-417ff42d6a78"},"vehicle_type_id":"4","last_reported":1727871469,"current_range_meters":26800,"station_id":"ce4bhm12rcd13ifvqgkg","pricing_plan_id":"cebpf4jnsgd1na2vs0mg"},{"bike_id":"547b2f8b-e841-42a7-81d2-7f8c52223169","system_id":"levelo_inurba_marseille","lat":43.31125,"lon":5.37757,"is_reserved":false,"is_disabled":false,"rental_uris":{"android":"levelo://app?vid=547b2f8b-e841-42a7-81d2-7f8c52223169","ios":"levelo://app?vid=547b2f8b-e841-42a7-81d2-7f8c52223169"},"vehicle_type_id":"4","last_reported":1727871469,"current_range_meters":15200,"station_id":"ce4bgt92rcd13ifvqcg0","pricing_plan_id":"cebpf4jnsgd1na2vs0mg"},{"bike_id":"63776eca-2758-44c9-9262-86ffe3f08dba","system_id":"levelo_inurba_marseille","lat":43.32547,"lon":5.41427,"is_reserved":false,"is_disabled":false,"rental_uris":{"android":"levelo://app?vid=63776eca-2758-44c9-9262-86ffe3f08dba","ios":"levelo://app?vid=63776eca-2758-44c9-9262-86ffe3f08dba"},"vehicle_type_id":"4","last_reported":1727871469,"current_range_meters":19200,"station_id":"ce4bhq12rcd13ifvqhhg","pricing_plan_id":"cebpf4jnsgd1na2vs0mg"},{"bike_id":"46ec8073-acc5-4ae0-b2ff-0a7cb63025a5","system_id":"levelo_inurba_marseille","lat":43.30192,"lon":5.36627,"is_reserved":false,"is_disabled":false,"rental_uris":{"android":"levelo://app?vid=46ec8073-acc5-4ae0-b2ff-0a7cb63025a5","ios":"levelo://app?vid=46ec8073-acc5-4ae0-b2ff-0a7cb63025a5"},"vehicle_type_id":"4","last_reported":1727871469,"current_range_meters":27200,"station_id":"ce4bgrh2rcd13ifvqc8g","pricing_plan_id":"cebpf4jnsgd1na2vs0mg"},{"bike_id":"849785e9-3354-451b-a4b8-9dfecd3e3883","system_id":"levelo_inurba_marseille","lat":43.26686,"lon":5.38265,"is_reserved":false,"is_disabled":false,"rental_uris":{"android":"levelo://app?vid=849785e9-3354-451b-a4b8-9dfecd3e3883","ios":"levelo://app?vid=849785e9-3354-451b-a4b8-9dfecd3e3883"},"vehicle_type_id":"4","last_reported":1727871469,"current_range_meters":39200,"station_id":"ce4bhg92rcd13ifvqf90","pricing_plan_id":"cebpf4jnsgd1na2vs0mg"},{"bike_id":"c09c769a-6518-4cf4-ba28-9168aaaf34a7","system_id":"levelo_inurba_marseille","lat":43.28077,"lon":5.39652,"is_reserved":false,"is_disabled":false,"rental_uris":{"android":"levelo://app?vid=c09c769a-6518-4cf4-ba28-9168aaaf34a7","ios":"levelo://app?vid=c09c769a-6518-4cf4-ba28-9168aaaf34a7"},"vehicle_type_id":"4","last_reported":1727871469,"current_range_meters":28400,"station_id":"ce4bho12rcd13ifvqh2g","pricing_plan_id":"cebpf4jnsgd1na2vs0mg"},{"bike_id":"76e72baa-4044-48b9-a47d-38dcf94b591e","system_id":"levelo_inurba_marseille","lat":43.30909,"lon":5.36851,"is_reserved":false,"is_disabled":false,"rental_uris":{"android":"levelo://app?vid=76e72baa-4044-48b9-a47d-38dcf94b591e","ios":"levelo://app?vid=76e72baa-4044-48b9-a47d-38dcf94b591e"},"vehicle_type_id":"4","last_reported":1727871469,"current_range_meters":38800,"station_id":"ce4bgn92rcd13ifvqbvg","pricing_plan_id":"cebpf4jnsgd1na2vs0mg"},{"bike_id":"a0a8a104-5f24-4ed2-83a3-3321dfd691f7","system_id":"levelo_inurba_marseille","lat":43.33608,"lon":5.41012,"is_reserved":false,"is_disabled":false,"rental_uris":{"android":"levelo://app?vid=a0a8a104-5f24-4ed2-83a3-3321dfd691f7","ios":"levelo://app?vid=a0a8a104-5f24-4ed2-83a3-3321dfd691f7"},"vehicle_type_id":"4","last_reported":1727871469,"current_range_meters":36000,"station_id":"ce4bhqh2rcd13ifvqhmg","pricing_plan_id":"cebpf4jnsgd1na2vs0mg"},{"bike_id":"c2307216-a916-4a73-a5f0-a4329ce24bef","system_id":"levelo_inurba_marseille","lat":43.2533,"lon":5.38067,"is_reserved":false,"is_disabled":false,"rental_uris":{"android":"levelo://app?vid=c2307216-a916-4a73-a5f0-a4329ce24bef","ios":"levelo://app?vid=c2307216-a916-4a73-a5f0-a4329ce24bef"},"vehicle_type_id":"4","last_reported":1727871469,"current_range_meters":26800,"station_id":"ce4bhhh2rcd13ifvqfk0","pricing_plan_id":"cebpf4jnsgd1na2vs0mg"},{"bike_id":"361c4015-fea1-4d09-abed-03e20c4632cc","system_id":"levelo_inurba_marseille","lat":43.3092,"lon":5.36835,"is_reserved":false,"is_disabled":false,"rental_uris":{"android":"levelo://app?vid=361c4015-fea1-4d09-abed-03e20c4632cc","ios":"levelo://app?vid=361c4015-fea1-4d09-abed-03e20c4632cc"},"vehicle_type_id":"4","last_reported":1727871469,"current_range_meters":39200,"station_id":"ce4bgn92rcd13ifvqbvg","pricing_plan_id":"cebpf4jnsgd1na2vs0mg"},{"bike_id":"109843ee-0abb-4ff8-8f2b-0b7886122ab8","system_id":"levelo_inurba_marseille","lat":43.26553,"lon":5.37276,"is_reserved":false,"is_disabled":false,"rental_uris":{"android":"levelo://app?vid=109843ee-0abb-4ff8-8f2b-0b7886122ab8","ios":"levelo://app?vid=109843ee-0abb-4ff8-8f2b-0b7886122ab8"},"vehicle_type_id":"4","last_reported":1727871469,"current_range_meters":31200,"station_id":"ce4bhg12rcd13ifvqf70","pricing_plan_id":"cebpf4jnsgd1na2vs0mg"},{"bike_id":"5817c078-0e58-49cd-b7ab-a3d42c8e07b6","system_id":"levelo_inurba_marseille","lat":43.27053,"lon":5.40261,"is_reserved":false,"is_disabled":false,"rental_uris":{"android":"levelo://app?vid=5817c078-0e58-49cd-b7ab-a3d42c8e07b6","ios":"levelo://app?vid=5817c078-0e58-49cd-b7ab-a3d42c8e07b6"},"vehicle_type_id":"4","last_reported":1727871469,"current_range_meters":27200,"station_id":"ce4bhk92rcd13ifvqgc0","pricing_plan_id":"cebpf4jnsgd1na2vs0mg"},{"bike_id":"d6eeaeeb-1750-408e-a378-32736c060367","system_id":"levelo_inurba_marseille","lat":43.29974,"lon":5.38487,"is_reserved":false,"is_disabled":false,"rental_uris":{"android":"levelo://app?vid=d6eeaeeb-1750-408e-a378-32736c060367","ios":"levelo://app?vid=d6eeaeeb-1750-408e-a378-32736c060367"},"vehicle_type_id":"4","last_reported":1727871469,"current_range_meters":32000,"station_id":"ce4bgj92rcd13ifvqbd0","pricing_plan_id":"cebpf4jnsgd1na2vs0mg"},{"bike_id":"55cfb1ad-d80a-480d-bfe7-f79544ab315e","system_id":"levelo_inurba_marseille","lat":43.27064,"lon":5.40259,"is_reserved":false,"is_disabled":false,"rental_uris":{"android":"levelo://app?vid=55cfb1ad-d80a-480d-bfe7-f79544ab315e","ios":"levelo://app?vid=55cfb1ad-d80a-480d-bfe7-f79544ab315e"},"vehicle_type_id":"4","last_reported":1727871469,"current_range_meters":38800,"station_id":"ce4bhk92rcd13ifvqgc0","pricing_plan_id":"cebpf4jnsgd1na2vs0mg"},{"bike_id":"5f760e0b-9dfe-4d5e-9005-a50522c5964e","system_id":"levelo_inurba_marseille","lat":43.25822,"lon":5.39428,"is_reserved":false,"is_disabled":false,"rental_uris":{"android":"levelo://app?vid=5f760e0b-9dfe-4d5e-9005-a50522c5964e","ios":"levelo://app?vid=5f760e0b-9dfe-4d5e-9005-a50522c5964e"},"vehicle_type_id":"4","last_reported":1727871469,"current_range_meters":15200,"station_id":"ce4bhip2rcd13ifvqft0","pricing_plan_id":"cebpf4jnsgd1na2vs0mg"},{"bike_id":"b0515fa4-e867-4c9d-bfcf-99d14f480c22","system_id":"levelo_inurba_marseille","lat":43.28704,"lon":5.39994,"is_reserved":false,"is_disabled":false,"rental_uris":{"android":"levelo://app?vid=b0515fa4-e867-4c9d-bfcf-99d14f480c22","ios":"levelo://app?vid=b0515fa4-e867-4c9d-bfcf-99d14f480c22"},"vehicle_type_id":"4","last_reported":1727871469,"current_range_meters":14400,"station_id":"ce4bho92rcd13ifvqh3g","pricing_plan_id":"cebpf4jnsgd1na2vs0mg"},{"bike_id":"a0374540-7420-4f2d-998a-6956762182df","system_id":"levelo_inurba_marseille","lat":43.28931,"lon":5.38392,"is_reserved":false,"is_disabled":false,"rental_uris":{"android":"levelo://app?vid=a0374540-7420-4f2d-998a-6956762182df","ios":"levelo://app?vid=a0374540-7420-4f2d-998a-6956762182df"},"vehicle_type_id":"4","last_reported":1727871469,"current_range_meters":7200,"station_id":"ce4bh612rcd13ifvqe6g","pricing_plan_id":"cebpf4jnsgd1na2vs0mg"},{"bike_id":"267a7255-2896-452d-a993-3929e3d62dd1","system_id":"levelo_inurba_marseille","lat":43.29933,"lon":5.36545,"is_reserved":false,"is_disabled":false,"rental_uris":{"android":"levelo://app?vid=267a7255-2896-452d-a993-3929e3d62dd1","ios":"levelo://app?vid=267a7255-2896-452d-a993-3929e3d62dd1"},"vehicle_type_id":"4","last_reported":1727871469,"current_range_meters":26000,"station_id":"ce4bgm92rcd13ifvqbr0","pricing_plan_id":"cebpf4jnsgd1na2vs0mg"},{"bike_id":"228bc8cb-0269-4832-8aa8-6ceca4cfcdbe","system_id":"levelo_inurba_marseille","lat":43.29528,"lon":5.37493,"is_reserved":false,"is_disabled":false,"rental_uris":{"android":"levelo://app?vid=228bc8cb-0269-4832-8aa8-6ceca4cfcdbe","ios":"levelo://app?vid=228bc8cb-0269-4832-8aa8-6ceca4cfcdbe"},"vehicle_type_id":"4","last_reported":1727871469,"current_range_meters":39200,"station_id":"ce4bgkp2rcd13ifvqbmg","pricing_plan_id":"cebpf4jnsgd1na2vs0mg"},{"bike_id":"efc34f14-15c1-4770-87a0-24a7219661ec","system_id":"levelo_inurba_marseille","lat":43.30205,"lon":5.39469,"is_reserved":false,"is_disabled":false,"rental_uris":{"android":"levelo://app?vid=efc34f14-15c1-4770-87a0-24a7219661ec","ios":"levelo://app?vid=efc34f14-15c1-4770-87a0-24a7219661ec"},"vehicle_type_id":"4","last_reported":1727871469,"current_range_meters":32800,"station_id":"ce4bh0p2rcd13ifvqd70","pricing_plan_id":"cebpf4jnsgd1na2vs0mg"},{"bike_id":"db215235-46fd-4e94-b4a2-8d3ec4e5a140","system_id":"levelo_inurba_marseille","lat":43.32488,"lon":5.36548,"is_reserved":false,"is_disabled":false,"rental_uris":{"android":"levelo://app?vid=db215235-46fd-4e94-b4a2-8d3ec4e5a140","ios":"levelo://app?vid=db215235-46fd-4e94-b4a2-8d3ec4e5a140"},"vehicle_type_id":"4","last_reported":1727871469,"current_range_meters":19600,"station_id":"ce4bhs12rcd13ifvqhvg","pricing_plan_id":"cebpf4jnsgd1na2vs0mg"},{"bike_id":"57a0468a-83ec-477c-a561-d7825430251a","system_id":"levelo_inurba_marseille","lat":43.25501,"lon":5.37649,"is_reserved":false,"is_disabled":false,"rental_uris":{"android":"levelo://app?vid=57a0468a-83ec-477c-a561-d7825430251a","ios":"levelo://app?vid=57a0468a-83ec-477c-a561-d7825430251a"},"vehicle_type_id":"4","last_reported":1727871469,"current_range_meters":4000,"station_id":"ce4bhh12rcd13ifvqff0","pricing_plan_id":"cebpf4jnsgd1na2vs0mg"},{"bike_id":"4ac5b21d-f552-4c0b-a28d-986f107a6b95","system_id":"levelo_inurba_marseille","lat":43.32394,"lon":5.38998,"is_reserved":false,"is_disabled":false,"rental_uris":{"android":"levelo://app?vid=4ac5b21d-f552-4c0b-a28d-986f107a6b95","ios":"levelo://app?vid=4ac5b21d-f552-4c0b-a28d-986f107a6b95"},"vehicle_type_id":"4","last_reported":1727871469,"current_range_meters":11600,"station_id":"","pricing_plan_id":"cebpf4jnsgd1na2vs0mg"},{"bike_id":"862c1923-8f7b-4acf-a365-53b9684d65a0","system_id":"levelo_inurba_marseille","lat":43.30464,"lon":5.37903,"is_reserved":false,"is_disabled":false,"rental_uris":{"android":"levelo://app?vid=862c1923-8f7b-4acf-a365-53b9684d65a0","ios":"levelo://app?vid=862c1923-8f7b-4acf-a365-53b9684d65a0"},"vehicle_type_id":"4","last_reported":1727871469,"current_range_meters":26800,"station_id":"ce4bgup2rcd13ifvqcn0","pricing_plan_id":"cebpf4jnsgd1na2vs0mg"},{"bike_id":"010b0540-b053-45a0-9890-1364b29b4411","system_id":"levelo_inurba_marseille","lat":43.2847,"lon":5.38421,"is_reserved":false,"is_disabled":false,"rental_uris":{"android":"levelo://app?vid=010b0540-b053-45a0-9890-1364b29b4411","ios":"levelo://app?vid=010b0540-b053-45a0-9890-1364b29b4411"},"vehicle_type_id":"4","last_reported":1727871469,"current_range_meters":24400,"station_id":"ce4bh512rcd13ifvqe3g","pricing_plan_id":"cebpf4jnsgd1na2vs0mg"},{"bike_id":"5b85824c-d0fb-4411-9498-fe58aee29981","system_id":"levelo_inurba_marseille","lat":43.26506,"lon":5.39534,"is_reserved":false,"is_disabled":false,"rental_uris":{"android":"levelo://app?vid=5b85824c-d0fb-4411-9498-fe58aee29981","ios":"levelo://app?vid=5b85824c-d0fb-4411-9498-fe58aee29981"},"vehicle_type_id":"4","last_reported":1727871469,"current_range_meters":6800,"station_id":"ce4bhi12rcd13ifvqfq0","pricing_plan_id":"cebpf4jnsgd1na2vs0mg"},