{"last_updated":1726340777,"ttl":30,"version":"2.2","data":{"bikes":[{"bike_id":"2e9c91b0-6122-4d97-ae72-07a45d1bac27","system_id":"levelo_inurba_marseille","lat":43.30892,"lon":5.37198,"is_reserved":false,"is_disabled":false,"rental_uris":{"android":"levelo://app?vid=2e9c91b0-6122-4d97-ae72-07a45d1bac27","ios":"levelo://app?vid=2e9c91b0-6122-4d97-ae72-07a45d1bac27"},"vehicle_type_id":"4","last_reported":1726340777,"current_range_meters":36800,"station_id":"ce4bguh2rcd13ifvqckg","pricing_plan_id":"cebpf4jnsgd1na2vs0mg"},{"bike_id":"083984dd-1abd-4a7d-84c6-e8ceb7b63abe","system_id":"levelo_inurba_marseille","lat":43.31294,"lon":5.37812,"is_reserved":false,"is_disabled":false,"rental_uris":{"android":"levelo://app?vid=083984dd-1abd-4a7d-84c6-e8ceb7b63abe","ios":"levelo://app?vid=083984dd-1abd-4a7d-84c6-e8ceb7b63abe"},"vehicle_type_id":"4","last_reported":1726340777,"current_range_meters":36800,"station_id":"","pricing_plan_id":"cebpf4jnsgd1na2vs0mg"},{"bike_id":"96e4ddaa-8a0d-4617-a9cb-4308b20ffbf8","system_id":"levelo_inurba_marseille","lat":43.29602,"lon":5.38107,"is_reserved":false,"is_disabled":false,"rental_uris":{"android":"levelo://app?vid=96e4ddaa-8a0d-4617-a9cb-4308b20ffbf8","ios":"levelo://app?vid=96e4ddaa-8a0d-4617-a9cb-4308b20ffbf8"},"vehicle_type_id":"4","last_reported":1726340777,"current_range_meters":16000,"station_id":"ce4bgl12rcd13ifvqbo0","pricing_plan_id":"cebpf4jnsgd1na2vs0mg"},{"bike_id":"9605e6c3-109f-44c2-b2d6-e9d4f9322249","system_id":"levelo_inurba_marseille","lat":43.28332,"lon":5.38096,"is_reserved":false,"is_disabled":false,"rental_uris":{"android":"levelo://app?vid=9605e6c3-109f-44c2-b2d6-e9d4f9322249","ios":"levelo://app?vid=9605e6c3-109f-44c2-b2d6-e9d4f9322249"},"vehicle_type_id":"4","last_reported":1726340777,"current_range_meters":14400,"station_id":"ce4bh412rcd13ifvqdr0","pricing_plan_id":"cebpf4jnsgd1na2vs0mg"},{"bike_id":"13c4bde3-79a1-495d-a0c0-1dbceff892e5","system_id":"levelo_inurba_marseille","lat":43.25932,"lon":5.40911,"is_reserved":false,"is_disabled":false,"rental_uris":{"android":"levelo://app?vid=13c4bde3-79a1-495d-a0c0-1dbceff892e5","ios":"levelo://app?vid=13c4bde3-79a1-495d-a0c0-1dbceff892e5"},"vehicle_type_id":"4","last_reported":1726340777,"current_range_meters":7200,"station_id":"ce4bhm92rcd13ifvqglg","pricing_plan_id":"cebpf4jnsgd1na2vs0mg"},{"bike_id":"13ec4916-f0ea-4897-8afc-596425b42c42","system_id":"levelo_inurba_marseille","lat":43.2319,"lon":5.35557,"is_reserved":false,"is_disabled":false,"rental_uris":{"android":"levelo://app?vid=13ec4916-f0ea-4897-8afc-596425b42c42","ios":"levelo://app?vid=13ec4916-f0ea-4897-8afc-596425b42c42"},"vehicle_type_id":"4","last_reported":1726340777,"current_range_meters":25600,"station_id":"ce4bhu92rcd13ifvqi70","pricing_plan_id":"cebpf4jnsgd1na2vs0mg"},{"bike_id":"3482e927-1835-4203-981e-ce9c76f284ae","system_id":"levelo_inurba_marseille","lat":43.25112,"lon":5.40321,"is_reserved":false,"is_disabled":false,"rental_uris":{"android":"levelo://app?vid=3482e927-1835-4203-981e-ce9c76f284ae","ios":"levelo://app?vid=3482e927-1835-4203-981e-ce9c76f284ae"},"vehicle_type_id":"4","last_reported":1726340777,"current_range_meters":2800,"station_id":"ce4bhlh2rcd13ifvqgig","pricing_plan_id":"cebpf4jnsgd1na2vs0mg"},{"bike_id":"55bc50a0-bff1-4069-a730-21497c0a58ef","system_id":"levelo_inurba_marseille","lat":43.29198,"lon":5.39333,"is_reserved":false,"is_disabled":false,"rental_uris":{"android":"levelo://app?vid=55bc50a0-bff1-4069-a730-21497c0a58ef","ios":"levelo://app?vid=55bc50a0-bff1-4069-a730-21497c0a58ef"},"vehicle_type_id":"4","last_reported":1726340777,"current_range_meters":20400,"station_id":"ce4bh192rcd13ifvqdd0","pricing_plan_id":"cebpf4jnsgd1na2vs0mg"},{"bike_id":"43fa9f7f-0d5d-4360-b036-7e69c3405099","system_id":"levelo_inurba_marseille","lat":43.30352,"lon":5.41877,"is_reserved":false,"is_disabled":false,"rental_uris":{"android":"levelo://app?vid=43fa9f7f-0d5d-4360-b036-7e69c3405099","ios":"levelo://app?vid=43fa9f7f-0d5d-4360-b036-7e69c3405099"},"vehicle_type_id":"4","last_reported":1726340777,"current_range_meters":18800,"station_id":"ce4bhop2rcd13ifvqh7g","pricing_plan_id":"cebpf4jnsgd1na2vs0mg"},{"bike_id":"ff32aca5-3a34-4f66-8a33-2df25c151b90","system_id":"levelo_inurba_marseille","lat":43.28681,"lon":5.38668,"is_reserved":false,"is_disabled":false,"rental_uris":{"android":"levelo://app?vid=ff32aca5-3a34-4f66-8a33-2df25c151b90","ios":"levelo://app?vid=ff32aca5-3a34-4f66-8a33-2df25c151b90"},"vehicle_type_id":"4","last_reported":1726340777,"current_range_meters":18800,"station_id":"ce4bh492rcd13ifvqdug","pricing_plan_id":"cebpf4jnsgd1na2vs0mg"},{"bike_id":"1b69e28d-b657-4802-b5dd-aa17fb5a768b","system_id":"levelo_inurba_marseille","lat":43.27141,"lon":5.4279,"is_reserved":false,"is_disabled":false,"rental_uris":{"android":"levelo://app?vid=1b69e28d-b657-4802-b5dd-aa17fb5a768b","ios":"levelo://app?vid=1b69e28d-b657-4802-b5dd-aa17fb5a768b"},"vehicle_type_id":"4","last_reported":1726340777,"current_range_meters":25200,"station_id":"","pricing_plan_id":"cebpf4jnsgd1na2vs0mg"},{"bike_id":"bb4edc19-8629-4cd9-a25b-10a7ae50e708","system_id":"levelo_inurba_marseille","lat":43.24811,"lon":5.37461,"is_reserved":false,"is_disabled":false,"rental_uris":{"android":"levelo://app?vid=bb4edc19-8629-4cd9-a25b-10a7ae50e708","ios":"levelo://app?vid=bb4edc19-8629-4cd9-a25b-10a7ae50e708"},"vehicle_type_id":"4","last_reported":1726340777,"current_range_meters":2000,"station_id":"ce4bhgh2rcd13ifvqfb0","pricing_plan_id":"cebpf4jnsgd1na2vs0mg"},{"bike_id":"db3f65c2-ae44-4a7c-9ef7-8f0f4a777655","system_id":"levelo_inurba_marseille","lat":43.29276,"lon":5.38437,"is_reserved":false,"is_disabled":false,"rental_uris":{"android":"levelo://app?vid=db3f65c2-ae44-4a7c-9ef7-8f0f4a777655","ios":"levelo://app?vid=db3f65c2-ae44-4a7c-9ef7-8f0f4a777655"},"vehicle_type_id":"4","last_reported":1726340777,"current_range_meters":38800,"station_id":"ce4bh692rcd13ifvqea0","pricing_plan_id":"cebpf4jnsgd1na2vs0mg"},{"bike_id":"f0e5fabe-e692-4e5b-8a06-c7c4fe295016","system_id":"levelo_inurba_marseille","lat":43.29028,"lon":5.38648,"is_reserved":false,"is_disabled":false,"rental_uris":{"android":"levelo://app?vid=f0e5fabe-e692-4e5b-8a06-c7c4fe295016","ios":"levelo://app?vid=f0e5fabe-e692-4e5b-8a06-c7c4fe295016"},"vehicle_type_id":"4","last_reported":1726340777,"current_range_meters":32400,"station_id":"ce4bh4p2rcd13ifvqe0g","pricing_plan_id":"cebpf4jnsgd1na2vs0mg"},{"bike_id":"995d3a7e-289e-4ebd-b785-9d2da426ad57","system_id":"levelo_inurba_marseille","lat":43.23193,"lon":5.35549,"is_reserved":false,"is_disabled":false,"rental_uris":{"android":"levelo://app?vid=995d3a7e-289e-4ebd-b785-9d2da426ad57","ios":"levelo://app?vid=995d3a7e-289e-4ebd-b785-9d2da426ad57"},"vehicle_type_id":"4","last_reported":1726340777,"current_range_meters":18000,"station_id":"ce4bhu92rcd13ifvqi70","pricing_plan_id":"cebpf4jnsgd1na2vs0mg"},{"bike_id":"74c67d55-8a5f-40c9-8066-d68354718f8c","system_id":"levelo_inurba_marseille","lat":43.2319,"lon":5.35557,"is_reserved":false,"is_disabled":false,"rental_uris":{"android":"levelo://app?vid=74c67d55-8a5f-40c9-8066-d68354718f8c","ios":"levelo://app?vid=74c67d55-8a5f-40c9-8066-d68354718f8c"},"vehicle_type_id":"4","last_reported":1726340777,"current_range_meters":24400,"station_id":"ce4bhu92rcd13ifvqi70","pricing_plan_id":"cebpf4jnsgd1na2vs0mg"},{"bike_id":"53c38233-e47f-4b39-a04b-a035f6e289fc","system_id":"levelo_inurba_marseille","lat":43.29784,"lon":5.39338,"is_reserved":false,"is_disabled":false,"rental_uris":{"android":"levelo://app?vid=53c38233-e47f-4b39-a04b-a035f6e289fc","ios":"levelo://app?vid=53c38233-e47f-4b39-a04b-a035f6e289fc"},"vehicle_type_id":"4","last_reported":1726340777,"current_range_meters":11600,"station_id":"chh1huq6cuj3fo74tm60","pricing_plan_id":"cebpf4jnsgd1na2vs0mg"},{"bike_id":"2348432a-2e1b-4480-8221-dc0ae33b40e8","system_id":"levelo_inurba_marseille","lat":43.24391,"lon":5.37062,"is_reserved":false,"is_disabled":false,"rental_uris":{"android":"levelo://app?vid=2348432a-2e1b-4480-8221-dc0ae33b40e8","ios":"levelo://app?vid=2348432a-2e1b-4480-8221-dc0ae33b40e8"},"vehicle_type_id":"4","last_reported":1726340777,"current_range_meters":19600,"station_id":"ce4bhhh2rcd13ifvqfk0","pricing_plan_id":"cebpf4jnsgd1na2vs0mg"},{"bike_id":"01665608-67f5-49e4-803e-974fca0ddcc9","system_id":"levelo_inurba_marseille","lat":43.32364,"lon":5.38889,"is_reserved":false,"is_disabled":false,"rental_uris":{"android":"levelo://app?vid=01665608-67f5-49e4-803e-974fca0ddcc9","ios":"levelo://app?vid=01665608-67f5-49e4-803e-974fca0ddcc9"},"vehicle_type_id":"4","last_reported":1726340777,"current_range_meters":14000,"station_id":"ce4bhqp2rcd13ifvqhog","pricing_plan_id":"cebpf4jnsgd1na2vs0mg"},{"bike_id":"bf163d4f-8221-4fc1-aa83-ebe7d7a41dd8","system_id":"levelo_inurba_marseille","lat":43.260168,"lon":5.375338,"is_reserved":false,"is_disabled":false,"rental_uris":{"android":"levelo://app?vid=bf163d4f-8221-4fc1-aa83-ebe7d7a41dd8","ios":"levelo://app?vid=bf163d4f-8221-4fc1-aa83-ebe7d7a41dd8"},"vehicle_type_id":"4","last_reported":1726340777,"current_range_meters":36800,"station_id":"ce4bhgh2rcd13ifvqfa0","pricing_plan_id":"cebpf4jnsgd1na2vs0mg"},{"bike_id":"dfb89513-f211-47bc-95b2-ffac780f14a8","system_id":"levelo_inurba_marseille","lat":43.23193,"lon":5.35556,"is_reserved":false,"is_disabled":false,"rental_uris":{"android":"levelo://app?vid=dfb89513-f211-47bc-95b2-ffac780f14a8","ios":"levelo://app?vid=dfb89513-f211-47bc-95b2-ffac780f14a8"},"vehicle_type_id":"4","last_reported":1726340777,"current_range_meters":11600,"station_id":"ce4bhu92rcd13ifvqi70","pricing_plan_id":"cebpf4jnsgd1na2vs0mg"},{"bike_id":"5695be2b-9a5b-4c85-9c3e-237c284c36d2","system_id":"levelo_inurba_marseille","lat":43.32289,"lon":5.38271,"is_reserved":false,"is_disabled":false,"rental_uris":{"android":"levelo://app?vid=5695be2b-9a5b-4c85-9c3e-237c284c36d2","ios":"levelo://app?vid=5695be2b-9a5b-4c85-9c3e-237c284c36d2"},"vehicle_type_id":"4","last_reported":1726340777,"current_range_meters":39200,"station_id":"ce4bhr12rcd13ifvqhqg","pricing_plan_id":"cebpf4jnsgd1na2vs0mg"},{"bike_id":"0483261d-c4db-4864-9151-023858d97ac0","system_id":"levelo_inurba_marseille","lat":43.28609,"lon":5.37063,"is_reserved":false,"is_disabled":false,"rental_uris":{"android":"levelo://app?vid=0483261d-c4db-4864-9151-023858d97ac0","ios":"levelo://app?vid=0483261d-c4db-4864-9151-023858d97ac0"},"vehicle_type_id":"4","last_reported":1726340777,"current_range_meters":10000,"station_id":"ce4bht12rcd13ifvqi60","pricing_plan_id":"cebpf4jnsgd1na2vs0mg"},{"bike_id":"5b62a0f9-6a69-4529-9ac1-2575b5ccf6a6","system_id":"levelo_inurba_marseille","lat":43.28348,"lon":5.38104,"is_reserved":false,"is_disabled":false,"rental_uris":{"android":"levelo://app?vid=5b62a0f9-6a69-4529-9ac1-2575b5ccf6a6","ios":"levelo://app?vid=5b62a0f9-6a69-4529-9ac1-2575b5ccf6a6"},"vehicle_type_id":"4","last_reported":1726340777,"current_range_meters":38800,"station_id":"ce4bh412rcd13ifvqdr0","pricing_plan_id":"cebpf4jnsgd1na2vs0mg"},{"bike_id":"aac07f6f-d068-41e5-80ed-ad695afca2fa","system_id":"levelo_inurba_marseille","lat":43.25711,"lon":5.4112,"is_reserved":false,"is_disabled":false,"rental_uris":{"android":"levelo://app?vid=aac07f6f-d068-41e5-80ed-ad695afca2fa","ios":"levelo://app?vid=aac07f6f-d068-41e5-80ed-ad695afca2fa"},"vehicle_type_id":"4","last_reported":1726340777,"current_range_meters":36000,"station_id":"ce4bhkp2rcd13ifvqgd0","pricing_plan_id":"cebpf4jnsgd1na2vs0mg"},{"bike_id":"8f7d2222-b8b1-4df4-8f4e-3209ab742980","system_id":"levelo_inurba_marseille","lat":43.30877,"lon":5.39638,"is_reserved":false,"is_disabled":false,"rental_uris":{"android":"levelo://app?vid=8f7d2222-b8b1-4df4-8f4e-3209ab742980","ios":"levelo://app?vid=8f7d2222-b8b1-4df4-8f4e-3209ab742980"},"vehicle_type_id":"4","last_reported":1726340777,"current_range_meters":38400,"station_id":"ce4bh012rcd13ifvqcv0","pricing_plan_id":"cebpf4jnsgd1na2vs0mg"},{"bike_id":"4301505a-6d3b-40ec-82ff-7da414032742","system_id":"levelo_inurba_marseille","lat":43.2902,"lon":5.38648,"is_reserved":false,"is_disabled":false,"rental_uris":{"android":"levelo://app?vid=4301505a-6d3b-40ec-82ff-7da414032742","ios":"levelo://app?vid=4301505a-6d3b-40ec-82ff-7da414032742"},"vehicle_type_id":"4","last_reported":1726340777,"current_range_meters":9600,"station_id":"ce4bh4p2rcd13ifvqe0g","pricing_plan_id":"cebpf4jnsgd1na2vs0mg"},{"bike_id":"e16894db-5013-4b1c-bf97-e17a2208f657","system_id":"levelo_inurba_marseille","lat":43.29422,"lon":5.38627,"is_reserved":false,"is_disabled":false,"rental_uris":{"android":"levelo://app?vid=e16894db-5013-4b1c-bf97-e17a2208f657","ios":"levelo://app?vid=e16894db-5013-4b1c-bf97-e17a2208f657"},"vehicle_type_id":"4","last_reported":1726340777,"current_range_meters":27600,"station_id":"ce4bh2h2rcd13ifvqdh0","pricing_plan_id":"cebpf4jnsgd1na2vs0mg"},{"bike_id":"30fc1f51-20b6-4e13-8f56-75175e166910","system_id":"levelo_inurba_marseille","lat":43.2306,"lon":5.35492,"is_reserved":false,"is_disabled":false,"rental_uris":{"android":"levelo://app?vid=30fc1f51-20b6-4e13-8f56-75175e166910","ios":"levelo://app?vid=30fc1f51-20b6-4e13-8f56-75175e166910"},"vehicle_type_id":"4","last_reported":1726340777,"current_range_meters":38800,"station_id":"cpo3342slgdg3j2ifvpg","pricing_plan_id":"cebpf4jnsgd1na2vs0mg"},{"bike_id":"44d583c2-7f49-4d59-bef9-b6bb9f0faf02","system_id":"levelo_inurba_marseille","lat":43.29416,"lon":5.38627,"is_reserved":false,"is_disabled":false,"rental_uris":{"android":"levelo://app?vid=44d583c2-7f49-4d59-bef9-b6bb9f0faf02","ios":"levelo://app?vid=44d583c2-7f49-4d59-bef9-b6bb9f0faf02"},"vehicle_type_id":"4","last_reported":1726340777,"current_range_meters":22000,"station_id":"ce4bh2h2rcd13ifvqdh0","pricing_plan_id":"cebpf4jnsgd1na2vs0mg"},{"bike_id":"0bba7cc8-449f-4082-ae64-43460c75ad4f","system_id":"levelo_inurba_marseille","lat":43.30544,"lon":5.36709,"is_reserved":false,"is_disabled":false,"rental_uris":{"android":"levelo://app?vid=0bba7cc8-449f-4082-ae64-43460c75ad4f","ios":"levelo://app?vid=0bba7cc8-449f-4082-ae64-43460c75ad4f"},"vehicle_type_id":"4","last_reported":1726340777,"current_range_meters":36800,"station_id":"ce4bgrp2rcd13ifvqc9g","pricing_plan_id":"cebpf4jnsgd1na2vs0mg"},{"bike_id":"8344c512-a10f-4d3e-9047-6eec3b4d39c4","system_id":"levelo_inurba_marseille","lat":43.30323,"lon":5.40441,"is_reserved":false,"is_disabled":false,"rental_uris":{"android":"levelo://app?vid=8344c512-a10f-4d3e-9047-6eec3b4d39c4","ios":"levelo://app?vid=8344c512-a10f-4d3e-9047-6eec3b4d39c4"},"vehicle_type_id":"4","last_reported":1726340777,"current_range_meters":24000,"station_id":"ce4bh012rcd13ifvqd10","pricing_plan_id":"cebpf4jnsgd1na2vs0mg"},{"bike_id":"978a26f8-5216-4e1c-b270-c07a24848af2","system_id":"levelo_inurba_marseille","lat":43.24166,"lon":5.36397,"is_reserved":false,"is_disabled":false,"rental_uris":{"android":"levelo://app?vid=978a26f8-5216-4e1c-b270-c07a24848af2","ios":"levelo://app?vid=978a26f8-5216-4e1c-b270-c07a24848af2"},"vehicle_type_id":"4","last_reported":1726340777,"current_range_meters":32000,"station_id":"cpo36qri1sfpv3e86is0","pricing_plan_id":"cebpf4jnsgd1na2vs0mg"},{"bike_id":"c86b0092-7fc7-4b72-93c6-667605627665","system_id":"levelo_inurba_marseille","lat":43.30747,"lon":5.38303,"is_reserved":false,"is_disabled":false,"rental_uris":{"android":"levelo://app?vid=c86b0092-7fc7-4b72-93c6-667605627665","ios":"levelo://app?vid=c86b0092-7fc7-4b72-93c6-667605627665"},"vehicle_type_id":"4","last_reported":1726340777,"current_range_meters":7200,"station_id":"","pricing_plan_id":"cebpf4jnsgd1na2vs0mg"},{"bike_id":"f89ebaff-608b-48c6-99bf-a4efd018954e","system_id":"levelo_inurba_marseille","lat":43.25721,"lon":5.41117,"is_reserved":false,"is_disabled":false,"rental_uris":{"android":"levelo://app?vid=f89ebaff-608b-48c6-99bf-a4efd018954e","ios":"levelo://app?vid=f89ebaff-608b-48c6-99bf-a4efd018954e"},"vehicle_type_id":"4","last_reported":1726340777,"current_range_meters":20400,"station_id":"ce4bhkp2rcd13ifvqgd0","pricing_plan_id":"cebpf4jnsgd1na2vs0mg"},{"bike_id":"378a1361-1dc8-417b-b490-fb965439b8b1","system_id":"levelo_inurba_marseille","lat":43.28921,"lon":5.38394,"is_reserved":false,"is_disabled":false,"rental_uris":{"android":"levelo://app?vid=378a1361-1dc8-417b-b490-fb965439b8b1","ios":"levelo://app?vid=378a1361-1dc8-417b-b490-fb965439b8b1"},"vehicle_type_id":"4","last_reported":1726340777,"current_range_meters":35200,"station_id":"ce4bh612rcd13ifvqe6g","pricing_plan_id":"cebpf4jnsgd1na2vs0mg"},{"bike_id":"fc8b27c4-f2ac-4aa3-a72e-f0799ca48e22","system_id":"levelo_inurba_marseille","lat":43.23147,"lon":5.43709,"is_reserved":false,"is_disabled":false,"rental_uris":{"android":"levelo://app?vid=fc8b27c4-f2ac-4aa3-a72e-f0799ca48e22","ios":"levelo://app?vid=fc8b27c4-f2ac-4aa3-a72e-f0799ca48e22"},"vehicle_type_id":"4","last_reported":1726340777,"current_range_meters":15200,"station_id":"ce4bhmp2rcd13ifvqgog","pricing_plan_id":"cebpf4jnsgd1na2vs0mg"},{"bike_id":"b163cf08-6ce3-4d2f-a3d2-6a4eb4ce7991","system_id":"levelo_inurba_marseille","lat":43.28153,"lon":5.42648,"is_reserved":false,"is_disabled":false,"rental_uris":{"android":"levelo://app?vid=b163cf08-6ce3-4d2f-a3d2-6a4eb4ce7991","ios":"levelo://app?vid=b163cf08-6ce3-4d2f-a3d2-6a4eb4ce7991"},"vehicle_type_id":"4","last_reported":1726340777,"current_range_meters":11600,"station_id":"ce4bhnh2rcd13ifvqgug","pricing_plan_id":"cebpf4jnsgd1na2vs0mg"},{"bike_id":"2690214e-f814-462a-adbe-7512c993181c","system_id":"levelo_inurba_marseille","lat":43.29272,"lon":5.38442,"is_reserved":false,"is_disabled":false,"rental_uris":{"android":"levelo://app?vid=2690214e-f814-462a-adbe-7512c993181c","ios":"levelo://app?vid=2690214e-f814-462a-adbe-7512c993181c"},"vehicle_type_id":"4","last_reported":1726340777,"current_range_meters":38800,"station_id":"ce4bh692rcd13ifvqea0","pricing_plan_id":"cebpf4jnsgd1na2vs0mg"},{"bike_id":"049b027b-b576-4c06-be84-bbcb2127d507","system_id":"levelo_inurba_marseille","lat":43.28151,"lon":5.42644,"is_reserved":false,"is_disabled":false,"rental_uris":{"android":"levelo://app?vid=049b027b-b576-4c06-be84-bbcb2127d507","ios":"levelo://app?vid=049b027b-b576-4c06-be84-bbcb2127d507"},"vehicle_type_id":"4","last_reported":1726340777,"current_range_meters":2800,"station_id":"ce4bhnh2rcd13ifvqgug","pricing_plan_id":"cebpf4jnsgd1na2vs0mg"},{"bike_id":"16ca6d91-7513-415c-9a61-5d33eb8ad677","system_id":"levelo_inurba_marseille","lat":43.22934,"lon":5.35374,"is_reserved":false,"is_disabled":false,"rental_uris":{"android":"levelo://app?vid=16ca6d91-7513-415c-9a61-5d33eb8ad677","ios":"levelo://app?vid=16ca6d91-7513-415c-9a61-5d33eb8ad677"},"vehicle_type_id":"4","last_reported":1726340777,"current_range_meters":20400,"station_id":"cpo3532slgdg3j2ikp40","pricing_plan_id":"cebpf4jnsgd1na2vs0mg"},{"bike_id":"55ae1fb3-0252-4487-aabf-7b96814c0a04","system_id":"levelo_inurba_marseille","lat":43.3148,"lon":5.37299,"is_reserved":false,"is_disabled":false,"rental_uris":{"android":"levelo://app?vid=55ae1fb3-0252-4487-aabf-7b96814c0a04","ios":"levelo://app?vid=55ae1fb3-0252-4487-aabf-7b96814c0a04"},"vehicle_type_id":"4","last_reported":1726340777,"current_range_meters":24800,"station_id":"ce4bgt12rcd13ifvqcd0","pricing_plan_id":"cebpf4jnsgd1na2vs0mg"},{"bike_id":"90521811-f8fd-48e1-ade7-4d07ddb065bb","system_id":"levelo_inurba_marseille","lat":43.23188,"lon":5.35556,"is_reserved":false,"is_disabled":false,"rental_uris":{"android":"levelo://app?vid=90521811-f8fd-48e1-ade7-4d07ddb065bb","ios":"levelo://app?vid=90521811-f8fd-48e1-ade7-4d07ddb065bb"},"vehicle_type_id":"4","last_reported":1726340777,"current_range_meters":16800,"station_id":"ce4bhu92rcd13ifvqi70","pricing_plan_id":"cebpf4jnsgd1na2vs0mg"},{"bike_id":"116dc1c9-3888-49d7-8807-352f97a03dff","system_id":"levelo_inurba_marseille","lat":43.30908,"lon":5.36858,"is_reserved":false,"is_disabled":false,"rental_uris":{"android":"levelo://app?vid=116dc1c9-3888-49d7-8807-352f97a03dff","ios":"levelo://app?vid=116dc1c9-3888-49d7-8807-352f97a03dff"},"vehicle_type_id":"4","last_reported":1726340777,"current_range_meters":38000,"station_id":"ce4bgn92rcd13ifvqbvg","pricing_plan_id":"cebpf4jnsgd1na2vs0mg"},{"bike_id":"f524e6ce-bd11-4cfb-bffa-8bd27d264bc1","system_id":"levelo_inurba_marseille","lat":43.2511,"lon":5.40323,"is_reserved":false,"is_disabled":false,"rental_uris":{"android":"levelo://app?vid=f524e6ce-bd11-4cfb-bffa-8bd27d264bc1","ios":"levelo://app?vid=f524e6ce-bd11-4cfb-bffa-8bd27d264bc1"},"vehicle_type_id":"4","last_reported":1726340777,"current_range_meters":38800,"station_id":"ce4bhlh2rcd13ifvqgig","pricing_plan_id":"cebpf4jnsgd1na2vs0mg"},{"bike_id":"5ad3492d-3df3-4fe5-a8a3-a55c24773366","system_id":"levelo_inurba_marseille","lat":43.29108,"lon":5.38137,"is_reserved":false,"is_disabled":false,"rental_uris":{"android":"levelo://app?vid=5ad3492d-3df3-4fe5-a8a3-a55c24773366","ios":"levelo://app?vid=5ad3492d-3df3-4fe5-a8a3-a55c24773366"},"vehicle_type_id":"4","last_reported":1726340777,"current_range_meters":34000,"station_id":"ce4bh512rcd13ifvqe2g","pricing_plan_id":"cebpf4jnsgd1na2vs0mg"},{"bike_id":"fe7d7640-31b4-4680-bbc0-971c61390d2e","system_id":"levelo_inurba_marseille","lat":43.250885,"lon":5.395217,"is_reserved":false,"is_disabled":false,"rental_uris":{"android":"levelo://app?vid=fe7d7640-31b4-4680-bbc0-971c61390d2e","ios":"levelo://app?vid=fe7d7640-31b4-4680-bbc0-971c61390d2e"},"vehicle_type_id":"4","last_reported":1726340777,"current_range_meters":38400,"station_id":"ce4bhm12rcd13ifvqgkg","pricing_plan_id":"cebpf4jnsgd1na2vs0mg"},{"bike_id":"26db0265-0a91-4c66-8aa8-67a94f7eef0d","system_id":"levelo_inurba_marseille","lat":43.26937,"lon":5.40059,"is_reserved":false,"is_disabled":false,"rental_uris":{"android":"levelo://app?vid=26db0265-0a91-4c66-8aa8-67a94f7eef0d","ios":"levelo://app?vid=26db0265-0a91-4c66-8aa8-67a94f7eef0d"},"vehicle_type_id":"4","last_reported":1726340777,"current_range_meters":16000,"station_id":"","pricing_plan_id":"cebpf4jnsgd1na2vs0mg"},{"bike_id":"9b49fc06-69dc-4375-9bc8-2ab31283d424","system_id":"levelo_inurba_marseille","lat":43.29903,"lon":5.43662,"is_reserved":false,"is_disabled":false,"rental_uris":{"android":"levelo://app?vid=9b49fc06-69dc-4375-9bc8-2ab31283d424","ios":"levelo://app?vid=9b49fc06-69dc-4375-9bc8-2ab31283d424"},"vehicle_type_id":"4","last_reported":1726340777,"current_range_meters":30800,"station_id":"ce4bhpp2rcd13ifvqhfg","pricing_plan_id":"cebpf4jnsgd1na2vs0mg"},{"bike_id":"ce04b9f5-3043-4748-950f-a2deddf1bbcc","system_id":"levelo_inurba_marseille","lat":43.2834,"lon":5.38112,"is_reserved":false,"is_disabled":false,"rental_uris":{"android":"levelo://app?vid=ce04b9f5-3043-4748-950f-a2deddf1bbcc","ios":"levelo://app?vid=ce04b9f5-3043-4748-950f-a2deddf1bbcc"},"vehicle_type_id":"4","last_reported":1726340777,"current_range_meters":38800,"station_id":"ce4bh412rcd13ifvqdr0","pricing_plan_id":"cebpf4jnsgd1na2vs0mg"},{"bike_id":"50848448-0c1b-4db2-b02b-7f54d96f2c9c","system_id":"levelo_inurba_marseille","lat":43.29422,"lon":5.38621,"is_reserved":false,"is_disabled":false,"rental_uris":{"android":"levelo://app?vid=50848448-0c1b-4db2-b02b-7f54d96f2c9c","ios":"levelo://app?vid=50848448-0c1b-4db2-b02b-7f54d96f2c9c"},"vehicle_type_id":"4","last_reported":1726340777,"current_range_meters":9600,"station_id":"ce4bh2h2rcd13ifvqdh0","pricing_plan_id":"cebpf4jnsgd1na2vs0mg"},{"bike_id":"a794afee-370d-4eb5-8ae0-98fe9b36c733","system_id":"levelo_inurba_marseille","lat":43.2996,"lon":5.38508,"is_reserved":false,"is_disabled":false,"rental_uris":{"android":"levelo://app?vid=a794afee-370d-4eb5-8ae0-98fe9b36c733","ios":"levelo://app?vid=a794afee-370d-4eb5-8ae0-98fe9b36c733"},"vehicle_type_id":"4","last_reported":1726340777,"current_range_meters":6400,"station_id":"ce4bgj92rcd13ifvqbd0","pricing_plan_id":"cebpf4jnsgd1na2vs0mg"},{"bike_id":"fd79daf4-fa22-427b-ae30-30e6c4276120","system_id":"levelo_inurba_marseille","lat":43.29448,"lon":5.39754,"is_reserved":false,"is_disabled":false,"rental_uris":{"android":"levelo://app?vid=fd79daf4-fa22-427b-ae30-30e6c4276120","ios":"levelo://app?vid=fd79daf4-fa22-427b-ae30-30e6c4276120"},"vehicle_type_id":"4","last_reported":1726340777,"current_range_meters":8400,"station_id":"ce4bh3h2rcd13ifvqdo0","pricing_plan_id":"cebpf4jnsgd1na2vs0mg"},{"bike_id":"e00d038a-00c7-4258-ab4b-259bdb081cfd","system_id":"levelo_inurba_marseille","lat":43.23196,"lon":5.35549,"is_reserved":false,"is_disabled":false,"rental_uris":{"android":"levelo://app?vid=e00d038a-00c7-4258-ab4b-259bdb081cfd","ios":"levelo://app?vid=e00d038a-00c7-4258-ab4b-259bdb081cfd"},"vehicle_type_id":"4","last_reported":1726340777,"current_range_meters":33600,"station_id":"ce4bhu92rcd13ifvqi70","pricing_plan_id":"cebpf4jnsgd1na2vs0mg"},{"bike_id":"4f847161-8733-40c0-9d1a-924c211b3057","system_id":"levelo_inurba_marseille","lat":43.23199,"lon":5.35546,"is_reserved":false,"is_disabled":false,"rental_uris":{"android":"levelo://app?vid=4f847161-8733-40c0-9d1a-924c211b3057","ios":"levelo://app?vid=4f847161-8733-40c0-9d1a-924c211b3057"},"vehicle_type_id":"4","last_reported":1726340777,"current_range_meters":36800,"station_id":"ce4bhu92rcd13ifvqi70","pricing_plan_id":"cebpf4jnsgd1na2vs0mg"},{"bike_id":"9afc0e0a-e1fc-4ab1-89f5-431232748e80","system_id":"levelo_inurba_marseille","lat":43.2954,"lon":5.38547,"is_reserved":false,"is_disabled":false,"rental_uris":{"android":"levelo://app?vid=9afc0e0a-e1fc-4ab1-89f5-431232748e80","ios":"levelo://app?vid=9afc0e0a-e1fc-4ab1-89f5-431232748e80"},"vehicle_type_id":"4","last_reported":1726340777,"current_range_meters":3200,"station_id":"ce4bgih2rcd13ifvqba0","pricing_plan_id":"cebpf4jnsgd1na2vs0mg"},{"bike_id":"de3c612e-58e5-4bd8-ae0c-4ba4dac7d3bd","system_id":"levelo_inurba_marseille","lat":43.29361,"lon":5.37844,"is_reserved":false,"is_disabled":false,"rental_uris":{"android":"levelo://app?vid=de3c612e-58e5-4bd8-ae0c-4ba4dac7d3bd","ios":"levelo://app?vid=de3c612e-58e5-4bd8-ae0c-4ba4dac7d3bd"},"vehicle_type_id":"4","last_reported":1726340777,"current_range_meters":24800,"station_id":"ce4bgjh2rcd13ifvqbf0","pricing_plan_id":"cebpf4jnsgd1na2vs0mg"},{"bike_id":"aced5ab7-b508-4250-8809-353d2c8a330a","system_id":"levelo_inurba_marseille","lat":43.255829,"lon":5.38236,"is_reserved":false,"is_disabled":false,"rental_uris":{"android":"levelo://app?vid=aced5ab7-b508-4250-8809-353d2c8a330a","ios":"levelo://app?vid=aced5ab7-b508-4250-8809-353d2c8a330a"},"vehicle_type_id":"4","last_reported":1726340777,"current_range_meters":17600,"station_id":"ce4bhih2rcd13ifvqfs0","pricing_plan_id":"cebpf4jnsgd1na2vs0mg"},{"bike_id":"d51969b3-5bfa-4793-980f-d27084f0befb","system_id":"levelo_inurba_marseille","lat":43.29541,"lon":5.39048,"is_reserved":false,"is_disabled":false,"rental_uris":{"android":"levelo://app?vid=d51969b3-5bfa-4793-980f-d27084f0befb","ios":"levelo://app?vid=d51969b3-5bfa-4793-980f-d27084f0befb"},"vehicle_type_id":"4","last_reported":1726340777,"current_range_meters":38800,"station_id":"ce4bh3p2rcd13ifvqdp0","pricing_plan_id":"cebpf4jnsgd1na2vs0mg"},{"bike_id":"ebce8c14-f6f2-44bb-8f4e-5f23879148c2","system_id":"levelo_inurba_marseille","lat":43.29007,"lon":5.3561,"is_reserved":false,"is_disabled":false,"rental_uris":{"android":"levelo://app?vid=ebce8c14-f6f2-44bb-8f4e-5f23879148c2","ios":"levelo://app?vid=ebce8c14-f6f2-44bb-8f4e-5f23879148c2"},"vehicle_type_id":"4","last_reported":1726340777,"current_range_meters":8800,"station_id":"ce4bhb92rcd13ifvqen0","pricing_plan_id":"cebpf4jnsgd1na2vs0mg"},{"bike_id":"98bb5ce4-cd0f-44bc-b90d-81c6030d7404","system_id":"levelo_inurba_marseille","lat":43.24671,"lon":5.38163,"is_reserved":false,"is_disabled":false,"rental_uris":{"android":"levelo://app?vid=98bb5ce4-cd0f-44bc-b90d-81c6030d7404","ios":"levelo://app?vid=98bb5ce4-cd0f-44bc-b90d-81c6030d7404"},"vehicle_type_id":"4","last_reported":1726340777,"current_range_meters":18800,"station_id":"ce4bhih2rcd13ifvqfr0","pricing_plan_id":"cebpf4jnsgd1na2vs0mg"},{"bike_id":"7ec6bc60-e018-4092-b39f-664e99b172a2","system_id":"levelo_inurba_marseille","lat":43.31356,"lon":5.36706,"is_reserved":false,"is_disabled":false,"rental_uris":{"android":"levelo://app?vid=7ec6bc60-e018-4092-b39f-664e99b172a2","ios":"levelo://app?vid=7ec6bc60-e018-4092-b39f-664e99b172a2"},"vehicle_type_id":"4","last_reported":1726340777,"current_range_meters":35600,"station_id":"ce4bgr92rcd13ifvqc6g","pricing_plan_id":"cebpf4jnsgd1na2vs0mg"},{"bike_id":"47ab4668-191b-4b19-90cf-3fab29722f66","system_id":"levelo_inurba_marseille","lat":43.28101,"lon":5.37846,"is_reserved":false,"is_disabled":false,"rental_uris":{"android":"levelo://app?vid=47ab4668-191b-4b19-90cf-3fab29722f66","ios":"levelo://app?vid=47ab4668-191b-4b19-90cf-3fab29722f66"},"vehicle_type_id":"4","last_reported":1726340777,"current_range_meters":10000,"station_id":"ce4bha12rcd13ifvqee0","pricing_plan_id":"cebpf4jnsgd1na2vs0mg"},{"bike_id":"a0ed5178-484f-47cc-bd63-846aeaa97be3","system_id":"levelo_inurba_marseille","lat":43.30783,"lon":5.37644,"is_reserved":false,"is_disabled":false,"rental_uris":{"android":"levelo://app?vid=a0ed5178-484f-47cc-bd63-846aeaa97be3","ios":"levelo://app?vid=a0ed5178-484f-47cc-bd63-846aeaa97be3"},"vehicle_type_id":"4","last_reported":1726340777,"current_range_meters":25600,"station_id":"ce4bgv92rcd13ifvqcq0","pricing_plan_id":"cebpf4jnsgd1na2vs0mg"},{"bike_id":"9d9ce96c-b6fa-4b2e-aea7-043d9f88676d","system_id":"levelo_inurba_marseille","lat":43.27985,"lon":5.41659,"is_reserved":false,"is_disabled":false,"rental_uris":{"android":"levelo://app?vid=9d9ce96c-b6fa-4b2e-aea7-043d9f88676d","ios":"levelo://app?vid=9d9ce96c-b6fa-4b2e-aea7-043d9f88676d"},"vehicle_type_id":"4","last_reported":1726340777,"current_range_meters":11600,"station_id":"ce4bho12rcd13ifvqh1g","pricing_plan_id":"cebpf4jnsgd1na2vs0mg"},{"bike_id":"b1db6496-7d7b-4acc-a88c-e5406d38e100","system_id":"levelo_inurba_marseille","lat":43.23197,"lon":5.35558,"is_reserved":false,"is_disabled":false,"rental_uris":{"android":"levelo://app?vid=b1db6496-7d7b-4acc-a88c-e5406d38e100","ios":"levelo://app?vid=b1db6496-7d7b-4acc-a88c-e5406d38e100"},"vehicle_type_id":"4","last_reported":1726340777,"current_range_meters":38800,"station_id":"ce4bhu92rcd13ifvqi70","pricing_plan_id":"cebpf4jnsgd1na2vs0mg"},{"bike_id":"a952bafb-0367-4073-83bb-403214af977b","system_id":"levelo_inurba_marseille","lat":43.29961,"lon":5.38503,"is_reserved":false,"is_disabled":false,"rental_uris":{"android":"levelo://app?vid=a952bafb-0367-4073-83bb-403214af977b","ios":"levelo://app?vid=a952bafb-0367-4073-83bb-403214af977b"},"vehicle_type_id":"4","last_reported":1726340777,"current_range_meters":7200,"station_id":"ce4bgj92rcd13ifvqbd0","pricing_plan_id":"cebpf4jnsgd1na2vs0mg"},{"bike_id":"ee721f16-71d0-49c8-9da4-858f78b55bcb","system_id":"levelo_inurba_marseille","lat":43.25937,"lon":5.40904,"is_reserved":false,"is_disabled":false,"rental_uris":{"android":"levelo://app?vid=ee721f16-71d0-49c8-9da4-858f78b55bcb","ios":"levelo://app?vid=ee721f16-71d0-49c8-9da4-858f78b55bcb"},"vehicle_type_id":"4","last_reported":1726340777,"current_range_meters":28800,"station_id":"ce4bhm92rcd13ifvqglg","pricing_plan_id":"cebpf4jnsgd1na2vs0mg"},{"bike_id":"aaac11b3-a8d0-49aa-847e-0692e15dd0f4","system_id":"levelo_inurba_marseille","lat":43.29505,"lon":5.3752,"is_reserved":false,"is_disabled":false,"rental_uris":{"android":"levelo://app?vid=aaac11b3-a8d0-49aa-847e-0692e15dd0f4","ios":"levelo://app?vid=aaac11b3-a8d0-49aa-847e-0692e15dd0f4"},"vehicle_type_id":"4","last_reported":1726340777,"current_range_meters":24800,"station_id":"ce4bgkp2rcd13ifvqbmg","pricing_plan_id":"cebpf4jnsgd1na2vs0mg"},{"bike_id":"be604cf5-580a-4e20-b6bf-ca40a8589311","system_id":"levelo_inurba_marseille","lat":43.29193,"lon":5.39329,"is_reserved":false,"is_disabled":false,"rental_uris":{"android":"levelo://app?vid=be604cf5-580a-4e20-b6bf-ca40a8589311","ios":"levelo://app?vid=be604cf5-580a-4e20-b6bf-ca40a8589311"},"vehicle_type_id":"4","last_reported":1726340777,"current_range_meters":16800,"station_id":"ce4bh192rcd13ifvqdd0","pricing_plan_id":"cebpf4jnsgd1na2vs0mg"},{"bike_id":"154d5780-5cfd-4f04-a6aa-aa27e7d6b8e7","system_id":"levelo_inurba_marseille","lat":43.25121,"lon":5.40317,"is_reserved":false,"is_disabled":false,"rental_uris":{"android":"levelo://app?vid=154d5780-5cfd-4f04-a6aa-aa27e7d6b8e7","ios":"levelo://app?vid=154d5780-5cfd-4f04-a6aa-aa27e7d6b8e7"},"vehicle_type_id":"4","last_reported":1726340777,"current_range_meters":22000,"station_id":"ce4bhlh2rcd13ifvqgig","pricing_plan_id":"cebpf4jnsgd1na2vs0mg"},{"bike_id":"eeda6c0c-0dbb-4846-85aa-c1ab2cdc1105","system_id":"levelo_inurba_marseille","lat":43.25725,"lon":5.41109,"is_reserved":false,"is_disabled":false,"rental_uris":{"android":"levelo://app?vid=eeda6c0c-0dbb-4846-85aa-c1ab2cdc1105","ios":"levelo://app?vid=eeda6c0c-0dbb-4846-85aa-c1ab2cdc1105"},"vehicle_type_id":"4","last_reported":1726340777,"current_range_meters":31200,"station_id":"ce4bhkp2rcd13ifvqgd0","pricing_plan_id":"cebpf4jnsgd1na2vs0mg"},{"bike_id":"5d57090e-631a-43c2-bed6-50c5bdc6029c","system_id":"levelo_inurba_marseille","lat":43.31224,"lon":5.36869,"is_reserved":false,"is_disabled":false,"rental_uris":{"android":"levelo://app?vid=5d57090e-631a-43c2-bed6-50c5bdc6029c","ios":"levelo://app?vid=5d57090e-631a-43c2-bed6-50c5bdc6029c"},"vehicle_type_id":"4","last_reported":1726340777,"current_range_meters":28400,"station_id":"ce4bgl92rcd13ifvqbq0","pricing_plan_id":"cebpf4jnsgd1na2vs0mg"},{"bike_id":"7f938198-b3f2-442e-8683-d6820098532f","system_id":"levelo_inurba_marseille","lat":43.28156,"lon":5.42642,"is_reserved":false,"is_disabled":false,"rental_uris":{"android":"levelo://app?vid=7f938198-b3f2-442e-8683-d6820098532f","ios":"levelo://app?vid=7f938198-b3f2-442e-8683-d6820098532f"},"vehicle_type_id":"4","last_reported":1726340777,"current_range_meters":24400,"station_id":"ce4bhnh2rcd13ifvqgug","pricing_plan_id":"cebpf4jnsgd1na2vs0mg"},{"bike_id":"dfc7e944-178a-43bd-85e8-0abf1cafc416","system_id":"levelo_inurba_marseille","lat":43.22922,"lon":5.35379,"is_reserved":false,"is_disabled":false,"rental_uris":{"android":"levelo://app?vid=dfc7e944-178a-43bd-85e8-0abf1cafc416","ios":"levelo://app?vid=dfc7e944-178a-43bd-85e8-0abf1cafc416"},"vehicle_type_id":"4","last_reported":1726340777,"current_range_meters":24800,"station_id":"cpo3532slgdg3j2ikp40","pricing_plan_id":"cebpf4jnsgd1na2vs0mg"},{"bike_id":"bd26f63e-d7bd-4ada-8a1f-3b93d54404f8","system_id":"levelo_inurba_marseille","lat":43.31059,"lon":5.40097,"is_reserved":false,"is_disabled":false,"rental_uris":{"android":"levelo://app?vid=bd26f63e-d7bd-4ada-8a1f-3b93d54404f8","ios":"levelo://app?vid=bd26f63e-d7bd-4ada-8a1f-3b93d54404f8"},"vehicle_type_id":"4","last_reported":1726340777,"current_range_meters":19200,"station_id":"","pricing_plan_id":"cebpf4jnsgd1na2vs0mg"},{"bike_id":"464d87e3-0004-4dd8-b94c-6e23cec7a328","system_id":"levelo_inurba_marseille","lat":43.3204,"lon":5.41558,"is_reserved":false,"is_disabled":false,"rental_uris":{"android":"levelo://app?vid=464d87e3-0004-4dd8-b94c-6e23cec7a328","ios":"levelo://app?vid=464d87e3-0004-4dd8-b94c-6e23cec7a328"},"vehicle_type_id":"4","last_reported":1726340777,"current_range_meters":38400,"station_id":"ce4bhq92rcd13ifvqhkg","pricing_plan_id":"cebpf4jnsgd1na2vs0mg"},{"bike_id":"4233f55f-2616-4d68-966d-f7f4605d39e5","system_id":"levelo_inurba_marseille","lat":43.24662,"lon":5.38168,"is_reserved":false,"is_disabled":false,"rental_uris":{"android":"levelo://app?vid=4233f55f-2616-4d68-966d-f7f4605d39e5","ios":"levelo://app?vid=4233f55f-2616-4d68-966d-f7f4605d39e5"},"vehicle_type_id":"4","last_reported":1726340777,"current_range_meters":4800,"station_id":"ce4bhih2rcd13ifvqfr0","pricing_plan_id":"cebpf4jnsgd1na2vs0mg"},{"bike_id":"b645ac77-0d58-4fa9-8ad3-947af8bdb1d9","system_id":"levelo_inurba_marseille","lat":43.29895,"lon":5.43661,"is_reserved":false,"is_disabled":false,"rental_uris":{"android":"levelo://app?vid=b645ac77-0d58-4fa9-8ad3-947af8bdb1d9","ios":"levelo://app?vid=b645ac77-0d58-4fa9-8ad3-947af8bdb1d9"},"vehicle_type_id":"4","last_reported":1726340777,"current_range_meters":37600,"station_id":"ce4bhpp2rcd13ifvqhfg","pricing_plan_id":"cebpf4jnsgd1na2vs0mg"},{"bike_id":"a5678295-0458-4f6d-9ccb-6897bde67101","system_id":"levelo_inurba_marseille","lat":43.24154,"lon":5.36414,"is_reserved":false,"is_disabled":false,"rental_uris":{"android":"levelo://app?vid=a5678295-0458-4f6d-9ccb-6897bde67101","ios":"levelo://app?vid=a5678295-0458-4f6d-9ccb-6897bde67101"},"vehicle_type_id":"4","last_reported":1726340777,"current_range_meters":38800,"station_id":"cpo36qri1sfpv3e86is0","pricing_plan_id":"cebpf4jnsgd1na2vs0mg"},{"bike_id":"91d155a1-0e95-42f4-9cf2-24e586735a13","system_id":"levelo_inurba_marseille","lat":43.33718,"lon":5.39187,"is_reserved":false,"is_disabled":false,"rental_uris":{"android":"levelo://app?vid=91d155a1-0e95-42f4-9cf2-24e586735a13","ios":"levelo://app?vid=91d155a1-0e95-42f4-9cf2-24e586735a13"},"vehicle_type_id":"4","last_reported":1726340777,"current_range_meters":40000,"station_id":"ce4bhr92rcd13ifvqhsg","pricing_plan_id":"cebpf4jnsgd1na2vs0mg"},{"bike_id":"5cbfba17-7966-47bc-bd57-385605875a81","system_id":"levelo_inurba_marseille","lat":43.24809,"lon":5.37463,"is_reserved":false,"is_disabled":false,"rental_uris":{"android":"levelo://app?vid=5cbfba17-7966-47bc-bd57-385605875a81","ios":"levelo://app?vid=5cbfba17-7966-47bc-bd57-385605875a81"},"vehicle_type_id":"4","last_reported":1726340777,"current_range_meters":38400,"station_id":"ce4bhgh2rcd13ifvqfb0","pricing_plan_id":"cebpf4jnsgd1na2vs0mg"},{"bike_id":"c11f97d6-87cf-4460-8a76-9af979a978f6","system_id":"levelo_inurba_marseille","lat":43.30901,"lon":5.36863,"is_reserved":false,"is_disabled":false,"rental_uris":{"android":"levelo://app?vid=c11f97d6-87cf-4460-8a76-9af979a978f6","ios":"levelo://app?vid=c11f97d6-87cf-4460-8a76-9af979a978f6"},"vehicle_type_id":"4","last_reported":1726340777,"current_range_meters":12400,"station_id":"ce4bgn92rcd13ifvqbvg","pricing_plan_id":"cebpf4jnsgd1na2vs0mg"},{"bike_id":"4123515d-635a-4a62-9f56-c2589ef20496","system_id":"levelo_inurba_marseille","lat":43.29894,"lon":5.43669,"is_reserved":false,"is_disabled":false,"rental_uris":{"android":"levelo://app?vid=4123515d-635a-4a62-9f56-c2589ef20496","ios":"levelo://app?vid=4123515d-635a-4a62-9f56-c2589ef20496"},"vehicle_type_id":"4","last_reported":1726340777,"current_range_meters":39200,"station_id":"ce4bhpp2rcd13ifvqhfg","pricing_plan_id":"cebpf4jnsgd1na2vs0mg"},{"bike_id":"f595e3cc-4ca6-47f5-80ed-24f63a0a7c60","system_id":"levelo_inurba_marseille","lat":43.30302,"lon":5.36912,"is_reserved":false,"is_disabled":false,"rental_uris":{"android":"levelo://app?vid=f595e3cc-4ca6-47f5-80ed-24f63a0a7c60","ios":"levelo://app?vid=f595e3cc-4ca6-47f5-80ed-24f63a0a7c60"},"vehicle_type_id":"4","last_reported":1726340777,"current_range_meters":38000,"station_id":"ce4bgqh2rcd13ifvqc5g","pricing_plan_id":"cebpf4jnsgd1na2vs0mg"},{"bike_id":"6950c645-8f2c-4ab0-8945-63a6fc432817","system_id":"levelo_inurba_marseille","lat":43.27965,"lon":5.38761,"is_reserved":false,"is_disabled":false,"rental_uris":{"android":"levelo://app?vid=6950c645-8f2c-4ab0-8945-63a6fc432817","ios":"levelo://app?vid=6950c645-8f2c-4ab0-8945-63a6fc432817"},"vehicle_type_id":"4","last_reported":1726340777,"current_range_meters":32800,"station_id":"ce4bhg12rcd13ifvqf80","pricing_plan_id":"cebpf4jnsgd1na2vs0mg"},{"bike_id":"680b296f-8a9e-4ce9-90dd-5edf4faa61c1","system_id":"levelo_inurba_marseille","lat":43.31751,"lon":5.39025,"is_reserved":false,"is_disabled":false,"rental_uris":{"android":"levelo://app?vid=680b296f-8a9e-4ce9-90dd-5edf4faa61c1","ios":"levelo://app?vid=680b296f-8a9e-4ce9-90dd-5edf4faa61c1"},"vehicle_type_id":"4","last_reported":1726340777,"current_range_meters":38800,"station_id":"ce4bhqp2rcd13ifvqhng","pricing_plan_id":"cebpf4jnsgd1na2vs0mg"},{"bike_id":"bbd2450a-84a7-42e1-bc94-af6bf7be8eb5","system_id":"levelo_inurba_marseille","lat":43.3302,"lon":5.39048,"is_reserved":false,"is_disabled":false,"rental_uris":{"android":"levelo://app?vid=bbd2450a-84a7-42e1-bc94-af6bf7be8eb5","ios":"levelo://app?vid=bbd2450a-84a7-42e1-bc94-af6bf7be8eb5"},"vehicle_type_id":"4","last_reported":1726340777,"current_range_meters":37600,"station_id":"ce4bhr92rcd13ifvqhrg","pricing_plan_id":"cebpf4jnsgd1na2vs0mg"},{"bike_id":"e8a9a88f-e3dd-4130-8491-dcbfd4fb4893","system_id":"levelo_inurba_marseille","lat":43.33741,"lon":5.39188,"is_reserved":false,"is_disabled":false,"rental_uris":{"android":"levelo://app?vid=e8a9a88f-e3dd-4130-8491-dcbfd4fb4893","ios":"levelo://app?vid=e8a9a88f-e3dd-4130-8491-dcbfd4fb4893"},"vehicle_type_id":"4","last_reported":1726340777,"current_range_meters":38800,"station_id":"ce4bhr92rcd13ifvqhsg","pricing_plan_id":"cebpf4jnsgd1na2vs0mg"},{"bike_id":"ae0edc33-cfae-4068-be53-48908cbe946d","system_id":"levelo_inurba_marseille","lat":43.29572,"lon":5.37523,"is_reserved":false,"is_disabled":false,"rental_uris":{"android":"levelo://app?vid=ae0edc33-cfae-4068-be53-48908cbe946d","ios":"levelo://app?vid=ae0edc33-cfae-4068-be53-48908cbe946d"},"vehicle_type_id":"4","last_reported":1726340777,"current_range_meters":35600,"station_id":"ce4bgh92rcd13ifvqb50","pricing_plan_id":"cebpf4jnsgd1na2vs0mg"},{"bike_id":"efd09102-c5bf-47f6-b1a7-134d54b0c94c","system_id":"levelo_inurba_marseille","lat":43.2917,"lon":5.37155,"is_reserved":false,"is_disabled":false,"rental_uris":{"android":"levelo://app?vid=efd09102-c5bf-47f6-b1a7-134d54b0c94c","ios":"levelo://app?vid=efd09102-c5bf-47f6-b1a7-134d54b0c94c"},"vehicle_type_id":"4","last_reported":1726340777,"current_range_meters":8000,"station_id":"ce4bha92rcd13ifvqeh0","pricing_plan_id":"cebpf4jnsgd1na2vs0mg"},{"bike_id":"ac2f8b18-c4e8-4836-947b-b533a20a9549","system_id":"levelo_inurba_marseille","lat":43.29034,"lon":5.35929,"is_reserved":false,"is_disabled":false,"rental_uris":{"android":"levelo://app?vid=ac2f8b18-c4e8-4836-947b-b533a20a9549","ios":"levelo://app?vid=ac2f8b18-c4e8-4836-947b-b533a20a9549"},"vehicle_type_id":"4","last_reported":1726340777,"current_range_meters":10000,"station_id":"ce4bha92rcd13ifvqeg0","pricing_plan_id":"cebpf4jnsgd1na2vs0mg"},{"bike_id":"552ccea4-a0ab-4fa2-9015-1ea8da64cd61","system_id":"levelo_inurba_marseille","lat":43.25574,"lon":5.38242,"is_reserved":false,"is_disabled":false,"rental_uris":{"android":"levelo://app?vid=552ccea4-a0ab-4fa2-9015-1ea8da64cd61","ios":"levelo://app?vid=552ccea4-a0ab-4fa2-9015-1ea8da64cd61"},"vehicle_type_id":"4","last_reported":1726340777,"current_range_meters":5600,"station_id":"ce4bhih2rcd13ifvqfs0","pricing_plan_id":"cebpf4jnsgd1na2vs0mg"},{"bike_id":"8bc01b20-74a6-4548-8167-2841ea50aa19","system_id":"levelo_inurba_marseille","lat":43.33021,"lon":5.39043,"is_reserved":false,"is_disabled":false,"rental_uris":{"android":"levelo://app?vid=8bc01b20-74a6-4548-8167-2841ea50aa19","ios":"levelo://app?vid=8bc01b20-74a6-4548-8167-2841ea50aa19"},"vehicle_type_id":"4","last_reported":1726340777,"current_range_meters":38800,"station_id":"ce4bhr92rcd13ifvqhrg","pricing_plan_id":"cebpf4jnsgd1na2vs0mg"},{"bike_id":"462d8d65-aff8-460b-a7c0-155fba5b151d","system_id":"levelo_inurba_marseille","lat":43.29523,"lon":5.3941,"is_reserved":false,"is_disabled":false,"rental_uris":{"android":"levelo://app?vid=462d8d65-aff8-460b-a7c0-155fba5b151d","ios":"levelo://app?vid=462d8d65-aff8-460b-a7c0-155fba5b151d"},"vehicle_type_id":"4","last_reported":1726340777,"current_range_meters":16400,"station_id":"ce4bh292rcd13ifvqdf0","pricing_plan_id":"cebpf4jnsgd1na2vs0mg"},{"bike_id":"a42c0844-e6b9-4e47-bc62-b968fc458e7c","system_id":"levelo_inurba_marseille","lat":43.30142,"lon":5.39838,"is_reserved":false,"is_disabled":false,"rental_uris":{"android":"levelo://app?vid=a42c0844-e6b9-4e47-bc62-b968fc458e7c","ios":"levelo://app?vid=a42c0844-e6b9-4e47-bc62-b968fc458e7c"},"vehicle_type_id":"4","last_reported":1726340777,"current_range_meters":8800,"station_id":"ce4bh0h2rcd13ifvqd40","pricing_plan_id":"cebpf4jnsgd1na2vs0mg"},{"bike_id":"fcafe588-e066-4363-a334-b72ceae44603","system_id":"levelo_inurba_marseille","lat":43.31709,"lon":5.43704,"is_reserved":false,"is_disabled":false,"rental_uris":{"android":"levelo://app?vid=fcafe588-e066-4363-a334-b72ceae44603","ios":"levelo://app?vid=fcafe588-e066-4363-a334-b72ceae44603"},"vehicle_type_id":"4","last_reported":1726340777,"current_range_meters":36400,"station_id":"ce4bhp92rcd13ifvqhcg","pricing_plan_id":"cebpf4jnsgd1na2vs0mg"},{"bike_id":"84a8a0a5-ea13-47c5-bd4d-0bb60cf75cb5","system_id":"levelo_inurba_marseille","lat":43.24658,"lon":5.38165,"is_reserved":false,"is_disabled":false,"rental_uris":{"android":"levelo://app?vid=84a8a0a5-ea13-47c5-bd4d-0bb60cf75cb5","ios":"levelo://app?vid=84a8a0a5-ea13-47c5-bd4d-0bb60cf75cb5"},"vehicle_type_id":"4","last_reported":1726340777,"current_range_meters":38800,"station_id":"ce4bhih2rcd13ifvqfr0","pricing_plan_id":"cebpf4jnsgd1na2vs0mg"},{"bike_id":"6a4003cf-1680-4bfd-9167-d88150f71444","system_id":"levelo_inurba_marseille","lat":43.29365,"lon":5.3786,"is_reserved":false,"is_disabled":false,"rental_uris":{"android":"levelo://app?vid=6a4003cf-1680-4bfd-9167-d88150f71444","ios":"levelo://app?vid=6a4003cf-1680-4bfd-9167-d88150f71444"},"vehicle_type_id":"4","last_reported":1726340777,"current_range_meters":5600,"station_id":"ce4bgjh2rcd13ifvqbf0","pricing_plan_id":"cebpf4jnsgd1na2vs0mg"},{"bike_id":"7251d55d-befd-400d-90d9-ab0b68ba8caa","system_id":"levelo_inurba_marseille","lat":43.24811,"lon":5.37455,"is_reserved":false,"is_disabled":false,"rental_uris":{"android":"levelo://app?vid=7251d55d-befd-400d-90d9-ab0b68ba8caa","ios":"levelo://app?vid=7251d55d-befd-400d-90d9-ab0b68ba8caa"},"vehicle_type_id":"4","last_reported":1726340777,"current_range_meters":35600,"station_id":"ce4bhgh2rcd13ifvqfb0","pricing_plan_id":"cebpf4jnsgd1na2vs0mg"},{"bike_id":"53a2d874-293d-47cc-bdbd-a03b3468623b","system_id":"levelo_inurba_marseille","lat":43.29903,"lon":5.43679,"is_reserved":false,"is_disabled":false,"rental_uris":{"android":"levelo://app?vid=53a2d874-293d-47cc-bdbd-a03b3468623b","ios":"levelo://app?vid=53a2d874-293d-47cc-bdbd-a03b3468623b"},"vehicle_type_id":"4","last_reported":1726340777,"current_range_meters":8400,"station_id":"ce4bhpp2rcd13ifvqhfg","pricing_plan_id":"cebpf4jnsgd1na2vs0mg"},{"bike_id":"667f841a-38bd-416e-aa2b-3d465ae68086","system_id":"levelo_inurba_marseille","lat":43.292847,"lon":5.374594,"is_reserved":false,"is_disabled":false,"rental_uris":{"android":"levelo://app?vid=667f841a-38bd-416e-aa2b-3d465ae68086","ios":"levelo://app?vid=667f841a-38bd-416e-aa2b-3d465ae68086"},"vehicle_type_id":"4","last_reported":1726340777,"current_range_meters":10000,"station_id":"ce4bgr92rcd13ifvqc6g","pricing_plan_id":"cebpf4jnsgd1na2vs0mg"},{"bike_id":"bb7acf50-b6bc-4b2d-adf4-833abc23b24c","system_id":"levelo_inurba_marseille","lat":43.23195,"lon":5.35546,"is_reserved":false,"is_disabled":false,"rental_uris":{"android":"levelo://app?vid=bb7acf50-b6bc-4b2d-adf4-833abc23b24c","ios":"levelo://app?vid=bb7acf50-b6bc-4b2d-adf4-833abc23b24c"},"vehicle_type_id":"4","last_reported":1726340777,"current_range_meters":40000,"station_id":"ce4bhu92rcd13ifvqi70","pricing_plan_id":"cebpf4jnsgd1na2vs0mg"},{"bike_id":"f6de5503-3f64-4c45-a987-7e74ca5c7044","system_id":"levelo_inurba_marseille","lat":43.24169,"lon":5.36399,"is_reserved":false,"is_disabled":false,"rental_uris":{"android":"levelo://app?vid=f6de5503-3f64-4c45-a987-7e74ca5c7044","ios":"levelo://app?vid=f6de5503-3f64-4c45-a987-7e74ca5c7044"},"vehicle_type_id":"4","last_reported":1726340777,"current_range_meters":29600,"station_id":"cpo36qri1sfpv3e86is0","pricing_plan_id":"cebpf4jnsgd1na2vs0mg"},{"bike_id":"d214aa90-e649-4794-8d98-8bd5463dcc6c","system_id":"levelo_inurba_marseille","lat":43.2992,"lon":5.36546,"is_reserved":false,"is_disabled":false,"rental_uris":{"android":"levelo://app?vid=d214aa90-e649-4794-8d98-8bd5463dcc6c","ios":"levelo://app?vid=d214aa90-e649-4794-8d98-8bd5463dcc6c"},"vehicle_type_id":"4","last_reported":1726340777,"current_range_meters":14400,"station_id":"ce4bgm92rcd13ifvqbr0","pricing_plan_id":"cebpf4jnsgd1na2vs0mg"},{"bike_id":"97850e0b-685e-4d67-b7f6-a48de8d9b5be","system_id":"levelo_inurba_marseille","lat":43.27374,"lon":5.41942,"is_reserved":false,"is_disabled":false,"rental_uris":{"android":"levelo://app?vid=97850e0b-685e-4d67-b7f6-a48de8d9b5be","ios":"levelo://app?vid=97850e0b-685e-4d67-b7f6-a48de8d9b5be"},"vehicle_type_id":"4","last_reported":1726340777,"current_range_meters":29600,"station_id":"","pricing_plan_id":"cebpf4jnsgd1na2vs0mg"},{"bike_id":"9a465fb8-2fb8-4871-b540-6f8083846f84","system_id":"levelo_inurba_marseille","lat":43.29894,"lon":5.38152,"is_reserved":false,"is_disabled":false,"rental_uris":{"android":"levelo://app?vid=9a465fb8-2fb8-4871-b540-6f8083846f84","ios":"levelo://app?vid=9a465fb8-2fb8-4871-b540-6f8083846f84"},"vehicle_type_id":"4","last_reported":1726340777,"current_range_meters":16400,"station_id":"ce4bgj12rcd13ifvqbc0","pricing_plan_id":"cebpf4jnsgd1na2vs0mg"},{"bike_id":"e4d8663a-c86a-4f50-bdb5-9efa696049cd","system_id":"levelo_inurba_marseille","lat":43.30642,"lon":5.40111,"is_reserved":false,"is_disabled":false,"rental_uris":{"android":"levelo://app?vid=e4d8663a-c86a-4f50-bdb5-9efa696049cd","ios":"levelo://app?vid=e4d8663a-c86a-4f50-bdb5-9efa696049cd"},"vehicle_type_id":"4","last_reported":1726340777,"current_range_meters":19600,"station_id":"ce4bh112rcd13ifvqda0","pricing_plan_id":"cebpf4jnsgd1na2vs0mg"},{"bike_id":"d85e8e19-49f9-4301-9d91-6f821a812acd","system_id":"levelo_inurba_marseille","lat":43.2961,"lon":5.3811,"is_reserved":false,"is_disabled":false,"rental_uris":{"android":"levelo://app?vid=d85e8e19-49f9-4301-9d91-6f821a812acd","ios":"levelo://app?vid=d85e8e19-49f9-4301-9d91-6f821a812acd"},"vehicle_type_id":"4","last_reported":1726340777,"current_range_meters":24000,"station_id":"ce4bgl12rcd13ifvqbo0","pricing_plan_id":"cebpf4jnsgd1na2vs0mg"},{"bike_id":"3127f0ce-dfd6-4af4-ae6a-b52ad0f138e5","system_id":"levelo_inurba_marseille","lat":43.32481,"lon":5.36569,"is_reserved":false,"is_disabled":false,"rental_uris":{"android":"levelo://app?vid=3127f0ce-dfd6-4af4-ae6a-b52ad0f138e5","ios":"levelo://app?vid=3127f0ce-dfd6-4af4-ae6a-b52ad0f138e5"},"vehicle_type_id":"4","last_reported":1726340777,"current_range_meters":8000,"station_id":"ce4bhs12rcd13ifvqhvg","pricing_plan_id":"cebpf4jnsgd1na2vs0mg"},{"bike_id":"f7c9731b-1b41-4fa8-83aa-686419453b3a","system_id":"levelo_inurba_marseille","lat":43.31716,"lon":5.42401,"is_reserved":false,"is_disabled":false,"rental_uris":{"android":"levelo://app?vid=f7c9731b-1b41-4fa8-83aa-686419453b3a","ios":"levelo://app?vid=f7c9731b-1b41-4fa8-83aa-686419453b3a"},"vehicle_type_id":"4","last_reported":1726340777,"current_range_meters":20800,"station_id":"ce4bhp92rcd13ifvqhbg","pricing_plan_id":"cebpf4jnsgd1na2vs0mg"},{"bike_id":"924e6f9c-3dc8-4aa6-9ea9-e80dea43d11b","system_id":"levelo_inurba_marseille","lat":43.30281,"lon":5.37711,"is_reserved":false,"is_disabled":false,"rental_uris":{"android":"levelo://app?vid=924e6f9c-3dc8-4aa6-9ea9-e80dea43d11b","ios":"levelo://app?vid=924e6f9c-3dc8-4aa6-9ea9-e80dea43d11b"},"vehicle_type_id":"4","last_reported":1726340777,"current_range_meters":8400,"station_id":"ce4bguh2rcd13ifvqcj0","pricing_plan_id":"cebpf4jnsgd1na2vs0mg"},{"bike_id":"bb046787-1b6f-4a52-9f6c-67f38be48f9e","system_id":"levelo_inurba_marseille","lat":43.24539,"lon":5.39532,"is_reserved":false,"is_disabled":false,"rental_uris":{"android":"levelo://app?vid=bb046787-1b6f-4a52-9f6c-67f38be48f9e","ios":"levelo://app?vid=bb046787-1b6f-4a52-9f6c-67f38be48f9e"},"vehicle_type_id":"4","last_reported":1726340777,"current_range_meters":35600,"station_id":"ce4bhlp2rcd13ifvqgjg","pricing_plan_id":"cebpf4jnsgd1na2vs0mg"},{"bike_id":"604d7584-0dd4-4914-a386-a6b764328a32","system_id":"levelo_inurba_marseille","lat":43.29029,"lon":5.39967,"is_reserved":false,"is_disabled":false,"rental_uris":{"android":"levelo://app?vid=604d7584-0dd4-4914-a386-a6b764328a32","ios":"levelo://app?vid=604d7584-0dd4-4914-a386-a6b764328a32"},"vehicle_type_id":"4","last_reported":1726340777,"current_range_meters":4800,"station_id":"ce4bh392rcd13ifvqdm0","pricing_plan_id":"cebpf4jnsgd1na2vs0mg"},{"bike_id":"524135dd-3954-4c4e-9b14-0ebc4fcc2aaf","system_id":"levelo_inurba_marseille","lat":43.28456,"lon":5.35885,"is_reserved":false,"is_disabled":false,"rental_uris":{"android":"levelo://app?vid=524135dd-3954-4c4e-9b14-0ebc4fcc2aaf","ios":"levelo://app?vid=524135dd-3954-4c4e-9b14-0ebc4fcc2aaf"},"vehicle_type_id":"4","last_reported":1726340777,"current_range_meters":24800,"station_id":"ce4bhah2rcd13ifvqei0","pricing_plan_id":"cebpf4jnsgd1na2vs0mg"},{"bike_id":"d8346437-a8a5-4c60-bf2d-f16983de1f17","system_id":"levelo_inurba_marseille","lat":43.276114,"lon":5.361241,"is_reserved":false,"is_disabled":false,"rental_uris":{"android":"levelo://app?vid=d8346437-a8a5-4c60-bf2d-f16983de1f17","ios":"levelo://app?vid=d8346437-a8a5-4c60-bf2d-f16983de1f17"},"vehicle_type_id":"4","last_reported":1726340777,"current_range_meters":36000,"station_id":"ce4bgj92rcd13ifvqbe0","pricing_plan_id":"cebpf4jnsgd1na2vs0mg"},{"bike_id":"8f0f7a37-fb39-40be-aefa-91ba3d43f4a4","system_id":"levelo_inurba_marseille","lat":43.29622,"lon":5.37168,"is_reserved":false,"is_disabled":false,"rental_uris":{"android":"levelo://app?vid=8f0f7a37-fb39-40be-aefa-91ba3d43f4a4","ios":"levelo://app?vid=8f0f7a37-fb39-40be-aefa-91ba3d43f4a4"},"vehicle_type_id":"4","last_reported":1726340777,"current_range_meters":14800,"station_id":"ce4bgnh2rcd13ifvqc0g","pricing_plan_id":"cebpf4jnsgd1na2vs0mg"},{"bike_id":"026a8105-a313-4bd8-96fb-a8d6d1b140a9","system_id":"levelo_inurba_marseille","lat":43.23196,"lon":5.35552,"is_reserved":false,"is_disabled":false,"rental_uris":{"android":"levelo://app?vid=026a8105-a313-4bd8-96fb-a8d6d1b140a9","ios":"levelo://app?vid=026a8105-a313-4bd8-96fb-a8d6d1b140a9"},"vehicle_type_id":"4","last_reported":1726340777,"current_range_meters":36800,"station_id":"ce4bhu92rcd13ifvqi70","pricing_plan_id":"cebpf4jnsgd1na2vs0mg"},{"bike_id":"3d3cacd2-a193-4995-abd8-ef8480ce3394","system_id":"levelo_inurba_marseille","lat":43.24543,"lon":5.3953,"is_reserved":false,"is_disabled":false,"rental_uris":{"android":"levelo://app?vid=3d3cacd2-a193-4995-abd8-ef8480ce3394","ios":"levelo://app?vid=3d3cacd2-a193-4995-abd8-ef8480ce3394"},"vehicle_type_id":"4","last_reported":1726340777,"current_range_meters":11200,"station_id":"ce4bhlp2rcd13ifvqgjg","pricing_plan_id":"cebpf4jnsgd1na2vs0mg"},{"bike_id":"832b8ff1-0765-4b4e-96d6-665b916f6416","system_id":"levelo_inurba_marseille","lat":43.28402,"lon":5.37521,"is_reserved":false,"is_disabled":false,"rental_uris":{"android":"levelo://app?vid=832b8ff1-0765-4b4e-96d6-665b916f6416","ios":"levelo://app?vid=832b8ff1-0765-4b4e-96d6-665b916f6416"},"vehicle_type_id":"4","last_reported":1726340777,"current_range_meters":35600,"station_id":"ce4bh412rcd13ifvqds0","pricing_plan_id":"cebpf4jnsgd1na2vs0mg"},{"bike_id":"45e889ee-ec09-44fc-beeb-3a648a70244d","system_id":"levelo_inurba_marseille","lat":43.29967,"lon":5.38494,"is_reserved":false,"is_disabled":false,"rental_uris":{"android":"levelo://app?vid=45e889ee-ec09-44fc-beeb-3a648a70244d","ios":"levelo://app?vid=45e889ee-ec09-44fc-beeb-3a648a70244d"},"vehicle_type_id":"4","last_reported":1726340777,"current_range_meters":12000,"station_id":"ce4bgj92rcd13ifvqbd0","pricing_plan_id":"cebpf4jnsgd1na2vs0mg"},{"bike_id":"ccc81115-c769-40cb-a420-a414e3f0cc3b","system_id":"levelo_inurba_marseille","lat":43.24385,"lon":5.37069,"is_reserved":false,"is_disabled":false,"rental_uris":{"android":"levelo://app?vid=ccc81115-c769-40cb-a420-a414e3f0cc3b","ios":"levelo://app?vid=ccc81115-c769-40cb-a420-a414e3f0cc3b"},"vehicle_type_id":"4","last_reported":1726340777,"current_range_meters":38800,"station_id":"ce4bhhh2rcd13ifvqfk0","pricing_plan_id":"cebpf4jnsgd1na2vs0mg"},{"bike_id":"e4c80276-a791-41e8-a047-1e79b19bdee3","system_id":"levelo_inurba_marseille","lat":43.27562,"lon":5.38425,"is_reserved":false,"is_disabled":false,"rental_uris":{"android":"levelo://app?vid=e4c80276-a791-41e8-a047-1e79b19bdee3","ios":"levelo://app?vid=e4c80276-a791-41e8-a047-1e79b19bdee3"},"vehicle_type_id":"4","last_reported":1726340777,"current_range_meters":24000,"station_id":"ce4bhh92rcd13ifvqfi0","pricing_plan_id":"cebpf4jnsgd1na2vs0mg"},{"bike_id":"1dc77f03-32e5-40af-bb0a-25c93b0c33b1","system_id":"levelo_inurba_marseille","lat":43.292755,"lon":5.384801,"is_reserved":false,"is_disabled":false,"rental_uris":{"android":"levelo://app?vid=1dc77f03-32e5-40af-bb0a-25c93b0c33b1","ios":"levelo://app?vid=1dc77f03-32e5-40af-bb0a-25c93b0c33b1"},"vehicle_type_id":"4","last_reported":1726340777,"current_range_meters":20800,"station_id":"ce4bh0p2rcd13ifvqd70","pricing_plan_id":"cebpf4jnsgd1na2vs0mg"},{"bike_id":"d725d647-419f-4111-85f3-247c95251475","system_id":"levelo_inurba_marseille","lat":43.25722,"lon":5.41115,"is_reserved":false,"is_disabled":false,"rental_uris":{"android":"levelo://app?vid=d725d647-419f-4111-85f3-247c95251475","ios":"levelo://app?vid=d725d647-419f-4111-85f3-247c95251475"},"vehicle_type_id":"4","last_reported":1726340777,"current_range_meters":28000,"station_id":"ce4bhkp2rcd13ifvqgd0","pricing_plan_id":"cebpf4jnsgd1na2vs0mg"},{"bike_id":"8618ef52-82a4-4941-8045-f8c98da9f641","system_id":"levelo_inurba_marseille","lat":43.27369,"lon":5.36264,"is_reserved":false,"is_disabled":false,"rental_uris":{"android":"levelo://app?vid=8618ef52-82a4-4941-8045-f8c98da9f641","ios":"levelo://app?vid=8618ef52-82a4-4941-8045-f8c98da9f641"},"vehicle_type_id":"4","last_reported":1726340777,"current_range_meters":4400,"station_id":"ce4bhbh2rcd13ifvqeo0","pricing_plan_id":"cebpf4jnsgd1na2vs0mg"},{"bike_id":"6d2f1fdf-ef85-4dbc-b421-2602e9d32ca8","system_id":"levelo_inurba_marseille","lat":43.25931,"lon":5.40911,"is_reserved":false,"is_disabled":false,"rental_uris":{"android":"levelo://app?vid=6d2f1fdf-ef85-4dbc-b421-2602e9d32ca8","ios":"levelo://app?vid=6d2f1fdf-ef85-4dbc-b421-2602e9d32ca8"},"vehicle_type_id":"4","last_reported":1726340777,"current_range_meters":24800,"station_id":"ce4bhm92rcd13ifvqglg","pricing_plan_id":"cebpf4jnsgd1na2vs0mg"},{"bike_id":"f403fd07-6306-4126-91d6-2073cdf8cc86","system_id":"levelo_inurba_marseille","lat":43.28665,"lon":5.36357,"is_reserved":false,"is_disabled":false,"rental_uris":{"android":"levelo://app?vid=f403fd07-6306-4126-91d6-2073cdf8cc86","ios":"levelo://app?vid=f403fd07-6306-4126-91d6-2073cdf8cc86"},"vehicle_type_id":"4","last_reported":1726340777,"current_range_meters":28000,"station_id":"ce4bhah2rcd13ifvqej0","pricing_plan_id":"cebpf4jnsgd1na2vs0mg"},{"bike_id":"d09aedb3-0212-456b-a0d7-0a019f75665d","system_id":"levelo_inurba_marseille","lat":43.23153,"lon":5.43707,"is_reserved":false,"is_disabled":false,"rental_uris":{"android":"levelo://app?vid=d09aedb3-0212-456b-a0d7-0a019f75665d","ios":"levelo://app?vid=d09aedb3-0212-456b-a0d7-0a019f75665d"},"vehicle_type_id":"4","last_reported":1726340777,"current_range_meters":38800,"station_id":"ce4bhmp2rcd13ifvqgog","pricing_plan_id":"cebpf4jnsgd1na2vs0mg"},{"bike_id":"d37f5d4d-4b15-491a-8d0e-d7b1cf20637d","system_id":"levelo_inurba_marseille","lat":43.28033,"lon":5.36944,"is_reserved":false,"is_disabled":false,"rental_uris":{"android":"levelo://app?vid=d37f5d4d-4b15-491a-8d0e-d7b1cf20637d","ios":"levelo://app?vid=d37f5d4d-4b15-491a-8d0e-d7b1cf20637d"},"vehicle_type_id":"4","last_reported":1726340777,"current_range_meters":0,"station_id":"ce4bha12rcd13ifvqef0","pricing_plan_id":"cebpf4jnsgd1na2vs0mg"},{"bike_id":"e11ca10e-23f6-45cf-ac90-f5498fb22943","system_id":"levelo_inurba_marseille","lat":43.27374,"lon":5.36255,"is_reserved":false,"is_disabled":false,"rental_uris":{"android":"levelo://app?vid=e11ca10e-23f6-45cf-ac90-f5498fb22943","ios":"levelo://app?vid=e11ca10e-23f6-45cf-ac90-f5498fb22943"},"vehicle_type_id":"4","last_reported":1726340777,"current_range_meters":24400,"station_id":"ce4bhbh2rcd13ifvqeo0","pricing_plan_id":"cebpf4jnsgd1na2vs0mg"},{"bike_id":"efef0581-7862-46d9-83f9-8f888bf1fcff","system_id":"levelo_inurba_marseille","lat":43.23178,"lon":5.4,"is_reserved":false,"is_disabled":false,"rental_uris":{"android":"levelo://app?vid=efef0581-7862-46d9-83f9-8f888bf1fcff","ios":"levelo://app?vid=efef0581-7862-46d9-83f9-8f888bf1fcff"},"vehicle_type_id":"4","last_reported":1726340777,"current_range_meters":38800,"station_id":"ce4bhn12rcd13ifvqgqg","pricing_plan_id":"cebpf4jnsgd1na2vs0mg"},{"bike_id":"43412657-8f93-44d7-90fb-da7639962547","system_id":"levelo_inurba_marseille","lat":43.33715,"lon":5.39186,"is_reserved":false,"is_disabled":false,"rental_uris":{"android":"levelo://app?vid=43412657-8f93-44d7-90fb-da7639962547","ios":"levelo://app?vid=43412657-8f93-44d7-90fb-da7639962547"},"vehicle_type_id":"4","last_reported":1726340777,"current_range_meters":24800,"station_id":"ce4bhr92rcd13ifvqhsg","pricing_plan_id":"cebpf4jnsgd1na2vs0mg"},{"bike_id":"08c3bf0d-98e4-4653-9641-1732a4b7411e","system_id":"levelo_inurba_marseille","lat":43.30497,"lon":5.36984,"is_reserved":false,"is_disabled":false,"rental_uris":{"android":"levelo://app?vid=08c3bf0d-98e4-4653-9641-1732a4b7411e","ios":"levelo://app?vid=08c3bf0d-98e4-4653-9641-1732a4b7411e"},"vehicle_type_id":"4","last_reported":1726340777,"current_range_meters":39200,"station_id":"","pricing_plan_id":"cebpf4jnsgd1na2vs0mg"},{"bike_id":"41cca266-e667-4830-8b41-bdadae2e472f","system_id":"levelo_inurba_marseille","lat":43.24807,"lon":5.37453,"is_reserved":false,"is_disabled":false,"rental_uris":{"android":"levelo://app?vid=41cca266-e667-4830-8b41-bdadae2e472f","ios":"levelo://app?vid=41cca266-e667-4830-8b41-bdadae2e472f"},"vehicle_type_id":"4","last_reported":1726340777,"current_range_meters":24400,"station_id":"ce4bhgh2rcd13ifvqfb0","pricing_plan_id":"cebpf4jnsgd1na2vs0mg"},{"bike_id":"35e46e1e-3cad-4d90-bc94-c0cc6e26a963","system_id":"levelo_inurba_marseille","lat":43.31364,"lon":5.36705,"is_reserved":false,"is_disabled":false,"rental_uris":{"android":"levelo://app?vid=35e46e1e-3cad-4d90-bc94-c0cc6e26a963","ios":"levelo://app?vid=35e46e1e-3cad-4d90-bc94-c0cc6e26a963"},"vehicle_type_id":"4","last_reported":1726340777,"current_range_meters":14400,"station_id":"ce4bgr92rcd13ifvqc6g","pricing_plan_id":"cebpf4jnsgd1na2vs0mg"},{"bike_id":"61e00977-be43-400f-99ea-3c33330f7657","system_id":"levelo_inurba_marseille","lat":43.25008,"lon":5.38915,"is_reserved":false,"is_disabled":false,"rental_uris":{"android":"levelo://app?vid=61e00977-be43-400f-99ea-3c33330f7657","ios":"levelo://app?vid=61e00977-be43-400f-99ea-3c33330f7657"},"vehicle_type_id":"4","last_reported":1726340777,"current_range_meters":18000,"station_id":"ce4bhgp2rcd13ifvqfd0","pricing_plan_id":"cebpf4jnsgd1na2vs0mg"},{"bike_id":"546c5079-8504-40b0-b1a7-08585e30f1ce","system_id":"levelo_inurba_marseille","lat":43.29619,"lon":5.37167,"is_reserved":false,"is_disabled":false,"rental_uris":{"android":"levelo://app?vid=546c5079-8504-40b0-b1a7-08585e30f1ce","ios":"levelo://app?vid=546c5079-8504-40b0-b1a7-08585e30f1ce"},"vehicle_type_id":"4","last_reported":1726340777,"current_range_meters":2800,"station_id":"ce4bhah2rcd13ifvqej0","pricing_plan_id":"cebpf4jnsgd1na2vs0mg"},{"bike_id":"d1f38fcd-be46-4877-a9ac-34b365272c30","system_id":"levelo_inurba_marseille","lat":43.27096,"lon":5.43321,"is_reserved":false,"is_disabled":false,"rental_uris":{"android":"levelo://app?vid=d1f38fcd-be46-4877-a9ac-34b365272c30","ios":"levelo://app?vid=d1f38fcd-be46-4877-a9ac-34b365272c30"},"vehicle_type_id":"4","last_reported":1726340777,"current_range_meters":30800,"station_id":"","pricing_plan_id":"cebpf4jnsgd1na2vs0mg"},{"bike_id":"2c36f173-7fe7-45a3-b0b4-69fddd6ecd2c","system_id":"levelo_inurba_marseille","lat":43.276093,"lon":5.361195,"is_reserved":false,"is_disabled":false,"rental_uris":{"android":"levelo://app?vid=2c36f173-7fe7-45a3-b0b4-69fddd6ecd2c","ios":"levelo://app?vid=2c36f173-7fe7-45a3-b0b4-69fddd6ecd2c"},"vehicle_type_id":"4","last_reported":1726340777,"current_range_meters":25200,"station_id":"","pricing_plan_id":"cebpf4jnsgd1na2vs0mg"},{"bike_id":"27e1eb7d-2e15-46aa-afd3-7f57e15bd127","system_id":"levelo_inurba_marseille","lat":43.30797,"lon":5.38165,"is_reserved":false,"is_disabled":false,"rental_uris":{"android":"levelo://app?vid=27e1eb7d-2e15-46aa-afd3-7f57e15bd127","ios":"levelo://app?vid=27e1eb7d-2e15-46aa-afd3-7f57e15bd127"},"vehicle_type_id":"4","last_reported":1726340777,"current_range_meters":37600,"station_id":"ce4bgt12rcd13ifvqce0","pricing_plan_id":"cebpf4jnsgd1na2vs0mg"},{"bike_id":"1cb7746e-3558-4842-b01e-36b3e84e438d","system_id":"levelo_inurba_marseille","lat":43.28102,"lon":5.37843,"is_reserved":false,"is_disabled":false,"rental_uris":{"android":"levelo://app?vid=1cb7746e-3558-4842-b01e-36b3e84e438d","ios":"levelo://app?vid=1cb7746e-3558-4842-b01e-36b3e84e438d"},"vehicle_type_id":"4","last_reported":1726340777,"current_range_meters":2000,"station_id":"ce4bha12rcd13ifvqee0","pricing_plan_id":"cebpf4jnsgd1na2vs0mg"},{"bike_id":"f9076aec-56e7-4b2e-a7b1-575337aca9d5","system_id":"levelo_inurba_marseille","lat":43.2417,"lon":5.36406,"is_reserved":false,"is_disabled":false,"rental_uris":{"android":"levelo://app?vid=f9076aec-56e7-4b2e-a7b1-575337aca9d5","ios":"levelo://app?vid=f9076aec-56e7-4b2e-a7b1-575337aca9d5"},"vehicle_type_id":"4","last_reported":1726340777,"current_range_meters":31200,"station_id":"cpo36qri1sfpv3e86is0","pricing_plan_id":"cebpf4jnsgd1na2vs0mg"},{"bike_id":"e26edd30-dc65-4e19-8588-b719db0ca61f","system_id":"levelo_inurba_marseille","lat":43.29072,"lon":5.37168,"is_reserved":false,"is_disabled":false,"rental_uris":{"android":"levelo://app?vid=e26edd30-dc65-4e19-8588-b719db0ca61f","ios":"levelo://app?vid=e26edd30-dc65-4e19-8588-b719db0ca61f"},"vehicle_type_id":"4","last_reported":1726340777,"current_range_meters":28800,"station_id":"ce4bh5p2rcd13ifvqe4g","pricing_plan_id":"cebpf4jnsgd1na2vs0mg"},{"bike_id":"58c9c4d6-6319-42a8-a35b-97a77f0fa072","system_id":"levelo_inurba_marseille","lat":43.27944,"lon":5.41052,"is_reserved":false,"is_disabled":false,"rental_uris":{"android":"levelo://app?vid=58c9c4d6-6319-42a8-a35b-97a77f0fa072","ios":"levelo://app?vid=58c9c4d6-6319-42a8-a35b-97a77f0fa072"},"vehicle_type_id":"4","last_reported":1726340777,"current_range_meters":4000,"station_id":"ce4bhnp2rcd13ifvqh0g","pricing_plan_id":"cebpf4jnsgd1na2vs0mg"},{"bike_id":"a4f18687-e126-425b-b639-a942cceab9e8","system_id":"levelo_inurba_marseille","lat":43.24651,"lon":5.38907,"is_reserved":false,"is_disabled":false,"rental_uris":{"android":"levelo://app?vid=a4f18687-e126-425b-b639-a942cceab9e8","ios":"levelo://app?vid=a4f18687-e126-425b-b639-a942cceab9e8"},"vehicle_type_id":"4","last_reported":1726340777,"current_range_meters":30800,"station_id":"ce4bhg12rcd13ifvqf60","pricing_plan_id":"cebpf4jnsgd1na2vs0mg"},{"bike_id":"09a2266b-9d5f-4b81-9270-f2c09c7cc0c6","system_id":"levelo_inurba_marseille","lat":43.25491,"lon":5.37648,"is_reserved":false,"is_disabled":false,"rental_uris":{"android":"levelo://app?vid=09a2266b-9d5f-4b81-9270-f2c09c7cc0c6","ios":"levelo://app?vid=09a2266b-9d5f-4b81-9270-f2c09c7cc0c6"},"vehicle_type_id":"4","last_reported":1726340777,"current_range_meters":10000,"station_id":"ce4bhh12rcd13ifvqff0","pricing_plan_id":"cebpf4jnsgd1na2vs0mg"},{"bike_id":"36636889-c9f8-487d-a39c-079604e47d88","system_id":"levelo_inurba_marseille","lat":43.29549,"lon":5.42295,"is_reserved":false,"is_disabled":false,"rental_uris":{"android":"levelo://app?vid=36636889-c9f8-487d-a39c-079604e47d88","ios":"levelo://app?vid=36636889-c9f8-487d-a39c-079604e47d88"},"vehicle_type_id":"4","last_reported":1726340777,"current_range_meters":39200,"station_id":"ce4bhph2rcd13ifvqhdg","pricing_plan_id":"cebpf4jnsgd1na2vs0mg"},{"bike_id":"d59c1c41-4a60-4771-8a42-23bc8e42b7e8","system_id":"levelo_inurba_marseille","lat":43.29258,"lon":5.38441,"is_reserved":false,"is_disabled":false,"rental_uris":{"android":"levelo://app?vid=d59c1c41-4a60-4771-8a42-23bc8e42b7e8","ios":"levelo://app?vid=d59c1c41-4a60-4771-8a42-23bc8e42b7e8"},"vehicle_type_id":"4","last_reported":1726340777,"current_range_meters":38800,"station_id":"ce4bh692rcd13ifvqea0","pricing_plan_id":"cebpf4jnsgd1na2vs0mg"},{"bike_id":"7560168d-c555-4b8e-a518-1c66771c1c72","system_id":"levelo_inurba_marseille","lat":43.24186,"lon":5.39728,"is_reserved":false,"is_disabled":false,"rental_uris":{"android":"levelo://app?vid=7560168d-c555-4b8e-a518-1c66771c1c72","ios":"levelo://app?vid=7560168d-c555-4b8e-a518-1c66771c1c72"},"vehicle_type_id":"4","last_reported":1726340777,"current_range_meters":13600,"station_id":"ce4bhn12rcd13ifvqgpg","pricing_plan_id":"cebpf4jnsgd1na2vs0mg"},{"bike_id":"fcc1810a-9ff2-41c7-b13e-016a47a053a8","system_id":"levelo_inurba_marseille","lat":43.32338,"lon":5.40627,"is_reserved":false,"is_disabled":false,"rental_uris":{"android":"levelo://app?vid=fcc1810a-9ff2-41c7-b13e-016a47a053a8","ios":"levelo://app?vid=fcc1810a-9ff2-41c7-b13e-016a47a053a8"},"vehicle_type_id":"4","last_reported":1726340777,"current_range_meters":25200,"station_id":"ce4bhq92rcd13ifvqhjg","pricing_plan_id":"cebpf4jnsgd1na2vs0mg"},{"bike_id":"8d4d0d82-34d7-41c8-a2a8-de7ef3b46e81","system_id":"levelo_inurba_marseille","lat":43.29415,"lon":5.38625,"is_reserved":false,"is_disabled":false,"rental_uris":{"android":"levelo://app?vid=8d4d0d82-34d7-41c8-a2a8-de7ef3b46e81","ios":"levelo://app?vid=8d4d0d82-34d7-41c8-a2a8-de7ef3b46e81"},"vehicle_type_id":"4","last_reported":1726340777,"current_range_meters":19200,"station_id":"ce4bh2h2rcd13ifvqdh0","pricing_plan_id":"cebpf4jnsgd1na2vs0mg"},{"bike_id":"4e26d67f-3260-467d-88af-075a11ad36b7","system_id":"levelo_inurba_marseille","lat":43.29952,"lon":5.38491,"is_reserved":false,"is_disabled":false,"rental_uris":{"android":"levelo://app?vid=4e26d67f-3260-467d-88af-075a11ad36b7","ios":"levelo://app?vid=4e26d67f-3260-467d-88af-075a11ad36b7"},"vehicle_type_id":"4","last_reported":1726340777,"current_range_meters":10800,"station_id":"ce4bgj92rcd13ifvqbd0","pricing_plan_id":"cebpf4jnsgd1na2vs0mg"},{"bike_id":"ce8f6fbe-ee70-4433-aea6-b2f7b74b8c93","system_id":"levelo_inurba_marseille","lat":43.29632,"lon":5.37717,"is_reserved":false,"is_disabled":false,"rental_uris":{"android":"levelo://app?vid=ce8f6fbe-ee70-4433-aea6-b2f7b74b8c93","ios":"levelo://app?vid=ce8f6fbe-ee70-4433-aea6-b2f7b74b8c93"},"vehicle_type_id":"4","last_reported":1726340777,"current_range_meters":5600,"station_id":"ce4bgi92rcd13ifvqb90","pricing_plan_id":"cebpf4jnsgd1na2vs0mg"},{"bike_id":"a7023d5d-ca30-41cf-824f-fcc80511af7e","system_id":"levelo_inurba_marseille","lat":43.29028,"lon":5.38136,"is_reserved":false,"is_disabled":false,"rental_uris":{"android":"levelo://app?vid=a7023d5d-ca30-41cf-824f-fcc80511af7e","ios":"levelo://app?vid=a7023d5d-ca30-41cf-824f-fcc80511af7e"},"vehicle_type_id":"4","last_reported":1726340777,"current_range_meters":12400,"station_id":"ce4bh4p2rcd13ifvqe1g","pricing_plan_id":"cebpf4jnsgd1na2vs0mg"},{"bike_id":"1be99b67-08df-4de4-a730-a0380878f58c","system_id":"levelo_inurba_marseille","lat":43.32364,"lon":5.38889,"is_reserved":false,"is_disabled":false,"rental_uris":{"android":"levelo://app?vid=1be99b67-08df-4de4-a730-a0380878f58c","ios":"levelo://app?vid=1be99b67-08df-4de4-a730-a0380878f58c"},"vehicle_type_id":"4","last_reported":1726340777,"current_range_meters":38800,"station_id":"ce4bhqp2rcd13ifvqhog","pricing_plan_id":"cebpf4jnsgd1na2vs0mg"},{"bike_id":"c7ee67f3-f4a8-4a4f-9d40-90be553542e5","system_id":"levelo_inurba_marseille","lat":43.27324,"lon":5.39083,"is_reserved":false,"is_disabled":false,"rental_uris":{"android":"levelo://app?vid=c7ee67f3-f4a8-4a4f-9d40-90be553542e5","ios":"levelo://app?vid=c7ee67f3-f4a8-4a4f-9d40-90be553542e5"},"vehicle_type_id":"4","last_reported":1726340777,"current_range_meters":37600,"station_id":"ce4bhgp2rcd13ifvqfe0","pricing_plan_id":"cebpf4jnsgd1na2vs0mg"},{"bike_id":"60997c0d-21af-4a97-9be6-d3d01dff78f1","system_id":"levelo_inurba_marseille","lat":43.25824,"lon":5.39443,"is_reserved":false,"is_disabled":false,"rental_uris":{"android":"levelo://app?vid=60997c0d-21af-4a97-9be6-d3d01dff78f1","ios":"levelo://app?vid=60997c0d-21af-4a97-9be6-d3d01dff78f1"},"vehicle_type_id":"4","last_reported":1726340777,"current_range_meters":3600,"station_id":"ce4bhip2rcd13ifvqft0","pricing_plan_id":"cebpf4jnsgd1na2vs0mg"},{"bike_id":"9b5c22b3-3ef5-4c18-a429-87838ea0eed0","system_id":"levelo_inurba_marseille","lat":43.31325,"lon":5.39693,"is_reserved":false,"is_disabled":false,"rental_uris":{"android":"levelo://app?vid=9b5c22b3-3ef5-4c18-a429-87838ea0eed0","ios":"levelo://app?vid=9b5c22b3-3ef5-4c18-a429-87838ea0eed0"},"vehicle_type_id":"4","last_reported":1726340777,"current_range_meters":38400,"station_id":"ce4bgvp2rcd13ifvqcu0","pricing_plan_id":"cebpf4jnsgd1na2vs0mg"},{"bike_id":"801c4810-d9a3-4657-a303-58e59cf164f3","system_id":"levelo_inurba_marseille","lat":43.30877,"lon":5.39637,"is_reserved":false,"is_disabled":false,"rental_uris":{"android":"levelo://app?vid=801c4810-d9a3-4657-a303-58e59cf164f3","ios":"levelo://app?vid=801c4810-d9a3-4657-a303-58e59cf164f3"},"vehicle_type_id":"4","last_reported":1726340777,"current_range_meters":38800,"station_id":"ce4bh012rcd13ifvqcv0","pricing_plan_id":"cebpf4jnsgd1na2vs0mg"},{"bike_id":"34e6d016-51b7-4cb5-9bc5-8643fec160fd","system_id":"levelo_inurba_marseille","lat":43.28336,"lon":5.38113,"is_reserved":false,"is_disabled":false,"rental_uris":{"android":"levelo://app?vid=34e6d016-51b7-4cb5-9bc5-8643fec160fd","ios":"levelo://app?vid=34e6d016-51b7-4cb5-9bc5-8643fec160fd"},"vehicle_type_id":"4","last_reported":1726340777,"current_range_meters":38800,"station_id":"ce4bh412rcd13ifvqdr0","pricing_plan_id":"cebpf4jnsgd1na2vs0mg"},{"bike_id":"42769940-5e32-4cb6-afbb-59c395fded9a","system_id":"levelo_inurba_marseille","lat":43.297915,"lon":5.381097,"is_reserved":false,"is_disabled":false,"rental_uris":{"android":"levelo://app?vid=42769940-5e32-4cb6-afbb-59c395fded9a","ios":"levelo://app?vid=42769940-5e32-4cb6-afbb-59c395fded9a"},"vehicle_type_id":"4","last_reported":1726340777,"current_range_meters":32000,"station_id":"ce4bgip2rcd13ifvqbb0","pricing_plan_id":"cebpf4jnsgd1na2vs0mg"},{"bike_id":"1be4bcad-bdf2-46c2-8c7e-d9c3888fe276","system_id":"levelo_inurba_marseille","lat":43.32331,"lon":5.40619,"is_reserved":false,"is_disabled":false,"rental_uris":{"android":"levelo://app?vid=1be4bcad-bdf2-46c2-8c7e-d9c3888fe276","ios":"levelo://app?vid=1be4bcad-bdf2-46c2-8c7e-d9c3888fe276"},"vehicle_type_id":"4","last_reported":1726340777,"current_range_meters":33200,"station_id":"ce4bhq92rcd13ifvqhjg","pricing_plan_id":"cebpf4jnsgd1na2vs0mg"},{"bike_id":"a599ceed-444b-4e36-8462-c6ddb336de56","system_id":"levelo_inurba_marseille","lat":43.305481,"lon":5.384276,"is_reserved":false,"is_disabled":false,"rental_uris":{"android":"levelo://app?vid=a599ceed-444b-4e36-8462-c6ddb336de56","ios":"levelo://app?vid=a599ceed-444b-4e36-8462-c6ddb336de56"},"vehicle_type_id":"4","last_reported":1726340777,"current_range_meters":21600,"station_id":"ce4bh0h2rcd13ifvqd40","pricing_plan_id":"cebpf4jnsgd1na2vs0mg"},{"bike_id":"511cb5b3-0238-4cd9-8e2a-27d487e338a0","system_id":"levelo_inurba_marseille","lat":43.29411,"lon":5.38632,"is_reserved":false,"is_disabled":false,"rental_uris":{"android":"levelo://app?vid=511cb5b3-0238-4cd9-8e2a-27d487e338a0","ios":"levelo://app?vid=511cb5b3-0238-4cd9-8e2a-27d487e338a0"},"vehicle_type_id":"4","last_reported":1726340777,"current_range_meters":31200,"station_id":"ce4bh2h2rcd13ifvqdh0","pricing_plan_id":"cebpf4jnsgd1na2vs0mg"},{"bike_id":"5853f56c-4943-4826-b8a5-f2a3d46e7000","system_id":"levelo_inurba_marseille","lat":43.31723,"lon":5.42405,"is_reserved":false,"is_disabled":false,"rental_uris":{"android":"levelo://app?vid=5853f56c-4943-4826-b8a5-f2a3d46e7000","ios":"levelo://app?vid=5853f56c-4943-4826-b8a5-f2a3d46e7000"},"vehicle_type_id":"4","last_reported":1726340777,"current_range_meters":27600,"station_id":"ce4bhp92rcd13ifvqhbg","pricing_plan_id":"cebpf4jnsgd1na2vs0mg"},{"bike_id":"1c831b92-d35c-4c62-8e32-9afc7c27b5df","system_id":"levelo_inurba_marseille","lat":43.2737,"lon":5.36266,"is_reserved":false,"is_disabled":false,"rental_uris":{"android":"levelo://app?vid=1c831b92-d35c-4c62-8e32-9afc7c27b5df","ios":"levelo://app?vid=1c831b92-d35c-4c62-8e32-9afc7c27b5df"},"vehicle_type_id":"4","last_reported":1726340777,"current_range_meters":4400,"station_id":"ce4bhbh2rcd13ifvqeo0","pricing_plan_id":"cebpf4jnsgd1na2vs0mg"},{"bike_id":"50c6b38e-8671-4eb7-aaf9-61c58917a7b3","system_id":"levelo_inurba_marseille","lat":43.31111,"lon":5.37772,"is_reserved":false,"is_disabled":false,"rental_uris":{"android":"levelo://app?vid=50c6b38e-8671-4eb7-aaf9-61c58917a7b3","ios":"levelo://app?vid=50c6b38e-8671-4eb7-aaf9-61c58917a7b3"},"vehicle_type_id":"4","last_reported":1726340777,"current_range_meters":30800,"station_id":"ce4bgt92rcd13ifvqcg0","pricing_plan_id":"cebpf4jnsgd1na2vs0mg"},{"bike_id":"43e2ee09-4e9e-400e-b8ed-a6a31be1097e","system_id":"levelo_inurba_marseille","lat":43.29419,"lon":5.38627,"is_reserved":false,"is_disabled":false,"rental_uris":{"android":"levelo://app?vid=43e2ee09-4e9e-400e-b8ed-a6a31be1097e","ios":"levelo://app?vid=43e2ee09-4e9e-400e-b8ed-a6a31be1097e"},"vehicle_type_id":"4","last_reported":1726340777,"current_range_meters":27600,"station_id":"ce4bh2h2rcd13ifvqdh0","pricing_plan_id":"cebpf4jnsgd1na2vs0mg"},{"bike_id":"5bb9eeb2-9d6e-478b-9598-395ae66c9e19","system_id":"levelo_inurba_marseille","lat":43.25729,"lon":5.41112,"is_reserved":false,"is_disabled":false,"rental_uris":{"android":"levelo://app?vid=5bb9eeb2-9d6e-478b-9598-395ae66c9e19","ios":"levelo://app?vid=5bb9eeb2-9d6e-478b-9598-395ae66c9e19"},"vehicle_type_id":"4","last_reported":1726340777,"current_range_meters":4400,"station_id":"ce4bhkp2rcd13ifvqgd0","pricing_plan_id":"cebpf4jnsgd1na2vs0mg"},{"bike_id":"fd37a63c-e93c-475e-bfa3-63e32e0fc74c","system_id":"levelo_inurba_marseille","lat":43.29259,"lon":5.38445,"is_reserved":false,"is_disabled":false,"rental_uris":{"android":"levelo://app?vid=fd37a63c-e93c-475e-bfa3-63e32e0fc74c","ios":"levelo://app?vid=fd37a63c-e93c-475e-bfa3-63e32e0fc74c"},"vehicle_type_id":"4","last_reported":1726340777,"current_range_meters":11600,"station_id":"ce4bh692rcd13ifvqea0","pricing_plan_id":"cebpf4jnsgd1na2vs0mg"},{"bike_id":"4252997a-048e-467d-b47c-5290f1fef794","system_id":"levelo_inurba_marseille","lat":43.245904,"lon":5.394723,"is_reserved":false,"is_disabled":false,"rental_uris":{"android":"levelo://app?vid=4252997a-048e-467d-b47c-5290f1fef794","ios":"levelo://app?vid=4252997a-048e-467d-b47c-5290f1fef794"},"vehicle_type_id":"4","last_reported":1726340777,"current_range_meters":16400,"station_id":"ce4bhlp2rcd13ifvqgjg","pricing_plan_id":"cebpf4jnsgd1na2vs0mg"},{"bike_id":"69191af4-98fa-486f-96b6-a57cbca89647","system_id":"levelo_inurba_marseille","lat":43.27617,"lon":5.36117,"is_reserved":false,"is_disabled":false,"rental_uris":{"android":"levelo://app?vid=69191af4-98fa-486f-96b6-a57cbca89647","ios":"levelo://app?vid=69191af4-98fa-486f-96b6-a57cbca89647"},"vehicle_type_id":"4","last_reported":1726340777,"current_range_meters":32800,"station_id":"ce4bgj92rcd13ifvqbe0","pricing_plan_id":"cebpf4jnsgd1na2vs0mg"},{"bike_id":"e4155066-34ee-4e67-a43f-18867591de05","system_id":"levelo_inurba_marseille","lat":43.2925,"lon":5.38455,"is_reserved":false,"is_disabled":false,"rental_uris":{"android":"levelo://app?vid=e4155066-34ee-4e67-a43f-18867591de05","ios":"levelo://app?vid=e4155066-34ee-4e67-a43f-18867591de05"},"vehicle_type_id":"4","last_reported":1726340777,"current_range_meters":4400,"station_id":"ce4bh692rcd13ifvqea0","pricing_plan_id":"cebpf4jnsgd1na2vs0mg"},{"bike_id":"328d45f9-980e-4811-97c0-47d761861509","system_id":"levelo_inurba_marseille","lat":43.29847,"lon":5.37836,"is_reserved":false,"is_disabled":false,"rental_uris":{"android":"levelo://app?vid=328d45f9-980e-4811-97c0-47d761861509","ios":"levelo://app?vid=328d45f9-980e-4811-97c0-47d761861509"},"vehicle_type_id":"4","last_reported":1726340777,"current_range_meters":30800,"station_id":"ce4bgkh2rcd13ifvqbl0","pricing_plan_id":"cebpf4jnsgd1na2vs0mg"},{"bike_id":"b6630d9e-04b1-4593-b467-6d48c80c0bfd","system_id":"levelo_inurba_marseille","lat":43.28462,"lon":5.35885,"is_reserved":false,"is_disabled":false,"rental_uris":{"android":"levelo://app?vid=b6630d9e-04b1-4593-b467-6d48c80c0bfd","ios":"levelo://app?vid=b6630d9e-04b1-4593-b467-6d48c80c0bfd"},"vehicle_type_id":"4","last_reported":1726340777,"current_range_meters":10800,"station_id":"ce4bhah2rcd13ifvqei0","pricing_plan_id":"cebpf4jnsgd1na2vs0mg"},{"bike_id":"ebd918ba-9631-47ea-a027-a18a3189378c","system_id":"levelo_inurba_marseille","lat":43.24998,"lon":5.38938,"is_reserved":false,"is_disabled":false,"rental_uris":{"android":"levelo://app?vid=ebd918ba-9631-47ea-a027-a18a3189378c","ios":"levelo://app?vid=ebd918ba-9631-47ea-a027-a18a3189378c"},"vehicle_type_id":"4","last_reported":1726340777,"current_range_meters":12800,"station_id":"ce4bhgp2rcd13ifvqfd0","pricing_plan_id":"cebpf4jnsgd1na2vs0mg"},{"bike_id":"05d492ee-ddb9-45b3-9f30-b1f3d03d26db","system_id":"levelo_inurba_marseille","lat":43.29422,"lon":5.38617,"is_reserved":false,"is_disabled":false,"rental_uris":{"android":"levelo://app?vid=05d492ee-ddb9-45b3-9f30-b1f3d03d26db","ios":"levelo://app?vid=05d492ee-ddb9-45b3-9f30-b1f3d03d26db"},"vehicle_type_id":"4","last_reported":1726340777,"current_range_meters":12400,"station_id":"ce4bh2h2rcd13ifvqdh0","pricing_plan_id":"cebpf4jnsgd1na2vs0mg"},{"bike_id":"9ef74294-1e9f-40c9-b6de-b65562b51f9f","system_id":"levelo_inurba_marseille","lat":43.29551,"lon":5.42291,"is_reserved":false,"is_disabled":false,"rental_uris":{"android":"levelo://app?vid=9ef74294-1e9f-40c9-b6de-b65562b51f9f","ios":"levelo://app?vid=9ef74294-1e9f-40c9-b6de-b65562b51f9f"},"vehicle_type_id":"4","last_reported":1726340777,"current_range_meters":38800,"station_id":"ce4bhph2rcd13ifvqhdg","pricing_plan_id":"cebpf4jnsgd1na2vs0mg"},{"bike_id":"deffe01b-e2a6-4e1e-acc2-9c93a7f0309b","system_id":"levelo_inurba_marseille","lat":43.26575,"lon":5.39007,"is_reserved":false,"is_disabled":false,"rental_uris":{"android":"levelo://app?vid=deffe01b-e2a6-4e1e-acc2-9c93a7f0309b","ios":"levelo://app?vid=deffe01b-e2a6-4e1e-acc2-9c93a7f0309b"},"vehicle_type_id":"4","last_reported":1726340777,"current_range_meters":36000,"station_id":"ce4bhe12rcd13ifvqf30","pricing_plan_id":"cebpf4jnsgd1na2vs0mg"},{"bike_id":"596d4e67-e807-4a01-b1ee-98c37028ace8","system_id":"levelo_inurba_marseille","lat":43.23965,"lon":5.36633,"is_reserved":false,"is_disabled":false,"rental_uris":{"android":"levelo://app?vid=596d4e67-e807-4a01-b1ee-98c37028ace8","ios":"levelo://app?vid=596d4e67-e807-4a01-b1ee-98c37028ace8"},"vehicle_type_id":"4","last_reported":1726340777,"current_range_meters":22800,"station_id":"ce4bhi12rcd13ifvqfp0","pricing_plan_id":"cebpf4jnsgd1na2vs0mg"},{"bike_id":"fc76a35a-a564-4eb5-8688-a9c3d5237512","system_id":"levelo_inurba_marseille","lat":43.31755,"lon":5.39024,"is_reserved":false,"is_disabled":false,"rental_uris":{"android":"levelo://app?vid=fc76a35a-a564-4eb5-8688-a9c3d5237512","ios":"levelo://app?vid=fc76a35a-a564-4eb5-8688-a9c3d5237512"},"vehicle_type_id":"4","last_reported":1726340777,"current_range_meters":38800,"station_id":"ce4bhqp2rcd13ifvqhng","pricing_plan_id":"cebpf4jnsgd1na2vs0mg"},{"bike_id":"f38fcef7-e5a9-42bb-a5e4-73a108c8dea0","system_id":"levelo_inurba_marseille","lat":43.24664,"lon":5.3817,"is_reserved":false,"is_disabled":false,"rental_uris":{"android":"levelo://app?vid=f38fcef7-e5a9-42bb-a5e4-73a108c8dea0","ios":"levelo://app?vid=f38fcef7-e5a9-42bb-a5e4-73a108c8dea0"},"vehicle_type_id":"4","last_reported":1726340777,"current_range_meters":12400,"station_id":"ce4bhih2rcd13ifvqfr0","pricing_plan_id":"cebpf4jnsgd1na2vs0mg"},{"bike_id":"8b608b96-fedf-4511-8d4b-09bad2606e1a","system_id":"levelo_inurba_marseille","lat":43.27724,"lon":5.41132,"is_reserved":false,"is_disabled":false,"rental_uris":{"android":"levelo://app?vid=8b608b96-fedf-4511-8d4b-09bad2606e1a","ios":"levelo://app?vid=8b608b96-fedf-4511-8d4b-09bad2606e1a"},"vehicle_type_id":"4","last_reported":1726340777,"current_range_meters":25600,"station_id":"","pricing_plan_id":"cebpf4jnsgd1na2vs0mg"},{"bike_id":"0cd1c978-13e8-4405-af4b-07c5d83560a3","system_id":"levelo_inurba_marseille","lat":43.29895,"lon":5.43666,"is_reserved":false,"is_disabled":false,"rental_uris":{"android":"levelo://app?vid=0cd1c978-13e8-4405-af4b-07c5d83560a3","ios":"levelo://app?vid=0cd1c978-13e8-4405-af4b-07c5d83560a3"},"vehicle_type_id":"4","last_reported":1726340777,"current_range_meters":37600,"station_id":"ce4bhpp2rcd13ifvqhfg","pricing_plan_id":"cebpf4jnsgd1na2vs0mg"},{"bike_id":"8215194a-eca9-43ad-a30d-bbd5ca50a36a","system_id":"levelo_inurba_marseille","lat":43.30541,"lon":5.38423,"is_reserved":false,"is_disabled":false,"rental_uris":{"android":"levelo://app?vid=8215194a-eca9-43ad-a30d-bbd5ca50a36a","ios":"levelo://app?vid=8215194a-eca9-43ad-a30d-bbd5ca50a36a"},"vehicle_type_id":"4","last_reported":1726340777,"current_range_meters":37600,"station_id":"ce4bgg92rcd13ifvqb30","pricing_plan_id":"cebpf4jnsgd1na2vs0mg"},{"bike_id":"197bbffc-68b3-4cd0-a864-1dc6380f888a","system_id":"levelo_inurba_marseille","lat":43.29255,"lon":5.38443,"is_reserved":false,"is_disabled":false,"rental_uris":{"android":"levelo://app?vid=197bbffc-68b3-4cd0-a864-1dc6380f888a","ios":"levelo://app?vid=197bbffc-68b3-4cd0-a864-1dc6380f888a"},"vehicle_type_id":"4","last_reported":1726340777,"current_range_meters":12800,"station_id":"ce4bh692rcd13ifvqea0","pricing_plan_id":"cebpf4jnsgd1na2vs0mg"},{"bike_id":"ab167bf4-64dc-47a2-b395-04a9b1602953","system_id":"levelo_inurba_marseille","lat":43.25502,"lon":5.37651,"is_reserved":false,"is_disabled":false,"rental_uris":{"android":"levelo://app?vid=ab167bf4-64dc-47a2-b395-04a9b1602953","ios":"levelo://app?vid=ab167bf4-64dc-47a2-b395-04a9b1602953"},"vehicle_type_id":"4","last_reported":1726340777,"current_range_meters":30000,"station_id":"ce4bhh12rcd13ifvqff0","pricing_plan_id":"cebpf4jnsgd1na2vs0mg"},{"bike_id":"fa2b0a9f-66ad-4cd1-b7bb-93b9cffdc904","system_id":"levelo_inurba_marseille","lat":43.2593,"lon":5.40911,"is_reserved":false,"is_disabled":false,"rental_uris":{"android":"levelo://app?vid=fa2b0a9f-66ad-4cd1-b7bb-93b9cffdc904","ios":"levelo://app?vid=fa2b0a9f-66ad-4cd1-b7bb-93b9cffdc904"},"vehicle_type_id":"4","last_reported":1726340777,"current_range_meters":36400,"station_id":"ce4bhm92rcd13ifvqglg","pricing_plan_id":"cebpf4jnsgd1na2vs0mg"},{"bike_id":"dfdc5a5d-40cf-4ee7-9a62-0843dd4916d7","system_id":"levelo_inurba_marseille","lat":43.27562,"lon":5.40919,"is_reserved":false,"is_disabled":false,"rental_uris":{"android":"levelo://app?vid=dfdc5a5d-40cf-4ee7-9a62-0843dd4916d7","ios":"levelo://app?vid=dfdc5a5d-40cf-4ee7-9a62-0843dd4916d7"},"vehicle_type_id":"4","last_reported":1726340777,"current_range_meters":6000,"station_id":"ce4bhnp2rcd13ifvqh0g","pricing_plan_id":"cebpf4jnsgd1na2vs0mg"},{"bike_id":"5d745dda-e2cf-45e1-be37-4dd7d9a3cec9","system_id":"levelo_inurba_marseille","lat":43.30657,"lon":5.40085,"is_reserved":false,"is_disabled":false,"rental_uris":{"android":"levelo://app?vid=5d745dda-e2cf-45e1-be37-4dd7d9a3cec9","ios":"levelo://app?vid=5d745dda-e2cf-45e1-be37-4dd7d9a3cec9"},"vehicle_type_id":"4","last_reported":1726340777,"current_range_meters":1200,"station_id":"ce4bh112rcd13ifvqda0","pricing_plan_id":"cebpf4jnsgd1na2vs0mg"},{"bike_id":"2fa7a912-256f-4ebe-9793-d9b6c6940c4a","system_id":"levelo_inurba_marseille","lat":43.25003,"lon":5.38929,"is_reserved":false,"is_disabled":false,"rental_uris":{"android":"levelo://app?vid=2fa7a912-256f-4ebe-9793-d9b6c6940c4a","ios":"levelo://app?vid=2fa7a912-256f-4ebe-9793-d9b6c6940c4a"},"vehicle_type_id":"4","last_reported":1726340777,"current_range_meters":27600,"station_id":"ce4bhgp2rcd13ifvqfd0","pricing_plan_id":"cebpf4jnsgd1na2vs0mg"},{"bike_id":"cbb11aa2-4c5c-4f16-bc23-b5a5dc4bf004","system_id":"levelo_inurba_marseille","lat":43.30875,"lon":5.39655,"is_reserved":false,"is_disabled":false,"rental_uris":{"android":"levelo://app?vid=cbb11aa2-4c5c-4f16-bc23-b5a5dc4bf004","ios":"levelo://app?vid=cbb11aa2-4c5c-4f16-bc23-b5a5dc4bf004"},"vehicle_type_id":"4","last_reported":1726340777,"current_range_meters":36400,"station_id":"ce4bh012rcd13ifvqcv0","pricing_plan_id":"cebpf4jnsgd1na2vs0mg"},{"bike_id":"be3580cc-5597-48ff-bbfe-6a25fd4800e2","system_id":"levelo_inurba_marseille","lat":43.31894,"lon":5.42536,"is_reserved":false,"is_disabled":false,"rental_uris":{"android":"levelo://app?vid=be3580cc-5597-48ff-bbfe-6a25fd4800e2","ios":"levelo://app?vid=be3580cc-5597-48ff-bbfe-6a25fd4800e2"},"vehicle_type_id":"4","last_reported":1726340777,"current_range_meters":9200,"station_id":"ce4bhp92rcd13ifvqhbg","pricing_plan_id":"cebpf4jnsgd1na2vs0mg"},{"bike_id":"1a48afa5-7f7d-49e1-a681-5a50e8a492b8","system_id":"levelo_inurba_marseille","lat":43.27699,"lon":5.36157,"is_reserved":false,"is_disabled":false,"rental_uris":{"android":"levelo://app?vid=1a48afa5-7f7d-49e1-a681-5a50e8a492b8","ios":"levelo://app?vid=1a48afa5-7f7d-49e1-a681-5a50e8a492b8"},"vehicle_type_id":"4","last_reported":1726340777,"current_range_meters":10000,"station_id":"ce4bh292rcd13ifvqdg0","pricing_plan_id":"cebpf4jnsgd1na2vs0mg"},{"bike_id":"dc382978-022a-48dc-8284-dd345a1790df","system_id":"levelo_inurba_marseille","lat":43.2968,"lon":5.37288,"is_reserved":false,"is_disabled":false,"rental_uris":{"android":"levelo://app?vid=dc382978-022a-48dc-8284-dd345a1790df","ios":"levelo://app?vid=dc382978-022a-48dc-8284-dd345a1790df"},"vehicle_type_id":"4","last_reported":1726340777,"current_range_meters":14400,"station_id":"ce4bgk12rcd13ifvqbj0","pricing_plan_id":"cebpf4jnsgd1na2vs0mg"},{"bike_id":"3a047b58-1d40-4348-93d0-bd6734583002","system_id":"levelo_inurba_marseille","lat":43.29518,"lon":5.39044,"is_reserved":false,"is_disabled":false,"rental_uris":{"android":"levelo://app?vid=3a047b58-1d40-4348-93d0-bd6734583002","ios":"levelo://app?vid=3a047b58-1d40-4348-93d0-bd6734583002"},"vehicle_type_id":"4","last_reported":1726340777,"current_range_meters":38800,"station_id":"ce4bh3p2rcd13ifvqdp0","pricing_plan_id":"cebpf4jnsgd1na2vs0mg"},{"bike_id":"ad170795-d616-4973-a093-646402a940fe","system_id":"levelo_inurba_marseille","lat":43.29255,"lon":5.40907,"is_reserved":false,"is_disabled":false,"rental_uris":{"android":"levelo://app?vid=ad170795-d616-4973-a093-646402a940fe","ios":"levelo://app?vid=ad170795-d616-4973-a093-646402a940fe"},"vehicle_type_id":"4","last_reported":1726340777,"current_range_meters":24000,"station_id":"ce4bh192rcd13ifvqdc0","pricing_plan_id":"cebpf4jnsgd1na2vs0mg"},{"bike_id":"f1e8ceee-9573-4b77-ab79-482d0d3b70cc","system_id":"levelo_inurba_marseille","lat":43.24168,"lon":5.36404,"is_reserved":false,"is_disabled":false,"rental_uris":{"android":"levelo://app?vid=f1e8ceee-9573-4b77-ab79-482d0d3b70cc","ios":"levelo://app?vid=f1e8ceee-9573-4b77-ab79-482d0d3b70cc"},"vehicle_type_id":"4","last_reported":1726340777,"current_range_meters":38400,"station_id":"cpo36qri1sfpv3e86is0","pricing_plan_id":"cebpf4jnsgd1na2vs0mg"},{"bike_id":"2f38de22-bf38-4c67-93be-579dbae84aee","system_id":"levelo_inurba_marseille","lat":43.2861,"lon":5.35108,"is_reserved":false,"is_disabled":false,"rental_uris":{"android":"levelo://app?vid=2f38de22-bf38-4c67-93be-579dbae84aee","ios":"levelo://app?vid=2f38de22-bf38-4c67-93be-579dbae84aee"},"vehicle_type_id":"4","last_reported":1726340777,"current_range_meters":7200,"station_id":"ce4bhch2rcd13ifvqeug","pricing_plan_id":"cebpf4jnsgd1na2vs0mg"},{"bike_id":"f831edea-d40e-4654-adff-1c1d2ba9c6fc","system_id":"levelo_inurba_marseille","lat":43.24808,"lon":5.37452,"is_reserved":false,"is_disabled":false,"rental_uris":{"android":"levelo://app?vid=f831edea-d40e-4654-adff-1c1d2ba9c6fc","ios":"levelo://app?vid=f831edea-d40e-4654-adff-1c1d2ba9c6fc"},"vehicle_type_id":"4","last_reported":1726340777,"current_range_meters":26800,"station_id":"ce4bhgh2rcd13ifvqfb0","pricing_plan_id":"cebpf4jnsgd1na2vs0mg"},{"bike_id":"d0dbb4ac-e5ae-4ec2-96d1-93bdd6974e1a","system_id":"levelo_inurba_marseille","lat":43.28879,"lon":5.35409,"is_reserved":false,"is_disabled":false,"rental_uris":{"android":"levelo://app?vid=d0dbb4ac-e5ae-4ec2-96d1-93bdd6974e1a","ios":"levelo://app?vid=d0dbb4ac-e5ae-4ec2-96d1-93bdd6974e1a"},"vehicle_type_id":"4","last_reported":1726340777,"current_range_meters":11600,"station_id":"","pricing_plan_id":"cebpf4jnsgd1na2vs0mg"},{"bike_id":"19905df6-e73e-46a1-ae96-6fdb91b17345","system_id":"levelo_inurba_marseille","lat":43.32193,"lon":5.41334,"is_reserved":false,"is_disabled":false,"rental_uris":{"android":"levelo://app?vid=19905df6-e73e-46a1-ae96-6fdb91b17345","ios":"levelo://app?vid=19905df6-e73e-46a1-ae96-6fdb91b17345"},"vehicle_type_id":"4","last_reported":1726340777,"current_range_meters":22000,"station_id":"","pricing_plan_id":"cebpf4jnsgd1na2vs0mg"},{"bike_id":"1e5b13e0-dce8-4aaa-8d52-0dc5d970d32a","system_id":"levelo_inurba_marseille","lat":43.28997,"lon":5.37839,"is_reserved":false,"is_disabled":false,"rental_uris":{"android":"levelo://app?vid=1e5b13e0-dce8-4aaa-8d52-0dc5d970d32a","ios":"levelo://app?vid=1e5b13e0-dce8-4aaa-8d52-0dc5d970d32a"},"vehicle_type_id":"4","last_reported":1726340777,"current_range_meters":22400,"station_id":"ce4bh9p2rcd13ifvqed0","pricing_plan_id":"cebpf4jnsgd1na2vs0mg"},{"bike_id":"6cbf6734-4566-46f3-8d0e-618b5ff147d2","system_id":"levelo_inurba_marseille","lat":43.29251,"lon":5.40914,"is_reserved":false,"is_disabled":false,"rental_uris":{"android":"levelo://app?vid=6cbf6734-4566-46f3-8d0e-618b5ff147d2","ios":"levelo://app?vid=6cbf6734-4566-46f3-8d0e-618b5ff147d2"},"vehicle_type_id":"4","last_reported":1726340777,"current_range_meters":30000,"station_id":"ce4bh192rcd13ifvqdc0","pricing_plan_id":"cebpf4jnsgd1na2vs0mg"},{"bike_id":"b112ff71-386d-4fa5-a4d9-08a5879391fb","system_id":"levelo_inurba_marseille","lat":43.2909,"lon":5.38145,"is_reserved":false,"is_disabled":false,"rental_uris":{"android":"levelo://app?vid=b112ff71-386d-4fa5-a4d9-08a5879391fb","ios":"levelo://app?vid=b112ff71-386d-4fa5-a4d9-08a5879391fb"},"vehicle_type_id":"4","last_reported":1726340777,"current_range_meters":34800,"station_id":"ce4bh512rcd13ifvqe2g","pricing_plan_id":"cebpf4jnsgd1na2vs0mg"},{"bike_id":"d6c2fb27-f7fe-4f6c-9dcc-9a1f17d19e48","system_id":"levelo_inurba_marseille","lat":43.29297,"lon":5.37119,"is_reserved":false,"is_disabled":false,"rental_uris":{"android":"levelo://app?vid=d6c2fb27-f7fe-4f6c-9dcc-9a1f17d19e48","ios":"levelo://app?vid=d6c2fb27-f7fe-4f6c-9dcc-9a1f17d19e48"},"vehicle_type_id":"4","last_reported":1726340777,"current_range_meters":36400,"station_id":"ce4bgh92rcd13ifvqb40","pricing_plan_id":"cebpf4jnsgd1na2vs0mg"},{"bike_id":"04ab1dee-b868-4cfb-8bbf-c0a2f54169d0","system_id":"levelo_inurba_marseille","lat":43.2989,"lon":5.43663,"is_reserved":false,"is_disabled":false,"rental_uris":{"android":"levelo://app?vid=04ab1dee-b868-4cfb-8bbf-c0a2f54169d0","ios":"levelo://app?vid=04ab1dee-b868-4cfb-8bbf-c0a2f54169d0"},"vehicle_type_id":"4","last_reported":1726340777,"current_range_meters":36000,"station_id":"ce4bhpp2rcd13ifvqhfg","pricing_plan_id":"cebpf4jnsgd1na2vs0mg"},{"bike_id":"be47f326-bf36-4b0c-8e5b-aac377b0640d","system_id":"levelo_inurba_marseille","lat":43.3248,"lon":5.36567,"is_reserved":false,"is_disabled":false,"rental_uris":{"android":"levelo://app?vid=be47f326-bf36-4b0c-8e5b-aac377b0640d","ios":"levelo://app?vid=be47f326-bf36-4b0c-8e5b-aac377b0640d"},"vehicle_type_id":"4","last_reported":1726340777,"current_range_meters":6800,"station_id":"ce4bhs12rcd13ifvqhvg","pricing_plan_id":"cebpf4jnsgd1na2vs0mg"},{"bike_id":"32f53994-435c-4db8-80f9-1be5d0abb05f","system_id":"levelo_inurba_marseille","lat":43.31077,"lon":5.42432,"is_reserved":false,"is_disabled":false,"rental_uris":{"android":"levelo://app?vid=32f53994-435c-4db8-80f9-1be5d0abb05f","ios":"levelo://app?vid=32f53994-435c-4db8-80f9-1be5d0abb05f"},"vehicle_type_id":"4","last_reported":1726340777,"current_range_meters":22000,"station_id":"ce4bhp92rcd13ifvqhag","pricing_plan_id":"cebpf4jnsgd1na2vs0mg"},{"bike_id":"57e038d1-ae73-44a3-8a75-cd996c1e166c","system_id":"levelo_inurba_marseille","lat":43.284629,"lon":5.358864,"is_reserved":false,"is_disabled":false,"rental_uris":{"android":"levelo://app?vid=57e038d1-ae73-44a3-8a75-cd996c1e166c","ios":"levelo://app?vid=57e038d1-ae73-44a3-8a75-cd996c1e166c"},"vehicle_type_id":"4","last_reported":1726340777,"current_range_meters":24800,"station_id":"ce4bhah2rcd13ifvqei0","pricing_plan_id":"cebpf4jnsgd1na2vs0mg"},{"bike_id":"a7d9ab6d-85d1-48f8-ace4-913d4818cf7a","system_id":"levelo_inurba_marseille","lat":43.2937,"lon":5.37858,"is_reserved":false,"is_disabled":false,"rental_uris":{"android":"levelo://app?vid=a7d9ab6d-85d1-48f8-ace4-913d4818cf7a","ios":"levelo://app?vid=a7d9ab6d-85d1-48f8-ace4-913d4818cf7a"},"vehicle_type_id":"4","last_reported":1726340777,"current_range_meters":38800,"station_id":"ce4bgjh2rcd13ifvqbf0","pricing_plan_id":"cebpf4jnsgd1na2vs0mg"},{"bike_id":"5474d24c-9def-4307-af3a-1ed196b35730","system_id":"levelo_inurba_marseille","lat":43.28415,"lon":5.34992,"is_reserved":false,"is_disabled":false,"rental_uris":{"android":"levelo://app?vid=5474d24c-9def-4307-af3a-1ed196b35730","ios":"levelo://app?vid=5474d24c-9def-4307-af3a-1ed196b35730"},"vehicle_type_id":"4","last_reported":1726340777,"current_range_meters":18000,"station_id":"ce4bhbh2rcd13ifvqepg","pricing_plan_id":"cebpf4jnsgd1na2vs0mg"},{"bike_id":"ad8f2e11-9e6e-4d23-a101-b12b04eb1d01","system_id":"levelo_inurba_marseille","lat":43.29217,"lon":5.36047,"is_reserved":false,"is_disabled":false,"rental_uris":{"android":"levelo://app?vid=ad8f2e11-9e6e-4d23-a101-b12b04eb1d01","ios":"levelo://app?vid=ad8f2e11-9e6e-4d23-a101-b12b04eb1d01"},"vehicle_type_id":"4","last_reported":1726340777,"current_range_meters":35200,"station_id":"ce4bhbh2rcd13ifvqeqg","pricing_plan_id":"cebpf4jnsgd1na2vs0mg"},{"bike_id":"ee41233d-7057-4ec4-b3c6-63f582836de8","system_id":"levelo_inurba_marseille","lat":43.22931,"lon":5.35383,"is_reserved":false,"is_disabled":false,"rental_uris":{"android":"levelo://app?vid=ee41233d-7057-4ec4-b3c6-63f582836de8","ios":"levelo://app?vid=ee41233d-7057-4ec4-b3c6-63f582836de8"},"vehicle_type_id":"4","last_reported":1726340777,"current_range_meters":22800,"station_id":"cpo3532slgdg3j2ikp40","pricing_plan_id":"cebpf4jnsgd1na2vs0mg"},{"bike_id":"81b3bead-5af2-4066-a9eb-d6f27a6981ce","system_id":"levelo_inurba_marseille","lat":43.29261,"lon":5.38442,"is_reserved":false,"is_disabled":false,"rental_uris":{"android":"levelo://app?vid=81b3bead-5af2-4066-a9eb-d6f27a6981ce","ios":"levelo://app?vid=81b3bead-5af2-4066-a9eb-d6f27a6981ce"},"vehicle_type_id":"4","last_reported":1726340777,"current_range_meters":38800,"station_id":"ce4bh692rcd13ifvqea0","pricing_plan_id":"cebpf4jnsgd1na2vs0mg"},{"bike_id":"843b7548-7cff-46d8-a85a-f2c219d07855","system_id":"levelo_inurba_marseille","lat":43.29523,"lon":5.39034,"is_reserved":false,"is_disabled":false,"rental_uris":{"android":"levelo://app?vid=843b7548-7cff-46d8-a85a-f2c219d07855","ios":"levelo://app?vid=843b7548-7cff-46d8-a85a-f2c219d07855"},"vehicle_type_id":"4","last_reported":1726340777,"current_range_meters":38800,"station_id":"ce4bh3p2rcd13ifvqdp0","pricing_plan_id":"cebpf4jnsgd1na2vs0mg"},{"bike_id":"81885097-6a2c-40d8-aa98-df6d7d34b0b0","system_id":"levelo_inurba_marseille","lat":43.29781,"lon":5.37098,"is_reserved":false,"is_disabled":false,"rental_uris":{"android":"levelo://app?vid=81885097-6a2c-40d8-aa98-df6d7d34b0b0","ios":"levelo://app?vid=81885097-6a2c-40d8-aa98-df6d7d34b0b0"},"vehicle_type_id":"4","last_reported":1726340777,"current_range_meters":37600,"station_id":"ce4bgop2rcd13ifvqc1g","pricing_plan_id":"cebpf4jnsgd1na2vs0mg"},{"bike_id":"26c06522-5432-413b-a3df-e7dda2ccd41a","system_id":"levelo_inurba_marseille","lat":43.30652,"lon":5.40085,"is_reserved":false,"is_disabled":false,"rental_uris":{"android":"levelo://app?vid=26c06522-5432-413b-a3df-e7dda2ccd41a","ios":"levelo://app?vid=26c06522-5432-413b-a3df-e7dda2ccd41a"},"vehicle_type_id":"4","last_reported":1726340777,"current_range_meters":18000,"station_id":"ce4bh112rcd13ifvqda0","pricing_plan_id":"cebpf4jnsgd1na2vs0mg"},