{"last_updated":1748452180,"ttl":60,"version":"2.2","data":{"bikes":[{"bike_id":"19ddf677-f666-41e6-a571-99f0082e0a79","system_id":"levelo_inurba_marseille","lat":43.23107,"lon":5.36617,"is_reserved":false,"is_disabled":false,"rental_uris":{"android":"levelo://app?vid=19ddf677-f666-41e6-a571-99f0082e0a79","ios":"levelo://app?vid=19ddf677-f666-41e6-a571-99f0082e0a79"},"vehicle_type_id":"4","last_reported":1748452180,"current_range_meters":2800,"station_id":"","pricing_plan_id":"cebpf4jnsgd1na2vs0mg"},{"bike_id":"d1b44c23-2bb2-44b0-a3d7-caca0e588132","system_id":"levelo_inurba_marseille","lat":43.2738,"lon":5.36248,"is_reserved":false,"is_disabled":true,"rental_uris":{"android":"levelo://app?vid=d1b44c23-2bb2-44b0-a3d7-caca0e588132","ios":"levelo://app?vid=d1b44c23-2bb2-44b0-a3d7-caca0e588132"},"vehicle_type_id":"4","last_reported":1748452180,"current_range_meters":2800,"station_id":"ce4bhbh2rcd13ifvqeo0","pricing_plan_id":"cebpf4jnsgd1na2vs0mg"},{"bike_id":"d93ed6ae-6968-4200-979f-776199373a8e","system_id":"levelo_inurba_marseille","lat":43.27372,"lon":5.36259,"is_reserved":false,"is_disabled":false,"rental_uris":{"android":"levelo://app?vid=d93ed6ae-6968-4200-979f-776199373a8e","ios":"levelo://app?vid=d93ed6ae-6968-4200-979f-776199373a8e"},"vehicle_type_id":"4","last_reported":1748452180,"current_range_meters":2800,"station_id":"ce4bhbh2rcd13ifvqeo0","pricing_plan_id":"cebpf4jnsgd1na2vs0mg"},{"bike_id":"f66ead73-7eea-4382-a92f-4da9d52ee921","system_id":"levelo_inurba_marseille","lat":43.28611,"lon":5.37062,"is_reserved":false,"is_disabled":false,"rental_uris":{"android":"levelo://app?vid=f66ead73-7eea-4382-a92f-4da9d52ee921","ios":"levelo://app?vid=f66ead73-7eea-4382-a92f-4da9d52ee921"},"vehicle_type_id":"4","last_reported":1748452180,"current_range_meters":2800,"station_id":"ce4bht12rcd13ifvqi60","pricing_plan_id":"cebpf4jnsgd1na2vs0mg"},{"bike_id":"d38b9320-b423-4fdf-b5b4-46ce95e5032c","system_id":"levelo_inurba_marseille","lat":43.295685,"lon":5.37522,"is_reserved":false,"is_disabled":false,"rental_uris":{"android":"levelo://app?vid=d38b9320-b423-4fdf-b5b4-46ce95e5032c","ios":"levelo://app?vid=d38b9320-b423-4fdf-b5b4-46ce95e5032c"},"vehicle_type_id":"4","last_reported":1748452180,"current_range_meters":5600,"station_id":"ce4bgh92rcd13ifvqb50","pricing_plan_id":"cebpf4jnsgd1na2vs0mg"},{"bike_id":"009c7637-3467-4dc7-a917-cb868df481eb","system_id":"levelo_inurba_marseille","lat":43.27211,"lon":5.39178,"is_reserved":false,"is_disabled":false,"rental_uris":{"android":"levelo://app?vid=009c7637-3467-4dc7-a917-cb868df481eb","ios":"levelo://app?vid=009c7637-3467-4dc7-a917-cb868df481eb"},"vehicle_type_id":"4","last_reported":1748452180,"current_range_meters":3200,"station_id":"ce4bhhp2rcd13ifvqfm0","pricing_plan_id":"cebpf4jnsgd1na2vs0mg"},{"bike_id":"f4c45e95-54cf-46e5-83c5-d89c27c9a69c","system_id":"levelo_inurba_marseille","lat":43.27302,"lon":5.41593,"is_reserved":false,"is_disabled":false,"rental_uris":{"android":"levelo://app?vid=f4c45e95-54cf-46e5-83c5-d89c27c9a69c","ios":"levelo://app?vid=f4c45e95-54cf-46e5-83c5-d89c27c9a69c"},"vehicle_type_id":"4","last_reported":1748452180,"current_range_meters":3200,"station_id":"","pricing_plan_id":"cebpf4jnsgd1na2vs0mg"},{"bike_id":"f9591eb7-11c8-4b0c-89b7-c96c0496a08c","system_id":"levelo_inurba_marseille","lat":43.28344,"lon":5.38119,"is_reserved":false,"is_disabled":false,"rental_uris":{"android":"levelo://app?vid=f9591eb7-11c8-4b0c-89b7-c96c0496a08c","ios":"levelo://app?vid=f9591eb7-11c8-4b0c-89b7-c96c0496a08c"},"vehicle_type_id":"4","last_reported":1748452180,"current_range_meters":3200,"station_id":"ce4bh412rcd13ifvqdr0","pricing_plan_id":"cebpf4jnsgd1na2vs0mg"},{"bike_id":"6f4391f2-3774-4db6-8939-25867f3539fc","system_id":"levelo_inurba_marseille","lat":43.29705,"lon":5.36615,"is_reserved":false,"is_disabled":false,"rental_uris":{"android":"levelo://app?vid=6f4391f2-3774-4db6-8939-25867f3539fc","ios":"levelo://app?vid=6f4391f2-3774-4db6-8939-25867f3539fc"},"vehicle_type_id":"4","last_reported":1748452180,"current_range_meters":3200,"station_id":"ce4bgn12rcd13ifvqbt0","pricing_plan_id":"cebpf4jnsgd1na2vs0mg"},{"bike_id":"19f089c8-ece4-4eb7-b6fe-ffe7e904e503","system_id":"levelo_inurba_marseille","lat":43.28956,"lon":5.36741,"is_reserved":false,"is_disabled":false,"rental_uris":{"android":"levelo://app?vid=19f089c8-ece4-4eb7-b6fe-ffe7e904e503","ios":"levelo://app?vid=19f089c8-ece4-4eb7-b6fe-ffe7e904e503"},"vehicle_type_id":"4","last_reported":1748452180,"current_range_meters":3200,"station_id":"","pricing_plan_id":"cebpf4jnsgd1na2vs0mg"},{"bike_id":"df0333ea-97a2-4b49-96ac-15d5cd3b4da1","system_id":"levelo_inurba_marseille","lat":43.273753,"lon":5.362551,"is_reserved":false,"is_disabled":false,"rental_uris":{"android":"levelo://app?vid=df0333ea-97a2-4b49-96ac-15d5cd3b4da1","ios":"levelo://app?vid=df0333ea-97a2-4b49-96ac-15d5cd3b4da1"},"vehicle_type_id":"4","last_reported":1748452180,"current_range_meters":3600,"station_id":"ce4bhbh2rcd13ifvqeo0","pricing_plan_id":"cebpf4jnsgd1na2vs0mg"},{"bike_id":"5072203d-5dfc-4fb1-990d-bcdd043784ae","system_id":"levelo_inurba_marseille","lat":43.29521,"lon":5.39036,"is_reserved":false,"is_disabled":false,"rental_uris":{"android":"levelo://app?vid=5072203d-5dfc-4fb1-990d-bcdd043784ae","ios":"levelo://app?vid=5072203d-5dfc-4fb1-990d-bcdd043784ae"},"vehicle_type_id":"4","last_reported":1748452180,"current_range_meters":3200,"station_id":"ce4bh3p2rcd13ifvqdp0","pricing_plan_id":"cebpf4jnsgd1na2vs0mg"},{"bike_id":"ac4ac99a-eaf1-4db7-8f3d-d6e6d4d74913","system_id":"levelo_inurba_marseille","lat":43.27619,"lon":5.36106,"is_reserved":false,"is_disabled":false,"rental_uris":{"android":"levelo://app?vid=ac4ac99a-eaf1-4db7-8f3d-d6e6d4d74913","ios":"levelo://app?vid=ac4ac99a-eaf1-4db7-8f3d-d6e6d4d74913"},"vehicle_type_id":"4","last_reported":1748452180,"current_range_meters":3600,"station_id":"ce4bgj92rcd13ifvqbe0","pricing_plan_id":"cebpf4jnsgd1na2vs0mg"},{"bike_id":"bf2da220-dc7c-4b4c-b20a-6f1cf3b2e429","system_id":"levelo_inurba_marseille","lat":43.28602,"lon":5.37076,"is_reserved":false,"is_disabled":false,"rental_uris":{"android":"levelo://app?vid=bf2da220-dc7c-4b4c-b20a-6f1cf3b2e429","ios":"levelo://app?vid=bf2da220-dc7c-4b4c-b20a-6f1cf3b2e429"},"vehicle_type_id":"4","last_reported":1748452180,"current_range_meters":3600,"station_id":"ce4bht12rcd13ifvqi60","pricing_plan_id":"cebpf4jnsgd1na2vs0mg"},{"bike_id":"ab92c5c6-e221-43b6-b8b1-24e683c93183","system_id":"levelo_inurba_marseille","lat":43.30793,"lon":5.38167,"is_reserved":false,"is_disabled":false,"rental_uris":{"android":"levelo://app?vid=ab92c5c6-e221-43b6-b8b1-24e683c93183","ios":"levelo://app?vid=ab92c5c6-e221-43b6-b8b1-24e683c93183"},"vehicle_type_id":"4","last_reported":1748452180,"current_range_meters":3200,"station_id":"ce4bgt12rcd13ifvqce0","pricing_plan_id":"cebpf4jnsgd1na2vs0mg"},{"bike_id":"29779e24-23d9-4101-91cf-d3c0ddb05272","system_id":"levelo_inurba_marseille","lat":43.31325,"lon":5.3969,"is_reserved":false,"is_disabled":false,"rental_uris":{"android":"levelo://app?vid=29779e24-23d9-4101-91cf-d3c0ddb05272","ios":"levelo://app?vid=29779e24-23d9-4101-91cf-d3c0ddb05272"},"vehicle_type_id":"4","last_reported":1748452180,"current_range_meters":3200,"station_id":"ce4bgvp2rcd13ifvqcu0","pricing_plan_id":"cebpf4jnsgd1na2vs0mg"},{"bike_id":"52dae7ea-0fb5-41a1-af27-3e1e27c580bf","system_id":"levelo_inurba_marseille","lat":43.29969,"lon":5.37194,"is_reserved":false,"is_disabled":false,"rental_uris":{"android":"levelo://app?vid=52dae7ea-0fb5-41a1-af27-3e1e27c580bf","ios":"levelo://app?vid=52dae7ea-0fb5-41a1-af27-3e1e27c580bf"},"vehicle_type_id":"4","last_reported":1748452180,"current_range_meters":3200,"station_id":"ce4bgr92rcd13ifvqc7g","pricing_plan_id":"cebpf4jnsgd1na2vs0mg"},{"bike_id":"1326ca86-6637-42bd-813e-5ceee25453d9","system_id":"levelo_inurba_marseille","lat":43.26553,"lon":5.38563,"is_reserved":false,"is_disabled":false,"rental_uris":{"android":"levelo://app?vid=1326ca86-6637-42bd-813e-5ceee25453d9","ios":"levelo://app?vid=1326ca86-6637-42bd-813e-5ceee25453d9"},"vehicle_type_id":"4","last_reported":1748452180,"current_range_meters":4000,"station_id":"","pricing_plan_id":"cebpf4jnsgd1na2vs0mg"},{"bike_id":"9b269245-910e-4f0a-a7a6-06d556955c3c","system_id":"levelo_inurba_marseille","lat":43.262268,"lon":5.404424,"is_reserved":false,"is_disabled":false,"rental_uris":{"android":"levelo://app?vid=9b269245-910e-4f0a-a7a6-06d556955c3c","ios":"levelo://app?vid=9b269245-910e-4f0a-a7a6-06d556955c3c"},"vehicle_type_id":"4","last_reported":1748452180,"current_range_meters":4000,"station_id":"","pricing_plan_id":"cebpf4jnsgd1na2vs0mg"},{"bike_id":"946517ad-5b08-4b28-b1b0-93ea2f8c9cf4","system_id":"levelo_inurba_marseille","lat":43.29443,"lon":5.37952,"is_reserved":false,"is_disabled":false,"rental_uris":{"android":"levelo://app?vid=946517ad-5b08-4b28-b1b0-93ea2f8c9cf4","ios":"levelo://app?vid=946517ad-5b08-4b28-b1b0-93ea2f8c9cf4"},"vehicle_type_id":"4","last_reported":1748452180,"current_range_meters":4000,"station_id":"","pricing_plan_id":"cebpf4jnsgd1na2vs0mg"},{"bike_id":"dd3a65ba-b06d-471e-a127-922317010a39","system_id":"levelo_inurba_marseille","lat":43.28719,"lon":5.37949,"is_reserved":false,"is_disabled":false,"rental_uris":{"android":"levelo://app?vid=dd3a65ba-b06d-471e-a127-922317010a39","ios":"levelo://app?vid=dd3a65ba-b06d-471e-a127-922317010a39"},"vehicle_type_id":"4","last_reported":1748452180,"current_range_meters":4000,"station_id":"","pricing_plan_id":"cebpf4jnsgd1na2vs0mg"},{"bike_id":"1eaa2f95-f2f1-4d95-a4e5-a1d8d0412a10","system_id":"levelo_inurba_marseille","lat":43.28667,"lon":5.38663,"is_reserved":false,"is_disabled":false,"rental_uris":{"android":"levelo://app?vid=1eaa2f95-f2f1-4d95-a4e5-a1d8d0412a10","ios":"levelo://app?vid=1eaa2f95-f2f1-4d95-a4e5-a1d8d0412a10"},"vehicle_type_id":"4","last_reported":1748452180,"current_range_meters":4000,"station_id":"ce4bh492rcd13ifvqdug","pricing_plan_id":"cebpf4jnsgd1na2vs0mg"},{"bike_id":"fb1f9cd6-b08e-42d6-a07f-aca54c42f1f6","system_id":"levelo_inurba_marseille","lat":43.28928,"lon":5.38394,"is_reserved":false,"is_disabled":false,"rental_uris":{"android":"levelo://app?vid=fb1f9cd6-b08e-42d6-a07f-aca54c42f1f6","ios":"levelo://app?vid=fb1f9cd6-b08e-42d6-a07f-aca54c42f1f6"},"vehicle_type_id":"4","last_reported":1748452180,"current_range_meters":4800,"station_id":"ce4bh612rcd13ifvqe6g","pricing_plan_id":"cebpf4jnsgd1na2vs0mg"},{"bike_id":"b8b0e371-c798-4c38-910b-db3602d53e81","system_id":"levelo_inurba_marseille","lat":43.24802,"lon":5.37455,"is_reserved":false,"is_disabled":false,"rental_uris":{"android":"levelo://app?vid=b8b0e371-c798-4c38-910b-db3602d53e81","ios":"levelo://app?vid=b8b0e371-c798-4c38-910b-db3602d53e81"},"vehicle_type_id":"4","last_reported":1748452180,"current_range_meters":4800,"station_id":"ce4bhgh2rcd13ifvqfb0","pricing_plan_id":"cebpf4jnsgd1na2vs0mg"},{"bike_id":"2c985f13-a0fb-4a41-9d7d-cef310e90435","system_id":"levelo_inurba_marseille","lat":43.293049,"lon":5.374678,"is_reserved":false,"is_disabled":false,"rental_uris":{"android":"levelo://app?vid=2c985f13-a0fb-4a41-9d7d-cef310e90435","ios":"levelo://app?vid=2c985f13-a0fb-4a41-9d7d-cef310e90435"},"vehicle_type_id":"4","last_reported":1748452180,"current_range_meters":4800,"station_id":"ce4bgi12rcd13ifvqb70","pricing_plan_id":"cebpf4jnsgd1na2vs0mg"},{"bike_id":"daec2789-c843-4775-8f11-47111fa2e87e","system_id":"levelo_inurba_marseille","lat":43.29067,"lon":5.37145,"is_reserved":false,"is_disabled":false,"rental_uris":{"android":"levelo://app?vid=daec2789-c843-4775-8f11-47111fa2e87e","ios":"levelo://app?vid=daec2789-c843-4775-8f11-47111fa2e87e"},"vehicle_type_id":"4","last_reported":1748452180,"current_range_meters":4400,"station_id":"ce4bh5p2rcd13ifvqe4g","pricing_plan_id":"cebpf4jnsgd1na2vs0mg"},{"bike_id":"a50a24ea-9206-4997-ba29-b0c236f676cf","system_id":"levelo_inurba_marseille","lat":43.2797,"lon":5.38745,"is_reserved":false,"is_disabled":false,"rental_uris":{"android":"levelo://app?vid=a50a24ea-9206-4997-ba29-b0c236f676cf","ios":"levelo://app?vid=a50a24ea-9206-4997-ba29-b0c236f676cf"},"vehicle_type_id":"4","last_reported":1748452180,"current_range_meters":4800,"station_id":"ce4bhg12rcd13ifvqf80","pricing_plan_id":"cebpf4jnsgd1na2vs0mg"},{"bike_id":"70d3072c-0b9b-43d1-b0d2-7c5e4f33b840","system_id":"levelo_inurba_marseille","lat":43.3149,"lon":5.37289,"is_reserved":false,"is_disabled":false,"rental_uris":{"android":"levelo://app?vid=70d3072c-0b9b-43d1-b0d2-7c5e4f33b840","ios":"levelo://app?vid=70d3072c-0b9b-43d1-b0d2-7c5e4f33b840"},"vehicle_type_id":"4","last_reported":1748452180,"current_range_meters":4400,"station_id":"ce4bgt12rcd13ifvqcd0","pricing_plan_id":"cebpf4jnsgd1na2vs0mg"},{"bike_id":"c2dfaf07-764f-4e07-a44e-0525a2f9f08f","system_id":"levelo_inurba_marseille","lat":43.262087,"lon":5.374415,"is_reserved":false,"is_disabled":false,"rental_uris":{"android":"levelo://app?vid=c2dfaf07-764f-4e07-a44e-0525a2f9f08f","ios":"levelo://app?vid=c2dfaf07-764f-4e07-a44e-0525a2f9f08f"},"vehicle_type_id":"4","last_reported":1748452180,"current_range_meters":4800,"station_id":"","pricing_plan_id":"cebpf4jnsgd1na2vs0mg"},{"bike_id":"cb91e7c8-032e-485c-a2a6-e9949f4f2a5c","system_id":"levelo_inurba_marseille","lat":43.28413,"lon":5.35003,"is_reserved":false,"is_disabled":false,"rental_uris":{"android":"levelo://app?vid=cb91e7c8-032e-485c-a2a6-e9949f4f2a5c","ios":"levelo://app?vid=cb91e7c8-032e-485c-a2a6-e9949f4f2a5c"},"vehicle_type_id":"4","last_reported":1748452180,"current_range_meters":4800,"station_id":"ce4bhbh2rcd13ifvqepg","pricing_plan_id":"cebpf4jnsgd1na2vs0mg"},{"bike_id":"cc417db4-7a17-4f7b-8ebb-9b45802cdd1d","system_id":"levelo_inurba_marseille","lat":43.28269,"lon":5.35061,"is_reserved":false,"is_disabled":false,"rental_uris":{"android":"levelo://app?vid=cc417db4-7a17-4f7b-8ebb-9b45802cdd1d","ios":"levelo://app?vid=cc417db4-7a17-4f7b-8ebb-9b45802cdd1d"},"vehicle_type_id":"4","last_reported":1748452180,"current_range_meters":5600,"station_id":"ce4bhbp2rcd13ifvqerg","pricing_plan_id":"cebpf4jnsgd1na2vs0mg"},{"bike_id":"92df7220-bc98-473e-9bf6-37cdaf612f8e","system_id":"levelo_inurba_marseille","lat":43.28442,"lon":5.39206,"is_reserved":false,"is_disabled":false,"rental_uris":{"android":"levelo://app?vid=92df7220-bc98-473e-9bf6-37cdaf612f8e","ios":"levelo://app?vid=92df7220-bc98-473e-9bf6-37cdaf612f8e"},"vehicle_type_id":"4","last_reported":1748452180,"current_range_meters":5600,"station_id":"ce4bhoh2rcd13ifvqh5g","pricing_plan_id":"cebpf4jnsgd1na2vs0mg"},{"bike_id":"4f42b6d1-91a4-41c9-b8f2-ef79c97a9505","system_id":"levelo_inurba_marseille","lat":43.28267,"lon":5.35067,"is_reserved":false,"is_disabled":false,"rental_uris":{"android":"levelo://app?vid=4f42b6d1-91a4-41c9-b8f2-ef79c97a9505","ios":"levelo://app?vid=4f42b6d1-91a4-41c9-b8f2-ef79c97a9505"},"vehicle_type_id":"4","last_reported":1748452180,"current_range_meters":5600,"station_id":"ce4bhbp2rcd13ifvqerg","pricing_plan_id":"cebpf4jnsgd1na2vs0mg"},{"bike_id":"4a713586-e607-491b-9e27-f9ee0b24682c","system_id":"levelo_inurba_marseille","lat":43.28933,"lon":5.3962,"is_reserved":false,"is_disabled":false,"rental_uris":{"android":"levelo://app?vid=4a713586-e607-491b-9e27-f9ee0b24682c","ios":"levelo://app?vid=4a713586-e607-491b-9e27-f9ee0b24682c"},"vehicle_type_id":"4","last_reported":1748452180,"current_range_meters":5600,"station_id":"ce4bh3h2rcd13ifvqdn0","pricing_plan_id":"cebpf4jnsgd1na2vs0mg"},{"bike_id":"7f394dae-1060-4389-a733-16dab1f8c151","system_id":"levelo_inurba_marseille","lat":43.28678,"lon":5.36339,"is_reserved":false,"is_disabled":false,"rental_uris":{"android":"levelo://app?vid=7f394dae-1060-4389-a733-16dab1f8c151","ios":"levelo://app?vid=7f394dae-1060-4389-a733-16dab1f8c151"},"vehicle_type_id":"4","last_reported":1748452180,"current_range_meters":4800,"station_id":"ce4bhah2rcd13ifvqej0","pricing_plan_id":"cebpf4jnsgd1na2vs0mg"},{"bike_id":"81cf1954-e19b-4245-b255-aabd9d2159c3","system_id":"levelo_inurba_marseille","lat":43.31883,"lon":5.40734,"is_reserved":false,"is_disabled":false,"rental_uris":{"android":"levelo://app?vid=81cf1954-e19b-4245-b255-aabd9d2159c3","ios":"levelo://app?vid=81cf1954-e19b-4245-b255-aabd9d2159c3"},"vehicle_type_id":"4","last_reported":1748452180,"current_range_meters":4800,"station_id":"ce4bhq12rcd13ifvqhig","pricing_plan_id":"cebpf4jnsgd1na2vs0mg"},{"bike_id":"0b79bd6b-0c27-4b27-89c3-0d6b8b399ca4","system_id":"levelo_inurba_marseille","lat":43.30428,"lon":5.38888,"is_reserved":false,"is_disabled":false,"rental_uris":{"android":"levelo://app?vid=0b79bd6b-0c27-4b27-89c3-0d6b8b399ca4","ios":"levelo://app?vid=0b79bd6b-0c27-4b27-89c3-0d6b8b399ca4"},"vehicle_type_id":"4","last_reported":1748452180,"current_range_meters":5600,"station_id":"ce4bgk12rcd13ifvqbi0","pricing_plan_id":"cebpf4jnsgd1na2vs0mg"},{"bike_id":"758d5ba0-2414-4ac4-93c9-78a4f16732e5","system_id":"levelo_inurba_marseille","lat":43.28184,"lon":5.39064,"is_reserved":false,"is_disabled":false,"rental_uris":{"android":"levelo://app?vid=758d5ba0-2414-4ac4-93c9-78a4f16732e5","ios":"levelo://app?vid=758d5ba0-2414-4ac4-93c9-78a4f16732e5"},"vehicle_type_id":"4","last_reported":1748452180,"current_range_meters":5600,"station_id":"","pricing_plan_id":"cebpf4jnsgd1na2vs0mg"},{"bike_id":"58f6d118-6190-43fd-8fd1-a2ef27108c39","system_id":"levelo_inurba_marseille","lat":43.27821,"lon":5.4071,"is_reserved":false,"is_disabled":false,"rental_uris":{"android":"levelo://app?vid=58f6d118-6190-43fd-8fd1-a2ef27108c39","ios":"levelo://app?vid=58f6d118-6190-43fd-8fd1-a2ef27108c39"},"vehicle_type_id":"4","last_reported":1748452180,"current_range_meters":5600,"station_id":"ce4bhnh2rcd13ifvqgtg","pricing_plan_id":"cebpf4jnsgd1na2vs0mg"},{"bike_id":"44d28b68-163f-4276-8c3f-56d396297c01","system_id":"levelo_inurba_marseille","lat":43.24809,"lon":5.37459,"is_reserved":false,"is_disabled":false,"rental_uris":{"android":"levelo://app?vid=44d28b68-163f-4276-8c3f-56d396297c01","ios":"levelo://app?vid=44d28b68-163f-4276-8c3f-56d396297c01"},"vehicle_type_id":"4","last_reported":1748452180,"current_range_meters":5600,"station_id":"","pricing_plan_id":"cebpf4jnsgd1na2vs0mg"},{"bike_id":"bdc64a61-35cf-42a7-a6a7-10809679bc28","system_id":"levelo_inurba_marseille","lat":43.28664,"lon":5.3635,"is_reserved":false,"is_disabled":false,"rental_uris":{"android":"levelo://app?vid=bdc64a61-35cf-42a7-a6a7-10809679bc28","ios":"levelo://app?vid=bdc64a61-35cf-42a7-a6a7-10809679bc28"},"vehicle_type_id":"4","last_reported":1748452180,"current_range_meters":6000,"station_id":"ce4bhah2rcd13ifvqej0","pricing_plan_id":"cebpf4jnsgd1na2vs0mg"},{"bike_id":"17cf0187-bac6-47a8-ae43-a7236a0af0e9","system_id":"levelo_inurba_marseille","lat":43.30244,"lon":5.40082,"is_reserved":false,"is_disabled":true,"rental_uris":{"android":"levelo://app?vid=17cf0187-bac6-47a8-ae43-a7236a0af0e9","ios":"levelo://app?vid=17cf0187-bac6-47a8-ae43-a7236a0af0e9"},"vehicle_type_id":"4","last_reported":1748452180,"current_range_meters":6000,"station_id":"ce4bgvh2rcd13ifvqcs0","pricing_plan_id":"cebpf4jnsgd1na2vs0mg"},{"bike_id":"fcf1ae4d-d333-489a-8f36-9d5ebf683dd1","system_id":"levelo_inurba_marseille","lat":43.24811,"lon":5.37459,"is_reserved":false,"is_disabled":false,"rental_uris":{"android":"levelo://app?vid=fcf1ae4d-d333-489a-8f36-9d5ebf683dd1","ios":"levelo://app?vid=fcf1ae4d-d333-489a-8f36-9d5ebf683dd1"},"vehicle_type_id":"4","last_reported":1748452180,"current_range_meters":5600,"station_id":"ce4bhgh2rcd13ifvqfb0","pricing_plan_id":"cebpf4jnsgd1na2vs0mg"},{"bike_id":"a75e3724-daf4-48c7-b709-faf115839eb7","system_id":"levelo_inurba_marseille","lat":43.28841,"lon":5.39309,"is_reserved":false,"is_disabled":false,"rental_uris":{"android":"levelo://app?vid=a75e3724-daf4-48c7-b709-faf115839eb7","ios":"levelo://app?vid=a75e3724-daf4-48c7-b709-faf115839eb7"},"vehicle_type_id":"4","last_reported":1748452180,"current_range_meters":6400,"station_id":"ce4bh2p2rcd13ifvqdi0","pricing_plan_id":"cebpf4jnsgd1na2vs0mg"},{"bike_id":"42559f8f-0698-4a04-a897-43d40360ff1d","system_id":"levelo_inurba_marseille","lat":43.28417,"lon":5.34978,"is_reserved":false,"is_disabled":true,"rental_uris":{"android":"levelo://app?vid=42559f8f-0698-4a04-a897-43d40360ff1d","ios":"levelo://app?vid=42559f8f-0698-4a04-a897-43d40360ff1d"},"vehicle_type_id":"4","last_reported":1748452180,"current_range_meters":6400,"station_id":"ce4bhbh2rcd13ifvqepg","pricing_plan_id":"cebpf4jnsgd1na2vs0mg"},{"bike_id":"1b46a04d-ce9d-4c1a-ac48-b3fe2289bd0a","system_id":"levelo_inurba_marseille","lat":43.2705,"lon":5.40258,"is_reserved":false,"is_disabled":false,"rental_uris":{"android":"levelo://app?vid=1b46a04d-ce9d-4c1a-ac48-b3fe2289bd0a","ios":"levelo://app?vid=1b46a04d-ce9d-4c1a-ac48-b3fe2289bd0a"},"vehicle_type_id":"4","last_reported":1748452180,"current_range_meters":6400,"station_id":"ce4bhk92rcd13ifvqgc0","pricing_plan_id":"cebpf4jnsgd1na2vs0mg"},{"bike_id":"689a6274-c411-4f37-a24f-fe1c8cfb9a6b","system_id":"levelo_inurba_marseille","lat":43.29154,"lon":5.37156,"is_reserved":false,"is_disabled":false,"rental_uris":{"android":"levelo://app?vid=689a6274-c411-4f37-a24f-fe1c8cfb9a6b","ios":"levelo://app?vid=689a6274-c411-4f37-a24f-fe1c8cfb9a6b"},"vehicle_type_id":"4","last_reported":1748452180,"current_range_meters":6400,"station_id":"ce4bha92rcd13ifvqeh0","pricing_plan_id":"cebpf4jnsgd1na2vs0mg"},{"bike_id":"61a32f25-1250-42c5-8fd1-25bb417ce490","system_id":"levelo_inurba_marseille","lat":43.30212,"lon":5.39472,"is_reserved":false,"is_disabled":false,"rental_uris":{"android":"levelo://app?vid=61a32f25-1250-42c5-8fd1-25bb417ce490","ios":"levelo://app?vid=61a32f25-1250-42c5-8fd1-25bb417ce490"},"vehicle_type_id":"4","last_reported":1748452180,"current_range_meters":6000,"station_id":"ce4bh0p2rcd13ifvqd70","pricing_plan_id":"cebpf4jnsgd1na2vs0mg"},{"bike_id":"5f47b60f-5133-4f98-be20-e16f7120fdb8","system_id":"levelo_inurba_marseille","lat":43.27946,"lon":5.41049,"is_reserved":false,"is_disabled":false,"rental_uris":{"android":"levelo://app?vid=5f47b60f-5133-4f98-be20-e16f7120fdb8","ios":"levelo://app?vid=5f47b60f-5133-4f98-be20-e16f7120fdb8"},"vehicle_type_id":"4","last_reported":1748452180,"current_range_meters":6800,"station_id":"ce4bhnp2rcd13ifvqh0g","pricing_plan_id":"cebpf4jnsgd1na2vs0mg"},{"bike_id":"c5e7be66-cd87-4a1a-9491-619fe368c7e8","system_id":"levelo_inurba_marseille","lat":43.27073,"lon":5.42287,"is_reserved":false,"is_disabled":false,"rental_uris":{"android":"levelo://app?vid=c5e7be66-cd87-4a1a-9491-619fe368c7e8","ios":"levelo://app?vid=c5e7be66-cd87-4a1a-9491-619fe368c7e8"},"vehicle_type_id":"4","last_reported":1748452180,"current_range_meters":6800,"station_id":"ce4bhk92rcd13ifvqgb0","pricing_plan_id":"cebpf4jnsgd1na2vs0mg"},{"bike_id":"ff085f1b-805c-480e-b51c-f246228c7f32","system_id":"levelo_inurba_marseille","lat":43.28464,"lon":5.35885,"is_reserved":false,"is_disabled":false,"rental_uris":{"android":"levelo://app?vid=ff085f1b-805c-480e-b51c-f246228c7f32","ios":"levelo://app?vid=ff085f1b-805c-480e-b51c-f246228c7f32"},"vehicle_type_id":"4","last_reported":1748452180,"current_range_meters":6800,"station_id":"ce4bhah2rcd13ifvqei0","pricing_plan_id":"cebpf4jnsgd1na2vs0mg"},{"bike_id":"ab3a191d-783a-49a5-aac7-010ad5fbcc86","system_id":"levelo_inurba_marseille","lat":43.2953,"lon":5.37512,"is_reserved":false,"is_disabled":true,"rental_uris":{"android":"levelo://app?vid=ab3a191d-783a-49a5-aac7-010ad5fbcc86","ios":"levelo://app?vid=ab3a191d-783a-49a5-aac7-010ad5fbcc86"},"vehicle_type_id":"4","last_reported":1748452180,"current_range_meters":6800,"station_id":"ce4bgkp2rcd13ifvqbmg","pricing_plan_id":"cebpf4jnsgd1na2vs0mg"},{"bike_id":"a5f90b1e-a09e-40ad-8d54-7442721c8689","system_id":"levelo_inurba_marseille","lat":43.245983,"lon":5.393086,"is_reserved":false,"is_disabled":false,"rental_uris":{"android":"levelo://app?vid=a5f90b1e-a09e-40ad-8d54-7442721c8689","ios":"levelo://app?vid=a5f90b1e-a09e-40ad-8d54-7442721c8689"},"vehicle_type_id":"4","last_reported":1748452180,"current_range_meters":6800,"station_id":"","pricing_plan_id":"cebpf4jnsgd1na2vs0mg"},{"bike_id":"0e298602-0967-4a15-8f4b-da3075b94a79","system_id":"levelo_inurba_marseille","lat":43.24811,"lon":5.37457,"is_reserved":false,"is_disabled":false,"rental_uris":{"android":"levelo://app?vid=0e298602-0967-4a15-8f4b-da3075b94a79","ios":"levelo://app?vid=0e298602-0967-4a15-8f4b-da3075b94a79"},"vehicle_type_id":"4","last_reported":1748452180,"current_range_meters":6800,"station_id":"ce4bhgh2rcd13ifvqfb0","pricing_plan_id":"cebpf4jnsgd1na2vs0mg"},{"bike_id":"6c2de08b-b6d5-4231-a475-90c1d89910a7","system_id":"levelo_inurba_marseille","lat":43.2902,"lon":5.38134,"is_reserved":false,"is_disabled":false,"rental_uris":{"android":"levelo://app?vid=6c2de08b-b6d5-4231-a475-90c1d89910a7","ios":"levelo://app?vid=6c2de08b-b6d5-4231-a475-90c1d89910a7"},"vehicle_type_id":"4","last_reported":1748452180,"current_range_meters":6800,"station_id":"ce4bh4p2rcd13ifvqe1g","pricing_plan_id":"cebpf4jnsgd1na2vs0mg"},{"bike_id":"87b395fb-0dfd-464d-b68d-3afc622e0d48","system_id":"levelo_inurba_marseille","lat":43.295461,"lon":5.394724,"is_reserved":false,"is_disabled":false,"rental_uris":{"android":"levelo://app?vid=87b395fb-0dfd-464d-b68d-3afc622e0d48","ios":"levelo://app?vid=87b395fb-0dfd-464d-b68d-3afc622e0d48"},"vehicle_type_id":"4","last_reported":1748452180,"current_range_meters":7200,"station_id":"","pricing_plan_id":"cebpf4jnsgd1na2vs0mg"},{"bike_id":"e825b1a8-712e-4c98-92bb-1a8eec401e97","system_id":"levelo_inurba_marseille","lat":43.27381,"lon":5.36256,"is_reserved":false,"is_disabled":false,"rental_uris":{"android":"levelo://app?vid=e825b1a8-712e-4c98-92bb-1a8eec401e97","ios":"levelo://app?vid=e825b1a8-712e-4c98-92bb-1a8eec401e97"},"vehicle_type_id":"4","last_reported":1748452180,"current_range_meters":7200,"station_id":"ce4bhbh2rcd13ifvqeo0","pricing_plan_id":"cebpf4jnsgd1na2vs0mg"},{"bike_id":"5fbcd71c-581a-40fa-8b08-9dbb1c321e65","system_id":"levelo_inurba_marseille","lat":43.29038,"lon":5.39961,"is_reserved":false,"is_disabled":false,"rental_uris":{"android":"levelo://app?vid=5fbcd71c-581a-40fa-8b08-9dbb1c321e65","ios":"levelo://app?vid=5fbcd71c-581a-40fa-8b08-9dbb1c321e65"},"vehicle_type_id":"4","last_reported":1748452180,"current_range_meters":7200,"station_id":"ce4bh392rcd13ifvqdm0","pricing_plan_id":"cebpf4jnsgd1na2vs0mg"},{"bike_id":"97d940e7-c435-4d7e-99a4-dd30dc73ede1","system_id":"levelo_inurba_marseille","lat":43.22933,"lon":5.35378,"is_reserved":false,"is_disabled":false,"rental_uris":{"android":"levelo://app?vid=97d940e7-c435-4d7e-99a4-dd30dc73ede1","ios":"levelo://app?vid=97d940e7-c435-4d7e-99a4-dd30dc73ede1"},"vehicle_type_id":"4","last_reported":1748452180,"current_range_meters":7200,"station_id":"cpo3532slgdg3j2ikp40","pricing_plan_id":"cebpf4jnsgd1na2vs0mg"},{"bike_id":"af0e0e1f-8d97-48d4-a710-8dfcf3b40e0f","system_id":"levelo_inurba_marseille","lat":43.29742,"lon":5.36628,"is_reserved":false,"is_disabled":false,"rental_uris":{"android":"levelo://app?vid=af0e0e1f-8d97-48d4-a710-8dfcf3b40e0f","ios":"levelo://app?vid=af0e0e1f-8d97-48d4-a710-8dfcf3b40e0f"},"vehicle_type_id":"4","last_reported":1748452180,"current_range_meters":7200,"station_id":"ce4bgn12rcd13ifvqbt0","pricing_plan_id":"cebpf4jnsgd1na2vs0mg"},{"bike_id":"74aa318a-95d3-455f-bd8e-77e12322a696","system_id":"levelo_inurba_marseille","lat":43.27981,"lon":5.38751,"is_reserved":false,"is_disabled":false,"rental_uris":{"android":"levelo://app?vid=74aa318a-95d3-455f-bd8e-77e12322a696","ios":"levelo://app?vid=74aa318a-95d3-455f-bd8e-77e12322a696"},"vehicle_type_id":"4","last_reported":1748452180,"current_range_meters":7200,"station_id":"ce4bhg12rcd13ifvqf80","pricing_plan_id":"cebpf4jnsgd1na2vs0mg"},{"bike_id":"1f982034-88ac-4b10-b933-96a5d94ec670","system_id":"levelo_inurba_marseille","lat":43.28405,"lon":5.37506,"is_reserved":false,"is_disabled":false,"rental_uris":{"android":"levelo://app?vid=1f982034-88ac-4b10-b933-96a5d94ec670","ios":"levelo://app?vid=1f982034-88ac-4b10-b933-96a5d94ec670"},"vehicle_type_id":"4","last_reported":1748452180,"current_range_meters":7200,"station_id":"ce4bh412rcd13ifvqds0","pricing_plan_id":"cebpf4jnsgd1na2vs0mg"},{"bike_id":"1a9deaa6-5b0b-41ea-a3a0-9c49f0de8473","system_id":"levelo_inurba_marseille","lat":43.29335,"lon":5.41163,"is_reserved":false,"is_disabled":false,"rental_uris":{"android":"levelo://app?vid=1a9deaa6-5b0b-41ea-a3a0-9c49f0de8473","ios":"levelo://app?vid=1a9deaa6-5b0b-41ea-a3a0-9c49f0de8473"},"vehicle_type_id":"4","last_reported":1748452180,"current_range_meters":7200,"station_id":"","pricing_plan_id":"cebpf4jnsgd1na2vs0mg"},{"bike_id":"129c0dd7-cf85-4d61-bd73-de2e6ebb31c2","system_id":"levelo_inurba_marseille","lat":43.29615,"lon":5.38107,"is_reserved":false,"is_disabled":false,"rental_uris":{"android":"levelo://app?vid=129c0dd7-cf85-4d61-bd73-de2e6ebb31c2","ios":"levelo://app?vid=129c0dd7-cf85-4d61-bd73-de2e6ebb31c2"},"vehicle_type_id":"4","last_reported":1748452180,"current_range_meters":8000,"station_id":"ce4bgl12rcd13ifvqbo0","pricing_plan_id":"cebpf4jnsgd1na2vs0mg"},{"bike_id":"49457836-28e0-4521-bd17-3e993e098294","system_id":"levelo_inurba_marseille","lat":43.27818,"lon":5.40729,"is_reserved":false,"is_disabled":false,"rental_uris":{"android":"levelo://app?vid=49457836-28e0-4521-bd17-3e993e098294","ios":"levelo://app?vid=49457836-28e0-4521-bd17-3e993e098294"},"vehicle_type_id":"4","last_reported":1748452180,"current_range_meters":8000,"station_id":"ce4bhnh2rcd13ifvqgtg","pricing_plan_id":"cebpf4jnsgd1na2vs0mg"},{"bike_id":"6557bf35-a306-4c90-bb82-2c417acff26f","system_id":"levelo_inurba_marseille","lat":43.295685,"lon":5.375241,"is_reserved":false,"is_disabled":false,"rental_uris":{"android":"levelo://app?vid=6557bf35-a306-4c90-bb82-2c417acff26f","ios":"levelo://app?vid=6557bf35-a306-4c90-bb82-2c417acff26f"},"vehicle_type_id":"4","last_reported":1748452180,"current_range_meters":8000,"station_id":"ce4bgh92rcd13ifvqb50","pricing_plan_id":"cebpf4jnsgd1na2vs0mg"},{"bike_id":"63db40de-24e6-4269-8c5a-ce35bbd215e6","system_id":"levelo_inurba_marseille","lat":43.27369,"lon":5.36251,"is_reserved":false,"is_disabled":false,"rental_uris":{"android":"levelo://app?vid=63db40de-24e6-4269-8c5a-ce35bbd215e6","ios":"levelo://app?vid=63db40de-24e6-4269-8c5a-ce35bbd215e6"},"vehicle_type_id":"4","last_reported":1748452180,"current_range_meters":8000,"station_id":"ce4bhbh2rcd13ifvqeo0","pricing_plan_id":"cebpf4jnsgd1na2vs0mg"},{"bike_id":"3ec3fa82-684b-4edd-bc8c-64662c3e81bf","system_id":"levelo_inurba_marseille","lat":43.27983,"lon":5.41665,"is_reserved":false,"is_disabled":false,"rental_uris":{"android":"levelo://app?vid=3ec3fa82-684b-4edd-bc8c-64662c3e81bf","ios":"levelo://app?vid=3ec3fa82-684b-4edd-bc8c-64662c3e81bf"},"vehicle_type_id":"4","last_reported":1748452180,"current_range_meters":8000,"station_id":"ce4bho12rcd13ifvqh1g","pricing_plan_id":"cebpf4jnsgd1na2vs0mg"},{"bike_id":"0bcace81-96ac-45ff-ae91-bd65897f7583","system_id":"levelo_inurba_marseille","lat":43.30321,"lon":5.36901,"is_reserved":false,"is_disabled":false,"rental_uris":{"android":"levelo://app?vid=0bcace81-96ac-45ff-ae91-bd65897f7583","ios":"levelo://app?vid=0bcace81-96ac-45ff-ae91-bd65897f7583"},"vehicle_type_id":"4","last_reported":1748452180,"current_range_meters":8400,"station_id":"","pricing_plan_id":"cebpf4jnsgd1na2vs0mg"},{"bike_id":"06491b1e-81f7-49df-bc73-2a2fd354a763","system_id":"levelo_inurba_marseille","lat":43.28167,"lon":5.42637,"is_reserved":false,"is_disabled":false,"rental_uris":{"android":"levelo://app?vid=06491b1e-81f7-49df-bc73-2a2fd354a763","ios":"levelo://app?vid=06491b1e-81f7-49df-bc73-2a2fd354a763"},"vehicle_type_id":"4","last_reported":1748452180,"current_range_meters":8000,"station_id":"ce4bhnh2rcd13ifvqgug","pricing_plan_id":"cebpf4jnsgd1na2vs0mg"},{"bike_id":"08d5eea7-afb8-4215-9a94-b8a72c7e6c9e","system_id":"levelo_inurba_marseille","lat":43.31891,"lon":5.40736,"is_reserved":false,"is_disabled":false,"rental_uris":{"android":"levelo://app?vid=08d5eea7-afb8-4215-9a94-b8a72c7e6c9e","ios":"levelo://app?vid=08d5eea7-afb8-4215-9a94-b8a72c7e6c9e"},"vehicle_type_id":"4","last_reported":1748452180,"current_range_meters":8400,"station_id":"ce4bhq12rcd13ifvqhig","pricing_plan_id":"cebpf4jnsgd1na2vs0mg"},{"bike_id":"0e60b4ca-3f24-40ae-a7f6-9cf0f33c29b2","system_id":"levelo_inurba_marseille","lat":43.2558,"lon":5.38241,"is_reserved":false,"is_disabled":false,"rental_uris":{"android":"levelo://app?vid=0e60b4ca-3f24-40ae-a7f6-9cf0f33c29b2","ios":"levelo://app?vid=0e60b4ca-3f24-40ae-a7f6-9cf0f33c29b2"},"vehicle_type_id":"4","last_reported":1748452180,"current_range_meters":8400,"station_id":"ce4bhih2rcd13ifvqfs0","pricing_plan_id":"cebpf4jnsgd1na2vs0mg"},{"bike_id":"576e3b37-7d94-468c-94dd-f0b1a1b60654","system_id":"levelo_inurba_marseille","lat":43.29277,"lon":5.4013,"is_reserved":false,"is_disabled":false,"rental_uris":{"android":"levelo://app?vid=576e3b37-7d94-468c-94dd-f0b1a1b60654","ios":"levelo://app?vid=576e3b37-7d94-468c-94dd-f0b1a1b60654"},"vehicle_type_id":"4","last_reported":1748452180,"current_range_meters":8400,"station_id":"ce4bh312rcd13ifvqdk0","pricing_plan_id":"cebpf4jnsgd1na2vs0mg"},{"bike_id":"2ce4120e-6bc0-41c2-b7cb-cbed065b37bd","system_id":"levelo_inurba_marseille","lat":43.28912,"lon":5.37804,"is_reserved":false,"is_disabled":false,"rental_uris":{"android":"levelo://app?vid=2ce4120e-6bc0-41c2-b7cb-cbed065b37bd","ios":"levelo://app?vid=2ce4120e-6bc0-41c2-b7cb-cbed065b37bd"},"vehicle_type_id":"4","last_reported":1748452180,"current_range_meters":8800,"station_id":"","pricing_plan_id":"cebpf4jnsgd1na2vs0mg"},{"bike_id":"597efc84-dc5b-4517-8347-dbe19a6675d9","system_id":"levelo_inurba_marseille","lat":43.29901,"lon":5.38154,"is_reserved":false,"is_disabled":false,"rental_uris":{"android":"levelo://app?vid=597efc84-dc5b-4517-8347-dbe19a6675d9","ios":"levelo://app?vid=597efc84-dc5b-4517-8347-dbe19a6675d9"},"vehicle_type_id":"4","last_reported":1748452180,"current_range_meters":8400,"station_id":"ce4bgj12rcd13ifvqbc0","pricing_plan_id":"cebpf4jnsgd1na2vs0mg"},{"bike_id":"4cef4ba0-ac2b-44a5-a9f1-671a7ebe112a","system_id":"levelo_inurba_marseille","lat":43.2961,"lon":5.3771,"is_reserved":false,"is_disabled":true,"rental_uris":{"android":"levelo://app?vid=4cef4ba0-ac2b-44a5-a9f1-671a7ebe112a","ios":"levelo://app?vid=4cef4ba0-ac2b-44a5-a9f1-671a7ebe112a"},"vehicle_type_id":"4","last_reported":1748452180,"current_range_meters":8800,"station_id":"ce4bgi92rcd13ifvqb90","pricing_plan_id":"cebpf4jnsgd1na2vs0mg"},{"bike_id":"ce67771b-c9f5-49f7-9e75-3446acc91899","system_id":"levelo_inurba_marseille","lat":43.27052,"lon":5.40265,"is_reserved":false,"is_disabled":false,"rental_uris":{"android":"levelo://app?vid=ce67771b-c9f5-49f7-9e75-3446acc91899","ios":"levelo://app?vid=ce67771b-c9f5-49f7-9e75-3446acc91899"},"vehicle_type_id":"4","last_reported":1748452180,"current_range_meters":8800,"station_id":"ce4bhk92rcd13ifvqgc0","pricing_plan_id":"cebpf4jnsgd1na2vs0mg"},{"bike_id":"524b402d-83ef-4088-9a8d-5fe7be6e768c","system_id":"levelo_inurba_marseille","lat":43.27634,"lon":5.36087,"is_reserved":false,"is_disabled":false,"rental_uris":{"android":"levelo://app?vid=524b402d-83ef-4088-9a8d-5fe7be6e768c","ios":"levelo://app?vid=524b402d-83ef-4088-9a8d-5fe7be6e768c"},"vehicle_type_id":"4","last_reported":1748452180,"current_range_meters":8800,"station_id":"ce4bgj92rcd13ifvqbe0","pricing_plan_id":"cebpf4jnsgd1na2vs0mg"},{"bike_id":"c0dbce1c-0443-48f9-98a3-85ff4f46349b","system_id":"levelo_inurba_marseille","lat":43.29069,"lon":5.37155,"is_reserved":false,"is_disabled":false,"rental_uris":{"android":"levelo://app?vid=c0dbce1c-0443-48f9-98a3-85ff4f46349b","ios":"levelo://app?vid=c0dbce1c-0443-48f9-98a3-85ff4f46349b"},"vehicle_type_id":"4","last_reported":1748452180,"current_range_meters":8400,"station_id":"ce4bh5p2rcd13ifvqe4g","pricing_plan_id":"cebpf4jnsgd1na2vs0mg"},{"bike_id":"b80ee325-09b2-4724-993d-4f8d3707c41c","system_id":"levelo_inurba_marseille","lat":43.25862,"lon":5.39902,"is_reserved":false,"is_disabled":false,"rental_uris":{"android":"levelo://app?vid=b80ee325-09b2-4724-993d-4f8d3707c41c","ios":"levelo://app?vid=b80ee325-09b2-4724-993d-4f8d3707c41c"},"vehicle_type_id":"4","last_reported":1748452180,"current_range_meters":8800,"station_id":"ce4bhl92rcd13ifvqghg","pricing_plan_id":"cebpf4jnsgd1na2vs0mg"},{"bike_id":"1490c9d6-e6f8-49e5-a25d-0d3c77d24807","system_id":"levelo_inurba_marseille","lat":43.29307,"lon":5.37457,"is_reserved":false,"is_disabled":true,"rental_uris":{"android":"levelo://app?vid=1490c9d6-e6f8-49e5-a25d-0d3c77d24807","ios":"levelo://app?vid=1490c9d6-e6f8-49e5-a25d-0d3c77d24807"},"vehicle_type_id":"4","last_reported":1748452180,"current_range_meters":8800,"station_id":"ce4bgi12rcd13ifvqb70","pricing_plan_id":"cebpf4jnsgd1na2vs0mg"},{"bike_id":"b5b3dccc-7137-4ce0-8683-80e5c8017790","system_id":"levelo_inurba_marseille","lat":43.28409,"lon":5.37519,"is_reserved":false,"is_disabled":false,"rental_uris":{"android":"levelo://app?vid=b5b3dccc-7137-4ce0-8683-80e5c8017790","ios":"levelo://app?vid=b5b3dccc-7137-4ce0-8683-80e5c8017790"},"vehicle_type_id":"4","last_reported":1748452180,"current_range_meters":8800,"station_id":"ce4bh412rcd13ifvqds0","pricing_plan_id":"cebpf4jnsgd1na2vs0mg"},{"bike_id":"ef0986d8-4c52-4d71-891b-09cfbfa0ff55","system_id":"levelo_inurba_marseille","lat":43.26056,"lon":5.39398,"is_reserved":false,"is_disabled":false,"rental_uris":{"android":"levelo://app?vid=ef0986d8-4c52-4d71-891b-09cfbfa0ff55","ios":"levelo://app?vid=ef0986d8-4c52-4d71-891b-09cfbfa0ff55"},"vehicle_type_id":"4","last_reported":1748452180,"current_range_meters":8800,"station_id":"ce4bhh92rcd13ifvqfj0","pricing_plan_id":"cebpf4jnsgd1na2vs0mg"},{"bike_id":"321ad58d-9c0e-42e0-8a09-d7cc80a2a7cb","system_id":"levelo_inurba_marseille","lat":43.29413,"lon":5.38631,"is_reserved":false,"is_disabled":false,"rental_uris":{"android":"levelo://app?vid=321ad58d-9c0e-42e0-8a09-d7cc80a2a7cb","ios":"levelo://app?vid=321ad58d-9c0e-42e0-8a09-d7cc80a2a7cb"},"vehicle_type_id":"4","last_reported":1748452180,"current_range_meters":8800,"station_id":"ce4bh2h2rcd13ifvqdh0","pricing_plan_id":"cebpf4jnsgd1na2vs0mg"},{"bike_id":"66153fdb-5cc3-4abf-bd1a-a78f39a53bec","system_id":"levelo_inurba_marseille","lat":43.28611,"lon":5.37068,"is_reserved":false,"is_disabled":false,"rental_uris":{"android":"levelo://app?vid=66153fdb-5cc3-4abf-bd1a-a78f39a53bec","ios":"levelo://app?vid=66153fdb-5cc3-4abf-bd1a-a78f39a53bec"},"vehicle_type_id":"4","last_reported":1748452180,"current_range_meters":8800,"station_id":"ce4bht12rcd13ifvqi60","pricing_plan_id":"cebpf4jnsgd1na2vs0mg"},{"bike_id":"6d7cfdcd-f061-4eee-b4e5-78d9b6729328","system_id":"levelo_inurba_marseille","lat":43.33017,"lon":5.43854,"is_reserved":false,"is_disabled":false,"rental_uris":{"android":"levelo://app?vid=6d7cfdcd-f061-4eee-b4e5-78d9b6729328","ios":"levelo://app?vid=6d7cfdcd-f061-4eee-b4e5-78d9b6729328"},"vehicle_type_id":"4","last_reported":1748452180,"current_range_meters":9200,"station_id":"","pricing_plan_id":"cebpf4jnsgd1na2vs0mg"},{"bike_id":"7ce95e72-5d97-4bd6-b29d-60ad4f389cae","system_id":"levelo_inurba_marseille","lat":43.29525,"lon":5.39033,"is_reserved":false,"is_disabled":true,"rental_uris":{"android":"levelo://app?vid=7ce95e72-5d97-4bd6-b29d-60ad4f389cae","ios":"levelo://app?vid=7ce95e72-5d97-4bd6-b29d-60ad4f389cae"},"vehicle_type_id":"4","last_reported":1748452180,"current_range_meters":9200,"station_id":"ce4bh3p2rcd13ifvqdp0","pricing_plan_id":"cebpf4jnsgd1na2vs0mg"},{"bike_id":"3509047a-bcf5-4868-b58f-8578735e451b","system_id":"levelo_inurba_marseille","lat":43.2828,"lon":5.35075,"is_reserved":false,"is_disabled":false,"rental_uris":{"android":"levelo://app?vid=3509047a-bcf5-4868-b58f-8578735e451b","ios":"levelo://app?vid=3509047a-bcf5-4868-b58f-8578735e451b"},"vehicle_type_id":"4","last_reported":1748452180,"current_range_meters":9200,"station_id":"ce4bhbp2rcd13ifvqerg","pricing_plan_id":"cebpf4jnsgd1na2vs0mg"},{"bike_id":"ee9d046d-c42d-4f28-b737-e29efcdb449d","system_id":"levelo_inurba_marseille","lat":43.30534,"lon":5.36723,"is_reserved":false,"is_disabled":false,"rental_uris":{"android":"levelo://app?vid=ee9d046d-c42d-4f28-b737-e29efcdb449d","ios":"levelo://app?vid=ee9d046d-c42d-4f28-b737-e29efcdb449d"},"vehicle_type_id":"4","last_reported":1748452180,"current_range_meters":8800,"station_id":"ce4bgrp2rcd13ifvqc9g","pricing_plan_id":"cebpf4jnsgd1na2vs0mg"},{"bike_id":"16578a9c-c460-4d38-be25-a20250881a73","system_id":"levelo_inurba_marseille","lat":43.322293,"lon":5.38422,"is_reserved":false,"is_disabled":false,"rental_uris":{"android":"levelo://app?vid=16578a9c-c460-4d38-be25-a20250881a73","ios":"levelo://app?vid=16578a9c-c460-4d38-be25-a20250881a73"},"vehicle_type_id":"4","last_reported":1748452180,"current_range_meters":9200,"station_id":"","pricing_plan_id":"cebpf4jnsgd1na2vs0mg"},{"bike_id":"d1cc5d59-bc0e-4bee-a06f-eeb5d5fc3809","system_id":"levelo_inurba_marseille","lat":43.2582,"lon":5.39438,"is_reserved":false,"is_disabled":false,"rental_uris":{"android":"levelo://app?vid=d1cc5d59-bc0e-4bee-a06f-eeb5d5fc3809","ios":"levelo://app?vid=d1cc5d59-bc0e-4bee-a06f-eeb5d5fc3809"},"vehicle_type_id":"4","last_reported":1748452180,"current_range_meters":9200,"station_id":"ce4bhip2rcd13ifvqft0","pricing_plan_id":"cebpf4jnsgd1na2vs0mg"},{"bike_id":"63b17186-8534-43df-8f53-4f09baa5eb84","system_id":"levelo_inurba_marseille","lat":43.24665,"lon":5.3816,"is_reserved":false,"is_disabled":false,"rental_uris":{"android":"levelo://app?vid=63b17186-8534-43df-8f53-4f09baa5eb84","ios":"levelo://app?vid=63b17186-8534-43df-8f53-4f09baa5eb84"},"vehicle_type_id":"4","last_reported":1748452180,"current_range_meters":9200,"station_id":"ce4bhih2rcd13ifvqfr0","pricing_plan_id":"cebpf4jnsgd1na2vs0mg"},{"bike_id":"b488843c-26a7-4919-a450-ea8e6b8b7e44","system_id":"levelo_inurba_marseille","lat":43.27057,"lon":5.40261,"is_reserved":false,"is_disabled":false,"rental_uris":{"android":"levelo://app?vid=b488843c-26a7-4919-a450-ea8e6b8b7e44","ios":"levelo://app?vid=b488843c-26a7-4919-a450-ea8e6b8b7e44"},"vehicle_type_id":"4","last_reported":1748452180,"current_range_meters":9600,"station_id":"ce4bhk92rcd13ifvqgc0","pricing_plan_id":"cebpf4jnsgd1na2vs0mg"},{"bike_id":"3bd35386-6e12-4d4d-844c-f71f46a151c8","system_id":"levelo_inurba_marseille","lat":43.286737,"lon":5.386617,"is_reserved":false,"is_disabled":false,"rental_uris":{"android":"levelo://app?vid=3bd35386-6e12-4d4d-844c-f71f46a151c8","ios":"levelo://app?vid=3bd35386-6e12-4d4d-844c-f71f46a151c8"},"vehicle_type_id":"4","last_reported":1748452180,"current_range_meters":9600,"station_id":"ce4bh492rcd13ifvqdug","pricing_plan_id":"cebpf4jnsgd1na2vs0mg"},{"bike_id":"f80eb087-4100-4769-97a5-a22b95eb9689","system_id":"levelo_inurba_marseille","lat":43.29199,"lon":5.39314,"is_reserved":false,"is_disabled":false,"rental_uris":{"android":"levelo://app?vid=f80eb087-4100-4769-97a5-a22b95eb9689","ios":"levelo://app?vid=f80eb087-4100-4769-97a5-a22b95eb9689"},"vehicle_type_id":"4","last_reported":1748452180,"current_range_meters":9200,"station_id":"ce4bh192rcd13ifvqdd0","pricing_plan_id":"cebpf4jnsgd1na2vs0mg"},{"bike_id":"c7f0c7ea-6b08-449a-9226-93150dfaf442","system_id":"levelo_inurba_marseille","lat":43.273797,"lon":5.362543,"is_reserved":false,"is_disabled":false,"rental_uris":{"android":"levelo://app?vid=c7f0c7ea-6b08-449a-9226-93150dfaf442","ios":"levelo://app?vid=c7f0c7ea-6b08-449a-9226-93150dfaf442"},"vehicle_type_id":"4","last_reported":1748452180,"current_range_meters":9600,"station_id":"ce4bhbh2rcd13ifvqeo0","pricing_plan_id":"cebpf4jnsgd1na2vs0mg"},{"bike_id":"be4b293e-8744-4637-8ca2-a3e9032e9cec","system_id":"levelo_inurba_marseille","lat":43.22922,"lon":5.35375,"is_reserved":false,"is_disabled":false,"rental_uris":{"android":"levelo://app?vid=be4b293e-8744-4637-8ca2-a3e9032e9cec","ios":"levelo://app?vid=be4b293e-8744-4637-8ca2-a3e9032e9cec"},"vehicle_type_id":"4","last_reported":1748452180,"current_range_meters":9600,"station_id":"cpo3532slgdg3j2ikp40","pricing_plan_id":"cebpf4jnsgd1na2vs0mg"},{"bike_id":"fa22d157-24b9-41cb-bb47-533abbceeada","system_id":"levelo_inurba_marseille","lat":43.29533,"lon":5.38547,"is_reserved":false,"is_disabled":false,"rental_uris":{"android":"levelo://app?vid=fa22d157-24b9-41cb-bb47-533abbceeada","ios":"levelo://app?vid=fa22d157-24b9-41cb-bb47-533abbceeada"},"vehicle_type_id":"4","last_reported":1748452180,"current_range_meters":9600,"station_id":"ce4bgih2rcd13ifvqba0","pricing_plan_id":"cebpf4jnsgd1na2vs0mg"},{"bike_id":"3b6883fc-b1b8-4919-a71b-9e592f7bed7d","system_id":"levelo_inurba_marseille","lat":43.286132,"lon":5.350875,"is_reserved":false,"is_disabled":false,"rental_uris":{"android":"levelo://app?vid=3b6883fc-b1b8-4919-a71b-9e592f7bed7d","ios":"levelo://app?vid=3b6883fc-b1b8-4919-a71b-9e592f7bed7d"},"vehicle_type_id":"4","last_reported":1748452180,"current_range_meters":9600,"station_id":"ce4bhch2rcd13ifvqeug","pricing_plan_id":"cebpf4jnsgd1na2vs0mg"},{"bike_id":"94e879d2-9a8e-44d7-a83f-84a735a97551","system_id":"levelo_inurba_marseille","lat":43.27073,"lon":5.42285,"is_reserved":false,"is_disabled":false,"rental_uris":{"android":"levelo://app?vid=94e879d2-9a8e-44d7-a83f-84a735a97551","ios":"levelo://app?vid=94e879d2-9a8e-44d7-a83f-84a735a97551"},"vehicle_type_id":"4","last_reported":1748452180,"current_range_meters":9600,"station_id":"ce4bhk92rcd13ifvqgb0","pricing_plan_id":"cebpf4jnsgd1na2vs0mg"},{"bike_id":"0ef19f22-9c98-4425-92ec-868ffd095a13","system_id":"levelo_inurba_marseille","lat":43.29001,"lon":5.35615,"is_reserved":false,"is_disabled":false,"rental_uris":{"android":"levelo://app?vid=0ef19f22-9c98-4425-92ec-868ffd095a13","ios":"levelo://app?vid=0ef19f22-9c98-4425-92ec-868ffd095a13"},"vehicle_type_id":"4","last_reported":1748452180,"current_range_meters":10000,"station_id":"ce4bhb92rcd13ifvqen0","pricing_plan_id":"cebpf4jnsgd1na2vs0mg"},{"bike_id":"43a14d53-ebd4-4f31-9e5d-95462447a883","system_id":"levelo_inurba_marseille","lat":43.3047,"lon":5.37879,"is_reserved":false,"is_disabled":true,"rental_uris":{"android":"levelo://app?vid=43a14d53-ebd4-4f31-9e5d-95462447a883","ios":"levelo://app?vid=43a14d53-ebd4-4f31-9e5d-95462447a883"},"vehicle_type_id":"4","last_reported":1748452180,"current_range_meters":10000,"station_id":"ce4bgup2rcd13ifvqcn0","pricing_plan_id":"cebpf4jnsgd1na2vs0mg"},{"bike_id":"a6c2e028-9a43-4b44-88f2-acc1ce29c37b","system_id":"levelo_inurba_marseille","lat":43.2582,"lon":5.3944,"is_reserved":false,"is_disabled":false,"rental_uris":{"android":"levelo://app?vid=a6c2e028-9a43-4b44-88f2-acc1ce29c37b","ios":"levelo://app?vid=a6c2e028-9a43-4b44-88f2-acc1ce29c37b"},"vehicle_type_id":"4","last_reported":1748452180,"current_range_meters":9600,"station_id":"ce4bhip2rcd13ifvqft0","pricing_plan_id":"cebpf4jnsgd1na2vs0mg"},{"bike_id":"5e703e03-e240-4b49-9f2f-4a5035fe04a6","system_id":"levelo_inurba_marseille","lat":43.27376,"lon":5.36253,"is_reserved":false,"is_disabled":false,"rental_uris":{"android":"levelo://app?vid=5e703e03-e240-4b49-9f2f-4a5035fe04a6","ios":"levelo://app?vid=5e703e03-e240-4b49-9f2f-4a5035fe04a6"},"vehicle_type_id":"4","last_reported":1748452180,"current_range_meters":10000,"station_id":"ce4bhbh2rcd13ifvqeo0","pricing_plan_id":"cebpf4jnsgd1na2vs0mg"},{"bike_id":"acbc46b4-0e82-4521-97c3-74ea5595c43f","system_id":"levelo_inurba_marseille","lat":43.2846,"lon":5.34976,"is_reserved":false,"is_disabled":false,"rental_uris":{"android":"levelo://app?vid=acbc46b4-0e82-4521-97c3-74ea5595c43f","ios":"levelo://app?vid=acbc46b4-0e82-4521-97c3-74ea5595c43f"},"vehicle_type_id":"4","last_reported":1748452180,"current_range_meters":10000,"station_id":"ce4bhbh2rcd13ifvqepg","pricing_plan_id":"cebpf4jnsgd1na2vs0mg"},{"bike_id":"9de5d4c2-816a-46f7-bcab-83d5f2fef2a5","system_id":"levelo_inurba_marseille","lat":43.27377,"lon":5.36253,"is_reserved":false,"is_disabled":false,"rental_uris":{"android":"levelo://app?vid=9de5d4c2-816a-46f7-bcab-83d5f2fef2a5","ios":"levelo://app?vid=9de5d4c2-816a-46f7-bcab-83d5f2fef2a5"},"vehicle_type_id":"4","last_reported":1748452180,"current_range_meters":10000,"station_id":"ce4bhbh2rcd13ifvqeo0","pricing_plan_id":"cebpf4jnsgd1na2vs0mg"},{"bike_id":"45c2b0f1-f378-4288-be91-e5422ca5a972","system_id":"levelo_inurba_marseille","lat":43.27809,"lon":5.40718,"is_reserved":false,"is_disabled":false,"rental_uris":{"android":"levelo://app?vid=45c2b0f1-f378-4288-be91-e5422ca5a972","ios":"levelo://app?vid=45c2b0f1-f378-4288-be91-e5422ca5a972"},"vehicle_type_id":"4","last_reported":1748452180,"current_range_meters":10000,"station_id":"ce4bhnh2rcd13ifvqgtg","pricing_plan_id":"cebpf4jnsgd1na2vs0mg"},{"bike_id":"d0d3781f-942e-4837-9667-0e7967aa58ad","system_id":"levelo_inurba_marseille","lat":43.30339,"lon":5.40428,"is_reserved":false,"is_disabled":false,"rental_uris":{"android":"levelo://app?vid=d0d3781f-942e-4837-9667-0e7967aa58ad","ios":"levelo://app?vid=d0d3781f-942e-4837-9667-0e7967aa58ad"},"vehicle_type_id":"4","last_reported":1748452180,"current_range_meters":9600,"station_id":"ce4bh012rcd13ifvqd10","pricing_plan_id":"cebpf4jnsgd1na2vs0mg"},{"bike_id":"1d1e8465-4552-4012-b8d8-851c9399b166","system_id":"levelo_inurba_marseille","lat":43.29323,"lon":5.371111,"is_reserved":false,"is_disabled":false,"rental_uris":{"android":"levelo://app?vid=1d1e8465-4552-4012-b8d8-851c9399b166","ios":"levelo://app?vid=1d1e8465-4552-4012-b8d8-851c9399b166"},"vehicle_type_id":"4","last_reported":1748452180,"current_range_meters":10800,"station_id":"ce4bha92rcd13ifvqeh0","pricing_plan_id":"cebpf4jnsgd1na2vs0mg"},{"bike_id":"fbcbf3bb-9d12-4694-a882-8ff8a15eb4dd","system_id":"levelo_inurba_marseille","lat":43.29041,"lon":5.39957,"is_reserved":false,"is_disabled":false,"rental_uris":{"android":"levelo://app?vid=fbcbf3bb-9d12-4694-a882-8ff8a15eb4dd","ios":"levelo://app?vid=fbcbf3bb-9d12-4694-a882-8ff8a15eb4dd"},"vehicle_type_id":"4","last_reported":1748452180,"current_range_meters":10800,"station_id":"ce4bh392rcd13ifvqdm0","pricing_plan_id":"cebpf4jnsgd1na2vs0mg"},{"bike_id":"abb0a9c1-8e29-40f4-91c1-27168702ad5c","system_id":"levelo_inurba_marseille","lat":43.30139,"lon":5.38783,"is_reserved":false,"is_disabled":true,"rental_uris":{"android":"levelo://app?vid=abb0a9c1-8e29-40f4-91c1-27168702ad5c","ios":"levelo://app?vid=abb0a9c1-8e29-40f4-91c1-27168702ad5c"},"vehicle_type_id":"4","last_reported":1748452180,"current_range_meters":10800,"station_id":"ce4bghh2rcd13ifvqb60","pricing_plan_id":"cebpf4jnsgd1na2vs0mg"},{"bike_id":"bd0a34a6-6bbe-49d0-93d5-1ff5c6a0e5fb","system_id":"levelo_inurba_marseille","lat":43.23207,"lon":5.39961,"is_reserved":false,"is_disabled":false,"rental_uris":{"android":"levelo://app?vid=bd0a34a6-6bbe-49d0-93d5-1ff5c6a0e5fb","ios":"levelo://app?vid=bd0a34a6-6bbe-49d0-93d5-1ff5c6a0e5fb"},"vehicle_type_id":"4","last_reported":1748452180,"current_range_meters":10800,"station_id":"ce4bhn12rcd13ifvqgqg","pricing_plan_id":"cebpf4jnsgd1na2vs0mg"},{"bike_id":"f2a069da-6900-4855-adbc-a279e29c9129","system_id":"levelo_inurba_marseille","lat":43.28467,"lon":5.38428,"is_reserved":false,"is_disabled":true,"rental_uris":{"android":"levelo://app?vid=f2a069da-6900-4855-adbc-a279e29c9129","ios":"levelo://app?vid=f2a069da-6900-4855-adbc-a279e29c9129"},"vehicle_type_id":"4","last_reported":1748452180,"current_range_meters":10800,"station_id":"ce4bh512rcd13ifvqe3g","pricing_plan_id":"cebpf4jnsgd1na2vs0mg"},{"bike_id":"2f650bb1-6027-4191-83d2-16315820a0a7","system_id":"levelo_inurba_marseille","lat":43.29974,"lon":5.3737,"is_reserved":false,"is_disabled":false,"rental_uris":{"android":"levelo://app?vid=2f650bb1-6027-4191-83d2-16315820a0a7","ios":"levelo://app?vid=2f650bb1-6027-4191-83d2-16315820a0a7"},"vehicle_type_id":"4","last_reported":1748452180,"current_range_meters":10800,"station_id":"","pricing_plan_id":"cebpf4jnsgd1na2vs0mg"},{"bike_id":"7e195a62-25bd-4a1b-802d-60a93f1ec90e","system_id":"levelo_inurba_marseille","lat":43.24186,"lon":5.36378,"is_reserved":false,"is_disabled":false,"rental_uris":{"android":"levelo://app?vid=7e195a62-25bd-4a1b-802d-60a93f1ec90e","ios":"levelo://app?vid=7e195a62-25bd-4a1b-802d-60a93f1ec90e"},"vehicle_type_id":"4","last_reported":1748452180,"current_range_meters":10800,"station_id":"cpo36qri1sfpv3e86is0","pricing_plan_id":"cebpf4jnsgd1na2vs0mg"},{"bike_id":"9fec6f9d-937c-47bd-8843-7114ff75ca86","system_id":"levelo_inurba_marseille","lat":43.28986,"lon":5.37835,"is_reserved":false,"is_disabled":false,"rental_uris":{"android":"levelo://app?vid=9fec6f9d-937c-47bd-8843-7114ff75ca86","ios":"levelo://app?vid=9fec6f9d-937c-47bd-8843-7114ff75ca86"},"vehicle_type_id":"4","last_reported":1748452180,"current_range_meters":10800,"station_id":"ce4bh9p2rcd13ifvqed0","pricing_plan_id":"cebpf4jnsgd1na2vs0mg"},{"bike_id":"76f3d174-ea7d-42b5-a5ae-3efc31ec1bb9","system_id":"levelo_inurba_marseille","lat":43.28843,"lon":5.3931,"is_reserved":false,"is_disabled":false,"rental_uris":{"android":"levelo://app?vid=76f3d174-ea7d-42b5-a5ae-3efc31ec1bb9","ios":"levelo://app?vid=76f3d174-ea7d-42b5-a5ae-3efc31ec1bb9"},"vehicle_type_id":"4","last_reported":1748452180,"current_range_meters":10000,"station_id":"ce4bh2p2rcd13ifvqdi0","pricing_plan_id":"cebpf4jnsgd1na2vs0mg"},{"bike_id":"6a872200-9528-4d81-9c60-e245d2d18c19","system_id":"levelo_inurba_marseille","lat":43.29195,"lon":5.357983,"is_reserved":false,"is_disabled":false,"rental_uris":{"android":"levelo://app?vid=6a872200-9528-4d81-9c60-e245d2d18c19","ios":"levelo://app?vid=6a872200-9528-4d81-9c60-e245d2d18c19"},"vehicle_type_id":"4","last_reported":1748452180,"current_range_meters":10800,"station_id":"ce4bhb12rcd13ifvqel0","pricing_plan_id":"cebpf4jnsgd1na2vs0mg"},{"bike_id":"8ff68a8b-4d45-49db-a379-da1e5af06313","system_id":"levelo_inurba_marseille","lat":43.24072,"lon":5.37759,"is_reserved":false,"is_disabled":false,"rental_uris":{"android":"levelo://app?vid=8ff68a8b-4d45-49db-a379-da1e5af06313","ios":"levelo://app?vid=8ff68a8b-4d45-49db-a379-da1e5af06313"},"vehicle_type_id":"4","last_reported":1748452180,"current_range_meters":11200,"station_id":"ce4bhnp2rcd13ifvqgvg","pricing_plan_id":"cebpf4jnsgd1na2vs0mg"},{"bike_id":"fb719ac9-c245-4f81-a48d-289841762d2d","system_id":"levelo_inurba_marseille","lat":43.2175,"lon":5.34598,"is_reserved":false,"is_disabled":false,"rental_uris":{"android":"levelo://app?vid=fb719ac9-c245-4f81-a48d-289841762d2d","ios":"levelo://app?vid=fb719ac9-c245-4f81-a48d-289841762d2d"},"vehicle_type_id":"4","last_reported":1748452180,"current_range_meters":11200,"station_id":"st_cvj6r9ubvosntc0bgbag","pricing_plan_id":"cebpf4jnsgd1na2vs0mg"},{"bike_id":"c84f8025-f392-4efb-8662-faa8b7ebbd21","system_id":"levelo_inurba_marseille","lat":43.295066,"lon":5.374448,"is_reserved":false,"is_disabled":false,"rental_uris":{"android":"levelo://app?vid=c84f8025-f392-4efb-8662-faa8b7ebbd21","ios":"levelo://app?vid=c84f8025-f392-4efb-8662-faa8b7ebbd21"},"vehicle_type_id":"4","last_reported":1748452180,"current_range_meters":11200,"station_id":"ce4bgh92rcd13ifvqb50","pricing_plan_id":"cebpf4jnsgd1na2vs0mg"},{"bike_id":"a5952feb-4f17-45ba-97ef-c74a16ee0dba","system_id":"levelo_inurba_marseille","lat":43.28705,"lon":5.39986,"is_reserved":false,"is_disabled":false,"rental_uris":{"android":"levelo://app?vid=a5952feb-4f17-45ba-97ef-c74a16ee0dba","ios":"levelo://app?vid=a5952feb-4f17-45ba-97ef-c74a16ee0dba"},"vehicle_type_id":"4","last_reported":1748452180,"current_range_meters":11200,"station_id":"ce4bho92rcd13ifvqh3g","pricing_plan_id":"cebpf4jnsgd1na2vs0mg"},{"bike_id":"02621bdd-080c-40a2-a335-f196c80705db","system_id":"levelo_inurba_marseille","lat":43.28731,"lon":5.36086,"is_reserved":false,"is_disabled":false,"rental_uris":{"android":"levelo://app?vid=02621bdd-080c-40a2-a335-f196c80705db","ios":"levelo://app?vid=02621bdd-080c-40a2-a335-f196c80705db"},"vehicle_type_id":"4","last_reported":1748452180,"current_range_meters":11200,"station_id":"cki0cbj6b192h4jlfktg","pricing_plan_id":"cebpf4jnsgd1na2vs0mg"},{"bike_id":"19c319b8-cb5c-4a9f-a123-c087da106c08","system_id":"levelo_inurba_marseille","lat":43.2593,"lon":5.40908,"is_reserved":false,"is_disabled":false,"rental_uris":{"android":"levelo://app?vid=19c319b8-cb5c-4a9f-a123-c087da106c08","ios":"levelo://app?vid=19c319b8-cb5c-4a9f-a123-c087da106c08"},"vehicle_type_id":"4","last_reported":1748452180,"current_range_meters":11200,"station_id":"ce4bhm92rcd13ifvqglg","pricing_plan_id":"cebpf4jnsgd1na2vs0mg"},{"bike_id":"39fff222-849d-4502-bd15-fdb15fa72a7d","system_id":"levelo_inurba_marseille","lat":43.28629,"lon":5.35081,"is_reserved":false,"is_disabled":false,"rental_uris":{"android":"levelo://app?vid=39fff222-849d-4502-bd15-fdb15fa72a7d","ios":"levelo://app?vid=39fff222-849d-4502-bd15-fdb15fa72a7d"},"vehicle_type_id":"4","last_reported":1748452180,"current_range_meters":11200,"station_id":"ce4bhch2rcd13ifvqeug","pricing_plan_id":"cebpf4jnsgd1na2vs0mg"},{"bike_id":"6999eccf-f62f-4d09-8e6b-b71c58a8c2a0","system_id":"levelo_inurba_marseille","lat":43.29197,"lon":5.3579,"is_reserved":false,"is_disabled":false,"rental_uris":{"android":"levelo://app?vid=6999eccf-f62f-4d09-8e6b-b71c58a8c2a0","ios":"levelo://app?vid=6999eccf-f62f-4d09-8e6b-b71c58a8c2a0"},"vehicle_type_id":"4","last_reported":1748452180,"current_range_meters":11200,"station_id":"ce4bhb12rcd13ifvqel0","pricing_plan_id":"cebpf4jnsgd1na2vs0mg"},{"bike_id":"a8c3a5d9-78d1-4f29-85b1-0425bc3335b5","system_id":"levelo_inurba_marseille","lat":43.28421,"lon":5.375128,"is_reserved":false,"is_disabled":false,"rental_uris":{"android":"levelo://app?vid=a8c3a5d9-78d1-4f29-85b1-0425bc3335b5","ios":"levelo://app?vid=a8c3a5d9-78d1-4f29-85b1-0425bc3335b5"},"vehicle_type_id":"4","last_reported":1748452180,"current_range_meters":11600,"station_id":"","pricing_plan_id":"cebpf4jnsgd1na2vs0mg"},{"bike_id":"08fbb7f0-10de-4946-a42f-890babd1b26f","system_id":"levelo_inurba_marseille","lat":43.27391,"lon":5.36259,"is_reserved":false,"is_disabled":false,"rental_uris":{"android":"levelo://app?vid=08fbb7f0-10de-4946-a42f-890babd1b26f","ios":"levelo://app?vid=08fbb7f0-10de-4946-a42f-890babd1b26f"},"vehicle_type_id":"4","last_reported":1748452180,"current_range_meters":11600,"station_id":"ce4bhbh2rcd13ifvqeo0","pricing_plan_id":"cebpf4jnsgd1na2vs0mg"},{"bike_id":"af8d6eaf-869c-40c8-8323-04a0d82b2b48","system_id":"levelo_inurba_marseille","lat":43.28573,"lon":5.39498,"is_reserved":false,"is_disabled":false,"rental_uris":{"android":"levelo://app?vid=af8d6eaf-869c-40c8-8323-04a0d82b2b48","ios":"levelo://app?vid=af8d6eaf-869c-40c8-8323-04a0d82b2b48"},"vehicle_type_id":"4","last_reported":1748452180,"current_range_meters":11600,"station_id":"ce4bh292rcd13ifvqdg0","pricing_plan_id":"cebpf4jnsgd1na2vs0mg"},{"bike_id":"3b3f20fb-be76-498a-a9f5-ae1aa0fc1802","system_id":"levelo_inurba_marseille","lat":43.27976,"lon":5.41658,"is_reserved":false,"is_disabled":false,"rental_uris":{"android":"levelo://app?vid=3b3f20fb-be76-498a-a9f5-ae1aa0fc1802","ios":"levelo://app?vid=3b3f20fb-be76-498a-a9f5-ae1aa0fc1802"},"vehicle_type_id":"4","last_reported":1748452180,"current_range_meters":11600,"station_id":"ce4bho12rcd13ifvqh1g","pricing_plan_id":"cebpf4jnsgd1na2vs0mg"},{"bike_id":"9b0a719a-fbc0-4a5e-9037-c71f34fab866","system_id":"levelo_inurba_marseille","lat":43.28398,"lon":5.34979,"is_reserved":false,"is_disabled":false,"rental_uris":{"android":"levelo://app?vid=9b0a719a-fbc0-4a5e-9037-c71f34fab866","ios":"levelo://app?vid=9b0a719a-fbc0-4a5e-9037-c71f34fab866"},"vehicle_type_id":"4","last_reported":1748452180,"current_range_meters":11600,"station_id":"ce4bhbh2rcd13ifvqepg","pricing_plan_id":"cebpf4jnsgd1na2vs0mg"},{"bike_id":"4c762596-762d-4726-b665-6ec94e89bc06","system_id":"levelo_inurba_marseille","lat":43.27616,"lon":5.36101,"is_reserved":false,"is_disabled":false,"rental_uris":{"android":"levelo://app?vid=4c762596-762d-4726-b665-6ec94e89bc06","ios":"levelo://app?vid=4c762596-762d-4726-b665-6ec94e89bc06"},"vehicle_type_id":"4","last_reported":1748452180,"current_range_meters":11600,"station_id":"ce4bgj92rcd13ifvqbe0","pricing_plan_id":"cebpf4jnsgd1na2vs0mg"},{"bike_id":"c488ad56-5a3b-49cc-aff5-e6a8cc046789","system_id":"levelo_inurba_marseille","lat":43.29521,"lon":5.3905,"is_reserved":false,"is_disabled":false,"rental_uris":{"android":"levelo://app?vid=c488ad56-5a3b-49cc-aff5-e6a8cc046789","ios":"levelo://app?vid=c488ad56-5a3b-49cc-aff5-e6a8cc046789"},"vehicle_type_id":"4","last_reported":1748452180,"current_range_meters":12000,"station_id":"ce4bh3p2rcd13ifvqdp0","pricing_plan_id":"cebpf4jnsgd1na2vs0mg"},{"bike_id":"28e7f705-b6c3-44d9-8233-49ea81c52fc4","system_id":"levelo_inurba_marseille","lat":43.24177,"lon":5.39734,"is_reserved":false,"is_disabled":false,"rental_uris":{"android":"levelo://app?vid=28e7f705-b6c3-44d9-8233-49ea81c52fc4","ios":"levelo://app?vid=28e7f705-b6c3-44d9-8233-49ea81c52fc4"},"vehicle_type_id":"4","last_reported":1748452180,"current_range_meters":12000,"station_id":"ce4bhn12rcd13ifvqgpg","pricing_plan_id":"cebpf4jnsgd1na2vs0mg"},{"bike_id":"02459306-a305-472d-be65-9070fcaf5682","system_id":"levelo_inurba_marseille","lat":43.29272,"lon":5.40121,"is_reserved":false,"is_disabled":true,"rental_uris":{"android":"levelo://app?vid=02459306-a305-472d-be65-9070fcaf5682","ios":"levelo://app?vid=02459306-a305-472d-be65-9070fcaf5682"},"vehicle_type_id":"4","last_reported":1748452180,"current_range_meters":12000,"station_id":"ce4bh312rcd13ifvqdk0","pricing_plan_id":"cebpf4jnsgd1na2vs0mg"},{"bike_id":"86f11208-7f90-4009-a976-cc81e2c7825f","system_id":"levelo_inurba_marseille","lat":43.241717,"lon":5.364015,"is_reserved":false,"is_disabled":false,"rental_uris":{"android":"levelo://app?vid=86f11208-7f90-4009-a976-cc81e2c7825f","ios":"levelo://app?vid=86f11208-7f90-4009-a976-cc81e2c7825f"},"vehicle_type_id":"4","last_reported":1748452180,"current_range_meters":12000,"station_id":"cpo36qri1sfpv3e86is0","pricing_plan_id":"cebpf4jnsgd1na2vs0mg"},{"bike_id":"0caed2c5-12f8-4fe6-b530-589024ba8e3c","system_id":"levelo_inurba_marseille","lat":43.28727,"lon":5.36076,"is_reserved":false,"is_disabled":false,"rental_uris":{"android":"levelo://app?vid=0caed2c5-12f8-4fe6-b530-589024ba8e3c","ios":"levelo://app?vid=0caed2c5-12f8-4fe6-b530-589024ba8e3c"},"vehicle_type_id":"4","last_reported":1748452180,"current_range_meters":12000,"station_id":"cki0cbj6b192h4jlfktg","pricing_plan_id":"cebpf4jnsgd1na2vs0mg"},{"bike_id":"dfe70c93-b7d2-4fb2-8ce4-18cd1d8bac1c","system_id":"levelo_inurba_marseille","lat":43.27666,"lon":5.38874,"is_reserved":false,"is_disabled":false,"rental_uris":{"android":"levelo://app?vid=dfe70c93-b7d2-4fb2-8ce4-18cd1d8bac1c","ios":"levelo://app?vid=dfe70c93-b7d2-4fb2-8ce4-18cd1d8bac1c"},"vehicle_type_id":"4","last_reported":1748452180,"current_range_meters":12800,"station_id":"ce4bhi12rcd13ifvqfo0","pricing_plan_id":"cebpf4jnsgd1na2vs0mg"},{"bike_id":"31ce438f-3d0e-4553-becc-afe3aa4f898d","system_id":"levelo_inurba_marseille","lat":43.24801,"lon":5.37453,"is_reserved":false,"is_disabled":false,"rental_uris":{"android":"levelo://app?vid=31ce438f-3d0e-4553-becc-afe3aa4f898d","ios":"levelo://app?vid=31ce438f-3d0e-4553-becc-afe3aa4f898d"},"vehicle_type_id":"4","last_reported":1748452180,"current_range_meters":12400,"station_id":"ce4bhgh2rcd13ifvqfb0","pricing_plan_id":"cebpf4jnsgd1na2vs0mg"},{"bike_id":"b9c7e6d0-443f-4300-b69a-6188dcb0996e","system_id":"levelo_inurba_marseille","lat":43.28853,"lon":5.39307,"is_reserved":false,"is_disabled":false,"rental_uris":{"android":"levelo://app?vid=b9c7e6d0-443f-4300-b69a-6188dcb0996e","ios":"levelo://app?vid=b9c7e6d0-443f-4300-b69a-6188dcb0996e"},"vehicle_type_id":"4","last_reported":1748452180,"current_range_meters":12400,"station_id":"ce4bh2p2rcd13ifvqdi0","pricing_plan_id":"cebpf4jnsgd1na2vs0mg"},{"bike_id":"8b2782b3-2646-4122-8236-e33ea820ceec","system_id":"levelo_inurba_marseille","lat":43.27914,"lon":5.37993,"is_reserved":false,"is_disabled":false,"rental_uris":{"android":"levelo://app?vid=8b2782b3-2646-4122-8236-e33ea820ceec","ios":"levelo://app?vid=8b2782b3-2646-4122-8236-e33ea820ceec"},"vehicle_type_id":"4","last_reported":1748452180,"current_range_meters":12800,"station_id":"ce4bhf92rcd13ifvqf50","pricing_plan_id":"cebpf4jnsgd1na2vs0mg"},{"bike_id":"6094b23b-e9b8-441f-9a49-f6bf2f217a3f","system_id":"levelo_inurba_marseille","lat":43.29201,"lon":5.39322,"is_reserved":false,"is_disabled":false,"rental_uris":{"android":"levelo://app?vid=6094b23b-e9b8-441f-9a49-f6bf2f217a3f","ios":"levelo://app?vid=6094b23b-e9b8-441f-9a49-f6bf2f217a3f"},"vehicle_type_id":"4","last_reported":1748452180,"current_range_meters":12400,"station_id":"ce4bh192rcd13ifvqdd0","pricing_plan_id":"cebpf4jnsgd1na2vs0mg"},{"bike_id":"99ae2e2a-0030-43f6-a4b5-5cf11b9bda84","system_id":"levelo_inurba_marseille","lat":43.264907,"lon":5.395464,"is_reserved":false,"is_disabled":false,"rental_uris":{"android":"levelo://app?vid=99ae2e2a-0030-43f6-a4b5-5cf11b9bda84","ios":"levelo://app?vid=99ae2e2a-0030-43f6-a4b5-5cf11b9bda84"},"vehicle_type_id":"4","last_reported":1748452180,"current_range_meters":12800,"station_id":"ce4bhi12rcd13ifvqfq0","pricing_plan_id":"cebpf4jnsgd1na2vs0mg"},{"bike_id":"7e21b4c5-84e6-49b9-999a-4fa6883be7c5","system_id":"levelo_inurba_marseille","lat":43.28427,"lon":5.35033,"is_reserved":false,"is_disabled":false,"rental_uris":{"android":"levelo://app?vid=7e21b4c5-84e6-49b9-999a-4fa6883be7c5","ios":"levelo://app?vid=7e21b4c5-84e6-49b9-999a-4fa6883be7c5"},"vehicle_type_id":"4","last_reported":1748452180,"current_range_meters":12800,"station_id":"","pricing_plan_id":"cebpf4jnsgd1na2vs0mg"},{"bike_id":"0d075a26-c5c6-4df2-9157-76015b65c8c6","system_id":"levelo_inurba_marseille","lat":43.29027,"lon":5.38131,"is_reserved":false,"is_disabled":false,"rental_uris":{"android":"levelo://app?vid=0d075a26-c5c6-4df2-9157-76015b65c8c6","ios":"levelo://app?vid=0d075a26-c5c6-4df2-9157-76015b65c8c6"},"vehicle_type_id":"4","last_reported":1748452180,"current_range_meters":12800,"station_id":"ce4bh4p2rcd13ifvqe1g","pricing_plan_id":"cebpf4jnsgd1na2vs0mg"},{"bike_id":"22771043-09b1-43eb-91e0-5c845144e1e3","system_id":"levelo_inurba_marseille","lat":43.27708,"lon":5.40935,"is_reserved":false,"is_disabled":false,"rental_uris":{"android":"levelo://app?vid=22771043-09b1-43eb-91e0-5c845144e1e3","ios":"levelo://app?vid=22771043-09b1-43eb-91e0-5c845144e1e3"},"vehicle_type_id":"4","last_reported":1748452180,"current_range_meters":12800,"station_id":"","pricing_plan_id":"cebpf4jnsgd1na2vs0mg"},{"bike_id":"a7b28dad-b0e3-4373-84c9-ca1db05de1f6","system_id":"levelo_inurba_marseille","lat":43.300086,"lon":5.383948,"is_reserved":false,"is_disabled":false,"rental_uris":{"android":"levelo://app?vid=a7b28dad-b0e3-4373-84c9-ca1db05de1f6","ios":"levelo://app?vid=a7b28dad-b0e3-4373-84c9-ca1db05de1f6"},"vehicle_type_id":"4","last_reported":1748452180,"current_range_meters":12800,"station_id":"","pricing_plan_id":"cebpf4jnsgd1na2vs0mg"},{"bike_id":"d57a7f0a-c7ea-44a5-8bb6-f541ed0213ac","system_id":"levelo_inurba_marseille","lat":43.32363,"lon":5.38894,"is_reserved":false,"is_disabled":false,"rental_uris":{"android":"levelo://app?vid=d57a7f0a-c7ea-44a5-8bb6-f541ed0213ac","ios":"levelo://app?vid=d57a7f0a-c7ea-44a5-8bb6-f541ed0213ac"},"vehicle_type_id":"4","last_reported":1748452180,"current_range_meters":12800,"station_id":"ce4bhqp2rcd13ifvqhog","pricing_plan_id":"cebpf4jnsgd1na2vs0mg"},{"bike_id":"ffef3766-8225-405f-b241-1ad90b9b5c6a","system_id":"levelo_inurba_marseille","lat":43.29579,"lon":5.39976,"is_reserved":false,"is_disabled":false,"rental_uris":{"android":"levelo://app?vid=ffef3766-8225-405f-b241-1ad90b9b5c6a","ios":"levelo://app?vid=ffef3766-8225-405f-b241-1ad90b9b5c6a"},"vehicle_type_id":"4","last_reported":1748452180,"current_range_meters":13600,"station_id":"ce4bh312rcd13ifvqdj0","pricing_plan_id":"cebpf4jnsgd1na2vs0mg"},{"bike_id":"847031ec-c235-4f90-8158-8e4eae043a67","system_id":"levelo_inurba_marseille","lat":43.28945,"lon":5.36638,"is_reserved":false,"is_disabled":false,"rental_uris":{"android":"levelo://app?vid=847031ec-c235-4f90-8158-8e4eae043a67","ios":"levelo://app?vid=847031ec-c235-4f90-8158-8e4eae043a67"},"vehicle_type_id":"4","last_reported":1748452180,"current_range_meters":13600,"station_id":"ce4bhap2rcd13ifvqek0","pricing_plan_id":"cebpf4jnsgd1na2vs0mg"},{"bike_id":"60338270-b193-4e6d-921e-243d4561912c","system_id":"levelo_inurba_marseille","lat":43.25105,"lon":5.40324,"is_reserved":false,"is_disabled":false,"rental_uris":{"android":"levelo://app?vid=60338270-b193-4e6d-921e-243d4561912c","ios":"levelo://app?vid=60338270-b193-4e6d-921e-243d4561912c"},"vehicle_type_id":"4","last_reported":1748452180,"current_range_meters":13600,"station_id":"ce4bhlh2rcd13ifvqgig","pricing_plan_id":"cebpf4jnsgd1na2vs0mg"},{"bike_id":"0d13530f-9f96-4dc2-b10b-1e69956ee684","system_id":"levelo_inurba_marseille","lat":43.2858,"lon":5.39496,"is_reserved":false,"is_disabled":false,"rental_uris":{"android":"levelo://app?vid=0d13530f-9f96-4dc2-b10b-1e69956ee684","ios":"levelo://app?vid=0d13530f-9f96-4dc2-b10b-1e69956ee684"},"vehicle_type_id":"4","last_reported":1748452180,"current_range_meters":13600,"station_id":"ce4bh292rcd13ifvqdg0","pricing_plan_id":"cebpf4jnsgd1na2vs0mg"},{"bike_id":"57273f77-1325-4799-85be-b061b79829a5","system_id":"levelo_inurba_marseille","lat":43.32343,"lon":5.36733,"is_reserved":false,"is_disabled":false,"rental_uris":{"android":"levelo://app?vid=57273f77-1325-4799-85be-b061b79829a5","ios":"levelo://app?vid=57273f77-1325-4799-85be-b061b79829a5"},"vehicle_type_id":"4","last_reported":1748452180,"current_range_meters":13600,"station_id":"ce4bhsh2rcd13ifvqi2g","pricing_plan_id":"cebpf4jnsgd1na2vs0mg"},{"bike_id":"b54825d4-2e46-4dde-aeb6-76b4422681e4","system_id":"levelo_inurba_marseille","lat":43.299957,"lon":5.36574,"is_reserved":false,"is_disabled":false,"rental_uris":{"android":"levelo://app?vid=b54825d4-2e46-4dde-aeb6-76b4422681e4","ios":"levelo://app?vid=b54825d4-2e46-4dde-aeb6-76b4422681e4"},"vehicle_type_id":"4","last_reported":1748452180,"current_range_meters":13600,"station_id":"ce4bgrh2rcd13ifvqc8g","pricing_plan_id":"cebpf4jnsgd1na2vs0mg"},{"bike_id":"f15d0daa-1682-4357-a21e-287b0a49555d","system_id":"levelo_inurba_marseille","lat":43.27976,"lon":5.38742,"is_reserved":false,"is_disabled":false,"rental_uris":{"android":"levelo://app?vid=f15d0daa-1682-4357-a21e-287b0a49555d","ios":"levelo://app?vid=f15d0daa-1682-4357-a21e-287b0a49555d"},"vehicle_type_id":"4","last_reported":1748452180,"current_range_meters":13600,"station_id":"ce4bhg12rcd13ifvqf80","pricing_plan_id":"cebpf4jnsgd1na2vs0mg"},{"bike_id":"f4f81985-fa16-456a-a3d6-2bbc0ea30d63","system_id":"levelo_inurba_marseille","lat":43.29003,"lon":5.35612,"is_reserved":false,"is_disabled":false,"rental_uris":{"android":"levelo://app?vid=f4f81985-fa16-456a-a3d6-2bbc0ea30d63","ios":"levelo://app?vid=f4f81985-fa16-456a-a3d6-2bbc0ea30d63"},"vehicle_type_id":"4","last_reported":1748452180,"current_range_meters":13600,"station_id":"ce4bhb92rcd13ifvqen0","pricing_plan_id":"cebpf4jnsgd1na2vs0mg"},{"bike_id":"63616c72-9029-44e6-98de-a040d6b5ecfb","system_id":"levelo_inurba_marseille","lat":43.32132,"lon":5.36763,"is_reserved":false,"is_disabled":false,"rental_uris":{"android":"levelo://app?vid=63616c72-9029-44e6-98de-a040d6b5ecfb","ios":"levelo://app?vid=63616c72-9029-44e6-98de-a040d6b5ecfb"},"vehicle_type_id":"4","last_reported":1748452180,"current_range_meters":13600,"station_id":"ce4bhrh2rcd13ifvqhug","pricing_plan_id":"cebpf4jnsgd1na2vs0mg"},{"bike_id":"f6f161d2-8b81-4352-8a3f-a587a0c9ab8c","system_id":"levelo_inurba_marseille","lat":43.28672,"lon":5.38664,"is_reserved":false,"is_disabled":false,"rental_uris":{"android":"levelo://app?vid=f6f161d2-8b81-4352-8a3f-a587a0c9ab8c","ios":"levelo://app?vid=f6f161d2-8b81-4352-8a3f-a587a0c9ab8c"},"vehicle_type_id":"4","last_reported":1748452180,"current_range_meters":14000,"station_id":"ce4bh492rcd13ifvqdug","pricing_plan_id":"cebpf4jnsgd1na2vs0mg"},{"bike_id":"60815888-7c98-4769-b7d4-8cf1272505d8","system_id":"levelo_inurba_marseille","lat":43.23195,"lon":5.40005,"is_reserved":false,"is_disabled":false,"rental_uris":{"android":"levelo://app?vid=60815888-7c98-4769-b7d4-8cf1272505d8","ios":"levelo://app?vid=60815888-7c98-4769-b7d4-8cf1272505d8"},"vehicle_type_id":"4","last_reported":1748452180,"current_range_meters":14000,"station_id":"ce4bhn12rcd13ifvqgqg","pricing_plan_id":"cebpf4jnsgd1na2vs0mg"},{"bike_id":"7ba71d8c-7b98-4332-ad88-155fc4984d6a","system_id":"levelo_inurba_marseille","lat":43.26191,"lon":5.37453,"is_reserved":false,"is_disabled":false,"rental_uris":{"android":"levelo://app?vid=7ba71d8c-7b98-4332-ad88-155fc4984d6a","ios":"levelo://app?vid=7ba71d8c-7b98-4332-ad88-155fc4984d6a"},"vehicle_type_id":"4","last_reported":1748452180,"current_range_meters":14000,"station_id":"ce4bhgp2rcd13ifvqfc0","pricing_plan_id":"cebpf4jnsgd1na2vs0mg"},{"bike_id":"b5690457-41aa-4dcd-962f-f066c4a5247c","system_id":"levelo_inurba_marseille","lat":43.293074,"lon":5.371591,"is_reserved":false,"is_disabled":false,"rental_uris":{"android":"levelo://app?vid=b5690457-41aa-4dcd-962f-f066c4a5247c","ios":"levelo://app?vid=b5690457-41aa-4dcd-962f-f066c4a5247c"},"vehicle_type_id":"4","last_reported":1748452180,"current_range_meters":13600,"station_id":"ce4bgh92rcd13ifvqb40","pricing_plan_id":"cebpf4jnsgd1na2vs0mg"},{"bike_id":"48f9b24b-9986-4b8d-9505-f28857687de2","system_id":"levelo_inurba_marseille","lat":43.29192,"lon":5.35805,"is_reserved":false,"is_disabled":false,"rental_uris":{"android":"levelo://app?vid=48f9b24b-9986-4b8d-9505-f28857687de2","ios":"levelo://app?vid=48f9b24b-9986-4b8d-9505-f28857687de2"},"vehicle_type_id":"4","last_reported":1748452180,"current_range_meters":14000,"station_id":"ce4bhb12rcd13ifvqel0","pricing_plan_id":"cebpf4jnsgd1na2vs0mg"},{"bike_id":"00cfef26-7205-4a21-969b-e03bd2d08dad","system_id":"levelo_inurba_marseille","lat":43.28106,"lon":5.37844,"is_reserved":false,"is_disabled":false,"rental_uris":{"android":"levelo://app?vid=00cfef26-7205-4a21-969b-e03bd2d08dad","ios":"levelo://app?vid=00cfef26-7205-4a21-969b-e03bd2d08dad"},"vehicle_type_id":"4","last_reported":1748452180,"current_range_meters":14000,"station_id":"ce4bha12rcd13ifvqee0","pricing_plan_id":"cebpf4jnsgd1na2vs0mg"},{"bike_id":"303a1d58-796b-45c5-b946-1eb2b3d2cd9f","system_id":"levelo_inurba_marseille","lat":43.27994,"lon":5.41661,"is_reserved":false,"is_disabled":false,"rental_uris":{"android":"levelo://app?vid=303a1d58-796b-45c5-b946-1eb2b3d2cd9f","ios":"levelo://app?vid=303a1d58-796b-45c5-b946-1eb2b3d2cd9f"},"vehicle_type_id":"4","last_reported":1748452180,"current_range_meters":13600,"station_id":"ce4bho12rcd13ifvqh1g","pricing_plan_id":"cebpf4jnsgd1na2vs0mg"},{"bike_id":"5a4ad9c0-0553-4a21-bade-da0a9cbdb494","system_id":"levelo_inurba_marseille","lat":43.28599,"lon":5.37072,"is_reserved":false,"is_disabled":false,"rental_uris":{"android":"levelo://app?vid=5a4ad9c0-0553-4a21-bade-da0a9cbdb494","ios":"levelo://app?vid=5a4ad9c0-0553-4a21-bade-da0a9cbdb494"},"vehicle_type_id":"4","last_reported":1748452180,"current_range_meters":13600,"station_id":"ce4bht12rcd13ifvqi60","pricing_plan_id":"cebpf4jnsgd1na2vs0mg"},{"bike_id":"db6129cc-64c3-4182-89a5-8e65228d058f","system_id":"levelo_inurba_marseille","lat":43.28488,"lon":5.3841,"is_reserved":false,"is_disabled":false,"rental_uris":{"android":"levelo://app?vid=db6129cc-64c3-4182-89a5-8e65228d058f","ios":"levelo://app?vid=db6129cc-64c3-4182-89a5-8e65228d058f"},"vehicle_type_id":"4","last_reported":1748452180,"current_range_meters":14400,"station_id":"ce4bh512rcd13ifvqe3g","pricing_plan_id":"cebpf4jnsgd1na2vs0mg"},{"bike_id":"65ff6711-eb16-4bb9-9027-a4cb33a564e5","system_id":"levelo_inurba_marseille","lat":43.28853,"lon":5.3585,"is_reserved":false,"is_disabled":false,"rental_uris":{"android":"levelo://app?vid=65ff6711-eb16-4bb9-9027-a4cb33a564e5","ios":"levelo://app?vid=65ff6711-eb16-4bb9-9027-a4cb33a564e5"},"vehicle_type_id":"4","last_reported":1748452180,"current_range_meters":14400,"station_id":"ce4bhb12rcd13ifvqem0","pricing_plan_id":"cebpf4jnsgd1na2vs0mg"},{"bike_id":"b461e6f5-b06c-4095-aa71-7c143aacaad3","system_id":"levelo_inurba_marseille","lat":43.2863,"lon":5.35092,"is_reserved":false,"is_disabled":false,"rental_uris":{"android":"levelo://app?vid=b461e6f5-b06c-4095-aa71-7c143aacaad3","ios":"levelo://app?vid=b461e6f5-b06c-4095-aa71-7c143aacaad3"},"vehicle_type_id":"4","last_reported":1748452180,"current_range_meters":14400,"station_id":"ce4bhch2rcd13ifvqeug","pricing_plan_id":"cebpf4jnsgd1na2vs0mg"},{"bike_id":"3013b812-fdab-4d5d-b650-14b050b12ee2","system_id":"levelo_inurba_marseille","lat":43.27421,"lon":5.39423,"is_reserved":false,"is_disabled":false,"rental_uris":{"android":"levelo://app?vid=3013b812-fdab-4d5d-b650-14b050b12ee2","ios":"levelo://app?vid=3013b812-fdab-4d5d-b650-14b050b12ee2"},"vehicle_type_id":"4","last_reported":1748452180,"current_range_meters":14400,"station_id":"ce4bhdp2rcd13ifvqf20","pricing_plan_id":"cebpf4jnsgd1na2vs0mg"},{"bike_id":"9697c7a4-8834-4dcb-af62-ade559ad4242","system_id":"levelo_inurba_marseille","lat":43.30894,"lon":5.37197,"is_reserved":false,"is_disabled":false,"rental_uris":{"android":"levelo://app?vid=9697c7a4-8834-4dcb-af62-ade559ad4242","ios":"levelo://app?vid=9697c7a4-8834-4dcb-af62-ade559ad4242"},"vehicle_type_id":"4","last_reported":1748452180,"current_range_meters":14000,"station_id":"ce4bguh2rcd13ifvqckg","pricing_plan_id":"cebpf4jnsgd1na2vs0mg"},{"bike_id":"2b8cf201-3f6a-4001-9ca8-0b486ebce4e1","system_id":"levelo_inurba_marseille","lat":43.28159,"lon":5.42655,"is_reserved":false,"is_disabled":false,"rental_uris":{"android":"levelo://app?vid=2b8cf201-3f6a-4001-9ca8-0b486ebce4e1","ios":"levelo://app?vid=2b8cf201-3f6a-4001-9ca8-0b486ebce4e1"},"vehicle_type_id":"4","last_reported":1748452180,"current_range_meters":14400,"station_id":"ce4bhnh2rcd13ifvqgug","pricing_plan_id":"cebpf4jnsgd1na2vs0mg"},{"bike_id":"9f5a343c-09e8-494d-ad8a-c3d8bc6dcd94","system_id":"levelo_inurba_marseille","lat":43.29162,"lon":5.37158,"is_reserved":false,"is_disabled":false,"rental_uris":{"android":"levelo://app?vid=9f5a343c-09e8-494d-ad8a-c3d8bc6dcd94","ios":"levelo://app?vid=9f5a343c-09e8-494d-ad8a-c3d8bc6dcd94"},"vehicle_type_id":"4","last_reported":1748452180,"current_range_meters":14000,"station_id":"ce4bha92rcd13ifvqeh0","pricing_plan_id":"cebpf4jnsgd1na2vs0mg"},{"bike_id":"944a8bdd-df7d-481b-afc4-58cb893584cd","system_id":"levelo_inurba_marseille","lat":43.232013,"lon":5.355562,"is_reserved":false,"is_disabled":false,"rental_uris":{"android":"levelo://app?vid=944a8bdd-df7d-481b-afc4-58cb893584cd","ios":"levelo://app?vid=944a8bdd-df7d-481b-afc4-58cb893584cd"},"vehicle_type_id":"4","last_reported":1748452180,"current_range_meters":14400,"station_id":"ce4bhu92rcd13ifvqi70","pricing_plan_id":"cebpf4jnsgd1na2vs0mg"},{"bike_id":"b7db8eb8-03e9-4867-9c2a-30a0ba74191c","system_id":"levelo_inurba_marseille","lat":43.29032,"lon":5.38655,"is_reserved":false,"is_disabled":false,"rental_uris":{"android":"levelo://app?vid=b7db8eb8-03e9-4867-9c2a-30a0ba74191c","ios":"levelo://app?vid=b7db8eb8-03e9-4867-9c2a-30a0ba74191c"},"vehicle_type_id":"4","last_reported":1748452180,"current_range_meters":14800,"station_id":"ce4bh4p2rcd13ifvqe0g","pricing_plan_id":"cebpf4jnsgd1na2vs0mg"},{"bike_id":"3a6f9791-bd8f-4258-a58e-ee5cb6a29338","system_id":"levelo_inurba_marseille","lat":43.29883,"lon":5.38914,"is_reserved":false,"is_disabled":false,"rental_uris":{"android":"levelo://app?vid=3a6f9791-bd8f-4258-a58e-ee5cb6a29338","ios":"levelo://app?vid=3a6f9791-bd8f-4258-a58e-ee5cb6a29338"},"vehicle_type_id":"4","last_reported":1748452180,"current_range_meters":14800,"station_id":"ce4bh392rcd13ifvqdl0","pricing_plan_id":"cebpf4jnsgd1na2vs0mg"},{"bike_id":"c5282318-d0e0-4eed-b14f-d97474c7f047","system_id":"levelo_inurba_marseille","lat":43.29198,"lon":5.39334,"is_reserved":false,"is_disabled":false,"rental_uris":{"android":"levelo://app?vid=c5282318-d0e0-4eed-b14f-d97474c7f047","ios":"levelo://app?vid=c5282318-d0e0-4eed-b14f-d97474c7f047"},"vehicle_type_id":"4","last_reported":1748452180,"current_range_meters":14400,"station_id":"ce4bh192rcd13ifvqdd0","pricing_plan_id":"cebpf4jnsgd1na2vs0mg"},{"bike_id":"91f5e5b8-466f-4325-a2c5-fc968a8aa71f","system_id":"levelo_inurba_marseille","lat":43.25583,"lon":5.38223,"is_reserved":false,"is_disabled":false,"rental_uris":{"android":"levelo://app?vid=91f5e5b8-466f-4325-a2c5-fc968a8aa71f","ios":"levelo://app?vid=91f5e5b8-466f-4325-a2c5-fc968a8aa71f"},"vehicle_type_id":"4","last_reported":1748452180,"current_range_meters":14800,"station_id":"ce4bhih2rcd13ifvqfs0","pricing_plan_id":"cebpf4jnsgd1na2vs0mg"},{"bike_id":"ff9feb90-c526-40db-a696-c81b0df476f0","system_id":"levelo_inurba_marseille","lat":43.28724,"lon":5.37942,"is_reserved":false,"is_disabled":false,"rental_uris":{"android":"levelo://app?vid=ff9feb90-c526-40db-a696-c81b0df476f0","ios":"levelo://app?vid=ff9feb90-c526-40db-a696-c81b0df476f0"},"vehicle_type_id":"4","last_reported":1748452180,"current_range_meters":14800,"station_id":"ce4bh9p2rcd13ifvqec0","pricing_plan_id":"cebpf4jnsgd1na2vs0mg"},{"bike_id":"16c5eac6-e81d-4a2c-a82c-4e771ef37342","system_id":"levelo_inurba_marseille","lat":43.2873,"lon":5.37944,"is_reserved":false,"is_disabled":false,"rental_uris":{"android":"levelo://app?vid=16c5eac6-e81d-4a2c-a82c-4e771ef37342","ios":"levelo://app?vid=16c5eac6-e81d-4a2c-a82c-4e771ef37342"},"vehicle_type_id":"4","last_reported":1748452180,"current_range_meters":15200,"station_id":"ce4bh9p2rcd13ifvqec0","pricing_plan_id":"cebpf4jnsgd1na2vs0mg"},{"bike_id":"d1160911-5dba-4a70-bdeb-2e5a47931200","system_id":"levelo_inurba_marseille","lat":43.27994,"lon":5.4165,"is_reserved":false,"is_disabled":false,"rental_uris":{"android":"levelo://app?vid=d1160911-5dba-4a70-bdeb-2e5a47931200","ios":"levelo://app?vid=d1160911-5dba-4a70-bdeb-2e5a47931200"},"vehicle_type_id":"4","last_reported":1748452180,"current_range_meters":16000,"station_id":"ce4bho12rcd13ifvqh1g","pricing_plan_id":"cebpf4jnsgd1na2vs0mg"},{"bike_id":"49c62acc-a0b7-4cd9-8159-e6005c4750bb","system_id":"levelo_inurba_marseille","lat":43.27181,"lon":5.40975,"is_reserved":false,"is_disabled":false,"rental_uris":{"android":"levelo://app?vid=49c62acc-a0b7-4cd9-8159-e6005c4750bb","ios":"levelo://app?vid=49c62acc-a0b7-4cd9-8159-e6005c4750bb"},"vehicle_type_id":"4","last_reported":1748452180,"current_range_meters":16000,"station_id":"ce4bhl12rcd13ifvqgf0","pricing_plan_id":"cebpf4jnsgd1na2vs0mg"},{"bike_id":"1d709dfd-650e-45b2-917b-6d82b58a36fb","system_id":"levelo_inurba_marseille","lat":43.3093,"lon":5.40144,"is_reserved":false,"is_disabled":false,"rental_uris":{"android":"levelo://app?vid=1d709dfd-650e-45b2-917b-6d82b58a36fb","ios":"levelo://app?vid=1d709dfd-650e-45b2-917b-6d82b58a36fb"},"vehicle_type_id":"4","last_reported":1748452180,"current_range_meters":16000,"station_id":"ce4bgvp2rcd13ifvqct0","pricing_plan_id":"cebpf4jnsgd1na2vs0mg"},{"bike_id":"2a6888f1-5d11-4d78-959b-84f51e6b7c08","system_id":"levelo_inurba_marseille","lat":43.2808,"lon":5.39665,"is_reserved":false,"is_disabled":false,"rental_uris":{"android":"levelo://app?vid=2a6888f1-5d11-4d78-959b-84f51e6b7c08","ios":"levelo://app?vid=2a6888f1-5d11-4d78-959b-84f51e6b7c08"},"vehicle_type_id":"4","last_reported":1748452180,"current_range_meters":15200,"station_id":"ce4bho12rcd13ifvqh2g","pricing_plan_id":"cebpf4jnsgd1na2vs0mg"},{"bike_id":"cedfaf75-bc71-4e8a-98d3-f7474a976d06","system_id":"levelo_inurba_marseille","lat":43.28856,"lon":5.35852,"is_reserved":false,"is_disabled":false,"rental_uris":{"android":"levelo://app?vid=cedfaf75-bc71-4e8a-98d3-f7474a976d06","ios":"levelo://app?vid=cedfaf75-bc71-4e8a-98d3-f7474a976d06"},"vehicle_type_id":"4","last_reported":1748452180,"current_range_meters":15200,"station_id":"ce4bhb12rcd13ifvqem0","pricing_plan_id":"cebpf4jnsgd1na2vs0mg"},{"bike_id":"99928be4-063b-41f5-905a-2e4b77fd7484","system_id":"levelo_inurba_marseille","lat":43.26215,"lon":5.37441,"is_reserved":false,"is_disabled":false,"rental_uris":{"android":"levelo://app?vid=99928be4-063b-41f5-905a-2e4b77fd7484","ios":"levelo://app?vid=99928be4-063b-41f5-905a-2e4b77fd7484"},"vehicle_type_id":"4","last_reported":1748452180,"current_range_meters":16000,"station_id":"ce4bhgp2rcd13ifvqfc0","pricing_plan_id":"cebpf4jnsgd1na2vs0mg"},{"bike_id":"9a8b6307-1262-412f-851b-3f5714ea2a60","system_id":"levelo_inurba_marseille","lat":43.30898,"lon":5.40225,"is_reserved":false,"is_disabled":true,"rental_uris":{"android":"levelo://app?vid=9a8b6307-1262-412f-851b-3f5714ea2a60","ios":"levelo://app?vid=9a8b6307-1262-412f-851b-3f5714ea2a60"},"vehicle_type_id":"4","last_reported":1748452180,"current_range_meters":16000,"station_id":"","pricing_plan_id":"cebpf4jnsgd1na2vs0mg"},{"bike_id":"6bfe45fb-dbcd-42d5-82ee-4116aef185b9","system_id":"levelo_inurba_marseille","lat":43.29261,"lon":5.38435,"is_reserved":false,"is_disabled":false,"rental_uris":{"android":"levelo://app?vid=6bfe45fb-dbcd-42d5-82ee-4116aef185b9","ios":"levelo://app?vid=6bfe45fb-dbcd-42d5-82ee-4116aef185b9"},"vehicle_type_id":"4","last_reported":1748452180,"current_range_meters":15200,"station_id":"ce4bh692rcd13ifvqea0","pricing_plan_id":"cebpf4jnsgd1na2vs0mg"},{"bike_id":"74596cad-01b8-4827-9b35-ca1f4056673c","system_id":"levelo_inurba_marseille","lat":43.32397,"lon":5.38377,"is_reserved":false,"is_disabled":false,"rental_uris":{"android":"levelo://app?vid=74596cad-01b8-4827-9b35-ca1f4056673c","ios":"levelo://app?vid=74596cad-01b8-4827-9b35-ca1f4056673c"},"vehicle_type_id":"4","last_reported":1748452180,"current_range_meters":16000,"station_id":"","pricing_plan_id":"cebpf4jnsgd1na2vs0mg"},{"bike_id":"12f812f4-04ff-4c45-a0c3-8d0ffe40d936","system_id":"levelo_inurba_marseille","lat":43.28656,"lon":5.37047,"is_reserved":false,"is_disabled":false,"rental_uris":{"android":"levelo://app?vid=12f812f4-04ff-4c45-a0c3-8d0ffe40d936","ios":"levelo://app?vid=12f812f4-04ff-4c45-a0c3-8d0ffe40d936"},"vehicle_type_id":"4","last_reported":1748452180,"current_range_meters":16400,"station_id":"","pricing_plan_id":"cebpf4jnsgd1na2vs0mg"},{"bike_id":"e94e523f-f4d4-4324-bc0f-f25669fad761","system_id":"levelo_inurba_marseille","lat":43.29628,"lon":5.40597,"is_reserved":false,"is_disabled":false,"rental_uris":{"android":"levelo://app?vid=e94e523f-f4d4-4324-bc0f-f25669fad761","ios":"levelo://app?vid=e94e523f-f4d4-4324-bc0f-f25669fad761"},"vehicle_type_id":"4","last_reported":1748452180,"current_range_meters":16800,"station_id":"ce4bh0h2rcd13ifvqd60","pricing_plan_id":"cebpf4jnsgd1na2vs0mg"},{"bike_id":"c7ac9cc1-d150-4aa6-b653-77456806c056","system_id":"levelo_inurba_marseille","lat":43.28847,"lon":5.39316,"is_reserved":false,"is_disabled":false,"rental_uris":{"android":"levelo://app?vid=c7ac9cc1-d150-4aa6-b653-77456806c056","ios":"levelo://app?vid=c7ac9cc1-d150-4aa6-b653-77456806c056"},"vehicle_type_id":"4","last_reported":1748452180,"current_range_meters":16400,"station_id":"ce4bh2p2rcd13ifvqdi0","pricing_plan_id":"cebpf4jnsgd1na2vs0mg"},{"bike_id":"46e52355-b960-4567-b561-6c7380e454a9","system_id":"levelo_inurba_marseille","lat":43.24069,"lon":5.37768,"is_reserved":false,"is_disabled":false,"rental_uris":{"android":"levelo://app?vid=46e52355-b960-4567-b561-6c7380e454a9","ios":"levelo://app?vid=46e52355-b960-4567-b561-6c7380e454a9"},"vehicle_type_id":"4","last_reported":1748452180,"current_range_meters":16400,"station_id":"ce4bhnp2rcd13ifvqgvg","pricing_plan_id":"cebpf4jnsgd1na2vs0mg"},{"bike_id":"d74b1345-af66-4995-ab45-92253cd132e2","system_id":"levelo_inurba_marseille","lat":43.28285,"lon":5.35077,"is_reserved":false,"is_disabled":false,"rental_uris":{"android":"levelo://app?vid=d74b1345-af66-4995-ab45-92253cd132e2","ios":"levelo://app?vid=d74b1345-af66-4995-ab45-92253cd132e2"},"vehicle_type_id":"4","last_reported":1748452180,"current_range_meters":17200,"station_id":"ce4bhbp2rcd13ifvqerg","pricing_plan_id":"cebpf4jnsgd1na2vs0mg"},{"bike_id":"1a1dd53c-bf17-4a70-a197-d1c47a1fa7b0","system_id":"levelo_inurba_marseille","lat":43.29002,"lon":5.35613,"is_reserved":false,"is_disabled":false,"rental_uris":{"android":"levelo://app?vid=1a1dd53c-bf17-4a70-a197-d1c47a1fa7b0","ios":"levelo://app?vid=1a1dd53c-bf17-4a70-a197-d1c47a1fa7b0"},"vehicle_type_id":"4","last_reported":1748452180,"current_range_meters":16400,"station_id":"ce4bhb92rcd13ifvqen0","pricing_plan_id":"cebpf4jnsgd1na2vs0mg"},{"bike_id":"c46d20f0-3e29-46d5-9d2f-181b498c6ab4","system_id":"levelo_inurba_marseille","lat":43.29004,"lon":5.35601,"is_reserved":false,"is_disabled":false,"rental_uris":{"android":"levelo://app?vid=c46d20f0-3e29-46d5-9d2f-181b498c6ab4","ios":"levelo://app?vid=c46d20f0-3e29-46d5-9d2f-181b498c6ab4"},"vehicle_type_id":"4","last_reported":1748452180,"current_range_meters":16400,"station_id":"ce4bhb92rcd13ifvqen0","pricing_plan_id":"cebpf4jnsgd1na2vs0mg"},{"bike_id":"d2558607-3e47-4ded-ad86-b127e6b0765c","system_id":"levelo_inurba_marseille","lat":43.27192,"lon":5.40986,"is_reserved":false,"is_disabled":false,"rental_uris":{"android":"levelo://app?vid=d2558607-3e47-4ded-ad86-b127e6b0765c","ios":"levelo://app?vid=d2558607-3e47-4ded-ad86-b127e6b0765c"},"vehicle_type_id":"4","last_reported":1748452180,"current_range_meters":16400,"station_id":"ce4bhl12rcd13ifvqgf0","pricing_plan_id":"cebpf4jnsgd1na2vs0mg"},{"bike_id":"92ede7fd-37e4-4914-b950-338cff460fe9","system_id":"levelo_inurba_marseille","lat":43.27931,"lon":5.3959,"is_reserved":false,"is_disabled":false,"rental_uris":{"android":"levelo://app?vid=92ede7fd-37e4-4914-b950-338cff460fe9","ios":"levelo://app?vid=92ede7fd-37e4-4914-b950-338cff460fe9"},"vehicle_type_id":"4","last_reported":1748452180,"current_range_meters":16400,"station_id":"ce4bhf92rcd13ifvqf40","pricing_plan_id":"cebpf4jnsgd1na2vs0mg"},{"bike_id":"79679e93-e37a-4ea4-9ac2-812443742dde","system_id":"levelo_inurba_marseille","lat":43.23192,"lon":5.39993,"is_reserved":false,"is_disabled":false,"rental_uris":{"android":"levelo://app?vid=79679e93-e37a-4ea4-9ac2-812443742dde","ios":"levelo://app?vid=79679e93-e37a-4ea4-9ac2-812443742dde"},"vehicle_type_id":"4","last_reported":1748452180,"current_range_meters":16400,"station_id":"ce4bhn12rcd13ifvqgqg","pricing_plan_id":"cebpf4jnsgd1na2vs0mg"},{"bike_id":"10968504-489a-44b8-a70c-596c0a0d82d9","system_id":"levelo_inurba_marseille","lat":43.284064,"lon":5.375166,"is_reserved":false,"is_disabled":false,"rental_uris":{"android":"levelo://app?vid=10968504-489a-44b8-a70c-596c0a0d82d9","ios":"levelo://app?vid=10968504-489a-44b8-a70c-596c0a0d82d9"},"vehicle_type_id":"4","last_reported":1748452180,"current_range_meters":16400,"station_id":"ce4bh412rcd13ifvqds0","pricing_plan_id":"cebpf4jnsgd1na2vs0mg"},{"bike_id":"6a694417-653b-4864-bf10-7591d68482f2","system_id":"levelo_inurba_marseille","lat":43.24804,"lon":5.37459,"is_reserved":false,"is_disabled":false,"rental_uris":{"android":"levelo://app?vid=6a694417-653b-4864-bf10-7591d68482f2","ios":"levelo://app?vid=6a694417-653b-4864-bf10-7591d68482f2"},"vehicle_type_id":"4","last_reported":1748452180,"current_range_meters":16400,"station_id":"ce4bhgh2rcd13ifvqfb0","pricing_plan_id":"cebpf4jnsgd1na2vs0mg"},{"bike_id":"6cf2944e-5567-4c99-adbb-0844298c3097","system_id":"levelo_inurba_marseille","lat":43.260575,"lon":5.39386,"is_reserved":false,"is_disabled":false,"rental_uris":{"android":"levelo://app?vid=6cf2944e-5567-4c99-adbb-0844298c3097","ios":"levelo://app?vid=6cf2944e-5567-4c99-adbb-0844298c3097"},"vehicle_type_id":"4","last_reported":1748452180,"current_range_meters":16400,"station_id":"ce4bhh92rcd13ifvqfj0","pricing_plan_id":"cebpf4jnsgd1na2vs0mg"},{"bike_id":"e04cc4fb-2258-436a-9c85-62328e8ca222","system_id":"levelo_inurba_marseille","lat":43.284142,"lon":5.349836,"is_reserved":false,"is_disabled":false,"rental_uris":{"android":"levelo://app?vid=e04cc4fb-2258-436a-9c85-62328e8ca222","ios":"levelo://app?vid=e04cc4fb-2258-436a-9c85-62328e8ca222"},"vehicle_type_id":"4","last_reported":1748452180,"current_range_meters":16400,"station_id":"ce4bhbh2rcd13ifvqepg","pricing_plan_id":"cebpf4jnsgd1na2vs0mg"},{"bike_id":"0c73411e-a043-4f55-bba7-673f5273616a","system_id":"levelo_inurba_marseille","lat":43.27177,"lon":5.40991,"is_reserved":false,"is_disabled":false,"rental_uris":{"android":"levelo://app?vid=0c73411e-a043-4f55-bba7-673f5273616a","ios":"levelo://app?vid=0c73411e-a043-4f55-bba7-673f5273616a"},"vehicle_type_id":"4","last_reported":1748452180,"current_range_meters":16800,"station_id":"ce4bhl12rcd13ifvqgf0","pricing_plan_id":"cebpf4jnsgd1na2vs0mg"},{"bike_id":"9b3b3b4f-c17e-4055-9a8f-71332fe72aed","system_id":"levelo_inurba_marseille","lat":43.231925,"lon":5.355495,"is_reserved":false,"is_disabled":false,"rental_uris":{"android":"levelo://app?vid=9b3b3b4f-c17e-4055-9a8f-71332fe72aed","ios":"levelo://app?vid=9b3b3b4f-c17e-4055-9a8f-71332fe72aed"},"vehicle_type_id":"4","last_reported":1748452180,"current_range_meters":16400,"station_id":"ce4bhu92rcd13ifvqi70","pricing_plan_id":"cebpf4jnsgd1na2vs0mg"},{"bike_id":"2869f79a-1c28-40b3-ab0b-cfc92a02940f","system_id":"levelo_inurba_marseille","lat":43.250793,"lon":5.395208,"is_reserved":false,"is_disabled":false,"rental_uris":{"android":"levelo://app?vid=2869f79a-1c28-40b3-ab0b-cfc92a02940f","ios":"levelo://app?vid=2869f79a-1c28-40b3-ab0b-cfc92a02940f"},"vehicle_type_id":"4","last_reported":1748452180,"current_range_meters":16800,"station_id":"ce4bhm12rcd13ifvqgkg","pricing_plan_id":"cebpf4jnsgd1na2vs0mg"},{"bike_id":"a9c5b524-33aa-4f11-b90e-63464972d990","system_id":"levelo_inurba_marseille","lat":43.33111,"lon":5.38222,"is_reserved":false,"is_disabled":false,"rental_uris":{"android":"levelo://app?vid=a9c5b524-33aa-4f11-b90e-63464972d990","ios":"levelo://app?vid=a9c5b524-33aa-4f11-b90e-63464972d990"},"vehicle_type_id":"4","last_reported":1748452180,"current_range_meters":16800,"station_id":"","pricing_plan_id":"cebpf4jnsgd1na2vs0mg"},{"bike_id":"d5903bbe-82d4-4164-a311-02dfb3562c19","system_id":"levelo_inurba_marseille","lat":43.29189,"lon":5.35808,"is_reserved":false,"is_disabled":false,"rental_uris":{"android":"levelo://app?vid=d5903bbe-82d4-4164-a311-02dfb3562c19","ios":"levelo://app?vid=d5903bbe-82d4-4164-a311-02dfb3562c19"},"vehicle_type_id":"4","last_reported":1748452180,"current_range_meters":16800,"station_id":"ce4bhb12rcd13ifvqel0","pricing_plan_id":"cebpf4jnsgd1na2vs0mg"},{"bike_id":"050206bd-38e8-411f-a4d9-648f3950506e","system_id":"levelo_inurba_marseille","lat":43.291966,"lon":5.358528,"is_reserved":false,"is_disabled":false,"rental_uris":{"android":"levelo://app?vid=050206bd-38e8-411f-a4d9-648f3950506e","ios":"levelo://app?vid=050206bd-38e8-411f-a4d9-648f3950506e"},"vehicle_type_id":"4","last_reported":1748452180,"current_range_meters":16800,"station_id":"ce4bhb92rcd13ifvqen0","pricing_plan_id":"cebpf4jnsgd1na2vs0mg"},{"bike_id":"6fdb68de-8ff8-4e33-89d3-503ee8472080","system_id":"levelo_inurba_marseille","lat":43.21757,"lon":5.34617,"is_reserved":false,"is_disabled":false,"rental_uris":{"android":"levelo://app?vid=6fdb68de-8ff8-4e33-89d3-503ee8472080","ios":"levelo://app?vid=6fdb68de-8ff8-4e33-89d3-503ee8472080"},"vehicle_type_id":"4","last_reported":1748452180,"current_range_meters":16800,"station_id":"","pricing_plan_id":"cebpf4jnsgd1na2vs0mg"},{"bike_id":"1ceb9f5a-a738-4712-8b97-a7e2d8914c6e","system_id":"levelo_inurba_marseille","lat":43.28621,"lon":5.351,"is_reserved":false,"is_disabled":false,"rental_uris":{"android":"levelo://app?vid=1ceb9f5a-a738-4712-8b97-a7e2d8914c6e","ios":"levelo://app?vid=1ceb9f5a-a738-4712-8b97-a7e2d8914c6e"},"vehicle_type_id":"4","last_reported":1748452180,"current_range_meters":16800,"station_id":"ce4bhch2rcd13ifvqeug","pricing_plan_id":"cebpf4jnsgd1na2vs0mg"},{"bike_id":"a426f99b-d34a-41bf-bbda-59f7dfd6939b","system_id":"levelo_inurba_marseille","lat":43.255796,"lon":5.382262,"is_reserved":false,"is_disabled":false,"rental_uris":{"android":"levelo://app?vid=a426f99b-d34a-41bf-bbda-59f7dfd6939b","ios":"levelo://app?vid=a426f99b-d34a-41bf-bbda-59f7dfd6939b"},"vehicle_type_id":"4","last_reported":1748452180,"current_range_meters":17200,"station_id":"ce501612rcd8frsf0b60","pricing_plan_id":"cebpf4jnsgd1na2vs0mg"},{"bike_id":"bd4202c1-dab2-4d87-a97d-762d6a4d8365","system_id":"levelo_inurba_marseille","lat":43.29231,"lon":5.36076,"is_reserved":false,"is_disabled":false,"rental_uris":{"android":"levelo://app?vid=bd4202c1-dab2-4d87-a97d-762d6a4d8365","ios":"levelo://app?vid=bd4202c1-dab2-4d87-a97d-762d6a4d8365"},"vehicle_type_id":"4","last_reported":1748452180,"current_range_meters":16800,"station_id":"ce4bhbh2rcd13ifvqeqg","pricing_plan_id":"cebpf4jnsgd1na2vs0mg"},{"bike_id":"95569110-f650-4837-8774-8d97e169f37f","system_id":"levelo_inurba_marseille","lat":43.29188,"lon":5.35804,"is_reserved":false,"is_disabled":false,"rental_uris":{"android":"levelo://app?vid=95569110-f650-4837-8774-8d97e169f37f","ios":"levelo://app?vid=95569110-f650-4837-8774-8d97e169f37f"},"vehicle_type_id":"4","last_reported":1748452180,"current_range_meters":17200,"station_id":"ce4bhb12rcd13ifvqel0","pricing_plan_id":"cebpf4jnsgd1na2vs0mg"},{"bike_id":"68dbd214-83f4-4607-9f20-24194b22508a","system_id":"levelo_inurba_marseille","lat":43.27988,"lon":5.41659,"is_reserved":false,"is_disabled":false,"rental_uris":{"android":"levelo://app?vid=68dbd214-83f4-4607-9f20-24194b22508a","ios":"levelo://app?vid=68dbd214-83f4-4607-9f20-24194b22508a"},"vehicle_type_id":"4","last_reported":1748452180,"current_range_meters":16800,"station_id":"ce4bho12rcd13ifvqh1g","pricing_plan_id":"cebpf4jnsgd1na2vs0mg"},{"bike_id":"a4f1e6b5-068e-4cd5-ac4b-3a6f1f657d85","system_id":"levelo_inurba_marseille","lat":43.28408,"lon":5.34999,"is_reserved":false,"is_disabled":false,"rental_uris":{"android":"levelo://app?vid=a4f1e6b5-068e-4cd5-ac4b-3a6f1f657d85","ios":"levelo://app?vid=a4f1e6b5-068e-4cd5-ac4b-3a6f1f657d85"},"vehicle_type_id":"4","last_reported":1748452180,"current_range_meters":17200,"station_id":"ce4bhbh2rcd13ifvqepg","pricing_plan_id":"cebpf4jnsgd1na2vs0mg"},{"bike_id":"db0891da-38ee-49e6-99d4-a73b98d2ebc3","system_id":"levelo_inurba_marseille","lat":43.302979,"lon":5.392187,"is_reserved":false,"is_disabled":false,"rental_uris":{"android":"levelo://app?vid=db0891da-38ee-49e6-99d4-a73b98d2ebc3","ios":"levelo://app?vid=db0891da-38ee-49e6-99d4-a73b98d2ebc3"},"vehicle_type_id":"4","last_reported":1748452180,"current_range_meters":17200,"station_id":"ce4bh392rcd13ifvqdm0","pricing_plan_id":"cebpf4jnsgd1na2vs0mg"},{"bike_id":"ba06b454-85c3-47ac-80c7-dc19459a2ba1","system_id":"levelo_inurba_marseille","lat":43.29537,"lon":5.3854,"is_reserved":false,"is_disabled":false,"rental_uris":{"android":"levelo://app?vid=ba06b454-85c3-47ac-80c7-dc19459a2ba1","ios":"levelo://app?vid=ba06b454-85c3-47ac-80c7-dc19459a2ba1"},"vehicle_type_id":"4","last_reported":1748452180,"current_range_meters":17200,"station_id":"ce4bgih2rcd13ifvqba0","pricing_plan_id":"cebpf4jnsgd1na2vs0mg"},{"bike_id":"f5733814-9732-4748-bcc9-3b2fac8e1564","system_id":"levelo_inurba_marseille","lat":43.31256,"lon":5.37829,"is_reserved":false,"is_disabled":false,"rental_uris":{"android":"levelo://app?vid=f5733814-9732-4748-bcc9-3b2fac8e1564","ios":"levelo://app?vid=f5733814-9732-4748-bcc9-3b2fac8e1564"},"vehicle_type_id":"4","last_reported":1748452180,"current_range_meters":17200,"station_id":"","pricing_plan_id":"cebpf4jnsgd1na2vs0mg"},{"bike_id":"4d3d2f5c-bb8f-4495-946e-2238dfcaf89c","system_id":"levelo_inurba_marseille","lat":43.29541,"lon":5.38543,"is_reserved":false,"is_disabled":false,"rental_uris":{"android":"levelo://app?vid=4d3d2f5c-bb8f-4495-946e-2238dfcaf89c","ios":"levelo://app?vid=4d3d2f5c-bb8f-4495-946e-2238dfcaf89c"},"vehicle_type_id":"4","last_reported":1748452180,"current_range_meters":17200,"station_id":"ce4bgih2rcd13ifvqba0","pricing_plan_id":"cebpf4jnsgd1na2vs0mg"},{"bike_id":"5137887d-1cb3-4375-b6d8-bb6eaab195e4","system_id":"levelo_inurba_marseille","lat":43.28424,"lon":5.34994,"is_reserved":false,"is_disabled":false,"rental_uris":{"android":"levelo://app?vid=5137887d-1cb3-4375-b6d8-bb6eaab195e4","ios":"levelo://app?vid=5137887d-1cb3-4375-b6d8-bb6eaab195e4"},"vehicle_type_id":"4","last_reported":1748452180,"current_range_meters":17600,"station_id":"ce4bhbh2rcd13ifvqepg","pricing_plan_id":"cebpf4jnsgd1na2vs0mg"},