{"last_updated":1726441701,"ttl":30,"version":"2.2","data":{"bikes":[{"bike_id":"21f0f158-5ee2-490d-9587-1c1786b6b1ee","system_id":"levelo_inurba_marseille","lat":43.29897,"lon":5.3976,"is_reserved":false,"is_disabled":false,"rental_uris":{"android":"levelo://app?vid=21f0f158-5ee2-490d-9587-1c1786b6b1ee","ios":"levelo://app?vid=21f0f158-5ee2-490d-9587-1c1786b6b1ee"},"vehicle_type_id":"4","last_reported":1726441702,"current_range_meters":38800,"station_id":"ce4bh0h2rcd13ifvqd50","pricing_plan_id":"cebpf4jnsgd1na2vs0mg"},{"bike_id":"a03088c7-f829-4a74-96eb-3d5316e10863","system_id":"levelo_inurba_marseille","lat":43.25498,"lon":5.37652,"is_reserved":false,"is_disabled":false,"rental_uris":{"android":"levelo://app?vid=a03088c7-f829-4a74-96eb-3d5316e10863","ios":"levelo://app?vid=a03088c7-f829-4a74-96eb-3d5316e10863"},"vehicle_type_id":"4","last_reported":1726441702,"current_range_meters":38800,"station_id":"ce4bhh12rcd13ifvqff0","pricing_plan_id":"cebpf4jnsgd1na2vs0mg"},{"bike_id":"d851b2c9-ad76-4c91-8b78-abb7f1e67f53","system_id":"levelo_inurba_marseille","lat":43.28577,"lon":5.39498,"is_reserved":false,"is_disabled":false,"rental_uris":{"android":"levelo://app?vid=d851b2c9-ad76-4c91-8b78-abb7f1e67f53","ios":"levelo://app?vid=d851b2c9-ad76-4c91-8b78-abb7f1e67f53"},"vehicle_type_id":"4","last_reported":1726441702,"current_range_meters":38800,"station_id":"ce4bh292rcd13ifvqdg0","pricing_plan_id":"cebpf4jnsgd1na2vs0mg"},{"bike_id":"5440ae72-f8d2-4dc7-b6cd-9b12f1ca8829","system_id":"levelo_inurba_marseille","lat":43.2988,"lon":5.3976,"is_reserved":false,"is_disabled":false,"rental_uris":{"android":"levelo://app?vid=5440ae72-f8d2-4dc7-b6cd-9b12f1ca8829","ios":"levelo://app?vid=5440ae72-f8d2-4dc7-b6cd-9b12f1ca8829"},"vehicle_type_id":"4","last_reported":1726441702,"current_range_meters":38800,"station_id":"ce4bh0h2rcd13ifvqd50","pricing_plan_id":"cebpf4jnsgd1na2vs0mg"},{"bike_id":"6df45efb-1193-4025-91f0-b00d0b3abcb7","system_id":"levelo_inurba_marseille","lat":43.31703,"lon":5.37763,"is_reserved":false,"is_disabled":false,"rental_uris":{"android":"levelo://app?vid=6df45efb-1193-4025-91f0-b00d0b3abcb7","ios":"levelo://app?vid=6df45efb-1193-4025-91f0-b00d0b3abcb7"},"vehicle_type_id":"4","last_reported":1726441702,"current_range_meters":38800,"station_id":"ce4bgth2rcd13ifvqch0","pricing_plan_id":"cebpf4jnsgd1na2vs0mg"},{"bike_id":"48a82de2-7872-40cb-b1bf-43e70b76834b","system_id":"levelo_inurba_marseille","lat":43.31294,"lon":5.37812,"is_reserved":false,"is_disabled":false,"rental_uris":{"android":"levelo://app?vid=48a82de2-7872-40cb-b1bf-43e70b76834b","ios":"levelo://app?vid=48a82de2-7872-40cb-b1bf-43e70b76834b"},"vehicle_type_id":"4","last_reported":1726441702,"current_range_meters":32000,"station_id":"","pricing_plan_id":"cebpf4jnsgd1na2vs0mg"},{"bike_id":"e9097b78-49c8-4e5b-9b9b-d83cd1fc7721","system_id":"levelo_inurba_marseille","lat":43.317657,"lon":5.424108,"is_reserved":false,"is_disabled":false,"rental_uris":{"android":"levelo://app?vid=e9097b78-49c8-4e5b-9b9b-d83cd1fc7721","ios":"levelo://app?vid=e9097b78-49c8-4e5b-9b9b-d83cd1fc7721"},"vehicle_type_id":"4","last_reported":1726441702,"current_range_meters":24400,"station_id":"ce4bhp92rcd13ifvqhbg","pricing_plan_id":"cebpf4jnsgd1na2vs0mg"},{"bike_id":"cbcb9251-3d0e-4d7c-9000-b759b8955053","system_id":"levelo_inurba_marseille","lat":43.31124,"lon":5.37748,"is_reserved":false,"is_disabled":false,"rental_uris":{"android":"levelo://app?vid=cbcb9251-3d0e-4d7c-9000-b759b8955053","ios":"levelo://app?vid=cbcb9251-3d0e-4d7c-9000-b759b8955053"},"vehicle_type_id":"4","last_reported":1726441702,"current_range_meters":38400,"station_id":"ce4bgt92rcd13ifvqcg0","pricing_plan_id":"cebpf4jnsgd1na2vs0mg"},{"bike_id":"35d737be-72e2-4a47-b9f4-508f6d1ff612","system_id":"levelo_inurba_marseille","lat":43.25124,"lon":5.40328,"is_reserved":false,"is_disabled":false,"rental_uris":{"android":"levelo://app?vid=35d737be-72e2-4a47-b9f4-508f6d1ff612","ios":"levelo://app?vid=35d737be-72e2-4a47-b9f4-508f6d1ff612"},"vehicle_type_id":"4","last_reported":1726441702,"current_range_meters":12400,"station_id":"ce4bhlh2rcd13ifvqgig","pricing_plan_id":"cebpf4jnsgd1na2vs0mg"},{"bike_id":"8661cdbd-539b-4736-96ae-3b29c9f34a0b","system_id":"levelo_inurba_marseille","lat":43.24084,"lon":5.37755,"is_reserved":false,"is_disabled":false,"rental_uris":{"android":"levelo://app?vid=8661cdbd-539b-4736-96ae-3b29c9f34a0b","ios":"levelo://app?vid=8661cdbd-539b-4736-96ae-3b29c9f34a0b"},"vehicle_type_id":"4","last_reported":1726441702,"current_range_meters":8400,"station_id":"ce4bhnp2rcd13ifvqgvg","pricing_plan_id":"cebpf4jnsgd1na2vs0mg"},{"bike_id":"892d6ba7-ec27-48aa-a06b-9fcc2866af0b","system_id":"levelo_inurba_marseille","lat":43.25933,"lon":5.40908,"is_reserved":false,"is_disabled":false,"rental_uris":{"android":"levelo://app?vid=892d6ba7-ec27-48aa-a06b-9fcc2866af0b","ios":"levelo://app?vid=892d6ba7-ec27-48aa-a06b-9fcc2866af0b"},"vehicle_type_id":"4","last_reported":1726441702,"current_range_meters":38800,"station_id":"ce4bhm92rcd13ifvqglg","pricing_plan_id":"cebpf4jnsgd1na2vs0mg"},{"bike_id":"634ac1d5-d66e-4401-b1dd-c3df0f2bd02a","system_id":"levelo_inurba_marseille","lat":43.27822,"lon":5.40718,"is_reserved":false,"is_disabled":false,"rental_uris":{"android":"levelo://app?vid=634ac1d5-d66e-4401-b1dd-c3df0f2bd02a","ios":"levelo://app?vid=634ac1d5-d66e-4401-b1dd-c3df0f2bd02a"},"vehicle_type_id":"4","last_reported":1726441702,"current_range_meters":32400,"station_id":"ce4bhnh2rcd13ifvqgtg","pricing_plan_id":"cebpf4jnsgd1na2vs0mg"},{"bike_id":"7c475990-5c91-40de-8e97-2ed5070be005","system_id":"levelo_inurba_marseille","lat":43.23032,"lon":5.401,"is_reserved":false,"is_disabled":false,"rental_uris":{"android":"levelo://app?vid=7c475990-5c91-40de-8e97-2ed5070be005","ios":"levelo://app?vid=7c475990-5c91-40de-8e97-2ed5070be005"},"vehicle_type_id":"4","last_reported":1726441702,"current_range_meters":36400,"station_id":"","pricing_plan_id":"cebpf4jnsgd1na2vs0mg"},{"bike_id":"b800a564-7762-460c-87d6-bed54efa7f97","system_id":"levelo_inurba_marseille","lat":43.30894,"lon":5.39641,"is_reserved":false,"is_disabled":false,"rental_uris":{"android":"levelo://app?vid=b800a564-7762-460c-87d6-bed54efa7f97","ios":"levelo://app?vid=b800a564-7762-460c-87d6-bed54efa7f97"},"vehicle_type_id":"4","last_reported":1726441702,"current_range_meters":39200,"station_id":"ce4bh012rcd13ifvqcv0","pricing_plan_id":"cebpf4jnsgd1na2vs0mg"},{"bike_id":"13ec4916-f0ea-4897-8afc-596425b42c42","system_id":"levelo_inurba_marseille","lat":43.23192,"lon":5.35558,"is_reserved":false,"is_disabled":false,"rental_uris":{"android":"levelo://app?vid=13ec4916-f0ea-4897-8afc-596425b42c42","ios":"levelo://app?vid=13ec4916-f0ea-4897-8afc-596425b42c42"},"vehicle_type_id":"4","last_reported":1726441702,"current_range_meters":19200,"station_id":"ce4bhu92rcd13ifvqi70","pricing_plan_id":"cebpf4jnsgd1na2vs0mg"},{"bike_id":"e8549387-9deb-4f66-b733-a7cdaa0db866","system_id":"levelo_inurba_marseille","lat":43.33023,"lon":5.39047,"is_reserved":false,"is_disabled":false,"rental_uris":{"android":"levelo://app?vid=e8549387-9deb-4f66-b733-a7cdaa0db866","ios":"levelo://app?vid=e8549387-9deb-4f66-b733-a7cdaa0db866"},"vehicle_type_id":"4","last_reported":1726441702,"current_range_meters":12800,"station_id":"ce4bhr92rcd13ifvqhrg","pricing_plan_id":"cebpf4jnsgd1na2vs0mg"},{"bike_id":"4dad1f39-696d-4561-9854-a2ef7804a5bb","system_id":"levelo_inurba_marseille","lat":43.27971,"lon":5.38741,"is_reserved":false,"is_disabled":false,"rental_uris":{"android":"levelo://app?vid=4dad1f39-696d-4561-9854-a2ef7804a5bb","ios":"levelo://app?vid=4dad1f39-696d-4561-9854-a2ef7804a5bb"},"vehicle_type_id":"4","last_reported":1726441702,"current_range_meters":31200,"station_id":"ce4bhg12rcd13ifvqf80","pricing_plan_id":"cebpf4jnsgd1na2vs0mg"},{"bike_id":"2c47c24e-96d3-4e99-910a-98524d55c13a","system_id":"levelo_inurba_marseille","lat":43.28489,"lon":5.38545,"is_reserved":false,"is_disabled":false,"rental_uris":{"android":"levelo://app?vid=2c47c24e-96d3-4e99-910a-98524d55c13a","ios":"levelo://app?vid=2c47c24e-96d3-4e99-910a-98524d55c13a"},"vehicle_type_id":"4","last_reported":1726441702,"current_range_meters":36000,"station_id":"ce4bh8p2rcd13ifvqeb0","pricing_plan_id":"cebpf4jnsgd1na2vs0mg"},{"bike_id":"786f4083-1261-4250-b7de-6ec01d7544ed","system_id":"levelo_inurba_marseille","lat":43.31503,"lon":5.3731,"is_reserved":false,"is_disabled":false,"rental_uris":{"android":"levelo://app?vid=786f4083-1261-4250-b7de-6ec01d7544ed","ios":"levelo://app?vid=786f4083-1261-4250-b7de-6ec01d7544ed"},"vehicle_type_id":"4","last_reported":1726441702,"current_range_meters":28400,"station_id":"ce4bgt12rcd13ifvqcd0","pricing_plan_id":"cebpf4jnsgd1na2vs0mg"},{"bike_id":"32f8e7bf-0dc5-4eb5-9cc7-2949a985621f","system_id":"levelo_inurba_marseille","lat":43.23971,"lon":5.36619,"is_reserved":false,"is_disabled":false,"rental_uris":{"android":"levelo://app?vid=32f8e7bf-0dc5-4eb5-9cc7-2949a985621f","ios":"levelo://app?vid=32f8e7bf-0dc5-4eb5-9cc7-2949a985621f"},"vehicle_type_id":"4","last_reported":1726441702,"current_range_meters":38800,"station_id":"ce4bhi12rcd13ifvqfp0","pricing_plan_id":"cebpf4jnsgd1na2vs0mg"},{"bike_id":"ba5766e2-e9ff-4571-95a0-04988fd7fe6c","system_id":"levelo_inurba_marseille","lat":43.32487,"lon":5.36573,"is_reserved":false,"is_disabled":false,"rental_uris":{"android":"levelo://app?vid=ba5766e2-e9ff-4571-95a0-04988fd7fe6c","ios":"levelo://app?vid=ba5766e2-e9ff-4571-95a0-04988fd7fe6c"},"vehicle_type_id":"4","last_reported":1726441702,"current_range_meters":38800,"station_id":"ce4bhs12rcd13ifvqhvg","pricing_plan_id":"cebpf4jnsgd1na2vs0mg"},{"bike_id":"14c45515-ceca-4e4c-8707-2c7fdcbd0475","system_id":"levelo_inurba_marseille","lat":43.29584,"lon":5.39962,"is_reserved":false,"is_disabled":false,"rental_uris":{"android":"levelo://app?vid=14c45515-ceca-4e4c-8707-2c7fdcbd0475","ios":"levelo://app?vid=14c45515-ceca-4e4c-8707-2c7fdcbd0475"},"vehicle_type_id":"4","last_reported":1726441702,"current_range_meters":38800,"station_id":"ce4bh312rcd13ifvqdj0","pricing_plan_id":"cebpf4jnsgd1na2vs0mg"},{"bike_id":"1ee600cb-be9a-4fad-a78a-a3c8ca27eac5","system_id":"levelo_inurba_marseille","lat":43.2418,"lon":5.39737,"is_reserved":false,"is_disabled":false,"rental_uris":{"android":"levelo://app?vid=1ee600cb-be9a-4fad-a78a-a3c8ca27eac5","ios":"levelo://app?vid=1ee600cb-be9a-4fad-a78a-a3c8ca27eac5"},"vehicle_type_id":"4","last_reported":1726441702,"current_range_meters":39200,"station_id":"ce4bhn12rcd13ifvqgpg","pricing_plan_id":"cebpf4jnsgd1na2vs0mg"},{"bike_id":"74c67d55-8a5f-40c9-8066-d68354718f8c","system_id":"levelo_inurba_marseille","lat":43.23198,"lon":5.35553,"is_reserved":false,"is_disabled":false,"rental_uris":{"android":"levelo://app?vid=74c67d55-8a5f-40c9-8066-d68354718f8c","ios":"levelo://app?vid=74c67d55-8a5f-40c9-8066-d68354718f8c"},"vehicle_type_id":"4","last_reported":1726441702,"current_range_meters":16800,"station_id":"ce4bhu92rcd13ifvqi70","pricing_plan_id":"cebpf4jnsgd1na2vs0mg"},{"bike_id":"cd4d0672-3017-4750-a840-655685768e5b","system_id":"levelo_inurba_marseille","lat":43.32055,"lon":5.41559,"is_reserved":false,"is_disabled":false,"rental_uris":{"android":"levelo://app?vid=cd4d0672-3017-4750-a840-655685768e5b","ios":"levelo://app?vid=cd4d0672-3017-4750-a840-655685768e5b"},"vehicle_type_id":"4","last_reported":1726441702,"current_range_meters":20000,"station_id":"ce4bhq92rcd13ifvqhkg","pricing_plan_id":"cebpf4jnsgd1na2vs0mg"},{"bike_id":"c0dd6aef-024e-4e07-aff4-ea6ff47a677c","system_id":"levelo_inurba_marseille","lat":43.287,"lon":5.37395,"is_reserved":false,"is_disabled":false,"rental_uris":{"android":"levelo://app?vid=c0dd6aef-024e-4e07-aff4-ea6ff47a677c","ios":"levelo://app?vid=c0dd6aef-024e-4e07-aff4-ea6ff47a677c"},"vehicle_type_id":"4","last_reported":1726441702,"current_range_meters":36400,"station_id":"ce4bh3p2rcd13ifvqdq0","pricing_plan_id":"cebpf4jnsgd1na2vs0mg"},{"bike_id":"fc66e687-7c8d-486d-a956-c38822e77eb0","system_id":"levelo_inurba_marseille","lat":43.28714,"lon":5.36095,"is_reserved":false,"is_disabled":false,"rental_uris":{"android":"levelo://app?vid=fc66e687-7c8d-486d-a956-c38822e77eb0","ios":"levelo://app?vid=fc66e687-7c8d-486d-a956-c38822e77eb0"},"vehicle_type_id":"4","last_reported":1726441702,"current_range_meters":7200,"station_id":"cki0cbj6b192h4jlfktg","pricing_plan_id":"cebpf4jnsgd1na2vs0mg"},{"bike_id":"212c501b-a753-4c1a-ba0c-b560582af171","system_id":"levelo_inurba_marseille","lat":43.29561,"lon":5.42285,"is_reserved":false,"is_disabled":false,"rental_uris":{"android":"levelo://app?vid=212c501b-a753-4c1a-ba0c-b560582af171","ios":"levelo://app?vid=212c501b-a753-4c1a-ba0c-b560582af171"},"vehicle_type_id":"4","last_reported":1726441702,"current_range_meters":16800,"station_id":"ce4bhph2rcd13ifvqhdg","pricing_plan_id":"cebpf4jnsgd1na2vs0mg"},{"bike_id":"4fbf1331-c3a5-41c2-9264-0d646fd55faf","system_id":"levelo_inurba_marseille","lat":43.28465,"lon":5.35892,"is_reserved":false,"is_disabled":false,"rental_uris":{"android":"levelo://app?vid=4fbf1331-c3a5-41c2-9264-0d646fd55faf","ios":"levelo://app?vid=4fbf1331-c3a5-41c2-9264-0d646fd55faf"},"vehicle_type_id":"4","last_reported":1726441702,"current_range_meters":38000,"station_id":"ce4bhah2rcd13ifvqei0","pricing_plan_id":"cebpf4jnsgd1na2vs0mg"},{"bike_id":"9848a293-1dbd-485b-983c-ac30b8eb8921","system_id":"levelo_inurba_marseille","lat":43.31182,"lon":5.38711,"is_reserved":false,"is_disabled":false,"rental_uris":{"android":"levelo://app?vid=9848a293-1dbd-485b-983c-ac30b8eb8921","ios":"levelo://app?vid=9848a293-1dbd-485b-983c-ac30b8eb8921"},"vehicle_type_id":"4","last_reported":1726441702,"current_range_meters":36400,"station_id":"ce4bgv12rcd13ifvqcp0","pricing_plan_id":"cebpf4jnsgd1na2vs0mg"},{"bike_id":"9df403c3-53c3-47d4-91b9-94e0e8946522","system_id":"levelo_inurba_marseille","lat":43.28108,"lon":5.37842,"is_reserved":false,"is_disabled":false,"rental_uris":{"android":"levelo://app?vid=9df403c3-53c3-47d4-91b9-94e0e8946522","ios":"levelo://app?vid=9df403c3-53c3-47d4-91b9-94e0e8946522"},"vehicle_type_id":"4","last_reported":1726441702,"current_range_meters":38400,"station_id":"ce4bha12rcd13ifvqee0","pricing_plan_id":"cebpf4jnsgd1na2vs0mg"},{"bike_id":"cf705a6d-8fa3-4170-8d46-076c59b67666","system_id":"levelo_inurba_marseille","lat":43.24078,"lon":5.37769,"is_reserved":false,"is_disabled":false,"rental_uris":{"android":"levelo://app?vid=cf705a6d-8fa3-4170-8d46-076c59b67666","ios":"levelo://app?vid=cf705a6d-8fa3-4170-8d46-076c59b67666"},"vehicle_type_id":"4","last_reported":1726441702,"current_range_meters":19200,"station_id":"ce4bhnp2rcd13ifvqgvg","pricing_plan_id":"cebpf4jnsgd1na2vs0mg"},{"bike_id":"a547235b-e99c-4f0f-90dd-8ffe37393bca","system_id":"levelo_inurba_marseille","lat":43.29773,"lon":5.37112,"is_reserved":false,"is_disabled":false,"rental_uris":{"android":"levelo://app?vid=a547235b-e99c-4f0f-90dd-8ffe37393bca","ios":"levelo://app?vid=a547235b-e99c-4f0f-90dd-8ffe37393bca"},"vehicle_type_id":"4","last_reported":1726441702,"current_range_meters":38800,"station_id":"ce4bgop2rcd13ifvqc1g","pricing_plan_id":"cebpf4jnsgd1na2vs0mg"},{"bike_id":"85e5e299-8873-43fe-8bad-d01447ee09ef","system_id":"levelo_inurba_marseille","lat":43.29538,"lon":5.39039,"is_reserved":false,"is_disabled":false,"rental_uris":{"android":"levelo://app?vid=85e5e299-8873-43fe-8bad-d01447ee09ef","ios":"levelo://app?vid=85e5e299-8873-43fe-8bad-d01447ee09ef"},"vehicle_type_id":"4","last_reported":1726441702,"current_range_meters":6000,"station_id":"ce4bh3p2rcd13ifvqdp0","pricing_plan_id":"cebpf4jnsgd1na2vs0mg"},{"bike_id":"40869c76-4f82-404f-9cdf-639196b728f9","system_id":"levelo_inurba_marseille","lat":43.28574,"lon":5.39497,"is_reserved":false,"is_disabled":false,"rental_uris":{"android":"levelo://app?vid=40869c76-4f82-404f-9cdf-639196b728f9","ios":"levelo://app?vid=40869c76-4f82-404f-9cdf-639196b728f9"},"vehicle_type_id":"4","last_reported":1726441702,"current_range_meters":20400,"station_id":"ce4bh292rcd13ifvqdg0","pricing_plan_id":"cebpf4jnsgd1na2vs0mg"},{"bike_id":"8e23c93a-826b-420b-ba1e-aee2b7e5a792","system_id":"levelo_inurba_marseille","lat":43.32337,"lon":5.40619,"is_reserved":false,"is_disabled":false,"rental_uris":{"android":"levelo://app?vid=8e23c93a-826b-420b-ba1e-aee2b7e5a792","ios":"levelo://app?vid=8e23c93a-826b-420b-ba1e-aee2b7e5a792"},"vehicle_type_id":"4","last_reported":1726441702,"current_range_meters":2000,"station_id":"ce4bhq92rcd13ifvqhjg","pricing_plan_id":"cebpf4jnsgd1na2vs0mg"},{"bike_id":"c0c2ae36-0079-42f2-a26c-fbed20d5a08f","system_id":"levelo_inurba_marseille","lat":43.31497,"lon":5.37309,"is_reserved":false,"is_disabled":false,"rental_uris":{"android":"levelo://app?vid=c0c2ae36-0079-42f2-a26c-fbed20d5a08f","ios":"levelo://app?vid=c0c2ae36-0079-42f2-a26c-fbed20d5a08f"},"vehicle_type_id":"4","last_reported":1726441702,"current_range_meters":39200,"station_id":"ce4bgt12rcd13ifvqcd0","pricing_plan_id":"cebpf4jnsgd1na2vs0mg"},{"bike_id":"5bfc9158-deaf-44f1-9d3b-900c32f4cf4d","system_id":"levelo_inurba_marseille","lat":43.28781,"lon":5.39273,"is_reserved":false,"is_disabled":false,"rental_uris":{"android":"levelo://app?vid=5bfc9158-deaf-44f1-9d3b-900c32f4cf4d","ios":"levelo://app?vid=5bfc9158-deaf-44f1-9d3b-900c32f4cf4d"},"vehicle_type_id":"4","last_reported":1726441702,"current_range_meters":32800,"station_id":"ce4bh292rcd13ifvqdg0","pricing_plan_id":"cebpf4jnsgd1na2vs0mg"},{"bike_id":"f3a216cf-054e-455e-bf11-ef4cc34cb623","system_id":"levelo_inurba_marseille","lat":43.29255,"lon":5.40905,"is_reserved":false,"is_disabled":false,"rental_uris":{"android":"levelo://app?vid=f3a216cf-054e-455e-bf11-ef4cc34cb623","ios":"levelo://app?vid=f3a216cf-054e-455e-bf11-ef4cc34cb623"},"vehicle_type_id":"4","last_reported":1726441702,"current_range_meters":38800,"station_id":"ce4bh192rcd13ifvqdc0","pricing_plan_id":"cebpf4jnsgd1na2vs0mg"},{"bike_id":"83c995e2-c90d-4126-8799-3247855d0482","system_id":"levelo_inurba_marseille","lat":43.2844,"lon":5.39187,"is_reserved":false,"is_disabled":false,"rental_uris":{"android":"levelo://app?vid=83c995e2-c90d-4126-8799-3247855d0482","ios":"levelo://app?vid=83c995e2-c90d-4126-8799-3247855d0482"},"vehicle_type_id":"4","last_reported":1726441702,"current_range_meters":38800,"station_id":"ce4bhoh2rcd13ifvqh5g","pricing_plan_id":"cebpf4jnsgd1na2vs0mg"},{"bike_id":"e5046737-aad7-45d8-8802-d1cc194c4c5f","system_id":"levelo_inurba_marseille","lat":43.30914,"lon":5.36848,"is_reserved":false,"is_disabled":false,"rental_uris":{"android":"levelo://app?vid=e5046737-aad7-45d8-8802-d1cc194c4c5f","ios":"levelo://app?vid=e5046737-aad7-45d8-8802-d1cc194c4c5f"},"vehicle_type_id":"4","last_reported":1726441702,"current_range_meters":38800,"station_id":"ce4bgn92rcd13ifvqbvg","pricing_plan_id":"cebpf4jnsgd1na2vs0mg"},{"bike_id":"5db6b880-0f76-416a-a76a-232934048f31","system_id":"levelo_inurba_marseille","lat":43.24807,"lon":5.37455,"is_reserved":false,"is_disabled":false,"rental_uris":{"android":"levelo://app?vid=5db6b880-0f76-416a-a76a-232934048f31","ios":"levelo://app?vid=5db6b880-0f76-416a-a76a-232934048f31"},"vehicle_type_id":"4","last_reported":1726441702,"current_range_meters":38000,"station_id":"ce4bhgh2rcd13ifvqfb0","pricing_plan_id":"cebpf4jnsgd1na2vs0mg"},{"bike_id":"56c09879-b42a-45af-ad40-e7859bdc59f0","system_id":"levelo_inurba_marseille","lat":43.29932,"lon":5.37478,"is_reserved":false,"is_disabled":false,"rental_uris":{"android":"levelo://app?vid=56c09879-b42a-45af-ad40-e7859bdc59f0","ios":"levelo://app?vid=56c09879-b42a-45af-ad40-e7859bdc59f0"},"vehicle_type_id":"4","last_reported":1726441702,"current_range_meters":38800,"station_id":"ce4bgjh2rcd13ifvqbg0","pricing_plan_id":"cebpf4jnsgd1na2vs0mg"},{"bike_id":"e05dd514-ec18-450a-8060-b4c3a456d435","system_id":"levelo_inurba_marseille","lat":43.24811,"lon":5.37454,"is_reserved":false,"is_disabled":false,"rental_uris":{"android":"levelo://app?vid=e05dd514-ec18-450a-8060-b4c3a456d435","ios":"levelo://app?vid=e05dd514-ec18-450a-8060-b4c3a456d435"},"vehicle_type_id":"4","last_reported":1726441702,"current_range_meters":4000,"station_id":"ce4bhgh2rcd13ifvqfb0","pricing_plan_id":"cebpf4jnsgd1na2vs0mg"},{"bike_id":"08aeee95-fd1e-4362-8ad9-97d06ae834ce","system_id":"levelo_inurba_marseille","lat":43.31275,"lon":5.4017,"is_reserved":false,"is_disabled":false,"rental_uris":{"android":"levelo://app?vid=08aeee95-fd1e-4362-8ad9-97d06ae834ce","ios":"levelo://app?vid=08aeee95-fd1e-4362-8ad9-97d06ae834ce"},"vehicle_type_id":"4","last_reported":1726441702,"current_range_meters":19200,"station_id":"ce4bh092rcd13ifvqd30","pricing_plan_id":"cebpf4jnsgd1na2vs0mg"},{"bike_id":"1a01e9be-b5ec-4708-9a6a-d302a65a4a05","system_id":"levelo_inurba_marseille","lat":43.32297,"lon":5.38278,"is_reserved":false,"is_disabled":false,"rental_uris":{"android":"levelo://app?vid=1a01e9be-b5ec-4708-9a6a-d302a65a4a05","ios":"levelo://app?vid=1a01e9be-b5ec-4708-9a6a-d302a65a4a05"},"vehicle_type_id":"4","last_reported":1726441702,"current_range_meters":10800,"station_id":"ce4bhr12rcd13ifvqhqg","pricing_plan_id":"cebpf4jnsgd1na2vs0mg"},{"bike_id":"d45458ce-2536-4241-8f9b-80c5160bf345","system_id":"levelo_inurba_marseille","lat":43.31083,"lon":5.42438,"is_reserved":false,"is_disabled":false,"rental_uris":{"android":"levelo://app?vid=d45458ce-2536-4241-8f9b-80c5160bf345","ios":"levelo://app?vid=d45458ce-2536-4241-8f9b-80c5160bf345"},"vehicle_type_id":"4","last_reported":1726441702,"current_range_meters":38800,"station_id":"ce4bhp92rcd13ifvqhag","pricing_plan_id":"cebpf4jnsgd1na2vs0mg"},{"bike_id":"b9297fd7-17b1-4121-9159-bffefe62afaa","system_id":"levelo_inurba_marseille","lat":43.28676,"lon":5.36356,"is_reserved":false,"is_disabled":false,"rental_uris":{"android":"levelo://app?vid=b9297fd7-17b1-4121-9159-bffefe62afaa","ios":"levelo://app?vid=b9297fd7-17b1-4121-9159-bffefe62afaa"},"vehicle_type_id":"4","last_reported":1726441702,"current_range_meters":29600,"station_id":"ce4bhah2rcd13ifvqej0","pricing_plan_id":"cebpf4jnsgd1na2vs0mg"},{"bike_id":"8052f64d-5e41-4baf-987f-b0ed1b94f6e6","system_id":"levelo_inurba_marseille","lat":43.28073,"lon":5.39649,"is_reserved":false,"is_disabled":false,"rental_uris":{"android":"levelo://app?vid=8052f64d-5e41-4baf-987f-b0ed1b94f6e6","ios":"levelo://app?vid=8052f64d-5e41-4baf-987f-b0ed1b94f6e6"},"vehicle_type_id":"4","last_reported":1726441702,"current_range_meters":18000,"station_id":"ce4bho12rcd13ifvqh2g","pricing_plan_id":"cebpf4jnsgd1na2vs0mg"},{"bike_id":"5c17ea04-4549-4840-937c-c95489bba961","system_id":"levelo_inurba_marseille","lat":43.29791,"lon":5.40403,"is_reserved":false,"is_disabled":false,"rental_uris":{"android":"levelo://app?vid=5c17ea04-4549-4840-937c-c95489bba961","ios":"levelo://app?vid=5c17ea04-4549-4840-937c-c95489bba961"},"vehicle_type_id":"4","last_reported":1726441702,"current_range_meters":38800,"station_id":"ce4bh112rcd13ifvqd90","pricing_plan_id":"cebpf4jnsgd1na2vs0mg"},{"bike_id":"7abb1a63-bd01-472c-812d-dea4dd503d49","system_id":"levelo_inurba_marseille","lat":43.28569,"lon":5.39501,"is_reserved":false,"is_disabled":false,"rental_uris":{"android":"levelo://app?vid=7abb1a63-bd01-472c-812d-dea4dd503d49","ios":"levelo://app?vid=7abb1a63-bd01-472c-812d-dea4dd503d49"},"vehicle_type_id":"4","last_reported":1726441702,"current_range_meters":38000,"station_id":"ce4bh292rcd13ifvqdg0","pricing_plan_id":"cebpf4jnsgd1na2vs0mg"},{"bike_id":"f79ff168-7c1f-43a6-9a48-819ae1e3b151","system_id":"levelo_inurba_marseille","lat":43.24071,"lon":5.37756,"is_reserved":false,"is_disabled":false,"rental_uris":{"android":"levelo://app?vid=f79ff168-7c1f-43a6-9a48-819ae1e3b151","ios":"levelo://app?vid=f79ff168-7c1f-43a6-9a48-819ae1e3b151"},"vehicle_type_id":"4","last_reported":1726441702,"current_range_meters":10000,"station_id":"ce4bhnp2rcd13ifvqgvg","pricing_plan_id":"cebpf4jnsgd1na2vs0mg"},{"bike_id":"3a0f783c-a38b-42d4-9fa6-620a863153fe","system_id":"levelo_inurba_marseille","lat":43.25728,"lon":5.41106,"is_reserved":false,"is_disabled":false,"rental_uris":{"android":"levelo://app?vid=3a0f783c-a38b-42d4-9fa6-620a863153fe","ios":"levelo://app?vid=3a0f783c-a38b-42d4-9fa6-620a863153fe"},"vehicle_type_id":"4","last_reported":1726441702,"current_range_meters":38400,"station_id":"ce4bhkp2rcd13ifvqgd0","pricing_plan_id":"cebpf4jnsgd1na2vs0mg"},{"bike_id":"a71d4a2a-8d65-47b4-875c-adc220c62749","system_id":"levelo_inurba_marseille","lat":43.25116,"lon":5.40335,"is_reserved":false,"is_disabled":false,"rental_uris":{"android":"levelo://app?vid=a71d4a2a-8d65-47b4-875c-adc220c62749","ios":"levelo://app?vid=a71d4a2a-8d65-47b4-875c-adc220c62749"},"vehicle_type_id":"4","last_reported":1726441702,"current_range_meters":30800,"station_id":"ce4bhlh2rcd13ifvqgig","pricing_plan_id":"cebpf4jnsgd1na2vs0mg"},{"bike_id":"33d7f647-3c77-4900-85cd-f62125c908a0","system_id":"levelo_inurba_marseille","lat":43.25093,"lon":5.39518,"is_reserved":false,"is_disabled":false,"rental_uris":{"android":"levelo://app?vid=33d7f647-3c77-4900-85cd-f62125c908a0","ios":"levelo://app?vid=33d7f647-3c77-4900-85cd-f62125c908a0"},"vehicle_type_id":"4","last_reported":1726441702,"current_range_meters":38800,"station_id":"ce4bhm12rcd13ifvqgkg","pricing_plan_id":"cebpf4jnsgd1na2vs0mg"},{"bike_id":"029f0ea1-5077-4b01-9417-dd5c03c6e280","system_id":"levelo_inurba_marseille","lat":43.25721,"lon":5.41115,"is_reserved":false,"is_disabled":false,"rental_uris":{"android":"levelo://app?vid=029f0ea1-5077-4b01-9417-dd5c03c6e280","ios":"levelo://app?vid=029f0ea1-5077-4b01-9417-dd5c03c6e280"},"vehicle_type_id":"4","last_reported":1726441702,"current_range_meters":38400,"station_id":"ce4bhkp2rcd13ifvqgd0","pricing_plan_id":"cebpf4jnsgd1na2vs0mg"},{"bike_id":"17f0246a-bbd1-4e51-97e9-f384081040e1","system_id":"levelo_inurba_marseille","lat":43.29983,"lon":5.38481,"is_reserved":false,"is_disabled":false,"rental_uris":{"android":"levelo://app?vid=17f0246a-bbd1-4e51-97e9-f384081040e1","ios":"levelo://app?vid=17f0246a-bbd1-4e51-97e9-f384081040e1"},"vehicle_type_id":"4","last_reported":1726441702,"current_range_meters":37600,"station_id":"ce4bgj92rcd13ifvqbd0","pricing_plan_id":"cebpf4jnsgd1na2vs0mg"},{"bike_id":"9877ae33-6c0d-4b5d-be3b-3fee58b6d326","system_id":"levelo_inurba_marseille","lat":43.30888,"lon":5.37188,"is_reserved":false,"is_disabled":false,"rental_uris":{"android":"levelo://app?vid=9877ae33-6c0d-4b5d-be3b-3fee58b6d326","ios":"levelo://app?vid=9877ae33-6c0d-4b5d-be3b-3fee58b6d326"},"vehicle_type_id":"4","last_reported":1726441702,"current_range_meters":6000,"station_id":"ce4bguh2rcd13ifvqckg","pricing_plan_id":"cebpf4jnsgd1na2vs0mg"},{"bike_id":"6dcfe498-2d19-4a64-b3bd-bf6302471a64","system_id":"levelo_inurba_marseille","lat":43.31072,"lon":5.38362,"is_reserved":false,"is_disabled":false,"rental_uris":{"android":"levelo://app?vid=6dcfe498-2d19-4a64-b3bd-bf6302471a64","ios":"levelo://app?vid=6dcfe498-2d19-4a64-b3bd-bf6302471a64"},"vehicle_type_id":"4","last_reported":1726441702,"current_range_meters":38800,"station_id":"ce4bgv92rcd13ifvqcr0","pricing_plan_id":"cebpf4jnsgd1na2vs0mg"},{"bike_id":"b0fed14a-8ca6-41c1-a7a1-3028dcb47f60","system_id":"levelo_inurba_marseille","lat":43.31175,"lon":5.3871,"is_reserved":false,"is_disabled":false,"rental_uris":{"android":"levelo://app?vid=b0fed14a-8ca6-41c1-a7a1-3028dcb47f60","ios":"levelo://app?vid=b0fed14a-8ca6-41c1-a7a1-3028dcb47f60"},"vehicle_type_id":"4","last_reported":1726441702,"current_range_meters":37600,"station_id":"ce4bgv12rcd13ifvqcp0","pricing_plan_id":"cebpf4jnsgd1na2vs0mg"},{"bike_id":"e0b263f7-338e-42f8-a2eb-03d17b443365","system_id":"levelo_inurba_marseille","lat":43.23959,"lon":5.36631,"is_reserved":false,"is_disabled":false,"rental_uris":{"android":"levelo://app?vid=e0b263f7-338e-42f8-a2eb-03d17b443365","ios":"levelo://app?vid=e0b263f7-338e-42f8-a2eb-03d17b443365"},"vehicle_type_id":"4","last_reported":1726441702,"current_range_meters":38800,"station_id":"ce4bhi12rcd13ifvqfp0","pricing_plan_id":"cebpf4jnsgd1na2vs0mg"},{"bike_id":"f0c80138-35a8-4472-9afb-e4c6f8153af2","system_id":"levelo_inurba_marseille","lat":43.31376,"lon":5.3849,"is_reserved":false,"is_disabled":false,"rental_uris":{"android":"levelo://app?vid=f0c80138-35a8-4472-9afb-e4c6f8153af2","ios":"levelo://app?vid=f0c80138-35a8-4472-9afb-e4c6f8153af2"},"vehicle_type_id":"4","last_reported":1726441702,"current_range_meters":35600,"station_id":"ce4bgt92rcd13ifvqcf0","pricing_plan_id":"cebpf4jnsgd1na2vs0mg"},{"bike_id":"4b850bb4-e07b-4864-a8eb-064b46aaa20d","system_id":"levelo_inurba_marseille","lat":43.31173,"lon":5.38711,"is_reserved":false,"is_disabled":false,"rental_uris":{"android":"levelo://app?vid=4b850bb4-e07b-4864-a8eb-064b46aaa20d","ios":"levelo://app?vid=4b850bb4-e07b-4864-a8eb-064b46aaa20d"},"vehicle_type_id":"4","last_reported":1726441702,"current_range_meters":39200,"station_id":"ce4bgv12rcd13ifvqcp0","pricing_plan_id":"cebpf4jnsgd1na2vs0mg"},{"bike_id":"e0578bd3-1a0e-429a-8b90-c50cda685c19","system_id":"levelo_inurba_marseille","lat":43.25828,"lon":5.39426,"is_reserved":false,"is_disabled":false,"rental_uris":{"android":"levelo://app?vid=e0578bd3-1a0e-429a-8b90-c50cda685c19","ios":"levelo://app?vid=e0578bd3-1a0e-429a-8b90-c50cda685c19"},"vehicle_type_id":"4","last_reported":1726441702,"current_range_meters":38800,"station_id":"ce4bhip2rcd13ifvqft0","pricing_plan_id":"cebpf4jnsgd1na2vs0mg"},{"bike_id":"26db0265-0a91-4c66-8aa8-67a94f7eef0d","system_id":"levelo_inurba_marseille","lat":43.26944,"lon":5.40052,"is_reserved":false,"is_disabled":false,"rental_uris":{"android":"levelo://app?vid=26db0265-0a91-4c66-8aa8-67a94f7eef0d","ios":"levelo://app?vid=26db0265-0a91-4c66-8aa8-67a94f7eef0d"},"vehicle_type_id":"4","last_reported":1726441702,"current_range_meters":8000,"station_id":"","pricing_plan_id":"cebpf4jnsgd1na2vs0mg"},{"bike_id":"f8a51900-9430-4882-b0ec-fab5477158b9","system_id":"levelo_inurba_marseille","lat":43.32336,"lon":5.40621,"is_reserved":false,"is_disabled":false,"rental_uris":{"android":"levelo://app?vid=f8a51900-9430-4882-b0ec-fab5477158b9","ios":"levelo://app?vid=f8a51900-9430-4882-b0ec-fab5477158b9"},"vehicle_type_id":"4","last_reported":1726441702,"current_range_meters":7200,"station_id":"ce4bhq92rcd13ifvqhjg","pricing_plan_id":"cebpf4jnsgd1na2vs0mg"},{"bike_id":"8517432e-3115-4729-8751-a17fa8d6698c","system_id":"levelo_inurba_marseille","lat":43.32366,"lon":5.38884,"is_reserved":false,"is_disabled":false,"rental_uris":{"android":"levelo://app?vid=8517432e-3115-4729-8751-a17fa8d6698c","ios":"levelo://app?vid=8517432e-3115-4729-8751-a17fa8d6698c"},"vehicle_type_id":"4","last_reported":1726441702,"current_range_meters":28400,"station_id":"ce4bhqp2rcd13ifvqhog","pricing_plan_id":"cebpf4jnsgd1na2vs0mg"},{"bike_id":"98146a55-0bb8-4140-892c-d49fa1ded5aa","system_id":"levelo_inurba_marseille","lat":43.28566,"lon":5.39504,"is_reserved":false,"is_disabled":false,"rental_uris":{"android":"levelo://app?vid=98146a55-0bb8-4140-892c-d49fa1ded5aa","ios":"levelo://app?vid=98146a55-0bb8-4140-892c-d49fa1ded5aa"},"vehicle_type_id":"4","last_reported":1726441702,"current_range_meters":38800,"station_id":"ce4bh292rcd13ifvqdg0","pricing_plan_id":"cebpf4jnsgd1na2vs0mg"},{"bike_id":"189b6bc1-c1a3-4f5b-a4cc-c0f641262031","system_id":"levelo_inurba_marseille","lat":43.28406,"lon":5.37513,"is_reserved":false,"is_disabled":false,"rental_uris":{"android":"levelo://app?vid=189b6bc1-c1a3-4f5b-a4cc-c0f641262031","ios":"levelo://app?vid=189b6bc1-c1a3-4f5b-a4cc-c0f641262031"},"vehicle_type_id":"4","last_reported":1726441702,"current_range_meters":38000,"station_id":"ce4bh412rcd13ifvqds0","pricing_plan_id":"cebpf4jnsgd1na2vs0mg"},{"bike_id":"0d4e8fb9-2f00-4bf1-813f-083deb41c99b","system_id":"levelo_inurba_marseille","lat":43.29799,"lon":5.40401,"is_reserved":false,"is_disabled":false,"rental_uris":{"android":"levelo://app?vid=0d4e8fb9-2f00-4bf1-813f-083deb41c99b","ios":"levelo://app?vid=0d4e8fb9-2f00-4bf1-813f-083deb41c99b"},"vehicle_type_id":"4","last_reported":1726441702,"current_range_meters":26000,"station_id":"ce4bh112rcd13ifvqd90","pricing_plan_id":"cebpf4jnsgd1na2vs0mg"},{"bike_id":"4412940f-380f-4778-8278-e1c496dc9d94","system_id":"levelo_inurba_marseille","lat":43.302765,"lon":5.404479,"is_reserved":false,"is_disabled":false,"rental_uris":{"android":"levelo://app?vid=4412940f-380f-4778-8278-e1c496dc9d94","ios":"levelo://app?vid=4412940f-380f-4778-8278-e1c496dc9d94"},"vehicle_type_id":"4","last_reported":1726441702,"current_range_meters":3200,"station_id":"","pricing_plan_id":"cebpf4jnsgd1na2vs0mg"},{"bike_id":"22abc786-11de-49ba-8901-022e94127ff5","system_id":"levelo_inurba_marseille","lat":43.28476,"lon":5.35882,"is_reserved":false,"is_disabled":false,"rental_uris":{"android":"levelo://app?vid=22abc786-11de-49ba-8901-022e94127ff5","ios":"levelo://app?vid=22abc786-11de-49ba-8901-022e94127ff5"},"vehicle_type_id":"4","last_reported":1726441702,"current_range_meters":38800,"station_id":"ce4bhah2rcd13ifvqei0","pricing_plan_id":"cebpf4jnsgd1na2vs0mg"},{"bike_id":"415b13fd-de58-480c-861b-9f42d1eebf31","system_id":"levelo_inurba_marseille","lat":43.30429,"lon":5.41278,"is_reserved":false,"is_disabled":false,"rental_uris":{"android":"levelo://app?vid=415b13fd-de58-480c-861b-9f42d1eebf31","ios":"levelo://app?vid=415b13fd-de58-480c-861b-9f42d1eebf31"},"vehicle_type_id":"4","last_reported":1726441702,"current_range_meters":36800,"station_id":"ce4bhop2rcd13ifvqh8g","pricing_plan_id":"cebpf4jnsgd1na2vs0mg"},{"bike_id":"bfcb523b-c180-4532-a597-a08553c4b857","system_id":"levelo_inurba_marseille","lat":43.2838,"lon":5.38618,"is_reserved":false,"is_disabled":false,"rental_uris":{"android":"levelo://app?vid=bfcb523b-c180-4532-a597-a08553c4b857","ios":"levelo://app?vid=bfcb523b-c180-4532-a597-a08553c4b857"},"vehicle_type_id":"4","last_reported":1726441702,"current_range_meters":35200,"station_id":"ce4bh492rcd13ifvqdvg","pricing_plan_id":"cebpf4jnsgd1na2vs0mg"},{"bike_id":"2007ceec-943b-4ff4-ad98-9653262d4e1a","system_id":"levelo_inurba_marseille","lat":43.297882,"lon":5.381302,"is_reserved":false,"is_disabled":false,"rental_uris":{"android":"levelo://app?vid=2007ceec-943b-4ff4-ad98-9653262d4e1a","ios":"levelo://app?vid=2007ceec-943b-4ff4-ad98-9653262d4e1a"},"vehicle_type_id":"4","last_reported":1726441702,"current_range_meters":19600,"station_id":"ce4bgt12rcd13ifvqcd0","pricing_plan_id":"cebpf4jnsgd1na2vs0mg"},{"bike_id":"1745cb9b-f66f-4f52-9eed-cc9775fe3e89","system_id":"levelo_inurba_marseille","lat":43.29007,"lon":5.35613,"is_reserved":false,"is_disabled":false,"rental_uris":{"android":"levelo://app?vid=1745cb9b-f66f-4f52-9eed-cc9775fe3e89","ios":"levelo://app?vid=1745cb9b-f66f-4f52-9eed-cc9775fe3e89"},"vehicle_type_id":"4","last_reported":1726441702,"current_range_meters":38000,"station_id":"ce4bhb92rcd13ifvqen0","pricing_plan_id":"cebpf4jnsgd1na2vs0mg"},{"bike_id":"7fe9a531-7821-474d-b5cd-45572fc4df06","system_id":"levelo_inurba_marseille","lat":43.29604,"lon":5.38661,"is_reserved":false,"is_disabled":false,"rental_uris":{"android":"levelo://app?vid=7fe9a531-7821-474d-b5cd-45572fc4df06","ios":"levelo://app?vid=7fe9a531-7821-474d-b5cd-45572fc4df06"},"vehicle_type_id":"4","last_reported":1726441702,"current_range_meters":19600,"station_id":"ce4bgih2rcd13ifvqba0","pricing_plan_id":"cebpf4jnsgd1na2vs0mg"},{"bike_id":"734240c6-29e1-4ec6-9380-37be44386dff","system_id":"levelo_inurba_marseille","lat":43.31694,"lon":5.40459,"is_reserved":false,"is_disabled":false,"rental_uris":{"android":"levelo://app?vid=734240c6-29e1-4ec6-9380-37be44386dff","ios":"levelo://app?vid=734240c6-29e1-4ec6-9380-37be44386dff"},"vehicle_type_id":"4","last_reported":1726441702,"current_range_meters":38800,"station_id":"ce4bh012rcd13ifvqd00","pricing_plan_id":"cebpf4jnsgd1na2vs0mg"},{"bike_id":"33053cf2-610c-4da4-94fa-5f3f0eebd41c","system_id":"levelo_inurba_marseille","lat":43.25118,"lon":5.40319,"is_reserved":false,"is_disabled":false,"rental_uris":{"android":"levelo://app?vid=33053cf2-610c-4da4-94fa-5f3f0eebd41c","ios":"levelo://app?vid=33053cf2-610c-4da4-94fa-5f3f0eebd41c"},"vehicle_type_id":"4","last_reported":1726441702,"current_range_meters":24000,"station_id":"ce4bhlh2rcd13ifvqgig","pricing_plan_id":"cebpf4jnsgd1na2vs0mg"},{"bike_id":"8d4a9b4f-08f7-4178-9f87-cc0cad3f02c6","system_id":"levelo_inurba_marseille","lat":43.30888,"lon":5.3964,"is_reserved":false,"is_disabled":false,"rental_uris":{"android":"levelo://app?vid=8d4a9b4f-08f7-4178-9f87-cc0cad3f02c6","ios":"levelo://app?vid=8d4a9b4f-08f7-4178-9f87-cc0cad3f02c6"},"vehicle_type_id":"4","last_reported":1726441702,"current_range_meters":38800,"station_id":"ce4bh012rcd13ifvqcv0","pricing_plan_id":"cebpf4jnsgd1na2vs0mg"},{"bike_id":"a31bc9c2-7f37-4659-a036-5cd9612ab424","system_id":"levelo_inurba_marseille","lat":43.2782,"lon":5.40705,"is_reserved":false,"is_disabled":false,"rental_uris":{"android":"levelo://app?vid=a31bc9c2-7f37-4659-a036-5cd9612ab424","ios":"levelo://app?vid=a31bc9c2-7f37-4659-a036-5cd9612ab424"},"vehicle_type_id":"4","last_reported":1726441702,"current_range_meters":24800,"station_id":"ce4bhnh2rcd13ifvqgtg","pricing_plan_id":"cebpf4jnsgd1na2vs0mg"},{"bike_id":"cbb842f8-5802-4b5c-8ce5-f35aa917feda","system_id":"levelo_inurba_marseille","lat":43.2872,"lon":5.39988,"is_reserved":false,"is_disabled":false,"rental_uris":{"android":"levelo://app?vid=cbb842f8-5802-4b5c-8ce5-f35aa917feda","ios":"levelo://app?vid=cbb842f8-5802-4b5c-8ce5-f35aa917feda"},"vehicle_type_id":"4","last_reported":1726441702,"current_range_meters":38800,"station_id":"ce4bho92rcd13ifvqh3g","pricing_plan_id":"cebpf4jnsgd1na2vs0mg"},{"bike_id":"174bbbf3-4fe0-461c-8b4e-fc788bc79ba5","system_id":"levelo_inurba_marseille","lat":43.28711,"lon":5.39979,"is_reserved":false,"is_disabled":false,"rental_uris":{"android":"levelo://app?vid=174bbbf3-4fe0-461c-8b4e-fc788bc79ba5","ios":"levelo://app?vid=174bbbf3-4fe0-461c-8b4e-fc788bc79ba5"},"vehicle_type_id":"4","last_reported":1726441702,"current_range_meters":31200,"station_id":"ce4bho92rcd13ifvqh3g","pricing_plan_id":"cebpf4jnsgd1na2vs0mg"},{"bike_id":"b27c94e7-5391-460b-8b4a-fb5f8f07f433","system_id":"levelo_inurba_marseille","lat":43.28014,"lon":5.40009,"is_reserved":false,"is_disabled":false,"rental_uris":{"android":"levelo://app?vid=b27c94e7-5391-460b-8b4a-fb5f8f07f433","ios":"levelo://app?vid=b27c94e7-5391-460b-8b4a-fb5f8f07f433"},"vehicle_type_id":"4","last_reported":1726441702,"current_range_meters":28800,"station_id":"ce4bho92rcd13ifvqh4g","pricing_plan_id":"cebpf4jnsgd1na2vs0mg"},{"bike_id":"28606dd2-d697-43cc-8a7b-3d972d1bfad5","system_id":"levelo_inurba_marseille","lat":43.28477,"lon":5.35886,"is_reserved":false,"is_disabled":false,"rental_uris":{"android":"levelo://app?vid=28606dd2-d697-43cc-8a7b-3d972d1bfad5","ios":"levelo://app?vid=28606dd2-d697-43cc-8a7b-3d972d1bfad5"},"vehicle_type_id":"4","last_reported":1726441702,"current_range_meters":22800,"station_id":"ce4bhah2rcd13ifvqei0","pricing_plan_id":"cebpf4jnsgd1na2vs0mg"},{"bike_id":"09d52f7f-1090-478a-bc0d-b57ff69e68b7","system_id":"levelo_inurba_marseille","lat":43.28719,"lon":5.3793,"is_reserved":false,"is_disabled":false,"rental_uris":{"android":"levelo://app?vid=09d52f7f-1090-478a-bc0d-b57ff69e68b7","ios":"levelo://app?vid=09d52f7f-1090-478a-bc0d-b57ff69e68b7"},"vehicle_type_id":"4","last_reported":1726441702,"current_range_meters":38800,"station_id":"ce4bh9p2rcd13ifvqec0","pricing_plan_id":"cebpf4jnsgd1na2vs0mg"},{"bike_id":"9c25d7f9-3117-44f1-acec-713cdafffebf","system_id":"levelo_inurba_marseille","lat":43.34142,"lon":5.40909,"is_reserved":false,"is_disabled":false,"rental_uris":{"android":"levelo://app?vid=9c25d7f9-3117-44f1-acec-713cdafffebf","ios":"levelo://app?vid=9c25d7f9-3117-44f1-acec-713cdafffebf"},"vehicle_type_id":"4","last_reported":1726441702,"current_range_meters":36000,"station_id":"ce4bhqh2rcd13ifvqhlg","pricing_plan_id":"cebpf4jnsgd1na2vs0mg"},{"bike_id":"8f979555-d0d6-4c8f-9fce-0747a350b182","system_id":"levelo_inurba_marseille","lat":43.28717,"lon":5.37946,"is_reserved":false,"is_disabled":false,"rental_uris":{"android":"levelo://app?vid=8f979555-d0d6-4c8f-9fce-0747a350b182","ios":"levelo://app?vid=8f979555-d0d6-4c8f-9fce-0747a350b182"},"vehicle_type_id":"4","last_reported":1726441702,"current_range_meters":38400,"station_id":"ce4bh9p2rcd13ifvqec0","pricing_plan_id":"cebpf4jnsgd1na2vs0mg"},{"bike_id":"50fdae0b-ef4b-44cf-8f57-29e17c5d17ec","system_id":"levelo_inurba_marseille","lat":43.29278,"lon":5.40132,"is_reserved":false,"is_disabled":false,"rental_uris":{"android":"levelo://app?vid=50fdae0b-ef4b-44cf-8f57-29e17c5d17ec","ios":"levelo://app?vid=50fdae0b-ef4b-44cf-8f57-29e17c5d17ec"},"vehicle_type_id":"4","last_reported":1726441702,"current_range_meters":28000,"station_id":"ce4bh312rcd13ifvqdk0","pricing_plan_id":"cebpf4jnsgd1na2vs0mg"},{"bike_id":"b1db6496-7d7b-4acc-a88c-e5406d38e100","system_id":"levelo_inurba_marseille","lat":43.23199,"lon":5.35557,"is_reserved":false,"is_disabled":false,"rental_uris":{"android":"levelo://app?vid=b1db6496-7d7b-4acc-a88c-e5406d38e100","ios":"levelo://app?vid=b1db6496-7d7b-4acc-a88c-e5406d38e100"},"vehicle_type_id":"4","last_reported":1726441702,"current_range_meters":35600,"station_id":"ce4bhu92rcd13ifvqi70","pricing_plan_id":"cebpf4jnsgd1na2vs0mg"},{"bike_id":"abe837ec-1f01-483a-819a-450e12cac19c","system_id":"levelo_inurba_marseille","lat":43.287,"lon":5.3738,"is_reserved":false,"is_disabled":false,"rental_uris":{"android":"levelo://app?vid=abe837ec-1f01-483a-819a-450e12cac19c","ios":"levelo://app?vid=abe837ec-1f01-483a-819a-450e12cac19c"},"vehicle_type_id":"4","last_reported":1726441702,"current_range_meters":36800,"station_id":"ce4bh3p2rcd13ifvqdq0","pricing_plan_id":"cebpf4jnsgd1na2vs0mg"},{"bike_id":"ee721f16-71d0-49c8-9da4-858f78b55bcb","system_id":"levelo_inurba_marseille","lat":43.25946,"lon":5.40908,"is_reserved":false,"is_disabled":false,"rental_uris":{"android":"levelo://app?vid=ee721f16-71d0-49c8-9da4-858f78b55bcb","ios":"levelo://app?vid=ee721f16-71d0-49c8-9da4-858f78b55bcb"},"vehicle_type_id":"4","last_reported":1726441702,"current_range_meters":24000,"station_id":"ce4bhm92rcd13ifvqglg","pricing_plan_id":"cebpf4jnsgd1na2vs0mg"},{"bike_id":"9c767a9e-5491-4094-9006-5aad895004ab","system_id":"levelo_inurba_marseille","lat":43.28938,"lon":5.39626,"is_reserved":false,"is_disabled":false,"rental_uris":{"android":"levelo://app?vid=9c767a9e-5491-4094-9006-5aad895004ab","ios":"levelo://app?vid=9c767a9e-5491-4094-9006-5aad895004ab"},"vehicle_type_id":"4","last_reported":1726441702,"current_range_meters":3600,"station_id":"ce4bh3h2rcd13ifvqdn0","pricing_plan_id":"cebpf4jnsgd1na2vs0mg"},{"bike_id":"4aa8fffc-3009-4aac-a523-81d25af77ad2","system_id":"levelo_inurba_marseille","lat":43.28425,"lon":5.37521,"is_reserved":false,"is_disabled":false,"rental_uris":{"android":"levelo://app?vid=4aa8fffc-3009-4aac-a523-81d25af77ad2","ios":"levelo://app?vid=4aa8fffc-3009-4aac-a523-81d25af77ad2"},"vehicle_type_id":"4","last_reported":1726441702,"current_range_meters":30400,"station_id":"ce4bh412rcd13ifvqds0","pricing_plan_id":"cebpf4jnsgd1na2vs0mg"},{"bike_id":"5cf4c2f1-f092-4550-b8cf-369099ebc3bc","system_id":"levelo_inurba_marseille","lat":43.24568,"lon":5.41551,"is_reserved":false,"is_disabled":false,"rental_uris":{"android":"levelo://app?vid=5cf4c2f1-f092-4550-b8cf-369099ebc3bc","ios":"levelo://app?vid=5cf4c2f1-f092-4550-b8cf-369099ebc3bc"},"vehicle_type_id":"4","last_reported":1726441702,"current_range_meters":11200,"station_id":"ce4bhlh2rcd13ifvqgig","pricing_plan_id":"cebpf4jnsgd1na2vs0mg"},{"bike_id":"6bc4cbba-bb5d-49ee-8985-3251c7b6ad81","system_id":"levelo_inurba_marseille","lat":43.29036,"lon":5.3593,"is_reserved":false,"is_disabled":false,"rental_uris":{"android":"levelo://app?vid=6bc4cbba-bb5d-49ee-8985-3251c7b6ad81","ios":"levelo://app?vid=6bc4cbba-bb5d-49ee-8985-3251c7b6ad81"},"vehicle_type_id":"4","last_reported":1726441702,"current_range_meters":38800,"station_id":"ce4bha92rcd13ifvqeg0","pricing_plan_id":"cebpf4jnsgd1na2vs0mg"},{"bike_id":"4721e0a5-8c0a-4c61-91fb-10c3ba183135","system_id":"levelo_inurba_marseille","lat":43.24081,"lon":5.37757,"is_reserved":false,"is_disabled":false,"rental_uris":{"android":"levelo://app?vid=4721e0a5-8c0a-4c61-91fb-10c3ba183135","ios":"levelo://app?vid=4721e0a5-8c0a-4c61-91fb-10c3ba183135"},"vehicle_type_id":"4","last_reported":1726441702,"current_range_meters":11200,"station_id":"ce4bhnp2rcd13ifvqgvg","pricing_plan_id":"cebpf4jnsgd1na2vs0mg"},{"bike_id":"4220246c-55fe-45a0-be14-cbcdc79c0140","system_id":"levelo_inurba_marseille","lat":43.30767,"lon":5.37618,"is_reserved":false,"is_disabled":false,"rental_uris":{"android":"levelo://app?vid=4220246c-55fe-45a0-be14-cbcdc79c0140","ios":"levelo://app?vid=4220246c-55fe-45a0-be14-cbcdc79c0140"},"vehicle_type_id":"4","last_reported":1726441702,"current_range_meters":36400,"station_id":"ce4bgt12rcd13ifvqcd0","pricing_plan_id":"cebpf4jnsgd1na2vs0mg"},{"bike_id":"b7cfb8c5-5091-49b0-bfe5-8b23183dfa46","system_id":"levelo_inurba_marseille","lat":43.31689,"lon":5.40475,"is_reserved":false,"is_disabled":false,"rental_uris":{"android":"levelo://app?vid=b7cfb8c5-5091-49b0-bfe5-8b23183dfa46","ios":"levelo://app?vid=b7cfb8c5-5091-49b0-bfe5-8b23183dfa46"},"vehicle_type_id":"4","last_reported":1726441702,"current_range_meters":25200,"station_id":"ce4bh012rcd13ifvqd00","pricing_plan_id":"cebpf4jnsgd1na2vs0mg"},{"bike_id":"b08950ba-02a0-46d4-8c68-863f0b3477e8","system_id":"levelo_inurba_marseille","lat":43.32486,"lon":5.36565,"is_reserved":false,"is_disabled":false,"rental_uris":{"android":"levelo://app?vid=b08950ba-02a0-46d4-8c68-863f0b3477e8","ios":"levelo://app?vid=b08950ba-02a0-46d4-8c68-863f0b3477e8"},"vehicle_type_id":"4","last_reported":1726441702,"current_range_meters":38800,"station_id":"ce4bhs12rcd13ifvqhvg","pricing_plan_id":"cebpf4jnsgd1na2vs0mg"},{"bike_id":"39631300-b771-4e23-bbdb-b2a1db467ce1","system_id":"levelo_inurba_marseille","lat":43.32372,"lon":5.38881,"is_reserved":false,"is_disabled":false,"rental_uris":{"android":"levelo://app?vid=39631300-b771-4e23-bbdb-b2a1db467ce1","ios":"levelo://app?vid=39631300-b771-4e23-bbdb-b2a1db467ce1"},"vehicle_type_id":"4","last_reported":1726441702,"current_range_meters":33200,"station_id":"ce4bhqp2rcd13ifvqhog","pricing_plan_id":"cebpf4jnsgd1na2vs0mg"},{"bike_id":"b645ac77-0d58-4fa9-8ad3-947af8bdb1d9","system_id":"levelo_inurba_marseille","lat":43.29904,"lon":5.43665,"is_reserved":false,"is_disabled":false,"rental_uris":{"android":"levelo://app?vid=b645ac77-0d58-4fa9-8ad3-947af8bdb1d9","ios":"levelo://app?vid=b645ac77-0d58-4fa9-8ad3-947af8bdb1d9"},"vehicle_type_id":"4","last_reported":1726441702,"current_range_meters":31200,"station_id":"ce4bhpp2rcd13ifvqhfg","pricing_plan_id":"cebpf4jnsgd1na2vs0mg"},{"bike_id":"03515e55-0de8-4f6d-953a-abbf71a9cce4","system_id":"levelo_inurba_marseille","lat":43.24071,"lon":5.37759,"is_reserved":false,"is_disabled":false,"rental_uris":{"android":"levelo://app?vid=03515e55-0de8-4f6d-953a-abbf71a9cce4","ios":"levelo://app?vid=03515e55-0de8-4f6d-953a-abbf71a9cce4"},"vehicle_type_id":"4","last_reported":1726441702,"current_range_meters":14400,"station_id":"ce4bhnp2rcd13ifvqgvg","pricing_plan_id":"cebpf4jnsgd1na2vs0mg"},{"bike_id":"eaf80fae-4a2b-497e-8801-e7f36cd6b653","system_id":"levelo_inurba_marseille","lat":43.28468,"lon":5.35897,"is_reserved":false,"is_disabled":false,"rental_uris":{"android":"levelo://app?vid=eaf80fae-4a2b-497e-8801-e7f36cd6b653","ios":"levelo://app?vid=eaf80fae-4a2b-497e-8801-e7f36cd6b653"},"vehicle_type_id":"4","last_reported":1726441702,"current_range_meters":20800,"station_id":"ce4bhah2rcd13ifvqei0","pricing_plan_id":"cebpf4jnsgd1na2vs0mg"},{"bike_id":"aaea6de8-5c30-44c2-89a6-c45adb2acd03","system_id":"levelo_inurba_marseille","lat":43.32339,"lon":5.40614,"is_reserved":false,"is_disabled":false,"rental_uris":{"android":"levelo://app?vid=aaea6de8-5c30-44c2-89a6-c45adb2acd03","ios":"levelo://app?vid=aaea6de8-5c30-44c2-89a6-c45adb2acd03"},"vehicle_type_id":"4","last_reported":1726441702,"current_range_meters":20000,"station_id":"ce4bhq92rcd13ifvqhjg","pricing_plan_id":"cebpf4jnsgd1na2vs0mg"},{"bike_id":"8e04ad42-4fb7-46a5-8bdd-901fc987436f","system_id":"levelo_inurba_marseille","lat":43.31031,"lon":5.38063,"is_reserved":false,"is_disabled":false,"rental_uris":{"android":"levelo://app?vid=8e04ad42-4fb7-46a5-8bdd-901fc987436f","ios":"levelo://app?vid=8e04ad42-4fb7-46a5-8bdd-901fc987436f"},"vehicle_type_id":"4","last_reported":1726441702,"current_range_meters":36400,"station_id":"","pricing_plan_id":"cebpf4jnsgd1na2vs0mg"},{"bike_id":"476b1e2b-d05b-4015-b83d-5f18d98c44f5","system_id":"levelo_inurba_marseille","lat":43.29519,"lon":5.394,"is_reserved":false,"is_disabled":false,"rental_uris":{"android":"levelo://app?vid=476b1e2b-d05b-4015-b83d-5f18d98c44f5","ios":"levelo://app?vid=476b1e2b-d05b-4015-b83d-5f18d98c44f5"},"vehicle_type_id":"4","last_reported":1726441702,"current_range_meters":38400,"station_id":"ce4bh292rcd13ifvqdf0","pricing_plan_id":"cebpf4jnsgd1na2vs0mg"},{"bike_id":"a4c0cf7c-3841-4e16-9fa4-fcc011f72b5b","system_id":"levelo_inurba_marseille","lat":43.30137,"lon":5.39873,"is_reserved":false,"is_disabled":false,"rental_uris":{"android":"levelo://app?vid=a4c0cf7c-3841-4e16-9fa4-fcc011f72b5b","ios":"levelo://app?vid=a4c0cf7c-3841-4e16-9fa4-fcc011f72b5b"},"vehicle_type_id":"4","last_reported":1726441702,"current_range_meters":6000,"station_id":"ce4bh0h2rcd13ifvqd40","pricing_plan_id":"cebpf4jnsgd1na2vs0mg"},{"bike_id":"c977ac76-9a71-4518-8b9f-61c2000648c4","system_id":"levelo_inurba_marseille","lat":43.3106,"lon":5.38353,"is_reserved":false,"is_disabled":false,"rental_uris":{"android":"levelo://app?vid=c977ac76-9a71-4518-8b9f-61c2000648c4","ios":"levelo://app?vid=c977ac76-9a71-4518-8b9f-61c2000648c4"},"vehicle_type_id":"4","last_reported":1726441702,"current_range_meters":28000,"station_id":"ce4bgv92rcd13ifvqcr0","pricing_plan_id":"cebpf4jnsgd1na2vs0mg"},{"bike_id":"7abc2a25-404a-4f70-a7c0-c89315b5c4bc","system_id":"levelo_inurba_marseille","lat":43.29067,"lon":5.40555,"is_reserved":false,"is_disabled":false,"rental_uris":{"android":"levelo://app?vid=7abc2a25-404a-4f70-a7c0-c89315b5c4bc","ios":"levelo://app?vid=7abc2a25-404a-4f70-a7c0-c89315b5c4bc"},"vehicle_type_id":"4","last_reported":1726441702,"current_range_meters":27200,"station_id":"","pricing_plan_id":"cebpf4jnsgd1na2vs0mg"},{"bike_id":"7646c591-ba02-4a98-a2f6-74af65491dc1","system_id":"levelo_inurba_marseille","lat":43.28001,"lon":5.40022,"is_reserved":false,"is_disabled":false,"rental_uris":{"android":"levelo://app?vid=7646c591-ba02-4a98-a2f6-74af65491dc1","ios":"levelo://app?vid=7646c591-ba02-4a98-a2f6-74af65491dc1"},"vehicle_type_id":"4","last_reported":1726441702,"current_range_meters":38800,"station_id":"ce4bho92rcd13ifvqh4g","pricing_plan_id":"cebpf4jnsgd1na2vs0mg"},{"bike_id":"677498c9-746b-4650-9a8e-2c7479635944","system_id":"levelo_inurba_marseille","lat":43.33026,"lon":5.39055,"is_reserved":false,"is_disabled":false,"rental_uris":{"android":"levelo://app?vid=677498c9-746b-4650-9a8e-2c7479635944","ios":"levelo://app?vid=677498c9-746b-4650-9a8e-2c7479635944"},"vehicle_type_id":"4","last_reported":1726441702,"current_range_meters":30400,"station_id":"ce4bhr92rcd13ifvqhrg","pricing_plan_id":"cebpf4jnsgd1na2vs0mg"},{"bike_id":"945e1963-7845-4716-ae5e-156f9681d07b","system_id":"levelo_inurba_marseille","lat":43.29219,"lon":5.39324,"is_reserved":false,"is_disabled":false,"rental_uris":{"android":"levelo://app?vid=945e1963-7845-4716-ae5e-156f9681d07b","ios":"levelo://app?vid=945e1963-7845-4716-ae5e-156f9681d07b"},"vehicle_type_id":"4","last_reported":1726441702,"current_range_meters":38800,"station_id":"ce4bh192rcd13ifvqdd0","pricing_plan_id":"cebpf4jnsgd1na2vs0mg"},{"bike_id":"5b2ab235-d56d-427a-87a6-6805b524b325","system_id":"levelo_inurba_marseille","lat":43.30426,"lon":5.39741,"is_reserved":false,"is_disabled":false,"rental_uris":{"android":"levelo://app?vid=5b2ab235-d56d-427a-87a6-6805b524b325","ios":"levelo://app?vid=5b2ab235-d56d-427a-87a6-6805b524b325"},"vehicle_type_id":"4","last_reported":1726441702,"current_range_meters":16400,"station_id":"ce4bh092rcd13ifvqd20","pricing_plan_id":"cebpf4jnsgd1na2vs0mg"},{"bike_id":"3f5b63b5-9f49-4a52-a4be-0b706a026622","system_id":"levelo_inurba_marseille","lat":43.33024,"lon":5.39043,"is_reserved":false,"is_disabled":false,"rental_uris":{"android":"levelo://app?vid=3f5b63b5-9f49-4a52-a4be-0b706a026622","ios":"levelo://app?vid=3f5b63b5-9f49-4a52-a4be-0b706a026622"},"vehicle_type_id":"4","last_reported":1726441702,"current_range_meters":38800,"station_id":"ce4bhr92rcd13ifvqhrg","pricing_plan_id":"cebpf4jnsgd1na2vs0mg"},{"bike_id":"c0042362-d76e-412e-8000-c06d63ef023d","system_id":"levelo_inurba_marseille","lat":43.2905,"lon":5.35918,"is_reserved":false,"is_disabled":false,"rental_uris":{"android":"levelo://app?vid=c0042362-d76e-412e-8000-c06d63ef023d","ios":"levelo://app?vid=c0042362-d76e-412e-8000-c06d63ef023d"},"vehicle_type_id":"4","last_reported":1726441702,"current_range_meters":38000,"station_id":"ce4bha92rcd13ifvqeg0","pricing_plan_id":"cebpf4jnsgd1na2vs0mg"},{"bike_id":"3bb5d2ce-174d-43dc-bb1b-a92d04845a29","system_id":"levelo_inurba_marseille","lat":43.31128,"lon":5.37773,"is_reserved":false,"is_disabled":false,"rental_uris":{"android":"levelo://app?vid=3bb5d2ce-174d-43dc-bb1b-a92d04845a29","ios":"levelo://app?vid=3bb5d2ce-174d-43dc-bb1b-a92d04845a29"},"vehicle_type_id":"4","last_reported":1726441702,"current_range_meters":11600,"station_id":"ce4bgt92rcd13ifvqcg0","pricing_plan_id":"cebpf4jnsgd1na2vs0mg"},{"bike_id":"ed0bfe09-1fce-45b5-a71d-0556b40f6548","system_id":"levelo_inurba_marseille","lat":43.31134,"lon":5.37761,"is_reserved":false,"is_disabled":false,"rental_uris":{"android":"levelo://app?vid=ed0bfe09-1fce-45b5-a71d-0556b40f6548","ios":"levelo://app?vid=ed0bfe09-1fce-45b5-a71d-0556b40f6548"},"vehicle_type_id":"4","last_reported":1726441702,"current_range_meters":9600,"station_id":"ce4bgt92rcd13ifvqcg0","pricing_plan_id":"cebpf4jnsgd1na2vs0mg"},{"bike_id":"3540bcdf-cf57-41b9-9163-5f5aeb577896","system_id":"levelo_inurba_marseille","lat":43.27382,"lon":5.36243,"is_reserved":false,"is_disabled":false,"rental_uris":{"android":"levelo://app?vid=3540bcdf-cf57-41b9-9163-5f5aeb577896","ios":"levelo://app?vid=3540bcdf-cf57-41b9-9163-5f5aeb577896"},"vehicle_type_id":"4","last_reported":1726441702,"current_range_meters":38800,"station_id":"ce4bhbh2rcd13ifvqeo0","pricing_plan_id":"cebpf4jnsgd1na2vs0mg"},{"bike_id":"6b4895a7-8f71-447f-86e5-5a72d609d24d","system_id":"levelo_inurba_marseille","lat":43.31171,"lon":5.38711,"is_reserved":false,"is_disabled":false,"rental_uris":{"android":"levelo://app?vid=6b4895a7-8f71-447f-86e5-5a72d609d24d","ios":"levelo://app?vid=6b4895a7-8f71-447f-86e5-5a72d609d24d"},"vehicle_type_id":"4","last_reported":1726441702,"current_range_meters":34800,"station_id":"ce4bgv12rcd13ifvqcp0","pricing_plan_id":"cebpf4jnsgd1na2vs0mg"},{"bike_id":"b4d2dbe6-7814-4b38-b314-f22564e29de4","system_id":"levelo_inurba_marseille","lat":43.25824,"lon":5.39424,"is_reserved":false,"is_disabled":false,"rental_uris":{"android":"levelo://app?vid=b4d2dbe6-7814-4b38-b314-f22564e29de4","ios":"levelo://app?vid=b4d2dbe6-7814-4b38-b314-f22564e29de4"},"vehicle_type_id":"4","last_reported":1726441702,"current_range_meters":8000,"station_id":"ce4bhip2rcd13ifvqft0","pricing_plan_id":"cebpf4jnsgd1na2vs0mg"},{"bike_id":"a1fd93be-9189-4d8f-bc5f-8b82d66d4441","system_id":"levelo_inurba_marseille","lat":43.24665,"lon":5.38163,"is_reserved":false,"is_disabled":false,"rental_uris":{"android":"levelo://app?vid=a1fd93be-9189-4d8f-bc5f-8b82d66d4441","ios":"levelo://app?vid=a1fd93be-9189-4d8f-bc5f-8b82d66d4441"},"vehicle_type_id":"4","last_reported":1726441702,"current_range_meters":38800,"station_id":"ce4bhih2rcd13ifvqfr0","pricing_plan_id":"cebpf4jnsgd1na2vs0mg"},{"bike_id":"59c2c49a-1762-42b4-9559-0e22c089f63b","system_id":"levelo_inurba_marseille","lat":43.25122,"lon":5.40322,"is_reserved":false,"is_disabled":false,"rental_uris":{"android":"levelo://app?vid=59c2c49a-1762-42b4-9559-0e22c089f63b","ios":"levelo://app?vid=59c2c49a-1762-42b4-9559-0e22c089f63b"},"vehicle_type_id":"4","last_reported":1726441702,"current_range_meters":38800,"station_id":"ce4bhlh2rcd13ifvqgig","pricing_plan_id":"cebpf4jnsgd1na2vs0mg"},{"bike_id":"7e1a9b22-1a67-4646-a99d-a80e7ed6a8ad","system_id":"levelo_inurba_marseille","lat":43.29895,"lon":5.43664,"is_reserved":false,"is_disabled":false,"rental_uris":{"android":"levelo://app?vid=7e1a9b22-1a67-4646-a99d-a80e7ed6a8ad","ios":"levelo://app?vid=7e1a9b22-1a67-4646-a99d-a80e7ed6a8ad"},"vehicle_type_id":"4","last_reported":1726441702,"current_range_meters":38800,"station_id":"ce4bhpp2rcd13ifvqhfg","pricing_plan_id":"cebpf4jnsgd1na2vs0mg"},{"bike_id":"6db17a63-af51-4205-9bcf-00b653a6db03","system_id":"levelo_inurba_marseille","lat":43.33729,"lon":5.39181,"is_reserved":false,"is_disabled":false,"rental_uris":{"android":"levelo://app?vid=6db17a63-af51-4205-9bcf-00b653a6db03","ios":"levelo://app?vid=6db17a63-af51-4205-9bcf-00b653a6db03"},"vehicle_type_id":"4","last_reported":1726441702,"current_range_meters":38400,"station_id":"ce4bhr92rcd13ifvqhsg","pricing_plan_id":"cebpf4jnsgd1na2vs0mg"},{"bike_id":"c2565b12-c8d3-40eb-9421-b9c5501affc8","system_id":"levelo_inurba_marseille","lat":43.2959,"lon":5.39956,"is_reserved":false,"is_disabled":false,"rental_uris":{"android":"levelo://app?vid=c2565b12-c8d3-40eb-9421-b9c5501affc8","ios":"levelo://app?vid=c2565b12-c8d3-40eb-9421-b9c5501affc8"},"vehicle_type_id":"4","last_reported":1726441702,"current_range_meters":38800,"station_id":"ce4bh312rcd13ifvqdj0","pricing_plan_id":"cebpf4jnsgd1na2vs0mg"},{"bike_id":"76d60cb1-256d-42fd-943e-1cfa3162a2c6","system_id":"levelo_inurba_marseille","lat":43.28075,"lon":5.39646,"is_reserved":false,"is_disabled":false,"rental_uris":{"android":"levelo://app?vid=76d60cb1-256d-42fd-943e-1cfa3162a2c6","ios":"levelo://app?vid=76d60cb1-256d-42fd-943e-1cfa3162a2c6"},"vehicle_type_id":"4","last_reported":1726441702,"current_range_meters":24800,"station_id":"ce4bho12rcd13ifvqh2g","pricing_plan_id":"cebpf4jnsgd1na2vs0mg"},{"bike_id":"e26cdc24-c624-4d47-b139-36e9c5ec5975","system_id":"levelo_inurba_marseille","lat":43.28569,"lon":5.39509,"is_reserved":false,"is_disabled":false,"rental_uris":{"android":"levelo://app?vid=e26cdc24-c624-4d47-b139-36e9c5ec5975","ios":"levelo://app?vid=e26cdc24-c624-4d47-b139-36e9c5ec5975"},"vehicle_type_id":"4","last_reported":1726441702,"current_range_meters":38800,"station_id":"ce4bh292rcd13ifvqdg0","pricing_plan_id":"cebpf4jnsgd1na2vs0mg"},{"bike_id":"99684f50-b398-427b-a4e9-7ca0a0382c79","system_id":"levelo_inurba_marseille","lat":43.23199,"lon":5.35548,"is_reserved":false,"is_disabled":false,"rental_uris":{"android":"levelo://app?vid=99684f50-b398-427b-a4e9-7ca0a0382c79","ios":"levelo://app?vid=99684f50-b398-427b-a4e9-7ca0a0382c79"},"vehicle_type_id":"4","last_reported":1726441702,"current_range_meters":32000,"station_id":"ce4bhu92rcd13ifvqi70","pricing_plan_id":"cebpf4jnsgd1na2vs0mg"},{"bike_id":"2b51f057-3d88-46eb-8d2b-f57e8e47a46b","system_id":"levelo_inurba_marseille","lat":43.28707,"lon":5.37392,"is_reserved":false,"is_disabled":false,"rental_uris":{"android":"levelo://app?vid=2b51f057-3d88-46eb-8d2b-f57e8e47a46b","ios":"levelo://app?vid=2b51f057-3d88-46eb-8d2b-f57e8e47a46b"},"vehicle_type_id":"4","last_reported":1726441702,"current_range_meters":39200,"station_id":"ce4bh3p2rcd13ifvqdq0","pricing_plan_id":"cebpf4jnsgd1na2vs0mg"},{"bike_id":"58286d15-9785-4010-942d-ccd63c6b2535","system_id":"levelo_inurba_marseille","lat":43.27985,"lon":5.41651,"is_reserved":false,"is_disabled":false,"rental_uris":{"android":"levelo://app?vid=58286d15-9785-4010-942d-ccd63c6b2535","ios":"levelo://app?vid=58286d15-9785-4010-942d-ccd63c6b2535"},"vehicle_type_id":"4","last_reported":1726441702,"current_range_meters":26000,"station_id":"ce4bho12rcd13ifvqh1g","pricing_plan_id":"cebpf4jnsgd1na2vs0mg"},{"bike_id":"9b0fbd72-fd5e-478a-92d3-9637ac9ab882","system_id":"levelo_inurba_marseille","lat":43.28678,"lon":5.38649,"is_reserved":false,"is_disabled":false,"rental_uris":{"android":"levelo://app?vid=9b0fbd72-fd5e-478a-92d3-9637ac9ab882","ios":"levelo://app?vid=9b0fbd72-fd5e-478a-92d3-9637ac9ab882"},"vehicle_type_id":"4","last_reported":1726441702,"current_range_meters":12400,"station_id":"ce4bh492rcd13ifvqdug","pricing_plan_id":"cebpf4jnsgd1na2vs0mg"},{"bike_id":"0c8e7c01-3dc7-40a0-9675-5ef29309d7dc","system_id":"levelo_inurba_marseille","lat":43.28699,"lon":5.37392,"is_reserved":false,"is_disabled":false,"rental_uris":{"android":"levelo://app?vid=0c8e7c01-3dc7-40a0-9675-5ef29309d7dc","ios":"levelo://app?vid=0c8e7c01-3dc7-40a0-9675-5ef29309d7dc"},"vehicle_type_id":"4","last_reported":1726441702,"current_range_meters":36000,"station_id":"ce4bh3p2rcd13ifvqdq0","pricing_plan_id":"cebpf4jnsgd1na2vs0mg"},{"bike_id":"3709e871-70a4-471a-a01b-eee384645ff0","system_id":"levelo_inurba_marseille","lat":43.31724,"lon":5.42404,"is_reserved":false,"is_disabled":false,"rental_uris":{"android":"levelo://app?vid=3709e871-70a4-471a-a01b-eee384645ff0","ios":"levelo://app?vid=3709e871-70a4-471a-a01b-eee384645ff0"},"vehicle_type_id":"4","last_reported":1726441702,"current_range_meters":38800,"station_id":"ce4bhp92rcd13ifvqhbg","pricing_plan_id":"cebpf4jnsgd1na2vs0mg"},{"bike_id":"9d3522ac-8164-42cf-ad80-7445b859edd2","system_id":"levelo_inurba_marseille","lat":43.31498,"lon":5.37302,"is_reserved":false,"is_disabled":false,"rental_uris":{"android":"levelo://app?vid=9d3522ac-8164-42cf-ad80-7445b859edd2","ios":"levelo://app?vid=9d3522ac-8164-42cf-ad80-7445b859edd2"},"vehicle_type_id":"4","last_reported":1726441702,"current_range_meters":38800,"station_id":"ce4bgt12rcd13ifvqcd0","pricing_plan_id":"cebpf4jnsgd1na2vs0mg"},{"bike_id":"12b76948-bd92-42ee-b359-c6fef93aba38","system_id":"levelo_inurba_marseille","lat":43.25722,"lon":5.41106,"is_reserved":false,"is_disabled":false,"rental_uris":{"android":"levelo://app?vid=12b76948-bd92-42ee-b359-c6fef93aba38","ios":"levelo://app?vid=12b76948-bd92-42ee-b359-c6fef93aba38"},"vehicle_type_id":"4","last_reported":1726441702,"current_range_meters":7200,"station_id":"ce4bhkp2rcd13ifvqgd0","pricing_plan_id":"cebpf4jnsgd1na2vs0mg"},{"bike_id":"dde9add0-5c35-4eef-ba65-19df115b9389","system_id":"levelo_inurba_marseille","lat":43.28697,"lon":5.37385,"is_reserved":false,"is_disabled":false,"rental_uris":{"android":"levelo://app?vid=dde9add0-5c35-4eef-ba65-19df115b9389","ios":"levelo://app?vid=dde9add0-5c35-4eef-ba65-19df115b9389"},"vehicle_type_id":"4","last_reported":1726441702,"current_range_meters":38800,"station_id":"ce4bh3p2rcd13ifvqdq0","pricing_plan_id":"cebpf4jnsgd1na2vs0mg"},{"bike_id":"1e54f664-623d-4b0d-9f47-e0922c9c7681","system_id":"levelo_inurba_marseille","lat":43.25941,"lon":5.40905,"is_reserved":false,"is_disabled":false,"rental_uris":{"android":"levelo://app?vid=1e54f664-623d-4b0d-9f47-e0922c9c7681","ios":"levelo://app?vid=1e54f664-623d-4b0d-9f47-e0922c9c7681"},"vehicle_type_id":"4","last_reported":1726441702,"current_range_meters":9600,"station_id":"ce4bhm92rcd13ifvqglg","pricing_plan_id":"cebpf4jnsgd1na2vs0mg"},{"bike_id":"27e76765-b463-4793-be7f-a7f49e00226c","system_id":"levelo_inurba_marseille","lat":43.34145,"lon":5.40901,"is_reserved":false,"is_disabled":false,"rental_uris":{"android":"levelo://app?vid=27e76765-b463-4793-be7f-a7f49e00226c","ios":"levelo://app?vid=27e76765-b463-4793-be7f-a7f49e00226c"},"vehicle_type_id":"4","last_reported":1726441702,"current_range_meters":29600,"station_id":"ce4bhqh2rcd13ifvqhlg","pricing_plan_id":"cebpf4jnsgd1na2vs0mg"},{"bike_id":"68bc764f-b42a-4124-a878-40c92c27c47d","system_id":"levelo_inurba_marseille","lat":43.31759,"lon":5.39017,"is_reserved":false,"is_disabled":false,"rental_uris":{"android":"levelo://app?vid=68bc764f-b42a-4124-a878-40c92c27c47d","ios":"levelo://app?vid=68bc764f-b42a-4124-a878-40c92c27c47d"},"vehicle_type_id":"4","last_reported":1726441702,"current_range_meters":34000,"station_id":"ce4bhqp2rcd13ifvqhng","pricing_plan_id":"cebpf4jnsgd1na2vs0mg"},{"bike_id":"d63ad04d-e935-4c3c-9841-3c6f8e5f45d5","system_id":"levelo_inurba_marseille","lat":43.30247,"lon":5.40049,"is_reserved":false,"is_disabled":false,"rental_uris":{"android":"levelo://app?vid=d63ad04d-e935-4c3c-9841-3c6f8e5f45d5","ios":"levelo://app?vid=d63ad04d-e935-4c3c-9841-3c6f8e5f45d5"},"vehicle_type_id":"4","last_reported":1726441702,"current_range_meters":33200,"station_id":"ce4bgvh2rcd13ifvqcs0","pricing_plan_id":"cebpf4jnsgd1na2vs0mg"},{"bike_id":"e1de809e-c7aa-49be-847e-e162a57948bd","system_id":"levelo_inurba_marseille","lat":43.30813,"lon":5.3815,"is_reserved":false,"is_disabled":false,"rental_uris":{"android":"levelo://app?vid=e1de809e-c7aa-49be-847e-e162a57948bd","ios":"levelo://app?vid=e1de809e-c7aa-49be-847e-e162a57948bd"},"vehicle_type_id":"4","last_reported":1726441702,"current_range_meters":38000,"station_id":"ce4bgt12rcd13ifvqce0","pricing_plan_id":"cebpf4jnsgd1na2vs0mg"},{"bike_id":"98467651-1264-4716-aa85-b4968452b090","system_id":"levelo_inurba_marseille","lat":43.28681,"lon":5.36345,"is_reserved":false,"is_disabled":false,"rental_uris":{"android":"levelo://app?vid=98467651-1264-4716-aa85-b4968452b090","ios":"levelo://app?vid=98467651-1264-4716-aa85-b4968452b090"},"vehicle_type_id":"4","last_reported":1726441702,"current_range_meters":30000,"station_id":"ce4bhah2rcd13ifvqej0","pricing_plan_id":"cebpf4jnsgd1na2vs0mg"},{"bike_id":"dabe6521-1d1e-4b21-93ba-26c4493b6e40","system_id":"levelo_inurba_marseille","lat":43.28165,"lon":5.39364,"is_reserved":false,"is_disabled":false,"rental_uris":{"android":"levelo://app?vid=dabe6521-1d1e-4b21-93ba-26c4493b6e40","ios":"levelo://app?vid=dabe6521-1d1e-4b21-93ba-26c4493b6e40"},"vehicle_type_id":"4","last_reported":1726441702,"current_range_meters":38000,"station_id":"ce4bhjp2rcd13ifvqga0","pricing_plan_id":"cebpf4jnsgd1na2vs0mg"},{"bike_id":"914c748f-708a-4e9c-b120-05b554769fcf","system_id":"levelo_inurba_marseille","lat":43.31716,"lon":5.43717,"is_reserved":false,"is_disabled":false,"rental_uris":{"android":"levelo://app?vid=914c748f-708a-4e9c-b120-05b554769fcf","ios":"levelo://app?vid=914c748f-708a-4e9c-b120-05b554769fcf"},"vehicle_type_id":"4","last_reported":1726441702,"current_range_meters":19200,"station_id":"ce4bhp92rcd13ifvqhcg","pricing_plan_id":"cebpf4jnsgd1na2vs0mg"},{"bike_id":"c3bb106d-267f-4c7d-84e0-1a6378204a6c","system_id":"levelo_inurba_marseille","lat":43.2956,"lon":5.42281,"is_reserved":false,"is_disabled":false,"rental_uris":{"android":"levelo://app?vid=c3bb106d-267f-4c7d-84e0-1a6378204a6c","ios":"levelo://app?vid=c3bb106d-267f-4c7d-84e0-1a6378204a6c"},"vehicle_type_id":"4","last_reported":1726441702,"current_range_meters":38800,"station_id":"ce4bhph2rcd13ifvqhdg","pricing_plan_id":"cebpf4jnsgd1na2vs0mg"},{"bike_id":"be6a7145-0791-40f8-a3e4-321fb362448d","system_id":"levelo_inurba_marseille","lat":43.27492,"lon":5.42452,"is_reserved":false,"is_disabled":false,"rental_uris":{"android":"levelo://app?vid=be6a7145-0791-40f8-a3e4-321fb362448d","ios":"levelo://app?vid=be6a7145-0791-40f8-a3e4-321fb362448d"},"vehicle_type_id":"4","last_reported":1726441702,"current_range_meters":6800,"station_id":"ce4bhn92rcd13ifvqgrg","pricing_plan_id":"cebpf4jnsgd1na2vs0mg"},{"bike_id":"a265eb93-a8ff-4ed4-a578-edcaf57acfe8","system_id":"levelo_inurba_marseille","lat":43.30142,"lon":5.39884,"is_reserved":false,"is_disabled":false,"rental_uris":{"android":"levelo://app?vid=a265eb93-a8ff-4ed4-a578-edcaf57acfe8","ios":"levelo://app?vid=a265eb93-a8ff-4ed4-a578-edcaf57acfe8"},"vehicle_type_id":"4","last_reported":1726441702,"current_range_meters":23200,"station_id":"ce4bh0h2rcd13ifvqd40","pricing_plan_id":"cebpf4jnsgd1na2vs0mg"},{"bike_id":"496ce78a-3c0a-4e12-b650-621f6f8c3dd1","system_id":"levelo_inurba_marseille","lat":43.30221,"lon":5.39472,"is_reserved":false,"is_disabled":false,"rental_uris":{"android":"levelo://app?vid=496ce78a-3c0a-4e12-b650-621f6f8c3dd1","ios":"levelo://app?vid=496ce78a-3c0a-4e12-b650-621f6f8c3dd1"},"vehicle_type_id":"4","last_reported":1726441702,"current_range_meters":8800,"station_id":"ce4bh0p2rcd13ifvqd70","pricing_plan_id":"cebpf4jnsgd1na2vs0mg"},{"bike_id":"454578f1-b87b-41c5-aef7-64c1c56a147c","system_id":"levelo_inurba_marseille","lat":43.302735,"lon":5.400503,"is_reserved":false,"is_disabled":false,"rental_uris":{"android":"levelo://app?vid=454578f1-b87b-41c5-aef7-64c1c56a147c","ios":"levelo://app?vid=454578f1-b87b-41c5-aef7-64c1c56a147c"},"vehicle_type_id":"4","last_reported":1726441702,"current_range_meters":28800,"station_id":"ce4bgvh2rcd13ifvqcs0","pricing_plan_id":"cebpf4jnsgd1na2vs0mg"},{"bike_id":"551de953-df6e-4ecf-83c0-a60f9a4e870c","system_id":"levelo_inurba_marseille","lat":43.29414,"lon":5.38627,"is_reserved":false,"is_disabled":false,"rental_uris":{"android":"levelo://app?vid=551de953-df6e-4ecf-83c0-a60f9a4e870c","ios":"levelo://app?vid=551de953-df6e-4ecf-83c0-a60f9a4e870c"},"vehicle_type_id":"4","last_reported":1726441702,"current_range_meters":37600,"station_id":"ce4bh2h2rcd13ifvqdh0","pricing_plan_id":"cebpf4jnsgd1na2vs0mg"},{"bike_id":"963be3bf-c0b8-4a11-aaff-3bbb65bf021e","system_id":"levelo_inurba_marseille","lat":43.31707,"lon":5.37771,"is_reserved":false,"is_disabled":false,"rental_uris":{"android":"levelo://app?vid=963be3bf-c0b8-4a11-aaff-3bbb65bf021e","ios":"levelo://app?vid=963be3bf-c0b8-4a11-aaff-3bbb65bf021e"},"vehicle_type_id":"4","last_reported":1726441702,"current_range_meters":13600,"station_id":"ce4bgth2rcd13ifvqch0","pricing_plan_id":"cebpf4jnsgd1na2vs0mg"},{"bike_id":"2e0c0d05-1bf9-4d6d-bb88-6a1e5840f619","system_id":"levelo_inurba_marseille","lat":43.25122,"lon":5.40354,"is_reserved":false,"is_disabled":false,"rental_uris":{"android":"levelo://app?vid=2e0c0d05-1bf9-4d6d-bb88-6a1e5840f619","ios":"levelo://app?vid=2e0c0d05-1bf9-4d6d-bb88-6a1e5840f619"},"vehicle_type_id":"4","last_reported":1726441702,"current_range_meters":35600,"station_id":"ce4bhlh2rcd13ifvqgig","pricing_plan_id":"cebpf4jnsgd1na2vs0mg"},{"bike_id":"6ad2fe94-195b-4d58-9ac6-d3a9675a4c80","system_id":"levelo_inurba_marseille","lat":43.23068,"lon":5.35491,"is_reserved":false,"is_disabled":false,"rental_uris":{"android":"levelo://app?vid=6ad2fe94-195b-4d58-9ac6-d3a9675a4c80","ios":"levelo://app?vid=6ad2fe94-195b-4d58-9ac6-d3a9675a4c80"},"vehicle_type_id":"4","last_reported":1726441702,"current_range_meters":19600,"station_id":"cpo3342slgdg3j2ifvpg","pricing_plan_id":"cebpf4jnsgd1na2vs0mg"},{"bike_id":"6dd17a2f-59bb-4453-859d-2c09ab795824","system_id":"levelo_inurba_marseille","lat":43.33026,"lon":5.39047,"is_reserved":false,"is_disabled":false,"rental_uris":{"android":"levelo://app?vid=6dd17a2f-59bb-4453-859d-2c09ab795824","ios":"levelo://app?vid=6dd17a2f-59bb-4453-859d-2c09ab795824"},"vehicle_type_id":"4","last_reported":1726441702,"current_range_meters":38800,"station_id":"ce4bhr92rcd13ifvqhrg","pricing_plan_id":"cebpf4jnsgd1na2vs0mg"},{"bike_id":"ed395158-49bb-4ed0-a30f-caaeb4a15a1c","system_id":"levelo_inurba_marseille","lat":43.24079,"lon":5.37741,"is_reserved":false,"is_disabled":false,"rental_uris":{"android":"levelo://app?vid=ed395158-49bb-4ed0-a30f-caaeb4a15a1c","ios":"levelo://app?vid=ed395158-49bb-4ed0-a30f-caaeb4a15a1c"},"vehicle_type_id":"4","last_reported":1726441702,"current_range_meters":10800,"station_id":"ce4bhnp2rcd13ifvqgvg","pricing_plan_id":"cebpf4jnsgd1na2vs0mg"},{"bike_id":"48a75132-65a0-45f8-9553-b182e39835b0","system_id":"levelo_inurba_marseille","lat":43.28948,"lon":5.39629,"is_reserved":false,"is_disabled":false,"rental_uris":{"android":"levelo://app?vid=48a75132-65a0-45f8-9553-b182e39835b0","ios":"levelo://app?vid=48a75132-65a0-45f8-9553-b182e39835b0"},"vehicle_type_id":"4","last_reported":1726441702,"current_range_meters":37600,"station_id":"ce4bh3h2rcd13ifvqdn0","pricing_plan_id":"cebpf4jnsgd1na2vs0mg"},{"bike_id":"be70b63a-c764-4fe4-944c-ea7e338d1412","system_id":"levelo_inurba_marseille","lat":43.26209,"lon":5.37928,"is_reserved":false,"is_disabled":false,"rental_uris":{"android":"levelo://app?vid=be70b63a-c764-4fe4-944c-ea7e338d1412","ios":"levelo://app?vid=be70b63a-c764-4fe4-944c-ea7e338d1412"},"vehicle_type_id":"4","last_reported":1726441702,"current_range_meters":37600,"station_id":"ce4bhjp2rcd13ifvqg90","pricing_plan_id":"cebpf4jnsgd1na2vs0mg"},{"bike_id":"97e0605e-afb8-4573-a452-c86788cdd417","system_id":"levelo_inurba_marseille","lat":43.30812,"lon":5.38151,"is_reserved":false,"is_disabled":false,"rental_uris":{"android":"levelo://app?vid=97e0605e-afb8-4573-a452-c86788cdd417","ios":"levelo://app?vid=97e0605e-afb8-4573-a452-c86788cdd417"},"vehicle_type_id":"4","last_reported":1726441702,"current_range_meters":25600,"station_id":"ce4bgt12rcd13ifvqce0","pricing_plan_id":"cebpf4jnsgd1na2vs0mg"},{"bike_id":"8fd7b1c5-b548-48b1-9a55-be35dd3453c1","system_id":"levelo_inurba_marseille","lat":43.31764,"lon":5.39016,"is_reserved":false,"is_disabled":false,"rental_uris":{"android":"levelo://app?vid=8fd7b1c5-b548-48b1-9a55-be35dd3453c1","ios":"levelo://app?vid=8fd7b1c5-b548-48b1-9a55-be35dd3453c1"},"vehicle_type_id":"4","last_reported":1726441702,"current_range_meters":32800,"station_id":"ce4bhqp2rcd13ifvqhng","pricing_plan_id":"cebpf4jnsgd1na2vs0mg"},{"bike_id":"14deafc5-a716-454d-858f-d4247d57d26c","system_id":"levelo_inurba_marseille","lat":43.33613,"lon":5.41021,"is_reserved":false,"is_disabled":false,"rental_uris":{"android":"levelo://app?vid=14deafc5-a716-454d-858f-d4247d57d26c","ios":"levelo://app?vid=14deafc5-a716-454d-858f-d4247d57d26c"},"vehicle_type_id":"4","last_reported":1726441702,"current_range_meters":36400,"station_id":"ce4bhqh2rcd13ifvqhmg","pricing_plan_id":"cebpf4jnsgd1na2vs0mg"},{"bike_id":"23722360-8e3d-4498-9011-a9c0082dd807","system_id":"levelo_inurba_marseille","lat":43.29256,"lon":5.4091,"is_reserved":false,"is_disabled":false,"rental_uris":{"android":"levelo://app?vid=23722360-8e3d-4498-9011-a9c0082dd807","ios":"levelo://app?vid=23722360-8e3d-4498-9011-a9c0082dd807"},"vehicle_type_id":"4","last_reported":1726441702,"current_range_meters":22400,"station_id":"ce4bh192rcd13ifvqdc0","pricing_plan_id":"cebpf4jnsgd1na2vs0mg"},{"bike_id":"26161356-6993-4062-9af3-82f75fa7f2c4","system_id":"levelo_inurba_marseille","lat":43.28079,"lon":5.39656,"is_reserved":false,"is_disabled":false,"rental_uris":{"android":"levelo://app?vid=26161356-6993-4062-9af3-82f75fa7f2c4","ios":"levelo://app?vid=26161356-6993-4062-9af3-82f75fa7f2c4"},"vehicle_type_id":"4","last_reported":1726441702,"current_range_meters":6800,"station_id":"ce4bho12rcd13ifvqh2g","pricing_plan_id":"cebpf4jnsgd1na2vs0mg"},{"bike_id":"c7c223d6-40bb-49fd-b0b3-cd48a1164175","system_id":"levelo_inurba_marseille","lat":43.28471,"lon":5.35872,"is_reserved":false,"is_disabled":false,"rental_uris":{"android":"levelo://app?vid=c7c223d6-40bb-49fd-b0b3-cd48a1164175","ios":"levelo://app?vid=c7c223d6-40bb-49fd-b0b3-cd48a1164175"},"vehicle_type_id":"4","last_reported":1726441702,"current_range_meters":14000,"station_id":"ce4bhah2rcd13ifvqei0","pricing_plan_id":"cebpf4jnsgd1na2vs0mg"},{"bike_id":"2a29b635-860d-4fcf-b9ef-7b9429843b40","system_id":"levelo_inurba_marseille","lat":43.31726,"lon":5.42401,"is_reserved":false,"is_disabled":false,"rental_uris":{"android":"levelo://app?vid=2a29b635-860d-4fcf-b9ef-7b9429843b40","ios":"levelo://app?vid=2a29b635-860d-4fcf-b9ef-7b9429843b40"},"vehicle_type_id":"4","last_reported":1726441702,"current_range_meters":35600,"station_id":"ce4bhp92rcd13ifvqhbg","pricing_plan_id":"cebpf4jnsgd1na2vs0mg"},{"bike_id":"3c589fcf-8664-4ef6-a007-88d74cf42479","system_id":"levelo_inurba_marseille","lat":43.31372,"lon":5.38496,"is_reserved":false,"is_disabled":false,"rental_uris":{"android":"levelo://app?vid=3c589fcf-8664-4ef6-a007-88d74cf42479","ios":"levelo://app?vid=3c589fcf-8664-4ef6-a007-88d74cf42479"},"vehicle_type_id":"4","last_reported":1726441702,"current_range_meters":38400,"station_id":"ce4bgt92rcd13ifvqcf0","pricing_plan_id":"cebpf4jnsgd1na2vs0mg"},{"bike_id":"c09660f6-ba40-44df-bb1d-17edeabe359d","system_id":"levelo_inurba_marseille","lat":43.298,"lon":5.40414,"is_reserved":false,"is_disabled":false,"rental_uris":{"android":"levelo://app?vid=c09660f6-ba40-44df-bb1d-17edeabe359d","ios":"levelo://app?vid=c09660f6-ba40-44df-bb1d-17edeabe359d"},"vehicle_type_id":"4","last_reported":1726441702,"current_range_meters":38800,"station_id":"ce4bh112rcd13ifvqd90","pricing_plan_id":"cebpf4jnsgd1na2vs0mg"},{"bike_id":"58b6c470-06d0-47f7-8df3-3e2bc33aa81b","system_id":"levelo_inurba_marseille","lat":43.32336,"lon":5.40623,"is_reserved":false,"is_disabled":false,"rental_uris":{"android":"levelo://app?vid=58b6c470-06d0-47f7-8df3-3e2bc33aa81b","ios":"levelo://app?vid=58b6c470-06d0-47f7-8df3-3e2bc33aa81b"},"vehicle_type_id":"4","last_reported":1726441702,"current_range_meters":4000,"station_id":"ce4bhq92rcd13ifvqhjg","pricing_plan_id":"cebpf4jnsgd1na2vs0mg"},{"bike_id":"65eecb51-7024-4f30-af20-d65f809bce2b","system_id":"levelo_inurba_marseille","lat":43.31331,"lon":5.39701,"is_reserved":false,"is_disabled":false,"rental_uris":{"android":"levelo://app?vid=65eecb51-7024-4f30-af20-d65f809bce2b","ios":"levelo://app?vid=65eecb51-7024-4f30-af20-d65f809bce2b"},"vehicle_type_id":"4","last_reported":1726441702,"current_range_meters":16800,"station_id":"ce4bgvp2rcd13ifvqcu0","pricing_plan_id":"cebpf4jnsgd1na2vs0mg"},{"bike_id":"017941ed-ad7f-4ea2-a91e-ce257d532005","system_id":"levelo_inurba_marseille","lat":43.29525,"lon":5.39397,"is_reserved":false,"is_disabled":false,"rental_uris":{"android":"levelo://app?vid=017941ed-ad7f-4ea2-a91e-ce257d532005","ios":"levelo://app?vid=017941ed-ad7f-4ea2-a91e-ce257d532005"},"vehicle_type_id":"4","last_reported":1726441702,"current_range_meters":38800,"station_id":"ce4bh292rcd13ifvqdf0","pricing_plan_id":"cebpf4jnsgd1na2vs0mg"},{"bike_id":"d13330bb-66ab-42c4-9101-22a542a335d2","system_id":"levelo_inurba_marseille","lat":43.267021,"lon":5.382615,"is_reserved":false,"is_disabled":false,"rental_uris":{"android":"levelo://app?vid=d13330bb-66ab-42c4-9101-22a542a335d2","ios":"levelo://app?vid=d13330bb-66ab-42c4-9101-22a542a335d2"},"vehicle_type_id":"4","last_reported":1726441702,"current_range_meters":38800,"station_id":"ce4bhg92rcd13ifvqf90","pricing_plan_id":"cebpf4jnsgd1na2vs0mg"},{"bike_id":"36463b2b-57ab-4096-9de0-8f627c67b794","system_id":"levelo_inurba_marseille","lat":43.29192,"lon":5.35804,"is_reserved":false,"is_disabled":false,"rental_uris":{"android":"levelo://app?vid=36463b2b-57ab-4096-9de0-8f627c67b794","ios":"levelo://app?vid=36463b2b-57ab-4096-9de0-8f627c67b794"},"vehicle_type_id":"4","last_reported":1726441702,"current_range_meters":24400,"station_id":"ce4bhb12rcd13ifvqel0","pricing_plan_id":"cebpf4jnsgd1na2vs0mg"},{"bike_id":"90c474fe-b880-4a02-8023-1c153eb61318","system_id":"levelo_inurba_marseille","lat":43.292267,"lon":5.360607,"is_reserved":false,"is_disabled":false,"rental_uris":{"android":"levelo://app?vid=90c474fe-b880-4a02-8023-1c153eb61318","ios":"levelo://app?vid=90c474fe-b880-4a02-8023-1c153eb61318"},"vehicle_type_id":"4","last_reported":1726441702,"current_range_meters":33200,"station_id":"ce4bhop2rcd13ifvqh7g","pricing_plan_id":"cebpf4jnsgd1na2vs0mg"},{"bike_id":"d1f38fcd-be46-4877-a9ac-34b365272c30","system_id":"levelo_inurba_marseille","lat":43.27102,"lon":5.43322,"is_reserved":false,"is_disabled":false,"rental_uris":{"android":"levelo://app?vid=d1f38fcd-be46-4877-a9ac-34b365272c30","ios":"levelo://app?vid=d1f38fcd-be46-4877-a9ac-34b365272c30"},"vehicle_type_id":"4","last_reported":1726441702,"current_range_meters":12000,"station_id":"","pricing_plan_id":"cebpf4jnsgd1na2vs0mg"},{"bike_id":"94b399e9-b5cd-4567-9ab2-3c99c7ad3363","system_id":"levelo_inurba_marseille","lat":43.3031,"lon":5.36888,"is_reserved":false,"is_disabled":false,"rental_uris":{"android":"levelo://app?vid=94b399e9-b5cd-4567-9ab2-3c99c7ad3363","ios":"levelo://app?vid=94b399e9-b5cd-4567-9ab2-3c99c7ad3363"},"vehicle_type_id":"4","last_reported":1726441702,"current_range_meters":38800,"station_id":"ce4bgqh2rcd13ifvqc5g","pricing_plan_id":"cebpf4jnsgd1na2vs0mg"},{"bike_id":"6ecd53dc-53e4-48d5-bda8-7c842c437731","system_id":"levelo_inurba_marseille","lat":43.27621,"lon":5.36117,"is_reserved":false,"is_disabled":false,"rental_uris":{"android":"levelo://app?vid=6ecd53dc-53e4-48d5-bda8-7c842c437731","ios":"levelo://app?vid=6ecd53dc-53e4-48d5-bda8-7c842c437731"},"vehicle_type_id":"4","last_reported":1726441702,"current_range_meters":16000,"station_id":"ce4bgj92rcd13ifvqbe0","pricing_plan_id":"cebpf4jnsgd1na2vs0mg"},{"bike_id":"fb676d55-19ac-4af1-aa77-d109f6c308c2","system_id":"levelo_inurba_marseille","lat":43.27949,"lon":5.41051,"is_reserved":false,"is_disabled":false,"rental_uris":{"android":"levelo://app?vid=fb676d55-19ac-4af1-aa77-d109f6c308c2","ios":"levelo://app?vid=fb676d55-19ac-4af1-aa77-d109f6c308c2"},"vehicle_type_id":"4","last_reported":1726441702,"current_range_meters":20400,"station_id":"ce4bhnp2rcd13ifvqh0g","pricing_plan_id":"cebpf4jnsgd1na2vs0mg"},{"bike_id":"041fc8e8-e431-468a-96bf-16772296ba60","system_id":"levelo_inurba_marseille","lat":43.31089,"lon":5.4243,"is_reserved":false,"is_disabled":false,"rental_uris":{"android":"levelo://app?vid=041fc8e8-e431-468a-96bf-16772296ba60","ios":"levelo://app?vid=041fc8e8-e431-468a-96bf-16772296ba60"},"vehicle_type_id":"4","last_reported":1726441702,"current_range_meters":38800,"station_id":"ce4bhp92rcd13ifvqhag","pricing_plan_id":"cebpf4jnsgd1na2vs0mg"},{"bike_id":"e35c233f-e699-4e2f-a3ba-2a6e3af16240","system_id":"levelo_inurba_marseille","lat":43.29283,"lon":5.40132,"is_reserved":false,"is_disabled":false,"rental_uris":{"android":"levelo://app?vid=e35c233f-e699-4e2f-a3ba-2a6e3af16240","ios":"levelo://app?vid=e35c233f-e699-4e2f-a3ba-2a6e3af16240"},"vehicle_type_id":"4","last_reported":1726441702,"current_range_meters":38000,"station_id":"ce4bh312rcd13ifvqdk0","pricing_plan_id":"cebpf4jnsgd1na2vs0mg"},{"bike_id":"09a1d886-c92b-4d7e-ad7a-9f7648b0e2bf","system_id":"levelo_inurba_marseille","lat":43.28944,"lon":5.39625,"is_reserved":false,"is_disabled":false,"rental_uris":{"android":"levelo://app?vid=09a1d886-c92b-4d7e-ad7a-9f7648b0e2bf","ios":"levelo://app?vid=09a1d886-c92b-4d7e-ad7a-9f7648b0e2bf"},"vehicle_type_id":"4","last_reported":1726441702,"current_range_meters":8400,"station_id":"ce4bh3h2rcd13ifvqdn0","pricing_plan_id":"cebpf4jnsgd1na2vs0mg"},{"bike_id":"77be640b-ac4b-4617-be22-5763d79d29be","system_id":"levelo_inurba_marseille","lat":43.32496,"lon":5.3656,"is_reserved":false,"is_disabled":false,"rental_uris":{"android":"levelo://app?vid=77be640b-ac4b-4617-be22-5763d79d29be","ios":"levelo://app?vid=77be640b-ac4b-4617-be22-5763d79d29be"},"vehicle_type_id":"4","last_reported":1726441702,"current_range_meters":30400,"station_id":"ce4bhs12rcd13ifvqhvg","pricing_plan_id":"cebpf4jnsgd1na2vs0mg"},{"bike_id":"fe4d1c31-8eef-4203-8e5b-495e375b7e6b","system_id":"levelo_inurba_marseille","lat":43.2842,"lon":5.37519,"is_reserved":false,"is_disabled":false,"rental_uris":{"android":"levelo://app?vid=fe4d1c31-8eef-4203-8e5b-495e375b7e6b","ios":"levelo://app?vid=fe4d1c31-8eef-4203-8e5b-495e375b7e6b"},"vehicle_type_id":"4","last_reported":1726441702,"current_range_meters":36000,"station_id":"ce4bh412rcd13ifvqds0","pricing_plan_id":"cebpf4jnsgd1na2vs0mg"},{"bike_id":"91f7e9e5-076e-4e3a-8acf-289dc20e3d9f","system_id":"levelo_inurba_marseille","lat":43.3172,"lon":5.42409,"is_reserved":false,"is_disabled":false,"rental_uris":{"android":"levelo://app?vid=91f7e9e5-076e-4e3a-8acf-289dc20e3d9f","ios":"levelo://app?vid=91f7e9e5-076e-4e3a-8acf-289dc20e3d9f"},"vehicle_type_id":"4","last_reported":1726441702,"current_range_meters":35600,"station_id":"ce4bhp92rcd13ifvqhbg","pricing_plan_id":"cebpf4jnsgd1na2vs0mg"},{"bike_id":"2ed3ca21-3da1-433b-8b08-7e2d6c17f987","system_id":"levelo_inurba_marseille","lat":43.30317,"lon":5.40439,"is_reserved":false,"is_disabled":false,"rental_uris":{"android":"levelo://app?vid=2ed3ca21-3da1-433b-8b08-7e2d6c17f987","ios":"levelo://app?vid=2ed3ca21-3da1-433b-8b08-7e2d6c17f987"},"vehicle_type_id":"4","last_reported":1726441702,"current_range_meters":38800,"station_id":"ce4bh012rcd13ifvqd10","pricing_plan_id":"cebpf4jnsgd1na2vs0mg"},{"bike_id":"67b5b757-e0f3-43f5-9024-da319fb1d16e","system_id":"levelo_inurba_marseille","lat":43.23184,"lon":5.39988,"is_reserved":false,"is_disabled":false,"rental_uris":{"android":"levelo://app?vid=67b5b757-e0f3-43f5-9024-da319fb1d16e","ios":"levelo://app?vid=67b5b757-e0f3-43f5-9024-da319fb1d16e"},"vehicle_type_id":"4","last_reported":1726441702,"current_range_meters":20800,"station_id":"ce4bhn12rcd13ifvqgqg","pricing_plan_id":"cebpf4jnsgd1na2vs0mg"},{"bike_id":"6da566a6-1c56-4830-ad07-012b26ffeade","system_id":"levelo_inurba_marseille","lat":43.3249,"lon":5.36563,"is_reserved":false,"is_disabled":false,"rental_uris":{"android":"levelo://app?vid=6da566a6-1c56-4830-ad07-012b26ffeade","ios":"levelo://app?vid=6da566a6-1c56-4830-ad07-012b26ffeade"},"vehicle_type_id":"4","last_reported":1726441702,"current_range_meters":38800,"station_id":"ce4bhs12rcd13ifvqhvg","pricing_plan_id":"cebpf4jnsgd1na2vs0mg"},{"bike_id":"0b1eee96-8d51-4c75-bc7a-0cdc4c3260b8","system_id":"levelo_inurba_marseille","lat":43.31119,"lon":5.37764,"is_reserved":false,"is_disabled":false,"rental_uris":{"android":"levelo://app?vid=0b1eee96-8d51-4c75-bc7a-0cdc4c3260b8","ios":"levelo://app?vid=0b1eee96-8d51-4c75-bc7a-0cdc4c3260b8"},"vehicle_type_id":"4","last_reported":1726441702,"current_range_meters":38800,"station_id":"ce4bgt92rcd13ifvqcg0","pricing_plan_id":"cebpf4jnsgd1na2vs0mg"},{"bike_id":"a1c9059d-6b11-45b1-9b47-5ccdd72110c6","system_id":"levelo_inurba_marseille","lat":43.31716,"lon":5.43707,"is_reserved":false,"is_disabled":false,"rental_uris":{"android":"levelo://app?vid=a1c9059d-6b11-45b1-9b47-5ccdd72110c6","ios":"levelo://app?vid=a1c9059d-6b11-45b1-9b47-5ccdd72110c6"},"vehicle_type_id":"4","last_reported":1726441702,"current_range_meters":38800,"station_id":"ce4bhp92rcd13ifvqhcg","pricing_plan_id":"cebpf4jnsgd1na2vs0mg"},{"bike_id":"4cc44c05-6b56-4fcb-887f-0adee5591f6d","system_id":"levelo_inurba_marseille","lat":43.30816,"lon":5.38149,"is_reserved":false,"is_disabled":false,"rental_uris":{"android":"levelo://app?vid=4cc44c05-6b56-4fcb-887f-0adee5591f6d","ios":"levelo://app?vid=4cc44c05-6b56-4fcb-887f-0adee5591f6d"},"vehicle_type_id":"4","last_reported":1726441702,"current_range_meters":4000,"station_id":"ce4bgt12rcd13ifvqce0","pricing_plan_id":"cebpf4jnsgd1na2vs0mg"},{"bike_id":"b3bc4569-a631-4c35-900f-ca74463abedf","system_id":"levelo_inurba_marseille","lat":43.29959,"lon":5.41321,"is_reserved":false,"is_disabled":false,"rental_uris":{"android":"levelo://app?vid=b3bc4569-a631-4c35-900f-ca74463abedf","ios":"levelo://app?vid=b3bc4569-a631-4c35-900f-ca74463abedf"},"vehicle_type_id":"4","last_reported":1726441702,"current_range_meters":38800,"station_id":"ce4bhp12rcd13ifvqh9g","pricing_plan_id":"cebpf4jnsgd1na2vs0mg"},{"bike_id":"37911193-e134-4134-98bb-44781f76b839","system_id":"levelo_inurba_marseille","lat":43.28463,"lon":5.35893,"is_reserved":false,"is_disabled":false,"rental_uris":{"android":"levelo://app?vid=37911193-e134-4134-98bb-44781f76b839","ios":"levelo://app?vid=37911193-e134-4134-98bb-44781f76b839"},"vehicle_type_id":"4","last_reported":1726441702,"current_range_meters":24800,"station_id":"ce4bhah2rcd13ifvqei0","pricing_plan_id":"cebpf4jnsgd1na2vs0mg"},{"bike_id":"743ea870-d207-4df9-afd4-755f91ca54b0","system_id":"levelo_inurba_marseille","lat":43.29579,"lon":5.39975,"is_reserved":false,"is_disabled":false,"rental_uris":{"android":"levelo://app?vid=743ea870-d207-4df9-afd4-755f91ca54b0","ios":"levelo://app?vid=743ea870-d207-4df9-afd4-755f91ca54b0"},"vehicle_type_id":"4","last_reported":1726441702,"current_range_meters":38800,"station_id":"ce4bh312rcd13ifvqdj0","pricing_plan_id":"cebpf4jnsgd1na2vs0mg"},{"bike_id":"2b3fca79-0f3e-45d7-be74-0e0f0d63ff36","system_id":"levelo_inurba_marseille","lat":43.30643,"lon":5.40077,"is_reserved":false,"is_disabled":false,"rental_uris":{"android":"levelo://app?vid=2b3fca79-0f3e-45d7-be74-0e0f0d63ff36","ios":"levelo://app?vid=2b3fca79-0f3e-45d7-be74-0e0f0d63ff36"},"vehicle_type_id":"4","last_reported":1726441702,"current_range_meters":38800,"station_id":"ce4bh112rcd13ifvqda0","pricing_plan_id":"cebpf4jnsgd1na2vs0mg"},{"bike_id":"f901d231-ef58-438d-9abd-96a48f866ab5","system_id":"levelo_inurba_marseille","lat":43.31329,"lon":5.39696,"is_reserved":false,"is_disabled":false,"rental_uris":{"android":"levelo://app?vid=f901d231-ef58-438d-9abd-96a48f866ab5","ios":"levelo://app?vid=f901d231-ef58-438d-9abd-96a48f866ab5"},"vehicle_type_id":"4","last_reported":1726441702,"current_range_meters":19200,"station_id":"ce4bgvp2rcd13ifvqcu0","pricing_plan_id":"cebpf4jnsgd1na2vs0mg"},{"bike_id":"7d24dfc9-9aa3-4d48-85aa-529448418cd9","system_id":"levelo_inurba_marseille","lat":43.31169,"lon":5.38706,"is_reserved":false,"is_disabled":false,"rental_uris":{"android":"levelo://app?vid=7d24dfc9-9aa3-4d48-85aa-529448418cd9","ios":"levelo://app?vid=7d24dfc9-9aa3-4d48-85aa-529448418cd9"},"vehicle_type_id":"4","last_reported":1726441702,"current_range_meters":8000,"station_id":"ce4bgv12rcd13ifvqcp0","pricing_plan_id":"cebpf4jnsgd1na2vs0mg"},{"bike_id":"3c02c4fd-3a18-4ab2-8e77-fb1540b9eda5","system_id":"levelo_inurba_marseille","lat":43.2319,"lon":5.39991,"is_reserved":false,"is_disabled":false,"rental_uris":{"android":"levelo://app?vid=3c02c4fd-3a18-4ab2-8e77-fb1540b9eda5","ios":"levelo://app?vid=3c02c4fd-3a18-4ab2-8e77-fb1540b9eda5"},"vehicle_type_id":"4","last_reported":1726441702,"current_range_meters":27200,"station_id":"ce4bhn12rcd13ifvqgqg","pricing_plan_id":"cebpf4jnsgd1na2vs0mg"},{"bike_id":"0696e589-433a-4e9c-9e8b-1869252a8f5e","system_id":"levelo_inurba_marseille","lat":43.28705,"lon":5.3739,"is_reserved":false,"is_disabled":false,"rental_uris":{"android":"levelo://app?vid=0696e589-433a-4e9c-9e8b-1869252a8f5e","ios":"levelo://app?vid=0696e589-433a-4e9c-9e8b-1869252a8f5e"},"vehicle_type_id":"4","last_reported":1726441702,"current_range_meters":38000,"station_id":"ce4bh3p2rcd13ifvqdq0","pricing_plan_id":"cebpf4jnsgd1na2vs0mg"},{"bike_id":"c4c415f4-633e-4260-96d9-523f15b31e8e","system_id":"levelo_inurba_marseille","lat":43.30137,"lon":5.39869,"is_reserved":false,"is_disabled":false,"rental_uris":{"android":"levelo://app?vid=c4c415f4-633e-4260-96d9-523f15b31e8e","ios":"levelo://app?vid=c4c415f4-633e-4260-96d9-523f15b31e8e"},"vehicle_type_id":"4","last_reported":1726441702,"current_range_meters":35600,"station_id":"ce4bh0h2rcd13ifvqd40","pricing_plan_id":"cebpf4jnsgd1na2vs0mg"},{"bike_id":"97fa72ba-6a86-4508-a0b8-58ad650b5835","system_id":"levelo_inurba_marseille","lat":43.27923,"lon":5.37999,"is_reserved":false,"is_disabled":false,"rental_uris":{"android":"levelo://app?vid=97fa72ba-6a86-4508-a0b8-58ad650b5835","ios":"levelo://app?vid=97fa72ba-6a86-4508-a0b8-58ad650b5835"},"vehicle_type_id":"4","last_reported":1726441702,"current_range_meters":38000,"station_id":"ce4bhf92rcd13ifvqf50","pricing_plan_id":"cebpf4jnsgd1na2vs0mg"},{"bike_id":"be700df8-4555-417d-b3de-6fa298551d25","system_id":"levelo_inurba_marseille","lat":43.28719,"lon":5.39986,"is_reserved":false,"is_disabled":false,"rental_uris":{"android":"levelo://app?vid=be700df8-4555-417d-b3de-6fa298551d25","ios":"levelo://app?vid=be700df8-4555-417d-b3de-6fa298551d25"},"vehicle_type_id":"4","last_reported":1726441702,"current_range_meters":37600,"station_id":"ce4bho92rcd13ifvqh3g","pricing_plan_id":"cebpf4jnsgd1na2vs0mg"},{"bike_id":"103368f7-6cf9-4f61-a9f7-0e638a4ed99a","system_id":"levelo_inurba_marseille","lat":43.24082,"lon":5.37757,"is_reserved":false,"is_disabled":false,"rental_uris":{"android":"levelo://app?vid=103368f7-6cf9-4f61-a9f7-0e638a4ed99a","ios":"levelo://app?vid=103368f7-6cf9-4f61-a9f7-0e638a4ed99a"},"vehicle_type_id":"4","last_reported":1726441702,"current_range_meters":10000,"station_id":"ce4bhnp2rcd13ifvqgvg","pricing_plan_id":"cebpf4jnsgd1na2vs0mg"},{"bike_id":"d777a0b3-3f17-475c-b403-efafc48e02e0","system_id":"levelo_inurba_marseille","lat":43.28411,"lon":5.37519,"is_reserved":false,"is_disabled":false,"rental_uris":{"android":"levelo://app?vid=d777a0b3-3f17-475c-b403-efafc48e02e0","ios":"levelo://app?vid=d777a0b3-3f17-475c-b403-efafc48e02e0"},"vehicle_type_id":"4","last_reported":1726441702,"current_range_meters":13600,"station_id":"ce4bh412rcd13ifvqds0","pricing_plan_id":"cebpf4jnsgd1na2vs0mg"},{"bike_id":"b243546f-fc32-4327-96f9-3d106f87be0c","system_id":"levelo_inurba_marseille","lat":43.2988,"lon":5.39731,"is_reserved":false,"is_disabled":false,"rental_uris":{"android":"levelo://app?vid=b243546f-fc32-4327-96f9-3d106f87be0c","ios":"levelo://app?vid=b243546f-fc32-4327-96f9-3d106f87be0c"},"vehicle_type_id":"4","last_reported":1726441702,"current_range_meters":31200,"station_id":"ce4bh0h2rcd13ifvqd50","pricing_plan_id":"cebpf4jnsgd1na2vs0mg"},{"bike_id":"c0e72436-804e-423e-b312-046b779f2d3a","system_id":"levelo_inurba_marseille","lat":43.30896,"lon":5.3718,"is_reserved":false,"is_disabled":false,"rental_uris":{"android":"levelo://app?vid=c0e72436-804e-423e-b312-046b779f2d3a","ios":"levelo://app?vid=c0e72436-804e-423e-b312-046b779f2d3a"},"vehicle_type_id":"4","last_reported":1726441702,"current_range_meters":20400,"station_id":"ce4bguh2rcd13ifvqckg","pricing_plan_id":"cebpf4jnsgd1na2vs0mg"},{"bike_id":"8d771d3f-d633-41c1-a977-f5d15662e37e","system_id":"levelo_inurba_marseille","lat":43.30304,"lon":5.36938,"is_reserved":false,"is_disabled":false,"rental_uris":{"android":"levelo://app?vid=8d771d3f-d633-41c1-a977-f5d15662e37e","ios":"levelo://app?vid=8d771d3f-d633-41c1-a977-f5d15662e37e"},"vehicle_type_id":"4","last_reported":1726441702,"current_range_meters":8400,"station_id":"ce4bgqh2rcd13ifvqc5g","pricing_plan_id":"cebpf4jnsgd1na2vs0mg"},{"bike_id":"c38db8a9-cb99-4f97-a76a-70fbe8246e66","system_id":"levelo_inurba_marseille","lat":43.28677,"lon":5.36352,"is_reserved":false,"is_disabled":false,"rental_uris":{"android":"levelo://app?vid=c38db8a9-cb99-4f97-a76a-70fbe8246e66","ios":"levelo://app?vid=c38db8a9-cb99-4f97-a76a-70fbe8246e66"},"vehicle_type_id":"4","last_reported":1726441702,"current_range_meters":38800,"station_id":"ce4bhah2rcd13ifvqej0","pricing_plan_id":"cebpf4jnsgd1na2vs0mg"},{"bike_id":"7c82eff3-455c-4ac5-a0d4-aa6e30fca420","system_id":"levelo_inurba_marseille","lat":43.24805,"lon":5.37461,"is_reserved":false,"is_disabled":false,"rental_uris":{"android":"levelo://app?vid=7c82eff3-455c-4ac5-a0d4-aa6e30fca420","ios":"levelo://app?vid=7c82eff3-455c-4ac5-a0d4-aa6e30fca420"},"vehicle_type_id":"4","last_reported":1726441702,"current_range_meters":19600,"station_id":"ce4bhgh2rcd13ifvqfb0","pricing_plan_id":"cebpf4jnsgd1na2vs0mg"},{"bike_id":"7908fe32-506a-4c89-b9ea-7c8db58702a7","system_id":"levelo_inurba_marseille","lat":43.295258,"lon":5.394042,"is_reserved":false,"is_disabled":false,"rental_uris":{"android":"levelo://app?vid=7908fe32-506a-4c89-b9ea-7c8db58702a7","ios":"levelo://app?vid=7908fe32-506a-4c89-b9ea-7c8db58702a7"},"vehicle_type_id":"4","last_reported":1726441702,"current_range_meters":33600,"station_id":"ce4bh292rcd13ifvqdf0","pricing_plan_id":"cebpf4jnsgd1na2vs0mg"},{"bike_id":"4b18c991-2c07-45d1-9898-1770d39bea59","system_id":"levelo_inurba_marseille","lat":43.310682,"lon":5.383652,"is_reserved":false,"is_disabled":false,"rental_uris":{"android":"levelo://app?vid=4b18c991-2c07-45d1-9898-1770d39bea59","ios":"levelo://app?vid=4b18c991-2c07-45d1-9898-1770d39bea59"},"vehicle_type_id":"4","last_reported":1726441702,"current_range_meters":4800,"station_id":"ce4bgv92rcd13ifvqcr0","pricing_plan_id":"cebpf4jnsgd1na2vs0mg"},{"bike_id":"d84c9603-1128-4077-bbb1-73a1eb60d6e1","system_id":"levelo_inurba_marseille","lat":43.25586,"lon":5.38238,"is_reserved":false,"is_disabled":false,"rental_uris":{"android":"levelo://app?vid=d84c9603-1128-4077-bbb1-73a1eb60d6e1","ios":"levelo://app?vid=d84c9603-1128-4077-bbb1-73a1eb60d6e1"},"vehicle_type_id":"4","last_reported":1726441702,"current_range_meters":32800,"station_id":"ce4bhih2rcd13ifvqfs0","pricing_plan_id":"cebpf4jnsgd1na2vs0mg"},{"bike_id":"eddc9a4c-0dbc-453c-9d94-34f27e1c0445","system_id":"levelo_inurba_marseille","lat":43.25719,"lon":5.41113,"is_reserved":false,"is_disabled":false,"rental_uris":{"android":"levelo://app?vid=eddc9a4c-0dbc-453c-9d94-34f27e1c0445","ios":"levelo://app?vid=eddc9a4c-0dbc-453c-9d94-34f27e1c0445"},"vehicle_type_id":"4","last_reported":1726441702,"current_range_meters":38800,"station_id":"ce4bhkp2rcd13ifvqgd0","pricing_plan_id":"cebpf4jnsgd1na2vs0mg"},{"bike_id":"328d45f9-980e-4811-97c0-47d761861509","system_id":"levelo_inurba_marseille","lat":43.29847,"lon":5.37836,"is_reserved":false,"is_disabled":false,"rental_uris":{"android":"levelo://app?vid=328d45f9-980e-4811-97c0-47d761861509","ios":"levelo://app?vid=328d45f9-980e-4811-97c0-47d761861509"},"vehicle_type_id":"4","last_reported":1726441702,"current_range_meters":26000,"station_id":"ce4bgkh2rcd13ifvqbl0","pricing_plan_id":"cebpf4jnsgd1na2vs0mg"},{"bike_id":"ed894eb8-418b-420e-8b0a-60c234bd212d","system_id":"levelo_inurba_marseille","lat":43.25092,"lon":5.39528,"is_reserved":false,"is_disabled":false,"rental_uris":{"android":"levelo://app?vid=ed894eb8-418b-420e-8b0a-60c234bd212d","ios":"levelo://app?vid=ed894eb8-418b-420e-8b0a-60c234bd212d"},"vehicle_type_id":"4","last_reported":1726441702,"current_range_meters":6400,"station_id":"ce4bhm12rcd13ifvqgkg","pricing_plan_id":"cebpf4jnsgd1na2vs0mg"},{"bike_id":"78e86a52-5aae-4c36-910e-9b2c70b3c35a","system_id":"levelo_inurba_marseille","lat":43.250118,"lon":5.389344,"is_reserved":false,"is_disabled":false,"rental_uris":{"android":"levelo://app?vid=78e86a52-5aae-4c36-910e-9b2c70b3c35a","ios":"levelo://app?vid=78e86a52-5aae-4c36-910e-9b2c70b3c35a"},"vehicle_type_id":"4","last_reported":1726441702,"current_range_meters":38800,"station_id":"ce4bhgp2rcd13ifvqfd0","pricing_plan_id":"cebpf4jnsgd1na2vs0mg"},{"bike_id":"faf816e6-4e87-4e93-88d4-5861eae33b5c","system_id":"levelo_inurba_marseille","lat":43.24078,"lon":5.3775,"is_reserved":false,"is_disabled":false,"rental_uris":{"android":"levelo://app?vid=faf816e6-4e87-4e93-88d4-5861eae33b5c","ios":"levelo://app?vid=faf816e6-4e87-4e93-88d4-5861eae33b5c"},"vehicle_type_id":"4","last_reported":1726441702,"current_range_meters":24000,"station_id":"ce4bhnp2rcd13ifvqgvg","pricing_plan_id":"cebpf4jnsgd1na2vs0mg"},{"bike_id":"62db8468-8e08-4d4e-a7c8-967264c8a944","system_id":"levelo_inurba_marseille","lat":43.31086,"lon":5.4243,"is_reserved":false,"is_disabled":false,"rental_uris":{"android":"levelo://app?vid=62db8468-8e08-4d4e-a7c8-967264c8a944","ios":"levelo://app?vid=62db8468-8e08-4d4e-a7c8-967264c8a944"},"vehicle_type_id":"4","last_reported":1726441702,"current_range_meters":8400,"station_id":"ce4bhp92rcd13ifvqhag","pricing_plan_id":"cebpf4jnsgd1na2vs0mg"},{"bike_id":"d1bc1a92-c34f-45bd-b470-2fca788491ee","system_id":"levelo_inurba_marseille","lat":43.32487,"lon":5.36566,"is_reserved":false,"is_disabled":false,"rental_uris":{"android":"levelo://app?vid=d1bc1a92-c34f-45bd-b470-2fca788491ee","ios":"levelo://app?vid=d1bc1a92-c34f-45bd-b470-2fca788491ee"},"vehicle_type_id":"4","last_reported":1726441702,"current_range_meters":38800,"station_id":"ce4bhs12rcd13ifvqhvg","pricing_plan_id":"cebpf4jnsgd1na2vs0mg"},{"bike_id":"c264ec44-e2d7-4307-8c45-7a567c428ef9","system_id":"levelo_inurba_marseille","lat":43.2465,"lon":5.38891,"is_reserved":false,"is_disabled":false,"rental_uris":{"android":"levelo://app?vid=c264ec44-e2d7-4307-8c45-7a567c428ef9","ios":"levelo://app?vid=c264ec44-e2d7-4307-8c45-7a567c428ef9"},"vehicle_type_id":"4","last_reported":1726441702,"current_range_meters":38400,"station_id":"ce4bhg12rcd13ifvqf60","pricing_plan_id":"cebpf4jnsgd1na2vs0mg"},{"bike_id":"564f400b-9296-4a76-8da4-1956e45162d7","system_id":"levelo_inurba_marseille","lat":43.28705,"lon":5.37388,"is_reserved":false,"is_disabled":false,"rental_uris":{"android":"levelo://app?vid=564f400b-9296-4a76-8da4-1956e45162d7","ios":"levelo://app?vid=564f400b-9296-4a76-8da4-1956e45162d7"},"vehicle_type_id":"4","last_reported":1726441702,"current_range_meters":39200,"station_id":"ce4bh3p2rcd13ifvqdq0","pricing_plan_id":"cebpf4jnsgd1na2vs0mg"},