{"last_updated":1684073085,"ttl":30,"version":"2.2","data":{"bikes":[{"bike_id":"dcd566cd-4193-4d6e-8699-75ef45649505","system_id":"levelo_inurba_marseille","lat":43.313391,"lon":5.36706,"is_reserved":false,"is_disabled":false,"rental_uris":{"android":"levelo://app?vid=dcd566cd-4193-4d6e-8699-75ef45649505","ios":"levelo://app?vid=dcd566cd-4193-4d6e-8699-75ef45649505"},"vehicle_type_id":"4","last_reported":1684073085,"current_range_meters":26000,"station_id":"ce4bgr92rcd13ifvqc6g","pricing_plan_id":"free"},{"bike_id":"24abea9d-acff-40a0-8816-0a2f4e1dca42","system_id":"levelo_inurba_marseille","lat":43.31341,"lon":5.367098,"is_reserved":false,"is_disabled":false,"rental_uris":{"android":"levelo://app?vid=24abea9d-acff-40a0-8816-0a2f4e1dca42","ios":"levelo://app?vid=24abea9d-acff-40a0-8816-0a2f4e1dca42"},"vehicle_type_id":"4","last_reported":1684073085,"current_range_meters":31200,"station_id":"ce4bgr92rcd13ifvqc6g","pricing_plan_id":"free"},{"bike_id":"78639281-da9b-4878-980b-0e688644d586","system_id":"levelo_inurba_marseille","lat":43.3121,"lon":5.36786,"is_reserved":false,"is_disabled":false,"rental_uris":{"android":"levelo://app?vid=78639281-da9b-4878-980b-0e688644d586","ios":"levelo://app?vid=78639281-da9b-4878-980b-0e688644d586"},"vehicle_type_id":"4","last_reported":1684073085,"current_range_meters":31200,"station_id":"","pricing_plan_id":"free"},{"bike_id":"febc23c5-0cf4-48a3-bb4c-63084f78e6ac","system_id":"levelo_inurba_marseille","lat":43.31341,"lon":5.367098,"is_reserved":false,"is_disabled":false,"rental_uris":{"android":"levelo://app?vid=febc23c5-0cf4-48a3-bb4c-63084f78e6ac","ios":"levelo://app?vid=febc23c5-0cf4-48a3-bb4c-63084f78e6ac"},"vehicle_type_id":"4","last_reported":1684073085,"current_range_meters":31200,"station_id":"ce4bgr92rcd13ifvqc6g","pricing_plan_id":"free"},{"bike_id":"e6987441-362a-40f3-92bc-e5f9ecf6b8a9","system_id":"levelo_inurba_marseille","lat":43.31341,"lon":5.367098,"is_reserved":false,"is_disabled":false,"rental_uris":{"android":"levelo://app?vid=e6987441-362a-40f3-92bc-e5f9ecf6b8a9","ios":"levelo://app?vid=e6987441-362a-40f3-92bc-e5f9ecf6b8a9"},"vehicle_type_id":"4","last_reported":1684073085,"current_range_meters":31200,"station_id":"ce4bgr92rcd13ifvqc6g","pricing_plan_id":"free"},{"bike_id":"22174cbe-014e-460c-83f6-ef13e787336c","system_id":"levelo_inurba_marseille","lat":43.309076,"lon":5.368465,"is_reserved":false,"is_disabled":false,"rental_uris":{"android":"levelo://app?vid=22174cbe-014e-460c-83f6-ef13e787336c","ios":"levelo://app?vid=22174cbe-014e-460c-83f6-ef13e787336c"},"vehicle_type_id":"4","last_reported":1684073085,"current_range_meters":12400,"station_id":"ce4bgn92rcd13ifvqbvg","pricing_plan_id":"free"},{"bike_id":"2448479b-dd1d-44ef-a8c3-1b36c8a935d7","system_id":"levelo_inurba_marseille","lat":43.309076,"lon":5.368465,"is_reserved":false,"is_disabled":false,"rental_uris":{"android":"levelo://app?vid=2448479b-dd1d-44ef-a8c3-1b36c8a935d7","ios":"levelo://app?vid=2448479b-dd1d-44ef-a8c3-1b36c8a935d7"},"vehicle_type_id":"4","last_reported":1684073085,"current_range_meters":20000,"station_id":"ce4bgn92rcd13ifvqbvg","pricing_plan_id":"free"},{"bike_id":"344a0809-d382-4d11-bd3f-fb10f1a09981","system_id":"levelo_inurba_marseille","lat":43.309076,"lon":5.368465,"is_reserved":false,"is_disabled":false,"rental_uris":{"android":"levelo://app?vid=344a0809-d382-4d11-bd3f-fb10f1a09981","ios":"levelo://app?vid=344a0809-d382-4d11-bd3f-fb10f1a09981"},"vehicle_type_id":"4","last_reported":1684073085,"current_range_meters":20000,"station_id":"ce4bgn92rcd13ifvqbvg","pricing_plan_id":"free"},{"bike_id":"db4ed041-ef98-4a46-814a-f46b46370f3b","system_id":"levelo_inurba_marseille","lat":43.314811,"lon":5.373104,"is_reserved":false,"is_disabled":false,"rental_uris":{"android":"levelo://app?vid=db4ed041-ef98-4a46-814a-f46b46370f3b","ios":"levelo://app?vid=db4ed041-ef98-4a46-814a-f46b46370f3b"},"vehicle_type_id":"4","last_reported":1684073085,"current_range_meters":17200,"station_id":"ce4bgt12rcd13ifvqcd0","pricing_plan_id":"free"},{"bike_id":"bb638d22-d30c-4858-b7bd-887536ec7f5d","system_id":"levelo_inurba_marseille","lat":43.308614,"lon":5.372098,"is_reserved":false,"is_disabled":false,"rental_uris":{"android":"levelo://app?vid=bb638d22-d30c-4858-b7bd-887536ec7f5d","ios":"levelo://app?vid=bb638d22-d30c-4858-b7bd-887536ec7f5d"},"vehicle_type_id":"4","last_reported":1684073085,"current_range_meters":0,"station_id":"ce4bguh2rcd13ifvqckg","pricing_plan_id":"free"},{"bike_id":"ef42665b-7a58-430a-a09b-24ad7325a98d","system_id":"levelo_inurba_marseille","lat":43.30588,"lon":5.36563,"is_reserved":false,"is_disabled":false,"rental_uris":{"android":"levelo://app?vid=ef42665b-7a58-430a-a09b-24ad7325a98d","ios":"levelo://app?vid=ef42665b-7a58-430a-a09b-24ad7325a98d"},"vehicle_type_id":"4","last_reported":1684073085,"current_range_meters":12000,"station_id":"","pricing_plan_id":"free"},{"bike_id":"151d50bc-3aee-48d5-9527-783274464e00","system_id":"levelo_inurba_marseille","lat":43.31194,"lon":5.3777,"is_reserved":false,"is_disabled":false,"rental_uris":{"android":"levelo://app?vid=151d50bc-3aee-48d5-9527-783274464e00","ios":"levelo://app?vid=151d50bc-3aee-48d5-9527-783274464e00"},"vehicle_type_id":"4","last_reported":1684073085,"current_range_meters":8400,"station_id":"","pricing_plan_id":"free"},{"bike_id":"885ba1d2-1829-4956-8ce9-c1fb9ddb4978","system_id":"levelo_inurba_marseille","lat":43.311131,"lon":5.377651,"is_reserved":false,"is_disabled":false,"rental_uris":{"android":"levelo://app?vid=885ba1d2-1829-4956-8ce9-c1fb9ddb4978","ios":"levelo://app?vid=885ba1d2-1829-4956-8ce9-c1fb9ddb4978"},"vehicle_type_id":"4","last_reported":1684073085,"current_range_meters":17600,"station_id":"ce4bgt92rcd13ifvqcg0","pricing_plan_id":"free"},{"bike_id":"aa65ebd0-f91e-4006-b182-93cf4fcb4c2b","system_id":"levelo_inurba_marseille","lat":43.317075,"lon":5.377367,"is_reserved":false,"is_disabled":false,"rental_uris":{"android":"levelo://app?vid=aa65ebd0-f91e-4006-b182-93cf4fcb4c2b","ios":"levelo://app?vid=aa65ebd0-f91e-4006-b182-93cf4fcb4c2b"},"vehicle_type_id":"4","last_reported":1684073085,"current_range_meters":24000,"station_id":"ce4bgth2rcd13ifvqch0","pricing_plan_id":"free"},{"bike_id":"3fd44561-0ee2-42fd-95fd-d88fa276b0bf","system_id":"levelo_inurba_marseille","lat":43.30303,"lon":5.36893,"is_reserved":false,"is_disabled":false,"rental_uris":{"android":"levelo://app?vid=3fd44561-0ee2-42fd-95fd-d88fa276b0bf","ios":"levelo://app?vid=3fd44561-0ee2-42fd-95fd-d88fa276b0bf"},"vehicle_type_id":"4","last_reported":1684073085,"current_range_meters":800,"station_id":"","pricing_plan_id":"free"},{"bike_id":"81106d2b-2f18-436f-b646-e7711aed2f90","system_id":"levelo_inurba_marseille","lat":43.30304,"lon":5.368987,"is_reserved":false,"is_disabled":false,"rental_uris":{"android":"levelo://app?vid=81106d2b-2f18-436f-b646-e7711aed2f90","ios":"levelo://app?vid=81106d2b-2f18-436f-b646-e7711aed2f90"},"vehicle_type_id":"4","last_reported":1684073085,"current_range_meters":25200,"station_id":"ce4bgqh2rcd13ifvqc5g","pricing_plan_id":"free"},{"bike_id":"eead4657-5be0-4f63-bc8b-68b919da8e2c","system_id":"levelo_inurba_marseille","lat":43.30304,"lon":5.368987,"is_reserved":false,"is_disabled":false,"rental_uris":{"android":"levelo://app?vid=eead4657-5be0-4f63-bc8b-68b919da8e2c","ios":"levelo://app?vid=eead4657-5be0-4f63-bc8b-68b919da8e2c"},"vehicle_type_id":"4","last_reported":1684073085,"current_range_meters":25600,"station_id":"ce4bgqh2rcd13ifvqc5g","pricing_plan_id":"free"},{"bike_id":"b649241b-2ab2-440a-a4e9-22b2e5ac724d","system_id":"levelo_inurba_marseille","lat":43.30304,"lon":5.368987,"is_reserved":false,"is_disabled":false,"rental_uris":{"android":"levelo://app?vid=b649241b-2ab2-440a-a4e9-22b2e5ac724d","ios":"levelo://app?vid=b649241b-2ab2-440a-a4e9-22b2e5ac724d"},"vehicle_type_id":"4","last_reported":1684073085,"current_range_meters":5600,"station_id":"ce4bgqh2rcd13ifvqc5g","pricing_plan_id":"free"},{"bike_id":"5926f9bf-fcbe-46f1-aa37-37b5212d1845","system_id":"levelo_inurba_marseille","lat":43.30304,"lon":5.368987,"is_reserved":false,"is_disabled":false,"rental_uris":{"android":"levelo://app?vid=5926f9bf-fcbe-46f1-aa37-37b5212d1845","ios":"levelo://app?vid=5926f9bf-fcbe-46f1-aa37-37b5212d1845"},"vehicle_type_id":"4","last_reported":1684073085,"current_range_meters":17200,"station_id":"ce4bgqh2rcd13ifvqc5g","pricing_plan_id":"free"},{"bike_id":"3e940e9e-3e94-4c89-87ba-501bbdb23fb7","system_id":"levelo_inurba_marseille","lat":43.315289,"lon":5.380349,"is_reserved":false,"is_disabled":false,"rental_uris":{"android":"levelo://app?vid=3e940e9e-3e94-4c89-87ba-501bbdb23fb7","ios":"levelo://app?vid=3e940e9e-3e94-4c89-87ba-501bbdb23fb7"},"vehicle_type_id":"4","last_reported":1684073085,"current_range_meters":24000,"station_id":"ce4bhsp2rcd13ifvqi50","pricing_plan_id":"free"},{"bike_id":"b8c985b4-e6a2-4bd1-8055-e40416713d22","system_id":"levelo_inurba_marseille","lat":43.301939,"lon":5.366286,"is_reserved":false,"is_disabled":false,"rental_uris":{"android":"levelo://app?vid=b8c985b4-e6a2-4bd1-8055-e40416713d22","ios":"levelo://app?vid=b8c985b4-e6a2-4bd1-8055-e40416713d22"},"vehicle_type_id":"4","last_reported":1684073085,"current_range_meters":13600,"station_id":"ce4bgrh2rcd13ifvqc8g","pricing_plan_id":"free"},{"bike_id":"970fec0b-dd0e-4cfa-a297-657a8825b054","system_id":"levelo_inurba_marseille","lat":43.304606,"lon":5.379026,"is_reserved":false,"is_disabled":false,"rental_uris":{"android":"levelo://app?vid=970fec0b-dd0e-4cfa-a297-657a8825b054","ios":"levelo://app?vid=970fec0b-dd0e-4cfa-a297-657a8825b054"},"vehicle_type_id":"4","last_reported":1684073085,"current_range_meters":5200,"station_id":"ce4bgup2rcd13ifvqcn0","pricing_plan_id":"free"},{"bike_id":"a06595ea-4675-48ce-9119-4d7f2f3fee42","system_id":"levelo_inurba_marseille","lat":43.30143,"lon":5.37412,"is_reserved":false,"is_disabled":false,"rental_uris":{"android":"levelo://app?vid=a06595ea-4675-48ce-9119-4d7f2f3fee42","ios":"levelo://app?vid=a06595ea-4675-48ce-9119-4d7f2f3fee42"},"vehicle_type_id":"4","last_reported":1684073085,"current_range_meters":25600,"station_id":"ce4bgs92rcd13ifvqcc0","pricing_plan_id":"free"},{"bike_id":"89874a70-2f19-4d6b-8f64-fbfc0647f3e0","system_id":"levelo_inurba_marseille","lat":43.313571,"lon":5.384829,"is_reserved":false,"is_disabled":false,"rental_uris":{"android":"levelo://app?vid=89874a70-2f19-4d6b-8f64-fbfc0647f3e0","ios":"levelo://app?vid=89874a70-2f19-4d6b-8f64-fbfc0647f3e0"},"vehicle_type_id":"4","last_reported":1684073085,"current_range_meters":31200,"station_id":"ce4bgt92rcd13ifvqcf0","pricing_plan_id":"free"},{"bike_id":"7a0caa40-4a93-4a6c-a15c-43c9d7e4c894","system_id":"levelo_inurba_marseille","lat":43.313571,"lon":5.384829,"is_reserved":false,"is_disabled":false,"rental_uris":{"android":"levelo://app?vid=7a0caa40-4a93-4a6c-a15c-43c9d7e4c894","ios":"levelo://app?vid=7a0caa40-4a93-4a6c-a15c-43c9d7e4c894"},"vehicle_type_id":"4","last_reported":1684073085,"current_range_meters":2000,"station_id":"ce4bgt92rcd13ifvqcf0","pricing_plan_id":"free"},{"bike_id":"d36868f3-66ac-4c9b-b8d9-89daf61c6a37","system_id":"levelo_inurba_marseille","lat":43.298433,"lon":5.362774,"is_reserved":false,"is_disabled":false,"rental_uris":{"android":"levelo://app?vid=d36868f3-66ac-4c9b-b8d9-89daf61c6a37","ios":"levelo://app?vid=d36868f3-66ac-4c9b-b8d9-89daf61c6a37"},"vehicle_type_id":"4","last_reported":1684073085,"current_range_meters":16000,"station_id":"ce4bgpp2rcd13ifvqc3g","pricing_plan_id":"free"},{"bike_id":"b808ec34-8895-4d6e-8781-e2233c074343","system_id":"levelo_inurba_marseille","lat":43.298433,"lon":5.362774,"is_reserved":false,"is_disabled":false,"rental_uris":{"android":"levelo://app?vid=b808ec34-8895-4d6e-8781-e2233c074343","ios":"levelo://app?vid=b808ec34-8895-4d6e-8781-e2233c074343"},"vehicle_type_id":"4","last_reported":1684073085,"current_range_meters":13200,"station_id":"ce4bgpp2rcd13ifvqc3g","pricing_plan_id":"free"},{"bike_id":"08fb5eb1-e4d7-4f26-8d14-313e1cdaff83","system_id":"levelo_inurba_marseille","lat":43.298433,"lon":5.362774,"is_reserved":false,"is_disabled":false,"rental_uris":{"android":"levelo://app?vid=08fb5eb1-e4d7-4f26-8d14-313e1cdaff83","ios":"levelo://app?vid=08fb5eb1-e4d7-4f26-8d14-313e1cdaff83"},"vehicle_type_id":"4","last_reported":1684073085,"current_range_meters":7200,"station_id":"ce4bgpp2rcd13ifvqc3g","pricing_plan_id":"free"},{"bike_id":"2168d30c-ee29-4027-961d-3a2a34b83c93","system_id":"levelo_inurba_marseille","lat":43.298433,"lon":5.362774,"is_reserved":false,"is_disabled":false,"rental_uris":{"android":"levelo://app?vid=2168d30c-ee29-4027-961d-3a2a34b83c93","ios":"levelo://app?vid=2168d30c-ee29-4027-961d-3a2a34b83c93"},"vehicle_type_id":"4","last_reported":1684073085,"current_range_meters":4800,"station_id":"ce4bgpp2rcd13ifvqc3g","pricing_plan_id":"free"},{"bike_id":"7a36b63b-ecd7-49fa-af29-eaa6c3f956a6","system_id":"levelo_inurba_marseille","lat":43.298433,"lon":5.362774,"is_reserved":false,"is_disabled":false,"rental_uris":{"android":"levelo://app?vid=7a36b63b-ecd7-49fa-af29-eaa6c3f956a6","ios":"levelo://app?vid=7a36b63b-ecd7-49fa-af29-eaa6c3f956a6"},"vehicle_type_id":"4","last_reported":1684073085,"current_range_meters":8000,"station_id":"ce4bgpp2rcd13ifvqc3g","pricing_plan_id":"free"},{"bike_id":"249badae-7b3d-4a16-bd83-694e6b06d259","system_id":"levelo_inurba_marseille","lat":43.298433,"lon":5.362774,"is_reserved":false,"is_disabled":false,"rental_uris":{"android":"levelo://app?vid=249badae-7b3d-4a16-bd83-694e6b06d259","ios":"levelo://app?vid=249badae-7b3d-4a16-bd83-694e6b06d259"},"vehicle_type_id":"4","last_reported":1684073085,"current_range_meters":26000,"station_id":"ce4bgpp2rcd13ifvqc3g","pricing_plan_id":"free"},{"bike_id":"ae7f80e4-25e2-4ccc-bac3-c4225b1d6728","system_id":"levelo_inurba_marseille","lat":43.298433,"lon":5.362774,"is_reserved":false,"is_disabled":false,"rental_uris":{"android":"levelo://app?vid=ae7f80e4-25e2-4ccc-bac3-c4225b1d6728","ios":"levelo://app?vid=ae7f80e4-25e2-4ccc-bac3-c4225b1d6728"},"vehicle_type_id":"4","last_reported":1684073085,"current_range_meters":28400,"station_id":"ce4bgpp2rcd13ifvqc3g","pricing_plan_id":"free"},{"bike_id":"1348358d-717d-4af6-b8ab-c4eed3a0f89d","system_id":"levelo_inurba_marseille","lat":43.311722,"lon":5.387247,"is_reserved":false,"is_disabled":false,"rental_uris":{"android":"levelo://app?vid=1348358d-717d-4af6-b8ab-c4eed3a0f89d","ios":"levelo://app?vid=1348358d-717d-4af6-b8ab-c4eed3a0f89d"},"vehicle_type_id":"4","last_reported":1684073085,"current_range_meters":15600,"station_id":"ce4bgv12rcd13ifvqcp0","pricing_plan_id":"free"},{"bike_id":"757f50e4-4c75-4682-8988-c20dbd260609","system_id":"levelo_inurba_marseille","lat":43.311722,"lon":5.387247,"is_reserved":false,"is_disabled":false,"rental_uris":{"android":"levelo://app?vid=757f50e4-4c75-4682-8988-c20dbd260609","ios":"levelo://app?vid=757f50e4-4c75-4682-8988-c20dbd260609"},"vehicle_type_id":"4","last_reported":1684073085,"current_range_meters":29200,"station_id":"ce4bgv12rcd13ifvqcp0","pricing_plan_id":"free"},{"bike_id":"bdf0a25f-3c50-4dad-9dd7-dbcd86a04883","system_id":"levelo_inurba_marseille","lat":43.311722,"lon":5.387247,"is_reserved":false,"is_disabled":false,"rental_uris":{"android":"levelo://app?vid=bdf0a25f-3c50-4dad-9dd7-dbcd86a04883","ios":"levelo://app?vid=bdf0a25f-3c50-4dad-9dd7-dbcd86a04883"},"vehicle_type_id":"4","last_reported":1684073085,"current_range_meters":31200,"station_id":"ce4bgv12rcd13ifvqcp0","pricing_plan_id":"free"},{"bike_id":"3aa5e62c-d7d7-46e7-b64b-f37e661e95e7","system_id":"levelo_inurba_marseille","lat":43.311722,"lon":5.387247,"is_reserved":false,"is_disabled":false,"rental_uris":{"android":"levelo://app?vid=3aa5e62c-d7d7-46e7-b64b-f37e661e95e7","ios":"levelo://app?vid=3aa5e62c-d7d7-46e7-b64b-f37e661e95e7"},"vehicle_type_id":"4","last_reported":1684073085,"current_range_meters":31200,"station_id":"ce4bgv12rcd13ifvqcp0","pricing_plan_id":"free"},{"bike_id":"d0bc3caa-a2f6-41b0-904c-69e0caa4b356","system_id":"levelo_inurba_marseille","lat":43.31163,"lon":5.38732,"is_reserved":false,"is_disabled":false,"rental_uris":{"android":"levelo://app?vid=d0bc3caa-a2f6-41b0-904c-69e0caa4b356","ios":"levelo://app?vid=d0bc3caa-a2f6-41b0-904c-69e0caa4b356"},"vehicle_type_id":"4","last_reported":1684073085,"current_range_meters":4800,"station_id":"ce4bgv12rcd13ifvqcp0","pricing_plan_id":"free"},{"bike_id":"2f96f4b7-d3f1-4b87-b98f-caf50ba6d13d","system_id":"levelo_inurba_marseille","lat":43.32764,"lon":5.36699,"is_reserved":false,"is_disabled":false,"rental_uris":{"android":"levelo://app?vid=2f96f4b7-d3f1-4b87-b98f-caf50ba6d13d","ios":"levelo://app?vid=2f96f4b7-d3f1-4b87-b98f-caf50ba6d13d"},"vehicle_type_id":"4","last_reported":1684073085,"current_range_meters":7600,"station_id":"","pricing_plan_id":"free"},{"bike_id":"05dd3660-fb8d-4649-b95f-77a48f876534","system_id":"levelo_inurba_marseille","lat":43.328371,"lon":5.366909,"is_reserved":false,"is_disabled":false,"rental_uris":{"android":"levelo://app?vid=05dd3660-fb8d-4649-b95f-77a48f876534","ios":"levelo://app?vid=05dd3660-fb8d-4649-b95f-77a48f876534"},"vehicle_type_id":"4","last_reported":1684073085,"current_range_meters":31200,"station_id":"ce4bhs92rcd13ifvqi0g","pricing_plan_id":"free"},{"bike_id":"3f1ee445-79dc-4a77-99ec-f861244bce43","system_id":"levelo_inurba_marseille","lat":43.32827,"lon":5.36688,"is_reserved":false,"is_disabled":false,"rental_uris":{"android":"levelo://app?vid=3f1ee445-79dc-4a77-99ec-f861244bce43","ios":"levelo://app?vid=3f1ee445-79dc-4a77-99ec-f861244bce43"},"vehicle_type_id":"4","last_reported":1684073085,"current_range_meters":20800,"station_id":"ce4bhs92rcd13ifvqi0g","pricing_plan_id":"free"},{"bike_id":"acb3285f-1a59-4939-bacf-1321efdfa740","system_id":"levelo_inurba_marseille","lat":43.32827,"lon":5.36682,"is_reserved":false,"is_disabled":false,"rental_uris":{"android":"levelo://app?vid=acb3285f-1a59-4939-bacf-1321efdfa740","ios":"levelo://app?vid=acb3285f-1a59-4939-bacf-1321efdfa740"},"vehicle_type_id":"4","last_reported":1684073085,"current_range_meters":24000,"station_id":"ce4bhs92rcd13ifvqi0g","pricing_plan_id":"free"},{"bike_id":"ad50fbdc-6818-49a3-976a-84468e8cc53b","system_id":"levelo_inurba_marseille","lat":43.328371,"lon":5.366912,"is_reserved":false,"is_disabled":false,"rental_uris":{"android":"levelo://app?vid=ad50fbdc-6818-49a3-976a-84468e8cc53b","ios":"levelo://app?vid=ad50fbdc-6818-49a3-976a-84468e8cc53b"},"vehicle_type_id":"4","last_reported":1684073085,"current_range_meters":31200,"station_id":"ce4bhs92rcd13ifvqi0g","pricing_plan_id":"free"},{"bike_id":"5bc79a87-8c51-4256-972d-10ecdbdb6305","system_id":"levelo_inurba_marseille","lat":43.328371,"lon":5.366912,"is_reserved":false,"is_disabled":false,"rental_uris":{"android":"levelo://app?vid=5bc79a87-8c51-4256-972d-10ecdbdb6305","ios":"levelo://app?vid=5bc79a87-8c51-4256-972d-10ecdbdb6305"},"vehicle_type_id":"4","last_reported":1684073085,"current_range_meters":15200,"station_id":"ce4bhs92rcd13ifvqi0g","pricing_plan_id":"free"},{"bike_id":"38022c4a-3571-4d96-9af2-e7541df85640","system_id":"levelo_inurba_marseille","lat":43.328371,"lon":5.366909,"is_reserved":false,"is_disabled":false,"rental_uris":{"android":"levelo://app?vid=38022c4a-3571-4d96-9af2-e7541df85640","ios":"levelo://app?vid=38022c4a-3571-4d96-9af2-e7541df85640"},"vehicle_type_id":"4","last_reported":1684073085,"current_range_meters":24000,"station_id":"ce4bhs92rcd13ifvqi0g","pricing_plan_id":"free"},{"bike_id":"8b551262-3438-4831-9812-be7a47f77893","system_id":"levelo_inurba_marseille","lat":43.328371,"lon":5.366909,"is_reserved":false,"is_disabled":false,"rental_uris":{"android":"levelo://app?vid=8b551262-3438-4831-9812-be7a47f77893","ios":"levelo://app?vid=8b551262-3438-4831-9812-be7a47f77893"},"vehicle_type_id":"4","last_reported":1684073085,"current_range_meters":30000,"station_id":"ce4bhs92rcd13ifvqi0g","pricing_plan_id":"free"},{"bike_id":"98fc616f-05d8-4d1d-9c58-d04644bf4fef","system_id":"levelo_inurba_marseille","lat":43.328371,"lon":5.366912,"is_reserved":false,"is_disabled":false,"rental_uris":{"android":"levelo://app?vid=98fc616f-05d8-4d1d-9c58-d04644bf4fef","ios":"levelo://app?vid=98fc616f-05d8-4d1d-9c58-d04644bf4fef"},"vehicle_type_id":"4","last_reported":1684073085,"current_range_meters":28800,"station_id":"ce4bhs92rcd13ifvqi0g","pricing_plan_id":"free"},{"bike_id":"ae54ce0d-dad5-4ab0-a883-f565d2f59494","system_id":"levelo_inurba_marseille","lat":43.328371,"lon":5.366909,"is_reserved":false,"is_disabled":false,"rental_uris":{"android":"levelo://app?vid=ae54ce0d-dad5-4ab0-a883-f565d2f59494","ios":"levelo://app?vid=ae54ce0d-dad5-4ab0-a883-f565d2f59494"},"vehicle_type_id":"4","last_reported":1684073085,"current_range_meters":22000,"station_id":"ce4bhs92rcd13ifvqi0g","pricing_plan_id":"free"},{"bike_id":"216acc05-cd3c-4a35-b67b-82ab6e8e46bc","system_id":"levelo_inurba_marseille","lat":43.32831,"lon":5.36686,"is_reserved":false,"is_disabled":false,"rental_uris":{"android":"levelo://app?vid=216acc05-cd3c-4a35-b67b-82ab6e8e46bc","ios":"levelo://app?vid=216acc05-cd3c-4a35-b67b-82ab6e8e46bc"},"vehicle_type_id":"4","last_reported":1684073085,"current_range_meters":15200,"station_id":"ce4bhs92rcd13ifvqi0g","pricing_plan_id":"free"},{"bike_id":"ef619222-d86f-4984-a46f-cda033f9cc5b","system_id":"levelo_inurba_marseille","lat":43.328371,"lon":5.366912,"is_reserved":false,"is_disabled":false,"rental_uris":{"android":"levelo://app?vid=ef619222-d86f-4984-a46f-cda033f9cc5b","ios":"levelo://app?vid=ef619222-d86f-4984-a46f-cda033f9cc5b"},"vehicle_type_id":"4","last_reported":1684073085,"current_range_meters":29600,"station_id":"ce4bhs92rcd13ifvqi0g","pricing_plan_id":"free"},{"bike_id":"19dbfe5d-9e77-4915-8c62-a8b2b75c629f","system_id":"levelo_inurba_marseille","lat":43.29717,"lon":5.36618,"is_reserved":false,"is_disabled":false,"rental_uris":{"android":"levelo://app?vid=19dbfe5d-9e77-4915-8c62-a8b2b75c629f","ios":"levelo://app?vid=19dbfe5d-9e77-4915-8c62-a8b2b75c629f"},"vehicle_type_id":"4","last_reported":1684073085,"current_range_meters":4000,"station_id":"ce4bgn12rcd13ifvqbt0","pricing_plan_id":"free"},{"bike_id":"b449a4e4-2b40-420f-9a30-3bbbb718557f","system_id":"levelo_inurba_marseille","lat":43.328371,"lon":5.366912,"is_reserved":false,"is_disabled":false,"rental_uris":{"android":"levelo://app?vid=b449a4e4-2b40-420f-9a30-3bbbb718557f","ios":"levelo://app?vid=b449a4e4-2b40-420f-9a30-3bbbb718557f"},"vehicle_type_id":"4","last_reported":1684073085,"current_range_meters":16400,"station_id":"ce4bhs92rcd13ifvqi0g","pricing_plan_id":"free"},{"bike_id":"34c470f1-ed41-47d6-8d65-5c286939ee04","system_id":"levelo_inurba_marseille","lat":43.328371,"lon":5.366912,"is_reserved":false,"is_disabled":false,"rental_uris":{"android":"levelo://app?vid=34c470f1-ed41-47d6-8d65-5c286939ee04","ios":"levelo://app?vid=34c470f1-ed41-47d6-8d65-5c286939ee04"},"vehicle_type_id":"4","last_reported":1684073085,"current_range_meters":16000,"station_id":"ce4bhs92rcd13ifvqi0g","pricing_plan_id":"free"},{"bike_id":"439e171b-885c-4b84-971d-3c43043903d7","system_id":"levelo_inurba_marseille","lat":43.328371,"lon":5.366912,"is_reserved":false,"is_disabled":false,"rental_uris":{"android":"levelo://app?vid=439e171b-885c-4b84-971d-3c43043903d7","ios":"levelo://app?vid=439e171b-885c-4b84-971d-3c43043903d7"},"vehicle_type_id":"4","last_reported":1684073085,"current_range_meters":23600,"station_id":"ce4bhs92rcd13ifvqi0g","pricing_plan_id":"free"},{"bike_id":"aaca5fdf-1dee-4b81-aa4f-2d7102ec2d0c","system_id":"levelo_inurba_marseille","lat":43.32834,"lon":5.3669,"is_reserved":false,"is_disabled":false,"rental_uris":{"android":"levelo://app?vid=aaca5fdf-1dee-4b81-aa4f-2d7102ec2d0c","ios":"levelo://app?vid=aaca5fdf-1dee-4b81-aa4f-2d7102ec2d0c"},"vehicle_type_id":"4","last_reported":1684073085,"current_range_meters":18800,"station_id":"ce4bhs92rcd13ifvqi0g","pricing_plan_id":"free"},{"bike_id":"f7e16b9b-dda5-4bba-9d80-00bc064f0f46","system_id":"levelo_inurba_marseille","lat":43.32838,"lon":5.36692,"is_reserved":false,"is_disabled":false,"rental_uris":{"android":"levelo://app?vid=f7e16b9b-dda5-4bba-9d80-00bc064f0f46","ios":"levelo://app?vid=f7e16b9b-dda5-4bba-9d80-00bc064f0f46"},"vehicle_type_id":"4","last_reported":1684073085,"current_range_meters":13600,"station_id":"ce4bhs92rcd13ifvqi0g","pricing_plan_id":"free"},{"bike_id":"ac062281-6405-4ff4-ae47-b341715d1c70","system_id":"levelo_inurba_marseille","lat":43.29573,"lon":5.367355,"is_reserved":false,"is_disabled":false,"rental_uris":{"android":"levelo://app?vid=ac062281-6405-4ff4-ae47-b341715d1c70","ios":"levelo://app?vid=ac062281-6405-4ff4-ae47-b341715d1c70"},"vehicle_type_id":"4","last_reported":1684073085,"current_range_meters":5200,"station_id":"ce4bgph2rcd13ifvqc2g","pricing_plan_id":"free"},{"bike_id":"580685e1-edbd-4b11-96d7-db44db761cdd","system_id":"levelo_inurba_marseille","lat":43.29573,"lon":5.367355,"is_reserved":false,"is_disabled":false,"rental_uris":{"android":"levelo://app?vid=580685e1-edbd-4b11-96d7-db44db761cdd","ios":"levelo://app?vid=580685e1-edbd-4b11-96d7-db44db761cdd"},"vehicle_type_id":"4","last_reported":1684073085,"current_range_meters":24000,"station_id":"ce4bgph2rcd13ifvqc2g","pricing_plan_id":"free"},{"bike_id":"1197b576-82d3-4fa6-8faa-9fbc5b30e25b","system_id":"levelo_inurba_marseille","lat":43.296921,"lon":5.376579,"is_reserved":false,"is_disabled":false,"rental_uris":{"android":"levelo://app?vid=1197b576-82d3-4fa6-8faa-9fbc5b30e25b","ios":"levelo://app?vid=1197b576-82d3-4fa6-8faa-9fbc5b30e25b"},"vehicle_type_id":"4","last_reported":1684073085,"current_range_meters":0,"station_id":"ce4bgkh2rcd13ifvqbl0","pricing_plan_id":"free"},{"bike_id":"93a0da81-2876-41c8-9ed2-8875d69e9922","system_id":"levelo_inurba_marseille","lat":43.299028,"lon":5.381509,"is_reserved":false,"is_disabled":false,"rental_uris":{"android":"levelo://app?vid=93a0da81-2876-41c8-9ed2-8875d69e9922","ios":"levelo://app?vid=93a0da81-2876-41c8-9ed2-8875d69e9922"},"vehicle_type_id":"4","last_reported":1684073085,"current_range_meters":23200,"station_id":"ce4bgj12rcd13ifvqbc0","pricing_plan_id":"free"},{"bike_id":"70f78d35-863b-4ad7-9d81-3374ef17c958","system_id":"levelo_inurba_marseille","lat":43.299028,"lon":5.381509,"is_reserved":false,"is_disabled":false,"rental_uris":{"android":"levelo://app?vid=70f78d35-863b-4ad7-9d81-3374ef17c958","ios":"levelo://app?vid=70f78d35-863b-4ad7-9d81-3374ef17c958"},"vehicle_type_id":"4","last_reported":1684073085,"current_range_meters":30400,"station_id":"ce4bgj12rcd13ifvqbc0","pricing_plan_id":"free"},{"bike_id":"679240ee-a7b7-4051-9aac-d44857d90a2c","system_id":"levelo_inurba_marseille","lat":43.296935,"lon":5.376544,"is_reserved":false,"is_disabled":false,"rental_uris":{"android":"levelo://app?vid=679240ee-a7b7-4051-9aac-d44857d90a2c","ios":"levelo://app?vid=679240ee-a7b7-4051-9aac-d44857d90a2c"},"vehicle_type_id":"4","last_reported":1684073085,"current_range_meters":14400,"station_id":"ce4bgkh2rcd13ifvqbl0","pricing_plan_id":"free"},{"bike_id":"1b8e8455-d974-44bb-9a4e-7e7867c76231","system_id":"levelo_inurba_marseille","lat":43.3176,"lon":5.39006,"is_reserved":false,"is_disabled":false,"rental_uris":{"android":"levelo://app?vid=1b8e8455-d974-44bb-9a4e-7e7867c76231","ios":"levelo://app?vid=1b8e8455-d974-44bb-9a4e-7e7867c76231"},"vehicle_type_id":"4","last_reported":1684073085,"current_range_meters":27600,"station_id":"ce4bhqp2rcd13ifvqhng","pricing_plan_id":"free"},{"bike_id":"6b77c43c-960d-417c-8233-25f3afef3740","system_id":"levelo_inurba_marseille","lat":43.317557,"lon":5.390173,"is_reserved":false,"is_disabled":false,"rental_uris":{"android":"levelo://app?vid=6b77c43c-960d-417c-8233-25f3afef3740","ios":"levelo://app?vid=6b77c43c-960d-417c-8233-25f3afef3740"},"vehicle_type_id":"4","last_reported":1684073085,"current_range_meters":26800,"station_id":"ce4bhqp2rcd13ifvqhng","pricing_plan_id":"free"},{"bike_id":"46fe8492-485e-4b45-949b-3fd957712adc","system_id":"levelo_inurba_marseille","lat":43.31763,"lon":5.3901,"is_reserved":false,"is_disabled":false,"rental_uris":{"android":"levelo://app?vid=46fe8492-485e-4b45-949b-3fd957712adc","ios":"levelo://app?vid=46fe8492-485e-4b45-949b-3fd957712adc"},"vehicle_type_id":"4","last_reported":1684073085,"current_range_meters":30800,"station_id":"ce4bhqp2rcd13ifvqhng","pricing_plan_id":"free"},{"bike_id":"7e101d88-7926-4513-a08a-b2a6fdb92c65","system_id":"levelo_inurba_marseille","lat":43.31757,"lon":5.39015,"is_reserved":false,"is_disabled":false,"rental_uris":{"android":"levelo://app?vid=7e101d88-7926-4513-a08a-b2a6fdb92c65","ios":"levelo://app?vid=7e101d88-7926-4513-a08a-b2a6fdb92c65"},"vehicle_type_id":"4","last_reported":1684073085,"current_range_meters":25200,"station_id":"ce4bhqp2rcd13ifvqhng","pricing_plan_id":"free"},{"bike_id":"ba989431-512f-47cb-a61c-29aca27ee7f8","system_id":"levelo_inurba_marseille","lat":43.317557,"lon":5.390173,"is_reserved":false,"is_disabled":false,"rental_uris":{"android":"levelo://app?vid=ba989431-512f-47cb-a61c-29aca27ee7f8","ios":"levelo://app?vid=ba989431-512f-47cb-a61c-29aca27ee7f8"},"vehicle_type_id":"4","last_reported":1684073085,"current_range_meters":0,"station_id":"ce4bhqp2rcd13ifvqhng","pricing_plan_id":"free"},{"bike_id":"2e4072c4-97ae-412f-891d-364f103e5e6c","system_id":"levelo_inurba_marseille","lat":43.31757,"lon":5.39018,"is_reserved":false,"is_disabled":false,"rental_uris":{"android":"levelo://app?vid=2e4072c4-97ae-412f-891d-364f103e5e6c","ios":"levelo://app?vid=2e4072c4-97ae-412f-891d-364f103e5e6c"},"vehicle_type_id":"4","last_reported":1684073085,"current_range_meters":31200,"station_id":"ce4bhqp2rcd13ifvqhng","pricing_plan_id":"free"},{"bike_id":"4bca6dab-d89c-4659-af83-558644b096a0","system_id":"levelo_inurba_marseille","lat":43.3176,"lon":5.39018,"is_reserved":false,"is_disabled":false,"rental_uris":{"android":"levelo://app?vid=4bca6dab-d89c-4659-af83-558644b096a0","ios":"levelo://app?vid=4bca6dab-d89c-4659-af83-558644b096a0"},"vehicle_type_id":"4","last_reported":1684073085,"current_range_meters":25200,"station_id":"ce4bhqp2rcd13ifvqhng","pricing_plan_id":"free"},{"bike_id":"be2a7360-0c65-4881-9293-9be5468d9170","system_id":"levelo_inurba_marseille","lat":43.30414,"lon":5.38872,"is_reserved":false,"is_disabled":false,"rental_uris":{"android":"levelo://app?vid=be2a7360-0c65-4881-9293-9be5468d9170","ios":"levelo://app?vid=be2a7360-0c65-4881-9293-9be5468d9170"},"vehicle_type_id":"4","last_reported":1684073085,"current_range_meters":27200,"station_id":"ce4bgk12rcd13ifvqbi0","pricing_plan_id":"free"},{"bike_id":"7810a60d-69d2-42ff-b0b4-c35b378cd183","system_id":"levelo_inurba_marseille","lat":43.304274,"lon":5.388873,"is_reserved":false,"is_disabled":false,"rental_uris":{"android":"levelo://app?vid=7810a60d-69d2-42ff-b0b4-c35b378cd183","ios":"levelo://app?vid=7810a60d-69d2-42ff-b0b4-c35b378cd183"},"vehicle_type_id":"4","last_reported":1684073085,"current_range_meters":7600,"station_id":"ce4bgk12rcd13ifvqbi0","pricing_plan_id":"free"},{"bike_id":"42e57ca3-7548-4e94-ac02-1dcb919a4914","system_id":"levelo_inurba_marseille","lat":43.29527,"lon":5.37502,"is_reserved":false,"is_disabled":false,"rental_uris":{"android":"levelo://app?vid=42e57ca3-7548-4e94-ac02-1dcb919a4914","ios":"levelo://app?vid=42e57ca3-7548-4e94-ac02-1dcb919a4914"},"vehicle_type_id":"4","last_reported":1684073085,"current_range_meters":4800,"station_id":"ce4bgkp2rcd13ifvqbmg","pricing_plan_id":"free"},{"bike_id":"98d43089-ff1e-40ee-a123-f18e174ce1c4","system_id":"levelo_inurba_marseille","lat":43.31464,"lon":5.39225,"is_reserved":false,"is_disabled":false,"rental_uris":{"android":"levelo://app?vid=98d43089-ff1e-40ee-a123-f18e174ce1c4","ios":"levelo://app?vid=98d43089-ff1e-40ee-a123-f18e174ce1c4"},"vehicle_type_id":"4","last_reported":1684073085,"current_range_meters":0,"station_id":"","pricing_plan_id":"free"},{"bike_id":"d6f691bc-3cf2-4dee-aaa4-a76d1542090e","system_id":"levelo_inurba_marseille","lat":43.295279,"lon":5.375048,"is_reserved":false,"is_disabled":false,"rental_uris":{"android":"levelo://app?vid=d6f691bc-3cf2-4dee-aaa4-a76d1542090e","ios":"levelo://app?vid=d6f691bc-3cf2-4dee-aaa4-a76d1542090e"},"vehicle_type_id":"4","last_reported":1684073085,"current_range_meters":11600,"station_id":"ce4bgkp2rcd13ifvqbmg","pricing_plan_id":"free"},{"bike_id":"6526848e-8aad-4c63-9e50-6937f413f437","system_id":"levelo_inurba_marseille","lat":43.29505,"lon":5.37511,"is_reserved":false,"is_disabled":false,"rental_uris":{"android":"levelo://app?vid=6526848e-8aad-4c63-9e50-6937f413f437","ios":"levelo://app?vid=6526848e-8aad-4c63-9e50-6937f413f437"},"vehicle_type_id":"4","last_reported":1684073085,"current_range_meters":13200,"station_id":"ce4bgkp2rcd13ifvqbmg","pricing_plan_id":"free"},{"bike_id":"6f6b02ce-a50b-443a-a31d-aed834771e7b","system_id":"levelo_inurba_marseille","lat":43.31441,"lon":5.39281,"is_reserved":false,"is_disabled":false,"rental_uris":{"android":"levelo://app?vid=6f6b02ce-a50b-443a-a31d-aed834771e7b","ios":"levelo://app?vid=6f6b02ce-a50b-443a-a31d-aed834771e7b"},"vehicle_type_id":"4","last_reported":1684073085,"current_range_meters":2000,"station_id":"","pricing_plan_id":"free"},{"bike_id":"4700213a-39a4-4484-860c-9bf16a83746b","system_id":"levelo_inurba_marseille","lat":43.292749,"lon":5.368402,"is_reserved":false,"is_disabled":false,"rental_uris":{"android":"levelo://app?vid=4700213a-39a4-4484-860c-9bf16a83746b","ios":"levelo://app?vid=4700213a-39a4-4484-860c-9bf16a83746b"},"vehicle_type_id":"4","last_reported":1684073085,"current_range_meters":0,"station_id":"ce4bhbp2rcd13ifvqesg","pricing_plan_id":"free"},{"bike_id":"501d0517-d28f-49e4-bcaf-b468b43c7594","system_id":"levelo_inurba_marseille","lat":43.291943,"lon":5.358076,"is_reserved":false,"is_disabled":false,"rental_uris":{"android":"levelo://app?vid=501d0517-d28f-49e4-bcaf-b468b43c7594","ios":"levelo://app?vid=501d0517-d28f-49e4-bcaf-b468b43c7594"},"vehicle_type_id":"4","last_reported":1684073085,"current_range_meters":8400,"station_id":"ce4bhb12rcd13ifvqel0","pricing_plan_id":"free"},{"bike_id":"66564c55-80ab-4f49-8ad3-9450bc9ac163","system_id":"levelo_inurba_marseille","lat":43.29193,"lon":5.35796,"is_reserved":false,"is_disabled":false,"rental_uris":{"android":"levelo://app?vid=66564c55-80ab-4f49-8ad3-9450bc9ac163","ios":"levelo://app?vid=66564c55-80ab-4f49-8ad3-9450bc9ac163"},"vehicle_type_id":"4","last_reported":1684073085,"current_range_meters":8000,"station_id":"","pricing_plan_id":"free"},{"bike_id":"28c87f2c-42eb-4fd1-8f62-762b49d634d2","system_id":"levelo_inurba_marseille","lat":43.31332,"lon":5.39694,"is_reserved":false,"is_disabled":false,"rental_uris":{"android":"levelo://app?vid=28c87f2c-42eb-4fd1-8f62-762b49d634d2","ios":"levelo://app?vid=28c87f2c-42eb-4fd1-8f62-762b49d634d2"},"vehicle_type_id":"4","last_reported":1684073085,"current_range_meters":0,"station_id":"ce4bgvp2rcd13ifvqcu0","pricing_plan_id":"free"},{"bike_id":"8a487f07-21c3-4616-9cf2-8158e7a8c833","system_id":"levelo_inurba_marseille","lat":43.309038,"lon":5.396546,"is_reserved":false,"is_disabled":false,"rental_uris":{"android":"levelo://app?vid=8a487f07-21c3-4616-9cf2-8158e7a8c833","ios":"levelo://app?vid=8a487f07-21c3-4616-9cf2-8158e7a8c833"},"vehicle_type_id":"4","last_reported":1684073085,"current_range_meters":15200,"station_id":"ce4bh012rcd13ifvqcv0","pricing_plan_id":"free"},{"bike_id":"42914db8-4b39-4124-86eb-01e6f38b9d02","system_id":"levelo_inurba_marseille","lat":43.302008,"lon":5.394694,"is_reserved":false,"is_disabled":false,"rental_uris":{"android":"levelo://app?vid=42914db8-4b39-4124-86eb-01e6f38b9d02","ios":"levelo://app?vid=42914db8-4b39-4124-86eb-01e6f38b9d02"},"vehicle_type_id":"4","last_reported":1684073085,"current_range_meters":0,"station_id":"ce4bh0p2rcd13ifvqd70","pricing_plan_id":"free"},{"bike_id":"9f129774-36e1-42f1-8229-a7c2be11d89e","system_id":"levelo_inurba_marseille","lat":43.30487,"lon":5.39702,"is_reserved":false,"is_disabled":false,"rental_uris":{"android":"levelo://app?vid=9f129774-36e1-42f1-8229-a7c2be11d89e","ios":"levelo://app?vid=9f129774-36e1-42f1-8229-a7c2be11d89e"},"vehicle_type_id":"4","last_reported":1684073085,"current_range_meters":15200,"station_id":"","pricing_plan_id":"free"},{"bike_id":"628a0df3-f462-4701-9f2a-41f87d9fff8d","system_id":"levelo_inurba_marseille","lat":43.289468,"lon":5.363719,"is_reserved":false,"is_disabled":false,"rental_uris":{"android":"levelo://app?vid=628a0df3-f462-4701-9f2a-41f87d9fff8d","ios":"levelo://app?vid=628a0df3-f462-4701-9f2a-41f87d9fff8d"},"vehicle_type_id":"4","last_reported":1684073085,"current_range_meters":22800,"station_id":"ce4bhc92rcd13ifvqetg","pricing_plan_id":"free"},{"bike_id":"d9dd3209-f05a-408a-b4c2-859338c01b99","system_id":"levelo_inurba_marseille","lat":43.33038,"lon":5.38914,"is_reserved":false,"is_disabled":false,"rental_uris":{"android":"levelo://app?vid=d9dd3209-f05a-408a-b4c2-859338c01b99","ios":"levelo://app?vid=d9dd3209-f05a-408a-b4c2-859338c01b99"},"vehicle_type_id":"4","last_reported":1684073085,"current_range_meters":21600,"station_id":"ce4bhr92rcd13ifvqhrg","pricing_plan_id":"free"},{"bike_id":"f3562043-b80d-45e3-967d-ba21f94bef01","system_id":"levelo_inurba_marseille","lat":43.33038,"lon":5.3892,"is_reserved":false,"is_disabled":false,"rental_uris":{"android":"levelo://app?vid=f3562043-b80d-45e3-967d-ba21f94bef01","ios":"levelo://app?vid=f3562043-b80d-45e3-967d-ba21f94bef01"},"vehicle_type_id":"4","last_reported":1684073085,"current_range_meters":30800,"station_id":"ce4bhr92rcd13ifvqhrg","pricing_plan_id":"free"},{"bike_id":"45267953-7b14-4eb9-9ce6-09c9bf50dfb4","system_id":"levelo_inurba_marseille","lat":43.33041,"lon":5.38919,"is_reserved":false,"is_disabled":false,"rental_uris":{"android":"levelo://app?vid=45267953-7b14-4eb9-9ce6-09c9bf50dfb4","ios":"levelo://app?vid=45267953-7b14-4eb9-9ce6-09c9bf50dfb4"},"vehicle_type_id":"4","last_reported":1684073085,"current_range_meters":26000,"station_id":"ce4bhr92rcd13ifvqhrg","pricing_plan_id":"free"},{"bike_id":"9b34a26f-1256-4b06-a2cd-2e6177e89d22","system_id":"levelo_inurba_marseille","lat":43.33042,"lon":5.38918,"is_reserved":false,"is_disabled":false,"rental_uris":{"android":"levelo://app?vid=9b34a26f-1256-4b06-a2cd-2e6177e89d22","ios":"levelo://app?vid=9b34a26f-1256-4b06-a2cd-2e6177e89d22"},"vehicle_type_id":"4","last_reported":1684073085,"current_range_meters":23200,"station_id":"ce4bhr92rcd13ifvqhrg","pricing_plan_id":"free"},{"bike_id":"b9b646b4-78b1-402c-930e-3d487dde0f8e","system_id":"levelo_inurba_marseille","lat":43.3304,"lon":5.38921,"is_reserved":false,"is_disabled":false,"rental_uris":{"android":"levelo://app?vid=b9b646b4-78b1-402c-930e-3d487dde0f8e","ios":"levelo://app?vid=b9b646b4-78b1-402c-930e-3d487dde0f8e"},"vehicle_type_id":"4","last_reported":1684073085,"current_range_meters":28800,"station_id":"ce4bhr92rcd13ifvqhrg","pricing_plan_id":"free"},{"bike_id":"8db239b7-7ade-4c80-a0b8-f12159ac4669","system_id":"levelo_inurba_marseille","lat":43.33041,"lon":5.3892,"is_reserved":false,"is_disabled":false,"rental_uris":{"android":"levelo://app?vid=8db239b7-7ade-4c80-a0b8-f12159ac4669","ios":"levelo://app?vid=8db239b7-7ade-4c80-a0b8-f12159ac4669"},"vehicle_type_id":"4","last_reported":1684073085,"current_range_meters":16000,"station_id":"ce4bhr92rcd13ifvqhrg","pricing_plan_id":"free"},{"bike_id":"cad8b825-0304-4eaa-be40-a6324e92b3c7","system_id":"levelo_inurba_marseille","lat":43.29007,"lon":5.3562,"is_reserved":false,"is_disabled":false,"rental_uris":{"android":"levelo://app?vid=cad8b825-0304-4eaa-be40-a6324e92b3c7","ios":"levelo://app?vid=cad8b825-0304-4eaa-be40-a6324e92b3c7"},"vehicle_type_id":"4","last_reported":1684073085,"current_range_meters":0,"station_id":"ce4bhb92rcd13ifvqen0","pricing_plan_id":"free"},{"bike_id":"716f196f-bdac-4a6a-9628-97caa9d0581b","system_id":"levelo_inurba_marseille","lat":43.33043,"lon":5.38919,"is_reserved":false,"is_disabled":false,"rental_uris":{"android":"levelo://app?vid=716f196f-bdac-4a6a-9628-97caa9d0581b","ios":"levelo://app?vid=716f196f-bdac-4a6a-9628-97caa9d0581b"},"vehicle_type_id":"4","last_reported":1684073085,"current_range_meters":9200,"station_id":"ce4bhr92rcd13ifvqhrg","pricing_plan_id":"free"},{"bike_id":"d9c65fb5-b538-43a6-8b06-cce8ee9f5b2a","system_id":"levelo_inurba_marseille","lat":43.33042,"lon":5.38921,"is_reserved":false,"is_disabled":false,"rental_uris":{"android":"levelo://app?vid=d9c65fb5-b538-43a6-8b06-cce8ee9f5b2a","ios":"levelo://app?vid=d9c65fb5-b538-43a6-8b06-cce8ee9f5b2a"},"vehicle_type_id":"4","last_reported":1684073085,"current_range_meters":25600,"station_id":"ce4bhr92rcd13ifvqhrg","pricing_plan_id":"free"},{"bike_id":"05ebc5f4-7a23-4a4a-81b4-06ff5e6884a5","system_id":"levelo_inurba_marseille","lat":43.33044,"lon":5.38918,"is_reserved":false,"is_disabled":false,"rental_uris":{"android":"levelo://app?vid=05ebc5f4-7a23-4a4a-81b4-06ff5e6884a5","ios":"levelo://app?vid=05ebc5f4-7a23-4a4a-81b4-06ff5e6884a5"},"vehicle_type_id":"4","last_reported":1684073085,"current_range_meters":14400,"station_id":"ce4bhr92rcd13ifvqhrg","pricing_plan_id":"free"},{"bike_id":"99d11ff8-cd4f-4243-907c-822c17bc769b","system_id":"levelo_inurba_marseille","lat":43.33042,"lon":5.38922,"is_reserved":false,"is_disabled":false,"rental_uris":{"android":"levelo://app?vid=99d11ff8-cd4f-4243-907c-822c17bc769b","ios":"levelo://app?vid=99d11ff8-cd4f-4243-907c-822c17bc769b"},"vehicle_type_id":"4","last_reported":1684073085,"current_range_meters":16400,"station_id":"ce4bhr92rcd13ifvqhrg","pricing_plan_id":"free"},{"bike_id":"754ef565-0150-4f0d-8c0d-a8a5d6927613","system_id":"levelo_inurba_marseille","lat":43.33044,"lon":5.38922,"is_reserved":false,"is_disabled":false,"rental_uris":{"android":"levelo://app?vid=754ef565-0150-4f0d-8c0d-a8a5d6927613","ios":"levelo://app?vid=754ef565-0150-4f0d-8c0d-a8a5d6927613"},"vehicle_type_id":"4","last_reported":1684073085,"current_range_meters":14800,"station_id":"ce4bhr92rcd13ifvqhrg","pricing_plan_id":"free"},{"bike_id":"127ebec0-5800-449e-bff9-d1fd823ca15c","system_id":"levelo_inurba_marseille","lat":43.33046,"lon":5.38921,"is_reserved":false,"is_disabled":false,"rental_uris":{"android":"levelo://app?vid=127ebec0-5800-449e-bff9-d1fd823ca15c","ios":"levelo://app?vid=127ebec0-5800-449e-bff9-d1fd823ca15c"},"vehicle_type_id":"4","last_reported":1684073085,"current_range_meters":800,"station_id":"ce4bhr92rcd13ifvqhrg","pricing_plan_id":"free"},{"bike_id":"b8d0a2d7-4443-405c-9e1e-71d351b2ac12","system_id":"levelo_inurba_marseille","lat":43.33049,"lon":5.38918,"is_reserved":false,"is_disabled":false,"rental_uris":{"android":"levelo://app?vid=b8d0a2d7-4443-405c-9e1e-71d351b2ac12","ios":"levelo://app?vid=b8d0a2d7-4443-405c-9e1e-71d351b2ac12"},"vehicle_type_id":"4","last_reported":1684073085,"current_range_meters":17600,"station_id":"ce4bhr92rcd13ifvqhrg","pricing_plan_id":"free"},{"bike_id":"dc0692ec-341e-479a-8203-e6c1224b7166","system_id":"levelo_inurba_marseille","lat":43.29002,"lon":5.3561,"is_reserved":false,"is_disabled":false,"rental_uris":{"android":"levelo://app?vid=dc0692ec-341e-479a-8203-e6c1224b7166","ios":"levelo://app?vid=dc0692ec-341e-479a-8203-e6c1224b7166"},"vehicle_type_id":"4","last_reported":1684073085,"current_range_meters":22400,"station_id":"ce4bhb92rcd13ifvqen0","pricing_plan_id":"free"},{"bike_id":"cad193f2-44f3-4b2a-bd83-5b224084ecef","system_id":"levelo_inurba_marseille","lat":43.29792,"lon":5.39347,"is_reserved":false,"is_disabled":false,"rental_uris":{"android":"levelo://app?vid=cad193f2-44f3-4b2a-bd83-5b224084ecef","ios":"levelo://app?vid=cad193f2-44f3-4b2a-bd83-5b224084ecef"},"vehicle_type_id":"4","last_reported":1684073085,"current_range_meters":25600,"station_id":"ce4bh212rcd13ifvqde0","pricing_plan_id":"free"},{"bike_id":"084466b0-90e4-4c18-8448-2af407a74801","system_id":"levelo_inurba_marseille","lat":43.28856,"lon":5.358371,"is_reserved":false,"is_disabled":false,"rental_uris":{"android":"levelo://app?vid=084466b0-90e4-4c18-8448-2af407a74801","ios":"levelo://app?vid=084466b0-90e4-4c18-8448-2af407a74801"},"vehicle_type_id":"4","last_reported":1684073085,"current_range_meters":31600,"station_id":"ce4bhb12rcd13ifvqem0","pricing_plan_id":"free"},{"bike_id":"d05175ba-88c6-4cf6-96ab-651166b944bd","system_id":"levelo_inurba_marseille","lat":43.28856,"lon":5.358371,"is_reserved":false,"is_disabled":false,"rental_uris":{"android":"levelo://app?vid=d05175ba-88c6-4cf6-96ab-651166b944bd","ios":"levelo://app?vid=d05175ba-88c6-4cf6-96ab-651166b944bd"},"vehicle_type_id":"4","last_reported":1684073085,"current_range_meters":19600,"station_id":"ce4bhb12rcd13ifvqem0","pricing_plan_id":"free"},{"bike_id":"d0c6242d-05be-453c-b970-30e8eb5ff77d","system_id":"levelo_inurba_marseille","lat":43.28856,"lon":5.358371,"is_reserved":false,"is_disabled":false,"rental_uris":{"android":"levelo://app?vid=d0c6242d-05be-453c-b970-30e8eb5ff77d","ios":"levelo://app?vid=d0c6242d-05be-453c-b970-30e8eb5ff77d"},"vehicle_type_id":"4","last_reported":1684073085,"current_range_meters":31200,"station_id":"ce4bhb12rcd13ifvqem0","pricing_plan_id":"free"},{"bike_id":"235bfca5-3523-4573-9b75-a1fadb68ed6a","system_id":"levelo_inurba_marseille","lat":43.337328,"lon":5.374538,"is_reserved":false,"is_disabled":false,"rental_uris":{"android":"levelo://app?vid=235bfca5-3523-4573-9b75-a1fadb68ed6a","ios":"levelo://app?vid=235bfca5-3523-4573-9b75-a1fadb68ed6a"},"vehicle_type_id":"4","last_reported":1684073085,"current_range_meters":27200,"station_id":"ce4bhah2rcd13ifvqei0","pricing_plan_id":"free"},{"bike_id":"add5f874-e8d3-42d2-8dd5-3374246db2cf","system_id":"levelo_inurba_marseille","lat":43.33741,"lon":5.37449,"is_reserved":false,"is_disabled":false,"rental_uris":{"android":"levelo://app?vid=add5f874-e8d3-42d2-8dd5-3374246db2cf","ios":"levelo://app?vid=add5f874-e8d3-42d2-8dd5-3374246db2cf"},"vehicle_type_id":"4","last_reported":1684073085,"current_range_meters":30400,"station_id":"","pricing_plan_id":"free"},{"bike_id":"5b3ce0e7-ddde-4f08-9689-05c27b8dd4cc","system_id":"levelo_inurba_marseille","lat":43.337436,"lon":5.374627,"is_reserved":false,"is_disabled":false,"rental_uris":{"android":"levelo://app?vid=5b3ce0e7-ddde-4f08-9689-05c27b8dd4cc","ios":"levelo://app?vid=5b3ce0e7-ddde-4f08-9689-05c27b8dd4cc"},"vehicle_type_id":"4","last_reported":1684073085,"current_range_meters":27600,"station_id":"ce4bhnp2rcd13ifvqgvg","pricing_plan_id":"free"},{"bike_id":"6a189226-a063-4950-b3ee-0c40718a3f3b","system_id":"levelo_inurba_marseille","lat":43.33766,"lon":5.37429,"is_reserved":false,"is_disabled":false,"rental_uris":{"android":"levelo://app?vid=6a189226-a063-4950-b3ee-0c40718a3f3b","ios":"levelo://app?vid=6a189226-a063-4950-b3ee-0c40718a3f3b"},"vehicle_type_id":"4","last_reported":1684073085,"current_range_meters":31200,"station_id":"","pricing_plan_id":"free"},{"bike_id":"20f650a1-28fd-4ebf-8336-9365c2c8add5","system_id":"levelo_inurba_marseille","lat":43.301117,"lon":5.398795,"is_reserved":false,"is_disabled":false,"rental_uris":{"android":"levelo://app?vid=20f650a1-28fd-4ebf-8336-9365c2c8add5","ios":"levelo://app?vid=20f650a1-28fd-4ebf-8336-9365c2c8add5"},"vehicle_type_id":"4","last_reported":1684073085,"current_range_meters":24400,"station_id":"ce4bh0h2rcd13ifvqd40","pricing_plan_id":"free"},{"bike_id":"a8d56eff-d40b-4c24-83b0-05dc104395a2","system_id":"levelo_inurba_marseille","lat":43.286591,"lon":5.363346,"is_reserved":false,"is_disabled":false,"rental_uris":{"android":"levelo://app?vid=a8d56eff-d40b-4c24-83b0-05dc104395a2","ios":"levelo://app?vid=a8d56eff-d40b-4c24-83b0-05dc104395a2"},"vehicle_type_id":"4","last_reported":1684073085,"current_range_meters":7600,"station_id":"ce4bhah2rcd13ifvqej0","pricing_plan_id":"free"},{"bike_id":"58cc14c7-29a2-4bbc-ad44-4f79dab9084b","system_id":"levelo_inurba_marseille","lat":43.286593,"lon":5.363346,"is_reserved":false,"is_disabled":false,"rental_uris":{"android":"levelo://app?vid=58cc14c7-29a2-4bbc-ad44-4f79dab9084b","ios":"levelo://app?vid=58cc14c7-29a2-4bbc-ad44-4f79dab9084b"},"vehicle_type_id":"4","last_reported":1684073085,"current_range_meters":29600,"station_id":"ce4bhah2rcd13ifvqej0","pricing_plan_id":"free"},{"bike_id":"45083393-343d-4443-9f0c-ac800557d828","system_id":"levelo_inurba_marseille","lat":43.302759,"lon":5.400793,"is_reserved":false,"is_disabled":false,"rental_uris":{"android":"levelo://app?vid=45083393-343d-4443-9f0c-ac800557d828","ios":"levelo://app?vid=45083393-343d-4443-9f0c-ac800557d828"},"vehicle_type_id":"4","last_reported":1684073085,"current_range_meters":22800,"station_id":"ce4bgvh2rcd13ifvqcs0","pricing_plan_id":"free"},{"bike_id":"8fbb4da9-ef1e-47ac-8ef1-feb2c6b59040","system_id":"levelo_inurba_marseille","lat":43.302759,"lon":5.400793,"is_reserved":false,"is_disabled":false,"rental_uris":{"android":"levelo://app?vid=8fbb4da9-ef1e-47ac-8ef1-feb2c6b59040","ios":"levelo://app?vid=8fbb4da9-ef1e-47ac-8ef1-feb2c6b59040"},"vehicle_type_id":"4","last_reported":1684073085,"current_range_meters":13600,"station_id":"ce4bgvh2rcd13ifvqcs0","pricing_plan_id":"free"},{"bike_id":"b2478b00-0988-4092-b8e6-1a0b58801275","system_id":"levelo_inurba_marseille","lat":43.284534,"lon":5.358662,"is_reserved":false,"is_disabled":false,"rental_uris":{"android":"levelo://app?vid=b2478b00-0988-4092-b8e6-1a0b58801275","ios":"levelo://app?vid=b2478b00-0988-4092-b8e6-1a0b58801275"},"vehicle_type_id":"4","last_reported":1684073085,"current_range_meters":16800,"station_id":"ce4bhah2rcd13ifvqei0","pricing_plan_id":"free"},{"bike_id":"f3ab2412-a434-4f99-81a1-dc58f472dee0","system_id":"levelo_inurba_marseille","lat":43.284534,"lon":5.358662,"is_reserved":false,"is_disabled":false,"rental_uris":{"android":"levelo://app?vid=f3ab2412-a434-4f99-81a1-dc58f472dee0","ios":"levelo://app?vid=f3ab2412-a434-4f99-81a1-dc58f472dee0"},"vehicle_type_id":"4","last_reported":1684073085,"current_range_meters":29600,"station_id":"ce4bhah2rcd13ifvqei0","pricing_plan_id":"free"},{"bike_id":"973e023b-391f-4475-b2b5-c3327d58f022","system_id":"levelo_inurba_marseille","lat":43.28626,"lon":5.35102,"is_reserved":false,"is_disabled":false,"rental_uris":{"android":"levelo://app?vid=973e023b-391f-4475-b2b5-c3327d58f022","ios":"levelo://app?vid=973e023b-391f-4475-b2b5-c3327d58f022"},"vehicle_type_id":"4","last_reported":1684073085,"current_range_meters":24400,"station_id":"","pricing_plan_id":"free"},{"bike_id":"64ad4ec4-515d-4a11-931c-1116c62134f1","system_id":"levelo_inurba_marseille","lat":43.285848,"lon":5.350787,"is_reserved":false,"is_disabled":false,"rental_uris":{"android":"levelo://app?vid=64ad4ec4-515d-4a11-931c-1116c62134f1","ios":"levelo://app?vid=64ad4ec4-515d-4a11-931c-1116c62134f1"},"vehicle_type_id":"4","last_reported":1684073085,"current_range_meters":24000,"station_id":"ce4bhch2rcd13ifvqeug","pricing_plan_id":"free"},{"bike_id":"1f8ff556-bd77-4ea6-99f7-0ba97dcbf88b","system_id":"levelo_inurba_marseille","lat":43.285848,"lon":5.350787,"is_reserved":false,"is_disabled":false,"rental_uris":{"android":"levelo://app?vid=1f8ff556-bd77-4ea6-99f7-0ba97dcbf88b","ios":"levelo://app?vid=1f8ff556-bd77-4ea6-99f7-0ba97dcbf88b"},"vehicle_type_id":"4","last_reported":1684073085,"current_range_meters":25600,"station_id":"ce4bhch2rcd13ifvqeug","pricing_plan_id":"free"},{"bike_id":"2bd45963-5306-46f5-bf2e-f850950dfc85","system_id":"levelo_inurba_marseille","lat":43.28621,"lon":5.35103,"is_reserved":false,"is_disabled":false,"rental_uris":{"android":"levelo://app?vid=2bd45963-5306-46f5-bf2e-f850950dfc85","ios":"levelo://app?vid=2bd45963-5306-46f5-bf2e-f850950dfc85"},"vehicle_type_id":"4","last_reported":1684073085,"current_range_meters":19200,"station_id":"","pricing_plan_id":"free"},{"bike_id":"d8ac2af2-a37f-4a3f-b6d9-ae0e3bf1bcc8","system_id":"levelo_inurba_marseille","lat":43.28619,"lon":5.35107,"is_reserved":false,"is_disabled":false,"rental_uris":{"android":"levelo://app?vid=d8ac2af2-a37f-4a3f-b6d9-ae0e3bf1bcc8","ios":"levelo://app?vid=d8ac2af2-a37f-4a3f-b6d9-ae0e3bf1bcc8"},"vehicle_type_id":"4","last_reported":1684073085,"current_range_meters":26800,"station_id":"","pricing_plan_id":"free"},{"bike_id":"bdb5962b-0958-452f-87b1-dd80e182330b","system_id":"levelo_inurba_marseille","lat":43.285848,"lon":5.350787,"is_reserved":false,"is_disabled":false,"rental_uris":{"android":"levelo://app?vid=bdb5962b-0958-452f-87b1-dd80e182330b","ios":"levelo://app?vid=bdb5962b-0958-452f-87b1-dd80e182330b"},"vehicle_type_id":"4","last_reported":1684073085,"current_range_meters":3200,"station_id":"ce4bhch2rcd13ifvqeug","pricing_plan_id":"free"},{"bike_id":"4e65895d-6e75-4a23-9ecc-b529ece00aef","system_id":"levelo_inurba_marseille","lat":43.285848,"lon":5.350787,"is_reserved":false,"is_disabled":false,"rental_uris":{"android":"levelo://app?vid=4e65895d-6e75-4a23-9ecc-b529ece00aef","ios":"levelo://app?vid=4e65895d-6e75-4a23-9ecc-b529ece00aef"},"vehicle_type_id":"4","last_reported":1684073085,"current_range_meters":18000,"station_id":"ce4bhch2rcd13ifvqeug","pricing_plan_id":"free"},{"bike_id":"05db418d-397f-4be1-99be-121d95a49d92","system_id":"levelo_inurba_marseille","lat":43.285848,"lon":5.350787,"is_reserved":false,"is_disabled":false,"rental_uris":{"android":"levelo://app?vid=05db418d-397f-4be1-99be-121d95a49d92","ios":"levelo://app?vid=05db418d-397f-4be1-99be-121d95a49d92"},"vehicle_type_id":"4","last_reported":1684073085,"current_range_meters":17600,"station_id":"ce4bhch2rcd13ifvqeug","pricing_plan_id":"free"},{"bike_id":"a28d3398-8a3c-4e41-8ca1-917cc399cd22","system_id":"levelo_inurba_marseille","lat":43.285848,"lon":5.350787,"is_reserved":false,"is_disabled":false,"rental_uris":{"android":"levelo://app?vid=a28d3398-8a3c-4e41-8ca1-917cc399cd22","ios":"levelo://app?vid=a28d3398-8a3c-4e41-8ca1-917cc399cd22"},"vehicle_type_id":"4","last_reported":1684073085,"current_range_meters":31200,"station_id":"ce4bhch2rcd13ifvqeug","pricing_plan_id":"free"},{"bike_id":"e8b3347f-b54d-4622-b95b-8c6b458bdb10","system_id":"levelo_inurba_marseille","lat":43.285848,"lon":5.350787,"is_reserved":false,"is_disabled":false,"rental_uris":{"android":"levelo://app?vid=e8b3347f-b54d-4622-b95b-8c6b458bdb10","ios":"levelo://app?vid=e8b3347f-b54d-4622-b95b-8c6b458bdb10"},"vehicle_type_id":"4","last_reported":1684073085,"current_range_meters":18000,"station_id":"ce4bhch2rcd13ifvqeug","pricing_plan_id":"free"},{"bike_id":"557fb934-9e23-49d0-b13b-3524ef0e6730","system_id":"levelo_inurba_marseille","lat":43.28618,"lon":5.35096,"is_reserved":false,"is_disabled":false,"rental_uris":{"android":"levelo://app?vid=557fb934-9e23-49d0-b13b-3524ef0e6730","ios":"levelo://app?vid=557fb934-9e23-49d0-b13b-3524ef0e6730"},"vehicle_type_id":"4","last_reported":1684073085,"current_range_meters":15600,"station_id":"","pricing_plan_id":"free"},{"bike_id":"7675e569-8a6a-4467-aa50-8e9d66881206","system_id":"levelo_inurba_marseille","lat":43.28616,"lon":5.35102,"is_reserved":false,"is_disabled":false,"rental_uris":{"android":"levelo://app?vid=7675e569-8a6a-4467-aa50-8e9d66881206","ios":"levelo://app?vid=7675e569-8a6a-4467-aa50-8e9d66881206"},"vehicle_type_id":"4","last_reported":1684073085,"current_range_meters":30000,"station_id":"","pricing_plan_id":"free"},{"bike_id":"489d3dee-fe54-4276-ba97-9a9d85a834da","system_id":"levelo_inurba_marseille","lat":43.28614,"lon":5.35108,"is_reserved":false,"is_disabled":false,"rental_uris":{"android":"levelo://app?vid=489d3dee-fe54-4276-ba97-9a9d85a834da","ios":"levelo://app?vid=489d3dee-fe54-4276-ba97-9a9d85a834da"},"vehicle_type_id":"4","last_reported":1684073085,"current_range_meters":14400,"station_id":"","pricing_plan_id":"free"},{"bike_id":"00e77349-fab1-4e61-8bfe-fa70c56aa04b","system_id":"levelo_inurba_marseille","lat":43.285848,"lon":5.350787,"is_reserved":false,"is_disabled":false,"rental_uris":{"android":"levelo://app?vid=00e77349-fab1-4e61-8bfe-fa70c56aa04b","ios":"levelo://app?vid=00e77349-fab1-4e61-8bfe-fa70c56aa04b"},"vehicle_type_id":"4","last_reported":1684073085,"current_range_meters":25600,"station_id":"ce4bhch2rcd13ifvqeug","pricing_plan_id":"free"},{"bike_id":"a7b93beb-52d4-49ad-b877-6819567f34a0","system_id":"levelo_inurba_marseille","lat":43.28614,"lon":5.35102,"is_reserved":false,"is_disabled":false,"rental_uris":{"android":"levelo://app?vid=a7b93beb-52d4-49ad-b877-6819567f34a0","ios":"levelo://app?vid=a7b93beb-52d4-49ad-b877-6819567f34a0"},"vehicle_type_id":"4","last_reported":1684073085,"current_range_meters":30000,"station_id":"","pricing_plan_id":"free"},{"bike_id":"f6969433-8df9-4b5a-ad01-44012df2a5de","system_id":"levelo_inurba_marseille","lat":43.286138,"lon":5.351017,"is_reserved":false,"is_disabled":false,"rental_uris":{"android":"levelo://app?vid=f6969433-8df9-4b5a-ad01-44012df2a5de","ios":"levelo://app?vid=f6969433-8df9-4b5a-ad01-44012df2a5de"},"vehicle_type_id":"4","last_reported":1684073085,"current_range_meters":14400,"station_id":"ce4bhbp2rcd13ifvqerg","pricing_plan_id":"free"},{"bike_id":"9b74fd4c-eba6-4a11-9701-0b48edc26835","system_id":"levelo_inurba_marseille","lat":43.28613,"lon":5.35103,"is_reserved":false,"is_disabled":false,"rental_uris":{"android":"levelo://app?vid=9b74fd4c-eba6-4a11-9701-0b48edc26835","ios":"levelo://app?vid=9b74fd4c-eba6-4a11-9701-0b48edc26835"},"vehicle_type_id":"4","last_reported":1684073085,"current_range_meters":4800,"station_id":"","pricing_plan_id":"free"},{"bike_id":"75f03dbf-01f5-4855-9158-4992b12adee1","system_id":"levelo_inurba_marseille","lat":43.28613,"lon":5.35101,"is_reserved":false,"is_disabled":false,"rental_uris":{"android":"levelo://app?vid=75f03dbf-01f5-4855-9158-4992b12adee1","ios":"levelo://app?vid=75f03dbf-01f5-4855-9158-4992b12adee1"},"vehicle_type_id":"4","last_reported":1684073085,"current_range_meters":3600,"station_id":"","pricing_plan_id":"free"},{"bike_id":"b01ebec7-d782-4228-b24c-7dd586bab87d","system_id":"levelo_inurba_marseille","lat":43.28611,"lon":5.35105,"is_reserved":false,"is_disabled":false,"rental_uris":{"android":"levelo://app?vid=b01ebec7-d782-4228-b24c-7dd586bab87d","ios":"levelo://app?vid=b01ebec7-d782-4228-b24c-7dd586bab87d"},"vehicle_type_id":"4","last_reported":1684073085,"current_range_meters":21200,"station_id":"","pricing_plan_id":"free"},{"bike_id":"4bad07d8-f11b-4092-aa56-072d0a9454e4","system_id":"levelo_inurba_marseille","lat":43.285848,"lon":5.350787,"is_reserved":false,"is_disabled":false,"rental_uris":{"android":"levelo://app?vid=4bad07d8-f11b-4092-aa56-072d0a9454e4","ios":"levelo://app?vid=4bad07d8-f11b-4092-aa56-072d0a9454e4"},"vehicle_type_id":"4","last_reported":1684073085,"current_range_meters":12000,"station_id":"ce4bhch2rcd13ifvqeug","pricing_plan_id":"free"},{"bike_id":"d830692b-ba35-4aec-8130-7c79f2dcfb77","system_id":"levelo_inurba_marseille","lat":43.28612,"lon":5.35099,"is_reserved":false,"is_disabled":false,"rental_uris":{"android":"levelo://app?vid=d830692b-ba35-4aec-8130-7c79f2dcfb77","ios":"levelo://app?vid=d830692b-ba35-4aec-8130-7c79f2dcfb77"},"vehicle_type_id":"4","last_reported":1684073085,"current_range_meters":26400,"station_id":"","pricing_plan_id":"free"},{"bike_id":"1da3e0de-2d2b-43c1-9d1b-0ba7b480dbd9","system_id":"levelo_inurba_marseille","lat":43.28611,"lon":5.35102,"is_reserved":false,"is_disabled":false,"rental_uris":{"android":"levelo://app?vid=1da3e0de-2d2b-43c1-9d1b-0ba7b480dbd9","ios":"levelo://app?vid=1da3e0de-2d2b-43c1-9d1b-0ba7b480dbd9"},"vehicle_type_id":"4","last_reported":1684073085,"current_range_meters":18400,"station_id":"","pricing_plan_id":"free"},{"bike_id":"3554461e-5f28-48c5-a3f7-841dcd835f0b","system_id":"levelo_inurba_marseille","lat":43.28611,"lon":5.35101,"is_reserved":false,"is_disabled":false,"rental_uris":{"android":"levelo://app?vid=3554461e-5f28-48c5-a3f7-841dcd835f0b","ios":"levelo://app?vid=3554461e-5f28-48c5-a3f7-841dcd835f0b"},"vehicle_type_id":"4","last_reported":1684073085,"current_range_meters":22000,"station_id":"","pricing_plan_id":"free"},{"bike_id":"3ba8cbee-75d5-4623-980c-ad0ad6a10f83","system_id":"levelo_inurba_marseille","lat":43.2861,"lon":5.35104,"is_reserved":false,"is_disabled":false,"rental_uris":{"android":"levelo://app?vid=3ba8cbee-75d5-4623-980c-ad0ad6a10f83","ios":"levelo://app?vid=3ba8cbee-75d5-4623-980c-ad0ad6a10f83"},"vehicle_type_id":"4","last_reported":1684073085,"current_range_meters":24000,"station_id":"","pricing_plan_id":"free"},{"bike_id":"5ac4aa01-36e9-44b5-82ab-a0ab8dc1d69f","system_id":"levelo_inurba_marseille","lat":43.28609,"lon":5.35107,"is_reserved":false,"is_disabled":false,"rental_uris":{"android":"levelo://app?vid=5ac4aa01-36e9-44b5-82ab-a0ab8dc1d69f","ios":"levelo://app?vid=5ac4aa01-36e9-44b5-82ab-a0ab8dc1d69f"},"vehicle_type_id":"4","last_reported":1684073085,"current_range_meters":24800,"station_id":"","pricing_plan_id":"free"},{"bike_id":"47d48109-5992-4dc9-8791-db29539163ad","system_id":"levelo_inurba_marseille","lat":43.2861,"lon":5.35102,"is_reserved":false,"is_disabled":false,"rental_uris":{"android":"levelo://app?vid=47d48109-5992-4dc9-8791-db29539163ad","ios":"levelo://app?vid=47d48109-5992-4dc9-8791-db29539163ad"},"vehicle_type_id":"4","last_reported":1684073085,"current_range_meters":5600,"station_id":"","pricing_plan_id":"free"},{"bike_id":"000d53d9-40f7-4622-9d87-84f3d939043b","system_id":"levelo_inurba_marseille","lat":43.285856,"lon":5.350771,"is_reserved":false,"is_disabled":false,"rental_uris":{"android":"levelo://app?vid=000d53d9-40f7-4622-9d87-84f3d939043b","ios":"levelo://app?vid=000d53d9-40f7-4622-9d87-84f3d939043b"},"vehicle_type_id":"4","last_reported":1684073085,"current_range_meters":25600,"station_id":"ce4bhch2rcd13ifvqeug","pricing_plan_id":"free"},{"bike_id":"310f4e96-956e-4473-a323-a282982c8505","system_id":"levelo_inurba_marseille","lat":43.28609,"lon":5.35102,"is_reserved":false,"is_disabled":false,"rental_uris":{"android":"levelo://app?vid=310f4e96-956e-4473-a323-a282982c8505","ios":"levelo://app?vid=310f4e96-956e-4473-a323-a282982c8505"},"vehicle_type_id":"4","last_reported":1684073085,"current_range_meters":7600,"station_id":"","pricing_plan_id":"free"},{"bike_id":"bc3dbb85-99a8-4bce-99a9-f9aa83904534","system_id":"levelo_inurba_marseille","lat":43.295601,"lon":5.399211,"is_reserved":false,"is_disabled":false,"rental_uris":{"android":"levelo://app?vid=bc3dbb85-99a8-4bce-99a9-f9aa83904534","ios":"levelo://app?vid=bc3dbb85-99a8-4bce-99a9-f9aa83904534"},"vehicle_type_id":"4","last_reported":1684073085,"current_range_meters":20000,"station_id":"ce4bhh12rcd13ifvqff0","pricing_plan_id":"free"},{"bike_id":"ee94abd3-1dcd-4345-b7df-c15ba32db1ad","system_id":"levelo_inurba_marseille","lat":43.295713,"lon":5.399639,"is_reserved":false,"is_disabled":false,"rental_uris":{"android":"levelo://app?vid=ee94abd3-1dcd-4345-b7df-c15ba32db1ad","ios":"levelo://app?vid=ee94abd3-1dcd-4345-b7df-c15ba32db1ad"},"vehicle_type_id":"4","last_reported":1684073085,"current_range_meters":16000,"station_id":"ce4bh312rcd13ifvqdj0","pricing_plan_id":"free"},{"bike_id":"787b09c3-02d8-4a84-8e04-565ba3e4526d","system_id":"levelo_inurba_marseille","lat":43.28684,"lon":5.38659,"is_reserved":false,"is_disabled":false,"rental_uris":{"android":"levelo://app?vid=787b09c3-02d8-4a84-8e04-565ba3e4526d","ios":"levelo://app?vid=787b09c3-02d8-4a84-8e04-565ba3e4526d"},"vehicle_type_id":"4","last_reported":1684073085,"current_range_meters":0,"station_id":"","pricing_plan_id":"free"},{"bike_id":"2d0e8c76-e00b-418c-b455-5ad364cfba93","system_id":"levelo_inurba_marseille","lat":43.33726,"lon":5.3918,"is_reserved":false,"is_disabled":false,"rental_uris":{"android":"levelo://app?vid=2d0e8c76-e00b-418c-b455-5ad364cfba93","ios":"levelo://app?vid=2d0e8c76-e00b-418c-b455-5ad364cfba93"},"vehicle_type_id":"4","last_reported":1684073085,"current_range_meters":3200,"station_id":"ce4bhr92rcd13ifvqhsg","pricing_plan_id":"free"},{"bike_id":"619ee0d6-e94d-4f26-93e8-541d0865877d","system_id":"levelo_inurba_marseille","lat":43.323464,"lon":5.406297,"is_reserved":false,"is_disabled":false,"rental_uris":{"android":"levelo://app?vid=619ee0d6-e94d-4f26-93e8-541d0865877d","ios":"levelo://app?vid=619ee0d6-e94d-4f26-93e8-541d0865877d"},"vehicle_type_id":"4","last_reported":1684073085,"current_range_meters":28400,"station_id":"ce4bhq92rcd13ifvqhjg","pricing_plan_id":"free"},{"bike_id":"4e827552-b7fe-40ee-ae3f-44353bb18d25","system_id":"levelo_inurba_marseille","lat":43.33725,"lon":5.39189,"is_reserved":false,"is_disabled":false,"rental_uris":{"android":"levelo://app?vid=4e827552-b7fe-40ee-ae3f-44353bb18d25","ios":"levelo://app?vid=4e827552-b7fe-40ee-ae3f-44353bb18d25"},"vehicle_type_id":"4","last_reported":1684073085,"current_range_meters":8400,"station_id":"","pricing_plan_id":"free"},{"bike_id":"ba7aa913-9040-4670-8e19-c182538420d2","system_id":"levelo_inurba_marseille","lat":43.3193,"lon":5.40799,"is_reserved":false,"is_disabled":false,"rental_uris":{"android":"levelo://app?vid=ba7aa913-9040-4670-8e19-c182538420d2","ios":"levelo://app?vid=ba7aa913-9040-4670-8e19-c182538420d2"},"vehicle_type_id":"4","last_reported":1684073085,"current_range_meters":20000,"station_id":"ce4bhq12rcd13ifvqhig","pricing_plan_id":"free"},{"bike_id":"acf23370-9f7a-4e2e-a769-620efbe8cbce","system_id":"levelo_inurba_marseille","lat":43.283494,"lon":5.380945,"is_reserved":false,"is_disabled":false,"rental_uris":{"android":"levelo://app?vid=acf23370-9f7a-4e2e-a769-620efbe8cbce","ios":"levelo://app?vid=acf23370-9f7a-4e2e-a769-620efbe8cbce"},"vehicle_type_id":"4","last_reported":1684073085,"current_range_meters":20000,"station_id":"ce4bh412rcd13ifvqdr0","pricing_plan_id":"free"},{"bike_id":"0fbecca7-7108-4e40-a971-251fecba0da6","system_id":"levelo_inurba_marseille","lat":43.28432,"lon":5.34984,"is_reserved":false,"is_disabled":false,"rental_uris":{"android":"levelo://app?vid=0fbecca7-7108-4e40-a971-251fecba0da6","ios":"levelo://app?vid=0fbecca7-7108-4e40-a971-251fecba0da6"},"vehicle_type_id":"4","last_reported":1684073085,"current_range_meters":30400,"station_id":"ce4bhbh2rcd13ifvqepg","pricing_plan_id":"free"},{"bike_id":"6da5fc88-b09d-49b8-b914-40a7ec41d986","system_id":"levelo_inurba_marseille","lat":43.28432,"lon":5.34984,"is_reserved":false,"is_disabled":false,"rental_uris":{"android":"levelo://app?vid=6da5fc88-b09d-49b8-b914-40a7ec41d986","ios":"levelo://app?vid=6da5fc88-b09d-49b8-b914-40a7ec41d986"},"vehicle_type_id":"4","last_reported":1684073085,"current_range_meters":9200,"station_id":"ce4bhbh2rcd13ifvqepg","pricing_plan_id":"free"},{"bike_id":"d7586cbc-e77d-40c8-b696-8b274e28ee9c","system_id":"levelo_inurba_marseille","lat":43.28432,"lon":5.34983,"is_reserved":false,"is_disabled":false,"rental_uris":{"android":"levelo://app?vid=d7586cbc-e77d-40c8-b696-8b274e28ee9c","ios":"levelo://app?vid=d7586cbc-e77d-40c8-b696-8b274e28ee9c"},"vehicle_type_id":"4","last_reported":1684073085,"current_range_meters":28400,"station_id":"ce4bhbh2rcd13ifvqepg","pricing_plan_id":"free"},{"bike_id":"dee894b2-5764-4ec4-826a-afcb8c5f4fc2","system_id":"levelo_inurba_marseille","lat":43.28428,"lon":5.3499,"is_reserved":false,"is_disabled":false,"rental_uris":{"android":"levelo://app?vid=dee894b2-5764-4ec4-826a-afcb8c5f4fc2","ios":"levelo://app?vid=dee894b2-5764-4ec4-826a-afcb8c5f4fc2"},"vehicle_type_id":"4","last_reported":1684073085,"current_range_meters":15200,"station_id":"ce4bhbh2rcd13ifvqepg","pricing_plan_id":"free"},{"bike_id":"4f42351a-8ddb-492c-aafc-6e6da096c697","system_id":"levelo_inurba_marseille","lat":43.28428,"lon":5.34983,"is_reserved":false,"is_disabled":false,"rental_uris":{"android":"levelo://app?vid=4f42351a-8ddb-492c-aafc-6e6da096c697","ios":"levelo://app?vid=4f42351a-8ddb-492c-aafc-6e6da096c697"},"vehicle_type_id":"4","last_reported":1684073085,"current_range_meters":29600,"station_id":"ce4bhbh2rcd13ifvqepg","pricing_plan_id":"free"},{"bike_id":"ca79b3f8-8d31-4af5-a4eb-1e3f810be71b","system_id":"levelo_inurba_marseille","lat":43.28426,"lon":5.34987,"is_reserved":false,"is_disabled":false,"rental_uris":{"android":"levelo://app?vid=ca79b3f8-8d31-4af5-a4eb-1e3f810be71b","ios":"levelo://app?vid=ca79b3f8-8d31-4af5-a4eb-1e3f810be71b"},"vehicle_type_id":"4","last_reported":1684073085,"current_range_meters":14400,"station_id":"ce4bhbh2rcd13ifvqepg","pricing_plan_id":"free"},{"bike_id":"dcf9921c-3a06-480e-854f-02f0f48efcb6","system_id":"levelo_inurba_marseille","lat":43.28426,"lon":5.34986,"is_reserved":false,"is_disabled":false,"rental_uris":{"android":"levelo://app?vid=dcf9921c-3a06-480e-854f-02f0f48efcb6","ios":"levelo://app?vid=dcf9921c-3a06-480e-854f-02f0f48efcb6"},"vehicle_type_id":"4","last_reported":1684073085,"current_range_meters":31200,"station_id":"ce4bhbh2rcd13ifvqepg","pricing_plan_id":"free"},{"bike_id":"3f8484fd-2dc0-4f9b-b391-62a8259ca52c","system_id":"levelo_inurba_marseille","lat":43.28425,"lon":5.34989,"is_reserved":false,"is_disabled":false,"rental_uris":{"android":"levelo://app?vid=3f8484fd-2dc0-4f9b-b391-62a8259ca52c","ios":"levelo://app?vid=3f8484fd-2dc0-4f9b-b391-62a8259ca52c"},"vehicle_type_id":"4","last_reported":1684073085,"current_range_meters":5600,"station_id":"ce4bhbh2rcd13ifvqepg","pricing_plan_id":"free"},{"bike_id":"aad10681-c601-4052-acaf-c3198d41e36d","system_id":"levelo_inurba_marseille","lat":43.28427,"lon":5.34982,"is_reserved":false,"is_disabled":false,"rental_uris":{"android":"levelo://app?vid=aad10681-c601-4052-acaf-c3198d41e36d","ios":"levelo://app?vid=aad10681-c601-4052-acaf-c3198d41e36d"},"vehicle_type_id":"4","last_reported":1684073085,"current_range_meters":11200,"station_id":"ce4bhbh2rcd13ifvqepg","pricing_plan_id":"free"},{"bike_id":"cfcf673e-9136-4182-bff1-e056089aa3a7","system_id":"levelo_inurba_marseille","lat":43.28425,"lon":5.34986,"is_reserved":false,"is_disabled":false,"rental_uris":{"android":"levelo://app?vid=cfcf673e-9136-4182-bff1-e056089aa3a7","ios":"levelo://app?vid=cfcf673e-9136-4182-bff1-e056089aa3a7"},"vehicle_type_id":"4","last_reported":1684073085,"current_range_meters":28000,"station_id":"ce4bhbh2rcd13ifvqepg","pricing_plan_id":"free"},{"bike_id":"a283ab85-796f-4e37-960c-e6cc30577020","system_id":"levelo_inurba_marseille","lat":43.28426,"lon":5.34979,"is_reserved":false,"is_disabled":false,"rental_uris":{"android":"levelo://app?vid=a283ab85-796f-4e37-960c-e6cc30577020","ios":"levelo://app?vid=a283ab85-796f-4e37-960c-e6cc30577020"},"vehicle_type_id":"4","last_reported":1684073085,"current_range_meters":3200,"station_id":"ce4bhbh2rcd13ifvqepg","pricing_plan_id":"free"},{"bike_id":"8115e081-1ffd-44ff-8923-ed5ac68553b8","system_id":"levelo_inurba_marseille","lat":43.28423,"lon":5.34987,"is_reserved":false,"is_disabled":false,"rental_uris":{"android":"levelo://app?vid=8115e081-1ffd-44ff-8923-ed5ac68553b8","ios":"levelo://app?vid=8115e081-1ffd-44ff-8923-ed5ac68553b8"},"vehicle_type_id":"4","last_reported":1684073085,"current_range_meters":11200,"station_id":"ce4bhbh2rcd13ifvqepg","pricing_plan_id":"free"},{"bike_id":"86e0845f-9aa9-4ddf-baae-38e4d42a8573","system_id":"levelo_inurba_marseille","lat":43.28424,"lon":5.34983,"is_reserved":false,"is_disabled":false,"rental_uris":{"android":"levelo://app?vid=86e0845f-9aa9-4ddf-baae-38e4d42a8573","ios":"levelo://app?vid=86e0845f-9aa9-4ddf-baae-38e4d42a8573"},"vehicle_type_id":"4","last_reported":1684073085,"current_range_meters":24400,"station_id":"ce4bhbh2rcd13ifvqepg","pricing_plan_id":"free"},{"bike_id":"bf5dd51b-d700-46f0-b9e0-7ccaa9e286e6","system_id":"levelo_inurba_marseille","lat":43.28424,"lon":5.34983,"is_reserved":false,"is_disabled":false,"rental_uris":{"android":"levelo://app?vid=bf5dd51b-d700-46f0-b9e0-7ccaa9e286e6","ios":"levelo://app?vid=bf5dd51b-d700-46f0-b9e0-7ccaa9e286e6"},"vehicle_type_id":"4","last_reported":1684073085,"current_range_meters":18000,"station_id":"ce4bhbh2rcd13ifvqepg","pricing_plan_id":"free"},{"bike_id":"15707081-bd63-41cc-bd2a-ebce6881ba59","system_id":"levelo_inurba_marseille","lat":43.28423,"lon":5.34985,"is_reserved":false,"is_disabled":false,"rental_uris":{"android":"levelo://app?vid=15707081-bd63-41cc-bd2a-ebce6881ba59","ios":"levelo://app?vid=15707081-bd63-41cc-bd2a-ebce6881ba59"},"vehicle_type_id":"4","last_reported":1684073085,"current_range_meters":16800,"station_id":"ce4bhbh2rcd13ifvqepg","pricing_plan_id":"free"},{"bike_id":"1059ffb9-12f6-4599-99d1-2bdddfc09c01","system_id":"levelo_inurba_marseille","lat":43.28423,"lon":5.34983,"is_reserved":false,"is_disabled":false,"rental_uris":{"android":"levelo://app?vid=1059ffb9-12f6-4599-99d1-2bdddfc09c01","ios":"levelo://app?vid=1059ffb9-12f6-4599-99d1-2bdddfc09c01"},"vehicle_type_id":"4","last_reported":1684073085,"current_range_meters":400,"station_id":"ce4bhbh2rcd13ifvqepg","pricing_plan_id":"free"},{"bike_id":"62060680-6764-4e1f-833a-ab72f12cbce4","system_id":"levelo_inurba_marseille","lat":43.284217,"lon":5.349697,"is_reserved":false,"is_disabled":false,"rental_uris":{"android":"levelo://app?vid=62060680-6764-4e1f-833a-ab72f12cbce4","ios":"levelo://app?vid=62060680-6764-4e1f-833a-ab72f12cbce4"},"vehicle_type_id":"4","last_reported":1684073085,"current_range_meters":31200,"station_id":"ce4bhbh2rcd13ifvqepg","pricing_plan_id":"free"},{"bike_id":"d7e0f1a8-eae9-4b3d-ae78-4faa94b3118e","system_id":"levelo_inurba_marseille","lat":43.28419,"lon":5.34987,"is_reserved":false,"is_disabled":false,"rental_uris":{"android":"levelo://app?vid=d7e0f1a8-eae9-4b3d-ae78-4faa94b3118e","ios":"levelo://app?vid=d7e0f1a8-eae9-4b3d-ae78-4faa94b3118e"},"vehicle_type_id":"4","last_reported":1684073085,"current_range_meters":18000,"station_id":"ce4bhbh2rcd13ifvqepg","pricing_plan_id":"free"},{"bike_id":"a0f3afc2-122e-4043-b7d7-810a3559d20c","system_id":"levelo_inurba_marseille","lat":43.2842,"lon":5.34983,"is_reserved":false,"is_disabled":false,"rental_uris":{"android":"levelo://app?vid=a0f3afc2-122e-4043-b7d7-810a3559d20c","ios":"levelo://app?vid=a0f3afc2-122e-4043-b7d7-810a3559d20c"},"vehicle_type_id":"4","last_reported":1684073085,"current_range_meters":6400,"station_id":"ce4bhbh2rcd13ifvqepg","pricing_plan_id":"free"},{"bike_id":"0dd2b3a1-48e9-47b4-907b-180dddfee122","system_id":"levelo_inurba_marseille","lat":43.28422,"lon":5.34976,"is_reserved":false,"is_disabled":false,"rental_uris":{"android":"levelo://app?vid=0dd2b3a1-48e9-47b4-907b-180dddfee122","ios":"levelo://app?vid=0dd2b3a1-48e9-47b4-907b-180dddfee122"},"vehicle_type_id":"4","last_reported":1684073085,"current_range_meters":28000,"station_id":"ce4bhbh2rcd13ifvqepg","pricing_plan_id":"free"},{"bike_id":"9f4d5549-f8cc-4660-a038-674fe5327cf3","system_id":"levelo_inurba_marseille","lat":43.28421,"lon":5.34977,"is_reserved":false,"is_disabled":false,"rental_uris":{"android":"levelo://app?vid=9f4d5549-f8cc-4660-a038-674fe5327cf3","ios":"levelo://app?vid=9f4d5549-f8cc-4660-a038-674fe5327cf3"},"vehicle_type_id":"4","last_reported":1684073085,"current_range_meters":18000,"station_id":"ce4bhbh2rcd13ifvqepg","pricing_plan_id":"free"},{"bike_id":"6992acf4-45a7-41c3-812b-5de867d85d46","system_id":"levelo_inurba_marseille","lat":43.28421,"lon":5.34977,"is_reserved":false,"is_disabled":false,"rental_uris":{"android":"levelo://app?vid=6992acf4-45a7-41c3-812b-5de867d85d46","ios":"levelo://app?vid=6992acf4-45a7-41c3-812b-5de867d85d46"},"vehicle_type_id":"4","last_reported":1684073085,"current_range_meters":25600,"station_id":"ce4bhbh2rcd13ifvqepg","pricing_plan_id":"free"},{"bike_id":"b558b54a-3c66-41aa-bc91-070ae1732538","system_id":"levelo_inurba_marseille","lat":43.28422,"lon":5.34973,"is_reserved":false,"is_disabled":false,"rental_uris":{"android":"levelo://app?vid=b558b54a-3c66-41aa-bc91-070ae1732538","ios":"levelo://app?vid=b558b54a-3c66-41aa-bc91-070ae1732538"},"vehicle_type_id":"4","last_reported":1684073085,"current_range_meters":9600,"station_id":"ce4bhbh2rcd13ifvqepg","pricing_plan_id":"free"},{"bike_id":"802456b4-f5fc-4d14-93d6-849c12f57f19","system_id":"levelo_inurba_marseille","lat":43.28417,"lon":5.34986,"is_reserved":false,"is_disabled":false,"rental_uris":{"android":"levelo://app?vid=802456b4-f5fc-4d14-93d6-849c12f57f19","ios":"levelo://app?vid=802456b4-f5fc-4d14-93d6-849c12f57f19"},"vehicle_type_id":"4","last_reported":1684073085,"current_range_meters":25200,"station_id":"ce4bhbh2rcd13ifvqepg","pricing_plan_id":"free"},{"bike_id":"3c55e074-1749-498e-ad2f-42e17b1bc1c9","system_id":"levelo_inurba_marseille","lat":43.28417,"lon":5.34985,"is_reserved":false,"is_disabled":false,"rental_uris":{"android":"levelo://app?vid=3c55e074-1749-498e-ad2f-42e17b1bc1c9","ios":"levelo://app?vid=3c55e074-1749-498e-ad2f-42e17b1bc1c9"},"vehicle_type_id":"4","last_reported":1684073085,"current_range_meters":6000,"station_id":"ce4bhbh2rcd13ifvqepg","pricing_plan_id":"free"},{"bike_id":"2945fd78-4a04-4f2e-9bda-4ab4da76ef42","system_id":"levelo_inurba_marseille","lat":43.284217,"lon":5.349697,"is_reserved":false,"is_disabled":false,"rental_uris":{"android":"levelo://app?vid=2945fd78-4a04-4f2e-9bda-4ab4da76ef42","ios":"levelo://app?vid=2945fd78-4a04-4f2e-9bda-4ab4da76ef42"},"vehicle_type_id":"4","last_reported":1684073085,"current_range_meters":31200,"station_id":"ce4bhbh2rcd13ifvqepg","pricing_plan_id":"free"},{"bike_id":"9e55a1d9-a56d-45b8-84b0-36155274f220","system_id":"levelo_inurba_marseille","lat":43.28418,"lon":5.34975,"is_reserved":false,"is_disabled":false,"rental_uris":{"android":"levelo://app?vid=9e55a1d9-a56d-45b8-84b0-36155274f220","ios":"levelo://app?vid=9e55a1d9-a56d-45b8-84b0-36155274f220"},"vehicle_type_id":"4","last_reported":1684073085,"current_range_meters":0,"station_id":"ce4bhbh2rcd13ifvqepg","pricing_plan_id":"free"},{"bike_id":"b377e307-90b4-4c46-98a0-67193b5de737","system_id":"levelo_inurba_marseille","lat":43.28417,"lon":5.34976,"is_reserved":false,"is_disabled":false,"rental_uris":{"android":"levelo://app?vid=b377e307-90b4-4c46-98a0-67193b5de737","ios":"levelo://app?vid=b377e307-90b4-4c46-98a0-67193b5de737"},"vehicle_type_id":"4","last_reported":1684073085,"current_range_meters":26800,"station_id":"ce4bhbh2rcd13ifvqepg","pricing_plan_id":"free"},{"bike_id":"f303f4ab-5af2-4189-ae23-91eaece09faa","system_id":"levelo_inurba_marseille","lat":43.28416,"lon":5.34979,"is_reserved":false,"is_disabled":false,"rental_uris":{"android":"levelo://app?vid=f303f4ab-5af2-4189-ae23-91eaece09faa","ios":"levelo://app?vid=f303f4ab-5af2-4189-ae23-91eaece09faa"},"vehicle_type_id":"4","last_reported":1684073085,"current_range_meters":31200,"station_id":"ce4bhbh2rcd13ifvqepg","pricing_plan_id":"free"},{"bike_id":"f2ec9910-4d2e-4d9a-a61e-d80bd220a849","system_id":"levelo_inurba_marseille","lat":43.28416,"lon":5.34978,"is_reserved":false,"is_disabled":false,"rental_uris":{"android":"levelo://app?vid=f2ec9910-4d2e-4d9a-a61e-d80bd220a849","ios":"levelo://app?vid=f2ec9910-4d2e-4d9a-a61e-d80bd220a849"},"vehicle_type_id":"4","last_reported":1684073085,"current_range_meters":15600,"station_id":"ce4bhbh2rcd13ifvqepg","pricing_plan_id":"free"},{"bike_id":"61fb3247-f40f-4025-9be7-946c14d87310","system_id":"levelo_inurba_marseille","lat":43.28416,"lon":5.34972,"is_reserved":false,"is_disabled":false,"rental_uris":{"android":"levelo://app?vid=61fb3247-f40f-4025-9be7-946c14d87310","ios":"levelo://app?vid=61fb3247-f40f-4025-9be7-946c14d87310"},"vehicle_type_id":"4","last_reported":1684073085,"current_range_meters":25600,"station_id":"ce4bhbh2rcd13ifvqepg","pricing_plan_id":"free"},{"bike_id":"2fd5479b-b2e6-4be7-8155-ecebbb2c1578","system_id":"levelo_inurba_marseille","lat":43.292724,"lon":5.401131,"is_reserved":false,"is_disabled":false,"rental_uris":{"android":"levelo://app?vid=2fd5479b-b2e6-4be7-8155-ecebbb2c1578","ios":"levelo://app?vid=2fd5479b-b2e6-4be7-8155-ecebbb2c1578"},"vehicle_type_id":"4","last_reported":1684073085,"current_range_meters":10400,"station_id":"ce4bh312rcd13ifvqdk0","pricing_plan_id":"free"},{"bike_id":"127ec3b6-d8ea-44f0-be9b-534facc3a431","system_id":"levelo_inurba_marseille","lat":43.292724,"lon":5.401131,"is_reserved":false,"is_disabled":false,"rental_uris":{"android":"levelo://app?vid=127ec3b6-d8ea-44f0-be9b-534facc3a431","ios":"levelo://app?vid=127ec3b6-d8ea-44f0-be9b-534facc3a431"},"vehicle_type_id":"4","last_reported":1684073085,"current_range_meters":2000,"station_id":"ce4bh312rcd13ifvqdk0","pricing_plan_id":"free"},{"bike_id":"1c62084e-c70a-44a3-b30b-2abc2475ff00","system_id":"levelo_inurba_marseille","lat":43.28277,"lon":5.35061,"is_reserved":false,"is_disabled":false,"rental_uris":{"android":"levelo://app?vid=1c62084e-c70a-44a3-b30b-2abc2475ff00","ios":"levelo://app?vid=1c62084e-c70a-44a3-b30b-2abc2475ff00"},"vehicle_type_id":"4","last_reported":1684073085,"current_range_meters":18800,"station_id":"ce4bhbp2rcd13ifvqerg","pricing_plan_id":"free"},{"bike_id":"c617464b-56f1-453a-bf70-5e6ec2fdc8b9","system_id":"levelo_inurba_marseille","lat":43.28276,"lon":5.35064,"is_reserved":false,"is_disabled":false,"rental_uris":{"android":"levelo://app?vid=c617464b-56f1-453a-bf70-5e6ec2fdc8b9","ios":"levelo://app?vid=c617464b-56f1-453a-bf70-5e6ec2fdc8b9"},"vehicle_type_id":"4","last_reported":1684073085,"current_range_meters":14400,"station_id":"ce4bhbp2rcd13ifvqerg","pricing_plan_id":"free"},{"bike_id":"5377eba0-6898-4008-b9de-1192a7c12f57","system_id":"levelo_inurba_marseille","lat":43.28274,"lon":5.35059,"is_reserved":false,"is_disabled":false,"rental_uris":{"android":"levelo://app?vid=5377eba0-6898-4008-b9de-1192a7c12f57","ios":"levelo://app?vid=5377eba0-6898-4008-b9de-1192a7c12f57"},"vehicle_type_id":"4","last_reported":1684073085,"current_range_meters":31200,"station_id":"ce4bhbp2rcd13ifvqerg","pricing_plan_id":"free"},{"bike_id":"92bf7764-f59c-4721-b26d-abe3f300dddb","system_id":"levelo_inurba_marseille","lat":43.28275,"lon":5.35049,"is_reserved":false,"is_disabled":false,"rental_uris":{"android":"levelo://app?vid=92bf7764-f59c-4721-b26d-abe3f300dddb","ios":"levelo://app?vid=92bf7764-f59c-4721-b26d-abe3f300dddb"},"vehicle_type_id":"4","last_reported":1684073085,"current_range_meters":27600,"station_id":"ce4bhbp2rcd13ifvqerg","pricing_plan_id":"free"},{"bike_id":"e822d94a-c274-4f84-8075-549d338854f2","system_id":"levelo_inurba_marseille","lat":43.28271,"lon":5.35058,"is_reserved":false,"is_disabled":false,"rental_uris":{"android":"levelo://app?vid=e822d94a-c274-4f84-8075-549d338854f2","ios":"levelo://app?vid=e822d94a-c274-4f84-8075-549d338854f2"},"vehicle_type_id":"4","last_reported":1684073085,"current_range_meters":19600,"station_id":"ce4bhbp2rcd13ifvqerg","pricing_plan_id":"free"},{"bike_id":"3e610bfa-a402-4fb3-8303-8f17ee9e440c","system_id":"levelo_inurba_marseille","lat":43.28039,"lon":5.369297,"is_reserved":false,"is_disabled":false,"rental_uris":{"android":"levelo://app?vid=3e610bfa-a402-4fb3-8303-8f17ee9e440c","ios":"levelo://app?vid=3e610bfa-a402-4fb3-8303-8f17ee9e440c"},"vehicle_type_id":"4","last_reported":1684073085,"current_range_meters":22800,"station_id":"ce4bha12rcd13ifvqef0","pricing_plan_id":"free"},{"bike_id":"2fc505ce-c84b-42b7-a40e-a22dbfdb88bc","system_id":"levelo_inurba_marseille","lat":43.28272,"lon":5.35051,"is_reserved":false,"is_disabled":false,"rental_uris":{"android":"levelo://app?vid=2fc505ce-c84b-42b7-a40e-a22dbfdb88bc","ios":"levelo://app?vid=2fc505ce-c84b-42b7-a40e-a22dbfdb88bc"},"vehicle_type_id":"4","last_reported":1684073085,"current_range_meters":20800,"station_id":"ce4bhbp2rcd13ifvqerg","pricing_plan_id":"free"},{"bike_id":"899dccfd-9784-401f-b74d-cdd80ae7c30b","system_id":"levelo_inurba_marseille","lat":43.28271,"lon":5.35051,"is_reserved":false,"is_disabled":false,"rental_uris":{"android":"levelo://app?vid=899dccfd-9784-401f-b74d-cdd80ae7c30b","ios":"levelo://app?vid=899dccfd-9784-401f-b74d-cdd80ae7c30b"},"vehicle_type_id":"4","last_reported":1684073085,"current_range_meters":17600,"station_id":"ce4bhbp2rcd13ifvqerg","pricing_plan_id":"free"},{"bike_id":"fd07e0e4-2609-4833-a328-3779fa85111a","system_id":"levelo_inurba_marseille","lat":43.28272,"lon":5.35047,"is_reserved":false,"is_disabled":false,"rental_uris":{"android":"levelo://app?vid=fd07e0e4-2609-4833-a328-3779fa85111a","ios":"levelo://app?vid=fd07e0e4-2609-4833-a328-3779fa85111a"},"vehicle_type_id":"4","last_reported":1684073085,"current_range_meters":26800,"station_id":"ce4bhbp2rcd13ifvqerg","pricing_plan_id":"free"},{"bike_id":"ca9fa5ac-a63c-4f5d-ab03-f25f6356c420","system_id":"levelo_inurba_marseille","lat":43.282744,"lon":5.350533,"is_reserved":false,"is_disabled":false,"rental_uris":{"android":"levelo://app?vid=ca9fa5ac-a63c-4f5d-ab03-f25f6356c420","ios":"levelo://app?vid=ca9fa5ac-a63c-4f5d-ab03-f25f6356c420"},"vehicle_type_id":"4","last_reported":1684073085,"current_range_meters":30800,"station_id":"ce4bhbp2rcd13ifvqerg","pricing_plan_id":"free"},{"bike_id":"2e873e3b-9bd2-4219-9631-c7a95a4f5fc3","system_id":"levelo_inurba_marseille","lat":43.282744,"lon":5.350533,"is_reserved":false,"is_disabled":false,"rental_uris":{"android":"levelo://app?vid=2e873e3b-9bd2-4219-9631-c7a95a4f5fc3","ios":"levelo://app?vid=2e873e3b-9bd2-4219-9631-c7a95a4f5fc3"},"vehicle_type_id":"4","last_reported":1684073085,"current_range_meters":0,"station_id":"ce4bhbp2rcd13ifvqerg","pricing_plan_id":"free"},{"bike_id":"b7012f1d-75fe-4c20-97ff-e039abbc26ce","system_id":"levelo_inurba_marseille","lat":43.28264,"lon":5.35063,"is_reserved":false,"is_disabled":false,"rental_uris":{"android":"levelo://app?vid=b7012f1d-75fe-4c20-97ff-e039abbc26ce","ios":"levelo://app?vid=b7012f1d-75fe-4c20-97ff-e039abbc26ce"},"vehicle_type_id":"4","last_reported":1684073085,"current_range_meters":0,"station_id":"ce4bhbp2rcd13ifvqerg","pricing_plan_id":"free"},{"bike_id":"097ead8a-781e-4256-a673-c18d93f8c78f","system_id":"levelo_inurba_marseille","lat":43.282744,"lon":5.350533,"is_reserved":false,"is_disabled":false,"rental_uris":{"android":"levelo://app?vid=097ead8a-781e-4256-a673-c18d93f8c78f","ios":"levelo://app?vid=097ead8a-781e-4256-a673-c18d93f8c78f"},"vehicle_type_id":"4","last_reported":1684073085,"current_range_meters":31200,"station_id":"ce4bhbp2rcd13ifvqerg","pricing_plan_id":"free"},{"bike_id":"5542a60e-32e9-4f4f-803d-e23cb780ed9b","system_id":"levelo_inurba_marseille","lat":43.28264,"lon":5.35054,"is_reserved":false,"is_disabled":false,"rental_uris":{"android":"levelo://app?vid=5542a60e-32e9-4f4f-803d-e23cb780ed9b","ios":"levelo://app?vid=5542a60e-32e9-4f4f-803d-e23cb780ed9b"},"vehicle_type_id":"4","last_reported":1684073085,"current_range_meters":27200,"station_id":"ce4bhbp2rcd13ifvqerg","pricing_plan_id":"free"},{"bike_id":"0034af56-40fb-4551-9cb3-8fa06dcb51d2","system_id":"levelo_inurba_marseille","lat":43.28264,"lon":5.35052,"is_reserved":false,"is_disabled":false,"rental_uris":{"android":"levelo://app?vid=0034af56-40fb-4551-9cb3-8fa06dcb51d2","ios":"levelo://app?vid=0034af56-40fb-4551-9cb3-8fa06dcb51d2"},"vehicle_type_id":"4","last_reported":1684073085,"current_range_meters":29200,"station_id":"ce4bhbp2rcd13ifvqerg","pricing_plan_id":"free"},{"bike_id":"1495b86e-980d-4c50-b6ef-c010b81b2c57","system_id":"levelo_inurba_marseille","lat":43.282744,"lon":5.350533,"is_reserved":false,"is_disabled":false,"rental_uris":{"android":"levelo://app?vid=1495b86e-980d-4c50-b6ef-c010b81b2c57","ios":"levelo://app?vid=1495b86e-980d-4c50-b6ef-c010b81b2c57"},"vehicle_type_id":"4","last_reported":1684073085,"current_range_meters":31200,"station_id":"ce4bhbp2rcd13ifvqerg","pricing_plan_id":"free"},{"bike_id":"b5f241fd-b241-4843-9c4e-6d7889faabc1","system_id":"levelo_inurba_marseille","lat":43.29041,"lon":5.399634,"is_reserved":false,"is_disabled":false,"rental_uris":{"android":"levelo://app?vid=b5f241fd-b241-4843-9c4e-6d7889faabc1","ios":"levelo://app?vid=b5f241fd-b241-4843-9c4e-6d7889faabc1"},"vehicle_type_id":"4","last_reported":1684073085,"current_range_meters":12400,"station_id":"ce4bh392rcd13ifvqdm0","pricing_plan_id":"free"},{"bike_id":"a7785c1d-db12-4f7c-b7bc-183af683a7f0","system_id":"levelo_inurba_marseille","lat":43.281044,"lon":5.378308,"is_reserved":false,"is_disabled":false,"rental_uris":{"android":"levelo://app?vid=a7785c1d-db12-4f7c-b7bc-183af683a7f0","ios":"levelo://app?vid=a7785c1d-db12-4f7c-b7bc-183af683a7f0"},"vehicle_type_id":"4","last_reported":1684073085,"current_range_meters":22400,"station_id":"ce4bha12rcd13ifvqee0","pricing_plan_id":"free"},{"bike_id":"6b31621d-db26-4a0b-a9e9-23b472244f30","system_id":"levelo_inurba_marseille","lat":43.296263,"lon":5.40601,"is_reserved":false,"is_disabled":false,"rental_uris":{"android":"levelo://app?vid=6b31621d-db26-4a0b-a9e9-23b472244f30","ios":"levelo://app?vid=6b31621d-db26-4a0b-a9e9-23b472244f30"},"vehicle_type_id":"4","last_reported":1684073085,"current_range_meters":1600,"station_id":"ce4bh0h2rcd13ifvqd60","pricing_plan_id":"free"},{"bike_id":"913dcde0-791d-4bfc-9f3f-ddd1ae9814c3","system_id":"levelo_inurba_marseille","lat":43.281044,"lon":5.378308,"is_reserved":false,"is_disabled":false,"rental_uris":{"android":"levelo://app?vid=913dcde0-791d-4bfc-9f3f-ddd1ae9814c3","ios":"levelo://app?vid=913dcde0-791d-4bfc-9f3f-ddd1ae9814c3"},"vehicle_type_id":"4","last_reported":1684073085,"current_range_meters":4400,"station_id":"ce4bha12rcd13ifvqee0","pricing_plan_id":"free"},{"bike_id":"5fd83c42-a225-432f-8372-d628009f211e","system_id":"levelo_inurba_marseille","lat":43.2844,"lon":5.39204,"is_reserved":false,"is_disabled":false,"rental_uris":{"android":"levelo://app?vid=5fd83c42-a225-432f-8372-d628009f211e","ios":"levelo://app?vid=5fd83c42-a225-432f-8372-d628009f211e"},"vehicle_type_id":"4","last_reported":1684073085,"current_range_meters":12000,"station_id":"","pricing_plan_id":"free"},{"bike_id":"33f5bb21-d612-4cbc-9ecf-556fd3d1a9a8","system_id":"levelo_inurba_marseille","lat":43.287154,"lon":5.399979,"is_reserved":false,"is_disabled":false,"rental_uris":{"android":"levelo://app?vid=33f5bb21-d612-4cbc-9ecf-556fd3d1a9a8","ios":"levelo://app?vid=33f5bb21-d612-4cbc-9ecf-556fd3d1a9a8"},"vehicle_type_id":"4","last_reported":1684073085,"current_range_meters":26000,"station_id":"ce4bho92rcd13ifvqh3g","pricing_plan_id":"free"},{"bike_id":"f84e06c8-d35f-48a1-bdd6-bc45b6ddc6fd","system_id":"levelo_inurba_marseille","lat":43.28548,"lon":5.39888,"is_reserved":false,"is_disabled":false,"rental_uris":{"android":"levelo://app?vid=f84e06c8-d35f-48a1-bdd6-bc45b6ddc6fd","ios":"levelo://app?vid=f84e06c8-d35f-48a1-bdd6-bc45b6ddc6fd"},"vehicle_type_id":"4","last_reported":1684073085,"current_range_meters":0,"station_id":"ce4bhjp2rcd13ifvqg90","pricing_plan_id":"free"},{"bike_id":"03f12293-70fb-4c35-95e0-75e25e4f9ec3","system_id":"levelo_inurba_marseille","lat":43.320045,"lon":5.415048,"is_reserved":false,"is_disabled":false,"rental_uris":{"android":"levelo://app?vid=03f12293-70fb-4c35-95e0-75e25e4f9ec3","ios":"levelo://app?vid=03f12293-70fb-4c35-95e0-75e25e4f9ec3"},"vehicle_type_id":"4","last_reported":1684073085,"current_range_meters":17200,"station_id":"ce4bhq92rcd13ifvqhkg","pricing_plan_id":"free"},{"bike_id":"798f3f45-e2c0-47f6-80f3-b963dc3d1fa7","system_id":"levelo_inurba_marseille","lat":43.292571,"lon":5.409107,"is_reserved":false,"is_disabled":false,"rental_uris":{"android":"levelo://app?vid=798f3f45-e2c0-47f6-80f3-b963dc3d1fa7","ios":"levelo://app?vid=798f3f45-e2c0-47f6-80f3-b963dc3d1fa7"},"vehicle_type_id":"4","last_reported":1684073085,"current_range_meters":23600,"station_id":"ce4bh192rcd13ifvqdc0","pricing_plan_id":"free"},{"bike_id":"4c6915d5-9991-4663-ba47-bfb99111bb6d","system_id":"levelo_inurba_marseille","lat":43.325233,"lon":5.414318,"is_reserved":false,"is_disabled":false,"rental_uris":{"android":"levelo://app?vid=4c6915d5-9991-4663-ba47-bfb99111bb6d","ios":"levelo://app?vid=4c6915d5-9991-4663-ba47-bfb99111bb6d"},"vehicle_type_id":"4","last_reported":1684073085,"current_range_meters":27600,"station_id":"ce4bhq12rcd13ifvqhhg","pricing_plan_id":"free"},{"bike_id":"05b4535b-3b08-4a16-9da9-a953d780145c","system_id":"levelo_inurba_marseille","lat":43.325233,"lon":5.414318,"is_reserved":false,"is_disabled":false,"rental_uris":{"android":"levelo://app?vid=05b4535b-3b08-4a16-9da9-a953d780145c","ios":"levelo://app?vid=05b4535b-3b08-4a16-9da9-a953d780145c"},"vehicle_type_id":"4","last_reported":1684073085,"current_range_meters":31200,"station_id":"ce4bhq12rcd13ifvqhhg","pricing_plan_id":"free"},{"bike_id":"d84dba5c-eefb-4d7d-9ab3-3f2bc7373a3a","system_id":"levelo_inurba_marseille","lat":43.325233,"lon":5.414318,"is_reserved":false,"is_disabled":false,"rental_uris":{"android":"levelo://app?vid=d84dba5c-eefb-4d7d-9ab3-3f2bc7373a3a","ios":"levelo://app?vid=d84dba5c-eefb-4d7d-9ab3-3f2bc7373a3a"},"vehicle_type_id":"4","last_reported":1684073085,"current_range_meters":29600,"station_id":"ce4bhq12rcd13ifvqhhg","pricing_plan_id":"free"},{"bike_id":"bda61168-a97a-4ad4-a4d2-b7645f351d18","system_id":"levelo_inurba_marseille","lat":43.27618,"lon":5.361009,"is_reserved":false,"is_disabled":false,"rental_uris":{"android":"levelo://app?vid=bda61168-a97a-4ad4-a4d2-b7645f351d18","ios":"levelo://app?vid=bda61168-a97a-4ad4-a4d2-b7645f351d18"},"vehicle_type_id":"4","last_reported":1684073085,"current_range_meters":24400,"station_id":"ce4bgj92rcd13ifvqbe0","pricing_plan_id":"free"},{"bike_id":"72d1c47b-25f0-4500-a29b-04b3650a151e","system_id":"levelo_inurba_marseille","lat":43.32545,"lon":5.41441,"is_reserved":false,"is_disabled":false,"rental_uris":{"android":"levelo://app?vid=72d1c47b-25f0-4500-a29b-04b3650a151e","ios":"levelo://app?vid=72d1c47b-25f0-4500-a29b-04b3650a151e"},"vehicle_type_id":"4","last_reported":1684073085,"current_range_meters":30400,"station_id":"ce4bhq12rcd13ifvqhhg","pricing_plan_id":"free"},{"bike_id":"bf5b2fef-5f24-4a5d-a62a-fcc983a69cd0","system_id":"levelo_inurba_marseille","lat":43.276179,"lon":5.361009,"is_reserved":false,"is_disabled":false,"rental_uris":{"android":"levelo://app?vid=bf5b2fef-5f24-4a5d-a62a-fcc983a69cd0","ios":"levelo://app?vid=bf5b2fef-5f24-4a5d-a62a-fcc983a69cd0"},"vehicle_type_id":"4","last_reported":1684073085,"current_range_meters":14000,"station_id":"ce4bgj92rcd13ifvqbe0","pricing_plan_id":"free"},{"bike_id":"fe339c17-ba4f-4a4f-b350-940fbd81c43b","system_id":"levelo_inurba_marseille","lat":43.33336,"lon":5.40906,"is_reserved":false,"is_disabled":false,"rental_uris":{"android":"levelo://app?vid=fe339c17-ba4f-4a4f-b350-940fbd81c43b","ios":"levelo://app?vid=fe339c17-ba4f-4a4f-b350-940fbd81c43b"},"vehicle_type_id":"4","last_reported":1684073085,"current_range_meters":17200,"station_id":"","pricing_plan_id":"free"},{"bike_id":"2fce20c8-5263-48f4-84f0-2311f48dad83","system_id":"levelo_inurba_marseille","lat":43.273613,"lon":5.362705,"is_reserved":false,"is_disabled":false,"rental_uris":{"android":"levelo://app?vid=2fce20c8-5263-48f4-84f0-2311f48dad83","ios":"levelo://app?vid=2fce20c8-5263-48f4-84f0-2311f48dad83"},"vehicle_type_id":"4","last_reported":1684073085,"current_range_meters":10800,"station_id":"ce4bhbh2rcd13ifvqeo0","pricing_plan_id":"free"},{"bike_id":"3a55f82d-0b87-425e-b5c9-ab4438f9d894","system_id":"levelo_inurba_marseille","lat":43.273613,"lon":5.362705,"is_reserved":false,"is_disabled":false,"rental_uris":{"android":"levelo://app?vid=3a55f82d-0b87-425e-b5c9-ab4438f9d894","ios":"levelo://app?vid=3a55f82d-0b87-425e-b5c9-ab4438f9d894"},"vehicle_type_id":"4","last_reported":1684073085,"current_range_meters":28400,"station_id":"ce4bhbh2rcd13ifvqeo0","pricing_plan_id":"free"},{"bike_id":"4e12f93b-e75a-478c-a074-5961c64cc8b8","system_id":"levelo_inurba_marseille","lat":43.273613,"lon":5.362705,"is_reserved":false,"is_disabled":false,"rental_uris":{"android":"levelo://app?vid=4e12f93b-e75a-478c-a074-5961c64cc8b8","ios":"levelo://app?vid=4e12f93b-e75a-478c-a074-5961c64cc8b8"},"vehicle_type_id":"4","last_reported":1684073085,"current_range_meters":13200,"station_id":"ce4bhbh2rcd13ifvqeo0","pricing_plan_id":"free"},{"bike_id":"5685bba6-d21b-40a6-b289-78b00a3bee60","system_id":"levelo_inurba_marseille","lat":43.273613,"lon":5.362705,"is_reserved":false,"is_disabled":false,"rental_uris":{"android":"levelo://app?vid=5685bba6-d21b-40a6-b289-78b00a3bee60","ios":"levelo://app?vid=5685bba6-d21b-40a6-b289-78b00a3bee60"},"vehicle_type_id":"4","last_reported":1684073085,"current_range_meters":21600,"station_id":"ce4bhbh2rcd13ifvqeo0","pricing_plan_id":"free"},{"bike_id":"bd982f41-81a7-4cd9-9d61-7012beb2327f","system_id":"levelo_inurba_marseille","lat":43.273613,"lon":5.362705,"is_reserved":false,"is_disabled":false,"rental_uris":{"android":"levelo://app?vid=bd982f41-81a7-4cd9-9d61-7012beb2327f","ios":"levelo://app?vid=bd982f41-81a7-4cd9-9d61-7012beb2327f"},"vehicle_type_id":"4","last_reported":1684073085,"current_range_meters":7200,"station_id":"ce4bhbh2rcd13ifvqeo0","pricing_plan_id":"free"},{"bike_id":"8491fd20-6cd9-40c1-97cd-62a2a07f15ab","system_id":"levelo_inurba_marseille","lat":43.27377,"lon":5.36256,"is_reserved":false,"is_disabled":false,"rental_uris":{"android":"levelo://app?vid=8491fd20-6cd9-40c1-97cd-62a2a07f15ab","ios":"levelo://app?vid=8491fd20-6cd9-40c1-97cd-62a2a07f15ab"},"vehicle_type_id":"4","last_reported":1684073085,"current_range_meters":16400,"station_id":"ce4bhbh2rcd13ifvqeo0","pricing_plan_id":"free"},{"bike_id":"8dee85e6-7a40-4858-8cf2-d86510cc7253","system_id":"levelo_inurba_marseille","lat":43.273613,"lon":5.362705,"is_reserved":false,"is_disabled":false,"rental_uris":{"android":"levelo://app?vid=8dee85e6-7a40-4858-8cf2-d86510cc7253","ios":"levelo://app?vid=8dee85e6-7a40-4858-8cf2-d86510cc7253"},"vehicle_type_id":"4","last_reported":1684073085,"current_range_meters":14400,"station_id":"ce4bhbh2rcd13ifvqeo0","pricing_plan_id":"free"},{"bike_id":"968cc73a-e0d8-42eb-af13-650d935426ae","system_id":"levelo_inurba_marseille","lat":43.273609,"lon":5.362708,"is_reserved":false,"is_disabled":false,"rental_uris":{"android":"levelo://app?vid=968cc73a-e0d8-42eb-af13-650d935426ae","ios":"levelo://app?vid=968cc73a-e0d8-42eb-af13-650d935426ae"},"vehicle_type_id":"4","last_reported":1684073085,"current_range_meters":16000,"station_id":"ce4bhbh2rcd13ifvqeo0","pricing_plan_id":"free"},{"bike_id":"8f23064d-3c35-46cf-a11f-b82593e8ced5","system_id":"levelo_inurba_marseille","lat":43.273613,"lon":5.362705,"is_reserved":false,"is_disabled":false,"rental_uris":{"android":"levelo://app?vid=8f23064d-3c35-46cf-a11f-b82593e8ced5","ios":"levelo://app?vid=8f23064d-3c35-46cf-a11f-b82593e8ced5"},"vehicle_type_id":"4","last_reported":1684073085,"current_range_meters":10800,"station_id":"ce4bhbh2rcd13ifvqeo0","pricing_plan_id":"free"},{"bike_id":"97a92025-f365-4de2-a062-5e25e68332cf","system_id":"levelo_inurba_marseille","lat":43.273613,"lon":5.362705,"is_reserved":false,"is_disabled":false,"rental_uris":{"android":"levelo://app?vid=97a92025-f365-4de2-a062-5e25e68332cf","ios":"levelo://app?vid=97a92025-f365-4de2-a062-5e25e68332cf"},"vehicle_type_id":"4","last_reported":1684073085,"current_range_meters":800,"station_id":"ce4bhbh2rcd13ifvqeo0","pricing_plan_id":"free"},{"bike_id":"7fc28012-b5f7-44d0-aa83-dd2bd2a4b712","system_id":"levelo_inurba_marseille","lat":43.273609,"lon":5.362708,"is_reserved":false,"is_disabled":false,"rental_uris":{"android":"levelo://app?vid=7fc28012-b5f7-44d0-aa83-dd2bd2a4b712","ios":"levelo://app?vid=7fc28012-b5f7-44d0-aa83-dd2bd2a4b712"},"vehicle_type_id":"4","last_reported":1684073085,"current_range_meters":31200,"station_id":"ce4bhbh2rcd13ifvqeo0","pricing_plan_id":"free"},{"bike_id":"3d896cd2-01f2-49a5-8c68-5d312e862083","system_id":"levelo_inurba_marseille","lat":43.273609,"lon":5.362708,"is_reserved":false,"is_disabled":false,"rental_uris":{"android":"levelo://app?vid=3d896cd2-01f2-49a5-8c68-5d312e862083","ios":"levelo://app?vid=3d896cd2-01f2-49a5-8c68-5d312e862083"},"vehicle_type_id":"4","last_reported":1684073085,"current_range_meters":9600,"station_id":"ce4bhbh2rcd13ifvqeo0","pricing_plan_id":"free"},{"bike_id":"e20a6cbf-c5a8-4211-8859-a522da572595","system_id":"levelo_inurba_marseille","lat":43.27376,"lon":5.36255,"is_reserved":false,"is_disabled":false,"rental_uris":{"android":"levelo://app?vid=e20a6cbf-c5a8-4211-8859-a522da572595","ios":"levelo://app?vid=e20a6cbf-c5a8-4211-8859-a522da572595"},"vehicle_type_id":"4","last_reported":1684073085,"current_range_meters":15200,"station_id":"ce4bhbh2rcd13ifvqeo0","pricing_plan_id":"free"},{"bike_id":"92c539b3-26b8-448a-ae34-af08f3e5010e","system_id":"levelo_inurba_marseille","lat":43.273754,"lon":5.362631,"is_reserved":false,"is_disabled":false,"rental_uris":{"android":"levelo://app?vid=92c539b3-26b8-448a-ae34-af08f3e5010e","ios":"levelo://app?vid=92c539b3-26b8-448a-ae34-af08f3e5010e"},