{"last_updated":1747840318,"ttl":60,"version":"2.2","data":{"bikes":[{"bike_id":"c0b9fd4f-e181-46ce-b0bf-f5119973334f","system_id":"levelo_inurba_marseille","lat":43.33771,"lon":5.37424,"is_reserved":false,"is_disabled":true,"rental_uris":{"android":"levelo://app?vid=c0b9fd4f-e181-46ce-b0bf-f5119973334f","ios":"levelo://app?vid=c0b9fd4f-e181-46ce-b0bf-f5119973334f"},"vehicle_type_id":"4","last_reported":1747840318,"current_range_meters":0,"station_id":"","pricing_plan_id":"cebpf4jnsgd1na2vs0mg"},{"bike_id":"1dec17c8-cbde-4354-8b6c-219f98c89710","system_id":"levelo_inurba_marseille","lat":43.291827,"lon":5.422652,"is_reserved":false,"is_disabled":true,"rental_uris":{"android":"levelo://app?vid=1dec17c8-cbde-4354-8b6c-219f98c89710","ios":"levelo://app?vid=1dec17c8-cbde-4354-8b6c-219f98c89710"},"vehicle_type_id":"4","last_reported":1747840318,"current_range_meters":0,"station_id":"","pricing_plan_id":"cebpf4jnsgd1na2vs0mg"},{"bike_id":"4d4b63f8-c892-4cd8-b099-d41c0ed58ced","system_id":"levelo_inurba_marseille","lat":43.30304,"lon":5.41903,"is_reserved":false,"is_disabled":true,"rental_uris":{"android":"levelo://app?vid=4d4b63f8-c892-4cd8-b099-d41c0ed58ced","ios":"levelo://app?vid=4d4b63f8-c892-4cd8-b099-d41c0ed58ced"},"vehicle_type_id":"4","last_reported":1747840318,"current_range_meters":0,"station_id":"","pricing_plan_id":"cebpf4jnsgd1na2vs0mg"},{"bike_id":"e9dd3aa4-b5e7-4480-926d-d7f537719bfa","system_id":"levelo_inurba_marseille","lat":43.230331,"lon":5.401847,"is_reserved":false,"is_disabled":true,"rental_uris":{"android":"levelo://app?vid=e9dd3aa4-b5e7-4480-926d-d7f537719bfa","ios":"levelo://app?vid=e9dd3aa4-b5e7-4480-926d-d7f537719bfa"},"vehicle_type_id":"4","last_reported":1747840318,"current_range_meters":0,"station_id":"","pricing_plan_id":"cebpf4jnsgd1na2vs0mg"},{"bike_id":"14603e41-b2dd-4757-a53c-2e366aa4f983","system_id":"levelo_inurba_marseille","lat":43.27003,"lon":5.42837,"is_reserved":false,"is_disabled":true,"rental_uris":{"android":"levelo://app?vid=14603e41-b2dd-4757-a53c-2e366aa4f983","ios":"levelo://app?vid=14603e41-b2dd-4757-a53c-2e366aa4f983"},"vehicle_type_id":"4","last_reported":1747840318,"current_range_meters":0,"station_id":"","pricing_plan_id":"cebpf4jnsgd1na2vs0mg"},{"bike_id":"4c614f05-2780-448f-861f-6f662c63ebb9","system_id":"levelo_inurba_marseille","lat":43.29575,"lon":5.37529,"is_reserved":false,"is_disabled":true,"rental_uris":{"android":"levelo://app?vid=4c614f05-2780-448f-861f-6f662c63ebb9","ios":"levelo://app?vid=4c614f05-2780-448f-861f-6f662c63ebb9"},"vehicle_type_id":"4","last_reported":1747840318,"current_range_meters":0,"station_id":"ce4bgh92rcd13ifvqb50","pricing_plan_id":"cebpf4jnsgd1na2vs0mg"},{"bike_id":"80468fc5-d93d-4f51-b639-63397a02aea6","system_id":"levelo_inurba_marseille","lat":43.30151,"lon":5.38779,"is_reserved":false,"is_disabled":true,"rental_uris":{"android":"levelo://app?vid=80468fc5-d93d-4f51-b639-63397a02aea6","ios":"levelo://app?vid=80468fc5-d93d-4f51-b639-63397a02aea6"},"vehicle_type_id":"4","last_reported":1747840318,"current_range_meters":0,"station_id":"ce4bghh2rcd13ifvqb60","pricing_plan_id":"cebpf4jnsgd1na2vs0mg"},{"bike_id":"8d7331b1-973c-4f0c-8ac9-62c8cfdb80dc","system_id":"levelo_inurba_marseille","lat":43.29968,"lon":5.38499,"is_reserved":false,"is_disabled":true,"rental_uris":{"android":"levelo://app?vid=8d7331b1-973c-4f0c-8ac9-62c8cfdb80dc","ios":"levelo://app?vid=8d7331b1-973c-4f0c-8ac9-62c8cfdb80dc"},"vehicle_type_id":"4","last_reported":1747840318,"current_range_meters":0,"station_id":"ce4bgj92rcd13ifvqbd0","pricing_plan_id":"cebpf4jnsgd1na2vs0mg"},{"bike_id":"02fdb48a-1624-4a0d-8a28-f317f174a717","system_id":"levelo_inurba_marseille","lat":43.31328,"lon":5.39736,"is_reserved":false,"is_disabled":true,"rental_uris":{"android":"levelo://app?vid=02fdb48a-1624-4a0d-8a28-f317f174a717","ios":"levelo://app?vid=02fdb48a-1624-4a0d-8a28-f317f174a717"},"vehicle_type_id":"4","last_reported":1747840318,"current_range_meters":0,"station_id":"ce4bgvp2rcd13ifvqcu0","pricing_plan_id":"cebpf4jnsgd1na2vs0mg"},{"bike_id":"6ba8b51a-f827-44c6-b038-3247bfe228a6","system_id":"levelo_inurba_marseille","lat":43.28849,"lon":5.3932,"is_reserved":false,"is_disabled":true,"rental_uris":{"android":"levelo://app?vid=6ba8b51a-f827-44c6-b038-3247bfe228a6","ios":"levelo://app?vid=6ba8b51a-f827-44c6-b038-3247bfe228a6"},"vehicle_type_id":"4","last_reported":1747840318,"current_range_meters":0,"station_id":"ce4bh2p2rcd13ifvqdi0","pricing_plan_id":"cebpf4jnsgd1na2vs0mg"},{"bike_id":"7f48646d-f69a-473e-bfbf-744542298335","system_id":"levelo_inurba_marseille","lat":43.29522,"lon":5.39042,"is_reserved":false,"is_disabled":true,"rental_uris":{"android":"levelo://app?vid=7f48646d-f69a-473e-bfbf-744542298335","ios":"levelo://app?vid=7f48646d-f69a-473e-bfbf-744542298335"},"vehicle_type_id":"4","last_reported":1747840318,"current_range_meters":0,"station_id":"ce4bh3p2rcd13ifvqdp0","pricing_plan_id":"cebpf4jnsgd1na2vs0mg"},{"bike_id":"d9450bb1-ae7e-4d93-b96c-a6d63069b0b1","system_id":"levelo_inurba_marseille","lat":43.28491,"lon":5.37495,"is_reserved":false,"is_disabled":true,"rental_uris":{"android":"levelo://app?vid=d9450bb1-ae7e-4d93-b96c-a6d63069b0b1","ios":"levelo://app?vid=d9450bb1-ae7e-4d93-b96c-a6d63069b0b1"},"vehicle_type_id":"4","last_reported":1747840318,"current_range_meters":0,"station_id":"ce4bh412rcd13ifvqds0","pricing_plan_id":"cebpf4jnsgd1na2vs0mg"},{"bike_id":"55d3f1d4-a12b-4397-979e-f5e565f27e77","system_id":"levelo_inurba_marseille","lat":43.27381,"lon":5.36277,"is_reserved":false,"is_disabled":true,"rental_uris":{"android":"levelo://app?vid=55d3f1d4-a12b-4397-979e-f5e565f27e77","ios":"levelo://app?vid=55d3f1d4-a12b-4397-979e-f5e565f27e77"},"vehicle_type_id":"4","last_reported":1747840318,"current_range_meters":0,"station_id":"ce4bhbh2rcd13ifvqeo0","pricing_plan_id":"cebpf4jnsgd1na2vs0mg"},{"bike_id":"ad8b94a2-4715-47df-8aa7-8d51c2aad77a","system_id":"levelo_inurba_marseille","lat":43.28263,"lon":5.35066,"is_reserved":false,"is_disabled":true,"rental_uris":{"android":"levelo://app?vid=ad8b94a2-4715-47df-8aa7-8d51c2aad77a","ios":"levelo://app?vid=ad8b94a2-4715-47df-8aa7-8d51c2aad77a"},"vehicle_type_id":"4","last_reported":1747840318,"current_range_meters":0,"station_id":"ce4bhbp2rcd13ifvqerg","pricing_plan_id":"cebpf4jnsgd1na2vs0mg"},{"bike_id":"81f1a30a-cafd-4b65-a0dc-73f368077e5e","system_id":"levelo_inurba_marseille","lat":43.26572,"lon":5.39012,"is_reserved":false,"is_disabled":true,"rental_uris":{"android":"levelo://app?vid=81f1a30a-cafd-4b65-a0dc-73f368077e5e","ios":"levelo://app?vid=81f1a30a-cafd-4b65-a0dc-73f368077e5e"},"vehicle_type_id":"4","last_reported":1747840318,"current_range_meters":0,"station_id":"ce4bhe12rcd13ifvqf30","pricing_plan_id":"cebpf4jnsgd1na2vs0mg"},{"bike_id":"615c5deb-350b-4439-a91a-86bd3574ba46","system_id":"levelo_inurba_marseille","lat":43.2658,"lon":5.39043,"is_reserved":false,"is_disabled":true,"rental_uris":{"android":"levelo://app?vid=615c5deb-350b-4439-a91a-86bd3574ba46","ios":"levelo://app?vid=615c5deb-350b-4439-a91a-86bd3574ba46"},"vehicle_type_id":"4","last_reported":1747840318,"current_range_meters":0,"station_id":"ce4bhe12rcd13ifvqf30","pricing_plan_id":"cebpf4jnsgd1na2vs0mg"},{"bike_id":"b409caf7-9481-4143-a90d-ff66c61be3e8","system_id":"levelo_inurba_marseille","lat":43.2622,"lon":5.3744,"is_reserved":false,"is_disabled":true,"rental_uris":{"android":"levelo://app?vid=b409caf7-9481-4143-a90d-ff66c61be3e8","ios":"levelo://app?vid=b409caf7-9481-4143-a90d-ff66c61be3e8"},"vehicle_type_id":"4","last_reported":1747840318,"current_range_meters":0,"station_id":"ce4bhgp2rcd13ifvqfc0","pricing_plan_id":"cebpf4jnsgd1na2vs0mg"},{"bike_id":"06a5807e-e296-42ca-8b94-8b108b0a1235","system_id":"levelo_inurba_marseille","lat":43.27315,"lon":5.39081,"is_reserved":false,"is_disabled":true,"rental_uris":{"android":"levelo://app?vid=06a5807e-e296-42ca-8b94-8b108b0a1235","ios":"levelo://app?vid=06a5807e-e296-42ca-8b94-8b108b0a1235"},"vehicle_type_id":"4","last_reported":1747840318,"current_range_meters":0,"station_id":"ce4bhgp2rcd13ifvqfe0","pricing_plan_id":"cebpf4jnsgd1na2vs0mg"},{"bike_id":"aa87f238-22c4-4626-b695-30c58c60fe46","system_id":"levelo_inurba_marseille","lat":43.24397,"lon":5.37054,"is_reserved":false,"is_disabled":true,"rental_uris":{"android":"levelo://app?vid=aa87f238-22c4-4626-b695-30c58c60fe46","ios":"levelo://app?vid=aa87f238-22c4-4626-b695-30c58c60fe46"},"vehicle_type_id":"4","last_reported":1747840318,"current_range_meters":0,"station_id":"ce4bhhh2rcd13ifvqfk0","pricing_plan_id":"cebpf4jnsgd1na2vs0mg"},{"bike_id":"c526a1b8-3241-4350-bcdc-a9dd8ac93a27","system_id":"levelo_inurba_marseille","lat":43.24393,"lon":5.37067,"is_reserved":false,"is_disabled":true,"rental_uris":{"android":"levelo://app?vid=c526a1b8-3241-4350-bcdc-a9dd8ac93a27","ios":"levelo://app?vid=c526a1b8-3241-4350-bcdc-a9dd8ac93a27"},"vehicle_type_id":"4","last_reported":1747840318,"current_range_meters":0,"station_id":"ce4bhhh2rcd13ifvqfk0","pricing_plan_id":"cebpf4jnsgd1na2vs0mg"},{"bike_id":"5afc3df1-e06d-4225-887f-a5ebdb8ffe64","system_id":"levelo_inurba_marseille","lat":43.25587,"lon":5.38214,"is_reserved":false,"is_disabled":true,"rental_uris":{"android":"levelo://app?vid=5afc3df1-e06d-4225-887f-a5ebdb8ffe64","ios":"levelo://app?vid=5afc3df1-e06d-4225-887f-a5ebdb8ffe64"},"vehicle_type_id":"4","last_reported":1747840318,"current_range_meters":0,"station_id":"ce4bhih2rcd13ifvqfs0","pricing_plan_id":"cebpf4jnsgd1na2vs0mg"},{"bike_id":"64f4508e-ce2b-4ed9-b975-63f8e1ebfa88","system_id":"levelo_inurba_marseille","lat":43.25562,"lon":5.38252,"is_reserved":false,"is_disabled":true,"rental_uris":{"android":"levelo://app?vid=64f4508e-ce2b-4ed9-b975-63f8e1ebfa88","ios":"levelo://app?vid=64f4508e-ce2b-4ed9-b975-63f8e1ebfa88"},"vehicle_type_id":"4","last_reported":1747840318,"current_range_meters":0,"station_id":"ce4bhih2rcd13ifvqfs0","pricing_plan_id":"cebpf4jnsgd1na2vs0mg"},{"bike_id":"45f37603-3898-458f-b46f-7d9146835564","system_id":"levelo_inurba_marseille","lat":43.27051,"lon":5.40269,"is_reserved":false,"is_disabled":true,"rental_uris":{"android":"levelo://app?vid=45f37603-3898-458f-b46f-7d9146835564","ios":"levelo://app?vid=45f37603-3898-458f-b46f-7d9146835564"},"vehicle_type_id":"4","last_reported":1747840318,"current_range_meters":0,"station_id":"ce4bhk92rcd13ifvqgc0","pricing_plan_id":"cebpf4jnsgd1na2vs0mg"},{"bike_id":"71a9fe80-598e-44e1-83a4-d9c144513111","system_id":"levelo_inurba_marseille","lat":43.23151,"lon":5.43726,"is_reserved":false,"is_disabled":true,"rental_uris":{"android":"levelo://app?vid=71a9fe80-598e-44e1-83a4-d9c144513111","ios":"levelo://app?vid=71a9fe80-598e-44e1-83a4-d9c144513111"},"vehicle_type_id":"4","last_reported":1747840318,"current_range_meters":0,"station_id":"ce4bhmp2rcd13ifvqgog","pricing_plan_id":"cebpf4jnsgd1na2vs0mg"},{"bike_id":"189e4c26-806b-4034-8001-d912e4910d85","system_id":"levelo_inurba_marseille","lat":43.23195,"lon":5.35554,"is_reserved":false,"is_disabled":true,"rental_uris":{"android":"levelo://app?vid=189e4c26-806b-4034-8001-d912e4910d85","ios":"levelo://app?vid=189e4c26-806b-4034-8001-d912e4910d85"},"vehicle_type_id":"4","last_reported":1747840318,"current_range_meters":0,"station_id":"ce4bhu92rcd13ifvqi70","pricing_plan_id":"cebpf4jnsgd1na2vs0mg"},{"bike_id":"6cdc5ac2-4b23-46ea-b359-4d981cdf1ca1","system_id":"levelo_inurba_marseille","lat":43.268163,"lon":5.402362,"is_reserved":false,"is_disabled":true,"rental_uris":{"android":"levelo://app?vid=6cdc5ac2-4b23-46ea-b359-4d981cdf1ca1","ios":"levelo://app?vid=6cdc5ac2-4b23-46ea-b359-4d981cdf1ca1"},"vehicle_type_id":"4","last_reported":1747840318,"current_range_meters":0,"station_id":"ce501612rcd8frsf0b60","pricing_plan_id":"cebpf4jnsgd1na2vs0mg"},{"bike_id":"8dc2ce6e-fd52-4eac-81ab-537a1edf2cce","system_id":"levelo_inurba_marseille","lat":43.24173,"lon":5.36411,"is_reserved":false,"is_disabled":true,"rental_uris":{"android":"levelo://app?vid=8dc2ce6e-fd52-4eac-81ab-537a1edf2cce","ios":"levelo://app?vid=8dc2ce6e-fd52-4eac-81ab-537a1edf2cce"},"vehicle_type_id":"4","last_reported":1747840318,"current_range_meters":0,"station_id":"cpo36qri1sfpv3e86is0","pricing_plan_id":"cebpf4jnsgd1na2vs0mg"},{"bike_id":"20bee342-4a3f-4f34-940d-bb6cf00d52ae","system_id":"levelo_inurba_marseille","lat":43.26668,"lon":5.386,"is_reserved":false,"is_disabled":true,"rental_uris":{"android":"levelo://app?vid=20bee342-4a3f-4f34-940d-bb6cf00d52ae","ios":"levelo://app?vid=20bee342-4a3f-4f34-940d-bb6cf00d52ae"},"vehicle_type_id":"4","last_reported":1747840318,"current_range_meters":400,"station_id":"","pricing_plan_id":"cebpf4jnsgd1na2vs0mg"},{"bike_id":"cfdbf9ea-fe43-4734-b465-744a84c08df5","system_id":"levelo_inurba_marseille","lat":43.27952,"lon":5.38669,"is_reserved":false,"is_disabled":true,"rental_uris":{"android":"levelo://app?vid=cfdbf9ea-fe43-4734-b465-744a84c08df5","ios":"levelo://app?vid=cfdbf9ea-fe43-4734-b465-744a84c08df5"},"vehicle_type_id":"4","last_reported":1747840318,"current_range_meters":400,"station_id":"","pricing_plan_id":"cebpf4jnsgd1na2vs0mg"},{"bike_id":"e6d71b39-9294-497c-8cd8-438edf324896","system_id":"levelo_inurba_marseille","lat":43.28674,"lon":5.38651,"is_reserved":false,"is_disabled":true,"rental_uris":{"android":"levelo://app?vid=e6d71b39-9294-497c-8cd8-438edf324896","ios":"levelo://app?vid=e6d71b39-9294-497c-8cd8-438edf324896"},"vehicle_type_id":"4","last_reported":1747840318,"current_range_meters":400,"station_id":"ce4bh492rcd13ifvqdug","pricing_plan_id":"cebpf4jnsgd1na2vs0mg"},{"bike_id":"fe160abe-83a7-42e2-ba20-3a1ac1db7bc0","system_id":"levelo_inurba_marseille","lat":43.26024,"lon":5.37562,"is_reserved":false,"is_disabled":true,"rental_uris":{"android":"levelo://app?vid=fe160abe-83a7-42e2-ba20-3a1ac1db7bc0","ios":"levelo://app?vid=fe160abe-83a7-42e2-ba20-3a1ac1db7bc0"},"vehicle_type_id":"4","last_reported":1747840318,"current_range_meters":400,"station_id":"ce4bhgh2rcd13ifvqfa0","pricing_plan_id":"cebpf4jnsgd1na2vs0mg"},{"bike_id":"cf316d46-f443-47fa-9be8-0b14ac92a6ea","system_id":"levelo_inurba_marseille","lat":43.29557,"lon":5.42298,"is_reserved":false,"is_disabled":true,"rental_uris":{"android":"levelo://app?vid=cf316d46-f443-47fa-9be8-0b14ac92a6ea","ios":"levelo://app?vid=cf316d46-f443-47fa-9be8-0b14ac92a6ea"},"vehicle_type_id":"4","last_reported":1747840318,"current_range_meters":400,"station_id":"ce4bhph2rcd13ifvqhdg","pricing_plan_id":"cebpf4jnsgd1na2vs0mg"},{"bike_id":"7ef0aeb4-1908-44ae-ac3a-839b08df87d3","system_id":"levelo_inurba_marseille","lat":43.22931,"lon":5.35378,"is_reserved":false,"is_disabled":true,"rental_uris":{"android":"levelo://app?vid=7ef0aeb4-1908-44ae-ac3a-839b08df87d3","ios":"levelo://app?vid=7ef0aeb4-1908-44ae-ac3a-839b08df87d3"},"vehicle_type_id":"4","last_reported":1747840318,"current_range_meters":400,"station_id":"cpo3532slgdg3j2ikp40","pricing_plan_id":"cebpf4jnsgd1na2vs0mg"},{"bike_id":"da9b7a15-aa6d-4e60-9ce8-000c8668ba11","system_id":"levelo_inurba_marseille","lat":43.3014,"lon":5.38779,"is_reserved":false,"is_disabled":true,"rental_uris":{"android":"levelo://app?vid=da9b7a15-aa6d-4e60-9ce8-000c8668ba11","ios":"levelo://app?vid=da9b7a15-aa6d-4e60-9ce8-000c8668ba11"},"vehicle_type_id":"4","last_reported":1747840318,"current_range_meters":800,"station_id":"ce4bghh2rcd13ifvqb60","pricing_plan_id":"cebpf4jnsgd1na2vs0mg"},{"bike_id":"607951c1-6ed1-42ae-ad4e-8fc7c073b4cd","system_id":"levelo_inurba_marseille","lat":43.30436,"lon":5.38893,"is_reserved":false,"is_disabled":true,"rental_uris":{"android":"levelo://app?vid=607951c1-6ed1-42ae-ad4e-8fc7c073b4cd","ios":"levelo://app?vid=607951c1-6ed1-42ae-ad4e-8fc7c073b4cd"},"vehicle_type_id":"4","last_reported":1747840318,"current_range_meters":800,"station_id":"ce4bgk12rcd13ifvqbi0","pricing_plan_id":"cebpf4jnsgd1na2vs0mg"},{"bike_id":"1c358c48-395c-4aa7-92d1-c5e76e1dd194","system_id":"levelo_inurba_marseille","lat":43.30912,"lon":5.36842,"is_reserved":false,"is_disabled":true,"rental_uris":{"android":"levelo://app?vid=1c358c48-395c-4aa7-92d1-c5e76e1dd194","ios":"levelo://app?vid=1c358c48-395c-4aa7-92d1-c5e76e1dd194"},"vehicle_type_id":"4","last_reported":1747840318,"current_range_meters":800,"station_id":"ce4bgn92rcd13ifvqbvg","pricing_plan_id":"cebpf4jnsgd1na2vs0mg"},{"bike_id":"eeb779ad-4e40-464f-9c50-85aaa9ad2114","system_id":"levelo_inurba_marseille","lat":43.29277,"lon":5.36847,"is_reserved":false,"is_disabled":true,"rental_uris":{"android":"levelo://app?vid=eeb779ad-4e40-464f-9c50-85aaa9ad2114","ios":"levelo://app?vid=eeb779ad-4e40-464f-9c50-85aaa9ad2114"},"vehicle_type_id":"4","last_reported":1747840318,"current_range_meters":800,"station_id":"ce4bhbp2rcd13ifvqesg","pricing_plan_id":"cebpf4jnsgd1na2vs0mg"},{"bike_id":"ad8297a0-4cfe-4516-a903-de41e51255b7","system_id":"levelo_inurba_marseille","lat":43.26216,"lon":5.3743,"is_reserved":false,"is_disabled":true,"rental_uris":{"android":"levelo://app?vid=ad8297a0-4cfe-4516-a903-de41e51255b7","ios":"levelo://app?vid=ad8297a0-4cfe-4516-a903-de41e51255b7"},"vehicle_type_id":"4","last_reported":1747840318,"current_range_meters":800,"station_id":"ce4bhgp2rcd13ifvqfc0","pricing_plan_id":"cebpf4jnsgd1na2vs0mg"},{"bike_id":"665783c5-011d-4284-98b0-887be063f38e","system_id":"levelo_inurba_marseille","lat":43.27869,"lon":5.39222,"is_reserved":false,"is_disabled":true,"rental_uris":{"android":"levelo://app?vid=665783c5-011d-4284-98b0-887be063f38e","ios":"levelo://app?vid=665783c5-011d-4284-98b0-887be063f38e"},"vehicle_type_id":"4","last_reported":1747840318,"current_range_meters":800,"station_id":"ce4bhjp2rcd13ifvqga0","pricing_plan_id":"cebpf4jnsgd1na2vs0mg"},{"bike_id":"68968f6d-aca7-464d-b4fb-e3fa8c2ff34d","system_id":"levelo_inurba_marseille","lat":43.30279,"lon":5.37708,"is_reserved":false,"is_disabled":true,"rental_uris":{"android":"levelo://app?vid=68968f6d-aca7-464d-b4fb-e3fa8c2ff34d","ios":"levelo://app?vid=68968f6d-aca7-464d-b4fb-e3fa8c2ff34d"},"vehicle_type_id":"4","last_reported":1747840318,"current_range_meters":1200,"station_id":"ce4bguh2rcd13ifvqcj0","pricing_plan_id":"cebpf4jnsgd1na2vs0mg"},{"bike_id":"7ba5f516-6781-4640-8eef-6ba4a092ba8b","system_id":"levelo_inurba_marseille","lat":43.30151,"lon":5.39874,"is_reserved":false,"is_disabled":true,"rental_uris":{"android":"levelo://app?vid=7ba5f516-6781-4640-8eef-6ba4a092ba8b","ios":"levelo://app?vid=7ba5f516-6781-4640-8eef-6ba4a092ba8b"},"vehicle_type_id":"4","last_reported":1747840318,"current_range_meters":1200,"station_id":"ce4bh0h2rcd13ifvqd40","pricing_plan_id":"cebpf4jnsgd1na2vs0mg"},{"bike_id":"b4a77094-9f9c-4c61-89c0-f926042e6c8b","system_id":"levelo_inurba_marseille","lat":43.28933,"lon":5.38406,"is_reserved":false,"is_disabled":true,"rental_uris":{"android":"levelo://app?vid=b4a77094-9f9c-4c61-89c0-f926042e6c8b","ios":"levelo://app?vid=b4a77094-9f9c-4c61-89c0-f926042e6c8b"},"vehicle_type_id":"4","last_reported":1747840318,"current_range_meters":1200,"station_id":"ce4bh612rcd13ifvqe6g","pricing_plan_id":"cebpf4jnsgd1na2vs0mg"},{"bike_id":"33d3bbc7-12de-4e0f-8a1a-6ea61f51c09d","system_id":"levelo_inurba_marseille","lat":43.280327,"lon":5.369428,"is_reserved":false,"is_disabled":true,"rental_uris":{"android":"levelo://app?vid=33d3bbc7-12de-4e0f-8a1a-6ea61f51c09d","ios":"levelo://app?vid=33d3bbc7-12de-4e0f-8a1a-6ea61f51c09d"},"vehicle_type_id":"4","last_reported":1747840318,"current_range_meters":1200,"station_id":"ce4bha12rcd13ifvqef0","pricing_plan_id":"cebpf4jnsgd1na2vs0mg"},{"bike_id":"4c60e0b1-7dd0-48c5-a400-63882655990c","system_id":"levelo_inurba_marseille","lat":43.28269,"lon":5.35065,"is_reserved":false,"is_disabled":true,"rental_uris":{"android":"levelo://app?vid=4c60e0b1-7dd0-48c5-a400-63882655990c","ios":"levelo://app?vid=4c60e0b1-7dd0-48c5-a400-63882655990c"},"vehicle_type_id":"4","last_reported":1747840318,"current_range_meters":1200,"station_id":"ce4bhbp2rcd13ifvqerg","pricing_plan_id":"cebpf4jnsgd1na2vs0mg"},{"bike_id":"b38cf2cf-5836-4b73-81b9-05bd50d0f774","system_id":"levelo_inurba_marseille","lat":43.2655,"lon":5.373,"is_reserved":false,"is_disabled":true,"rental_uris":{"android":"levelo://app?vid=b38cf2cf-5836-4b73-81b9-05bd50d0f774","ios":"levelo://app?vid=b38cf2cf-5836-4b73-81b9-05bd50d0f774"},"vehicle_type_id":"4","last_reported":1747840318,"current_range_meters":1200,"station_id":"ce4bhg12rcd13ifvqf70","pricing_plan_id":"cebpf4jnsgd1na2vs0mg"},{"bike_id":"ba59102a-6c47-4600-bcb9-76e5920c2815","system_id":"levelo_inurba_marseille","lat":43.31353,"lon":5.37211,"is_reserved":false,"is_disabled":true,"rental_uris":{"android":"levelo://app?vid=ba59102a-6c47-4600-bcb9-76e5920c2815","ios":"levelo://app?vid=ba59102a-6c47-4600-bcb9-76e5920c2815"},"vehicle_type_id":"4","last_reported":1747840318,"current_range_meters":1600,"station_id":"","pricing_plan_id":"cebpf4jnsgd1na2vs0mg"},{"bike_id":"59522017-1431-4296-8ae4-425d8b3c3c42","system_id":"levelo_inurba_marseille","lat":43.30312,"lon":5.392,"is_reserved":false,"is_disabled":true,"rental_uris":{"android":"levelo://app?vid=59522017-1431-4296-8ae4-425d8b3c3c42","ios":"levelo://app?vid=59522017-1431-4296-8ae4-425d8b3c3c42"},"vehicle_type_id":"4","last_reported":1747840318,"current_range_meters":1600,"station_id":"ce4bgkh2rcd13ifvqbk0","pricing_plan_id":"cebpf4jnsgd1na2vs0mg"},{"bike_id":"159ef201-618f-4281-981a-32245dc0431a","system_id":"levelo_inurba_marseille","lat":43.297138,"lon":5.376973,"is_reserved":false,"is_disabled":false,"rental_uris":{"android":"levelo://app?vid=159ef201-618f-4281-981a-32245dc0431a","ios":"levelo://app?vid=159ef201-618f-4281-981a-32245dc0431a"},"vehicle_type_id":"4","last_reported":1747840318,"current_range_meters":1600,"station_id":"ce4bgkh2rcd13ifvqbl0","pricing_plan_id":"cebpf4jnsgd1na2vs0mg"},{"bike_id":"574534a8-1c21-4a1b-9357-147232daf183","system_id":"levelo_inurba_marseille","lat":43.2804,"lon":5.3695,"is_reserved":false,"is_disabled":true,"rental_uris":{"android":"levelo://app?vid=574534a8-1c21-4a1b-9357-147232daf183","ios":"levelo://app?vid=574534a8-1c21-4a1b-9357-147232daf183"},"vehicle_type_id":"4","last_reported":1747840318,"current_range_meters":1600,"station_id":"ce4bha12rcd13ifvqef0","pricing_plan_id":"cebpf4jnsgd1na2vs0mg"},{"bike_id":"e095f6bc-5eac-44bf-be2b-558cc20127e5","system_id":"levelo_inurba_marseille","lat":43.27376,"lon":5.36264,"is_reserved":false,"is_disabled":true,"rental_uris":{"android":"levelo://app?vid=e095f6bc-5eac-44bf-be2b-558cc20127e5","ios":"levelo://app?vid=e095f6bc-5eac-44bf-be2b-558cc20127e5"},"vehicle_type_id":"4","last_reported":1747840318,"current_range_meters":1600,"station_id":"ce4bhbh2rcd13ifvqeo0","pricing_plan_id":"cebpf4jnsgd1na2vs0mg"},{"bike_id":"6bba9dca-2304-4a7b-b834-6c455d3abc34","system_id":"levelo_inurba_marseille","lat":43.25499,"lon":5.3765,"is_reserved":false,"is_disabled":true,"rental_uris":{"android":"levelo://app?vid=6bba9dca-2304-4a7b-b834-6c455d3abc34","ios":"levelo://app?vid=6bba9dca-2304-4a7b-b834-6c455d3abc34"},"vehicle_type_id":"4","last_reported":1747840318,"current_range_meters":1600,"station_id":"ce4bhh12rcd13ifvqff0","pricing_plan_id":"cebpf4jnsgd1na2vs0mg"},{"bike_id":"bd78bb48-2620-48d3-a77d-231bfa048780","system_id":"levelo_inurba_marseille","lat":43.28,"lon":5.40021,"is_reserved":false,"is_disabled":true,"rental_uris":{"android":"levelo://app?vid=bd78bb48-2620-48d3-a77d-231bfa048780","ios":"levelo://app?vid=bd78bb48-2620-48d3-a77d-231bfa048780"},"vehicle_type_id":"4","last_reported":1747840318,"current_range_meters":1600,"station_id":"ce4bho92rcd13ifvqh4g","pricing_plan_id":"cebpf4jnsgd1na2vs0mg"},{"bike_id":"e5d61907-3299-4697-b044-0d36524dfec7","system_id":"levelo_inurba_marseille","lat":43.32287,"lon":5.38284,"is_reserved":false,"is_disabled":true,"rental_uris":{"android":"levelo://app?vid=e5d61907-3299-4697-b044-0d36524dfec7","ios":"levelo://app?vid=e5d61907-3299-4697-b044-0d36524dfec7"},"vehicle_type_id":"4","last_reported":1747840318,"current_range_meters":1600,"station_id":"ce4bhr12rcd13ifvqhqg","pricing_plan_id":"cebpf4jnsgd1na2vs0mg"},{"bike_id":"73e32e13-479b-429a-a1bf-7f82ffa5bc8c","system_id":"levelo_inurba_marseille","lat":43.297117,"lon":5.376945,"is_reserved":false,"is_disabled":false,"rental_uris":{"android":"levelo://app?vid=73e32e13-479b-429a-a1bf-7f82ffa5bc8c","ios":"levelo://app?vid=73e32e13-479b-429a-a1bf-7f82ffa5bc8c"},"vehicle_type_id":"4","last_reported":1747840318,"current_range_meters":2000,"station_id":"ce4bgkh2rcd13ifvqbl0","pricing_plan_id":"cebpf4jnsgd1na2vs0mg"},{"bike_id":"94536d98-5241-40bb-80ea-1485ea8fd54f","system_id":"levelo_inurba_marseille","lat":43.31367,"lon":5.38493,"is_reserved":false,"is_disabled":true,"rental_uris":{"android":"levelo://app?vid=94536d98-5241-40bb-80ea-1485ea8fd54f","ios":"levelo://app?vid=94536d98-5241-40bb-80ea-1485ea8fd54f"},"vehicle_type_id":"4","last_reported":1747840318,"current_range_meters":2000,"station_id":"ce4bgt92rcd13ifvqcf0","pricing_plan_id":"cebpf4jnsgd1na2vs0mg"},{"bike_id":"813cb34e-5fff-4efe-9b2b-d7b632822a72","system_id":"levelo_inurba_marseille","lat":43.3108,"lon":5.38363,"is_reserved":false,"is_disabled":true,"rental_uris":{"android":"levelo://app?vid=813cb34e-5fff-4efe-9b2b-d7b632822a72","ios":"levelo://app?vid=813cb34e-5fff-4efe-9b2b-d7b632822a72"},"vehicle_type_id":"4","last_reported":1747840318,"current_range_meters":2000,"station_id":"ce4bgv92rcd13ifvqcr0","pricing_plan_id":"cebpf4jnsgd1na2vs0mg"},{"bike_id":"734b0351-a092-4a2f-a229-66c42eda518e","system_id":"levelo_inurba_marseille","lat":43.2481,"lon":5.37475,"is_reserved":false,"is_disabled":true,"rental_uris":{"android":"levelo://app?vid=734b0351-a092-4a2f-a229-66c42eda518e","ios":"levelo://app?vid=734b0351-a092-4a2f-a229-66c42eda518e"},"vehicle_type_id":"4","last_reported":1747840318,"current_range_meters":2000,"station_id":"ce4bhgh2rcd13ifvqfb0","pricing_plan_id":"cebpf4jnsgd1na2vs0mg"},{"bike_id":"94094ee2-a03a-4ba1-985e-cd8b5aea0f02","system_id":"levelo_inurba_marseille","lat":43.258236,"lon":5.394378,"is_reserved":false,"is_disabled":true,"rental_uris":{"android":"levelo://app?vid=94094ee2-a03a-4ba1-985e-cd8b5aea0f02","ios":"levelo://app?vid=94094ee2-a03a-4ba1-985e-cd8b5aea0f02"},"vehicle_type_id":"4","last_reported":1747840318,"current_range_meters":2000,"station_id":"ce4bhip2rcd13ifvqft0","pricing_plan_id":"cebpf4jnsgd1na2vs0mg"},{"bike_id":"8e933964-e2e2-4bc2-b96f-a2bd01d4756a","system_id":"levelo_inurba_marseille","lat":43.23183,"lon":5.39997,"is_reserved":false,"is_disabled":true,"rental_uris":{"android":"levelo://app?vid=8e933964-e2e2-4bc2-b96f-a2bd01d4756a","ios":"levelo://app?vid=8e933964-e2e2-4bc2-b96f-a2bd01d4756a"},"vehicle_type_id":"4","last_reported":1747840318,"current_range_meters":2000,"station_id":"ce4bhn12rcd13ifvqgqg","pricing_plan_id":"cebpf4jnsgd1na2vs0mg"},{"bike_id":"8f0f531d-6a65-4647-8a6f-baa3d982f42f","system_id":"levelo_inurba_marseille","lat":43.28144,"lon":5.42556,"is_reserved":false,"is_disabled":false,"rental_uris":{"android":"levelo://app?vid=8f0f531d-6a65-4647-8a6f-baa3d982f42f","ios":"levelo://app?vid=8f0f531d-6a65-4647-8a6f-baa3d982f42f"},"vehicle_type_id":"4","last_reported":1747840318,"current_range_meters":2800,"station_id":"","pricing_plan_id":"cebpf4jnsgd1na2vs0mg"},{"bike_id":"a5bcf3ab-5daa-4dec-898b-27b2e944e103","system_id":"levelo_inurba_marseille","lat":43.27289,"lon":5.41036,"is_reserved":false,"is_disabled":false,"rental_uris":{"android":"levelo://app?vid=a5bcf3ab-5daa-4dec-898b-27b2e944e103","ios":"levelo://app?vid=a5bcf3ab-5daa-4dec-898b-27b2e944e103"},"vehicle_type_id":"4","last_reported":1747840318,"current_range_meters":2800,"station_id":"","pricing_plan_id":"cebpf4jnsgd1na2vs0mg"},{"bike_id":"f2a89518-e135-49f0-80f6-64c10c68de49","system_id":"levelo_inurba_marseille","lat":43.30784,"lon":5.37649,"is_reserved":false,"is_disabled":false,"rental_uris":{"android":"levelo://app?vid=f2a89518-e135-49f0-80f6-64c10c68de49","ios":"levelo://app?vid=f2a89518-e135-49f0-80f6-64c10c68de49"},"vehicle_type_id":"4","last_reported":1747840318,"current_range_meters":2800,"station_id":"ce4bgv92rcd13ifvqcq0","pricing_plan_id":"cebpf4jnsgd1na2vs0mg"},{"bike_id":"08fa2d38-2174-4516-984a-f6b18417d67a","system_id":"levelo_inurba_marseille","lat":43.26558,"lon":5.37317,"is_reserved":false,"is_disabled":false,"rental_uris":{"android":"levelo://app?vid=08fa2d38-2174-4516-984a-f6b18417d67a","ios":"levelo://app?vid=08fa2d38-2174-4516-984a-f6b18417d67a"},"vehicle_type_id":"4","last_reported":1747840318,"current_range_meters":2800,"station_id":"ce4bhg12rcd13ifvqf70","pricing_plan_id":"cebpf4jnsgd1na2vs0mg"},{"bike_id":"b6ad5d44-12e7-4d72-b51f-88cbe5ee3791","system_id":"levelo_inurba_marseille","lat":43.26946,"lon":5.40252,"is_reserved":false,"is_disabled":false,"rental_uris":{"android":"levelo://app?vid=b6ad5d44-12e7-4d72-b51f-88cbe5ee3791","ios":"levelo://app?vid=b6ad5d44-12e7-4d72-b51f-88cbe5ee3791"},"vehicle_type_id":"4","last_reported":1747840318,"current_range_meters":2800,"station_id":"cjm6bp8fraef2m0cb0m0","pricing_plan_id":"cebpf4jnsgd1na2vs0mg"},{"bike_id":"9144639c-c68a-430e-934d-4f00485e1ded","system_id":"levelo_inurba_marseille","lat":43.28037,"lon":5.36954,"is_reserved":false,"is_disabled":false,"rental_uris":{"android":"levelo://app?vid=9144639c-c68a-430e-934d-4f00485e1ded","ios":"levelo://app?vid=9144639c-c68a-430e-934d-4f00485e1ded"},"vehicle_type_id":"4","last_reported":1747840318,"current_range_meters":3200,"station_id":"ce4bha12rcd13ifvqef0","pricing_plan_id":"cebpf4jnsgd1na2vs0mg"},{"bike_id":"c4aa60a5-89ce-42ae-aedd-fe9dd2cb80d9","system_id":"levelo_inurba_marseille","lat":43.24393,"lon":5.37066,"is_reserved":false,"is_disabled":false,"rental_uris":{"android":"levelo://app?vid=c4aa60a5-89ce-42ae-aedd-fe9dd2cb80d9","ios":"levelo://app?vid=c4aa60a5-89ce-42ae-aedd-fe9dd2cb80d9"},"vehicle_type_id":"4","last_reported":1747840318,"current_range_meters":3200,"station_id":"ce4bhhh2rcd13ifvqfk0","pricing_plan_id":"cebpf4jnsgd1na2vs0mg"},{"bike_id":"792405ed-8448-4a1a-a299-b5321f2ffe09","system_id":"levelo_inurba_marseille","lat":43.24665,"lon":5.38173,"is_reserved":false,"is_disabled":false,"rental_uris":{"android":"levelo://app?vid=792405ed-8448-4a1a-a299-b5321f2ffe09","ios":"levelo://app?vid=792405ed-8448-4a1a-a299-b5321f2ffe09"},"vehicle_type_id":"4","last_reported":1747840318,"current_range_meters":3200,"station_id":"ce4bhih2rcd13ifvqfr0","pricing_plan_id":"cebpf4jnsgd1na2vs0mg"},{"bike_id":"562da3fe-cb52-415c-a25c-a73818299540","system_id":"levelo_inurba_marseille","lat":43.24566,"lon":5.39544,"is_reserved":false,"is_disabled":false,"rental_uris":{"android":"levelo://app?vid=562da3fe-cb52-415c-a25c-a73818299540","ios":"levelo://app?vid=562da3fe-cb52-415c-a25c-a73818299540"},"vehicle_type_id":"4","last_reported":1747840318,"current_range_meters":3200,"station_id":"ce4bhlp2rcd13ifvqgjg","pricing_plan_id":"cebpf4jnsgd1na2vs0mg"},{"bike_id":"85eaca89-9437-48d0-9bca-a254337b88db","system_id":"levelo_inurba_marseille","lat":43.2746,"lon":5.40997,"is_reserved":false,"is_disabled":false,"rental_uris":{"android":"levelo://app?vid=85eaca89-9437-48d0-9bca-a254337b88db","ios":"levelo://app?vid=85eaca89-9437-48d0-9bca-a254337b88db"},"vehicle_type_id":"4","last_reported":1747840318,"current_range_meters":3600,"station_id":"","pricing_plan_id":"cebpf4jnsgd1na2vs0mg"},{"bike_id":"70ebbeb2-03fd-44ad-bfbf-19d54056e225","system_id":"levelo_inurba_marseille","lat":43.29013,"lon":5.3562,"is_reserved":false,"is_disabled":false,"rental_uris":{"android":"levelo://app?vid=70ebbeb2-03fd-44ad-bfbf-19d54056e225","ios":"levelo://app?vid=70ebbeb2-03fd-44ad-bfbf-19d54056e225"},"vehicle_type_id":"4","last_reported":1747840318,"current_range_meters":3600,"station_id":"ce4bhb92rcd13ifvqen0","pricing_plan_id":"cebpf4jnsgd1na2vs0mg"},{"bike_id":"14d648ee-7500-437b-9019-56c1e2457eb2","system_id":"levelo_inurba_marseille","lat":43.27376,"lon":5.36275,"is_reserved":false,"is_disabled":false,"rental_uris":{"android":"levelo://app?vid=14d648ee-7500-437b-9019-56c1e2457eb2","ios":"levelo://app?vid=14d648ee-7500-437b-9019-56c1e2457eb2"},"vehicle_type_id":"4","last_reported":1747840318,"current_range_meters":3600,"station_id":"ce4bhbh2rcd13ifvqeo0","pricing_plan_id":"cebpf4jnsgd1na2vs0mg"},{"bike_id":"35f4f27b-865c-4da1-9bad-e26db9f7ba5f","system_id":"levelo_inurba_marseille","lat":43.25564,"lon":5.38279,"is_reserved":false,"is_disabled":false,"rental_uris":{"android":"levelo://app?vid=35f4f27b-865c-4da1-9bad-e26db9f7ba5f","ios":"levelo://app?vid=35f4f27b-865c-4da1-9bad-e26db9f7ba5f"},"vehicle_type_id":"4","last_reported":1747840318,"current_range_meters":3600,"station_id":"ce4bhih2rcd13ifvqfs0","pricing_plan_id":"cebpf4jnsgd1na2vs0mg"},{"bike_id":"ea8f4f32-78db-422a-9e14-a78887cdebbe","system_id":"levelo_inurba_marseille","lat":43.26219,"lon":5.40415,"is_reserved":false,"is_disabled":false,"rental_uris":{"android":"levelo://app?vid=ea8f4f32-78db-422a-9e14-a78887cdebbe","ios":"levelo://app?vid=ea8f4f32-78db-422a-9e14-a78887cdebbe"},"vehicle_type_id":"4","last_reported":1747840318,"current_range_meters":3600,"station_id":"ce4bhmh2rcd13ifvqgmg","pricing_plan_id":"cebpf4jnsgd1na2vs0mg"},{"bike_id":"854cdc8c-41a0-4700-bd27-69101d35f518","system_id":"levelo_inurba_marseille","lat":43.29225,"lon":5.36058,"is_reserved":false,"is_disabled":false,"rental_uris":{"android":"levelo://app?vid=854cdc8c-41a0-4700-bd27-69101d35f518","ios":"levelo://app?vid=854cdc8c-41a0-4700-bd27-69101d35f518"},"vehicle_type_id":"4","last_reported":1747840318,"current_range_meters":4000,"station_id":"ce4bhbh2rcd13ifvqeqg","pricing_plan_id":"cebpf4jnsgd1na2vs0mg"},{"bike_id":"7e778814-de07-4045-a343-942e88b0926b","system_id":"levelo_inurba_marseille","lat":43.26556,"lon":5.37289,"is_reserved":false,"is_disabled":false,"rental_uris":{"android":"levelo://app?vid=7e778814-de07-4045-a343-942e88b0926b","ios":"levelo://app?vid=7e778814-de07-4045-a343-942e88b0926b"},"vehicle_type_id":"4","last_reported":1747840318,"current_range_meters":4000,"station_id":"ce4bhg12rcd13ifvqf70","pricing_plan_id":"cebpf4jnsgd1na2vs0mg"},{"bike_id":"69d34913-f6d5-42bb-a929-dff686e8cee4","system_id":"levelo_inurba_marseille","lat":43.25493,"lon":5.37647,"is_reserved":false,"is_disabled":false,"rental_uris":{"android":"levelo://app?vid=69d34913-f6d5-42bb-a929-dff686e8cee4","ios":"levelo://app?vid=69d34913-f6d5-42bb-a929-dff686e8cee4"},"vehicle_type_id":"4","last_reported":1747840318,"current_range_meters":4000,"station_id":"ce4bhh12rcd13ifvqff0","pricing_plan_id":"cebpf4jnsgd1na2vs0mg"},{"bike_id":"657f8876-4c48-44dc-bd1b-7067139abc88","system_id":"levelo_inurba_marseille","lat":43.23151,"lon":5.43722,"is_reserved":false,"is_disabled":false,"rental_uris":{"android":"levelo://app?vid=657f8876-4c48-44dc-bd1b-7067139abc88","ios":"levelo://app?vid=657f8876-4c48-44dc-bd1b-7067139abc88"},"vehicle_type_id":"4","last_reported":1747840318,"current_range_meters":4000,"station_id":"ce4bhmp2rcd13ifvqgog","pricing_plan_id":"cebpf4jnsgd1na2vs0mg"},{"bike_id":"9bf82f56-da9b-48db-b997-d01cdeb3af00","system_id":"levelo_inurba_marseille","lat":43.30538,"lon":5.36592,"is_reserved":false,"is_disabled":false,"rental_uris":{"android":"levelo://app?vid=9bf82f56-da9b-48db-b997-d01cdeb3af00","ios":"levelo://app?vid=9bf82f56-da9b-48db-b997-d01cdeb3af00"},"vehicle_type_id":"4","last_reported":1747840318,"current_range_meters":4400,"station_id":"ce4bgs12rcd13ifvqcag","pricing_plan_id":"cebpf4jnsgd1na2vs0mg"},{"bike_id":"33f410d9-c6dc-48ab-86af-9b94eea9067b","system_id":"levelo_inurba_marseille","lat":43.21765,"lon":5.34655,"is_reserved":false,"is_disabled":false,"rental_uris":{"android":"levelo://app?vid=33f410d9-c6dc-48ab-86af-9b94eea9067b","ios":"levelo://app?vid=33f410d9-c6dc-48ab-86af-9b94eea9067b"},"vehicle_type_id":"4","last_reported":1747840318,"current_range_meters":4800,"station_id":"","pricing_plan_id":"cebpf4jnsgd1na2vs0mg"},{"bike_id":"cab38b56-3a06-41c5-ad32-d0ebdfeeb11c","system_id":"levelo_inurba_marseille","lat":43.28168,"lon":5.42649,"is_reserved":false,"is_disabled":false,"rental_uris":{"android":"levelo://app?vid=cab38b56-3a06-41c5-ad32-d0ebdfeeb11c","ios":"levelo://app?vid=cab38b56-3a06-41c5-ad32-d0ebdfeeb11c"},"vehicle_type_id":"4","last_reported":1747840318,"current_range_meters":4800,"station_id":"ce4bhnh2rcd13ifvqgug","pricing_plan_id":"cebpf4jnsgd1na2vs0mg"},{"bike_id":"bb7fa76b-30ab-43a2-acb4-20fadfcbfe8d","system_id":"levelo_inurba_marseille","lat":43.2972,"lon":5.37727,"is_reserved":false,"is_disabled":false,"rental_uris":{"android":"levelo://app?vid=bb7fa76b-30ab-43a2-acb4-20fadfcbfe8d","ios":"levelo://app?vid=bb7fa76b-30ab-43a2-acb4-20fadfcbfe8d"},"vehicle_type_id":"4","last_reported":1747840318,"current_range_meters":5600,"station_id":"ce4bgkh2rcd13ifvqbl0","pricing_plan_id":"cebpf4jnsgd1na2vs0mg"},{"bike_id":"90294c08-e49b-4b97-88f9-e49d62db7883","system_id":"levelo_inurba_marseille","lat":43.24646,"lon":5.38926,"is_reserved":false,"is_disabled":false,"rental_uris":{"android":"levelo://app?vid=90294c08-e49b-4b97-88f9-e49d62db7883","ios":"levelo://app?vid=90294c08-e49b-4b97-88f9-e49d62db7883"},"vehicle_type_id":"4","last_reported":1747840318,"current_range_meters":5600,"station_id":"ce4bhg12rcd13ifvqf60","pricing_plan_id":"cebpf4jnsgd1na2vs0mg"},{"bike_id":"0d5fac32-1259-4329-98e7-bd55360f94f6","system_id":"levelo_inurba_marseille","lat":43.25872,"lon":5.39896,"is_reserved":false,"is_disabled":false,"rental_uris":{"android":"levelo://app?vid=0d5fac32-1259-4329-98e7-bd55360f94f6","ios":"levelo://app?vid=0d5fac32-1259-4329-98e7-bd55360f94f6"},"vehicle_type_id":"4","last_reported":1747840318,"current_range_meters":5600,"station_id":"ce4bhl92rcd13ifvqghg","pricing_plan_id":"cebpf4jnsgd1na2vs0mg"},{"bike_id":"1eb6850c-e94c-45e1-ac02-b110f71ba1ab","system_id":"levelo_inurba_marseille","lat":43.2808,"lon":5.39662,"is_reserved":false,"is_disabled":false,"rental_uris":{"android":"levelo://app?vid=1eb6850c-e94c-45e1-ac02-b110f71ba1ab","ios":"levelo://app?vid=1eb6850c-e94c-45e1-ac02-b110f71ba1ab"},"vehicle_type_id":"4","last_reported":1747840318,"current_range_meters":5600,"station_id":"ce4bho12rcd13ifvqh2g","pricing_plan_id":"cebpf4jnsgd1na2vs0mg"},{"bike_id":"30bd62b6-4657-45ab-96b9-260a10e97d5b","system_id":"levelo_inurba_marseille","lat":43.32662,"lon":5.40996,"is_reserved":false,"is_disabled":false,"rental_uris":{"android":"levelo://app?vid=30bd62b6-4657-45ab-96b9-260a10e97d5b","ios":"levelo://app?vid=30bd62b6-4657-45ab-96b9-260a10e97d5b"},"vehicle_type_id":"4","last_reported":1747840318,"current_range_meters":5600,"station_id":"ce4bhpp2rcd13ifvqhgg","pricing_plan_id":"cebpf4jnsgd1na2vs0mg"},{"bike_id":"bffbaf88-357a-4e87-a68c-a9a27a6e01e6","system_id":"levelo_inurba_marseille","lat":43.26235,"lon":5.42132,"is_reserved":false,"is_disabled":false,"rental_uris":{"android":"levelo://app?vid=bffbaf88-357a-4e87-a68c-a9a27a6e01e6","ios":"levelo://app?vid=bffbaf88-357a-4e87-a68c-a9a27a6e01e6"},"vehicle_type_id":"4","last_reported":1747840318,"current_range_meters":6000,"station_id":"","pricing_plan_id":"cebpf4jnsgd1na2vs0mg"},{"bike_id":"84d62431-e764-4f96-b959-3882453e67a4","system_id":"levelo_inurba_marseille","lat":43.30344,"lon":5.37279,"is_reserved":false,"is_disabled":false,"rental_uris":{"android":"levelo://app?vid=84d62431-e764-4f96-b959-3882453e67a4","ios":"levelo://app?vid=84d62431-e764-4f96-b959-3882453e67a4"},"vehicle_type_id":"4","last_reported":1747840318,"current_range_meters":6000,"station_id":"","pricing_plan_id":"cebpf4jnsgd1na2vs0mg"},{"bike_id":"41712303-4a3f-45bc-987e-c5cd96769e02","system_id":"levelo_inurba_marseille","lat":43.29264,"lon":5.37626,"is_reserved":false,"is_disabled":false,"rental_uris":{"android":"levelo://app?vid=41712303-4a3f-45bc-987e-c5cd96769e02","ios":"levelo://app?vid=41712303-4a3f-45bc-987e-c5cd96769e02"},"vehicle_type_id":"4","last_reported":1747840318,"current_range_meters":6000,"station_id":"ce4bgi12rcd13ifvqb80","pricing_plan_id":"cebpf4jnsgd1na2vs0mg"},{"bike_id":"1fc7f14e-bb4f-469e-87cd-6cbea03c15c5","system_id":"levelo_inurba_marseille","lat":43.289764,"lon":5.386914,"is_reserved":false,"is_disabled":false,"rental_uris":{"android":"levelo://app?vid=1fc7f14e-bb4f-469e-87cd-6cbea03c15c5","ios":"levelo://app?vid=1fc7f14e-bb4f-469e-87cd-6cbea03c15c5"},"vehicle_type_id":"4","last_reported":1747840318,"current_range_meters":6000,"station_id":"ce4bh292rcd13ifvqdg0","pricing_plan_id":"cebpf4jnsgd1na2vs0mg"},{"bike_id":"8821936a-ed67-4225-8458-b8d62cad46ab","system_id":"levelo_inurba_marseille","lat":43.23194,"lon":5.35555,"is_reserved":false,"is_disabled":false,"rental_uris":{"android":"levelo://app?vid=8821936a-ed67-4225-8458-b8d62cad46ab","ios":"levelo://app?vid=8821936a-ed67-4225-8458-b8d62cad46ab"},"vehicle_type_id":"4","last_reported":1747840318,"current_range_meters":6000,"station_id":"ce4bhu92rcd13ifvqi70","pricing_plan_id":"cebpf4jnsgd1na2vs0mg"},{"bike_id":"9d98f24e-3aab-426b-b3dc-234aeadf8746","system_id":"levelo_inurba_marseille","lat":43.241657,"lon":5.36394,"is_reserved":false,"is_disabled":false,"rental_uris":{"android":"levelo://app?vid=9d98f24e-3aab-426b-b3dc-234aeadf8746","ios":"levelo://app?vid=9d98f24e-3aab-426b-b3dc-234aeadf8746"},"vehicle_type_id":"4","last_reported":1747840318,"current_range_meters":6000,"station_id":"cpo36qri1sfpv3e86is0","pricing_plan_id":"cebpf4jnsgd1na2vs0mg"},{"bike_id":"dc97a900-6455-4385-a1ee-c1cb2b9067b2","system_id":"levelo_inurba_marseille","lat":43.217486,"lon":5.346052,"is_reserved":false,"is_disabled":false,"rental_uris":{"android":"levelo://app?vid=dc97a900-6455-4385-a1ee-c1cb2b9067b2","ios":"levelo://app?vid=dc97a900-6455-4385-a1ee-c1cb2b9067b2"},"vehicle_type_id":"4","last_reported":1747840318,"current_range_meters":6000,"station_id":"st_cvj6r9ubvosntc0bgbag","pricing_plan_id":"cebpf4jnsgd1na2vs0mg"},{"bike_id":"15dcdbbd-a41e-43eb-9ed6-26ec15ce7a50","system_id":"levelo_inurba_marseille","lat":43.21405,"lon":5.3412,"is_reserved":false,"is_disabled":false,"rental_uris":{"android":"levelo://app?vid=15dcdbbd-a41e-43eb-9ed6-26ec15ce7a50","ios":"levelo://app?vid=15dcdbbd-a41e-43eb-9ed6-26ec15ce7a50"},"vehicle_type_id":"4","last_reported":1747840318,"current_range_meters":6400,"station_id":"","pricing_plan_id":"cebpf4jnsgd1na2vs0mg"},{"bike_id":"79531372-5234-4da9-a790-95c7c4a6c58d","system_id":"levelo_inurba_marseille","lat":43.29574,"lon":5.37528,"is_reserved":false,"is_disabled":false,"rental_uris":{"android":"levelo://app?vid=79531372-5234-4da9-a790-95c7c4a6c58d","ios":"levelo://app?vid=79531372-5234-4da9-a790-95c7c4a6c58d"},"vehicle_type_id":"4","last_reported":1747840318,"current_range_meters":6400,"station_id":"ce4bgh92rcd13ifvqb50","pricing_plan_id":"cebpf4jnsgd1na2vs0mg"},{"bike_id":"c715b4a3-e59a-4305-af4d-f0bf33a57f8f","system_id":"levelo_inurba_marseille","lat":43.2997,"lon":5.38496,"is_reserved":false,"is_disabled":false,"rental_uris":{"android":"levelo://app?vid=c715b4a3-e59a-4305-af4d-f0bf33a57f8f","ios":"levelo://app?vid=c715b4a3-e59a-4305-af4d-f0bf33a57f8f"},"vehicle_type_id":"4","last_reported":1747840318,"current_range_meters":6400,"station_id":"ce4bgj92rcd13ifvqbd0","pricing_plan_id":"cebpf4jnsgd1na2vs0mg"},{"bike_id":"b72824a0-7a57-4358-a0cc-b19ee514ced6","system_id":"levelo_inurba_marseille","lat":43.29031,"lon":5.38144,"is_reserved":false,"is_disabled":false,"rental_uris":{"android":"levelo://app?vid=b72824a0-7a57-4358-a0cc-b19ee514ced6","ios":"levelo://app?vid=b72824a0-7a57-4358-a0cc-b19ee514ced6"},"vehicle_type_id":"4","last_reported":1747840318,"current_range_meters":6400,"station_id":"ce4bh4p2rcd13ifvqe1g","pricing_plan_id":"cebpf4jnsgd1na2vs0mg"},{"bike_id":"9b9d7602-a47e-47e0-9223-bc0167566305","system_id":"levelo_inurba_marseille","lat":43.28727,"lon":5.36095,"is_reserved":false,"is_disabled":false,"rental_uris":{"android":"levelo://app?vid=9b9d7602-a47e-47e0-9223-bc0167566305","ios":"levelo://app?vid=9b9d7602-a47e-47e0-9223-bc0167566305"},"vehicle_type_id":"4","last_reported":1747840318,"current_range_meters":6400,"station_id":"cki0cbj6b192h4jlfktg","pricing_plan_id":"cebpf4jnsgd1na2vs0mg"},{"bike_id":"d0a72151-f779-4c62-a71d-f401e6c56f2c","system_id":"levelo_inurba_marseille","lat":43.29919,"lon":5.38131,"is_reserved":false,"is_disabled":false,"rental_uris":{"android":"levelo://app?vid=d0a72151-f779-4c62-a71d-f401e6c56f2c","ios":"levelo://app?vid=d0a72151-f779-4c62-a71d-f401e6c56f2c"},"vehicle_type_id":"4","last_reported":1747840318,"current_range_meters":6800,"station_id":"ce4bgj12rcd13ifvqbc0","pricing_plan_id":"cebpf4jnsgd1na2vs0mg"},{"bike_id":"08ea67a5-d01f-4f32-ab99-7027aef59895","system_id":"levelo_inurba_marseille","lat":43.31336,"lon":5.39693,"is_reserved":false,"is_disabled":false,"rental_uris":{"android":"levelo://app?vid=08ea67a5-d01f-4f32-ab99-7027aef59895","ios":"levelo://app?vid=08ea67a5-d01f-4f32-ab99-7027aef59895"},"vehicle_type_id":"4","last_reported":1747840318,"current_range_meters":6800,"station_id":"ce4bgvp2rcd13ifvqcu0","pricing_plan_id":"cebpf4jnsgd1na2vs0mg"},{"bike_id":"7709e602-d5d2-4208-a609-4c4ddf636ef9","system_id":"levelo_inurba_marseille","lat":43.29248,"lon":5.40906,"is_reserved":false,"is_disabled":false,"rental_uris":{"android":"levelo://app?vid=7709e602-d5d2-4208-a609-4c4ddf636ef9","ios":"levelo://app?vid=7709e602-d5d2-4208-a609-4c4ddf636ef9"},"vehicle_type_id":"4","last_reported":1747840318,"current_range_meters":6800,"station_id":"ce4bh192rcd13ifvqdc0","pricing_plan_id":"cebpf4jnsgd1na2vs0mg"},{"bike_id":"77eac628-d297-498e-8808-74feb110907e","system_id":"levelo_inurba_marseille","lat":43.28986,"lon":5.37849,"is_reserved":false,"is_disabled":false,"rental_uris":{"android":"levelo://app?vid=77eac628-d297-498e-8808-74feb110907e","ios":"levelo://app?vid=77eac628-d297-498e-8808-74feb110907e"},"vehicle_type_id":"4","last_reported":1747840318,"current_range_meters":6800,"station_id":"ce4bh9p2rcd13ifvqed0","pricing_plan_id":"cebpf4jnsgd1na2vs0mg"},{"bike_id":"a6051e24-d934-4622-b25c-c19cb0f2797b","system_id":"levelo_inurba_marseille","lat":43.29273,"lon":5.36849,"is_reserved":false,"is_disabled":false,"rental_uris":{"android":"levelo://app?vid=a6051e24-d934-4622-b25c-c19cb0f2797b","ios":"levelo://app?vid=a6051e24-d934-4622-b25c-c19cb0f2797b"},"vehicle_type_id":"4","last_reported":1747840318,"current_range_meters":6800,"station_id":"ce4bhbp2rcd13ifvqesg","pricing_plan_id":"cebpf4jnsgd1na2vs0mg"},{"bike_id":"c9bf0bed-ab35-4f97-844c-4eb511b8961d","system_id":"levelo_inurba_marseille","lat":43.25726,"lon":5.41121,"is_reserved":false,"is_disabled":false,"rental_uris":{"android":"levelo://app?vid=c9bf0bed-ab35-4f97-844c-4eb511b8961d","ios":"levelo://app?vid=c9bf0bed-ab35-4f97-844c-4eb511b8961d"},"vehicle_type_id":"4","last_reported":1747840318,"current_range_meters":6800,"station_id":"ce4bhkp2rcd13ifvqgd0","pricing_plan_id":"cebpf4jnsgd1na2vs0mg"},{"bike_id":"8e8c6fdb-13f5-4140-9ae4-9a0ab90cad8b","system_id":"levelo_inurba_marseille","lat":43.231761,"lon":5.39997,"is_reserved":false,"is_disabled":false,"rental_uris":{"android":"levelo://app?vid=8e8c6fdb-13f5-4140-9ae4-9a0ab90cad8b","ios":"levelo://app?vid=8e8c6fdb-13f5-4140-9ae4-9a0ab90cad8b"},"vehicle_type_id":"4","last_reported":1747840318,"current_range_meters":6800,"station_id":"ce4bhn12rcd13ifvqgqg","pricing_plan_id":"cebpf4jnsgd1na2vs0mg"},{"bike_id":"2217cc22-74b4-48c4-86d3-a28e125dff2c","system_id":"levelo_inurba_marseille","lat":43.27933,"lon":5.39631,"is_reserved":false,"is_disabled":false,"rental_uris":{"android":"levelo://app?vid=2217cc22-74b4-48c4-86d3-a28e125dff2c","ios":"levelo://app?vid=2217cc22-74b4-48c4-86d3-a28e125dff2c"},"vehicle_type_id":"4","last_reported":1747840318,"current_range_meters":7200,"station_id":"","pricing_plan_id":"cebpf4jnsgd1na2vs0mg"},{"bike_id":"512f77c2-882a-42a0-8896-3fe8d3e5091e","system_id":"levelo_inurba_marseille","lat":43.31183,"lon":5.37725,"is_reserved":false,"is_disabled":false,"rental_uris":{"android":"levelo://app?vid=512f77c2-882a-42a0-8896-3fe8d3e5091e","ios":"levelo://app?vid=512f77c2-882a-42a0-8896-3fe8d3e5091e"},"vehicle_type_id":"4","last_reported":1747840318,"current_range_meters":7200,"station_id":"","pricing_plan_id":"cebpf4jnsgd1na2vs0mg"},{"bike_id":"b8b511c7-6f48-45be-97af-1e0036b54cc5","system_id":"levelo_inurba_marseille","lat":43.27352,"lon":5.42408,"is_reserved":false,"is_disabled":false,"rental_uris":{"android":"levelo://app?vid=b8b511c7-6f48-45be-97af-1e0036b54cc5","ios":"levelo://app?vid=b8b511c7-6f48-45be-97af-1e0036b54cc5"},"vehicle_type_id":"4","last_reported":1747840318,"current_range_meters":7200,"station_id":"","pricing_plan_id":"cebpf4jnsgd1na2vs0mg"},{"bike_id":"f54a1f14-4212-482a-9366-0b694ee21ce6","system_id":"levelo_inurba_marseille","lat":43.29527,"lon":5.39052,"is_reserved":false,"is_disabled":false,"rental_uris":{"android":"levelo://app?vid=f54a1f14-4212-482a-9366-0b694ee21ce6","ios":"levelo://app?vid=f54a1f14-4212-482a-9366-0b694ee21ce6"},"vehicle_type_id":"4","last_reported":1747840318,"current_range_meters":7200,"station_id":"ce4bh3p2rcd13ifvqdp0","pricing_plan_id":"cebpf4jnsgd1na2vs0mg"},{"bike_id":"80053634-2f34-4266-a156-bda33be861b7","system_id":"levelo_inurba_marseille","lat":43.246555,"lon":5.388867,"is_reserved":false,"is_disabled":false,"rental_uris":{"android":"levelo://app?vid=80053634-2f34-4266-a156-bda33be861b7","ios":"levelo://app?vid=80053634-2f34-4266-a156-bda33be861b7"},"vehicle_type_id":"4","last_reported":1747840318,"current_range_meters":7200,"station_id":"ce4bhg12rcd13ifvqf60","pricing_plan_id":"cebpf4jnsgd1na2vs0mg"},{"bike_id":"119414dd-a64a-482e-b0a3-d8cde5e6007d","system_id":"levelo_inurba_marseille","lat":43.27833,"lon":5.4072,"is_reserved":false,"is_disabled":false,"rental_uris":{"android":"levelo://app?vid=119414dd-a64a-482e-b0a3-d8cde5e6007d","ios":"levelo://app?vid=119414dd-a64a-482e-b0a3-d8cde5e6007d"},"vehicle_type_id":"4","last_reported":1747840318,"current_range_meters":7200,"station_id":"ce4bhnh2rcd13ifvqgtg","pricing_plan_id":"cebpf4jnsgd1na2vs0mg"},{"bike_id":"059a1b1f-c2a6-4218-a093-f5e3410c3dd3","system_id":"levelo_inurba_marseille","lat":43.26957,"lon":5.402305,"is_reserved":false,"is_disabled":false,"rental_uris":{"android":"levelo://app?vid=059a1b1f-c2a6-4218-a093-f5e3410c3dd3","ios":"levelo://app?vid=059a1b1f-c2a6-4218-a093-f5e3410c3dd3"},"vehicle_type_id":"4","last_reported":1747840318,"current_range_meters":7200,"station_id":"cjm6bp8fraef2m0cb0m0","pricing_plan_id":"cebpf4jnsgd1na2vs0mg"},{"bike_id":"e8162579-a5ad-485f-ad83-fec8a2ebe7e1","system_id":"levelo_inurba_marseille","lat":43.26826,"lon":5.39099,"is_reserved":false,"is_disabled":false,"rental_uris":{"android":"levelo://app?vid=e8162579-a5ad-485f-ad83-fec8a2ebe7e1","ios":"levelo://app?vid=e8162579-a5ad-485f-ad83-fec8a2ebe7e1"},"vehicle_type_id":"4","last_reported":1747840318,"current_range_meters":8000,"station_id":"","pricing_plan_id":"cebpf4jnsgd1na2vs0mg"},{"bike_id":"d63a59aa-1bca-4603-ba61-15bf8830fce9","system_id":"levelo_inurba_marseille","lat":43.24651,"lon":5.38893,"is_reserved":false,"is_disabled":false,"rental_uris":{"android":"levelo://app?vid=d63a59aa-1bca-4603-ba61-15bf8830fce9","ios":"levelo://app?vid=d63a59aa-1bca-4603-ba61-15bf8830fce9"},"vehicle_type_id":"4","last_reported":1747840318,"current_range_meters":8000,"station_id":"ce4bhg12rcd13ifvqf60","pricing_plan_id":"cebpf4jnsgd1na2vs0mg"},{"bike_id":"6cdef387-baab-4555-9f86-617fba94902a","system_id":"levelo_inurba_marseille","lat":43.32351,"lon":5.367491,"is_reserved":false,"is_disabled":false,"rental_uris":{"android":"levelo://app?vid=6cdef387-baab-4555-9f86-617fba94902a","ios":"levelo://app?vid=6cdef387-baab-4555-9f86-617fba94902a"},"vehicle_type_id":"4","last_reported":1747840318,"current_range_meters":8000,"station_id":"ce4bhsh2rcd13ifvqi2g","pricing_plan_id":"cebpf4jnsgd1na2vs0mg"},{"bike_id":"b29dcf5d-5f56-4e05-8dee-0ff094b863b0","system_id":"levelo_inurba_marseille","lat":43.22932,"lon":5.35378,"is_reserved":false,"is_disabled":false,"rental_uris":{"android":"levelo://app?vid=b29dcf5d-5f56-4e05-8dee-0ff094b863b0","ios":"levelo://app?vid=b29dcf5d-5f56-4e05-8dee-0ff094b863b0"},"vehicle_type_id":"4","last_reported":1747840318,"current_range_meters":8000,"station_id":"cpo3532slgdg3j2ikp40","pricing_plan_id":"cebpf4jnsgd1na2vs0mg"},{"bike_id":"1c16d79f-712a-4d98-b147-036ba30a6b93","system_id":"levelo_inurba_marseille","lat":43.21751,"lon":5.346,"is_reserved":false,"is_disabled":false,"rental_uris":{"android":"levelo://app?vid=1c16d79f-712a-4d98-b147-036ba30a6b93","ios":"levelo://app?vid=1c16d79f-712a-4d98-b147-036ba30a6b93"},"vehicle_type_id":"4","last_reported":1747840318,"current_range_meters":8000,"station_id":"st_cvj6r9ubvosntc0bgbag","pricing_plan_id":"cebpf4jnsgd1na2vs0mg"},{"bike_id":"3552fbf2-b43a-446f-93f5-d695fc251b73","system_id":"levelo_inurba_marseille","lat":43.252373,"lon":5.374983,"is_reserved":false,"is_disabled":false,"rental_uris":{"android":"levelo://app?vid=3552fbf2-b43a-446f-93f5-d695fc251b73","ios":"levelo://app?vid=3552fbf2-b43a-446f-93f5-d695fc251b73"},"vehicle_type_id":"4","last_reported":1747840318,"current_range_meters":8400,"station_id":"","pricing_plan_id":"cebpf4jnsgd1na2vs0mg"},{"bike_id":"b372620f-8132-4e7e-8d1a-e467489438c7","system_id":"levelo_inurba_marseille","lat":43.28625,"lon":5.40375,"is_reserved":false,"is_disabled":false,"rental_uris":{"android":"levelo://app?vid=b372620f-8132-4e7e-8d1a-e467489438c7","ios":"levelo://app?vid=b372620f-8132-4e7e-8d1a-e467489438c7"},"vehicle_type_id":"4","last_reported":1747840318,"current_range_meters":8400,"station_id":"","pricing_plan_id":"cebpf4jnsgd1na2vs0mg"},{"bike_id":"6b0bf974-ddd1-4e9b-959a-8a03c13ce952","system_id":"levelo_inurba_marseille","lat":43.29912,"lon":5.38139,"is_reserved":false,"is_disabled":false,"rental_uris":{"android":"levelo://app?vid=6b0bf974-ddd1-4e9b-959a-8a03c13ce952","ios":"levelo://app?vid=6b0bf974-ddd1-4e9b-959a-8a03c13ce952"},"vehicle_type_id":"4","last_reported":1747840318,"current_range_meters":8400,"station_id":"ce4bgj12rcd13ifvqbc0","pricing_plan_id":"cebpf4jnsgd1na2vs0mg"},{"bike_id":"3f2cf6e1-28ab-4b67-813f-90b6282ffb55","system_id":"levelo_inurba_marseille","lat":43.28946,"lon":5.36637,"is_reserved":false,"is_disabled":false,"rental_uris":{"android":"levelo://app?vid=3f2cf6e1-28ab-4b67-813f-90b6282ffb55","ios":"levelo://app?vid=3f2cf6e1-28ab-4b67-813f-90b6282ffb55"},"vehicle_type_id":"4","last_reported":1747840318,"current_range_meters":8400,"station_id":"ce4bhap2rcd13ifvqek0","pricing_plan_id":"cebpf4jnsgd1na2vs0mg"},{"bike_id":"0a2031d7-3901-4842-8639-467d9466f662","system_id":"levelo_inurba_marseille","lat":43.27388,"lon":5.36275,"is_reserved":false,"is_disabled":false,"rental_uris":{"android":"levelo://app?vid=0a2031d7-3901-4842-8639-467d9466f662","ios":"levelo://app?vid=0a2031d7-3901-4842-8639-467d9466f662"},"vehicle_type_id":"4","last_reported":1747840318,"current_range_meters":8400,"station_id":"ce4bhbh2rcd13ifvqeo0","pricing_plan_id":"cebpf4jnsgd1na2vs0mg"},{"bike_id":"1d00f78c-b3a2-449a-a362-9cfde355a2d3","system_id":"levelo_inurba_marseille","lat":43.29275,"lon":5.36846,"is_reserved":false,"is_disabled":false,"rental_uris":{"android":"levelo://app?vid=1d00f78c-b3a2-449a-a362-9cfde355a2d3","ios":"levelo://app?vid=1d00f78c-b3a2-449a-a362-9cfde355a2d3"},"vehicle_type_id":"4","last_reported":1747840318,"current_range_meters":8400,"station_id":"ce4bhbp2rcd13ifvqesg","pricing_plan_id":"cebpf4jnsgd1na2vs0mg"},{"bike_id":"b4dfcdc2-6479-4783-9eb0-5b6bef6a5c8e","system_id":"levelo_inurba_marseille","lat":43.23148,"lon":5.43739,"is_reserved":false,"is_disabled":false,"rental_uris":{"android":"levelo://app?vid=b4dfcdc2-6479-4783-9eb0-5b6bef6a5c8e","ios":"levelo://app?vid=b4dfcdc2-6479-4783-9eb0-5b6bef6a5c8e"},"vehicle_type_id":"4","last_reported":1747840318,"current_range_meters":8400,"station_id":"ce4bhmp2rcd13ifvqgog","pricing_plan_id":"cebpf4jnsgd1na2vs0mg"},{"bike_id":"8be7801a-814f-4d7f-a177-20c6bff19f0a","system_id":"levelo_inurba_marseille","lat":43.31335,"lon":5.39714,"is_reserved":false,"is_disabled":false,"rental_uris":{"android":"levelo://app?vid=8be7801a-814f-4d7f-a177-20c6bff19f0a","ios":"levelo://app?vid=8be7801a-814f-4d7f-a177-20c6bff19f0a"},"vehicle_type_id":"4","last_reported":1747840318,"current_range_meters":8800,"station_id":"ce4bgvp2rcd13ifvqcu0","pricing_plan_id":"cebpf4jnsgd1na2vs0mg"},{"bike_id":"aea1b1b4-9e78-49c9-8b2a-a512aae565e4","system_id":"levelo_inurba_marseille","lat":43.29529,"lon":5.39042,"is_reserved":false,"is_disabled":false,"rental_uris":{"android":"levelo://app?vid=aea1b1b4-9e78-49c9-8b2a-a512aae565e4","ios":"levelo://app?vid=aea1b1b4-9e78-49c9-8b2a-a512aae565e4"},"vehicle_type_id":"4","last_reported":1747840318,"current_range_meters":8800,"station_id":"ce4bh3p2rcd13ifvqdp0","pricing_plan_id":"cebpf4jnsgd1na2vs0mg"},{"bike_id":"da846be5-dc46-4d02-9c34-1fa817d4dce8","system_id":"levelo_inurba_marseille","lat":43.28423,"lon":5.3499,"is_reserved":false,"is_disabled":false,"rental_uris":{"android":"levelo://app?vid=da846be5-dc46-4d02-9c34-1fa817d4dce8","ios":"levelo://app?vid=da846be5-dc46-4d02-9c34-1fa817d4dce8"},"vehicle_type_id":"4","last_reported":1747840318,"current_range_meters":8800,"station_id":"ce4bhbh2rcd13ifvqepg","pricing_plan_id":"cebpf4jnsgd1na2vs0mg"},{"bike_id":"22b0cd37-dd61-41e1-914f-abecbdb07ceb","system_id":"levelo_inurba_marseille","lat":43.26187,"lon":5.37449,"is_reserved":false,"is_disabled":false,"rental_uris":{"android":"levelo://app?vid=22b0cd37-dd61-41e1-914f-abecbdb07ceb","ios":"levelo://app?vid=22b0cd37-dd61-41e1-914f-abecbdb07ceb"},"vehicle_type_id":"4","last_reported":1747840318,"current_range_meters":8800,"station_id":"ce4bhgp2rcd13ifvqfc0","pricing_plan_id":"cebpf4jnsgd1na2vs0mg"},{"bike_id":"852f3710-3238-4638-be28-f508a91346a5","system_id":"levelo_inurba_marseille","lat":43.25114,"lon":5.40325,"is_reserved":false,"is_disabled":false,"rental_uris":{"android":"levelo://app?vid=852f3710-3238-4638-be28-f508a91346a5","ios":"levelo://app?vid=852f3710-3238-4638-be28-f508a91346a5"},"vehicle_type_id":"4","last_reported":1747840318,"current_range_meters":8800,"station_id":"ce4bhlh2rcd13ifvqgig","pricing_plan_id":"cebpf4jnsgd1na2vs0mg"},{"bike_id":"9d14759e-68dd-4dc7-8028-bd50e0db8e11","system_id":"levelo_inurba_marseille","lat":43.23181,"lon":5.4,"is_reserved":false,"is_disabled":false,"rental_uris":{"android":"levelo://app?vid=9d14759e-68dd-4dc7-8028-bd50e0db8e11","ios":"levelo://app?vid=9d14759e-68dd-4dc7-8028-bd50e0db8e11"},"vehicle_type_id":"4","last_reported":1747840318,"current_range_meters":8800,"station_id":"ce4bhn12rcd13ifvqgqg","pricing_plan_id":"cebpf4jnsgd1na2vs0mg"},{"bike_id":"1ff4dd87-bf56-4ab1-8365-aad71fcb827c","system_id":"levelo_inurba_marseille","lat":43.316076,"lon":5.423906,"is_reserved":false,"is_disabled":false,"rental_uris":{"android":"levelo://app?vid=1ff4dd87-bf56-4ab1-8365-aad71fcb827c","ios":"levelo://app?vid=1ff4dd87-bf56-4ab1-8365-aad71fcb827c"},"vehicle_type_id":"4","last_reported":1747840318,"current_range_meters":8800,"station_id":"ce4bhp92rcd13ifvqhbg","pricing_plan_id":"cebpf4jnsgd1na2vs0mg"},{"bike_id":"103450c0-eff4-42bc-bcce-ed42d8883806","system_id":"levelo_inurba_marseille","lat":43.286917,"lon":5.41558,"is_reserved":false,"is_disabled":false,"rental_uris":{"android":"levelo://app?vid=103450c0-eff4-42bc-bcce-ed42d8883806","ios":"levelo://app?vid=103450c0-eff4-42bc-bcce-ed42d8883806"},"vehicle_type_id":"4","last_reported":1747840318,"current_range_meters":9200,"station_id":"","pricing_plan_id":"cebpf4jnsgd1na2vs0mg"},{"bike_id":"263c319e-a058-4d52-9b0a-dd111913cce2","system_id":"levelo_inurba_marseille","lat":43.29583,"lon":5.36742,"is_reserved":false,"is_disabled":false,"rental_uris":{"android":"levelo://app?vid=263c319e-a058-4d52-9b0a-dd111913cce2","ios":"levelo://app?vid=263c319e-a058-4d52-9b0a-dd111913cce2"},"vehicle_type_id":"4","last_reported":1747840318,"current_range_meters":9200,"station_id":"ce4bgph2rcd13ifvqc2g","pricing_plan_id":"cebpf4jnsgd1na2vs0mg"},{"bike_id":"94d99648-7a0c-4d6c-9b0a-838f38f45cb3","system_id":"levelo_inurba_marseille","lat":43.2838,"lon":5.3864,"is_reserved":false,"is_disabled":false,"rental_uris":{"android":"levelo://app?vid=94d99648-7a0c-4d6c-9b0a-838f38f45cb3","ios":"levelo://app?vid=94d99648-7a0c-4d6c-9b0a-838f38f45cb3"},"vehicle_type_id":"4","last_reported":1747840318,"current_range_meters":9200,"station_id":"ce4bh492rcd13ifvqdvg","pricing_plan_id":"cebpf4jnsgd1na2vs0mg"},{"bike_id":"e1603815-5734-410a-8723-25857193cd74","system_id":"levelo_inurba_marseille","lat":43.28114,"lon":5.37843,"is_reserved":false,"is_disabled":false,"rental_uris":{"android":"levelo://app?vid=e1603815-5734-410a-8723-25857193cd74","ios":"levelo://app?vid=e1603815-5734-410a-8723-25857193cd74"},"vehicle_type_id":"4","last_reported":1747840318,"current_range_meters":9200,"station_id":"ce4bha12rcd13ifvqee0","pricing_plan_id":"cebpf4jnsgd1na2vs0mg"},{"bike_id":"389debd3-21b8-4071-8954-3f826d63ae67","system_id":"levelo_inurba_marseille","lat":43.26214,"lon":5.37453,"is_reserved":false,"is_disabled":false,"rental_uris":{"android":"levelo://app?vid=389debd3-21b8-4071-8954-3f826d63ae67","ios":"levelo://app?vid=389debd3-21b8-4071-8954-3f826d63ae67"},"vehicle_type_id":"4","last_reported":1747840318,"current_range_meters":9200,"station_id":"ce4bhgp2rcd13ifvqfc0","pricing_plan_id":"cebpf4jnsgd1na2vs0mg"},{"bike_id":"6c604d2e-a8f2-4068-8230-84b26a50c66b","system_id":"levelo_inurba_marseille","lat":43.25585,"lon":5.38252,"is_reserved":false,"is_disabled":false,"rental_uris":{"android":"levelo://app?vid=6c604d2e-a8f2-4068-8230-84b26a50c66b","ios":"levelo://app?vid=6c604d2e-a8f2-4068-8230-84b26a50c66b"},"vehicle_type_id":"4","last_reported":1747840318,"current_range_meters":9200,"station_id":"ce4bhih2rcd13ifvqfs0","pricing_plan_id":"cebpf4jnsgd1na2vs0mg"},{"bike_id":"ed2c3f0c-b2d3-4f42-ba50-e3e3427c6cdd","system_id":"levelo_inurba_marseille","lat":43.24179,"lon":5.39731,"is_reserved":false,"is_disabled":false,"rental_uris":{"android":"levelo://app?vid=ed2c3f0c-b2d3-4f42-ba50-e3e3427c6cdd","ios":"levelo://app?vid=ed2c3f0c-b2d3-4f42-ba50-e3e3427c6cdd"},"vehicle_type_id":"4","last_reported":1747840318,"current_range_meters":9200,"station_id":"ce4bhn12rcd13ifvqgpg","pricing_plan_id":"cebpf4jnsgd1na2vs0mg"},{"bike_id":"6fa2a045-306c-4146-823c-182cbdf87330","system_id":"levelo_inurba_marseille","lat":43.231754,"lon":5.399824,"is_reserved":false,"is_disabled":false,"rental_uris":{"android":"levelo://app?vid=6fa2a045-306c-4146-823c-182cbdf87330","ios":"levelo://app?vid=6fa2a045-306c-4146-823c-182cbdf87330"},"vehicle_type_id":"4","last_reported":1747840318,"current_range_meters":9200,"station_id":"ce4bhn12rcd13ifvqgqg","pricing_plan_id":"cebpf4jnsgd1na2vs0mg"},{"bike_id":"f4fefaf8-6314-4d6f-8aa8-492ca5ec933e","system_id":"levelo_inurba_marseille","lat":43.32077,"lon":5.36724,"is_reserved":false,"is_disabled":false,"rental_uris":{"android":"levelo://app?vid=f4fefaf8-6314-4d6f-8aa8-492ca5ec933e","ios":"levelo://app?vid=f4fefaf8-6314-4d6f-8aa8-492ca5ec933e"},"vehicle_type_id":"4","last_reported":1747840318,"current_range_meters":9200,"station_id":"ce4bhrh2rcd13ifvqhug","pricing_plan_id":"cebpf4jnsgd1na2vs0mg"},{"bike_id":"1873176d-1fd5-4805-b80f-33527362db43","system_id":"levelo_inurba_marseille","lat":43.26963,"lon":5.40268,"is_reserved":false,"is_disabled":false,"rental_uris":{"android":"levelo://app?vid=1873176d-1fd5-4805-b80f-33527362db43","ios":"levelo://app?vid=1873176d-1fd5-4805-b80f-33527362db43"},"vehicle_type_id":"4","last_reported":1747840318,"current_range_meters":9200,"station_id":"cjm6bp8fraef2m0cb0m0","pricing_plan_id":"cebpf4jnsgd1na2vs0mg"},{"bike_id":"f1acae4a-8216-4ce0-ad52-6eaaa09ff1d4","system_id":"levelo_inurba_marseille","lat":43.28727,"lon":5.3609,"is_reserved":false,"is_disabled":false,"rental_uris":{"android":"levelo://app?vid=f1acae4a-8216-4ce0-ad52-6eaaa09ff1d4","ios":"levelo://app?vid=f1acae4a-8216-4ce0-ad52-6eaaa09ff1d4"},"vehicle_type_id":"4","last_reported":1747840318,"current_range_meters":9200,"station_id":"cki0cbj6b192h4jlfktg","pricing_plan_id":"cebpf4jnsgd1na2vs0mg"},{"bike_id":"c69b5beb-0c3d-40db-a214-eec95f1e753e","system_id":"levelo_inurba_marseille","lat":43.24174,"lon":5.36426,"is_reserved":false,"is_disabled":false,"rental_uris":{"android":"levelo://app?vid=c69b5beb-0c3d-40db-a214-eec95f1e753e","ios":"levelo://app?vid=c69b5beb-0c3d-40db-a214-eec95f1e753e"},"vehicle_type_id":"4","last_reported":1747840318,"current_range_meters":9200,"station_id":"cpo36qri1sfpv3e86is0","pricing_plan_id":"cebpf4jnsgd1na2vs0mg"},{"bike_id":"4e64b7c3-1785-450e-a54f-12bbea8f1756","system_id":"levelo_inurba_marseille","lat":43.26325,"lon":5.37418,"is_reserved":false,"is_disabled":false,"rental_uris":{"android":"levelo://app?vid=4e64b7c3-1785-450e-a54f-12bbea8f1756","ios":"levelo://app?vid=4e64b7c3-1785-450e-a54f-12bbea8f1756"},"vehicle_type_id":"4","last_reported":1747840318,"current_range_meters":9600,"station_id":"","pricing_plan_id":"cebpf4jnsgd1na2vs0mg"},{"bike_id":"6b7d161f-b747-43de-84fb-b434b1063a22","system_id":"levelo_inurba_marseille","lat":43.28431,"lon":5.35002,"is_reserved":false,"is_disabled":false,"rental_uris":{"android":"levelo://app?vid=6b7d161f-b747-43de-84fb-b434b1063a22","ios":"levelo://app?vid=6b7d161f-b747-43de-84fb-b434b1063a22"},"vehicle_type_id":"4","last_reported":1747840318,"current_range_meters":9600,"station_id":"ce4bhbh2rcd13ifvqepg","pricing_plan_id":"cebpf4jnsgd1na2vs0mg"},{"bike_id":"812fa841-0b74-4a66-8e01-ac7b6abb4a4c","system_id":"levelo_inurba_marseille","lat":43.23156,"lon":5.43721,"is_reserved":false,"is_disabled":false,"rental_uris":{"android":"levelo://app?vid=812fa841-0b74-4a66-8e01-ac7b6abb4a4c","ios":"levelo://app?vid=812fa841-0b74-4a66-8e01-ac7b6abb4a4c"},"vehicle_type_id":"4","last_reported":1747840318,"current_range_meters":9600,"station_id":"ce4bhmp2rcd13ifvqgog","pricing_plan_id":"cebpf4jnsgd1na2vs0mg"},{"bike_id":"289edf10-3cb4-4764-b8e9-01dd09886fd6","system_id":"levelo_inurba_marseille","lat":43.23205,"lon":5.40015,"is_reserved":false,"is_disabled":false,"rental_uris":{"android":"levelo://app?vid=289edf10-3cb4-4764-b8e9-01dd09886fd6","ios":"levelo://app?vid=289edf10-3cb4-4764-b8e9-01dd09886fd6"},"vehicle_type_id":"4","last_reported":1747840318,"current_range_meters":9600,"station_id":"ce4bhn12rcd13ifvqgqg","pricing_plan_id":"cebpf4jnsgd1na2vs0mg"},{"bike_id":"17eff291-18f4-48a2-b8a7-46e60be29f79","system_id":"levelo_inurba_marseille","lat":43.24081,"lon":5.37756,"is_reserved":false,"is_disabled":false,"rental_uris":{"android":"levelo://app?vid=17eff291-18f4-48a2-b8a7-46e60be29f79","ios":"levelo://app?vid=17eff291-18f4-48a2-b8a7-46e60be29f79"},"vehicle_type_id":"4","last_reported":1747840318,"current_range_meters":9600,"station_id":"ce4bhnp2rcd13ifvqgvg","pricing_plan_id":"cebpf4jnsgd1na2vs0mg"},{"bike_id":"e27607ee-4766-448a-9d8d-2210e3e940a2","system_id":"levelo_inurba_marseille","lat":43.29538,"lon":5.38547,"is_reserved":false,"is_disabled":false,"rental_uris":{"android":"levelo://app?vid=e27607ee-4766-448a-9d8d-2210e3e940a2","ios":"levelo://app?vid=e27607ee-4766-448a-9d8d-2210e3e940a2"},"vehicle_type_id":"4","last_reported":1747840318,"current_range_meters":10000,"station_id":"ce4bgih2rcd13ifvqba0","pricing_plan_id":"cebpf4jnsgd1na2vs0mg"},{"bike_id":"256bb7b8-c481-4699-baf9-ebbca4e263af","system_id":"levelo_inurba_marseille","lat":43.29878,"lon":5.38894,"is_reserved":false,"is_disabled":false,"rental_uris":{"android":"levelo://app?vid=256bb7b8-c481-4699-baf9-ebbca4e263af","ios":"levelo://app?vid=256bb7b8-c481-4699-baf9-ebbca4e263af"},"vehicle_type_id":"4","last_reported":1747840318,"current_range_meters":10000,"station_id":"ce4bh392rcd13ifvqdl0","pricing_plan_id":"cebpf4jnsgd1na2vs0mg"},{"bike_id":"65510c50-47a3-4578-9c34-bf2c0836e2cf","system_id":"levelo_inurba_marseille","lat":43.25719,"lon":5.41113,"is_reserved":false,"is_disabled":false,"rental_uris":{"android":"levelo://app?vid=65510c50-47a3-4578-9c34-bf2c0836e2cf","ios":"levelo://app?vid=65510c50-47a3-4578-9c34-bf2c0836e2cf"},"vehicle_type_id":"4","last_reported":1747840318,"current_range_meters":10000,"station_id":"ce4bhkp2rcd13ifvqgd0","pricing_plan_id":"cebpf4jnsgd1na2vs0mg"},{"bike_id":"69d87124-1c08-45f7-a181-a67f6e9b0647","system_id":"levelo_inurba_marseille","lat":43.33027,"lon":5.3904,"is_reserved":false,"is_disabled":false,"rental_uris":{"android":"levelo://app?vid=69d87124-1c08-45f7-a181-a67f6e9b0647","ios":"levelo://app?vid=69d87124-1c08-45f7-a181-a67f6e9b0647"},"vehicle_type_id":"4","last_reported":1747840318,"current_range_meters":10000,"station_id":"ce4bhr92rcd13ifvqhrg","pricing_plan_id":"cebpf4jnsgd1na2vs0mg"},{"bike_id":"a8a131af-027d-4c09-9cdc-a1b38a172804","system_id":"levelo_inurba_marseille","lat":43.26819,"lon":5.40246,"is_reserved":false,"is_disabled":false,"rental_uris":{"android":"levelo://app?vid=a8a131af-027d-4c09-9cdc-a1b38a172804","ios":"levelo://app?vid=a8a131af-027d-4c09-9cdc-a1b38a172804"},"vehicle_type_id":"4","last_reported":1747840318,"current_range_meters":10000,"station_id":"ce501612rcd8frsf0b60","pricing_plan_id":"cebpf4jnsgd1na2vs0mg"},{"bike_id":"3fe3d6c4-138a-47df-b6b4-e6f19e8f7d46","system_id":"levelo_inurba_marseille","lat":43.21407,"lon":5.34135,"is_reserved":false,"is_disabled":false,"rental_uris":{"android":"levelo://app?vid=3fe3d6c4-138a-47df-b6b4-e6f19e8f7d46","ios":"levelo://app?vid=3fe3d6c4-138a-47df-b6b4-e6f19e8f7d46"},"vehicle_type_id":"4","last_reported":1747840318,"current_range_meters":10800,"station_id":"","pricing_plan_id":"cebpf4jnsgd1na2vs0mg"},{"bike_id":"7752cba4-3205-474a-82f7-119286c114ed","system_id":"levelo_inurba_marseille","lat":43.265551,"lon":5.372841,"is_reserved":false,"is_disabled":false,"rental_uris":{"android":"levelo://app?vid=7752cba4-3205-474a-82f7-119286c114ed","ios":"levelo://app?vid=7752cba4-3205-474a-82f7-119286c114ed"},"vehicle_type_id":"4","last_reported":1747840318,"current_range_meters":10800,"station_id":"","pricing_plan_id":"cebpf4jnsgd1na2vs0mg"},{"bike_id":"9914c117-b40d-4d0c-92c5-32d643cdbf89","system_id":"levelo_inurba_marseille","lat":43.29714,"lon":5.36617,"is_reserved":false,"is_disabled":false,"rental_uris":{"android":"levelo://app?vid=9914c117-b40d-4d0c-92c5-32d643cdbf89","ios":"levelo://app?vid=9914c117-b40d-4d0c-92c5-32d643cdbf89"},"vehicle_type_id":"4","last_reported":1747840318,"current_range_meters":10800,"station_id":"ce4bgn12rcd13ifvqbt0","pricing_plan_id":"cebpf4jnsgd1na2vs0mg"},{"bike_id":"cf0185dc-4a06-4588-a272-2e75ffd31e70","system_id":"levelo_inurba_marseille","lat":43.255801,"lon":5.382423,"is_reserved":false,"is_disabled":false,"rental_uris":{"android":"levelo://app?vid=cf0185dc-4a06-4588-a272-2e75ffd31e70","ios":"levelo://app?vid=cf0185dc-4a06-4588-a272-2e75ffd31e70"},"vehicle_type_id":"4","last_reported":1747840318,"current_range_meters":10800,"station_id":"ce4bhih2rcd13ifvqfs0","pricing_plan_id":"cebpf4jnsgd1na2vs0mg"},{"bike_id":"4513a537-d262-4d18-959c-0d35813fa73d","system_id":"levelo_inurba_marseille","lat":43.240723,"lon":5.377628,"is_reserved":false,"is_disabled":false,"rental_uris":{"android":"levelo://app?vid=4513a537-d262-4d18-959c-0d35813fa73d","ios":"levelo://app?vid=4513a537-d262-4d18-959c-0d35813fa73d"},"vehicle_type_id":"4","last_reported":1747840318,"current_range_meters":10800,"station_id":"ce4bhnp2rcd13ifvqgvg","pricing_plan_id":"cebpf4jnsgd1na2vs0mg"},{"bike_id":"0dfbc401-3388-4ec4-b7e2-4d7f7e81a5f5","system_id":"levelo_inurba_marseille","lat":43.29595,"lon":5.3811,"is_reserved":false,"is_disabled":false,"rental_uris":{"android":"levelo://app?vid=0dfbc401-3388-4ec4-b7e2-4d7f7e81a5f5","ios":"levelo://app?vid=0dfbc401-3388-4ec4-b7e2-4d7f7e81a5f5"},"vehicle_type_id":"4","last_reported":1747840318,"current_range_meters":11200,"station_id":"ce4bgl12rcd13ifvqbo0","pricing_plan_id":"cebpf4jnsgd1na2vs0mg"},{"bike_id":"3f78b822-ceaf-4cde-b750-cf26ef0b72d4","system_id":"levelo_inurba_marseille","lat":43.29714,"lon":5.3661,"is_reserved":false,"is_disabled":false,"rental_uris":{"android":"levelo://app?vid=3f78b822-ceaf-4cde-b750-cf26ef0b72d4","ios":"levelo://app?vid=3f78b822-ceaf-4cde-b750-cf26ef0b72d4"},"vehicle_type_id":"4","last_reported":1747840318,"current_range_meters":11200,"station_id":"ce4bgn12rcd13ifvqbt0","pricing_plan_id":"cebpf4jnsgd1na2vs0mg"},{"bike_id":"6bf0a4ec-6774-4b90-9008-fc6165e32fe3","system_id":"levelo_inurba_marseille","lat":43.30553,"lon":5.36545,"is_reserved":false,"is_disabled":false,"rental_uris":{"android":"levelo://app?vid=6bf0a4ec-6774-4b90-9008-fc6165e32fe3","ios":"levelo://app?vid=6bf0a4ec-6774-4b90-9008-fc6165e32fe3"},"vehicle_type_id":"4","last_reported":1747840318,"current_range_meters":11200,"station_id":"ce4bgs12rcd13ifvqcag","pricing_plan_id":"cebpf4jnsgd1na2vs0mg"},{"bike_id":"cbb306e0-b254-4046-bd62-48681c739bdf","system_id":"levelo_inurba_marseille","lat":43.311693,"lon":5.387205,"is_reserved":false,"is_disabled":false,"rental_uris":{"android":"levelo://app?vid=cbb306e0-b254-4046-bd62-48681c739bdf","ios":"levelo://app?vid=cbb306e0-b254-4046-bd62-48681c739bdf"},"vehicle_type_id":"4","last_reported":1747840318,"current_range_meters":11200,"station_id":"ce4bgv12rcd13ifvqcp0","pricing_plan_id":"cebpf4jnsgd1na2vs0mg"},{"bike_id":"421a94cc-bcf7-4e8e-879f-85b732fad866","system_id":"levelo_inurba_marseille","lat":43.29021,"lon":5.35587,"is_reserved":false,"is_disabled":false,"rental_uris":{"android":"levelo://app?vid=421a94cc-bcf7-4e8e-879f-85b732fad866","ios":"levelo://app?vid=421a94cc-bcf7-4e8e-879f-85b732fad866"},"vehicle_type_id":"4","last_reported":1747840318,"current_range_meters":11200,"station_id":"ce4bhb92rcd13ifvqen0","pricing_plan_id":"cebpf4jnsgd1na2vs0mg"},{"bike_id":"d93870d5-7f65-4c14-ab86-fc3a95a90b93","system_id":"levelo_inurba_marseille","lat":43.2737,"lon":5.36257,"is_reserved":false,"is_disabled":false,"rental_uris":{"android":"levelo://app?vid=d93870d5-7f65-4c14-ab86-fc3a95a90b93","ios":"levelo://app?vid=d93870d5-7f65-4c14-ab86-fc3a95a90b93"},"vehicle_type_id":"4","last_reported":1747840318,"current_range_meters":11200,"station_id":"ce4bhbh2rcd13ifvqeo0","pricing_plan_id":"cebpf4jnsgd1na2vs0mg"},{"bike_id":"061c9e95-5c99-477b-8463-637a4eca4ac2","system_id":"levelo_inurba_marseille","lat":43.27915,"lon":5.39587,"is_reserved":false,"is_disabled":false,"rental_uris":{"android":"levelo://app?vid=061c9e95-5c99-477b-8463-637a4eca4ac2","ios":"levelo://app?vid=061c9e95-5c99-477b-8463-637a4eca4ac2"},"vehicle_type_id":"4","last_reported":1747840318,"current_range_meters":11200,"station_id":"ce4bhf92rcd13ifvqf40","pricing_plan_id":"cebpf4jnsgd1na2vs0mg"},{"bike_id":"548fea31-2f12-48d9-a363-39c5a575b141","system_id":"levelo_inurba_marseille","lat":43.24664,"lon":5.38167,"is_reserved":false,"is_disabled":false,"rental_uris":{"android":"levelo://app?vid=548fea31-2f12-48d9-a363-39c5a575b141","ios":"levelo://app?vid=548fea31-2f12-48d9-a363-39c5a575b141"},"vehicle_type_id":"4","last_reported":1747840318,"current_range_meters":11200,"station_id":"ce4bhih2rcd13ifvqfr0","pricing_plan_id":"cebpf4jnsgd1na2vs0mg"},{"bike_id":"6912307a-b4d5-42d8-b865-d9e0e18ad5d5","system_id":"levelo_inurba_marseille","lat":43.24558,"lon":5.39562,"is_reserved":false,"is_disabled":false,"rental_uris":{"android":"levelo://app?vid=6912307a-b4d5-42d8-b865-d9e0e18ad5d5","ios":"levelo://app?vid=6912307a-b4d5-42d8-b865-d9e0e18ad5d5"},"vehicle_type_id":"4","last_reported":1747840318,"current_range_meters":11200,"station_id":"ce4bhlp2rcd13ifvqgjg","pricing_plan_id":"cebpf4jnsgd1na2vs0mg"},{"bike_id":"d9536365-be20-4a8e-b309-efb97ca7ba8f","system_id":"levelo_inurba_marseille","lat":43.26211,"lon":5.37443,"is_reserved":false,"is_disabled":false,"rental_uris":{"android":"levelo://app?vid=d9536365-be20-4a8e-b309-efb97ca7ba8f","ios":"levelo://app?vid=d9536365-be20-4a8e-b309-efb97ca7ba8f"},"vehicle_type_id":"4","last_reported":1747840318,"current_range_meters":11600,"station_id":"ce4bhgp2rcd13ifvqfc0","pricing_plan_id":"cebpf4jnsgd1na2vs0mg"},{"bike_id":"25105331-dc2c-468d-949b-254df26f1f1e","system_id":"levelo_inurba_marseille","lat":43.27949,"lon":5.41054,"is_reserved":false,"is_disabled":false,"rental_uris":{"android":"levelo://app?vid=25105331-dc2c-468d-949b-254df26f1f1e","ios":"levelo://app?vid=25105331-dc2c-468d-949b-254df26f1f1e"},"vehicle_type_id":"4","last_reported":1747840318,"current_range_meters":11600,"station_id":"ce4bhnp2rcd13ifvqh0g","pricing_plan_id":"cebpf4jnsgd1na2vs0mg"},{"bike_id":"2f34c329-54fe-438b-a307-b47c6ac8481c","system_id":"levelo_inurba_marseille","lat":43.29885,"lon":5.4364,"is_reserved":false,"is_disabled":false,"rental_uris":{"android":"levelo://app?vid=2f34c329-54fe-438b-a307-b47c6ac8481c","ios":"levelo://app?vid=2f34c329-54fe-438b-a307-b47c6ac8481c"},"vehicle_type_id":"4","last_reported":1747840318,"current_range_meters":11600,"station_id":"ce4bhpp2rcd13ifvqhfg","pricing_plan_id":"cebpf4jnsgd1na2vs0mg"},{"bike_id":"21f49b0d-6dc5-456b-8f6e-c943cbcde6bb","system_id":"levelo_inurba_marseille","lat":43.30431,"lon":5.38891,"is_reserved":false,"is_disabled":false,"rental_uris":{"android":"levelo://app?vid=21f49b0d-6dc5-456b-8f6e-c943cbcde6bb","ios":"levelo://app?vid=21f49b0d-6dc5-456b-8f6e-c943cbcde6bb"},"vehicle_type_id":"4","last_reported":1747840318,"current_range_meters":12400,"station_id":"ce4bgk12rcd13ifvqbi0","pricing_plan_id":"cebpf4jnsgd1na2vs0mg"},{"bike_id":"e703d902-87fd-4bf5-a0c1-2b90dd9be339","system_id":"levelo_inurba_marseille","lat":43.2927,"lon":5.40916,"is_reserved":false,"is_disabled":false,"rental_uris":{"android":"levelo://app?vid=e703d902-87fd-4bf5-a0c1-2b90dd9be339","ios":"levelo://app?vid=e703d902-87fd-4bf5-a0c1-2b90dd9be339"},"vehicle_type_id":"4","last_reported":1747840318,"current_range_meters":12400,"station_id":"ce4bh192rcd13ifvqdc0","pricing_plan_id":"cebpf4jnsgd1na2vs0mg"},{"bike_id":"6991e296-bb03-40b0-a04b-9f6f652a24a3","system_id":"levelo_inurba_marseille","lat":43.29088,"lon":5.38179,"is_reserved":false,"is_disabled":false,"rental_uris":{"android":"levelo://app?vid=6991e296-bb03-40b0-a04b-9f6f652a24a3","ios":"levelo://app?vid=6991e296-bb03-40b0-a04b-9f6f652a24a3"},"vehicle_type_id":"4","last_reported":1747840318,"current_range_meters":12400,"station_id":"ce4bh512rcd13ifvqe2g","pricing_plan_id":"cebpf4jnsgd1na2vs0mg"},{"bike_id":"2113aac3-d569-459b-a575-5c628797fdc0","system_id":"levelo_inurba_marseille","lat":43.31757,"lon":5.39024,"is_reserved":false,"is_disabled":false,"rental_uris":{"android":"levelo://app?vid=2113aac3-d569-459b-a575-5c628797fdc0","ios":"levelo://app?vid=2113aac3-d569-459b-a575-5c628797fdc0"},"vehicle_type_id":"4","last_reported":1747840318,"current_range_meters":12400,"station_id":"ce4bhqp2rcd13ifvqhng","pricing_plan_id":"cebpf4jnsgd1na2vs0mg"},{"bike_id":"beac6feb-2eab-4e54-8768-75019d93b6d0","system_id":"levelo_inurba_marseille","lat":43.30122,"lon":5.39857,"is_reserved":false,"is_disabled":false,"rental_uris":{"android":"levelo://app?vid=beac6feb-2eab-4e54-8768-75019d93b6d0","ios":"levelo://app?vid=beac6feb-2eab-4e54-8768-75019d93b6d0"},"vehicle_type_id":"4","last_reported":1747840318,"current_range_meters":12800,"station_id":"ce4bh0h2rcd13ifvqd40","pricing_plan_id":"cebpf4jnsgd1na2vs0mg"},{"bike_id":"863a6c86-fe88-4f30-9414-12983b008cdb","system_id":"levelo_inurba_marseille","lat":43.29255,"lon":5.4091,"is_reserved":false,"is_disabled":false,"rental_uris":{"android":"levelo://app?vid=863a6c86-fe88-4f30-9414-12983b008cdb","ios":"levelo://app?vid=863a6c86-fe88-4f30-9414-12983b008cdb"},"vehicle_type_id":"4","last_reported":1747840318,"current_range_meters":12800,"station_id":"ce4bh192rcd13ifvqdc0","pricing_plan_id":"cebpf4jnsgd1na2vs0mg"},{"bike_id":"cf4d8742-4d67-42af-80ff-0cb7ebec389f","system_id":"levelo_inurba_marseille","lat":43.28042,"lon":5.36951,"is_reserved":false,"is_disabled":false,"rental_uris":{"android":"levelo://app?vid=cf4d8742-4d67-42af-80ff-0cb7ebec389f","ios":"levelo://app?vid=cf4d8742-4d67-42af-80ff-0cb7ebec389f"},"vehicle_type_id":"4","last_reported":1747840318,"current_range_meters":12800,"station_id":"ce4bha12rcd13ifvqef0","pricing_plan_id":"cebpf4jnsgd1na2vs0mg"},{"bike_id":"e2cb30a3-06d3-4a8d-8bb5-0556ae31c6ff","system_id":"levelo_inurba_marseille","lat":43.24559,"lon":5.39527,"is_reserved":false,"is_disabled":false,"rental_uris":{"android":"levelo://app?vid=e2cb30a3-06d3-4a8d-8bb5-0556ae31c6ff","ios":"levelo://app?vid=e2cb30a3-06d3-4a8d-8bb5-0556ae31c6ff"},"vehicle_type_id":"4","last_reported":1747840318,"current_range_meters":12800,"station_id":"ce4bhlp2rcd13ifvqgjg","pricing_plan_id":"cebpf4jnsgd1na2vs0mg"},{"bike_id":"e4bfec6d-8e79-4c51-896d-6e89422c7aab","system_id":"levelo_inurba_marseille","lat":43.28722,"lon":5.36099,"is_reserved":false,"is_disabled":false,"rental_uris":{"android":"levelo://app?vid=e4bfec6d-8e79-4c51-896d-6e89422c7aab","ios":"levelo://app?vid=e4bfec6d-8e79-4c51-896d-6e89422c7aab"},"vehicle_type_id":"4","last_reported":1747840318,"current_range_meters":12800,"station_id":"cki0cbj6b192h4jlfktg","pricing_plan_id":"cebpf4jnsgd1na2vs0mg"},{"bike_id":"f693b179-d4c4-4ee0-8a73-552a9c1888ff","system_id":"levelo_inurba_marseille","lat":43.26863,"lon":5.40383,"is_reserved":false,"is_disabled":false,"rental_uris":{"android":"levelo://app?vid=f693b179-d4c4-4ee0-8a73-552a9c1888ff","ios":"levelo://app?vid=f693b179-d4c4-4ee0-8a73-552a9c1888ff"},"vehicle_type_id":"4","last_reported":1747840318,"current_range_meters":13600,"station_id":"","pricing_plan_id":"cebpf4jnsgd1na2vs0mg"},{"bike_id":"56e6bfcc-e34b-4895-b9b3-06014c691cea","system_id":"levelo_inurba_marseille","lat":43.26946,"lon":5.4025,"is_reserved":false,"is_disabled":false,"rental_uris":{"android":"levelo://app?vid=56e6bfcc-e34b-4895-b9b3-06014c691cea","ios":"levelo://app?vid=56e6bfcc-e34b-4895-b9b3-06014c691cea"},"vehicle_type_id":"4","last_reported":1747840318,"current_range_meters":13600,"station_id":"cjm6bp8fraef2m0cb0m0","pricing_plan_id":"cebpf4jnsgd1na2vs0mg"},{"bike_id":"f9fb40c0-1fcd-48cb-8e26-3f2dc0fb2451","system_id":"levelo_inurba_marseille","lat":43.33751,"lon":5.37509,"is_reserved":false,"is_disabled":false,"rental_uris":{"android":"levelo://app?vid=f9fb40c0-1fcd-48cb-8e26-3f2dc0fb2451","ios":"levelo://app?vid=f9fb40c0-1fcd-48cb-8e26-3f2dc0fb2451"},"vehicle_type_id":"4","last_reported":1747840318,"current_range_meters":14000,"station_id":"","pricing_plan_id":"cebpf4jnsgd1na2vs0mg"},{"bike_id":"42192e01-f367-4dc7-ac5e-2317e0319d89","system_id":"levelo_inurba_marseille","lat":43.25881,"lon":5.39937,"is_reserved":false,"is_disabled":false,"rental_uris":{"android":"levelo://app?vid=42192e01-f367-4dc7-ac5e-2317e0319d89","ios":"levelo://app?vid=42192e01-f367-4dc7-ac5e-2317e0319d89"},"vehicle_type_id":"4","last_reported":1747840318,"current_range_meters":14000,"station_id":"ce4bhl92rcd13ifvqghg","pricing_plan_id":"cebpf4jnsgd1na2vs0mg"},{"bike_id":"3c0300aa-3669-4f50-ae12-06c5f9beef96","system_id":"levelo_inurba_marseille","lat":43.25871,"lon":5.39909,"is_reserved":false,"is_disabled":false,"rental_uris":{"android":"levelo://app?vid=3c0300aa-3669-4f50-ae12-06c5f9beef96","ios":"levelo://app?vid=3c0300aa-3669-4f50-ae12-06c5f9beef96"},"vehicle_type_id":"4","last_reported":1747840318,"current_range_meters":14000,"station_id":"ce4bhl92rcd13ifvqghg","pricing_plan_id":"cebpf4jnsgd1na2vs0mg"},{"bike_id":"87c4eccc-bb65-48f9-8b4c-4b27ebc9c1f5","system_id":"levelo_inurba_marseille","lat":43.2175,"lon":5.34602,"is_reserved":false,"is_disabled":false,"rental_uris":{"android":"levelo://app?vid=87c4eccc-bb65-48f9-8b4c-4b27ebc9c1f5","ios":"levelo://app?vid=87c4eccc-bb65-48f9-8b4c-4b27ebc9c1f5"},"vehicle_type_id":"4","last_reported":1747840318,"current_range_meters":14000,"station_id":"st_cvj6r9ubvosntc0bgbag","pricing_plan_id":"cebpf4jnsgd1na2vs0mg"},{"bike_id":"20d46360-b017-40c9-8a0d-bb0351687016","system_id":"levelo_inurba_marseille","lat":43.25592,"lon":5.38222,"is_reserved":false,"is_disabled":false,"rental_uris":{"android":"levelo://app?vid=20d46360-b017-40c9-8a0d-bb0351687016","ios":"levelo://app?vid=20d46360-b017-40c9-8a0d-bb0351687016"},"vehicle_type_id":"4","last_reported":1747840318,"current_range_meters":14400,"station_id":"ce4bhih2rcd13ifvqfs0","pricing_plan_id":"cebpf4jnsgd1na2vs0mg"},{"bike_id":"a19667eb-d1f1-46d1-8257-280b5a2562cc","system_id":"levelo_inurba_marseille","lat":43.2736,"lon":5.36241,"is_reserved":false,"is_disabled":false,"rental_uris":{"android":"levelo://app?vid=a19667eb-d1f1-46d1-8257-280b5a2562cc","ios":"levelo://app?vid=a19667eb-d1f1-46d1-8257-280b5a2562cc"},"vehicle_type_id":"4","last_reported":1747840318,"current_range_meters":14800,"station_id":"ce4bhbh2rcd13ifvqeo0","pricing_plan_id":"cebpf4jnsgd1na2vs0mg"},{"bike_id":"3e6e5891-fa97-4b0b-b272-7dfe7cd1bc36","system_id":"levelo_inurba_marseille","lat":43.2863,"lon":5.35113,"is_reserved":false,"is_disabled":false,"rental_uris":{"android":"levelo://app?vid=3e6e5891-fa97-4b0b-b272-7dfe7cd1bc36","ios":"levelo://app?vid=3e6e5891-fa97-4b0b-b272-7dfe7cd1bc36"},"vehicle_type_id":"4","last_reported":1747840318,"current_range_meters":14800,"station_id":"ce4bhch2rcd13ifvqeug","pricing_plan_id":"cebpf4jnsgd1na2vs0mg"},{"bike_id":"2f757adf-131f-4708-a06b-8539bfa27481","system_id":"levelo_inurba_marseille","lat":43.2481,"lon":5.37459,"is_reserved":false,"is_disabled":false,"rental_uris":{"android":"levelo://app?vid=2f757adf-131f-4708-a06b-8539bfa27481","ios":"levelo://app?vid=2f757adf-131f-4708-a06b-8539bfa27481"},"vehicle_type_id":"4","last_reported":1747840318,"current_range_meters":14800,"station_id":"ce4bhgh2rcd13ifvqfb0","pricing_plan_id":"cebpf4jnsgd1na2vs0mg"},{"bike_id":"a2a04a53-59af-4546-9c58-841793fdfe2f","system_id":"levelo_inurba_marseille","lat":43.29895,"lon":5.38276,"is_reserved":false,"is_disabled":false,"rental_uris":{"android":"levelo://app?vid=a2a04a53-59af-4546-9c58-841793fdfe2f","ios":"levelo://app?vid=a2a04a53-59af-4546-9c58-841793fdfe2f"},"vehicle_type_id":"4","last_reported":1747840318,"current_range_meters":15200,"station_id":"","pricing_plan_id":"cebpf4jnsgd1na2vs0mg"},{"bike_id":"8c37efed-a110-4307-8086-3b6336efe3b5","system_id":"levelo_inurba_marseille","lat":43.265698,"lon":5.403238,"is_reserved":false,"is_disabled":false,"rental_uris":{"android":"levelo://app?vid=8c37efed-a110-4307-8086-3b6336efe3b5","ios":"levelo://app?vid=8c37efed-a110-4307-8086-3b6336efe3b5"},"vehicle_type_id":"4","last_reported":1747840318,"current_range_meters":15200,"station_id":"","pricing_plan_id":"cebpf4jnsgd1na2vs0mg"},{"bike_id":"8efd1bc9-583c-4758-97dc-cf9b9837de05","system_id":"levelo_inurba_marseille","lat":43.29809,"lon":5.38085,"is_reserved":false,"is_disabled":false,"rental_uris":{"android":"levelo://app?vid=8efd1bc9-583c-4758-97dc-cf9b9837de05","ios":"levelo://app?vid=8efd1bc9-583c-4758-97dc-cf9b9837de05"},"vehicle_type_id":"4","last_reported":1747840318,"current_range_meters":15200,"station_id":"ce4bgip2rcd13ifvqbb0","pricing_plan_id":"cebpf4jnsgd1na2vs0mg"},{"bike_id":"ca4a7c0e-887d-467a-af74-a2cab295fd6a","system_id":"levelo_inurba_marseille","lat":43.29994,"lon":5.38501,"is_reserved":false,"is_disabled":false,"rental_uris":{"android":"levelo://app?vid=ca4a7c0e-887d-467a-af74-a2cab295fd6a","ios":"levelo://app?vid=ca4a7c0e-887d-467a-af74-a2cab295fd6a"},"vehicle_type_id":"4","last_reported":1747840318,"current_range_meters":15200,"station_id":"ce4bgj92rcd13ifvqbd0","pricing_plan_id":"cebpf4jnsgd1na2vs0mg"},{"bike_id":"20fa6608-e543-4f55-965d-ca4dac32ae4c","system_id":"levelo_inurba_marseille","lat":43.3055,"lon":5.367427,"is_reserved":false,"is_disabled":false,"rental_uris":{"android":"levelo://app?vid=20fa6608-e543-4f55-965d-ca4dac32ae4c","ios":"levelo://app?vid=20fa6608-e543-4f55-965d-ca4dac32ae4c"},"vehicle_type_id":"4","last_reported":1747840318,"current_range_meters":15200,"station_id":"ce4bgrp2rcd13ifvqc9g","pricing_plan_id":"cebpf4jnsgd1na2vs0mg"},{"bike_id":"2b23ff82-60b9-4f1c-b018-6ca9d727e4ed","system_id":"levelo_inurba_marseille","lat":43.29065,"lon":5.35916,"is_reserved":false,"is_disabled":false,"rental_uris":{"android":"levelo://app?vid=2b23ff82-60b9-4f1c-b018-6ca9d727e4ed","ios":"levelo://app?vid=2b23ff82-60b9-4f1c-b018-6ca9d727e4ed"},"vehicle_type_id":"4","last_reported":1747840318,"current_range_meters":15200,"station_id":"ce4bha92rcd13ifvqeg0","pricing_plan_id":"cebpf4jnsgd1na2vs0mg"},{"bike_id":"d32f3042-a34d-4b47-a48a-9c3bd2223417","system_id":"levelo_inurba_marseille","lat":43.26547,"lon":5.37295,"is_reserved":false,"is_disabled":false,"rental_uris":{"android":"levelo://app?vid=d32f3042-a34d-4b47-a48a-9c3bd2223417","ios":"levelo://app?vid=d32f3042-a34d-4b47-a48a-9c3bd2223417"},"vehicle_type_id":"4","last_reported":1747840318,"current_range_meters":15200,"station_id":"ce4bhg12rcd13ifvqf70","pricing_plan_id":"cebpf4jnsgd1na2vs0mg"},{"bike_id":"a33a2755-6841-41cf-b4b7-68716ae56578","system_id":"levelo_inurba_marseille","lat":43.23958,"lon":5.36642,"is_reserved":false,"is_disabled":false,"rental_uris":{"android":"levelo://app?vid=a33a2755-6841-41cf-b4b7-68716ae56578","ios":"levelo://app?vid=a33a2755-6841-41cf-b4b7-68716ae56578"},"vehicle_type_id":"4","last_reported":1747840318,"current_range_meters":15200,"station_id":"ce4bhi12rcd13ifvqfp0","pricing_plan_id":"cebpf4jnsgd1na2vs0mg"},{"bike_id":"94e51a51-8de1-4d94-943d-4544f7644d38","system_id":"levelo_inurba_marseille","lat":43.257273,"lon":5.411155,"is_reserved":false,"is_disabled":false,"rental_uris":{"android":"levelo://app?vid=94e51a51-8de1-4d94-943d-4544f7644d38","ios":"levelo://app?vid=94e51a51-8de1-4d94-943d-4544f7644d38"},"vehicle_type_id":"4","last_reported":1747840318,"current_range_meters":15200,"station_id":"ce4bhkp2rcd13ifvqgd0","pricing_plan_id":"cebpf4jnsgd1na2vs0mg"},{"bike_id":"cab1bc3a-d133-45d1-b5e2-49215a305917","system_id":"levelo_inurba_marseille","lat":43.23195,"lon":5.40001,"is_reserved":false,"is_disabled":false,"rental_uris":{"android":"levelo://app?vid=cab1bc3a-d133-45d1-b5e2-49215a305917","ios":"levelo://app?vid=cab1bc3a-d133-45d1-b5e2-49215a305917"},"vehicle_type_id":"4","last_reported":1747840318,"current_range_meters":15200,"station_id":"ce4bhn12rcd13ifvqgqg","pricing_plan_id":"cebpf4jnsgd1na2vs0mg"},{"bike_id":"1a091a66-2e68-4ded-9fc5-3d6f9e9f6f62","system_id":"levelo_inurba_marseille","lat":43.32113,"lon":5.36738,"is_reserved":false,"is_disabled":false,"rental_uris":{"android":"levelo://app?vid=1a091a66-2e68-4ded-9fc5-3d6f9e9f6f62","ios":"levelo://app?vid=1a091a66-2e68-4ded-9fc5-3d6f9e9f6f62"},"vehicle_type_id":"4","last_reported":1747840318,"current_range_meters":15200,"station_id":"ce4bhrh2rcd13ifvqhug","pricing_plan_id":"cebpf4jnsgd1na2vs0mg"},{"bike_id":"e3120b8b-8871-4a05-b522-497a98c26691","system_id":"levelo_inurba_marseille","lat":43.2588,"lon":5.39958,"is_reserved":false,"is_disabled":false,"rental_uris":{"android":"levelo://app?vid=e3120b8b-8871-4a05-b522-497a98c26691","ios":"levelo://app?vid=e3120b8b-8871-4a05-b522-497a98c26691"},"vehicle_type_id":"4","last_reported":1747840318,"current_range_meters":16000,"station_id":"","pricing_plan_id":"cebpf4jnsgd1na2vs0mg"},{"bike_id":"fc2e61b8-8759-4e1d-9b92-10cbb5e53e71","system_id":"levelo_inurba_marseille","lat":43.31361,"lon":5.38504,"is_reserved":false,"is_disabled":false,"rental_uris":{"android":"levelo://app?vid=fc2e61b8-8759-4e1d-9b92-10cbb5e53e71","ios":"levelo://app?vid=fc2e61b8-8759-4e1d-9b92-10cbb5e53e71"},"vehicle_type_id":"4","last_reported":1747840318,"current_range_meters":16000,"station_id":"ce4bgt92rcd13ifvqcf0","pricing_plan_id":"cebpf4jnsgd1na2vs0mg"},{"bike_id":"8f82c94d-50a1-4af0-8216-4ee22b2d9fc0","system_id":"levelo_inurba_marseille","lat":43.28854,"lon":5.35851,"is_reserved":false,"is_disabled":false,"rental_uris":{"android":"levelo://app?vid=8f82c94d-50a1-4af0-8216-4ee22b2d9fc0","ios":"levelo://app?vid=8f82c94d-50a1-4af0-8216-4ee22b2d9fc0"},"vehicle_type_id":"4","last_reported":1747840318,"current_range_meters":16000,"station_id":"ce4bhb12rcd13ifvqem0","pricing_plan_id":"cebpf4jnsgd1na2vs0mg"},{"bike_id":"4acf0f29-8bf6-4926-b62f-78fced93ff1f","system_id":"levelo_inurba_marseille","lat":43.28622,"lon":5.35104,"is_reserved":false,"is_disabled":false,"rental_uris":{"android":"levelo://app?vid=4acf0f29-8bf6-4926-b62f-78fced93ff1f","ios":"levelo://app?vid=4acf0f29-8bf6-4926-b62f-78fced93ff1f"},"vehicle_type_id":"4","last_reported":1747840318,"current_range_meters":16000,"station_id":"ce4bhch2rcd13ifvqeug","pricing_plan_id":"cebpf4jnsgd1na2vs0mg"},{"bike_id":"b7f95b9d-7009-4b4b-988b-9e7f9b6b3ccd","system_id":"levelo_inurba_marseille","lat":43.24182,"lon":5.39732,"is_reserved":false,"is_disabled":false,"rental_uris":{"android":"levelo://app?vid=b7f95b9d-7009-4b4b-988b-9e7f9b6b3ccd","ios":"levelo://app?vid=b7f95b9d-7009-4b4b-988b-9e7f9b6b3ccd"},"vehicle_type_id":"4","last_reported":1747840318,"current_range_meters":16000,"station_id":"ce4bhn12rcd13ifvqgpg","pricing_plan_id":"cebpf4jnsgd1na2vs0mg"},{"bike_id":"be5dac5b-2a53-4bd9-bc77-3c19aa70b3cf","system_id":"levelo_inurba_marseille","lat":43.31172,"lon":5.38713,"is_reserved":false,"is_disabled":false,"rental_uris":{"android":"levelo://app?vid=be5dac5b-2a53-4bd9-bc77-3c19aa70b3cf","ios":"levelo://app?vid=be5dac5b-2a53-4bd9-bc77-3c19aa70b3cf"},"vehicle_type_id":"4","last_reported":1747840318,"current_range_meters":16400,"station_id":"ce4bgv12rcd13ifvqcp0","pricing_plan_id":"cebpf4jnsgd1na2vs0mg"},{"bike_id":"dc61c065-6ed1-487e-9ecf-5a93a8f61ca7","system_id":"levelo_inurba_marseille","lat":43.231921,"lon":5.399741,"is_reserved":false,"is_disabled":false,"rental_uris":{"android":"levelo://app?vid=dc61c065-6ed1-487e-9ecf-5a93a8f61ca7","ios":"levelo://app?vid=dc61c065-6ed1-487e-9ecf-5a93a8f61ca7"},"vehicle_type_id":"4","last_reported":1747840318,"current_range_meters":16400,"station_id":"ce4bhn12rcd13ifvqgqg","pricing_plan_id":"cebpf4jnsgd1na2vs0mg"},{"bike_id":"365035b1-1caa-4c0e-8398-0ac6765175a4","system_id":"levelo_inurba_marseille","lat":43.23188,"lon":5.40012,"is_reserved":false,"is_disabled":false,"rental_uris":{"android":"levelo://app?vid=365035b1-1caa-4c0e-8398-0ac6765175a4","ios":"levelo://app?vid=365035b1-1caa-4c0e-8398-0ac6765175a4"},"vehicle_type_id":"4","last_reported":1747840318,"current_range_meters":16400,"station_id":"ce4bhn12rcd13ifvqgqg","pricing_plan_id":"cebpf4jnsgd1na2vs0mg"},{"bike_id":"2f0ce2d1-1918-4b32-bfb2-0c4b929188c3","system_id":"levelo_inurba_marseille","lat":43.30804,"lon":5.4351,"is_reserved":false,"is_disabled":false,"rental_uris":{"android":"levelo://app?vid=2f0ce2d1-1918-4b32-bfb2-0c4b929188c3","ios":"levelo://app?vid=2f0ce2d1-1918-4b32-bfb2-0c4b929188c3"},"vehicle_type_id":"4","last_reported":1747840318,"current_range_meters":16400,"station_id":"ce4bhph2rcd13ifvqheg","pricing_plan_id":"cebpf4jnsgd1na2vs0mg"},{"bike_id":"152fd052-9ef0-4adb-997f-d6dd968ecb31","system_id":"levelo_inurba_marseille","lat":43.30734,"lon":5.42445,"is_reserved":false,"is_disabled":false,"rental_uris":{"android":"levelo://app?vid=152fd052-9ef0-4adb-997f-d6dd968ecb31","ios":"levelo://app?vid=152fd052-9ef0-4adb-997f-d6dd968ecb31"},"vehicle_type_id":"4","last_reported":1747840318,"current_range_meters":16400,"station_id":"st_cvj6ca6bvosntc0bfgr0","pricing_plan_id":"cebpf4jnsgd1na2vs0mg"},{"bike_id":"1f175087-324b-4cfa-9326-1b80f1e5d663","system_id":"levelo_inurba_marseille","lat":43.231933,"lon":5.355567,"is_reserved":false,"is_disabled":false,"rental_uris":{"android":"levelo://app?vid=1f175087-324b-4cfa-9326-1b80f1e5d663","ios":"levelo://app?vid=1f175087-324b-4cfa-9326-1b80f1e5d663"},"vehicle_type_id":"4","last_reported":1747840318,"current_range_meters":16800,"station_id":"ce4bhu92rcd13ifvqi70","pricing_plan_id":"cebpf4jnsgd1na2vs0mg"},{"bike_id":"5353a39c-ff3f-4bc7-ad80-f9910794d606","system_id":"levelo_inurba_marseille","lat":43.30468,"lon":5.36693,"is_reserved":false,"is_disabled":false,"rental_uris":{"android":"levelo://app?vid=5353a39c-ff3f-4bc7-ad80-f9910794d606","ios":"levelo://app?vid=5353a39c-ff3f-4bc7-ad80-f9910794d606"},"vehicle_type_id":"4","last_reported":1747840318,"current_range_meters":17200,"station_id":"","pricing_plan_id":"cebpf4jnsgd1na2vs0mg"},{"bike_id":"4324ebd4-73cc-4be3-8168-d1bf0bf1feb6","system_id":"levelo_inurba_marseille","lat":43.29974,"lon":5.38488,"is_reserved":false,"is_disabled":false,"rental_uris":{"android":"levelo://app?vid=4324ebd4-73cc-4be3-8168-d1bf0bf1feb6","ios":"levelo://app?vid=4324ebd4-73cc-4be3-8168-d1bf0bf1feb6"},"vehicle_type_id":"4","last_reported":1747840318,"current_range_meters":17200,"station_id":"ce4bgj92rcd13ifvqbd0","pricing_plan_id":"cebpf4jnsgd1na2vs0mg"},{"bike_id":"3bca8bbf-fb70-4291-b89e-06166b987329","system_id":"levelo_inurba_marseille","lat":43.30146,"lon":5.38071,"is_reserved":false,"is_disabled":false,"rental_uris":{"android":"levelo://app?vid=3bca8bbf-fb70-4291-b89e-06166b987329","ios":"levelo://app?vid=3bca8bbf-fb70-4291-b89e-06166b987329"},"vehicle_type_id":"4","last_reported":1747840318,"current_range_meters":17200,"station_id":"ce4bgjp2rcd13ifvqbh0","pricing_plan_id":"cebpf4jnsgd1na2vs0mg"},{"bike_id":"71e38eff-3b8e-4025-9dd5-a2f6752c2bae","system_id":"levelo_inurba_marseille","lat":43.27373,"lon":5.3625,"is_reserved":false,"is_disabled":false,"rental_uris":{"android":"levelo://app?vid=71e38eff-3b8e-4025-9dd5-a2f6752c2bae","ios":"levelo://app?vid=71e38eff-3b8e-4025-9dd5-a2f6752c2bae"},"vehicle_type_id":"4","last_reported":1747840318,"current_range_meters":17200,"station_id":"ce4bhbh2rcd13ifvqeo0","pricing_plan_id":"cebpf4jnsgd1na2vs0mg"},{"bike_id":"f57e7238-809b-46b4-bf36-6df1bc6fab83","system_id":"levelo_inurba_marseille","lat":43.2845,"lon":5.3501,"is_reserved":false,"is_disabled":false,"rental_uris":{"android":"levelo://app?vid=f57e7238-809b-46b4-bf36-6df1bc6fab83","ios":"levelo://app?vid=f57e7238-809b-46b4-bf36-6df1bc6fab83"},"vehicle_type_id":"4","last_reported":1747840318,"current_range_meters":17200,"station_id":"ce4bhbh2rcd13ifvqepg","pricing_plan_id":"cebpf4jnsgd1na2vs0mg"},{"bike_id":"21358f7d-f42d-4bfe-b5ae-0ae61aab8caa","system_id":"levelo_inurba_marseille","lat":43.246466,"lon":5.38888,"is_reserved":false,"is_disabled":false,"rental_uris":{"android":"levelo://app?vid=21358f7d-f42d-4bfe-b5ae-0ae61aab8caa","ios":"levelo://app?vid=21358f7d-f42d-4bfe-b5ae-0ae61aab8caa"},"vehicle_type_id":"4","last_reported":1747840318,"current_range_meters":17200,"station_id":"ce4bhg12rcd13ifvqf60","pricing_plan_id":"cebpf4jnsgd1na2vs0mg"},{"bike_id":"bc01ca4f-6423-4660-887a-b557b7dd6835","system_id":"levelo_inurba_marseille","lat":43.27807,"lon":5.40675,"is_reserved":false,"is_disabled":false,"rental_uris":{"android":"levelo://app?vid=bc01ca4f-6423-4660-887a-b557b7dd6835","ios":"levelo://app?vid=bc01ca4f-6423-4660-887a-b557b7dd6835"},"vehicle_type_id":"4","last_reported":1747840318,"current_range_meters":17200,"station_id":"ce4bhnh2rcd13ifvqgtg","pricing_plan_id":"cebpf4jnsgd1na2vs0mg"},{"bike_id":"3a48c182-8aa9-4817-97ec-3a2c2ae3fb96","system_id":"levelo_inurba_marseille","lat":43.29893,"lon":5.43654,"is_reserved":false,"is_disabled":false,"rental_uris":{"android":"levelo://app?vid=3a48c182-8aa9-4817-97ec-3a2c2ae3fb96","ios":"levelo://app?vid=3a48c182-8aa9-4817-97ec-3a2c2ae3fb96"},"vehicle_type_id":"4","last_reported":1747840318,"current_range_meters":17200,"station_id":"ce4bhpp2rcd13ifvqhfg","pricing_plan_id":"cebpf4jnsgd1na2vs0mg"},{"bike_id":"1e6f9115-870b-4db9-a9ea-920be691b888","system_id":"levelo_inurba_marseille","lat":43.28723,"lon":5.36101,"is_reserved":false,"is_disabled":false,"rental_uris":{"android":"levelo://app?vid=1e6f9115-870b-4db9-a9ea-920be691b888","ios":"levelo://app?vid=1e6f9115-870b-4db9-a9ea-920be691b888"},"vehicle_type_id":"4","last_reported":1747840318,"current_range_meters":17200,"station_id":"cki0cbj6b192h4jlfktg","pricing_plan_id":"cebpf4jnsgd1na2vs0mg"},{"bike_id":"a6e22d33-3ba1-4eda-b475-db0926bd9d4c","system_id":"levelo_inurba_marseille","lat":43.29212,"lon":5.39324,"is_reserved":false,"is_disabled":false,"rental_uris":{"android":"levelo://app?vid=a6e22d33-3ba1-4eda-b475-db0926bd9d4c","ios":"levelo://app?vid=a6e22d33-3ba1-4eda-b475-db0926bd9d4c"},"vehicle_type_id":"4","last_reported":1747840318,"current_range_meters":17600,"station_id":"ce4bh192rcd13ifvqdd0","pricing_plan_id":"cebpf4jnsgd1na2vs0mg"},{"bike_id":"25fb2597-0257-4175-9350-7a43a071e4b6","system_id":"levelo_inurba_marseille","lat":43.27389,"lon":5.36273,"is_reserved":false,"is_disabled":false,"rental_uris":{"android":"levelo://app?vid=25fb2597-0257-4175-9350-7a43a071e4b6","ios":"levelo://app?vid=25fb2597-0257-4175-9350-7a43a071e4b6"},