{"last_updated":1679072800,"ttl":30,"version":"2.2","data":{"bikes":[{"bike_id":"71b21438-cc13-4115-b2c9-906530604d18","system_id":"levelo_inurba_marseille","lat":43.312239,"lon":5.368562,"is_reserved":false,"is_disabled":false,"rental_uris":{"android":"levelo://app?vid=71b21438-cc13-4115-b2c9-906530604d18","ios":"levelo://app?vid=71b21438-cc13-4115-b2c9-906530604d18"},"vehicle_type_id":"4","last_reported":1679072800,"current_range_meters":0,"station_id":"ce4bgl92rcd13ifvqbq0","pricing_plan_id":"free"},{"bike_id":"d31e5808-550f-4e84-b902-2988b8f7c4d5","system_id":"levelo_inurba_marseille","lat":43.31218,"lon":5.36864,"is_reserved":false,"is_disabled":false,"rental_uris":{"android":"levelo://app?vid=d31e5808-550f-4e84-b902-2988b8f7c4d5","ios":"levelo://app?vid=d31e5808-550f-4e84-b902-2988b8f7c4d5"},"vehicle_type_id":"4","last_reported":1679072800,"current_range_meters":800,"station_id":"ce4bgph2rcd13ifvqc2g","pricing_plan_id":"free"},{"bike_id":"7352cc90-a11b-4795-a95e-73e0a52aa9cd","system_id":"levelo_inurba_marseille","lat":43.30903,"lon":5.36848,"is_reserved":false,"is_disabled":false,"rental_uris":{"android":"levelo://app?vid=7352cc90-a11b-4795-a95e-73e0a52aa9cd","ios":"levelo://app?vid=7352cc90-a11b-4795-a95e-73e0a52aa9cd"},"vehicle_type_id":"4","last_reported":1679072800,"current_range_meters":12800,"station_id":"ce4bgn92rcd13ifvqbvg","pricing_plan_id":"free"},{"bike_id":"3717513c-d734-4666-af8f-727887241605","system_id":"levelo_inurba_marseille","lat":43.301947,"lon":5.36626,"is_reserved":false,"is_disabled":false,"rental_uris":{"android":"levelo://app?vid=3717513c-d734-4666-af8f-727887241605","ios":"levelo://app?vid=3717513c-d734-4666-af8f-727887241605"},"vehicle_type_id":"4","last_reported":1679072800,"current_range_meters":400,"station_id":"","pricing_plan_id":"free"},{"bike_id":"78f44b15-1a16-40a4-9aa3-a4f5751bf2aa","system_id":"levelo_inurba_marseille","lat":43.301939,"lon":5.366286,"is_reserved":false,"is_disabled":false,"rental_uris":{"android":"levelo://app?vid=78f44b15-1a16-40a4-9aa3-a4f5751bf2aa","ios":"levelo://app?vid=78f44b15-1a16-40a4-9aa3-a4f5751bf2aa"},"vehicle_type_id":"4","last_reported":1679072800,"current_range_meters":1600,"station_id":"ce4bgrh2rcd13ifvqc8g","pricing_plan_id":"free"},{"bike_id":"a8111443-82cc-45f1-bbac-68d2aff2c3e0","system_id":"levelo_inurba_marseille","lat":43.301939,"lon":5.366286,"is_reserved":false,"is_disabled":false,"rental_uris":{"android":"levelo://app?vid=a8111443-82cc-45f1-bbac-68d2aff2c3e0","ios":"levelo://app?vid=a8111443-82cc-45f1-bbac-68d2aff2c3e0"},"vehicle_type_id":"4","last_reported":1679072800,"current_range_meters":14400,"station_id":"ce4bgrh2rcd13ifvqc8g","pricing_plan_id":"free"},{"bike_id":"7df4930a-c828-493a-9eaf-018b34735263","system_id":"levelo_inurba_marseille","lat":43.308012,"lon":5.381511,"is_reserved":false,"is_disabled":false,"rental_uris":{"android":"levelo://app?vid=7df4930a-c828-493a-9eaf-018b34735263","ios":"levelo://app?vid=7df4930a-c828-493a-9eaf-018b34735263"},"vehicle_type_id":"4","last_reported":1679072800,"current_range_meters":0,"station_id":"ce4bgt12rcd13ifvqce0","pricing_plan_id":"free"},{"bike_id":"4a698a50-c25b-421c-ac03-8a91f59e851d","system_id":"levelo_inurba_marseille","lat":43.308012,"lon":5.381511,"is_reserved":false,"is_disabled":false,"rental_uris":{"android":"levelo://app?vid=4a698a50-c25b-421c-ac03-8a91f59e851d","ios":"levelo://app?vid=4a698a50-c25b-421c-ac03-8a91f59e851d"},"vehicle_type_id":"4","last_reported":1679072800,"current_range_meters":0,"station_id":"ce4bgt12rcd13ifvqce0","pricing_plan_id":"free"},{"bike_id":"c43a1ac9-8a70-497e-a9f0-f74724b380df","system_id":"levelo_inurba_marseille","lat":43.308037,"lon":5.381589,"is_reserved":false,"is_disabled":false,"rental_uris":{"android":"levelo://app?vid=c43a1ac9-8a70-497e-a9f0-f74724b380df","ios":"levelo://app?vid=c43a1ac9-8a70-497e-a9f0-f74724b380df"},"vehicle_type_id":"4","last_reported":1679072800,"current_range_meters":31600,"station_id":"","pricing_plan_id":"free"},{"bike_id":"5f1368b9-053e-4197-8671-f1b1a5305358","system_id":"levelo_inurba_marseille","lat":43.313571,"lon":5.384829,"is_reserved":false,"is_disabled":false,"rental_uris":{"android":"levelo://app?vid=5f1368b9-053e-4197-8671-f1b1a5305358","ios":"levelo://app?vid=5f1368b9-053e-4197-8671-f1b1a5305358"},"vehicle_type_id":"4","last_reported":1679072800,"current_range_meters":1200,"station_id":"ce4bgt92rcd13ifvqcf0","pricing_plan_id":"free"},{"bike_id":"d2a479b1-f831-4168-9649-2d0317a6b36b","system_id":"levelo_inurba_marseille","lat":43.313571,"lon":5.384829,"is_reserved":false,"is_disabled":false,"rental_uris":{"android":"levelo://app?vid=d2a479b1-f831-4168-9649-2d0317a6b36b","ios":"levelo://app?vid=d2a479b1-f831-4168-9649-2d0317a6b36b"},"vehicle_type_id":"4","last_reported":1679072800,"current_range_meters":4000,"station_id":"ce4bgt92rcd13ifvqcf0","pricing_plan_id":"free"},{"bike_id":"08aa59b7-03b6-4103-a128-a9bd0cc8a191","system_id":"levelo_inurba_marseille","lat":43.313571,"lon":5.384829,"is_reserved":false,"is_disabled":false,"rental_uris":{"android":"levelo://app?vid=08aa59b7-03b6-4103-a128-a9bd0cc8a191","ios":"levelo://app?vid=08aa59b7-03b6-4103-a128-a9bd0cc8a191"},"vehicle_type_id":"4","last_reported":1679072800,"current_range_meters":7600,"station_id":"ce4bgt92rcd13ifvqcf0","pricing_plan_id":"free"},{"bike_id":"8bbee353-f24a-44b1-ae80-5664b7e80a59","system_id":"levelo_inurba_marseille","lat":43.30538,"lon":5.38421,"is_reserved":false,"is_disabled":false,"rental_uris":{"android":"levelo://app?vid=8bbee353-f24a-44b1-ae80-5664b7e80a59","ios":"levelo://app?vid=8bbee353-f24a-44b1-ae80-5664b7e80a59"},"vehicle_type_id":"4","last_reported":1679072800,"current_range_meters":5600,"station_id":"","pricing_plan_id":"free"},{"bike_id":"95421e67-0e17-4d62-a40f-8fd30f9f71e4","system_id":"levelo_inurba_marseille","lat":43.305364,"lon":5.384119,"is_reserved":false,"is_disabled":false,"rental_uris":{"android":"levelo://app?vid=95421e67-0e17-4d62-a40f-8fd30f9f71e4","ios":"levelo://app?vid=95421e67-0e17-4d62-a40f-8fd30f9f71e4"},"vehicle_type_id":"4","last_reported":1679072800,"current_range_meters":18000,"station_id":"ce4bgg92rcd13ifvqb30","pricing_plan_id":"free"},{"bike_id":"38dd4f6a-fd3f-4bec-8053-86acfd3c5914","system_id":"levelo_inurba_marseille","lat":43.311722,"lon":5.387247,"is_reserved":false,"is_disabled":false,"rental_uris":{"android":"levelo://app?vid=38dd4f6a-fd3f-4bec-8053-86acfd3c5914","ios":"levelo://app?vid=38dd4f6a-fd3f-4bec-8053-86acfd3c5914"},"vehicle_type_id":"4","last_reported":1679072800,"current_range_meters":2800,"station_id":"ce4bgv12rcd13ifvqcp0","pricing_plan_id":"free"},{"bike_id":"5e0aa322-3b14-4fe0-85ac-ae3363b12206","system_id":"levelo_inurba_marseille","lat":43.311722,"lon":5.387247,"is_reserved":false,"is_disabled":false,"rental_uris":{"android":"levelo://app?vid=5e0aa322-3b14-4fe0-85ac-ae3363b12206","ios":"levelo://app?vid=5e0aa322-3b14-4fe0-85ac-ae3363b12206"},"vehicle_type_id":"4","last_reported":1679072800,"current_range_meters":1600,"station_id":"ce4bgv12rcd13ifvqcp0","pricing_plan_id":"free"},{"bike_id":"83f74f6b-7bf9-48eb-962f-d402bdec7d4d","system_id":"levelo_inurba_marseille","lat":43.297794,"lon":5.370888,"is_reserved":false,"is_disabled":false,"rental_uris":{"android":"levelo://app?vid=83f74f6b-7bf9-48eb-962f-d402bdec7d4d","ios":"levelo://app?vid=83f74f6b-7bf9-48eb-962f-d402bdec7d4d"},"vehicle_type_id":"4","last_reported":1679072800,"current_range_meters":0,"station_id":"ce4bgop2rcd13ifvqc1g","pricing_plan_id":"free"},{"bike_id":"f1c475af-a49d-4bdc-a9af-c91a53bf5136","system_id":"levelo_inurba_marseille","lat":43.297794,"lon":5.370888,"is_reserved":false,"is_disabled":false,"rental_uris":{"android":"levelo://app?vid=f1c475af-a49d-4bdc-a9af-c91a53bf5136","ios":"levelo://app?vid=f1c475af-a49d-4bdc-a9af-c91a53bf5136"},"vehicle_type_id":"4","last_reported":1679072800,"current_range_meters":24800,"station_id":"ce4bgop2rcd13ifvqc1g","pricing_plan_id":"free"},{"bike_id":"e9e66f7e-20a9-4a9f-aa38-8b1266534102","system_id":"levelo_inurba_marseille","lat":43.328371,"lon":5.366909,"is_reserved":false,"is_disabled":false,"rental_uris":{"android":"levelo://app?vid=e9e66f7e-20a9-4a9f-aa38-8b1266534102","ios":"levelo://app?vid=e9e66f7e-20a9-4a9f-aa38-8b1266534102"},"vehicle_type_id":"4","last_reported":1679072800,"current_range_meters":14800,"station_id":"ce4bhs92rcd13ifvqi0g","pricing_plan_id":"free"},{"bike_id":"2d1caec3-8ea9-40e4-8a26-927b39f78c93","system_id":"levelo_inurba_marseille","lat":43.328371,"lon":5.366909,"is_reserved":false,"is_disabled":false,"rental_uris":{"android":"levelo://app?vid=2d1caec3-8ea9-40e4-8a26-927b39f78c93","ios":"levelo://app?vid=2d1caec3-8ea9-40e4-8a26-927b39f78c93"},"vehicle_type_id":"4","last_reported":1679072800,"current_range_meters":27200,"station_id":"ce4bhs92rcd13ifvqi0g","pricing_plan_id":"free"},{"bike_id":"59712a1a-cf32-49d4-8996-85056e1ab734","system_id":"levelo_inurba_marseille","lat":43.328371,"lon":5.366909,"is_reserved":false,"is_disabled":false,"rental_uris":{"android":"levelo://app?vid=59712a1a-cf32-49d4-8996-85056e1ab734","ios":"levelo://app?vid=59712a1a-cf32-49d4-8996-85056e1ab734"},"vehicle_type_id":"4","last_reported":1679072800,"current_range_meters":18000,"station_id":"ce4bhs92rcd13ifvqi0g","pricing_plan_id":"free"},{"bike_id":"9b1034b0-f9a3-46bc-bf8b-e8bfffa5efd7","system_id":"levelo_inurba_marseille","lat":43.328371,"lon":5.366909,"is_reserved":false,"is_disabled":false,"rental_uris":{"android":"levelo://app?vid=9b1034b0-f9a3-46bc-bf8b-e8bfffa5efd7","ios":"levelo://app?vid=9b1034b0-f9a3-46bc-bf8b-e8bfffa5efd7"},"vehicle_type_id":"4","last_reported":1679072800,"current_range_meters":10000,"station_id":"ce4bhs92rcd13ifvqi0g","pricing_plan_id":"free"},{"bike_id":"ed6050ed-a55d-4261-9f48-1233ffd6cf12","system_id":"levelo_inurba_marseille","lat":43.328371,"lon":5.366909,"is_reserved":false,"is_disabled":false,"rental_uris":{"android":"levelo://app?vid=ed6050ed-a55d-4261-9f48-1233ffd6cf12","ios":"levelo://app?vid=ed6050ed-a55d-4261-9f48-1233ffd6cf12"},"vehicle_type_id":"4","last_reported":1679072800,"current_range_meters":22400,"station_id":"ce4bhs92rcd13ifvqi0g","pricing_plan_id":"free"},{"bike_id":"31df8f54-5fe2-41b6-b990-d4fd03f9d68f","system_id":"levelo_inurba_marseille","lat":43.328371,"lon":5.366909,"is_reserved":false,"is_disabled":false,"rental_uris":{"android":"levelo://app?vid=31df8f54-5fe2-41b6-b990-d4fd03f9d68f","ios":"levelo://app?vid=31df8f54-5fe2-41b6-b990-d4fd03f9d68f"},"vehicle_type_id":"4","last_reported":1679072800,"current_range_meters":10000,"station_id":"ce4bhs92rcd13ifvqi0g","pricing_plan_id":"free"},{"bike_id":"3ee5c336-8d90-48bb-aecc-fff7edaa9378","system_id":"levelo_inurba_marseille","lat":43.328371,"lon":5.366909,"is_reserved":false,"is_disabled":false,"rental_uris":{"android":"levelo://app?vid=3ee5c336-8d90-48bb-aecc-fff7edaa9378","ios":"levelo://app?vid=3ee5c336-8d90-48bb-aecc-fff7edaa9378"},"vehicle_type_id":"4","last_reported":1679072800,"current_range_meters":18000,"station_id":"ce4bhs92rcd13ifvqi0g","pricing_plan_id":"free"},{"bike_id":"f2e802e3-e55e-47fc-8e1e-34a2a38d4d3d","system_id":"levelo_inurba_marseille","lat":43.317557,"lon":5.390173,"is_reserved":false,"is_disabled":false,"rental_uris":{"android":"levelo://app?vid=f2e802e3-e55e-47fc-8e1e-34a2a38d4d3d","ios":"levelo://app?vid=f2e802e3-e55e-47fc-8e1e-34a2a38d4d3d"},"vehicle_type_id":"4","last_reported":1679072800,"current_range_meters":0,"station_id":"ce4bhqp2rcd13ifvqhng","pricing_plan_id":"free"},{"bike_id":"6d54c033-6140-43f3-ab4d-31a6b063fce4","system_id":"levelo_inurba_marseille","lat":43.29808,"lon":5.38243,"is_reserved":false,"is_disabled":false,"rental_uris":{"android":"levelo://app?vid=6d54c033-6140-43f3-ab4d-31a6b063fce4","ios":"levelo://app?vid=6d54c033-6140-43f3-ab4d-31a6b063fce4"},"vehicle_type_id":"4","last_reported":1679072800,"current_range_meters":17200,"station_id":"","pricing_plan_id":"free"},{"bike_id":"9ba9c49f-9b5e-4bce-8858-9564abb5e5aa","system_id":"levelo_inurba_marseille","lat":43.32368,"lon":5.38882,"is_reserved":false,"is_disabled":false,"rental_uris":{"android":"levelo://app?vid=9ba9c49f-9b5e-4bce-8858-9564abb5e5aa","ios":"levelo://app?vid=9ba9c49f-9b5e-4bce-8858-9564abb5e5aa"},"vehicle_type_id":"4","last_reported":1679072800,"current_range_meters":10000,"station_id":"","pricing_plan_id":"free"},{"bike_id":"44a6e458-3265-4809-a9ca-ead424a3a122","system_id":"levelo_inurba_marseille","lat":43.32367,"lon":5.388836,"is_reserved":false,"is_disabled":false,"rental_uris":{"android":"levelo://app?vid=44a6e458-3265-4809-a9ca-ead424a3a122","ios":"levelo://app?vid=44a6e458-3265-4809-a9ca-ead424a3a122"},"vehicle_type_id":"4","last_reported":1679072800,"current_range_meters":31200,"station_id":"ce4bhqp2rcd13ifvqhog","pricing_plan_id":"free"},{"bike_id":"3d1f709e-ef84-4b9a-be5d-5dbd6add1478","system_id":"levelo_inurba_marseille","lat":43.295408,"lon":5.385478,"is_reserved":false,"is_disabled":false,"rental_uris":{"android":"levelo://app?vid=3d1f709e-ef84-4b9a-be5d-5dbd6add1478","ios":"levelo://app?vid=3d1f709e-ef84-4b9a-be5d-5dbd6add1478"},"vehicle_type_id":"4","last_reported":1679072800,"current_range_meters":0,"station_id":"ce4bgih2rcd13ifvqba0","pricing_plan_id":"free"},{"bike_id":"486beaed-628f-4bcc-ba3b-e0de696bd3dc","system_id":"levelo_inurba_marseille","lat":43.322121,"lon":5.394266,"is_reserved":false,"is_disabled":false,"rental_uris":{"android":"levelo://app?vid=486beaed-628f-4bcc-ba3b-e0de696bd3dc","ios":"levelo://app?vid=486beaed-628f-4bcc-ba3b-e0de696bd3dc"},"vehicle_type_id":"4","last_reported":1679072800,"current_range_meters":14800,"station_id":"","pricing_plan_id":"free"},{"bike_id":"e3d4e2a2-52b2-4aba-afab-08c62e8e479d","system_id":"levelo_inurba_marseille","lat":43.290779,"lon":5.371482,"is_reserved":false,"is_disabled":false,"rental_uris":{"android":"levelo://app?vid=e3d4e2a2-52b2-4aba-afab-08c62e8e479d","ios":"levelo://app?vid=e3d4e2a2-52b2-4aba-afab-08c62e8e479d"},"vehicle_type_id":"4","last_reported":1679072800,"current_range_meters":1600,"station_id":"ce4bh5p2rcd13ifvqe4g","pricing_plan_id":"free"},{"bike_id":"324de3a8-b9b3-44af-b568-2d09719ef381","system_id":"levelo_inurba_marseille","lat":43.302008,"lon":5.394694,"is_reserved":false,"is_disabled":false,"rental_uris":{"android":"levelo://app?vid=324de3a8-b9b3-44af-b568-2d09719ef381","ios":"levelo://app?vid=324de3a8-b9b3-44af-b568-2d09719ef381"},"vehicle_type_id":"4","last_reported":1679072800,"current_range_meters":7600,"station_id":"ce4bh0p2rcd13ifvqd70","pricing_plan_id":"free"},{"bike_id":"2d23cdbc-6117-4a69-861a-03b3b997ec3c","system_id":"levelo_inurba_marseille","lat":43.302008,"lon":5.394694,"is_reserved":false,"is_disabled":false,"rental_uris":{"android":"levelo://app?vid=2d23cdbc-6117-4a69-861a-03b3b997ec3c","ios":"levelo://app?vid=2d23cdbc-6117-4a69-861a-03b3b997ec3c"},"vehicle_type_id":"4","last_reported":1679072800,"current_range_meters":5600,"station_id":"ce4bh0p2rcd13ifvqd70","pricing_plan_id":"free"},{"bike_id":"f3d4230b-6209-49f2-82d0-70d083ea67e7","system_id":"levelo_inurba_marseille","lat":43.289184,"lon":5.366408,"is_reserved":false,"is_disabled":false,"rental_uris":{"android":"levelo://app?vid=f3d4230b-6209-49f2-82d0-70d083ea67e7","ios":"levelo://app?vid=f3d4230b-6209-49f2-82d0-70d083ea67e7"},"vehicle_type_id":"4","last_reported":1679072800,"current_range_meters":13200,"station_id":"ce4bhap2rcd13ifvqek0","pricing_plan_id":"free"},{"bike_id":"2b59ce43-877b-4663-85c9-25fe3e11a38e","system_id":"levelo_inurba_marseille","lat":43.304296,"lon":5.397513,"is_reserved":false,"is_disabled":false,"rental_uris":{"android":"levelo://app?vid=2b59ce43-877b-4663-85c9-25fe3e11a38e","ios":"levelo://app?vid=2b59ce43-877b-4663-85c9-25fe3e11a38e"},"vehicle_type_id":"4","last_reported":1679072800,"current_range_meters":29200,"station_id":"ce4bh092rcd13ifvqd20","pricing_plan_id":"free"},{"bike_id":"3b556075-c367-4dc6-8e76-57d2fb06c9d0","system_id":"levelo_inurba_marseille","lat":43.304389,"lon":5.397462,"is_reserved":false,"is_disabled":false,"rental_uris":{"android":"levelo://app?vid=3b556075-c367-4dc6-8e76-57d2fb06c9d0","ios":"levelo://app?vid=3b556075-c367-4dc6-8e76-57d2fb06c9d0"},"vehicle_type_id":"4","last_reported":1679072800,"current_range_meters":1600,"station_id":"","pricing_plan_id":"free"},{"bike_id":"83e0d2ce-8940-4985-93f0-7adcfae6b050","system_id":"levelo_inurba_marseille","lat":43.304274,"lon":5.397513,"is_reserved":false,"is_disabled":false,"rental_uris":{"android":"levelo://app?vid=83e0d2ce-8940-4985-93f0-7adcfae6b050","ios":"levelo://app?vid=83e0d2ce-8940-4985-93f0-7adcfae6b050"},"vehicle_type_id":"4","last_reported":1679072800,"current_range_meters":26400,"station_id":"ce4bh092rcd13ifvqd20","pricing_plan_id":"free"},{"bike_id":"69966c89-b384-4cea-a504-ba9b2377d9ff","system_id":"levelo_inurba_marseille","lat":43.304296,"lon":5.397513,"is_reserved":false,"is_disabled":false,"rental_uris":{"android":"levelo://app?vid=69966c89-b384-4cea-a504-ba9b2377d9ff","ios":"levelo://app?vid=69966c89-b384-4cea-a504-ba9b2377d9ff"},"vehicle_type_id":"4","last_reported":1679072800,"current_range_meters":26000,"station_id":"ce4bh092rcd13ifvqd20","pricing_plan_id":"free"},{"bike_id":"97b3642a-84de-4e2c-8509-c9aa1987a36f","system_id":"levelo_inurba_marseille","lat":43.304303,"lon":5.397474,"is_reserved":false,"is_disabled":false,"rental_uris":{"android":"levelo://app?vid=97b3642a-84de-4e2c-8509-c9aa1987a36f","ios":"levelo://app?vid=97b3642a-84de-4e2c-8509-c9aa1987a36f"},"vehicle_type_id":"4","last_reported":1679072800,"current_range_meters":30000,"station_id":"","pricing_plan_id":"free"},{"bike_id":"1b5c235c-6e1c-4b5d-bccf-6fdaf7c83bf6","system_id":"levelo_inurba_marseille","lat":43.292644,"lon":5.384257,"is_reserved":false,"is_disabled":false,"rental_uris":{"android":"levelo://app?vid=1b5c235c-6e1c-4b5d-bccf-6fdaf7c83bf6","ios":"levelo://app?vid=1b5c235c-6e1c-4b5d-bccf-6fdaf7c83bf6"},"vehicle_type_id":"4","last_reported":1679072800,"current_range_meters":5200,"station_id":"ce4bh692rcd13ifvqea0","pricing_plan_id":"free"},{"bike_id":"a59aa8e2-622b-48c8-bdbb-44588b713a99","system_id":"levelo_inurba_marseille","lat":43.330442,"lon":5.389148,"is_reserved":false,"is_disabled":false,"rental_uris":{"android":"levelo://app?vid=a59aa8e2-622b-48c8-bdbb-44588b713a99","ios":"levelo://app?vid=a59aa8e2-622b-48c8-bdbb-44588b713a99"},"vehicle_type_id":"4","last_reported":1679072800,"current_range_meters":31200,"station_id":"ce4bhr92rcd13ifvqhrg","pricing_plan_id":"free"},{"bike_id":"b1dea6cf-6d03-4b39-8e4b-1206a8457bdd","system_id":"levelo_inurba_marseille","lat":43.330455,"lon":5.389113,"is_reserved":false,"is_disabled":false,"rental_uris":{"android":"levelo://app?vid=b1dea6cf-6d03-4b39-8e4b-1206a8457bdd","ios":"levelo://app?vid=b1dea6cf-6d03-4b39-8e4b-1206a8457bdd"},"vehicle_type_id":"4","last_reported":1679072800,"current_range_meters":28800,"station_id":"ce4bhr92rcd13ifvqhrg","pricing_plan_id":"free"},{"bike_id":"73f93aaf-9385-4696-b80f-ba1a035bfdce","system_id":"levelo_inurba_marseille","lat":43.330428,"lon":5.389203,"is_reserved":false,"is_disabled":false,"rental_uris":{"android":"levelo://app?vid=73f93aaf-9385-4696-b80f-ba1a035bfdce","ios":"levelo://app?vid=73f93aaf-9385-4696-b80f-ba1a035bfdce"},"vehicle_type_id":"4","last_reported":1679072800,"current_range_meters":31600,"station_id":"ce4bhr92rcd13ifvqhrg","pricing_plan_id":"free"},{"bike_id":"c089786d-b9cd-4ae9-8c81-1874a9b5c90d","system_id":"levelo_inurba_marseille","lat":43.330446,"lon":5.389178,"is_reserved":false,"is_disabled":false,"rental_uris":{"android":"levelo://app?vid=c089786d-b9cd-4ae9-8c81-1874a9b5c90d","ios":"levelo://app?vid=c089786d-b9cd-4ae9-8c81-1874a9b5c90d"},"vehicle_type_id":"4","last_reported":1679072800,"current_range_meters":0,"station_id":"","pricing_plan_id":"free"},{"bike_id":"ccfbf3de-ce32-4514-bfd2-167bc3147b23","system_id":"levelo_inurba_marseille","lat":43.33042,"lon":5.38922,"is_reserved":false,"is_disabled":false,"rental_uris":{"android":"levelo://app?vid=ccfbf3de-ce32-4514-bfd2-167bc3147b23","ios":"levelo://app?vid=ccfbf3de-ce32-4514-bfd2-167bc3147b23"},"vehicle_type_id":"4","last_reported":1679072800,"current_range_meters":31600,"station_id":"","pricing_plan_id":"free"},{"bike_id":"b799def0-bf00-4409-9ba7-8bddf8c3051d","system_id":"levelo_inurba_marseille","lat":43.330442,"lon":5.389148,"is_reserved":false,"is_disabled":false,"rental_uris":{"android":"levelo://app?vid=b799def0-bf00-4409-9ba7-8bddf8c3051d","ios":"levelo://app?vid=b799def0-bf00-4409-9ba7-8bddf8c3051d"},"vehicle_type_id":"4","last_reported":1679072800,"current_range_meters":31600,"station_id":"ce4bhr92rcd13ifvqhrg","pricing_plan_id":"free"},{"bike_id":"7af3c36c-d856-480f-98e4-bf0aa0fd6f07","system_id":"levelo_inurba_marseille","lat":43.290104,"lon":5.356111,"is_reserved":false,"is_disabled":false,"rental_uris":{"android":"levelo://app?vid=7af3c36c-d856-480f-98e4-bf0aa0fd6f07","ios":"levelo://app?vid=7af3c36c-d856-480f-98e4-bf0aa0fd6f07"},"vehicle_type_id":"4","last_reported":1679072800,"current_range_meters":2400,"station_id":"ce4bhb92rcd13ifvqen0","pricing_plan_id":"free"},{"bike_id":"48a6d882-a176-425e-9987-f988cf2af6fb","system_id":"levelo_inurba_marseille","lat":43.330442,"lon":5.389148,"is_reserved":false,"is_disabled":false,"rental_uris":{"android":"levelo://app?vid=48a6d882-a176-425e-9987-f988cf2af6fb","ios":"levelo://app?vid=48a6d882-a176-425e-9987-f988cf2af6fb"},"vehicle_type_id":"4","last_reported":1679072800,"current_range_meters":400,"station_id":"ce4bhr92rcd13ifvqhrg","pricing_plan_id":"free"},{"bike_id":"0b8c1de2-feb0-44b9-a429-4538f84bf758","system_id":"levelo_inurba_marseille","lat":43.290995,"lon":5.381361,"is_reserved":false,"is_disabled":false,"rental_uris":{"android":"levelo://app?vid=0b8c1de2-feb0-44b9-a429-4538f84bf758","ios":"levelo://app?vid=0b8c1de2-feb0-44b9-a429-4538f84bf758"},"vehicle_type_id":"4","last_reported":1679072800,"current_range_meters":24000,"station_id":"ce4bh512rcd13ifvqe2g","pricing_plan_id":"free"},{"bike_id":"44bf917f-255c-4440-8e28-075a325a4562","system_id":"levelo_inurba_marseille","lat":43.289741,"lon":5.378306,"is_reserved":false,"is_disabled":false,"rental_uris":{"android":"levelo://app?vid=44bf917f-255c-4440-8e28-075a325a4562","ios":"levelo://app?vid=44bf917f-255c-4440-8e28-075a325a4562"},"vehicle_type_id":"4","last_reported":1679072800,"current_range_meters":0,"station_id":"ce4bh9p2rcd13ifvqed0","pricing_plan_id":"free"},{"bike_id":"67c4501f-95fb-441a-803c-37c8fa3765af","system_id":"levelo_inurba_marseille","lat":43.290995,"lon":5.381361,"is_reserved":false,"is_disabled":false,"rental_uris":{"android":"levelo://app?vid=67c4501f-95fb-441a-803c-37c8fa3765af","ios":"levelo://app?vid=67c4501f-95fb-441a-803c-37c8fa3765af"},"vehicle_type_id":"4","last_reported":1679072800,"current_range_meters":0,"station_id":"ce4bh512rcd13ifvqe2g","pricing_plan_id":"free"},{"bike_id":"2d76de68-52b0-419d-9623-16e227f98bac","system_id":"levelo_inurba_marseille","lat":43.289743,"lon":5.378304,"is_reserved":false,"is_disabled":false,"rental_uris":{"android":"levelo://app?vid=2d76de68-52b0-419d-9623-16e227f98bac","ios":"levelo://app?vid=2d76de68-52b0-419d-9623-16e227f98bac"},"vehicle_type_id":"4","last_reported":1679072800,"current_range_meters":26400,"station_id":"ce4bh9p2rcd13ifvqed0","pricing_plan_id":"free"},{"bike_id":"c9775e5a-1ae8-429a-94d7-c796cdd23233","system_id":"levelo_inurba_marseille","lat":43.337374,"lon":5.374485,"is_reserved":false,"is_disabled":false,"rental_uris":{"android":"levelo://app?vid=c9775e5a-1ae8-429a-94d7-c796cdd23233","ios":"levelo://app?vid=c9775e5a-1ae8-429a-94d7-c796cdd23233"},"vehicle_type_id":"4","last_reported":1679072800,"current_range_meters":0,"station_id":"","pricing_plan_id":"free"},{"bike_id":"39f0ec80-84de-4a2d-a0d9-18b0a9d520ee","system_id":"levelo_inurba_marseille","lat":43.337401,"lon":5.374534,"is_reserved":false,"is_disabled":false,"rental_uris":{"android":"levelo://app?vid=39f0ec80-84de-4a2d-a0d9-18b0a9d520ee","ios":"levelo://app?vid=39f0ec80-84de-4a2d-a0d9-18b0a9d520ee"},"vehicle_type_id":"4","last_reported":1679072800,"current_range_meters":31200,"station_id":"","pricing_plan_id":"free"},{"bike_id":"f3e60a9c-2b74-43cb-ac11-5dfafdbb73c0","system_id":"levelo_inurba_marseille","lat":43.33743,"lon":5.374585,"is_reserved":false,"is_disabled":false,"rental_uris":{"android":"levelo://app?vid=f3e60a9c-2b74-43cb-ac11-5dfafdbb73c0","ios":"levelo://app?vid=f3e60a9c-2b74-43cb-ac11-5dfafdbb73c0"},"vehicle_type_id":"4","last_reported":1679072800,"current_range_meters":30800,"station_id":"","pricing_plan_id":"free"},{"bike_id":"f0888a5d-8469-4a4a-aa32-e51183159fbe","system_id":"levelo_inurba_marseille","lat":43.337425,"lon":5.37464,"is_reserved":false,"is_disabled":false,"rental_uris":{"android":"levelo://app?vid=f0888a5d-8469-4a4a-aa32-e51183159fbe","ios":"levelo://app?vid=f0888a5d-8469-4a4a-aa32-e51183159fbe"},"vehicle_type_id":"4","last_reported":1679072800,"current_range_meters":11200,"station_id":"","pricing_plan_id":"free"},{"bike_id":"97a70748-85a2-4139-aa8d-3426ee2a5b86","system_id":"levelo_inurba_marseille","lat":43.337501,"lon":5.374448,"is_reserved":false,"is_disabled":false,"rental_uris":{"android":"levelo://app?vid=97a70748-85a2-4139-aa8d-3426ee2a5b86","ios":"levelo://app?vid=97a70748-85a2-4139-aa8d-3426ee2a5b86"},"vehicle_type_id":"4","last_reported":1679072800,"current_range_meters":0,"station_id":"","pricing_plan_id":"free"},{"bike_id":"24e42b65-e736-4b02-9f91-341883142906","system_id":"levelo_inurba_marseille","lat":43.337554,"lon":5.374451,"is_reserved":false,"is_disabled":false,"rental_uris":{"android":"levelo://app?vid=24e42b65-e736-4b02-9f91-341883142906","ios":"levelo://app?vid=24e42b65-e736-4b02-9f91-341883142906"},"vehicle_type_id":"4","last_reported":1679072800,"current_range_meters":21200,"station_id":"","pricing_plan_id":"free"},{"bike_id":"c22df9ea-89f6-4b12-9621-9db2696af8f2","system_id":"levelo_inurba_marseille","lat":43.30642,"lon":5.401031,"is_reserved":false,"is_disabled":false,"rental_uris":{"android":"levelo://app?vid=c22df9ea-89f6-4b12-9621-9db2696af8f2","ios":"levelo://app?vid=c22df9ea-89f6-4b12-9621-9db2696af8f2"},"vehicle_type_id":"4","last_reported":1679072800,"current_range_meters":0,"station_id":"ce4bh112rcd13ifvqda0","pricing_plan_id":"free"},{"bike_id":"1eeb3db8-03ba-427c-9be8-ebaff270da7e","system_id":"levelo_inurba_marseille","lat":43.301117,"lon":5.398795,"is_reserved":false,"is_disabled":false,"rental_uris":{"android":"levelo://app?vid=1eeb3db8-03ba-427c-9be8-ebaff270da7e","ios":"levelo://app?vid=1eeb3db8-03ba-427c-9be8-ebaff270da7e"},"vehicle_type_id":"4","last_reported":1679072800,"current_range_meters":15200,"station_id":"ce4bh0h2rcd13ifvqd40","pricing_plan_id":"free"},{"bike_id":"8fe4d68a-d257-42d0-851b-fbbec665a0b1","system_id":"levelo_inurba_marseille","lat":43.301117,"lon":5.398795,"is_reserved":false,"is_disabled":false,"rental_uris":{"android":"levelo://app?vid=8fe4d68a-d257-42d0-851b-fbbec665a0b1","ios":"levelo://app?vid=8fe4d68a-d257-42d0-851b-fbbec665a0b1"},"vehicle_type_id":"4","last_reported":1679072800,"current_range_meters":3600,"station_id":"ce4bh0h2rcd13ifvqd40","pricing_plan_id":"free"},{"bike_id":"10fc3ba8-60a8-4843-a17e-e1bfaac81e95","system_id":"levelo_inurba_marseille","lat":43.332748,"lon":5.390178,"is_reserved":false,"is_disabled":false,"rental_uris":{"android":"levelo://app?vid=10fc3ba8-60a8-4843-a17e-e1bfaac81e95","ios":"levelo://app?vid=10fc3ba8-60a8-4843-a17e-e1bfaac81e95"},"vehicle_type_id":"4","last_reported":1679072800,"current_range_meters":26400,"station_id":"","pricing_plan_id":"free"},{"bike_id":"ef4c9b38-0a13-49b9-8052-66c844005cd3","system_id":"levelo_inurba_marseille","lat":43.302759,"lon":5.400793,"is_reserved":false,"is_disabled":false,"rental_uris":{"android":"levelo://app?vid=ef4c9b38-0a13-49b9-8052-66c844005cd3","ios":"levelo://app?vid=ef4c9b38-0a13-49b9-8052-66c844005cd3"},"vehicle_type_id":"4","last_reported":1679072800,"current_range_meters":8400,"station_id":"ce4bgvh2rcd13ifvqcs0","pricing_plan_id":"free"},{"bike_id":"7276a0f3-39e8-4af1-8160-d977e96e7a30","system_id":"levelo_inurba_marseille","lat":43.28611,"lon":5.37066,"is_reserved":false,"is_disabled":false,"rental_uris":{"android":"levelo://app?vid=7276a0f3-39e8-4af1-8160-d977e96e7a30","ios":"levelo://app?vid=7276a0f3-39e8-4af1-8160-d977e96e7a30"},"vehicle_type_id":"4","last_reported":1679072800,"current_range_meters":17200,"station_id":"ce4bht12rcd13ifvqi60","pricing_plan_id":"free"},{"bike_id":"a2c6bda0-afd3-404f-a596-4bd5f82468f7","system_id":"levelo_inurba_marseille","lat":43.272116,"lon":5.391747,"is_reserved":false,"is_disabled":false,"rental_uris":{"android":"levelo://app?vid=a2c6bda0-afd3-404f-a596-4bd5f82468f7","ios":"levelo://app?vid=a2c6bda0-afd3-404f-a596-4bd5f82468f7"},"vehicle_type_id":"4","last_reported":1679072800,"current_range_meters":27200,"station_id":"ce4bhhp2rcd13ifvqfm0","pricing_plan_id":"free"},{"bike_id":"976b0203-1c8b-4897-8a23-0fd147337b2b","system_id":"levelo_inurba_marseille","lat":43.272116,"lon":5.391747,"is_reserved":false,"is_disabled":false,"rental_uris":{"android":"levelo://app?vid=976b0203-1c8b-4897-8a23-0fd147337b2b","ios":"levelo://app?vid=976b0203-1c8b-4897-8a23-0fd147337b2b"},"vehicle_type_id":"4","last_reported":1679072800,"current_range_meters":26800,"station_id":"ce4bhhp2rcd13ifvqfm0","pricing_plan_id":"free"},{"bike_id":"9fe0dfd9-0f97-4313-97e3-1cd8a9649f0c","system_id":"levelo_inurba_marseille","lat":43.287185,"lon":5.379373,"is_reserved":false,"is_disabled":false,"rental_uris":{"android":"levelo://app?vid=9fe0dfd9-0f97-4313-97e3-1cd8a9649f0c","ios":"levelo://app?vid=9fe0dfd9-0f97-4313-97e3-1cd8a9649f0c"},"vehicle_type_id":"4","last_reported":1679072800,"current_range_meters":6400,"station_id":"ce4bh9p2rcd13ifvqec0","pricing_plan_id":"free"},{"bike_id":"ad0d22f1-2d83-4c54-8a7a-18ad8a94d66b","system_id":"levelo_inurba_marseille","lat":43.32551,"lon":5.40011,"is_reserved":false,"is_disabled":false,"rental_uris":{"android":"levelo://app?vid=ad0d22f1-2d83-4c54-8a7a-18ad8a94d66b","ios":"levelo://app?vid=ad0d22f1-2d83-4c54-8a7a-18ad8a94d66b"},"vehicle_type_id":"4","last_reported":1679072800,"current_range_meters":4000,"station_id":"","pricing_plan_id":"free"},{"bike_id":"c1594a73-4c30-41e4-84dd-8176053f6ef6","system_id":"levelo_inurba_marseille","lat":43.290412,"lon":5.399633,"is_reserved":false,"is_disabled":false,"rental_uris":{"android":"levelo://app?vid=c1594a73-4c30-41e4-84dd-8176053f6ef6","ios":"levelo://app?vid=c1594a73-4c30-41e4-84dd-8176053f6ef6"},"vehicle_type_id":"4","last_reported":1679072800,"current_range_meters":21600,"station_id":"ce4bh392rcd13ifvqdm0","pricing_plan_id":"free"},{"bike_id":"00fc4564-1442-40ea-bffd-0ef44720030d","system_id":"levelo_inurba_marseille","lat":43.295713,"lon":5.399639,"is_reserved":false,"is_disabled":false,"rental_uris":{"android":"levelo://app?vid=00fc4564-1442-40ea-bffd-0ef44720030d","ios":"levelo://app?vid=00fc4564-1442-40ea-bffd-0ef44720030d"},"vehicle_type_id":"4","last_reported":1679072800,"current_range_meters":30400,"station_id":"ce4bh312rcd13ifvqdj0","pricing_plan_id":"free"},{"bike_id":"e92849ce-e810-4025-8774-6ec0d3944c9a","system_id":"levelo_inurba_marseille","lat":43.32345,"lon":5.40623,"is_reserved":false,"is_disabled":false,"rental_uris":{"android":"levelo://app?vid=e92849ce-e810-4025-8774-6ec0d3944c9a","ios":"levelo://app?vid=e92849ce-e810-4025-8774-6ec0d3944c9a"},"vehicle_type_id":"4","last_reported":1679072800,"current_range_meters":0,"station_id":"","pricing_plan_id":"free"},{"bike_id":"1e10991f-90fd-435f-8d8e-defe631d4037","system_id":"levelo_inurba_marseille","lat":43.284793,"lon":5.384113,"is_reserved":false,"is_disabled":false,"rental_uris":{"android":"levelo://app?vid=1e10991f-90fd-435f-8d8e-defe631d4037","ios":"levelo://app?vid=1e10991f-90fd-435f-8d8e-defe631d4037"},"vehicle_type_id":"4","last_reported":1679072800,"current_range_meters":18400,"station_id":"ce4bh512rcd13ifvqe3g","pricing_plan_id":"free"},{"bike_id":"7e2621d6-0c86-4c7b-a8a3-e4470e5529f7","system_id":"levelo_inurba_marseille","lat":43.288501,"lon":5.393087,"is_reserved":false,"is_disabled":false,"rental_uris":{"android":"levelo://app?vid=7e2621d6-0c86-4c7b-a8a3-e4470e5529f7","ios":"levelo://app?vid=7e2621d6-0c86-4c7b-a8a3-e4470e5529f7"},"vehicle_type_id":"4","last_reported":1679072800,"current_range_meters":31600,"station_id":"ce4bh2p2rcd13ifvqdi0","pricing_plan_id":"free"},{"bike_id":"a65ca5c6-0003-4e53-9c57-52bc36967480","system_id":"levelo_inurba_marseille","lat":43.288501,"lon":5.393087,"is_reserved":false,"is_disabled":false,"rental_uris":{"android":"levelo://app?vid=a65ca5c6-0003-4e53-9c57-52bc36967480","ios":"levelo://app?vid=a65ca5c6-0003-4e53-9c57-52bc36967480"},"vehicle_type_id":"4","last_reported":1679072800,"current_range_meters":31600,"station_id":"ce4bh2p2rcd13ifvqdi0","pricing_plan_id":"free"},{"bike_id":"280bb4af-8a33-40c9-8d9c-ad6e5367409f","system_id":"levelo_inurba_marseille","lat":43.288501,"lon":5.393087,"is_reserved":false,"is_disabled":false,"rental_uris":{"android":"levelo://app?vid=280bb4af-8a33-40c9-8d9c-ad6e5367409f","ios":"levelo://app?vid=280bb4af-8a33-40c9-8d9c-ad6e5367409f"},"vehicle_type_id":"4","last_reported":1679072800,"current_range_meters":2400,"station_id":"ce4bh2p2rcd13ifvqdi0","pricing_plan_id":"free"},{"bike_id":"51d27b36-15a1-4beb-9bb0-82284c50a86a","system_id":"levelo_inurba_marseille","lat":43.284219,"lon":5.3497,"is_reserved":false,"is_disabled":false,"rental_uris":{"android":"levelo://app?vid=51d27b36-15a1-4beb-9bb0-82284c50a86a","ios":"levelo://app?vid=51d27b36-15a1-4beb-9bb0-82284c50a86a"},"vehicle_type_id":"4","last_reported":1679072800,"current_range_meters":13200,"station_id":"ce4bhbh2rcd13ifvqepg","pricing_plan_id":"free"},{"bike_id":"7128fb77-5590-44d2-96b4-c53b3fedfd8f","system_id":"levelo_inurba_marseille","lat":43.284219,"lon":5.3497,"is_reserved":false,"is_disabled":false,"rental_uris":{"android":"levelo://app?vid=7128fb77-5590-44d2-96b4-c53b3fedfd8f","ios":"levelo://app?vid=7128fb77-5590-44d2-96b4-c53b3fedfd8f"},"vehicle_type_id":"4","last_reported":1679072800,"current_range_meters":2400,"station_id":"ce4bhbh2rcd13ifvqepg","pricing_plan_id":"free"},{"bike_id":"a97b94f7-8013-4e30-9238-687b336976f8","system_id":"levelo_inurba_marseille","lat":43.284219,"lon":5.3497,"is_reserved":false,"is_disabled":false,"rental_uris":{"android":"levelo://app?vid=a97b94f7-8013-4e30-9238-687b336976f8","ios":"levelo://app?vid=a97b94f7-8013-4e30-9238-687b336976f8"},"vehicle_type_id":"4","last_reported":1679072800,"current_range_meters":23200,"station_id":"ce4bhbh2rcd13ifvqepg","pricing_plan_id":"free"},{"bike_id":"cd1c39b6-677c-4f9e-89ec-018f63fd7385","system_id":"levelo_inurba_marseille","lat":43.289363,"lon":5.396322,"is_reserved":false,"is_disabled":false,"rental_uris":{"android":"levelo://app?vid=cd1c39b6-677c-4f9e-89ec-018f63fd7385","ios":"levelo://app?vid=cd1c39b6-677c-4f9e-89ec-018f63fd7385"},"vehicle_type_id":"4","last_reported":1679072800,"current_range_meters":31600,"station_id":"ce4bh3h2rcd13ifvqdn0","pricing_plan_id":"free"},{"bike_id":"e9fa3d9c-863d-4f4b-adfe-3edd6efb3466","system_id":"levelo_inurba_marseille","lat":43.289363,"lon":5.396322,"is_reserved":false,"is_disabled":false,"rental_uris":{"android":"levelo://app?vid=e9fa3d9c-863d-4f4b-adfe-3edd6efb3466","ios":"levelo://app?vid=e9fa3d9c-863d-4f4b-adfe-3edd6efb3466"},"vehicle_type_id":"4","last_reported":1679072800,"current_range_meters":26800,"station_id":"ce4bh3h2rcd13ifvqdn0","pricing_plan_id":"free"},{"bike_id":"937afd09-4d84-4248-9c85-cadaf6f9f3f9","system_id":"levelo_inurba_marseille","lat":43.289363,"lon":5.396322,"is_reserved":false,"is_disabled":false,"rental_uris":{"android":"levelo://app?vid=937afd09-4d84-4248-9c85-cadaf6f9f3f9","ios":"levelo://app?vid=937afd09-4d84-4248-9c85-cadaf6f9f3f9"},"vehicle_type_id":"4","last_reported":1679072800,"current_range_meters":16000,"station_id":"ce4bh3h2rcd13ifvqdn0","pricing_plan_id":"free"},{"bike_id":"fd24a563-cdd2-4918-98b1-d8e824de5bf8","system_id":"levelo_inurba_marseille","lat":43.283502,"lon":5.386471,"is_reserved":false,"is_disabled":false,"rental_uris":{"android":"levelo://app?vid=fd24a563-cdd2-4918-98b1-d8e824de5bf8","ios":"levelo://app?vid=fd24a563-cdd2-4918-98b1-d8e824de5bf8"},"vehicle_type_id":"4","last_reported":1679072800,"current_range_meters":2800,"station_id":"ce4bh492rcd13ifvqdvg","pricing_plan_id":"free"},{"bike_id":"48844534-1600-4fd3-bb92-44b872fd06e9","system_id":"levelo_inurba_marseille","lat":43.283502,"lon":5.386471,"is_reserved":false,"is_disabled":false,"rental_uris":{"android":"levelo://app?vid=48844534-1600-4fd3-bb92-44b872fd06e9","ios":"levelo://app?vid=48844534-1600-4fd3-bb92-44b872fd06e9"},"vehicle_type_id":"4","last_reported":1679072800,"current_range_meters":14800,"station_id":"ce4bh492rcd13ifvqdvg","pricing_plan_id":"free"},{"bike_id":"0e8c4606-d358-48b8-811b-f60f0d3a3018","system_id":"levelo_inurba_marseille","lat":43.28039,"lon":5.369297,"is_reserved":false,"is_disabled":false,"rental_uris":{"android":"levelo://app?vid=0e8c4606-d358-48b8-811b-f60f0d3a3018","ios":"levelo://app?vid=0e8c4606-d358-48b8-811b-f60f0d3a3018"},"vehicle_type_id":"4","last_reported":1679072800,"current_range_meters":800,"station_id":"ce4bha12rcd13ifvqef0","pricing_plan_id":"free"},{"bike_id":"97f82443-fff8-4686-85b7-9700b4f68fe7","system_id":"levelo_inurba_marseille","lat":43.280382,"lon":5.369291,"is_reserved":false,"is_disabled":false,"rental_uris":{"android":"levelo://app?vid=97f82443-fff8-4686-85b7-9700b4f68fe7","ios":"levelo://app?vid=97f82443-fff8-4686-85b7-9700b4f68fe7"},"vehicle_type_id":"4","last_reported":1679072800,"current_range_meters":21200,"station_id":"ce4bha12rcd13ifvqef0","pricing_plan_id":"free"},{"bike_id":"80c032bd-f806-47f6-84d4-c2070dfc85b9","system_id":"levelo_inurba_marseille","lat":43.28039,"lon":5.369297,"is_reserved":false,"is_disabled":false,"rental_uris":{"android":"levelo://app?vid=80c032bd-f806-47f6-84d4-c2070dfc85b9","ios":"levelo://app?vid=80c032bd-f806-47f6-84d4-c2070dfc85b9"},"vehicle_type_id":"4","last_reported":1679072800,"current_range_meters":18800,"station_id":"ce4bha12rcd13ifvqef0","pricing_plan_id":"free"},{"bike_id":"c4456f52-4257-43ce-aea9-961aa0589cce","system_id":"levelo_inurba_marseille","lat":43.280382,"lon":5.369291,"is_reserved":false,"is_disabled":false,"rental_uris":{"android":"levelo://app?vid=c4456f52-4257-43ce-aea9-961aa0589cce","ios":"levelo://app?vid=c4456f52-4257-43ce-aea9-961aa0589cce"},"vehicle_type_id":"4","last_reported":1679072800,"current_range_meters":12800,"station_id":"ce4bha12rcd13ifvqef0","pricing_plan_id":"free"},{"bike_id":"30651ed6-d629-484b-9f61-5a25ba73b4cc","system_id":"levelo_inurba_marseille","lat":43.28039,"lon":5.369297,"is_reserved":false,"is_disabled":false,"rental_uris":{"android":"levelo://app?vid=30651ed6-d629-484b-9f61-5a25ba73b4cc","ios":"levelo://app?vid=30651ed6-d629-484b-9f61-5a25ba73b4cc"},"vehicle_type_id":"4","last_reported":1679072800,"current_range_meters":16000,"station_id":"ce4bha12rcd13ifvqef0","pricing_plan_id":"free"},{"bike_id":"2880d53d-9380-4d02-96c9-f6ef92796c6b","system_id":"levelo_inurba_marseille","lat":43.281044,"lon":5.378308,"is_reserved":false,"is_disabled":false,"rental_uris":{"android":"levelo://app?vid=2880d53d-9380-4d02-96c9-f6ef92796c6b","ios":"levelo://app?vid=2880d53d-9380-4d02-96c9-f6ef92796c6b"},"vehicle_type_id":"4","last_reported":1679072800,"current_range_meters":20800,"station_id":"ce4bha12rcd13ifvqee0","pricing_plan_id":"free"},{"bike_id":"ce241e65-e55f-4e65-be36-105b04f0653f","system_id":"levelo_inurba_marseille","lat":43.290412,"lon":5.399633,"is_reserved":false,"is_disabled":false,"rental_uris":{"android":"levelo://app?vid=ce241e65-e55f-4e65-be36-105b04f0653f","ios":"levelo://app?vid=ce241e65-e55f-4e65-be36-105b04f0653f"},"vehicle_type_id":"4","last_reported":1679072800,"current_range_meters":27600,"station_id":"ce4bh392rcd13ifvqdm0","pricing_plan_id":"free"},{"bike_id":"942b4e8e-2bb1-484d-8740-8a0fc5ab6e78","system_id":"levelo_inurba_marseille","lat":43.28103,"lon":5.37843,"is_reserved":false,"is_disabled":false,"rental_uris":{"android":"levelo://app?vid=942b4e8e-2bb1-484d-8740-8a0fc5ab6e78","ios":"levelo://app?vid=942b4e8e-2bb1-484d-8740-8a0fc5ab6e78"},"vehicle_type_id":"4","last_reported":1679072800,"current_range_meters":0,"station_id":"","pricing_plan_id":"free"},{"bike_id":"942b244b-a681-417b-8655-8bfc6dbe853e","system_id":"levelo_inurba_marseille","lat":43.281,"lon":5.37839,"is_reserved":false,"is_disabled":false,"rental_uris":{"android":"levelo://app?vid=942b244b-a681-417b-8655-8bfc6dbe853e","ios":"levelo://app?vid=942b244b-a681-417b-8655-8bfc6dbe853e"},"vehicle_type_id":"4","last_reported":1679072800,"current_range_meters":22800,"station_id":"","pricing_plan_id":"free"},{"bike_id":"92ba44a5-67b8-49db-a9f4-4e0191bfe9d4","system_id":"levelo_inurba_marseille","lat":43.287154,"lon":5.399979,"is_reserved":false,"is_disabled":false,"rental_uris":{"android":"levelo://app?vid=92ba44a5-67b8-49db-a9f4-4e0191bfe9d4","ios":"levelo://app?vid=92ba44a5-67b8-49db-a9f4-4e0191bfe9d4"},"vehicle_type_id":"4","last_reported":1679072800,"current_range_meters":19200,"station_id":"ce4bho92rcd13ifvqh3g","pricing_plan_id":"free"},{"bike_id":"5f34499e-e6f6-4dd8-be33-e79a695fe065","system_id":"levelo_inurba_marseille","lat":43.287154,"lon":5.399979,"is_reserved":false,"is_disabled":false,"rental_uris":{"android":"levelo://app?vid=5f34499e-e6f6-4dd8-be33-e79a695fe065","ios":"levelo://app?vid=5f34499e-e6f6-4dd8-be33-e79a695fe065"},"vehicle_type_id":"4","last_reported":1679072800,"current_range_meters":23200,"station_id":"ce4bho92rcd13ifvqh3g","pricing_plan_id":"free"},{"bike_id":"f0ae244b-6a1f-4c5a-a53e-15b706d3406e","system_id":"levelo_inurba_marseille","lat":43.320485,"lon":5.415289,"is_reserved":false,"is_disabled":false,"rental_uris":{"android":"levelo://app?vid=f0ae244b-6a1f-4c5a-a53e-15b706d3406e","ios":"levelo://app?vid=f0ae244b-6a1f-4c5a-a53e-15b706d3406e"},"vehicle_type_id":"4","last_reported":1679072800,"current_range_meters":1200,"station_id":"","pricing_plan_id":"free"},{"bike_id":"a639a822-8d29-4179-b9ea-e1b671d8bf34","system_id":"levelo_inurba_marseille","lat":43.32049,"lon":5.41534,"is_reserved":false,"is_disabled":false,"rental_uris":{"android":"levelo://app?vid=a639a822-8d29-4179-b9ea-e1b671d8bf34","ios":"levelo://app?vid=a639a822-8d29-4179-b9ea-e1b671d8bf34"},"vehicle_type_id":"4","last_reported":1679072800,"current_range_meters":0,"station_id":"","pricing_plan_id":"free"},{"bike_id":"7c36da39-b7d5-4c3d-a116-731fc5925d88","system_id":"levelo_inurba_marseille","lat":43.281421,"lon":5.391561,"is_reserved":false,"is_disabled":false,"rental_uris":{"android":"levelo://app?vid=7c36da39-b7d5-4c3d-a116-731fc5925d88","ios":"levelo://app?vid=7c36da39-b7d5-4c3d-a116-731fc5925d88"},"vehicle_type_id":"4","last_reported":1679072800,"current_range_meters":0,"station_id":"","pricing_plan_id":"free"},{"bike_id":"e63f44e2-88ef-4b63-8922-3746eb56c673","system_id":"levelo_inurba_marseille","lat":43.324769,"lon":5.414303,"is_reserved":false,"is_disabled":false,"rental_uris":{"android":"levelo://app?vid=e63f44e2-88ef-4b63-8922-3746eb56c673","ios":"levelo://app?vid=e63f44e2-88ef-4b63-8922-3746eb56c673"},"vehicle_type_id":"4","last_reported":1679072800,"current_range_meters":0,"station_id":"","pricing_plan_id":"free"},{"bike_id":"344ab00c-2f38-4cd9-a54a-8f674b505c84","system_id":"levelo_inurba_marseille","lat":43.324779,"lon":5.414304,"is_reserved":false,"is_disabled":false,"rental_uris":{"android":"levelo://app?vid=344ab00c-2f38-4cd9-a54a-8f674b505c84","ios":"levelo://app?vid=344ab00c-2f38-4cd9-a54a-8f674b505c84"},"vehicle_type_id":"4","last_reported":1679072800,"current_range_meters":14800,"station_id":"","pricing_plan_id":"free"},{"bike_id":"4a7e0a1b-219a-4f84-9415-57029157b8df","system_id":"levelo_inurba_marseille","lat":43.292699,"lon":5.408932,"is_reserved":false,"is_disabled":false,"rental_uris":{"android":"levelo://app?vid=4a7e0a1b-219a-4f84-9415-57029157b8df","ios":"levelo://app?vid=4a7e0a1b-219a-4f84-9415-57029157b8df"},"vehicle_type_id":"4","last_reported":1679072800,"current_range_meters":6000,"station_id":"ce4bh192rcd13ifvqdc0","pricing_plan_id":"free"},{"bike_id":"0591e09a-8f4c-4de2-9bba-b7744ca5c275","system_id":"levelo_inurba_marseille","lat":43.275326,"lon":5.389669,"is_reserved":false,"is_disabled":false,"rental_uris":{"android":"levelo://app?vid=0591e09a-8f4c-4de2-9bba-b7744ca5c275","ios":"levelo://app?vid=0591e09a-8f4c-4de2-9bba-b7744ca5c275"},"vehicle_type_id":"4","last_reported":1679072800,"current_range_meters":0,"station_id":"","pricing_plan_id":"free"},{"bike_id":"abe118ac-82ce-48db-8378-1c51ca430685","system_id":"levelo_inurba_marseille","lat":43.29483,"lon":5.41829,"is_reserved":false,"is_disabled":false,"rental_uris":{"android":"levelo://app?vid=abe118ac-82ce-48db-8378-1c51ca430685","ios":"levelo://app?vid=abe118ac-82ce-48db-8378-1c51ca430685"},"vehicle_type_id":"4","last_reported":1679072800,"current_range_meters":0,"station_id":"","pricing_plan_id":"free"},{"bike_id":"4d8928ec-40e0-4155-8e34-1e11e641ca23","system_id":"levelo_inurba_marseille","lat":43.317121,"lon":5.423936,"is_reserved":false,"is_disabled":false,"rental_uris":{"android":"levelo://app?vid=4d8928ec-40e0-4155-8e34-1e11e641ca23","ios":"levelo://app?vid=4d8928ec-40e0-4155-8e34-1e11e641ca23"},"vehicle_type_id":"4","last_reported":1679072800,"current_range_meters":32000,"station_id":"ce4bhp92rcd13ifvqhbg","pricing_plan_id":"free"},{"bike_id":"405d444d-dc4c-4df8-be54-7c1302c985cc","system_id":"levelo_inurba_marseille","lat":43.317121,"lon":5.423936,"is_reserved":false,"is_disabled":false,"rental_uris":{"android":"levelo://app?vid=405d444d-dc4c-4df8-be54-7c1302c985cc","ios":"levelo://app?vid=405d444d-dc4c-4df8-be54-7c1302c985cc"},"vehicle_type_id":"4","last_reported":1679072800,"current_range_meters":19200,"station_id":"ce4bhp92rcd13ifvqhbg","pricing_plan_id":"free"},{"bike_id":"1e34e95b-e8ca-49ad-82af-67f5b54722b8","system_id":"levelo_inurba_marseille","lat":43.273217,"lon":5.390885,"is_reserved":false,"is_disabled":false,"rental_uris":{"android":"levelo://app?vid=1e34e95b-e8ca-49ad-82af-67f5b54722b8","ios":"levelo://app?vid=1e34e95b-e8ca-49ad-82af-67f5b54722b8"},"vehicle_type_id":"4","last_reported":1679072800,"current_range_meters":0,"station_id":"","pricing_plan_id":"free"},{"bike_id":"fc08ca4d-73ec-49a5-9a01-327f92e75d34","system_id":"levelo_inurba_marseille","lat":43.272116,"lon":5.391747,"is_reserved":false,"is_disabled":false,"rental_uris":{"android":"levelo://app?vid=fc08ca4d-73ec-49a5-9a01-327f92e75d34","ios":"levelo://app?vid=fc08ca4d-73ec-49a5-9a01-327f92e75d34"},"vehicle_type_id":"4","last_reported":1679072800,"current_range_meters":24000,"station_id":"ce4bhhp2rcd13ifvqfm0","pricing_plan_id":"free"},{"bike_id":"8d3f43bc-50b8-4173-80a1-12e340ee08b0","system_id":"levelo_inurba_marseille","lat":43.278128,"lon":5.407195,"is_reserved":false,"is_disabled":false,"rental_uris":{"android":"levelo://app?vid=8d3f43bc-50b8-4173-80a1-12e340ee08b0","ios":"levelo://app?vid=8d3f43bc-50b8-4173-80a1-12e340ee08b0"},"vehicle_type_id":"4","last_reported":1679072800,"current_range_meters":24800,"station_id":"ce4bhnh2rcd13ifvqgtg","pricing_plan_id":"free"},{"bike_id":"31fe660e-e4a2-4410-81b3-4316e7ba4d07","system_id":"levelo_inurba_marseille","lat":43.31302,"lon":5.42987,"is_reserved":false,"is_disabled":false,"rental_uris":{"android":"levelo://app?vid=31fe660e-e4a2-4410-81b3-4316e7ba4d07","ios":"levelo://app?vid=31fe660e-e4a2-4410-81b3-4316e7ba4d07"},"vehicle_type_id":"4","last_reported":1679072800,"current_range_meters":10800,"station_id":"","pricing_plan_id":"free"},{"bike_id":"1af10934-c46a-4556-ad7d-b69ff2801480","system_id":"levelo_inurba_marseille","lat":43.26681,"lon":5.382694,"is_reserved":false,"is_disabled":false,"rental_uris":{"android":"levelo://app?vid=1af10934-c46a-4556-ad7d-b69ff2801480","ios":"levelo://app?vid=1af10934-c46a-4556-ad7d-b69ff2801480"},"vehicle_type_id":"4","last_reported":1679072800,"current_range_meters":4800,"station_id":"ce4bhg92rcd13ifvqf90","pricing_plan_id":"free"},{"bike_id":"e1b0b59c-5007-47c3-a8e4-e4b3dcf22e76","system_id":"levelo_inurba_marseille","lat":43.26681,"lon":5.382694,"is_reserved":false,"is_disabled":false,"rental_uris":{"android":"levelo://app?vid=e1b0b59c-5007-47c3-a8e4-e4b3dcf22e76","ios":"levelo://app?vid=e1b0b59c-5007-47c3-a8e4-e4b3dcf22e76"},"vehicle_type_id":"4","last_reported":1679072800,"current_range_meters":10800,"station_id":"ce4bhg92rcd13ifvqf90","pricing_plan_id":"free"},{"bike_id":"2f8b9e3e-cee1-4b1e-8fc9-b0217a8d1eea","system_id":"levelo_inurba_marseille","lat":43.26561,"lon":5.37283,"is_reserved":false,"is_disabled":false,"rental_uris":{"android":"levelo://app?vid=2f8b9e3e-cee1-4b1e-8fc9-b0217a8d1eea","ios":"levelo://app?vid=2f8b9e3e-cee1-4b1e-8fc9-b0217a8d1eea"},"vehicle_type_id":"4","last_reported":1679072800,"current_range_meters":12000,"station_id":"","pricing_plan_id":"free"},{"bike_id":"deb253ce-524d-4866-add5-7d1f7f42b2ed","system_id":"levelo_inurba_marseille","lat":43.265714,"lon":5.372891,"is_reserved":false,"is_disabled":false,"rental_uris":{"android":"levelo://app?vid=deb253ce-524d-4866-add5-7d1f7f42b2ed","ios":"levelo://app?vid=deb253ce-524d-4866-add5-7d1f7f42b2ed"},"vehicle_type_id":"4","last_reported":1679072800,"current_range_meters":0,"station_id":"ce4bhg12rcd13ifvqf70","pricing_plan_id":"free"},{"bike_id":"052852a3-a2a4-4ddb-8431-e6155779148e","system_id":"levelo_inurba_marseille","lat":43.265545,"lon":5.37287,"is_reserved":false,"is_disabled":false,"rental_uris":{"android":"levelo://app?vid=052852a3-a2a4-4ddb-8431-e6155779148e","ios":"levelo://app?vid=052852a3-a2a4-4ddb-8431-e6155779148e"},"vehicle_type_id":"4","last_reported":1679072800,"current_range_meters":0,"station_id":"ce4bhg12rcd13ifvqf70","pricing_plan_id":"free"},{"bike_id":"e38538de-e128-4a7a-a115-713ea47e4397","system_id":"levelo_inurba_marseille","lat":43.26554,"lon":5.37294,"is_reserved":false,"is_disabled":false,"rental_uris":{"android":"levelo://app?vid=e38538de-e128-4a7a-a115-713ea47e4397","ios":"levelo://app?vid=e38538de-e128-4a7a-a115-713ea47e4397"},"vehicle_type_id":"4","last_reported":1679072800,"current_range_meters":0,"station_id":"ce4bhg12rcd13ifvqf70","pricing_plan_id":"free"},{"bike_id":"73f4bce6-7de3-43f8-891e-b9c68ad0b4a3","system_id":"levelo_inurba_marseille","lat":43.26646,"lon":5.38154,"is_reserved":false,"is_disabled":false,"rental_uris":{"android":"levelo://app?vid=73f4bce6-7de3-43f8-891e-b9c68ad0b4a3","ios":"levelo://app?vid=73f4bce6-7de3-43f8-891e-b9c68ad0b4a3"},"vehicle_type_id":"4","last_reported":1679072800,"current_range_meters":13200,"station_id":"","pricing_plan_id":"free"},{"bike_id":"6efa0812-d82e-4577-a2dc-11edc72ba057","system_id":"levelo_inurba_marseille","lat":43.27996,"lon":5.416624,"is_reserved":false,"is_disabled":false,"rental_uris":{"android":"levelo://app?vid=6efa0812-d82e-4577-a2dc-11edc72ba057","ios":"levelo://app?vid=6efa0812-d82e-4577-a2dc-11edc72ba057"},"vehicle_type_id":"4","last_reported":1679072800,"current_range_meters":18400,"station_id":"ce4bho12rcd13ifvqh1g","pricing_plan_id":"free"},{"bike_id":"ad294667-1ed3-4024-88bf-9db5f65550bd","system_id":"levelo_inurba_marseille","lat":43.279999,"lon":5.41662,"is_reserved":false,"is_disabled":false,"rental_uris":{"android":"levelo://app?vid=ad294667-1ed3-4024-88bf-9db5f65550bd","ios":"levelo://app?vid=ad294667-1ed3-4024-88bf-9db5f65550bd"},"vehicle_type_id":"4","last_reported":1679072800,"current_range_meters":10000,"station_id":"ce4bho12rcd13ifvqh1g","pricing_plan_id":"free"},{"bike_id":"f00da236-c703-432f-9404-9a0ea2bac782","system_id":"levelo_inurba_marseille","lat":43.27996,"lon":5.416624,"is_reserved":false,"is_disabled":false,"rental_uris":{"android":"levelo://app?vid=f00da236-c703-432f-9404-9a0ea2bac782","ios":"levelo://app?vid=f00da236-c703-432f-9404-9a0ea2bac782"},"vehicle_type_id":"4","last_reported":1679072800,"current_range_meters":5600,"station_id":"ce4bho12rcd13ifvqh1g","pricing_plan_id":"free"},{"bike_id":"10bb1087-26ec-4c14-aa29-4ada5aaafb2e","system_id":"levelo_inurba_marseille","lat":43.308016,"lon":5.435301,"is_reserved":false,"is_disabled":false,"rental_uris":{"android":"levelo://app?vid=10bb1087-26ec-4c14-aa29-4ada5aaafb2e","ios":"levelo://app?vid=10bb1087-26ec-4c14-aa29-4ada5aaafb2e"},"vehicle_type_id":"4","last_reported":1679072800,"current_range_meters":0,"station_id":"","pricing_plan_id":"free"},{"bike_id":"a5c603e5-4c8f-408d-b116-80bfd62fd63e","system_id":"levelo_inurba_marseille","lat":43.265569,"lon":5.390047,"is_reserved":false,"is_disabled":false,"rental_uris":{"android":"levelo://app?vid=a5c603e5-4c8f-408d-b116-80bfd62fd63e","ios":"levelo://app?vid=a5c603e5-4c8f-408d-b116-80bfd62fd63e"},"vehicle_type_id":"4","last_reported":1679072800,"current_range_meters":4000,"station_id":"ce4bhe12rcd13ifvqf30","pricing_plan_id":"free"},{"bike_id":"01abb622-192b-481f-bd05-26cb3c0c76ef","system_id":"levelo_inurba_marseille","lat":43.26196,"lon":5.37445,"is_reserved":false,"is_disabled":false,"rental_uris":{"android":"levelo://app?vid=01abb622-192b-481f-bd05-26cb3c0c76ef","ios":"levelo://app?vid=01abb622-192b-481f-bd05-26cb3c0c76ef"},"vehicle_type_id":"4","last_reported":1679072800,"current_range_meters":3200,"station_id":"ce4bhgp2rcd13ifvqfc0","pricing_plan_id":"free"},{"bike_id":"e6b1ead7-9775-45a0-8c01-0a8102cc00ba","system_id":"levelo_inurba_marseille","lat":43.317104,"lon":5.436818,"is_reserved":false,"is_disabled":false,"rental_uris":{"android":"levelo://app?vid=e6b1ead7-9775-45a0-8c01-0a8102cc00ba","ios":"levelo://app?vid=e6b1ead7-9775-45a0-8c01-0a8102cc00ba"},"vehicle_type_id":"4","last_reported":1679072800,"current_range_meters":10400,"station_id":"ce4bhp92rcd13ifvqhcg","pricing_plan_id":"free"},{"bike_id":"a992411c-fcde-4c8e-a7e7-6d963f477a0c","system_id":"levelo_inurba_marseille","lat":43.26202,"lon":5.379299,"is_reserved":false,"is_disabled":false,"rental_uris":{"android":"levelo://app?vid=a992411c-fcde-4c8e-a7e7-6d963f477a0c","ios":"levelo://app?vid=a992411c-fcde-4c8e-a7e7-6d963f477a0c"},"vehicle_type_id":"4","last_reported":1679072800,"current_range_meters":31600,"station_id":"ce4bhjp2rcd13ifvqg90","pricing_plan_id":"free"},{"bike_id":"332935c2-b710-4171-ad0f-b9f922b1992a","system_id":"levelo_inurba_marseille","lat":43.267959,"lon":5.402687,"is_reserved":false,"is_disabled":false,"rental_uris":{"android":"levelo://app?vid=332935c2-b710-4171-ad0f-b9f922b1992a","ios":"levelo://app?vid=332935c2-b710-4171-ad0f-b9f922b1992a"},"vehicle_type_id":"4","last_reported":1679072800,"current_range_meters":26800,"station_id":"ce501612rcd8frsf0b60","pricing_plan_id":"free"},{"bike_id":"5e70df4c-8591-4888-ba00-089f24b0f222","system_id":"levelo_inurba_marseille","lat":43.26027,"lon":5.37552,"is_reserved":false,"is_disabled":false,"rental_uris":{"android":"levelo://app?vid=5e70df4c-8591-4888-ba00-089f24b0f222","ios":"levelo://app?vid=5e70df4c-8591-4888-ba00-089f24b0f222"},"vehicle_type_id":"4","last_reported":1679072800,"current_range_meters":800,"station_id":"","pricing_plan_id":"free"},{"bike_id":"3c495cc7-dd18-4fb2-a408-7d66f8c838e4","system_id":"levelo_inurba_marseille","lat":43.2607,"lon":5.393983,"is_reserved":false,"is_disabled":false,"rental_uris":{"android":"levelo://app?vid=3c495cc7-dd18-4fb2-a408-7d66f8c838e4","ios":"levelo://app?vid=3c495cc7-dd18-4fb2-a408-7d66f8c838e4"},"vehicle_type_id":"4","last_reported":1679072800,"current_range_meters":17200,"station_id":"ce4bhh92rcd13ifvqfj0","pricing_plan_id":"free"},{"bike_id":"377a072e-20f2-468b-9607-ad83681ee0e4","system_id":"levelo_inurba_marseille","lat":43.260628,"lon":5.394042,"is_reserved":false,"is_disabled":false,"rental_uris":{"android":"levelo://app?vid=377a072e-20f2-468b-9607-ad83681ee0e4","ios":"levelo://app?vid=377a072e-20f2-468b-9607-ad83681ee0e4"},"vehicle_type_id":"4","last_reported":1679072800,"current_range_meters":0,"station_id":"ce4bhh92rcd13ifvqfj0","pricing_plan_id":"free"},{"bike_id":"0affb0d5-c11f-41b1-b21d-f1e343927ad6","system_id":"levelo_inurba_marseille","lat":43.2607,"lon":5.393983,"is_reserved":false,"is_disabled":false,"rental_uris":{"android":"levelo://app?vid=0affb0d5-c11f-41b1-b21d-f1e343927ad6","ios":"levelo://app?vid=0affb0d5-c11f-41b1-b21d-f1e343927ad6"},"vehicle_type_id":"4","last_reported":1679072800,"current_range_meters":23600,"station_id":"ce4bhh92rcd13ifvqfj0","pricing_plan_id":"free"},{"bike_id":"4017e6b5-6c89-444d-b1ac-558873b8143a","system_id":"levelo_inurba_marseille","lat":43.254947,"lon":5.376454,"is_reserved":false,"is_disabled":false,"rental_uris":{"android":"levelo://app?vid=4017e6b5-6c89-444d-b1ac-558873b8143a","ios":"levelo://app?vid=4017e6b5-6c89-444d-b1ac-558873b8143a"},"vehicle_type_id":"4","last_reported":1679072800,"current_range_meters":800,"station_id":"ce4bhh12rcd13ifvqff0","pricing_plan_id":"free"},{"bike_id":"4cd8c517-340d-4563-86c5-f1ef769dfecf","system_id":"levelo_inurba_marseille","lat":43.25566,"lon":5.38234,"is_reserved":false,"is_disabled":false,"rental_uris":{"android":"levelo://app?vid=4cd8c517-340d-4563-86c5-f1ef769dfecf","ios":"levelo://app?vid=4cd8c517-340d-4563-86c5-f1ef769dfecf"},"vehicle_type_id":"4","last_reported":1679072800,"current_range_meters":27600,"station_id":"ce4bhih2rcd13ifvqfs0","pricing_plan_id":"free"},{"bike_id":"4b83cecf-c7bd-4b36-abda-972218e49d4c","system_id":"levelo_inurba_marseille","lat":43.25495,"lon":5.37648,"is_reserved":false,"is_disabled":false,"rental_uris":{"android":"levelo://app?vid=4b83cecf-c7bd-4b36-abda-972218e49d4c","ios":"levelo://app?vid=4b83cecf-c7bd-4b36-abda-972218e49d4c"},"vehicle_type_id":"4","last_reported":1679072800,"current_range_meters":11600,"station_id":"","pricing_plan_id":"free"},{"bike_id":"cbb9d145-22d7-4600-bd48-bfa3ba9af85c","system_id":"levelo_inurba_marseille","lat":43.26287,"lon":5.41207,"is_reserved":false,"is_disabled":false,"rental_uris":{"android":"levelo://app?vid=cbb9d145-22d7-4600-bd48-bfa3ba9af85c","ios":"levelo://app?vid=cbb9d145-22d7-4600-bd48-bfa3ba9af85c"},"vehicle_type_id":"4","last_reported":1679072800,"current_range_meters":0,"station_id":"","pricing_plan_id":"free"},{"bike_id":"9f0744fd-6640-400a-aa0a-b2759bbef99d","system_id":"levelo_inurba_marseille","lat":43.250023,"lon":5.38919,"is_reserved":false,"is_disabled":false,"rental_uris":{"android":"levelo://app?vid=9f0744fd-6640-400a-aa0a-b2759bbef99d","ios":"levelo://app?vid=9f0744fd-6640-400a-aa0a-b2759bbef99d"},"vehicle_type_id":"4","last_reported":1679072800,"current_range_meters":11200,"station_id":"ce4bhgp2rcd13ifvqfd0","pricing_plan_id":"free"},{"bike_id":"6c78d907-0efc-466f-aa2a-3d2cb9821df1","system_id":"levelo_inurba_marseille","lat":43.250009,"lon":5.389195,"is_reserved":false,"is_disabled":false,"rental_uris":{"android":"levelo://app?vid=6c78d907-0efc-466f-aa2a-3d2cb9821df1","ios":"levelo://app?vid=6c78d907-0efc-466f-aa2a-3d2cb9821df1"},"vehicle_type_id":"4","last_reported":1679072800,"current_range_meters":22800,"station_id":"ce4bhgp2rcd13ifvqfd0","pricing_plan_id":"free"},{"bike_id":"482ea0eb-1d9b-425b-aa46-114c9c28ae94","system_id":"levelo_inurba_marseille","lat":43.2479,"lon":5.374457,"is_reserved":false,"is_disabled":false,"rental_uris":{"android":"levelo://app?vid=482ea0eb-1d9b-425b-aa46-114c9c28ae94","ios":"levelo://app?vid=482ea0eb-1d9b-425b-aa46-114c9c28ae94"},"vehicle_type_id":"4","last_reported":1679072800,"current_range_meters":16800,"station_id":"ce4bhgh2rcd13ifvqfb0","pricing_plan_id":"free"},{"bike_id":"77657fdb-40ec-4ecf-8d78-043b025fef11","system_id":"levelo_inurba_marseille","lat":43.25091,"lon":5.39525,"is_reserved":false,"is_disabled":false,"rental_uris":{"android":"levelo://app?vid=77657fdb-40ec-4ecf-8d78-043b025fef11","ios":"levelo://app?vid=77657fdb-40ec-4ecf-8d78-043b025fef11"},"vehicle_type_id":"4","last_reported":1679072800,"current_range_meters":15600,"station_id":"ce4bhm12rcd13ifvqgkg","pricing_plan_id":"free"},{"bike_id":"b49e884f-1519-49fd-9af9-b7af61544fb7","system_id":"levelo_inurba_marseille","lat":43.24693,"lon":5.382096,"is_reserved":false,"is_disabled":false,"rental_uris":{"android":"levelo://app?vid=b49e884f-1519-49fd-9af9-b7af61544fb7","ios":"levelo://app?vid=b49e884f-1519-49fd-9af9-b7af61544fb7"},"vehicle_type_id":"4","last_reported":1679072800,"current_range_meters":0,"station_id":"ce4bhih2rcd13ifvqfr0","pricing_plan_id":"free"},{"bike_id":"f597a352-3e8f-48da-b4a1-4d82e6cb565c","system_id":"levelo_inurba_marseille","lat":43.24693,"lon":5.382096,"is_reserved":false,"is_disabled":false,"rental_uris":{"android":"levelo://app?vid=f597a352-3e8f-48da-b4a1-4d82e6cb565c","ios":"levelo://app?vid=f597a352-3e8f-48da-b4a1-4d82e6cb565c"},"vehicle_type_id":"4","last_reported":1679072800,"current_range_meters":4800,"station_id":"ce4bhih2rcd13ifvqfr0","pricing_plan_id":"free"},{"bike_id":"a51ff9a6-2157-4635-a8ef-febeb75174c5","system_id":"levelo_inurba_marseille","lat":43.25102,"lon":5.403214,"is_reserved":false,"is_disabled":false,"rental_uris":{"android":"levelo://app?vid=a51ff9a6-2157-4635-a8ef-febeb75174c5","ios":"levelo://app?vid=a51ff9a6-2157-4635-a8ef-febeb75174c5"},"vehicle_type_id":"4","last_reported":1679072800,"current_range_meters":12000,"station_id":"ce4bhlh2rcd13ifvqgig","pricing_plan_id":"free"},{"bike_id":"9b3e28b4-2569-45f5-b5f4-b74b9698e314","system_id":"levelo_inurba_marseille","lat":43.25119,"lon":5.40319,"is_reserved":false,"is_disabled":false,"rental_uris":{"android":"levelo://app?vid=9b3e28b4-2569-45f5-b5f4-b74b9698e314","ios":"levelo://app?vid=9b3e28b4-2569-45f5-b5f4-b74b9698e314"},"vehicle_type_id":"4","last_reported":1679072800,"current_range_meters":14000,"station_id":"ce4bhlh2rcd13ifvqgig","pricing_plan_id":"free"},{"bike_id":"bc30dd96-ea57-47fd-9f0e-aa2460a70e38","system_id":"levelo_inurba_marseille","lat":43.25102,"lon":5.403214,"is_reserved":false,"is_disabled":false,"rental_uris":{"android":"levelo://app?vid=bc30dd96-ea57-47fd-9f0e-aa2460a70e38","ios":"levelo://app?vid=bc30dd96-ea57-47fd-9f0e-aa2460a70e38"},"vehicle_type_id":"4","last_reported":1679072800,"current_range_meters":1200,"station_id":"ce4bhlh2rcd13ifvqgig","pricing_plan_id":"free"},{"bike_id":"f2ed81d0-448a-4122-bcb3-a453992721cc","system_id":"levelo_inurba_marseille","lat":43.25102,"lon":5.403214,"is_reserved":false,"is_disabled":false,"rental_uris":{"android":"levelo://app?vid=f2ed81d0-448a-4122-bcb3-a453992721cc","ios":"levelo://app?vid=f2ed81d0-448a-4122-bcb3-a453992721cc"},"vehicle_type_id":"4","last_reported":1679072800,"current_range_meters":10400,"station_id":"ce4bhlh2rcd13ifvqgig","pricing_plan_id":"free"},{"bike_id":"e2188f72-85b2-463a-a58d-ee6d4faa0235","system_id":"levelo_inurba_marseille","lat":43.25102,"lon":5.403214,"is_reserved":false,"is_disabled":false,"rental_uris":{"android":"levelo://app?vid=e2188f72-85b2-463a-a58d-ee6d4faa0235","ios":"levelo://app?vid=e2188f72-85b2-463a-a58d-ee6d4faa0235"},"vehicle_type_id":"4","last_reported":1679072800,"current_range_meters":15600,"station_id":"ce4bhlh2rcd13ifvqgig","pricing_plan_id":"free"},{"bike_id":"2f2e67d9-ef12-49f5-93bb-89e83bd22016","system_id":"levelo_inurba_marseille","lat":43.246467,"lon":5.388984,"is_reserved":false,"is_disabled":false,"rental_uris":{"android":"levelo://app?vid=2f2e67d9-ef12-49f5-93bb-89e83bd22016","ios":"levelo://app?vid=2f2e67d9-ef12-49f5-93bb-89e83bd22016"},"vehicle_type_id":"4","last_reported":1679072800,"current_range_meters":4400,"station_id":"ce4bhg12rcd13ifvqf60","pricing_plan_id":"free"},{"bike_id":"069eaf24-b4e0-465d-b84a-647011d15fa4","system_id":"levelo_inurba_marseille","lat":43.23969,"lon":5.36634,"is_reserved":false,"is_disabled":false,"rental_uris":{"android":"levelo://app?vid=069eaf24-b4e0-465d-b84a-647011d15fa4","ios":"levelo://app?vid=069eaf24-b4e0-465d-b84a-647011d15fa4"},"vehicle_type_id":"4","last_reported":1679072800,"current_range_meters":20400,"station_id":"ce4bhi12rcd13ifvqfp0","pricing_plan_id":"free"},{"bike_id":"57eb8358-09d4-419b-ae08-ebd10794faac","system_id":"levelo_inurba_marseille","lat":43.23965,"lon":5.36634,"is_reserved":false,"is_disabled":false,"rental_uris":{"android":"levelo://app?vid=57eb8358-09d4-419b-ae08-ebd10794faac","ios":"levelo://app?vid=57eb8358-09d4-419b-ae08-ebd10794faac"},"vehicle_type_id":"4","last_reported":1679072800,"current_range_meters":0,"station_id":"ce4bhi12rcd13ifvqfp0","pricing_plan_id":"free"},{"bike_id":"869c3dc7-fbe6-4d70-8481-0d1de7738054","system_id":"levelo_inurba_marseille","lat":43.23965,"lon":5.36633,"is_reserved":false,"is_disabled":false,"rental_uris":{"android":"levelo://app?vid=869c3dc7-fbe6-4d70-8481-0d1de7738054","ios":"levelo://app?vid=869c3dc7-fbe6-4d70-8481-0d1de7738054"},"vehicle_type_id":"4","last_reported":1679072800,"current_range_meters":800,"station_id":"ce4bhi12rcd13ifvqfp0","pricing_plan_id":"free"},{"bike_id":"2393ddc0-236d-4303-aea9-0070fb290055","system_id":"levelo_inurba_marseille","lat":43.23964,"lon":5.36646,"is_reserved":false,"is_disabled":false,"rental_uris":{"android":"levelo://app?vid=2393ddc0-236d-4303-aea9-0070fb290055","ios":"levelo://app?vid=2393ddc0-236d-4303-aea9-0070fb290055"},"vehicle_type_id":"4","last_reported":1679072800,"current_range_meters":0,"station_id":"ce4bhi12rcd13ifvqfp0","pricing_plan_id":"free"},{"bike_id":"9e08a389-75f3-4b7f-9b1c-ec02a7f18063","system_id":"levelo_inurba_marseille","lat":43.23964,"lon":5.36636,"is_reserved":false,"is_disabled":false,"rental_uris":{"android":"levelo://app?vid=9e08a389-75f3-4b7f-9b1c-ec02a7f18063","ios":"levelo://app?vid=9e08a389-75f3-4b7f-9b1c-ec02a7f18063"},"vehicle_type_id":"4","last_reported":1679072800,"current_range_meters":9200,"station_id":"ce4bhi12rcd13ifvqfp0","pricing_plan_id":"free"},{"bike_id":"5d9781e8-b868-408e-88ee-4e427979c715","system_id":"levelo_inurba_marseille","lat":43.239588,"lon":5.366238,"is_reserved":false,"is_disabled":false,"rental_uris":{"android":"levelo://app?vid=5d9781e8-b868-408e-88ee-4e427979c715","ios":"levelo://app?vid=5d9781e8-b868-408e-88ee-4e427979c715"},"vehicle_type_id":"4","last_reported":1679072800,"current_range_meters":17200,"station_id":"ce4bhi12rcd13ifvqfp0","pricing_plan_id":"free"},{"bike_id":"3ac1471f-7271-47f6-82c6-fc260a1fb105","system_id":"levelo_inurba_marseille","lat":43.241782,"lon":5.397264,"is_reserved":false,"is_disabled":false,"rental_uris":{"android":"levelo://app?vid=3ac1471f-7271-47f6-82c6-fc260a1fb105","ios":"levelo://app?vid=3ac1471f-7271-47f6-82c6-fc260a1fb105"},"vehicle_type_id":"4","last_reported":1679072800,"current_range_meters":1200,"station_id":"ce4bhn12rcd13ifvqgpg","pricing_plan_id":"free"},{"bike_id":"8050e31f-ec46-4b77-b5ff-dbda51a64f0e","system_id":"levelo_inurba_marseille","lat":43.24183,"lon":5.39727,"is_reserved":false,"is_disabled":false,"rental_uris":{"android":"levelo://app?vid=8050e31f-ec46-4b77-b5ff-dbda51a64f0e","ios":"levelo://app?vid=8050e31f-ec46-4b77-b5ff-dbda51a64f0e"},"vehicle_type_id":"4","last_reported":1679072800,"current_range_meters":6800,"station_id":"","pricing_plan_id":"free"},{"bike_id":"d51e4d2e-0631-492a-b9f9-6fbe76e56e0c","system_id":"levelo_inurba_marseille","lat":43.241782,"lon":5.397264,"is_reserved":false,"is_disabled":false,"rental_uris":{"android":"levelo://app?vid=d51e4d2e-0631-492a-b9f9-6fbe76e56e0c","ios":"levelo://app?vid=d51e4d2e-0631-492a-b9f9-6fbe76e56e0c"},"vehicle_type_id":"4","last_reported":1679072800,"current_range_meters":19600,"station_id":"ce4bhn12rcd13ifvqgpg","pricing_plan_id":"free"},{"bike_id":"57566f63-088c-4166-a718-bc62d74d69a8","system_id":"levelo_inurba_marseille","lat":43.241782,"lon":5.397264,"is_reserved":false,"is_disabled":false,"rental_uris":{"android":"levelo://app?vid=57566f63-088c-4166-a718-bc62d74d69a8","ios":"levelo://app?vid=57566f63-088c-4166-a718-bc62d74d69a8"},"vehicle_type_id":"4","last_reported":1679072800,"current_range_meters":6000,"station_id":"ce4bhn12rcd13ifvqgpg","pricing_plan_id":"free"},{"bike_id":"7f2c773d-95e3-4226-b545-31aae0b85fe6","system_id":"levelo_inurba_marseille","lat":43.241782,"lon":5.397264,"is_reserved":false,"is_disabled":false,"rental_uris":{"android":"levelo://app?vid=7f2c773d-95e3-4226-b545-31aae0b85fe6","ios":"levelo://app?vid=7f2c773d-95e3-4226-b545-31aae0b85fe6"},"vehicle_type_id":"4","last_reported":1679072800,"current_range_meters":14400,"station_id":"ce4bhn12rcd13ifvqgpg","pricing_plan_id":"free"},{"bike_id":"d8e5357e-9a60-4688-8442-30410611a472","system_id":"levelo_inurba_marseille","lat":43.241782,"lon":5.397264,"is_reserved":false,"is_disabled":false,"rental_uris":{"android":"levelo://app?vid=d8e5357e-9a60-4688-8442-30410611a472","ios":"levelo://app?vid=d8e5357e-9a60-4688-8442-30410611a472"},"vehicle_type_id":"4","last_reported":1679072800,"current_range_meters":26800,"station_id":"ce4bhn12rcd13ifvqgpg","pricing_plan_id":"free"},{"bike_id":"78b8682b-6184-4499-a3ea-a2caef73d006","system_id":"levelo_inurba_marseille","lat":43.241782,"lon":5.397264,"is_reserved":false,"is_disabled":false,"rental_uris":{"android":"levelo://app?vid=78b8682b-6184-4499-a3ea-a2caef73d006","ios":"levelo://app?vid=78b8682b-6184-4499-a3ea-a2caef73d006"},"vehicle_type_id":"4","last_reported":1679072800,"current_range_meters":1200,"station_id":"ce4bhn12rcd13ifvqgpg","pricing_plan_id":"free"},{"bike_id":"9ccf076f-7375-4e05-86ea-2e4203da3283","system_id":"levelo_inurba_marseille","lat":43.241782,"lon":5.397264,"is_reserved":false,"is_disabled":false,"rental_uris":{"android":"levelo://app?vid=9ccf076f-7375-4e05-86ea-2e4203da3283","ios":"levelo://app?vid=9ccf076f-7375-4e05-86ea-2e4203da3283"},"vehicle_type_id":"4","last_reported":1679072800,"current_range_meters":26400,"station_id":"ce4bhn12rcd13ifvqgpg","pricing_plan_id":"free"},{"bike_id":"f860332c-6a01-4748-9069-e08b8590d08d","system_id":"levelo_inurba_marseille","lat":43.23198,"lon":5.35552,"is_reserved":false,"is_disabled":false,"rental_uris":{"android":"levelo://app?vid=f860332c-6a01-4748-9069-e08b8590d08d","ios":"levelo://app?vid=f860332c-6a01-4748-9069-e08b8590d08d"},"vehicle_type_id":"4","last_reported":1679072800,"current_range_meters":10800,"station_id":"ce4bhu92rcd13ifvqi70","pricing_plan_id":"free"},{"bike_id":"956fe110-a343-4414-91a1-6e3d50bfa094","system_id":"levelo_inurba_marseille","lat":43.231923,"lon":5.355545,"is_reserved":false,"is_disabled":false,"rental_uris":{"android":"levelo://app?vid=956fe110-a343-4414-91a1-6e3d50bfa094","ios":"levelo://app?vid=956fe110-a343-4414-91a1-6e3d50bfa094"},"vehicle_type_id":"4","last_reported":1679072800,"current_range_meters":11200,"station_id":"ce4bhu92rcd13ifvqi70","pricing_plan_id":"free"},{"bike_id":"ff98316f-748f-4069-a942-b27635abd352","system_id":"levelo_inurba_marseille","lat":43.231923,"lon":5.355545,"is_reserved":false,"is_disabled":false,"rental_uris":{"android":"levelo://app?vid=ff98316f-748f-4069-a942-b27635abd352","ios":"levelo://app?vid=ff98316f-748f-4069-a942-b27635abd352"},"vehicle_type_id":"4","last_reported":1679072800,"current_range_meters":400,"station_id":"ce4bhu92rcd13ifvqi70","pricing_plan_id":"free"}]}}