{"last_updated":1739682524,"ttl":60,"version":"2.2","data":{"bikes":[{"bike_id":"6c7d8e20-8955-489e-827b-998c22968abe","system_id":"levelo_inurba_marseille","lat":43.29972,"lon":5.38501,"is_reserved":false,"is_disabled":false,"rental_uris":{"android":"levelo://app?vid=6c7d8e20-8955-489e-827b-998c22968abe","ios":"levelo://app?vid=6c7d8e20-8955-489e-827b-998c22968abe"},"vehicle_type_id":"4","last_reported":1739682524,"current_range_meters":38800,"station_id":"ce4bgj92rcd13ifvqbd0","pricing_plan_id":"cebpf4jnsgd1na2vs0mg"},{"bike_id":"b1589c62-efb6-4964-ade1-e2ad8e9b6ead","system_id":"levelo_inurba_marseille","lat":43.23151,"lon":5.43679,"is_reserved":false,"is_disabled":false,"rental_uris":{"android":"levelo://app?vid=b1589c62-efb6-4964-ade1-e2ad8e9b6ead","ios":"levelo://app?vid=b1589c62-efb6-4964-ade1-e2ad8e9b6ead"},"vehicle_type_id":"4","last_reported":1739682524,"current_range_meters":38000,"station_id":"ce4bhmp2rcd13ifvqgog","pricing_plan_id":"cebpf4jnsgd1na2vs0mg"},{"bike_id":"5a7b9fda-fcf7-4f0d-b371-842def3cdff7","system_id":"levelo_inurba_marseille","lat":43.29277,"lon":5.40154,"is_reserved":false,"is_disabled":true,"rental_uris":{"android":"levelo://app?vid=5a7b9fda-fcf7-4f0d-b371-842def3cdff7","ios":"levelo://app?vid=5a7b9fda-fcf7-4f0d-b371-842def3cdff7"},"vehicle_type_id":"4","last_reported":1739682524,"current_range_meters":35600,"station_id":"ce4bh312rcd13ifvqdk0","pricing_plan_id":"cebpf4jnsgd1na2vs0mg"},{"bike_id":"314ecb77-8b90-4fdb-aaf3-bbba8b437b8a","system_id":"levelo_inurba_marseille","lat":43.290824,"lon":5.380426,"is_reserved":false,"is_disabled":false,"rental_uris":{"android":"levelo://app?vid=314ecb77-8b90-4fdb-aaf3-bbba8b437b8a","ios":"levelo://app?vid=314ecb77-8b90-4fdb-aaf3-bbba8b437b8a"},"vehicle_type_id":"4","last_reported":1739682524,"current_range_meters":6000,"station_id":"","pricing_plan_id":"cebpf4jnsgd1na2vs0mg"},{"bike_id":"12c3694c-32df-46ed-95f2-cdd3b6575844","system_id":"levelo_inurba_marseille","lat":43.27178,"lon":5.4098,"is_reserved":false,"is_disabled":false,"rental_uris":{"android":"levelo://app?vid=12c3694c-32df-46ed-95f2-cdd3b6575844","ios":"levelo://app?vid=12c3694c-32df-46ed-95f2-cdd3b6575844"},"vehicle_type_id":"4","last_reported":1739682524,"current_range_meters":23200,"station_id":"ce4bhl12rcd13ifvqgf0","pricing_plan_id":"cebpf4jnsgd1na2vs0mg"},{"bike_id":"48a00b36-c772-4089-a1d7-3835b3c473bc","system_id":"levelo_inurba_marseille","lat":43.29703,"lon":5.36599,"is_reserved":false,"is_disabled":false,"rental_uris":{"android":"levelo://app?vid=48a00b36-c772-4089-a1d7-3835b3c473bc","ios":"levelo://app?vid=48a00b36-c772-4089-a1d7-3835b3c473bc"},"vehicle_type_id":"4","last_reported":1739682524,"current_range_meters":38400,"station_id":"ce4bgn12rcd13ifvqbt0","pricing_plan_id":"cebpf4jnsgd1na2vs0mg"},{"bike_id":"62f3880f-9989-4de6-98f7-905a65a8a1c8","system_id":"levelo_inurba_marseille","lat":43.30147,"lon":5.38787,"is_reserved":false,"is_disabled":false,"rental_uris":{"android":"levelo://app?vid=62f3880f-9989-4de6-98f7-905a65a8a1c8","ios":"levelo://app?vid=62f3880f-9989-4de6-98f7-905a65a8a1c8"},"vehicle_type_id":"4","last_reported":1739682524,"current_range_meters":32000,"station_id":"ce4bghh2rcd13ifvqb60","pricing_plan_id":"cebpf4jnsgd1na2vs0mg"},{"bike_id":"4f45f8e9-0c7b-4084-8dd3-4de8e3df7577","system_id":"levelo_inurba_marseille","lat":43.2511,"lon":5.40323,"is_reserved":false,"is_disabled":false,"rental_uris":{"android":"levelo://app?vid=4f45f8e9-0c7b-4084-8dd3-4de8e3df7577","ios":"levelo://app?vid=4f45f8e9-0c7b-4084-8dd3-4de8e3df7577"},"vehicle_type_id":"4","last_reported":1739682524,"current_range_meters":38800,"station_id":"ce4bhlh2rcd13ifvqgig","pricing_plan_id":"cebpf4jnsgd1na2vs0mg"},{"bike_id":"0ae73e20-3ba2-4a20-bef5-04dff4cd870f","system_id":"levelo_inurba_marseille","lat":43.29878,"lon":5.3891,"is_reserved":false,"is_disabled":false,"rental_uris":{"android":"levelo://app?vid=0ae73e20-3ba2-4a20-bef5-04dff4cd870f","ios":"levelo://app?vid=0ae73e20-3ba2-4a20-bef5-04dff4cd870f"},"vehicle_type_id":"4","last_reported":1739682524,"current_range_meters":10000,"station_id":"ce4bh392rcd13ifvqdl0","pricing_plan_id":"cebpf4jnsgd1na2vs0mg"},{"bike_id":"7c247a35-884c-42c8-b096-04ee8cdacc84","system_id":"levelo_inurba_marseille","lat":43.29881,"lon":5.38896,"is_reserved":false,"is_disabled":false,"rental_uris":{"android":"levelo://app?vid=7c247a35-884c-42c8-b096-04ee8cdacc84","ios":"levelo://app?vid=7c247a35-884c-42c8-b096-04ee8cdacc84"},"vehicle_type_id":"4","last_reported":1739682524,"current_range_meters":39200,"station_id":"ce4bh392rcd13ifvqdl0","pricing_plan_id":"cebpf4jnsgd1na2vs0mg"},{"bike_id":"56851809-1ddb-4244-9921-277fa67ca171","system_id":"levelo_inurba_marseille","lat":43.28842,"lon":5.35848,"is_reserved":false,"is_disabled":false,"rental_uris":{"android":"levelo://app?vid=56851809-1ddb-4244-9921-277fa67ca171","ios":"levelo://app?vid=56851809-1ddb-4244-9921-277fa67ca171"},"vehicle_type_id":"4","last_reported":1739682524,"current_range_meters":8400,"station_id":"ce4bhb12rcd13ifvqem0","pricing_plan_id":"cebpf4jnsgd1na2vs0mg"},{"bike_id":"ff426081-3726-4b6c-aa9f-0d0db0cbc7e6","system_id":"levelo_inurba_marseille","lat":43.28028,"lon":5.36948,"is_reserved":false,"is_disabled":false,"rental_uris":{"android":"levelo://app?vid=ff426081-3726-4b6c-aa9f-0d0db0cbc7e6","ios":"levelo://app?vid=ff426081-3726-4b6c-aa9f-0d0db0cbc7e6"},"vehicle_type_id":"4","last_reported":1739682524,"current_range_meters":39200,"station_id":"ce4bha12rcd13ifvqef0","pricing_plan_id":"cebpf4jnsgd1na2vs0mg"},{"bike_id":"58558eec-a927-4202-aa3d-c8ad7d804276","system_id":"levelo_inurba_marseille","lat":43.33022,"lon":5.39035,"is_reserved":false,"is_disabled":false,"rental_uris":{"android":"levelo://app?vid=58558eec-a927-4202-aa3d-c8ad7d804276","ios":"levelo://app?vid=58558eec-a927-4202-aa3d-c8ad7d804276"},"vehicle_type_id":"4","last_reported":1739682524,"current_range_meters":39200,"station_id":"ce4bhr92rcd13ifvqhrg","pricing_plan_id":"cebpf4jnsgd1na2vs0mg"},{"bike_id":"b2b69db9-a41c-4d37-b7e5-2536d9067581","system_id":"levelo_inurba_marseille","lat":43.2789,"lon":5.38009,"is_reserved":false,"is_disabled":false,"rental_uris":{"android":"levelo://app?vid=b2b69db9-a41c-4d37-b7e5-2536d9067581","ios":"levelo://app?vid=b2b69db9-a41c-4d37-b7e5-2536d9067581"},"vehicle_type_id":"4","last_reported":1739682524,"current_range_meters":25600,"station_id":"ce4bhf92rcd13ifvqf50","pricing_plan_id":"cebpf4jnsgd1na2vs0mg"},{"bike_id":"8c76a68a-1681-44e1-9c07-f9fb5ba2aeb9","system_id":"levelo_inurba_marseille","lat":43.25568,"lon":5.39775,"is_reserved":false,"is_disabled":false,"rental_uris":{"android":"levelo://app?vid=8c76a68a-1681-44e1-9c07-f9fb5ba2aeb9","ios":"levelo://app?vid=8c76a68a-1681-44e1-9c07-f9fb5ba2aeb9"},"vehicle_type_id":"4","last_reported":1739682524,"current_range_meters":30800,"station_id":"","pricing_plan_id":"cebpf4jnsgd1na2vs0mg"},{"bike_id":"5d583a39-7c00-40c3-8b46-b565e7717844","system_id":"levelo_inurba_marseille","lat":43.29524,"lon":5.39047,"is_reserved":false,"is_disabled":false,"rental_uris":{"android":"levelo://app?vid=5d583a39-7c00-40c3-8b46-b565e7717844","ios":"levelo://app?vid=5d583a39-7c00-40c3-8b46-b565e7717844"},"vehicle_type_id":"4","last_reported":1739682524,"current_range_meters":38000,"station_id":"ce4bh3p2rcd13ifvqdp0","pricing_plan_id":"cebpf4jnsgd1na2vs0mg"},{"bike_id":"f5f8dc66-64c5-4881-82b1-6414e53b43d4","system_id":"levelo_inurba_marseille","lat":43.28617,"lon":5.35102,"is_reserved":false,"is_disabled":false,"rental_uris":{"android":"levelo://app?vid=f5f8dc66-64c5-4881-82b1-6414e53b43d4","ios":"levelo://app?vid=f5f8dc66-64c5-4881-82b1-6414e53b43d4"},"vehicle_type_id":"4","last_reported":1739682524,"current_range_meters":8000,"station_id":"ce4bhch2rcd13ifvqeug","pricing_plan_id":"cebpf4jnsgd1na2vs0mg"},{"bike_id":"c7322498-81a4-46c8-b4c9-ec796bfac1e6","system_id":"levelo_inurba_marseille","lat":43.24173,"lon":5.36398,"is_reserved":false,"is_disabled":false,"rental_uris":{"android":"levelo://app?vid=c7322498-81a4-46c8-b4c9-ec796bfac1e6","ios":"levelo://app?vid=c7322498-81a4-46c8-b4c9-ec796bfac1e6"},"vehicle_type_id":"4","last_reported":1739682524,"current_range_meters":36800,"station_id":"cpo36qri1sfpv3e86is0","pricing_plan_id":"cebpf4jnsgd1na2vs0mg"},{"bike_id":"cfa076b0-f163-40aa-aaeb-78353d7f40ed","system_id":"levelo_inurba_marseille","lat":43.276668,"lon":5.389166,"is_reserved":false,"is_disabled":false,"rental_uris":{"android":"levelo://app?vid=cfa076b0-f163-40aa-aaeb-78353d7f40ed","ios":"levelo://app?vid=cfa076b0-f163-40aa-aaeb-78353d7f40ed"},"vehicle_type_id":"4","last_reported":1739682524,"current_range_meters":39200,"station_id":"ce4bhi12rcd13ifvqfo0","pricing_plan_id":"cebpf4jnsgd1na2vs0mg"},{"bike_id":"90f3e139-bace-4d38-b0a9-483c2a21ef01","system_id":"levelo_inurba_marseille","lat":43.279441,"lon":5.410385,"is_reserved":false,"is_disabled":false,"rental_uris":{"android":"levelo://app?vid=90f3e139-bace-4d38-b0a9-483c2a21ef01","ios":"levelo://app?vid=90f3e139-bace-4d38-b0a9-483c2a21ef01"},"vehicle_type_id":"4","last_reported":1739682524,"current_range_meters":8000,"station_id":"ce4bhnp2rcd13ifvqh0g","pricing_plan_id":"cebpf4jnsgd1na2vs0mg"},{"bike_id":"b0608a51-76d4-48cf-ad4a-891a136def1c","system_id":"levelo_inurba_marseille","lat":43.29238,"lon":5.36212,"is_reserved":false,"is_disabled":false,"rental_uris":{"android":"levelo://app?vid=b0608a51-76d4-48cf-ad4a-891a136def1c","ios":"levelo://app?vid=b0608a51-76d4-48cf-ad4a-891a136def1c"},"vehicle_type_id":"4","last_reported":1739682524,"current_range_meters":16800,"station_id":"ce4bhbh2rcd13ifvqeqg","pricing_plan_id":"cebpf4jnsgd1na2vs0mg"},{"bike_id":"78a75ae7-614a-44b0-9497-a54a4d375fae","system_id":"levelo_inurba_marseille","lat":43.26201,"lon":5.37924,"is_reserved":false,"is_disabled":false,"rental_uris":{"android":"levelo://app?vid=78a75ae7-614a-44b0-9497-a54a4d375fae","ios":"levelo://app?vid=78a75ae7-614a-44b0-9497-a54a4d375fae"},"vehicle_type_id":"4","last_reported":1739682524,"current_range_meters":38800,"station_id":"ce4bhjp2rcd13ifvqg90","pricing_plan_id":"cebpf4jnsgd1na2vs0mg"},{"bike_id":"8f28beee-2a0c-4896-878b-48a55ccfc291","system_id":"levelo_inurba_marseille","lat":43.28711,"lon":5.37943,"is_reserved":false,"is_disabled":false,"rental_uris":{"android":"levelo://app?vid=8f28beee-2a0c-4896-878b-48a55ccfc291","ios":"levelo://app?vid=8f28beee-2a0c-4896-878b-48a55ccfc291"},"vehicle_type_id":"4","last_reported":1739682524,"current_range_meters":37600,"station_id":"ce4bh9p2rcd13ifvqec0","pricing_plan_id":"cebpf4jnsgd1na2vs0mg"},{"bike_id":"12b446d5-f76b-4158-af75-29a23d10c68e","system_id":"levelo_inurba_marseille","lat":43.30639,"lon":5.4006,"is_reserved":false,"is_disabled":false,"rental_uris":{"android":"levelo://app?vid=12b446d5-f76b-4158-af75-29a23d10c68e","ios":"levelo://app?vid=12b446d5-f76b-4158-af75-29a23d10c68e"},"vehicle_type_id":"4","last_reported":1739682524,"current_range_meters":27600,"station_id":"ce4bh112rcd13ifvqda0","pricing_plan_id":"cebpf4jnsgd1na2vs0mg"},{"bike_id":"b34c6303-752a-46a1-93ad-ddbc991e20b6","system_id":"levelo_inurba_marseille","lat":43.23045,"lon":5.35491,"is_reserved":false,"is_disabled":false,"rental_uris":{"android":"levelo://app?vid=b34c6303-752a-46a1-93ad-ddbc991e20b6","ios":"levelo://app?vid=b34c6303-752a-46a1-93ad-ddbc991e20b6"},"vehicle_type_id":"4","last_reported":1739682524,"current_range_meters":36000,"station_id":"cpo3342slgdg3j2ifvpg","pricing_plan_id":"cebpf4jnsgd1na2vs0mg"},{"bike_id":"f7abcf74-16eb-4369-b6b8-ac0e795f9129","system_id":"levelo_inurba_marseille","lat":43.28155,"lon":5.42639,"is_reserved":false,"is_disabled":false,"rental_uris":{"android":"levelo://app?vid=f7abcf74-16eb-4369-b6b8-ac0e795f9129","ios":"levelo://app?vid=f7abcf74-16eb-4369-b6b8-ac0e795f9129"},"vehicle_type_id":"4","last_reported":1739682524,"current_range_meters":29600,"station_id":"ce4bhnh2rcd13ifvqgug","pricing_plan_id":"cebpf4jnsgd1na2vs0mg"},{"bike_id":"58f90898-7499-443b-a458-e2c59058430b","system_id":"levelo_inurba_marseille","lat":43.24067,"lon":5.37738,"is_reserved":false,"is_disabled":false,"rental_uris":{"android":"levelo://app?vid=58f90898-7499-443b-a458-e2c59058430b","ios":"levelo://app?vid=58f90898-7499-443b-a458-e2c59058430b"},"vehicle_type_id":"4","last_reported":1739682524,"current_range_meters":38800,"station_id":"ce4bhnp2rcd13ifvqgvg","pricing_plan_id":"cebpf4jnsgd1na2vs0mg"},{"bike_id":"bed4de35-ef09-4f9f-a13d-845fdf520d58","system_id":"levelo_inurba_marseille","lat":43.27485,"lon":5.41522,"is_reserved":false,"is_disabled":false,"rental_uris":{"android":"levelo://app?vid=bed4de35-ef09-4f9f-a13d-845fdf520d58","ios":"levelo://app?vid=bed4de35-ef09-4f9f-a13d-845fdf520d58"},"vehicle_type_id":"4","last_reported":1739682524,"current_range_meters":8800,"station_id":"","pricing_plan_id":"cebpf4jnsgd1na2vs0mg"},{"bike_id":"2821d2ff-3fc8-480e-81a3-1928b04e4a1d","system_id":"levelo_inurba_marseille","lat":43.31456,"lon":5.37414,"is_reserved":false,"is_disabled":false,"rental_uris":{"android":"levelo://app?vid=2821d2ff-3fc8-480e-81a3-1928b04e4a1d","ios":"levelo://app?vid=2821d2ff-3fc8-480e-81a3-1928b04e4a1d"},"vehicle_type_id":"4","last_reported":1739682524,"current_range_meters":8000,"station_id":"","pricing_plan_id":"cebpf4jnsgd1na2vs0mg"},{"bike_id":"ed72e317-b0f2-47df-a27f-f0a79f848886","system_id":"levelo_inurba_marseille","lat":43.2787,"lon":5.38032,"is_reserved":false,"is_disabled":false,"rental_uris":{"android":"levelo://app?vid=ed72e317-b0f2-47df-a27f-f0a79f848886","ios":"levelo://app?vid=ed72e317-b0f2-47df-a27f-f0a79f848886"},"vehicle_type_id":"4","last_reported":1739682524,"current_range_meters":38800,"station_id":"ce4bhf92rcd13ifvqf50","pricing_plan_id":"cebpf4jnsgd1na2vs0mg"},{"bike_id":"733b5e87-b364-4f07-9fd3-5df8261cb7c5","system_id":"levelo_inurba_marseille","lat":43.28858,"lon":5.39317,"is_reserved":false,"is_disabled":false,"rental_uris":{"android":"levelo://app?vid=733b5e87-b364-4f07-9fd3-5df8261cb7c5","ios":"levelo://app?vid=733b5e87-b364-4f07-9fd3-5df8261cb7c5"},"vehicle_type_id":"4","last_reported":1739682524,"current_range_meters":22000,"station_id":"ce4bh2p2rcd13ifvqdi0","pricing_plan_id":"cebpf4jnsgd1na2vs0mg"},{"bike_id":"822776da-dd10-4911-a8fe-e809a5143adb","system_id":"levelo_inurba_marseille","lat":43.284602,"lon":5.358881,"is_reserved":false,"is_disabled":false,"rental_uris":{"android":"levelo://app?vid=822776da-dd10-4911-a8fe-e809a5143adb","ios":"levelo://app?vid=822776da-dd10-4911-a8fe-e809a5143adb"},"vehicle_type_id":"4","last_reported":1739682524,"current_range_meters":38400,"station_id":"ce4bhah2rcd13ifvqei0","pricing_plan_id":"cebpf4jnsgd1na2vs0mg"},{"bike_id":"14d6fbb3-daab-45b0-8aa1-e8aa7b05a4b4","system_id":"levelo_inurba_marseille","lat":43.288488,"lon":5.393122,"is_reserved":false,"is_disabled":false,"rental_uris":{"android":"levelo://app?vid=14d6fbb3-daab-45b0-8aa1-e8aa7b05a4b4","ios":"levelo://app?vid=14d6fbb3-daab-45b0-8aa1-e8aa7b05a4b4"},"vehicle_type_id":"4","last_reported":1739682524,"current_range_meters":36000,"station_id":"ce4bh2p2rcd13ifvqdi0","pricing_plan_id":"cebpf4jnsgd1na2vs0mg"},{"bike_id":"bcaf8af6-c642-49c0-a3a2-1964c4eaa3d3","system_id":"levelo_inurba_marseille","lat":43.251165,"lon":5.403253,"is_reserved":false,"is_disabled":false,"rental_uris":{"android":"levelo://app?vid=bcaf8af6-c642-49c0-a3a2-1964c4eaa3d3","ios":"levelo://app?vid=bcaf8af6-c642-49c0-a3a2-1964c4eaa3d3"},"vehicle_type_id":"4","last_reported":1739682524,"current_range_meters":10000,"station_id":"ce4bhlh2rcd13ifvqgig","pricing_plan_id":"cebpf4jnsgd1na2vs0mg"},{"bike_id":"51675de5-e2ea-4055-9c2a-3ccd84896301","system_id":"levelo_inurba_marseille","lat":43.302134,"lon":5.394693,"is_reserved":false,"is_disabled":false,"rental_uris":{"android":"levelo://app?vid=51675de5-e2ea-4055-9c2a-3ccd84896301","ios":"levelo://app?vid=51675de5-e2ea-4055-9c2a-3ccd84896301"},"vehicle_type_id":"4","last_reported":1739682524,"current_range_meters":30000,"station_id":"ce4bh0p2rcd13ifvqd70","pricing_plan_id":"cebpf4jnsgd1na2vs0mg"},{"bike_id":"940ffad1-8d03-466c-a361-1bdb8859eb0e","system_id":"levelo_inurba_marseille","lat":43.2862,"lon":5.351,"is_reserved":false,"is_disabled":true,"rental_uris":{"android":"levelo://app?vid=940ffad1-8d03-466c-a361-1bdb8859eb0e","ios":"levelo://app?vid=940ffad1-8d03-466c-a361-1bdb8859eb0e"},"vehicle_type_id":"4","last_reported":1739682524,"current_range_meters":0,"station_id":"ce4bhch2rcd13ifvqeug","pricing_plan_id":"cebpf4jnsgd1na2vs0mg"},{"bike_id":"71ee7552-6225-4f21-8301-72c964ebec2d","system_id":"levelo_inurba_marseille","lat":43.2667,"lon":5.38251,"is_reserved":false,"is_disabled":true,"rental_uris":{"android":"levelo://app?vid=71ee7552-6225-4f21-8301-72c964ebec2d","ios":"levelo://app?vid=71ee7552-6225-4f21-8301-72c964ebec2d"},"vehicle_type_id":"4","last_reported":1739682524,"current_range_meters":5600,"station_id":"ce4bhg92rcd13ifvqf90","pricing_plan_id":"cebpf4jnsgd1na2vs0mg"},{"bike_id":"7dbd5b9a-43cb-483c-a00a-ce13856c7714","system_id":"levelo_inurba_marseille","lat":43.29442,"lon":5.39726,"is_reserved":false,"is_disabled":false,"rental_uris":{"android":"levelo://app?vid=7dbd5b9a-43cb-483c-a00a-ce13856c7714","ios":"levelo://app?vid=7dbd5b9a-43cb-483c-a00a-ce13856c7714"},"vehicle_type_id":"4","last_reported":1739682524,"current_range_meters":38800,"station_id":"ce4bh3h2rcd13ifvqdo0","pricing_plan_id":"cebpf4jnsgd1na2vs0mg"},{"bike_id":"8be46145-756e-423a-8bc4-f7f673389b25","system_id":"levelo_inurba_marseille","lat":43.303139,"lon":5.368994,"is_reserved":false,"is_disabled":false,"rental_uris":{"android":"levelo://app?vid=8be46145-756e-423a-8bc4-f7f673389b25","ios":"levelo://app?vid=8be46145-756e-423a-8bc4-f7f673389b25"},"vehicle_type_id":"4","last_reported":1739682524,"current_range_meters":37600,"station_id":"ce4bgqh2rcd13ifvqc5g","pricing_plan_id":"cebpf4jnsgd1na2vs0mg"},{"bike_id":"1f0657bb-7196-41de-84fc-c834bbf90b28","system_id":"levelo_inurba_marseille","lat":43.280831,"lon":5.396556,"is_reserved":false,"is_disabled":true,"rental_uris":{"android":"levelo://app?vid=1f0657bb-7196-41de-84fc-c834bbf90b28","ios":"levelo://app?vid=1f0657bb-7196-41de-84fc-c834bbf90b28"},"vehicle_type_id":"4","last_reported":1739682524,"current_range_meters":38800,"station_id":"ce4bho12rcd13ifvqh2g","pricing_plan_id":"cebpf4jnsgd1na2vs0mg"},{"bike_id":"4085957e-a34f-48ec-8023-d0e7a9e56b71","system_id":"levelo_inurba_marseille","lat":43.2306,"lon":5.35492,"is_reserved":false,"is_disabled":false,"rental_uris":{"android":"levelo://app?vid=4085957e-a34f-48ec-8023-d0e7a9e56b71","ios":"levelo://app?vid=4085957e-a34f-48ec-8023-d0e7a9e56b71"},"vehicle_type_id":"4","last_reported":1739682524,"current_range_meters":38000,"station_id":"cpo3342slgdg3j2ifvpg","pricing_plan_id":"cebpf4jnsgd1na2vs0mg"},{"bike_id":"f2109cf1-8d49-4b78-bee1-4b30300bad2d","system_id":"levelo_inurba_marseille","lat":43.30187,"lon":5.3657,"is_reserved":false,"is_disabled":false,"rental_uris":{"android":"levelo://app?vid=f2109cf1-8d49-4b78-bee1-4b30300bad2d","ios":"levelo://app?vid=f2109cf1-8d49-4b78-bee1-4b30300bad2d"},"vehicle_type_id":"4","last_reported":1739682524,"current_range_meters":38800,"station_id":"ce4bgrh2rcd13ifvqc8g","pricing_plan_id":"cebpf4jnsgd1na2vs0mg"},{"bike_id":"8172451f-620b-4bb8-91b1-1e4678991019","system_id":"levelo_inurba_marseille","lat":43.28143,"lon":5.42622,"is_reserved":false,"is_disabled":false,"rental_uris":{"android":"levelo://app?vid=8172451f-620b-4bb8-91b1-1e4678991019","ios":"levelo://app?vid=8172451f-620b-4bb8-91b1-1e4678991019"},"vehicle_type_id":"4","last_reported":1739682524,"current_range_meters":38000,"station_id":"ce4bhnh2rcd13ifvqgug","pricing_plan_id":"cebpf4jnsgd1na2vs0mg"},{"bike_id":"d6fdeac0-7252-460c-9b91-9ee63ef09f4e","system_id":"levelo_inurba_marseille","lat":43.29278,"lon":5.4014,"is_reserved":false,"is_disabled":false,"rental_uris":{"android":"levelo://app?vid=d6fdeac0-7252-460c-9b91-9ee63ef09f4e","ios":"levelo://app?vid=d6fdeac0-7252-460c-9b91-9ee63ef09f4e"},"vehicle_type_id":"4","last_reported":1739682524,"current_range_meters":16800,"station_id":"ce4bh312rcd13ifvqdk0","pricing_plan_id":"cebpf4jnsgd1na2vs0mg"},{"bike_id":"1bb282de-7a9b-4949-a763-e4305f74cf66","system_id":"levelo_inurba_marseille","lat":43.23508,"lon":5.37997,"is_reserved":false,"is_disabled":false,"rental_uris":{"android":"levelo://app?vid=1bb282de-7a9b-4949-a763-e4305f74cf66","ios":"levelo://app?vid=1bb282de-7a9b-4949-a763-e4305f74cf66"},"vehicle_type_id":"4","last_reported":1739682524,"current_range_meters":22000,"station_id":"","pricing_plan_id":"cebpf4jnsgd1na2vs0mg"},{"bike_id":"b4501870-b8ed-41e7-9c02-cfe959070884","system_id":"levelo_inurba_marseille","lat":43.24072,"lon":5.3776,"is_reserved":false,"is_disabled":false,"rental_uris":{"android":"levelo://app?vid=b4501870-b8ed-41e7-9c02-cfe959070884","ios":"levelo://app?vid=b4501870-b8ed-41e7-9c02-cfe959070884"},"vehicle_type_id":"4","last_reported":1739682524,"current_range_meters":29600,"station_id":"ce4bhnp2rcd13ifvqgvg","pricing_plan_id":"cebpf4jnsgd1na2vs0mg"},{"bike_id":"c2d09b55-5075-4a31-8bc5-b9eab7bc4ad0","system_id":"levelo_inurba_marseille","lat":43.26495,"lon":5.39546,"is_reserved":false,"is_disabled":false,"rental_uris":{"android":"levelo://app?vid=c2d09b55-5075-4a31-8bc5-b9eab7bc4ad0","ios":"levelo://app?vid=c2d09b55-5075-4a31-8bc5-b9eab7bc4ad0"},"vehicle_type_id":"4","last_reported":1739682524,"current_range_meters":33200,"station_id":"ce4bhi12rcd13ifvqfq0","pricing_plan_id":"cebpf4jnsgd1na2vs0mg"},{"bike_id":"e60ad64c-d354-4cc9-b4c4-430dc10bce79","system_id":"levelo_inurba_marseille","lat":43.28479,"lon":5.35848,"is_reserved":false,"is_disabled":false,"rental_uris":{"android":"levelo://app?vid=e60ad64c-d354-4cc9-b4c4-430dc10bce79","ios":"levelo://app?vid=e60ad64c-d354-4cc9-b4c4-430dc10bce79"},"vehicle_type_id":"4","last_reported":1739682524,"current_range_meters":6000,"station_id":"ce4bhah2rcd13ifvqei0","pricing_plan_id":"cebpf4jnsgd1na2vs0mg"},{"bike_id":"f92e748a-9f9b-4e54-8084-07e33515f3d5","system_id":"levelo_inurba_marseille","lat":43.27071,"lon":5.39347,"is_reserved":false,"is_disabled":true,"rental_uris":{"android":"levelo://app?vid=f92e748a-9f9b-4e54-8084-07e33515f3d5","ios":"levelo://app?vid=f92e748a-9f9b-4e54-8084-07e33515f3d5"},"vehicle_type_id":"4","last_reported":1739682524,"current_range_meters":0,"station_id":"","pricing_plan_id":"cebpf4jnsgd1na2vs0mg"},{"bike_id":"68724876-24ef-4b6d-a1c6-6ee32f666069","system_id":"levelo_inurba_marseille","lat":43.30927,"lon":5.40159,"is_reserved":false,"is_disabled":false,"rental_uris":{"android":"levelo://app?vid=68724876-24ef-4b6d-a1c6-6ee32f666069","ios":"levelo://app?vid=68724876-24ef-4b6d-a1c6-6ee32f666069"},"vehicle_type_id":"4","last_reported":1739682524,"current_range_meters":16400,"station_id":"ce4bgvp2rcd13ifvqct0","pricing_plan_id":"cebpf4jnsgd1na2vs0mg"},{"bike_id":"21ea22d9-d130-46b3-936f-8d5246910eee","system_id":"levelo_inurba_marseille","lat":43.30525,"lon":5.36725,"is_reserved":false,"is_disabled":false,"rental_uris":{"android":"levelo://app?vid=21ea22d9-d130-46b3-936f-8d5246910eee","ios":"levelo://app?vid=21ea22d9-d130-46b3-936f-8d5246910eee"},"vehicle_type_id":"4","last_reported":1739682524,"current_range_meters":38400,"station_id":"ce4bgrp2rcd13ifvqc9g","pricing_plan_id":"cebpf4jnsgd1na2vs0mg"},{"bike_id":"a41bc1c5-d238-43e3-abb3-4fcf0a480bdc","system_id":"levelo_inurba_marseille","lat":43.28941,"lon":5.3638,"is_reserved":false,"is_disabled":false,"rental_uris":{"android":"levelo://app?vid=a41bc1c5-d238-43e3-abb3-4fcf0a480bdc","ios":"levelo://app?vid=a41bc1c5-d238-43e3-abb3-4fcf0a480bdc"},"vehicle_type_id":"4","last_reported":1739682524,"current_range_meters":28800,"station_id":"ce4bhc92rcd13ifvqetg","pricing_plan_id":"cebpf4jnsgd1na2vs0mg"},{"bike_id":"99c4c5b0-43b8-4473-9c97-42d51a31c13a","system_id":"levelo_inurba_marseille","lat":43.309344,"lon":5.401501,"is_reserved":false,"is_disabled":false,"rental_uris":{"android":"levelo://app?vid=99c4c5b0-43b8-4473-9c97-42d51a31c13a","ios":"levelo://app?vid=99c4c5b0-43b8-4473-9c97-42d51a31c13a"},"vehicle_type_id":"4","last_reported":1739682524,"current_range_meters":29600,"station_id":"ce4bgvp2rcd13ifvqct0","pricing_plan_id":"cebpf4jnsgd1na2vs0mg"},{"bike_id":"bbf61ba2-9a30-4f5a-adfe-4249783a75be","system_id":"levelo_inurba_marseille","lat":43.27984,"lon":5.41658,"is_reserved":false,"is_disabled":false,"rental_uris":{"android":"levelo://app?vid=bbf61ba2-9a30-4f5a-adfe-4249783a75be","ios":"levelo://app?vid=bbf61ba2-9a30-4f5a-adfe-4249783a75be"},"vehicle_type_id":"4","last_reported":1739682524,"current_range_meters":26000,"station_id":"ce4bho12rcd13ifvqh1g","pricing_plan_id":"cebpf4jnsgd1na2vs0mg"},{"bike_id":"542db65b-4c63-46f9-87df-aed33986fb69","system_id":"levelo_inurba_marseille","lat":43.306495,"lon":5.40094,"is_reserved":false,"is_disabled":false,"rental_uris":{"android":"levelo://app?vid=542db65b-4c63-46f9-87df-aed33986fb69","ios":"levelo://app?vid=542db65b-4c63-46f9-87df-aed33986fb69"},"vehicle_type_id":"4","last_reported":1739682524,"current_range_meters":6800,"station_id":"ce4bh112rcd13ifvqda0","pricing_plan_id":"cebpf4jnsgd1na2vs0mg"},{"bike_id":"4dd9a4e0-c137-4560-8761-8f56d3f447a7","system_id":"levelo_inurba_marseille","lat":43.308825,"lon":5.396361,"is_reserved":false,"is_disabled":false,"rental_uris":{"android":"levelo://app?vid=4dd9a4e0-c137-4560-8761-8f56d3f447a7","ios":"levelo://app?vid=4dd9a4e0-c137-4560-8761-8f56d3f447a7"},"vehicle_type_id":"4","last_reported":1739682524,"current_range_meters":20800,"station_id":"ce4bh012rcd13ifvqcv0","pricing_plan_id":"cebpf4jnsgd1na2vs0mg"},{"bike_id":"9cf8e6d9-67b8-441b-8ab4-08ef8560d2b0","system_id":"levelo_inurba_marseille","lat":43.33514,"lon":5.35585,"is_reserved":false,"is_disabled":true,"rental_uris":{"android":"levelo://app?vid=9cf8e6d9-67b8-441b-8ab4-08ef8560d2b0","ios":"levelo://app?vid=9cf8e6d9-67b8-441b-8ab4-08ef8560d2b0"},"vehicle_type_id":"4","last_reported":1739682524,"current_range_meters":0,"station_id":"","pricing_plan_id":"cebpf4jnsgd1na2vs0mg"},{"bike_id":"08531344-5311-475d-9386-429ff29517a0","system_id":"levelo_inurba_marseille","lat":43.28661,"lon":5.36345,"is_reserved":false,"is_disabled":false,"rental_uris":{"android":"levelo://app?vid=08531344-5311-475d-9386-429ff29517a0","ios":"levelo://app?vid=08531344-5311-475d-9386-429ff29517a0"},"vehicle_type_id":"4","last_reported":1739682524,"current_range_meters":38800,"station_id":"ce4bhah2rcd13ifvqej0","pricing_plan_id":"cebpf4jnsgd1na2vs0mg"},{"bike_id":"0c02c842-4f61-4404-a07d-57e5e1b07bc3","system_id":"levelo_inurba_marseille","lat":43.25958,"lon":5.4137,"is_reserved":false,"is_disabled":false,"rental_uris":{"android":"levelo://app?vid=0c02c842-4f61-4404-a07d-57e5e1b07bc3","ios":"levelo://app?vid=0c02c842-4f61-4404-a07d-57e5e1b07bc3"},"vehicle_type_id":"4","last_reported":1739682524,"current_range_meters":24400,"station_id":"","pricing_plan_id":"cebpf4jnsgd1na2vs0mg"},{"bike_id":"4227845b-6aba-4220-8f81-4ad22996427e","system_id":"levelo_inurba_marseille","lat":43.279977,"lon":5.416639,"is_reserved":false,"is_disabled":false,"rental_uris":{"android":"levelo://app?vid=4227845b-6aba-4220-8f81-4ad22996427e","ios":"levelo://app?vid=4227845b-6aba-4220-8f81-4ad22996427e"},"vehicle_type_id":"4","last_reported":1739682524,"current_range_meters":24000,"station_id":"ce4bho12rcd13ifvqh1g","pricing_plan_id":"cebpf4jnsgd1na2vs0mg"},{"bike_id":"e5c24b65-f0fa-4002-a427-8976c2dddfc4","system_id":"levelo_inurba_marseille","lat":43.313318,"lon":5.396858,"is_reserved":false,"is_disabled":true,"rental_uris":{"android":"levelo://app?vid=e5c24b65-f0fa-4002-a427-8976c2dddfc4","ios":"levelo://app?vid=e5c24b65-f0fa-4002-a427-8976c2dddfc4"},"vehicle_type_id":"4","last_reported":1739682524,"current_range_meters":0,"station_id":"ce4bgvp2rcd13ifvqcu0","pricing_plan_id":"cebpf4jnsgd1na2vs0mg"},{"bike_id":"843c1cdc-a175-42b5-be19-e1b9d6757ae2","system_id":"levelo_inurba_marseille","lat":43.24638,"lon":5.3891,"is_reserved":false,"is_disabled":false,"rental_uris":{"android":"levelo://app?vid=843c1cdc-a175-42b5-be19-e1b9d6757ae2","ios":"levelo://app?vid=843c1cdc-a175-42b5-be19-e1b9d6757ae2"},"vehicle_type_id":"4","last_reported":1739682524,"current_range_meters":38800,"station_id":"ce4bhg12rcd13ifvqf60","pricing_plan_id":"cebpf4jnsgd1na2vs0mg"},{"bike_id":"a47a49ff-3d8c-459e-91ff-bddc8c1b5078","system_id":"levelo_inurba_marseille","lat":43.29594,"lon":5.4001,"is_reserved":false,"is_disabled":false,"rental_uris":{"android":"levelo://app?vid=a47a49ff-3d8c-459e-91ff-bddc8c1b5078","ios":"levelo://app?vid=a47a49ff-3d8c-459e-91ff-bddc8c1b5078"},"vehicle_type_id":"4","last_reported":1739682524,"current_range_meters":38000,"station_id":"ce4bh312rcd13ifvqdj0","pricing_plan_id":"cebpf4jnsgd1na2vs0mg"},{"bike_id":"f2cf9381-727b-4085-9440-9f3c94f60922","system_id":"levelo_inurba_marseille","lat":43.24529,"lon":5.39514,"is_reserved":false,"is_disabled":false,"rental_uris":{"android":"levelo://app?vid=f2cf9381-727b-4085-9440-9f3c94f60922","ios":"levelo://app?vid=f2cf9381-727b-4085-9440-9f3c94f60922"},"vehicle_type_id":"4","last_reported":1739682524,"current_range_meters":31200,"station_id":"ce4bhlp2rcd13ifvqgjg","pricing_plan_id":"cebpf4jnsgd1na2vs0mg"},{"bike_id":"46252e49-398c-407a-8202-f65c1512c035","system_id":"levelo_inurba_marseille","lat":43.284113,"lon":5.375123,"is_reserved":false,"is_disabled":false,"rental_uris":{"android":"levelo://app?vid=46252e49-398c-407a-8202-f65c1512c035","ios":"levelo://app?vid=46252e49-398c-407a-8202-f65c1512c035"},"vehicle_type_id":"4","last_reported":1739682524,"current_range_meters":38800,"station_id":"ce4bh412rcd13ifvqds0","pricing_plan_id":"cebpf4jnsgd1na2vs0mg"},{"bike_id":"540bf5a8-5786-4431-b160-b1b1e0ba365f","system_id":"levelo_inurba_marseille","lat":43.29956,"lon":5.40064,"is_reserved":false,"is_disabled":false,"rental_uris":{"android":"levelo://app?vid=540bf5a8-5786-4431-b160-b1b1e0ba365f","ios":"levelo://app?vid=540bf5a8-5786-4431-b160-b1b1e0ba365f"},"vehicle_type_id":"4","last_reported":1739682524,"current_range_meters":36800,"station_id":"","pricing_plan_id":"cebpf4jnsgd1na2vs0mg"},{"bike_id":"98cda1ee-64ab-4524-be3c-951477745525","system_id":"levelo_inurba_marseille","lat":43.28849,"lon":5.39311,"is_reserved":false,"is_disabled":false,"rental_uris":{"android":"levelo://app?vid=98cda1ee-64ab-4524-be3c-951477745525","ios":"levelo://app?vid=98cda1ee-64ab-4524-be3c-951477745525"},"vehicle_type_id":"4","last_reported":1739682524,"current_range_meters":24000,"station_id":"ce4bh2p2rcd13ifvqdi0","pricing_plan_id":"cebpf4jnsgd1na2vs0mg"},{"bike_id":"51ab7186-5043-4bed-baca-73708608a302","system_id":"levelo_inurba_marseille","lat":43.29584,"lon":5.37026,"is_reserved":false,"is_disabled":true,"rental_uris":{"android":"levelo://app?vid=51ab7186-5043-4bed-baca-73708608a302","ios":"levelo://app?vid=51ab7186-5043-4bed-baca-73708608a302"},"vehicle_type_id":"4","last_reported":1739682524,"current_range_meters":0,"station_id":"","pricing_plan_id":"cebpf4jnsgd1na2vs0mg"},{"bike_id":"1ca59d1e-3e75-42bc-85c8-0d36902e9067","system_id":"levelo_inurba_marseille","lat":43.29365,"lon":5.37868,"is_reserved":false,"is_disabled":false,"rental_uris":{"android":"levelo://app?vid=1ca59d1e-3e75-42bc-85c8-0d36902e9067","ios":"levelo://app?vid=1ca59d1e-3e75-42bc-85c8-0d36902e9067"},"vehicle_type_id":"4","last_reported":1739682524,"current_range_meters":38000,"station_id":"ce4bgjh2rcd13ifvqbf0","pricing_plan_id":"cebpf4jnsgd1na2vs0mg"},{"bike_id":"9fdb08b8-1ceb-474a-abf2-04c699884b4a","system_id":"levelo_inurba_marseille","lat":43.23186,"lon":5.35566,"is_reserved":false,"is_disabled":false,"rental_uris":{"android":"levelo://app?vid=9fdb08b8-1ceb-474a-abf2-04c699884b4a","ios":"levelo://app?vid=9fdb08b8-1ceb-474a-abf2-04c699884b4a"},"vehicle_type_id":"4","last_reported":1739682524,"current_range_meters":38000,"station_id":"ce4bhu92rcd13ifvqi70","pricing_plan_id":"cebpf4jnsgd1na2vs0mg"},{"bike_id":"485502f3-3b80-4687-aac8-10dc57118684","system_id":"levelo_inurba_marseille","lat":43.262246,"lon":5.404568,"is_reserved":false,"is_disabled":false,"rental_uris":{"android":"levelo://app?vid=485502f3-3b80-4687-aac8-10dc57118684","ios":"levelo://app?vid=485502f3-3b80-4687-aac8-10dc57118684"},"vehicle_type_id":"4","last_reported":1739682524,"current_range_meters":10800,"station_id":"ce4bhmh2rcd13ifvqgmg","pricing_plan_id":"cebpf4jnsgd1na2vs0mg"},{"bike_id":"e16b3a6b-3656-461f-bbf9-195601822b7e","system_id":"levelo_inurba_marseille","lat":43.309518,"lon":5.390525,"is_reserved":false,"is_disabled":false,"rental_uris":{"android":"levelo://app?vid=e16b3a6b-3656-461f-bbf9-195601822b7e","ios":"levelo://app?vid=e16b3a6b-3656-461f-bbf9-195601822b7e"},"vehicle_type_id":"4","last_reported":1739682524,"current_range_meters":39200,"station_id":"ce4bgup2rcd13ifvqco0","pricing_plan_id":"cebpf4jnsgd1na2vs0mg"},{"bike_id":"8691c17d-836c-47cd-9e2a-09cf1406b8ec","system_id":"levelo_inurba_marseille","lat":43.24059,"lon":5.37735,"is_reserved":false,"is_disabled":false,"rental_uris":{"android":"levelo://app?vid=8691c17d-836c-47cd-9e2a-09cf1406b8ec","ios":"levelo://app?vid=8691c17d-836c-47cd-9e2a-09cf1406b8ec"},"vehicle_type_id":"4","last_reported":1739682524,"current_range_meters":38800,"station_id":"ce4bhnp2rcd13ifvqgvg","pricing_plan_id":"cebpf4jnsgd1na2vs0mg"},{"bike_id":"747738f1-db73-4ea5-8dc8-39e0154843fb","system_id":"levelo_inurba_marseille","lat":43.30908,"lon":5.40211,"is_reserved":false,"is_disabled":false,"rental_uris":{"android":"levelo://app?vid=747738f1-db73-4ea5-8dc8-39e0154843fb","ios":"levelo://app?vid=747738f1-db73-4ea5-8dc8-39e0154843fb"},"vehicle_type_id":"4","last_reported":1739682524,"current_range_meters":30400,"station_id":"ce4bgvp2rcd13ifvqct0","pricing_plan_id":"cebpf4jnsgd1na2vs0mg"},{"bike_id":"2d744cd1-8083-459a-b942-57bd28387959","system_id":"levelo_inurba_marseille","lat":43.25582,"lon":5.38245,"is_reserved":false,"is_disabled":false,"rental_uris":{"android":"levelo://app?vid=2d744cd1-8083-459a-b942-57bd28387959","ios":"levelo://app?vid=2d744cd1-8083-459a-b942-57bd28387959"},"vehicle_type_id":"4","last_reported":1739682524,"current_range_meters":22400,"station_id":"ce4bhih2rcd13ifvqfs0","pricing_plan_id":"cebpf4jnsgd1na2vs0mg"},{"bike_id":"c40e2cb9-b89c-4dbd-956b-535ef79f1d37","system_id":"levelo_inurba_marseille","lat":43.24806,"lon":5.37449,"is_reserved":false,"is_disabled":false,"rental_uris":{"android":"levelo://app?vid=c40e2cb9-b89c-4dbd-956b-535ef79f1d37","ios":"levelo://app?vid=c40e2cb9-b89c-4dbd-956b-535ef79f1d37"},"vehicle_type_id":"4","last_reported":1739682524,"current_range_meters":20800,"station_id":"ce4bhgh2rcd13ifvqfb0","pricing_plan_id":"cebpf4jnsgd1na2vs0mg"},{"bike_id":"621aa48b-6d99-46c4-b886-2c6eb903854e","system_id":"levelo_inurba_marseille","lat":43.292668,"lon":5.368418,"is_reserved":false,"is_disabled":true,"rental_uris":{"android":"levelo://app?vid=621aa48b-6d99-46c4-b886-2c6eb903854e","ios":"levelo://app?vid=621aa48b-6d99-46c4-b886-2c6eb903854e"},"vehicle_type_id":"4","last_reported":1739682524,"current_range_meters":29600,"station_id":"ce4bhbp2rcd13ifvqesg","pricing_plan_id":"cebpf4jnsgd1na2vs0mg"},{"bike_id":"460e673d-f39f-4b14-a48a-f584a9ac2195","system_id":"levelo_inurba_marseille","lat":43.2572,"lon":5.41118,"is_reserved":false,"is_disabled":false,"rental_uris":{"android":"levelo://app?vid=460e673d-f39f-4b14-a48a-f584a9ac2195","ios":"levelo://app?vid=460e673d-f39f-4b14-a48a-f584a9ac2195"},"vehicle_type_id":"4","last_reported":1739682524,"current_range_meters":36800,"station_id":"ce4bhkp2rcd13ifvqgd0","pricing_plan_id":"cebpf4jnsgd1na2vs0mg"},{"bike_id":"52f0172c-5485-4234-ab72-828fe4e1e6ea","system_id":"levelo_inurba_marseille","lat":43.32658,"lon":5.41005,"is_reserved":false,"is_disabled":false,"rental_uris":{"android":"levelo://app?vid=52f0172c-5485-4234-ab72-828fe4e1e6ea","ios":"levelo://app?vid=52f0172c-5485-4234-ab72-828fe4e1e6ea"},"vehicle_type_id":"4","last_reported":1739682524,"current_range_meters":38000,"station_id":"ce4bhpp2rcd13ifvqhgg","pricing_plan_id":"cebpf4jnsgd1na2vs0mg"},{"bike_id":"8ea8a511-fb9d-427a-9d43-0669507fa2be","system_id":"levelo_inurba_marseille","lat":43.324787,"lon":5.365633,"is_reserved":false,"is_disabled":false,"rental_uris":{"android":"levelo://app?vid=8ea8a511-fb9d-427a-9d43-0669507fa2be","ios":"levelo://app?vid=8ea8a511-fb9d-427a-9d43-0669507fa2be"},"vehicle_type_id":"4","last_reported":1739682524,"current_range_meters":38800,"station_id":"ce4bhs12rcd13ifvqhvg","pricing_plan_id":"cebpf4jnsgd1na2vs0mg"},{"bike_id":"4afd05b5-41e1-4012-b907-304d88773920","system_id":"levelo_inurba_marseille","lat":43.23965,"lon":5.366366,"is_reserved":false,"is_disabled":false,"rental_uris":{"android":"levelo://app?vid=4afd05b5-41e1-4012-b907-304d88773920","ios":"levelo://app?vid=4afd05b5-41e1-4012-b907-304d88773920"},"vehicle_type_id":"4","last_reported":1739682524,"current_range_meters":37600,"station_id":"ce4bhi12rcd13ifvqfp0","pricing_plan_id":"cebpf4jnsgd1na2vs0mg"},{"bike_id":"7602c479-3deb-4b9a-b97f-70de792161cd","system_id":"levelo_inurba_marseille","lat":43.28111,"lon":5.37829,"is_reserved":false,"is_disabled":false,"rental_uris":{"android":"levelo://app?vid=7602c479-3deb-4b9a-b97f-70de792161cd","ios":"levelo://app?vid=7602c479-3deb-4b9a-b97f-70de792161cd"},"vehicle_type_id":"4","last_reported":1739682524,"current_range_meters":30000,"station_id":"ce4bha12rcd13ifvqee0","pricing_plan_id":"cebpf4jnsgd1na2vs0mg"},{"bike_id":"af02ac68-734a-4337-a76f-2d6f15936fdf","system_id":"levelo_inurba_marseille","lat":43.28149,"lon":5.42646,"is_reserved":false,"is_disabled":false,"rental_uris":{"android":"levelo://app?vid=af02ac68-734a-4337-a76f-2d6f15936fdf","ios":"levelo://app?vid=af02ac68-734a-4337-a76f-2d6f15936fdf"},"vehicle_type_id":"4","last_reported":1739682524,"current_range_meters":38000,"station_id":"ce4bhnh2rcd13ifvqgug","pricing_plan_id":"cebpf4jnsgd1na2vs0mg"},{"bike_id":"3d3a1b8e-9ac6-4dbd-9886-9c9cf6ac4982","system_id":"levelo_inurba_marseille","lat":43.31313,"lon":5.39696,"is_reserved":false,"is_disabled":false,"rental_uris":{"android":"levelo://app?vid=3d3a1b8e-9ac6-4dbd-9886-9c9cf6ac4982","ios":"levelo://app?vid=3d3a1b8e-9ac6-4dbd-9886-9c9cf6ac4982"},"vehicle_type_id":"4","last_reported":1739682524,"current_range_meters":38800,"station_id":"ce4bgvp2rcd13ifvqcu0","pricing_plan_id":"cebpf4jnsgd1na2vs0mg"},{"bike_id":"27ca0e2c-050e-45fc-ba69-4e99735ad910","system_id":"levelo_inurba_marseille","lat":43.245501,"lon":5.39528,"is_reserved":false,"is_disabled":false,"rental_uris":{"android":"levelo://app?vid=27ca0e2c-050e-45fc-ba69-4e99735ad910","ios":"levelo://app?vid=27ca0e2c-050e-45fc-ba69-4e99735ad910"},"vehicle_type_id":"4","last_reported":1739682524,"current_range_meters":38000,"station_id":"ce4bhlp2rcd13ifvqgjg","pricing_plan_id":"cebpf4jnsgd1na2vs0mg"},{"bike_id":"2229140b-0040-47ab-b57a-ad864d16aba9","system_id":"levelo_inurba_marseille","lat":43.28694,"lon":5.39968,"is_reserved":false,"is_disabled":false,"rental_uris":{"android":"levelo://app?vid=2229140b-0040-47ab-b57a-ad864d16aba9","ios":"levelo://app?vid=2229140b-0040-47ab-b57a-ad864d16aba9"},"vehicle_type_id":"4","last_reported":1739682524,"current_range_meters":33600,"station_id":"ce4bho92rcd13ifvqh3g","pricing_plan_id":"cebpf4jnsgd1na2vs0mg"},{"bike_id":"d8a96f65-874d-4ded-804a-18e2f0656d8a","system_id":"levelo_inurba_marseille","lat":43.28614,"lon":5.35101,"is_reserved":false,"is_disabled":false,"rental_uris":{"android":"levelo://app?vid=d8a96f65-874d-4ded-804a-18e2f0656d8a","ios":"levelo://app?vid=d8a96f65-874d-4ded-804a-18e2f0656d8a"},"vehicle_type_id":"4","last_reported":1739682524,"current_range_meters":35600,"station_id":"ce4bhch2rcd13ifvqeug","pricing_plan_id":"cebpf4jnsgd1na2vs0mg"},{"bike_id":"3ce3dae2-ed5f-43cb-bad9-b317ce2471d9","system_id":"levelo_inurba_marseille","lat":43.2481,"lon":5.37443,"is_reserved":false,"is_disabled":false,"rental_uris":{"android":"levelo://app?vid=3ce3dae2-ed5f-43cb-bad9-b317ce2471d9","ios":"levelo://app?vid=3ce3dae2-ed5f-43cb-bad9-b317ce2471d9"},"vehicle_type_id":"4","last_reported":1739682524,"current_range_meters":38000,"station_id":"ce4bhgh2rcd13ifvqfb0","pricing_plan_id":"cebpf4jnsgd1na2vs0mg"},{"bike_id":"64325e8b-7753-4bef-8a98-b9529ac8a10d","system_id":"levelo_inurba_marseille","lat":43.3068,"lon":5.40071,"is_reserved":false,"is_disabled":false,"rental_uris":{"android":"levelo://app?vid=64325e8b-7753-4bef-8a98-b9529ac8a10d","ios":"levelo://app?vid=64325e8b-7753-4bef-8a98-b9529ac8a10d"},"vehicle_type_id":"4","last_reported":1739682524,"current_range_meters":38800,"station_id":"ce4bh112rcd13ifvqda0","pricing_plan_id":"cebpf4jnsgd1na2vs0mg"},{"bike_id":"397f7144-3e20-4f61-9149-2720265fc375","system_id":"levelo_inurba_marseille","lat":43.24061,"lon":5.37762,"is_reserved":false,"is_disabled":false,"rental_uris":{"android":"levelo://app?vid=397f7144-3e20-4f61-9149-2720265fc375","ios":"levelo://app?vid=397f7144-3e20-4f61-9149-2720265fc375"},"vehicle_type_id":"4","last_reported":1739682524,"current_range_meters":36400,"station_id":"ce4bhnp2rcd13ifvqgvg","pricing_plan_id":"cebpf4jnsgd1na2vs0mg"},{"bike_id":"93769704-c715-4594-9440-514b2b83cfe6","system_id":"levelo_inurba_marseille","lat":43.30326,"lon":5.40436,"is_reserved":false,"is_disabled":false,"rental_uris":{"android":"levelo://app?vid=93769704-c715-4594-9440-514b2b83cfe6","ios":"levelo://app?vid=93769704-c715-4594-9440-514b2b83cfe6"},"vehicle_type_id":"4","last_reported":1739682524,"current_range_meters":30000,"station_id":"ce4bh012rcd13ifvqd10","pricing_plan_id":"cebpf4jnsgd1na2vs0mg"},{"bike_id":"250900ec-3e6f-4975-890e-789c58778710","system_id":"levelo_inurba_marseille","lat":43.32473,"lon":5.36564,"is_reserved":false,"is_disabled":false,"rental_uris":{"android":"levelo://app?vid=250900ec-3e6f-4975-890e-789c58778710","ios":"levelo://app?vid=250900ec-3e6f-4975-890e-789c58778710"},"vehicle_type_id":"4","last_reported":1739682524,"current_range_meters":22000,"station_id":"ce4bhs12rcd13ifvqhvg","pricing_plan_id":"cebpf4jnsgd1na2vs0mg"},{"bike_id":"561c6c76-a6da-48c4-9ca0-fc5f4ea5945b","system_id":"levelo_inurba_marseille","lat":43.29731,"lon":5.38103,"is_reserved":false,"is_disabled":true,"rental_uris":{"android":"levelo://app?vid=561c6c76-a6da-48c4-9ca0-fc5f4ea5945b","ios":"levelo://app?vid=561c6c76-a6da-48c4-9ca0-fc5f4ea5945b"},"vehicle_type_id":"4","last_reported":1739682524,"current_range_meters":0,"station_id":"","pricing_plan_id":"cebpf4jnsgd1na2vs0mg"},{"bike_id":"391408fa-4661-4fa3-8f76-e7bcc0045315","system_id":"levelo_inurba_marseille","lat":43.28152,"lon":5.42642,"is_reserved":false,"is_disabled":false,"rental_uris":{"android":"levelo://app?vid=391408fa-4661-4fa3-8f76-e7bcc0045315","ios":"levelo://app?vid=391408fa-4661-4fa3-8f76-e7bcc0045315"},"vehicle_type_id":"4","last_reported":1739682524,"current_range_meters":38800,"station_id":"ce4bhnh2rcd13ifvqgug","pricing_plan_id":"cebpf4jnsgd1na2vs0mg"},{"bike_id":"fca13a97-260e-4b7d-93d2-a525c063c174","system_id":"levelo_inurba_marseille","lat":43.28438,"lon":5.392,"is_reserved":false,"is_disabled":false,"rental_uris":{"android":"levelo://app?vid=fca13a97-260e-4b7d-93d2-a525c063c174","ios":"levelo://app?vid=fca13a97-260e-4b7d-93d2-a525c063c174"},"vehicle_type_id":"4","last_reported":1739682524,"current_range_meters":21600,"station_id":"ce4bhoh2rcd13ifvqh5g","pricing_plan_id":"cebpf4jnsgd1na2vs0mg"},{"bike_id":"9d7c84b1-5e85-40b5-9214-0ea5f354ecac","system_id":"levelo_inurba_marseille","lat":43.286211,"lon":5.384674,"is_reserved":false,"is_disabled":false,"rental_uris":{"android":"levelo://app?vid=9d7c84b1-5e85-40b5-9214-0ea5f354ecac","ios":"levelo://app?vid=9d7c84b1-5e85-40b5-9214-0ea5f354ecac"},"vehicle_type_id":"4","last_reported":1739682524,"current_range_meters":10800,"station_id":"","pricing_plan_id":"cebpf4jnsgd1na2vs0mg"},{"bike_id":"022c45bb-24ec-40e4-96c1-c93674470ea9","system_id":"levelo_inurba_marseille","lat":43.30938,"lon":5.4014,"is_reserved":false,"is_disabled":false,"rental_uris":{"android":"levelo://app?vid=022c45bb-24ec-40e4-96c1-c93674470ea9","ios":"levelo://app?vid=022c45bb-24ec-40e4-96c1-c93674470ea9"},"vehicle_type_id":"4","last_reported":1739682524,"current_range_meters":30400,"station_id":"ce4bgvp2rcd13ifvqct0","pricing_plan_id":"cebpf4jnsgd1na2vs0mg"},{"bike_id":"d505ae6b-8401-49d2-a7e3-85c98bc77f1c","system_id":"levelo_inurba_marseille","lat":43.32348,"lon":5.4063,"is_reserved":false,"is_disabled":false,"rental_uris":{"android":"levelo://app?vid=d505ae6b-8401-49d2-a7e3-85c98bc77f1c","ios":"levelo://app?vid=d505ae6b-8401-49d2-a7e3-85c98bc77f1c"},"vehicle_type_id":"4","last_reported":1739682524,"current_range_meters":20400,"station_id":"ce4bhq92rcd13ifvqhjg","pricing_plan_id":"cebpf4jnsgd1na2vs0mg"},{"bike_id":"d4d36247-2aab-4add-8265-c91892033971","system_id":"levelo_inurba_marseille","lat":43.278117,"lon":5.407102,"is_reserved":false,"is_disabled":false,"rental_uris":{"android":"levelo://app?vid=d4d36247-2aab-4add-8265-c91892033971","ios":"levelo://app?vid=d4d36247-2aab-4add-8265-c91892033971"},"vehicle_type_id":"4","last_reported":1739682524,"current_range_meters":19200,"station_id":"ce4bhnh2rcd13ifvqgtg","pricing_plan_id":"cebpf4jnsgd1na2vs0mg"},{"bike_id":"6408b994-ae56-4e32-95b9-cb0502299b0f","system_id":"levelo_inurba_marseille","lat":43.29555,"lon":5.42289,"is_reserved":false,"is_disabled":false,"rental_uris":{"android":"levelo://app?vid=6408b994-ae56-4e32-95b9-cb0502299b0f","ios":"levelo://app?vid=6408b994-ae56-4e32-95b9-cb0502299b0f"},"vehicle_type_id":"4","last_reported":1739682524,"current_range_meters":38800,"station_id":"ce4bhph2rcd13ifvqhdg","pricing_plan_id":"cebpf4jnsgd1na2vs0mg"},{"bike_id":"aba3ce08-62d6-43ae-affc-bdc6904c40f3","system_id":"levelo_inurba_marseille","lat":43.27572,"lon":5.3842,"is_reserved":false,"is_disabled":false,"rental_uris":{"android":"levelo://app?vid=aba3ce08-62d6-43ae-affc-bdc6904c40f3","ios":"levelo://app?vid=aba3ce08-62d6-43ae-affc-bdc6904c40f3"},"vehicle_type_id":"4","last_reported":1739682524,"current_range_meters":20400,"station_id":"ce4bhh92rcd13ifvqfi0","pricing_plan_id":"cebpf4jnsgd1na2vs0mg"},{"bike_id":"982c499f-f482-40de-b19f-0c738b7d10ae","system_id":"levelo_inurba_marseille","lat":43.248,"lon":5.37456,"is_reserved":false,"is_disabled":false,"rental_uris":{"android":"levelo://app?vid=982c499f-f482-40de-b19f-0c738b7d10ae","ios":"levelo://app?vid=982c499f-f482-40de-b19f-0c738b7d10ae"},"vehicle_type_id":"4","last_reported":1739682524,"current_range_meters":38800,"station_id":"ce4bhgh2rcd13ifvqfb0","pricing_plan_id":"cebpf4jnsgd1na2vs0mg"},{"bike_id":"98f62326-8a26-4889-8233-3fa661e57e03","system_id":"levelo_inurba_marseille","lat":43.251066,"lon":5.40316,"is_reserved":false,"is_disabled":false,"rental_uris":{"android":"levelo://app?vid=98f62326-8a26-4889-8233-3fa661e57e03","ios":"levelo://app?vid=98f62326-8a26-4889-8233-3fa661e57e03"},"vehicle_type_id":"4","last_reported":1739682524,"current_range_meters":8800,"station_id":"ce4bhlh2rcd13ifvqgig","pricing_plan_id":"cebpf4jnsgd1na2vs0mg"},{"bike_id":"0960fa71-3388-4560-baa3-f62bc6c4afcf","system_id":"levelo_inurba_marseille","lat":43.25866,"lon":5.39901,"is_reserved":false,"is_disabled":false,"rental_uris":{"android":"levelo://app?vid=0960fa71-3388-4560-baa3-f62bc6c4afcf","ios":"levelo://app?vid=0960fa71-3388-4560-baa3-f62bc6c4afcf"},"vehicle_type_id":"4","last_reported":1739682524,"current_range_meters":32800,"station_id":"ce4bhl92rcd13ifvqghg","pricing_plan_id":"cebpf4jnsgd1na2vs0mg"},{"bike_id":"f9fc2722-ba6d-4851-8b9d-39a96c48947c","system_id":"levelo_inurba_marseille","lat":43.2841,"lon":5.37527,"is_reserved":false,"is_disabled":false,"rental_uris":{"android":"levelo://app?vid=f9fc2722-ba6d-4851-8b9d-39a96c48947c","ios":"levelo://app?vid=f9fc2722-ba6d-4851-8b9d-39a96c48947c"},"vehicle_type_id":"4","last_reported":1739682524,"current_range_meters":29600,"station_id":"ce4bh412rcd13ifvqds0","pricing_plan_id":"cebpf4jnsgd1na2vs0mg"},{"bike_id":"70c52c2b-5dfb-46b1-9344-6a09a77247ed","system_id":"levelo_inurba_marseille","lat":43.30478,"lon":5.37907,"is_reserved":false,"is_disabled":false,"rental_uris":{"android":"levelo://app?vid=70c52c2b-5dfb-46b1-9344-6a09a77247ed","ios":"levelo://app?vid=70c52c2b-5dfb-46b1-9344-6a09a77247ed"},"vehicle_type_id":"4","last_reported":1739682524,"current_range_meters":16000,"station_id":"ce4bgup2rcd13ifvqcn0","pricing_plan_id":"cebpf4jnsgd1na2vs0mg"},{"bike_id":"265ccf22-a162-4f39-8e8c-a647f59c9078","system_id":"levelo_inurba_marseille","lat":43.24677,"lon":5.38117,"is_reserved":false,"is_disabled":false,"rental_uris":{"android":"levelo://app?vid=265ccf22-a162-4f39-8e8c-a647f59c9078","ios":"levelo://app?vid=265ccf22-a162-4f39-8e8c-a647f59c9078"},"vehicle_type_id":"4","last_reported":1739682524,"current_range_meters":27600,"station_id":"ce4bhih2rcd13ifvqfr0","pricing_plan_id":"cebpf4jnsgd1na2vs0mg"},{"bike_id":"4e1f36bf-920b-407f-bd8e-e12200457304","system_id":"levelo_inurba_marseille","lat":43.278165,"lon":5.406987,"is_reserved":false,"is_disabled":false,"rental_uris":{"android":"levelo://app?vid=4e1f36bf-920b-407f-bd8e-e12200457304","ios":"levelo://app?vid=4e1f36bf-920b-407f-bd8e-e12200457304"},"vehicle_type_id":"4","last_reported":1739682524,"current_range_meters":38800,"station_id":"ce4bhnh2rcd13ifvqgtg","pricing_plan_id":"cebpf4jnsgd1na2vs0mg"},{"bike_id":"7df33989-9cd1-4583-a90f-25c190f648b5","system_id":"levelo_inurba_marseille","lat":43.29375,"lon":5.38597,"is_reserved":false,"is_disabled":false,"rental_uris":{"android":"levelo://app?vid=7df33989-9cd1-4583-a90f-25c190f648b5","ios":"levelo://app?vid=7df33989-9cd1-4583-a90f-25c190f648b5"},"vehicle_type_id":"4","last_reported":1739682524,"current_range_meters":30800,"station_id":"","pricing_plan_id":"cebpf4jnsgd1na2vs0mg"},{"bike_id":"cc85b5db-b7bb-415b-a4fe-6b7e1c8bef4f","system_id":"levelo_inurba_marseille","lat":43.28026,"lon":5.36946,"is_reserved":false,"is_disabled":false,"rental_uris":{"android":"levelo://app?vid=cc85b5db-b7bb-415b-a4fe-6b7e1c8bef4f","ios":"levelo://app?vid=cc85b5db-b7bb-415b-a4fe-6b7e1c8bef4f"},"vehicle_type_id":"4","last_reported":1739682524,"current_range_meters":38800,"station_id":"ce4bha12rcd13ifvqef0","pricing_plan_id":"cebpf4jnsgd1na2vs0mg"},{"bike_id":"20dca62c-279f-4d77-befc-f9aa410b4d31","system_id":"levelo_inurba_marseille","lat":43.2467,"lon":5.38148,"is_reserved":false,"is_disabled":false,"rental_uris":{"android":"levelo://app?vid=20dca62c-279f-4d77-befc-f9aa410b4d31","ios":"levelo://app?vid=20dca62c-279f-4d77-befc-f9aa410b4d31"},"vehicle_type_id":"4","last_reported":1739682524,"current_range_meters":39200,"station_id":"ce4bhih2rcd13ifvqfr0","pricing_plan_id":"cebpf4jnsgd1na2vs0mg"},{"bike_id":"3d1a536f-25df-4558-adac-2acd527a301f","system_id":"levelo_inurba_marseille","lat":43.28461,"lon":5.35884,"is_reserved":false,"is_disabled":false,"rental_uris":{"android":"levelo://app?vid=3d1a536f-25df-4558-adac-2acd527a301f","ios":"levelo://app?vid=3d1a536f-25df-4558-adac-2acd527a301f"},"vehicle_type_id":"4","last_reported":1739682524,"current_range_meters":7200,"station_id":"ce4bhah2rcd13ifvqei0","pricing_plan_id":"cebpf4jnsgd1na2vs0mg"},{"bike_id":"e4ac8afa-b2fe-4837-840f-47968a3c6760","system_id":"levelo_inurba_marseille","lat":43.28351,"lon":5.38096,"is_reserved":false,"is_disabled":false,"rental_uris":{"android":"levelo://app?vid=e4ac8afa-b2fe-4837-840f-47968a3c6760","ios":"levelo://app?vid=e4ac8afa-b2fe-4837-840f-47968a3c6760"},"vehicle_type_id":"4","last_reported":1739682524,"current_range_meters":39200,"station_id":"ce4bh412rcd13ifvqdr0","pricing_plan_id":"cebpf4jnsgd1na2vs0mg"},{"bike_id":"c7181c01-5767-4206-a2d3-43368915c75f","system_id":"levelo_inurba_marseille","lat":43.29784,"lon":5.39343,"is_reserved":false,"is_disabled":false,"rental_uris":{"android":"levelo://app?vid=c7181c01-5767-4206-a2d3-43368915c75f","ios":"levelo://app?vid=c7181c01-5767-4206-a2d3-43368915c75f"},"vehicle_type_id":"4","last_reported":1739682524,"current_range_meters":38400,"station_id":"chh1huq6cuj3fo74tm60","pricing_plan_id":"cebpf4jnsgd1na2vs0mg"},{"bike_id":"259f823b-ac4e-4efb-8198-41500c8f8e80","system_id":"levelo_inurba_marseille","lat":43.30436,"lon":5.38887,"is_reserved":false,"is_disabled":false,"rental_uris":{"android":"levelo://app?vid=259f823b-ac4e-4efb-8198-41500c8f8e80","ios":"levelo://app?vid=259f823b-ac4e-4efb-8198-41500c8f8e80"},"vehicle_type_id":"4","last_reported":1739682524,"current_range_meters":39200,"station_id":"ce4bgk12rcd13ifvqbi0","pricing_plan_id":"cebpf4jnsgd1na2vs0mg"},{"bike_id":"3fb714c8-c105-4232-9728-f3cdede29778","system_id":"levelo_inurba_marseille","lat":43.3048,"lon":5.37906,"is_reserved":false,"is_disabled":false,"rental_uris":{"android":"levelo://app?vid=3fb714c8-c105-4232-9728-f3cdede29778","ios":"levelo://app?vid=3fb714c8-c105-4232-9728-f3cdede29778"},"vehicle_type_id":"4","last_reported":1739682524,"current_range_meters":38000,"station_id":"ce4bgup2rcd13ifvqcn0","pricing_plan_id":"cebpf4jnsgd1na2vs0mg"},{"bike_id":"4f94d3ea-2fa8-406d-ac76-1cdda1cdfddb","system_id":"levelo_inurba_marseille","lat":43.324828,"lon":5.365655,"is_reserved":false,"is_disabled":false,"rental_uris":{"android":"levelo://app?vid=4f94d3ea-2fa8-406d-ac76-1cdda1cdfddb","ios":"levelo://app?vid=4f94d3ea-2fa8-406d-ac76-1cdda1cdfddb"},"vehicle_type_id":"4","last_reported":1739682524,"current_range_meters":32800,"station_id":"ce4bhs12rcd13ifvqhvg","pricing_plan_id":"cebpf4jnsgd1na2vs0mg"},{"bike_id":"72526c7a-bad2-48be-9eb5-30027376ec95","system_id":"levelo_inurba_marseille","lat":43.232029,"lon":5.355509,"is_reserved":false,"is_disabled":false,"rental_uris":{"android":"levelo://app?vid=72526c7a-bad2-48be-9eb5-30027376ec95","ios":"levelo://app?vid=72526c7a-bad2-48be-9eb5-30027376ec95"},"vehicle_type_id":"4","last_reported":1739682524,"current_range_meters":38400,"station_id":"ce4bhu92rcd13ifvqi70","pricing_plan_id":"cebpf4jnsgd1na2vs0mg"},{"bike_id":"556c1d6d-667a-404b-9e60-1953c9298af3","system_id":"levelo_inurba_marseille","lat":43.286276,"lon":5.351002,"is_reserved":false,"is_disabled":false,"rental_uris":{"android":"levelo://app?vid=556c1d6d-667a-404b-9e60-1953c9298af3","ios":"levelo://app?vid=556c1d6d-667a-404b-9e60-1953c9298af3"},"vehicle_type_id":"4","last_reported":1739682524,"current_range_meters":8000,"station_id":"ce4bhch2rcd13ifvqeug","pricing_plan_id":"cebpf4jnsgd1na2vs0mg"},{"bike_id":"208f6fa9-d018-4d26-9e12-c220cc22c78a","system_id":"levelo_inurba_marseille","lat":43.29781,"lon":5.39338,"is_reserved":false,"is_disabled":false,"rental_uris":{"android":"levelo://app?vid=208f6fa9-d018-4d26-9e12-c220cc22c78a","ios":"levelo://app?vid=208f6fa9-d018-4d26-9e12-c220cc22c78a"},"vehicle_type_id":"4","last_reported":1739682524,"current_range_meters":38400,"station_id":"chh1huq6cuj3fo74tm60","pricing_plan_id":"cebpf4jnsgd1na2vs0mg"},{"bike_id":"3a029882-9888-4e4f-a670-8e87d78d0aec","system_id":"levelo_inurba_marseille","lat":43.24545,"lon":5.39519,"is_reserved":false,"is_disabled":false,"rental_uris":{"android":"levelo://app?vid=3a029882-9888-4e4f-a670-8e87d78d0aec","ios":"levelo://app?vid=3a029882-9888-4e4f-a670-8e87d78d0aec"},"vehicle_type_id":"4","last_reported":1739682524,"current_range_meters":38400,"station_id":"ce4bhlp2rcd13ifvqgjg","pricing_plan_id":"cebpf4jnsgd1na2vs0mg"},{"bike_id":"2b7d17ab-bb95-4037-a00b-4191eb309f80","system_id":"levelo_inurba_marseille","lat":43.308,"lon":5.38119,"is_reserved":false,"is_disabled":false,"rental_uris":{"android":"levelo://app?vid=2b7d17ab-bb95-4037-a00b-4191eb309f80","ios":"levelo://app?vid=2b7d17ab-bb95-4037-a00b-4191eb309f80"},"vehicle_type_id":"4","last_reported":1739682524,"current_range_meters":25600,"station_id":"ce4bgt12rcd13ifvqce0","pricing_plan_id":"cebpf4jnsgd1na2vs0mg"},{"bike_id":"7025fbac-f827-45dc-9a23-bda3e303efef","system_id":"levelo_inurba_marseille","lat":43.2872,"lon":5.39958,"is_reserved":false,"is_disabled":false,"rental_uris":{"android":"levelo://app?vid=7025fbac-f827-45dc-9a23-bda3e303efef","ios":"levelo://app?vid=7025fbac-f827-45dc-9a23-bda3e303efef"},"vehicle_type_id":"4","last_reported":1739682524,"current_range_meters":37600,"station_id":"ce4bho92rcd13ifvqh3g","pricing_plan_id":"cebpf4jnsgd1na2vs0mg"},{"bike_id":"85c7b720-788f-4375-bdb9-fc28ee9e932e","system_id":"levelo_inurba_marseille","lat":43.31492,"lon":5.373,"is_reserved":false,"is_disabled":false,"rental_uris":{"android":"levelo://app?vid=85c7b720-788f-4375-bdb9-fc28ee9e932e","ios":"levelo://app?vid=85c7b720-788f-4375-bdb9-fc28ee9e932e"},"vehicle_type_id":"4","last_reported":1739682524,"current_range_meters":9600,"station_id":"ce4bgt12rcd13ifvqcd0","pricing_plan_id":"cebpf4jnsgd1na2vs0mg"},{"bike_id":"03eba1d0-92c1-4e6e-a4d0-7c546f2439c0","system_id":"levelo_inurba_marseille","lat":43.337444,"lon":5.374475,"is_reserved":false,"is_disabled":true,"rental_uris":{"android":"levelo://app?vid=03eba1d0-92c1-4e6e-a4d0-7c546f2439c0","ios":"levelo://app?vid=03eba1d0-92c1-4e6e-a4d0-7c546f2439c0"},"vehicle_type_id":"4","last_reported":1739682524,"current_range_meters":0,"station_id":"","pricing_plan_id":"cebpf4jnsgd1na2vs0mg"},{"bike_id":"2b51a041-a600-4f69-92f9-b5941fc7c79e","system_id":"levelo_inurba_marseille","lat":43.284451,"lon":5.391834,"is_reserved":false,"is_disabled":true,"rental_uris":{"android":"levelo://app?vid=2b51a041-a600-4f69-92f9-b5941fc7c79e","ios":"levelo://app?vid=2b51a041-a600-4f69-92f9-b5941fc7c79e"},"vehicle_type_id":"4","last_reported":1739682524,"current_range_meters":29600,"station_id":"ce4bhoh2rcd13ifvqh5g","pricing_plan_id":"cebpf4jnsgd1na2vs0mg"},{"bike_id":"653b3681-8d49-4063-97bd-177fe11162f9","system_id":"levelo_inurba_marseille","lat":43.254884,"lon":5.376571,"is_reserved":false,"is_disabled":true,"rental_uris":{"android":"levelo://app?vid=653b3681-8d49-4063-97bd-177fe11162f9","ios":"levelo://app?vid=653b3681-8d49-4063-97bd-177fe11162f9"},"vehicle_type_id":"4","last_reported":1739682524,"current_range_meters":34000,"station_id":"ce4bhh12rcd13ifvqff0","pricing_plan_id":"cebpf4jnsgd1na2vs0mg"},{"bike_id":"561fd983-a1c7-43b8-8f57-a73d312cb67a","system_id":"levelo_inurba_marseille","lat":43.32074,"lon":5.41535,"is_reserved":false,"is_disabled":false,"rental_uris":{"android":"levelo://app?vid=561fd983-a1c7-43b8-8f57-a73d312cb67a","ios":"levelo://app?vid=561fd983-a1c7-43b8-8f57-a73d312cb67a"},"vehicle_type_id":"4","last_reported":1739682524,"current_range_meters":37600,"station_id":"ce4bhq92rcd13ifvqhkg","pricing_plan_id":"cebpf4jnsgd1na2vs0mg"},{"bike_id":"3341758d-d181-4d02-b02c-6161e8816e88","system_id":"levelo_inurba_marseille","lat":43.31889,"lon":5.40741,"is_reserved":false,"is_disabled":false,"rental_uris":{"android":"levelo://app?vid=3341758d-d181-4d02-b02c-6161e8816e88","ios":"levelo://app?vid=3341758d-d181-4d02-b02c-6161e8816e88"},"vehicle_type_id":"4","last_reported":1739682524,"current_range_meters":18800,"station_id":"ce4bhq12rcd13ifvqhig","pricing_plan_id":"cebpf4jnsgd1na2vs0mg"},{"bike_id":"dbf220bb-131a-4509-b32e-690ce6030049","system_id":"levelo_inurba_marseille","lat":43.32401,"lon":5.40655,"is_reserved":false,"is_disabled":false,"rental_uris":{"android":"levelo://app?vid=dbf220bb-131a-4509-b32e-690ce6030049","ios":"levelo://app?vid=dbf220bb-131a-4509-b32e-690ce6030049"},"vehicle_type_id":"4","last_reported":1739682524,"current_range_meters":27200,"station_id":"","pricing_plan_id":"cebpf4jnsgd1na2vs0mg"},{"bike_id":"d7bb91c7-1e6c-4011-85a2-08678dbfba66","system_id":"levelo_inurba_marseille","lat":43.243939,"lon":5.370746,"is_reserved":false,"is_disabled":false,"rental_uris":{"android":"levelo://app?vid=d7bb91c7-1e6c-4011-85a2-08678dbfba66","ios":"levelo://app?vid=d7bb91c7-1e6c-4011-85a2-08678dbfba66"},"vehicle_type_id":"4","last_reported":1739682524,"current_range_meters":38800,"station_id":"ce4bhhh2rcd13ifvqfk0","pricing_plan_id":"cebpf4jnsgd1na2vs0mg"},{"bike_id":"1d3fd0e3-562b-48cd-81dd-f62ec7ce0aaf","system_id":"levelo_inurba_marseille","lat":43.30541,"lon":5.36497,"is_reserved":false,"is_disabled":false,"rental_uris":{"android":"levelo://app?vid=1d3fd0e3-562b-48cd-81dd-f62ec7ce0aaf","ios":"levelo://app?vid=1d3fd0e3-562b-48cd-81dd-f62ec7ce0aaf"},"vehicle_type_id":"4","last_reported":1739682524,"current_range_meters":38000,"station_id":"ce4bgs12rcd13ifvqcag","pricing_plan_id":"cebpf4jnsgd1na2vs0mg"},{"bike_id":"1163f4f7-255b-46d1-8012-6cca3151d589","system_id":"levelo_inurba_marseille","lat":43.30798,"lon":5.38157,"is_reserved":false,"is_disabled":false,"rental_uris":{"android":"levelo://app?vid=1163f4f7-255b-46d1-8012-6cca3151d589","ios":"levelo://app?vid=1163f4f7-255b-46d1-8012-6cca3151d589"},"vehicle_type_id":"4","last_reported":1739682524,"current_range_meters":25600,"station_id":"ce4bgt12rcd13ifvqce0","pricing_plan_id":"cebpf4jnsgd1na2vs0mg"},{"bike_id":"1f52f3b3-3e4c-4076-9fe5-f4b3bb4b252a","system_id":"levelo_inurba_marseille","lat":43.274632,"lon":5.435141,"is_reserved":false,"is_disabled":true,"rental_uris":{"android":"levelo://app?vid=1f52f3b3-3e4c-4076-9fe5-f4b3bb4b252a","ios":"levelo://app?vid=1f52f3b3-3e4c-4076-9fe5-f4b3bb4b252a"},"vehicle_type_id":"4","last_reported":1739682524,"current_range_meters":800,"station_id":"","pricing_plan_id":"cebpf4jnsgd1na2vs0mg"},{"bike_id":"36e9626a-f0c0-42ed-9b51-b652c3621f49","system_id":"levelo_inurba_marseille","lat":43.24182,"lon":5.39744,"is_reserved":false,"is_disabled":false,"rental_uris":{"android":"levelo://app?vid=36e9626a-f0c0-42ed-9b51-b652c3621f49","ios":"levelo://app?vid=36e9626a-f0c0-42ed-9b51-b652c3621f49"},"vehicle_type_id":"4","last_reported":1739682524,"current_range_meters":19200,"station_id":"ce4bhn12rcd13ifvqgpg","pricing_plan_id":"cebpf4jnsgd1na2vs0mg"},{"bike_id":"7810399a-aba8-4931-8563-2a4f4266c078","system_id":"levelo_inurba_marseille","lat":43.25116,"lon":5.40325,"is_reserved":false,"is_disabled":false,"rental_uris":{"android":"levelo://app?vid=7810399a-aba8-4931-8563-2a4f4266c078","ios":"levelo://app?vid=7810399a-aba8-4931-8563-2a4f4266c078"},"vehicle_type_id":"4","last_reported":1739682524,"current_range_meters":10000,"station_id":"ce4bhlh2rcd13ifvqgig","pricing_plan_id":"cebpf4jnsgd1na2vs0mg"},{"bike_id":"c02630e4-0321-47b6-ac2b-aeaf7b2a8056","system_id":"levelo_inurba_marseille","lat":43.29884,"lon":5.3973,"is_reserved":false,"is_disabled":false,"rental_uris":{"android":"levelo://app?vid=c02630e4-0321-47b6-ac2b-aeaf7b2a8056","ios":"levelo://app?vid=c02630e4-0321-47b6-ac2b-aeaf7b2a8056"},"vehicle_type_id":"4","last_reported":1739682524,"current_range_meters":8400,"station_id":"ce4bh0h2rcd13ifvqd50","pricing_plan_id":"cebpf4jnsgd1na2vs0mg"},{"bike_id":"bd1fbd17-5ecd-4c2a-9290-d1ffd1a70214","system_id":"levelo_inurba_marseille","lat":43.29554,"lon":5.42278,"is_reserved":false,"is_disabled":false,"rental_uris":{"android":"levelo://app?vid=bd1fbd17-5ecd-4c2a-9290-d1ffd1a70214","ios":"levelo://app?vid=bd1fbd17-5ecd-4c2a-9290-d1ffd1a70214"},"vehicle_type_id":"4","last_reported":1739682524,"current_range_meters":29600,"station_id":"ce4bhph2rcd13ifvqhdg","pricing_plan_id":"cebpf4jnsgd1na2vs0mg"},{"bike_id":"6127f497-466e-4a0c-8551-3df79a118870","system_id":"levelo_inurba_marseille","lat":43.308,"lon":5.38103,"is_reserved":false,"is_disabled":false,"rental_uris":{"android":"levelo://app?vid=6127f497-466e-4a0c-8551-3df79a118870","ios":"levelo://app?vid=6127f497-466e-4a0c-8551-3df79a118870"},"vehicle_type_id":"4","last_reported":1739682524,"current_range_meters":39200,"station_id":"ce4bgt12rcd13ifvqce0","pricing_plan_id":"cebpf4jnsgd1na2vs0mg"},{"bike_id":"25515edf-cc9e-4e85-becb-3fd8e850755e","system_id":"levelo_inurba_marseille","lat":43.28153,"lon":5.42632,"is_reserved":false,"is_disabled":false,"rental_uris":{"android":"levelo://app?vid=25515edf-cc9e-4e85-becb-3fd8e850755e","ios":"levelo://app?vid=25515edf-cc9e-4e85-becb-3fd8e850755e"},"vehicle_type_id":"4","last_reported":1739682524,"current_range_meters":8000,"station_id":"ce4bhnh2rcd13ifvqgug","pricing_plan_id":"cebpf4jnsgd1na2vs0mg"},{"bike_id":"b9ff6eec-0a38-4789-a15e-f3855db0e022","system_id":"levelo_inurba_marseille","lat":43.251173,"lon":5.403182,"is_reserved":false,"is_disabled":false,"rental_uris":{"android":"levelo://app?vid=b9ff6eec-0a38-4789-a15e-f3855db0e022","ios":"levelo://app?vid=b9ff6eec-0a38-4789-a15e-f3855db0e022"},"vehicle_type_id":"4","last_reported":1739682524,"current_range_meters":11600,"station_id":"ce4bhlh2rcd13ifvqgig","pricing_plan_id":"cebpf4jnsgd1na2vs0mg"},{"bike_id":"4f34ac20-13f8-4bff-8fa6-5425328bb98e","system_id":"levelo_inurba_marseille","lat":43.302404,"lon":5.400489,"is_reserved":false,"is_disabled":true,"rental_uris":{"android":"levelo://app?vid=4f34ac20-13f8-4bff-8fa6-5425328bb98e","ios":"levelo://app?vid=4f34ac20-13f8-4bff-8fa6-5425328bb98e"},"vehicle_type_id":"4","last_reported":1739682524,"current_range_meters":25600,"station_id":"ce4bgvh2rcd13ifvqcs0","pricing_plan_id":"cebpf4jnsgd1na2vs0mg"},{"bike_id":"6ebbedc7-a203-43c1-be28-2b5d0c0af955","system_id":"levelo_inurba_marseille","lat":43.27941,"lon":5.41034,"is_reserved":false,"is_disabled":false,"rental_uris":{"android":"levelo://app?vid=6ebbedc7-a203-43c1-be28-2b5d0c0af955","ios":"levelo://app?vid=6ebbedc7-a203-43c1-be28-2b5d0c0af955"},"vehicle_type_id":"4","last_reported":1739682524,"current_range_meters":18800,"station_id":"ce4bhnp2rcd13ifvqh0g","pricing_plan_id":"cebpf4jnsgd1na2vs0mg"},{"bike_id":"c0b0f567-3611-4352-93f2-a1863c300ef3","system_id":"levelo_inurba_marseille","lat":43.30538,"lon":5.38441,"is_reserved":false,"is_disabled":false,"rental_uris":{"android":"levelo://app?vid=c0b0f567-3611-4352-93f2-a1863c300ef3","ios":"levelo://app?vid=c0b0f567-3611-4352-93f2-a1863c300ef3"},"vehicle_type_id":"4","last_reported":1739682524,"current_range_meters":38400,"station_id":"ce4bgg92rcd13ifvqb30","pricing_plan_id":"cebpf4jnsgd1na2vs0mg"},{"bike_id":"68e091eb-0298-4cb5-b5eb-8dfc36218da6","system_id":"levelo_inurba_marseille","lat":43.23186,"lon":5.3998,"is_reserved":false,"is_disabled":false,"rental_uris":{"android":"levelo://app?vid=68e091eb-0298-4cb5-b5eb-8dfc36218da6","ios":"levelo://app?vid=68e091eb-0298-4cb5-b5eb-8dfc36218da6"},"vehicle_type_id":"4","last_reported":1739682524,"current_range_meters":38000,"station_id":"ce4bhn12rcd13ifvqgqg","pricing_plan_id":"cebpf4jnsgd1na2vs0mg"},{"bike_id":"d63b7867-53a4-4bca-be72-b856d1cbea50","system_id":"levelo_inurba_marseille","lat":43.23932,"lon":5.36637,"is_reserved":false,"is_disabled":false,"rental_uris":{"android":"levelo://app?vid=d63b7867-53a4-4bca-be72-b856d1cbea50","ios":"levelo://app?vid=d63b7867-53a4-4bca-be72-b856d1cbea50"},"vehicle_type_id":"4","last_reported":1739682524,"current_range_meters":22000,"station_id":"ce4bhi12rcd13ifvqfp0","pricing_plan_id":"cebpf4jnsgd1na2vs0mg"},{"bike_id":"67b9e083-4966-492b-9ec6-8c76d84bc7cc","system_id":"levelo_inurba_marseille","lat":43.29915,"lon":5.39724,"is_reserved":false,"is_disabled":false,"rental_uris":{"android":"levelo://app?vid=67b9e083-4966-492b-9ec6-8c76d84bc7cc","ios":"levelo://app?vid=67b9e083-4966-492b-9ec6-8c76d84bc7cc"},"vehicle_type_id":"4","last_reported":1739682524,"current_range_meters":16800,"station_id":"ce4bh0h2rcd13ifvqd50","pricing_plan_id":"cebpf4jnsgd1na2vs0mg"},{"bike_id":"c47616ba-4408-41b4-bfef-d41e880abc31","system_id":"levelo_inurba_marseille","lat":43.23183,"lon":5.39992,"is_reserved":false,"is_disabled":false,"rental_uris":{"android":"levelo://app?vid=c47616ba-4408-41b4-bfef-d41e880abc31","ios":"levelo://app?vid=c47616ba-4408-41b4-bfef-d41e880abc31"},"vehicle_type_id":"4","last_reported":1739682524,"current_range_meters":16000,"station_id":"ce4bhn12rcd13ifvqgqg","pricing_plan_id":"cebpf4jnsgd1na2vs0mg"},{"bike_id":"55201e7b-c86e-4903-ba7d-a7f135f32788","system_id":"levelo_inurba_marseille","lat":43.305794,"lon":5.383909,"is_reserved":false,"is_disabled":false,"rental_uris":{"android":"levelo://app?vid=55201e7b-c86e-4903-ba7d-a7f135f32788","ios":"levelo://app?vid=55201e7b-c86e-4903-ba7d-a7f135f32788"},"vehicle_type_id":"4","last_reported":1739682524,"current_range_meters":31200,"station_id":"ce4bhsp2rcd13ifvqi50","pricing_plan_id":"cebpf4jnsgd1na2vs0mg"},{"bike_id":"6a60b370-3de6-430b-8c22-810750479d92","system_id":"levelo_inurba_marseille","lat":43.303257,"lon":5.404474,"is_reserved":false,"is_disabled":false,"rental_uris":{"android":"levelo://app?vid=6a60b370-3de6-430b-8c22-810750479d92","ios":"levelo://app?vid=6a60b370-3de6-430b-8c22-810750479d92"},"vehicle_type_id":"4","last_reported":1739682524,"current_range_meters":38800,"station_id":"ce4bh012rcd13ifvqd10","pricing_plan_id":"cebpf4jnsgd1na2vs0mg"},{"bike_id":"1a70beae-318b-417c-9b69-06b61a7df44a","system_id":"levelo_inurba_marseille","lat":43.29886,"lon":5.397515,"is_reserved":false,"is_disabled":false,"rental_uris":{"android":"levelo://app?vid=1a70beae-318b-417c-9b69-06b61a7df44a","ios":"levelo://app?vid=1a70beae-318b-417c-9b69-06b61a7df44a"},"vehicle_type_id":"4","last_reported":1739682524,"current_range_meters":25600,"station_id":"ce4bh0h2rcd13ifvqd50","pricing_plan_id":"cebpf4jnsgd1na2vs0mg"},{"bike_id":"02db7a28-fc2d-4a4a-92a0-cec040e64718","system_id":"levelo_inurba_marseille","lat":43.239607,"lon":5.366339,"is_reserved":false,"is_disabled":false,"rental_uris":{"android":"levelo://app?vid=02db7a28-fc2d-4a4a-92a0-cec040e64718","ios":"levelo://app?vid=02db7a28-fc2d-4a4a-92a0-cec040e64718"},"vehicle_type_id":"4","last_reported":1739682524,"current_range_meters":6400,"station_id":"ce4bhi12rcd13ifvqfp0","pricing_plan_id":"cebpf4jnsgd1na2vs0mg"},{"bike_id":"84718404-9f2e-42cc-aceb-1455c391af4a","system_id":"levelo_inurba_marseille","lat":43.2841,"lon":5.37494,"is_reserved":false,"is_disabled":false,"rental_uris":{"android":"levelo://app?vid=84718404-9f2e-42cc-aceb-1455c391af4a","ios":"levelo://app?vid=84718404-9f2e-42cc-aceb-1455c391af4a"},"vehicle_type_id":"4","last_reported":1739682524,"current_range_meters":20000,"station_id":"ce4bh412rcd13ifvqds0","pricing_plan_id":"cebpf4jnsgd1na2vs0mg"},{"bike_id":"259f324e-495d-4777-af78-e80f0b68ae0a","system_id":"levelo_inurba_marseille","lat":43.263313,"lon":5.374817,"is_reserved":false,"is_disabled":false,"rental_uris":{"android":"levelo://app?vid=259f324e-495d-4777-af78-e80f0b68ae0a","ios":"levelo://app?vid=259f324e-495d-4777-af78-e80f0b68ae0a"},"vehicle_type_id":"4","last_reported":1739682524,"current_range_meters":38000,"station_id":"ce4bh692rcd13ifvqea0","pricing_plan_id":"cebpf4jnsgd1na2vs0mg"},{"bike_id":"4c7d286d-96cb-43d1-939d-54711f1ac4aa","system_id":"levelo_inurba_marseille","lat":43.30598,"lon":5.37234,"is_reserved":false,"is_disabled":false,"rental_uris":{"android":"levelo://app?vid=4c7d286d-96cb-43d1-939d-54711f1ac4aa","ios":"levelo://app?vid=4c7d286d-96cb-43d1-939d-54711f1ac4aa"},"vehicle_type_id":"4","last_reported":1739682524,"current_range_meters":6800,"station_id":"ce4bgqh2rcd13ifvqc4g","pricing_plan_id":"cebpf4jnsgd1na2vs0mg"},{"bike_id":"09f52ef9-a426-4823-88cd-5e80e1124dc6","system_id":"levelo_inurba_marseille","lat":43.28838,"lon":5.3586,"is_reserved":false,"is_disabled":false,"rental_uris":{"android":"levelo://app?vid=09f52ef9-a426-4823-88cd-5e80e1124dc6","ios":"levelo://app?vid=09f52ef9-a426-4823-88cd-5e80e1124dc6"},"vehicle_type_id":"4","last_reported":1739682524,"current_range_meters":28000,"station_id":"ce4bhb12rcd13ifvqem0","pricing_plan_id":"cebpf4jnsgd1na2vs0mg"},{"bike_id":"a3b76a23-e719-4cac-9132-63d31b15a8de","system_id":"levelo_inurba_marseille","lat":43.241574,"lon":5.364046,"is_reserved":false,"is_disabled":false,"rental_uris":{"android":"levelo://app?vid=a3b76a23-e719-4cac-9132-63d31b15a8de","ios":"levelo://app?vid=a3b76a23-e719-4cac-9132-63d31b15a8de"},"vehicle_type_id":"4","last_reported":1739682524,"current_range_meters":26800,"station_id":"cpo36qri1sfpv3e86is0","pricing_plan_id":"cebpf4jnsgd1na2vs0mg"},{"bike_id":"9769b69e-538d-40a3-8256-515928e1b590","system_id":"levelo_inurba_marseille","lat":43.30888,"lon":5.37179,"is_reserved":false,"is_disabled":false,"rental_uris":{"android":"levelo://app?vid=9769b69e-538d-40a3-8256-515928e1b590","ios":"levelo://app?vid=9769b69e-538d-40a3-8256-515928e1b590"},"vehicle_type_id":"4","last_reported":1739682524,"current_range_meters":7200,"station_id":"ce4bguh2rcd13ifvqckg","pricing_plan_id":"cebpf4jnsgd1na2vs0mg"},{"bike_id":"fe0f12a8-8d62-4d79-b629-bda6901e6297","system_id":"levelo_inurba_marseille","lat":43.269365,"lon":5.402756,"is_reserved":false,"is_disabled":true,"rental_uris":{"android":"levelo://app?vid=fe0f12a8-8d62-4d79-b629-bda6901e6297","ios":"levelo://app?vid=fe0f12a8-8d62-4d79-b629-bda6901e6297"},"vehicle_type_id":"4","last_reported":1739682524,"current_range_meters":28400,"station_id":"cjm6bp8fraef2m0cb0m0","pricing_plan_id":"cebpf4jnsgd1na2vs0mg"},{"bike_id":"14e294d3-6345-4869-b4d4-4ce0e5d652c9","system_id":"levelo_inurba_marseille","lat":43.28003,"lon":5.41678,"is_reserved":false,"is_disabled":false,"rental_uris":{"android":"levelo://app?vid=14e294d3-6345-4869-b4d4-4ce0e5d652c9","ios":"levelo://app?vid=14e294d3-6345-4869-b4d4-4ce0e5d652c9"},"vehicle_type_id":"4","last_reported":1739682524,"current_range_meters":17600,"station_id":"ce4bho12rcd13ifvqh1g","pricing_plan_id":"cebpf4jnsgd1na2vs0mg"},{"bike_id":"466babc0-124c-418f-8013-0bdd9593df0f","system_id":"levelo_inurba_marseille","lat":43.24386,"lon":5.3704,"is_reserved":false,"is_disabled":false,"rental_uris":{"android":"levelo://app?vid=466babc0-124c-418f-8013-0bdd9593df0f","ios":"levelo://app?vid=466babc0-124c-418f-8013-0bdd9593df0f"},"vehicle_type_id":"4","last_reported":1739682524,"current_range_meters":38800,"station_id":"ce4bhhh2rcd13ifvqfk0","pricing_plan_id":"cebpf4jnsgd1na2vs0mg"},{"bike_id":"cfbe67cf-6420-4945-9471-2d464aa6fcd4","system_id":"levelo_inurba_marseille","lat":43.27826,"lon":5.39204,"is_reserved":false,"is_disabled":true,"rental_uris":{"android":"levelo://app?vid=cfbe67cf-6420-4945-9471-2d464aa6fcd4","ios":"levelo://app?vid=cfbe67cf-6420-4945-9471-2d464aa6fcd4"},"vehicle_type_id":"4","last_reported":1739682524,"current_range_meters":6800,"station_id":"ce4bhjp2rcd13ifvqga0","pricing_plan_id":"cebpf4jnsgd1na2vs0mg"},{"bike_id":"168c41a1-aa17-40ae-aac7-dd02a7e23b9b","system_id":"levelo_inurba_marseille","lat":43.25118,"lon":5.40329,"is_reserved":false,"is_disabled":false,"rental_uris":{"android":"levelo://app?vid=168c41a1-aa17-40ae-aac7-dd02a7e23b9b","ios":"levelo://app?vid=168c41a1-aa17-40ae-aac7-dd02a7e23b9b"},"vehicle_type_id":"4","last_reported":1739682524,"current_range_meters":4800,"station_id":"ce4bhlh2rcd13ifvqgig","pricing_plan_id":"cebpf4jnsgd1na2vs0mg"},{"bike_id":"dc5294ff-c647-4cc8-9ff2-9cfe7a38b888","system_id":"levelo_inurba_marseille","lat":43.306083,"lon":5.372433,"is_reserved":false,"is_disabled":false,"rental_uris":{"android":"levelo://app?vid=dc5294ff-c647-4cc8-9ff2-9cfe7a38b888","ios":"levelo://app?vid=dc5294ff-c647-4cc8-9ff2-9cfe7a38b888"},"vehicle_type_id":"4","last_reported":1739682524,"current_range_meters":39200,"station_id":"ce4bgqh2rcd13ifvqc4g","pricing_plan_id":"cebpf4jnsgd1na2vs0mg"},{"bike_id":"2d1a0294-4315-4a6d-9042-006493c526cd","system_id":"levelo_inurba_marseille","lat":43.29556,"lon":5.40617,"is_reserved":false,"is_disabled":false,"rental_uris":{"android":"levelo://app?vid=2d1a0294-4315-4a6d-9042-006493c526cd","ios":"levelo://app?vid=2d1a0294-4315-4a6d-9042-006493c526cd"},"vehicle_type_id":"4","last_reported":1739682524,"current_range_meters":4400,"station_id":"","pricing_plan_id":"cebpf4jnsgd1na2vs0mg"},{"bike_id":"18decbeb-4062-42a7-b490-79abb09eacf9","system_id":"levelo_inurba_marseille","lat":43.26065,"lon":5.39435,"is_reserved":false,"is_disabled":false,"rental_uris":{"android":"levelo://app?vid=18decbeb-4062-42a7-b490-79abb09eacf9","ios":"levelo://app?vid=18decbeb-4062-42a7-b490-79abb09eacf9"},"vehicle_type_id":"4","last_reported":1739682524,"current_range_meters":34000,"station_id":"ce4bhh92rcd13ifvqfj0","pricing_plan_id":"cebpf4jnsgd1na2vs0mg"},{"bike_id":"dccc5a5d-b07c-4f74-b4cb-6d186421c5e4","system_id":"levelo_inurba_marseille","lat":43.28668,"lon":5.36335,"is_reserved":false,"is_disabled":false,"rental_uris":{"android":"levelo://app?vid=dccc5a5d-b07c-4f74-b4cb-6d186421c5e4","ios":"levelo://app?vid=dccc5a5d-b07c-4f74-b4cb-6d186421c5e4"},"vehicle_type_id":"4","last_reported":1739682524,"current_range_meters":38000,"station_id":"ce4bhah2rcd13ifvqej0","pricing_plan_id":"cebpf4jnsgd1na2vs0mg"},{"bike_id":"95a0c179-9678-4626-bcf6-57c11dc20a09","system_id":"levelo_inurba_marseille","lat":43.25116,"lon":5.4033,"is_reserved":false,"is_disabled":false,"rental_uris":{"android":"levelo://app?vid=95a0c179-9678-4626-bcf6-57c11dc20a09","ios":"levelo://app?vid=95a0c179-9678-4626-bcf6-57c11dc20a09"},"vehicle_type_id":"4","last_reported":1739682524,"current_range_meters":38800,"station_id":"ce4bhlh2rcd13ifvqgig","pricing_plan_id":"cebpf4jnsgd1na2vs0mg"},{"bike_id":"fd3c4de7-c544-4bdf-b31e-d362276f517f","system_id":"levelo_inurba_marseille","lat":43.28722,"lon":5.3609,"is_reserved":false,"is_disabled":false,"rental_uris":{"android":"levelo://app?vid=fd3c4de7-c544-4bdf-b31e-d362276f517f","ios":"levelo://app?vid=fd3c4de7-c544-4bdf-b31e-d362276f517f"},"vehicle_type_id":"4","last_reported":1739682524,"current_range_meters":30800,"station_id":"cki0cbj6b192h4jlfktg","pricing_plan_id":"cebpf4jnsgd1na2vs0mg"},{"bike_id":"9f912eed-51aa-49cb-84a4-977637263173","system_id":"levelo_inurba_marseille","lat":43.299058,"lon":5.380436,"is_reserved":false,"is_disabled":false,"rental_uris":{"android":"levelo://app?vid=9f912eed-51aa-49cb-84a4-977637263173","ios":"levelo://app?vid=9f912eed-51aa-49cb-84a4-977637263173"},"vehicle_type_id":"4","last_reported":1739682524,"current_range_meters":24000,"station_id":"","pricing_plan_id":"cebpf4jnsgd1na2vs0mg"},{"bike_id":"f76de03d-d754-4d8b-97a4-7811084bfc95","system_id":"levelo_inurba_marseille","lat":43.26492,"lon":5.39526,"is_reserved":false,"is_disabled":false,"rental_uris":{"android":"levelo://app?vid=f76de03d-d754-4d8b-97a4-7811084bfc95","ios":"levelo://app?vid=f76de03d-d754-4d8b-97a4-7811084bfc95"},"vehicle_type_id":"4","last_reported":1739682524,"current_range_meters":38000,"station_id":"ce4bhi12rcd13ifvqfq0","pricing_plan_id":"cebpf4jnsgd1na2vs0mg"},{"bike_id":"d5826661-b84d-4b4b-b3f7-a7ea968c0b1e","system_id":"levelo_inurba_marseille","lat":43.28491,"lon":5.38418,"is_reserved":false,"is_disabled":false,"rental_uris":{"android":"levelo://app?vid=d5826661-b84d-4b4b-b3f7-a7ea968c0b1e","ios":"levelo://app?vid=d5826661-b84d-4b4b-b3f7-a7ea968c0b1e"},"vehicle_type_id":"4","last_reported":1739682524,"current_range_meters":32800,"station_id":"ce4bh512rcd13ifvqe3g","pricing_plan_id":"cebpf4jnsgd1na2vs0mg"},{"bike_id":"e9e4e10c-18cc-446a-9084-4db10dfe007c","system_id":"levelo_inurba_marseille","lat":43.28103,"lon":5.3784,"is_reserved":false,"is_disabled":false,"rental_uris":{"android":"levelo://app?vid=e9e4e10c-18cc-446a-9084-4db10dfe007c","ios":"levelo://app?vid=e9e4e10c-18cc-446a-9084-4db10dfe007c"},"vehicle_type_id":"4","last_reported":1739682524,"current_range_meters":25600,"station_id":"ce4bha12rcd13ifvqee0","pricing_plan_id":"cebpf4jnsgd1na2vs0mg"},{"bike_id":"2387448a-ad1e-4d92-8739-0eed7ccd6f1a","system_id":"levelo_inurba_marseille","lat":43.32662,"lon":5.40992,"is_reserved":false,"is_disabled":false,"rental_uris":{"android":"levelo://app?vid=2387448a-ad1e-4d92-8739-0eed7ccd6f1a","ios":"levelo://app?vid=2387448a-ad1e-4d92-8739-0eed7ccd6f1a"},"vehicle_type_id":"4","last_reported":1739682524,"current_range_meters":38000,"station_id":"ce4bhpp2rcd13ifvqhgg","pricing_plan_id":"cebpf4jnsgd1na2vs0mg"},{"bike_id":"f1db9771-94dd-4030-914e-070bbe85d4cc","system_id":"levelo_inurba_marseille","lat":43.32285,"lon":5.38266,"is_reserved":false,"is_disabled":false,"rental_uris":{"android":"levelo://app?vid=f1db9771-94dd-4030-914e-070bbe85d4cc","ios":"levelo://app?vid=f1db9771-94dd-4030-914e-070bbe85d4cc"},"vehicle_type_id":"4","last_reported":1739682524,"current_range_meters":38400,"station_id":"ce4bhr12rcd13ifvqhqg","pricing_plan_id":"cebpf4jnsgd1na2vs0mg"},{"bike_id":"388c593f-91de-4783-ba97-3dc258b92891","system_id":"levelo_inurba_marseille","lat":43.28568,"lon":5.39499,"is_reserved":false,"is_disabled":false,"rental_uris":{"android":"levelo://app?vid=388c593f-91de-4783-ba97-3dc258b92891","ios":"levelo://app?vid=388c593f-91de-4783-ba97-3dc258b92891"},"vehicle_type_id":"4","last_reported":1739682524,"current_range_meters":6000,"station_id":"ce4bh292rcd13ifvqdg0","pricing_plan_id":"cebpf4jnsgd1na2vs0mg"},{"bike_id":"56a0c045-2888-4b4e-9ed6-3ea77c30289d","system_id":"levelo_inurba_marseille","lat":43.29022,"lon":5.38623,"is_reserved":false,"is_disabled":false,"rental_uris":{"android":"levelo://app?vid=56a0c045-2888-4b4e-9ed6-3ea77c30289d","ios":"levelo://app?vid=56a0c045-2888-4b4e-9ed6-3ea77c30289d"},"vehicle_type_id":"4","last_reported":1739682524,"current_range_meters":36800,"station_id":"ce4bh4p2rcd13ifvqe0g","pricing_plan_id":"cebpf4jnsgd1na2vs0mg"},{"bike_id":"420f85fb-df53-484b-b0f5-ee8897a490a2","system_id":"levelo_inurba_marseille","lat":43.28472,"lon":5.35895,"is_reserved":false,"is_disabled":false,"rental_uris":{"android":"levelo://app?vid=420f85fb-df53-484b-b0f5-ee8897a490a2","ios":"levelo://app?vid=420f85fb-df53-484b-b0f5-ee8897a490a2"},"vehicle_type_id":"4","last_reported":1739682524,"current_range_meters":38800,"station_id":"ce4bhah2rcd13ifvqei0","pricing_plan_id":"cebpf4jnsgd1na2vs0mg"},{"bike_id":"53b5f8d9-591b-4722-8b93-d03568f78034","system_id":"levelo_inurba_marseille","lat":43.284564,"lon":5.358916,"is_reserved":false,"is_disabled":false,"rental_uris":{"android":"levelo://app?vid=53b5f8d9-591b-4722-8b93-d03568f78034","ios":"levelo://app?vid=53b5f8d9-591b-4722-8b93-d03568f78034"},"vehicle_type_id":"4","last_reported":1739682524,"current_range_meters":22000,"station_id":"ce4bhah2rcd13ifvqei0","pricing_plan_id":"cebpf4jnsgd1na2vs0mg"},{"bike_id":"d511c3fa-d5f4-4a0f-91ee-268d02b5310f","system_id":"levelo_inurba_marseille","lat":43.286196,"lon":5.35099,"is_reserved":false,"is_disabled":true,"rental_uris":{"android":"levelo://app?vid=d511c3fa-d5f4-4a0f-91ee-268d02b5310f","ios":"levelo://app?vid=d511c3fa-d5f4-4a0f-91ee-268d02b5310f"},"vehicle_type_id":"4","last_reported":1739682524,"current_range_meters":17200,"station_id":"","pricing_plan_id":"cebpf4jnsgd1na2vs0mg"},{"bike_id":"0b449e12-31cd-4bd1-8f80-a7c11c3a34ac","system_id":"levelo_inurba_marseille","lat":43.31537,"lon":5.3802,"is_reserved":false,"is_disabled":false,"rental_uris":{"android":"levelo://app?vid=0b449e12-31cd-4bd1-8f80-a7c11c3a34ac","ios":"levelo://app?vid=0b449e12-31cd-4bd1-8f80-a7c11c3a34ac"},"vehicle_type_id":"4","last_reported":1739682524,"current_range_meters":38000,"station_id":"ce4bhsp2rcd13ifvqi50","pricing_plan_id":"cebpf4jnsgd1na2vs0mg"},{"bike_id":"81c837a5-f048-4995-ae64-6459b1e67ecc","system_id":"levelo_inurba_marseille","lat":43.27834,"lon":5.39218,"is_reserved":false,"is_disabled":false,"rental_uris":{"android":"levelo://app?vid=81c837a5-f048-4995-ae64-6459b1e67ecc","ios":"levelo://app?vid=81c837a5-f048-4995-ae64-6459b1e67ecc"},"vehicle_type_id":"4","last_reported":1739682524,"current_range_meters":24800,"station_id":"ce4bhjp2rcd13ifvqga0","pricing_plan_id":"cebpf4jnsgd1na2vs0mg"},{"bike_id":"ce839b1e-20f4-4e44-b0c5-1c528235bce0","system_id":"levelo_inurba_marseille","lat":43.28461,"lon":5.35897,"is_reserved":false,"is_disabled":false,"rental_uris":{"android":"levelo://app?vid=ce839b1e-20f4-4e44-b0c5-1c528235bce0","ios":"levelo://app?vid=ce839b1e-20f4-4e44-b0c5-1c528235bce0"},"vehicle_type_id":"4","last_reported":1739682524,"current_range_meters":38800,"station_id":"ce4bhah2rcd13ifvqei0","pricing_plan_id":"cebpf4jnsgd1na2vs0mg"},{"bike_id":"f00620ae-2110-4dbd-a2e7-cd7bf13fe429","system_id":"levelo_inurba_marseille","lat":43.23189,"lon":5.40003,"is_reserved":false,"is_disabled":true,"rental_uris":{"android":"levelo://app?vid=f00620ae-2110-4dbd-a2e7-cd7bf13fe429","ios":"levelo://app?vid=f00620ae-2110-4dbd-a2e7-cd7bf13fe429"},"vehicle_type_id":"4","last_reported":1739682524,"current_range_meters":38000,"station_id":"ce4bhn12rcd13ifvqgqg","pricing_plan_id":"cebpf4jnsgd1na2vs0mg"},{"bike_id":"ab4c4cd5-ed4c-4a24-adbc-1e77e06a1fbe","system_id":"levelo_inurba_marseille","lat":43.29557,"lon":5.42272,"is_reserved":false,"is_disabled":false,"rental_uris":{"android":"levelo://app?vid=ab4c4cd5-ed4c-4a24-adbc-1e77e06a1fbe","ios":"levelo://app?vid=ab4c4cd5-ed4c-4a24-adbc-1e77e06a1fbe"},"vehicle_type_id":"4","last_reported":1739682524,"current_range_meters":28400,"station_id":"ce4bhph2rcd13ifvqhdg","pricing_plan_id":"cebpf4jnsgd1na2vs0mg"},{"bike_id":"44fb5291-fc4e-4904-a870-fe6008ca4617","system_id":"levelo_inurba_marseille","lat":43.31113,"lon":5.37766,"is_reserved":false,"is_disabled":false,"rental_uris":{"android":"levelo://app?vid=44fb5291-fc4e-4904-a870-fe6008ca4617","ios":"levelo://app?vid=44fb5291-fc4e-4904-a870-fe6008ca4617"},"vehicle_type_id":"4","last_reported":1739682524,"current_range_meters":8000,"station_id":"ce4bgt92rcd13ifvqcg0","pricing_plan_id":"cebpf4jnsgd1na2vs0mg"},{"bike_id":"59b279cd-9bb0-4e91-a9ed-cd7da0f24062","system_id":"levelo_inurba_marseille","lat":43.304614,"lon":5.369146,"is_reserved":false,"is_disabled":false,"rental_uris":{"android":"levelo://app?vid=59b279cd-9bb0-4e91-a9ed-cd7da0f24062","ios":"levelo://app?vid=59b279cd-9bb0-4e91-a9ed-cd7da0f24062"},"vehicle_type_id":"4","last_reported":1739682524,"current_range_meters":16400,"station_id":"","pricing_plan_id":"cebpf4jnsgd1na2vs0mg"},{"bike_id":"ddf1d674-41d6-443f-b0f1-1da7df267862","system_id":"levelo_inurba_marseille","lat":43.23046,"lon":5.35509,"is_reserved":false,"is_disabled":false,"rental_uris":{"android":"levelo://app?vid=ddf1d674-41d6-443f-b0f1-1da7df267862","ios":"levelo://app?vid=ddf1d674-41d6-443f-b0f1-1da7df267862"},"vehicle_type_id":"4","last_reported":1739682524,"current_range_meters":17200,"station_id":"cpo3342slgdg3j2ifvpg","pricing_plan_id":"cebpf4jnsgd1na2vs0mg"},{"bike_id":"94729826-cfa5-4ed9-8abd-5e8e49cce84e","system_id":"levelo_inurba_marseille","lat":43.29076,"lon":5.43263,"is_reserved":false,"is_disabled":true,"rental_uris":{"android":"levelo://app?vid=94729826-cfa5-4ed9-8abd-5e8e49cce84e","ios":"levelo://app?vid=94729826-cfa5-4ed9-8abd-5e8e49cce84e"},"vehicle_type_id":"4","last_reported":1739682524,"current_range_meters":2000,"station_id":"","pricing_plan_id":"cebpf4jnsgd1na2vs0mg"},{"bike_id":"59897d86-c0b3-4acb-bf89-133a9364e1f4","system_id":"levelo_inurba_marseille","lat":43.230555,"lon":5.354903,"is_reserved":false,"is_disabled":true,"rental_uris":{"android":"levelo://app?vid=59897d86-c0b3-4acb-bf89-133a9364e1f4","ios":"levelo://app?vid=59897d86-c0b3-4acb-bf89-133a9364e1f4"},"vehicle_type_id":"4","last_reported":1739682524,"current_range_meters":38000,"station_id":"cpo3342slgdg3j2ifvpg","pricing_plan_id":"cebpf4jnsgd1na2vs0mg"},{"bike_id":"6b341882-bf93-4fac-92f7-aa4fae3a7ca8","system_id":"levelo_inurba_marseille","lat":43.31972,"lon":5.38179,"is_reserved":false,"is_disabled":false,"rental_uris":{"android":"levelo://app?vid=6b341882-bf93-4fac-92f7-aa4fae3a7ca8","ios":"levelo://app?vid=6b341882-bf93-4fac-92f7-aa4fae3a7ca8"},"vehicle_type_id":"4","last_reported":1739682524,"current_range_meters":38000,"station_id":"ce4bhr12rcd13ifvqhpg","pricing_plan_id":"cebpf4jnsgd1na2vs0mg"},{"bike_id":"799cb367-f74c-4b90-ab8e-e13e0e89b122","system_id":"levelo_inurba_marseille","lat":43.295681,"lon":5.399725,"is_reserved":false,"is_disabled":false,"rental_uris":{"android":"levelo://app?vid=799cb367-f74c-4b90-ab8e-e13e0e89b122","ios":"levelo://app?vid=799cb367-f74c-4b90-ab8e-e13e0e89b122"},"vehicle_type_id":"4","last_reported":1739682524,"current_range_meters":38000,"station_id":"ce4bh312rcd13ifvqdj0","pricing_plan_id":"cebpf4jnsgd1na2vs0mg"},{"bike_id":"3657cb3a-8308-44c8-971b-092680d319de","system_id":"levelo_inurba_marseille","lat":43.232004,"lon":5.355461,"is_reserved":false,"is_disabled":false,"rental_uris":{"android":"levelo://app?vid=3657cb3a-8308-44c8-971b-092680d319de","ios":"levelo://app?vid=3657cb3a-8308-44c8-971b-092680d319de"},"vehicle_type_id":"4","last_reported":1739682524,"current_range_meters":10000,"station_id":"ce4bhu92rcd13ifvqi70","pricing_plan_id":"cebpf4jnsgd1na2vs0mg"},{"bike_id":"7b9840b7-f4aa-42a5-8fe4-6cb9bbe9f065","system_id":"levelo_inurba_marseille","lat":43.29901,"lon":5.39723,"is_reserved":false,"is_disabled":false,"rental_uris":{"android":"levelo://app?vid=7b9840b7-f4aa-42a5-8fe4-6cb9bbe9f065","ios":"levelo://app?vid=7b9840b7-f4aa-42a5-8fe4-6cb9bbe9f065"},"vehicle_type_id":"4","last_reported":1739682524,"current_range_meters":38800,"station_id":"ce4bh0h2rcd13ifvqd50","pricing_plan_id":"cebpf4jnsgd1na2vs0mg"},{"bike_id":"f635a801-2671-4306-9268-68edf1b8a251","system_id":"levelo_inurba_marseille","lat":43.298804,"lon":5.397381,"is_reserved":false,"is_disabled":false,"rental_uris":{"android":"levelo://app?vid=f635a801-2671-4306-9268-68edf1b8a251","ios":"levelo://app?vid=f635a801-2671-4306-9268-68edf1b8a251"},"vehicle_type_id":"4","last_reported":1739682524,"current_range_meters":34800,"station_id":"ce4bh0h2rcd13ifvqd50","pricing_plan_id":"cebpf4jnsgd1na2vs0mg"},{"bike_id":"fddf9633-377f-489e-9c7d-38f1665ca695","system_id":"levelo_inurba_marseille","lat":43.295931,"lon":5.380974,"is_reserved":false,"is_disabled":true,"rental_uris":{"android":"levelo://app?vid=fddf9633-377f-489e-9c7d-38f1665ca695","ios":"levelo://app?vid=fddf9633-377f-489e-9c7d-38f1665ca695"},"vehicle_type_id":"4","last_reported":1739682524,"current_range_meters":24000,"station_id":"ce4bgl12rcd13ifvqbo0","pricing_plan_id":"cebpf4jnsgd1na2vs0mg"},{"bike_id":"40c4421e-be80-49b9-9035-ec8bd05923a2","system_id":"levelo_inurba_marseille","lat":43.28846,"lon":5.39325,"is_reserved":false,"is_disabled":true,"rental_uris":{"android":"levelo://app?vid=40c4421e-be80-49b9-9035-ec8bd05923a2","ios":"levelo://app?vid=40c4421e-be80-49b9-9035-ec8bd05923a2"},"vehicle_type_id":"4","last_reported":1739682524,"current_range_meters":20000,"station_id":"ce4bh2p2rcd13ifvqdi0","pricing_plan_id":"cebpf4jnsgd1na2vs0mg"},{"bike_id":"4bc50c17-9aeb-4487-a054-afb81c6c63dc","system_id":"levelo_inurba_marseille","lat":43.27624,"lon":5.36103,"is_reserved":false,"is_disabled":true,"rental_uris":{"android":"levelo://app?vid=4bc50c17-9aeb-4487-a054-afb81c6c63dc","ios":"levelo://app?vid=4bc50c17-9aeb-4487-a054-afb81c6c63dc"},"vehicle_type_id":"4","last_reported":1739682524,"current_range_meters":29600,"station_id":"ce4bgj92rcd13ifvqbe0","pricing_plan_id":"cebpf4jnsgd1na2vs0mg"},{"bike_id":"84eefdcb-a410-4560-ac5c-e1fcb717b9f7","system_id":"levelo_inurba_marseille","lat":43.28931,"lon":5.36613,"is_reserved":false,"is_disabled":false,"rental_uris":{"android":"levelo://app?vid=84eefdcb-a410-4560-ac5c-e1fcb717b9f7","ios":"levelo://app?vid=84eefdcb-a410-4560-ac5c-e1fcb717b9f7"},"vehicle_type_id":"4","last_reported":1739682524,"current_range_meters":37600,"station_id":"ce4bhap2rcd13ifvqek0","pricing_plan_id":"cebpf4jnsgd1na2vs0mg"},{"bike_id":"2c8b8a41-5401-4b3a-be72-574e3bbf0407","system_id":"levelo_inurba_marseille","lat":43.306309,"lon":5.365808,"is_reserved":false,"is_disabled":false,"rental_uris":{"android":"levelo://app?vid=2c8b8a41-5401-4b3a-be72-574e3bbf0407","ios":"levelo://app?vid=2c8b8a41-5401-4b3a-be72-574e3bbf0407"},"vehicle_type_id":"4","last_reported":1739682524,"current_range_meters":6400,"station_id":"","pricing_plan_id":"cebpf4jnsgd1na2vs0mg"},{"bike_id":"0f37e119-70d5-41eb-90ed-58aca4fe1023","system_id":"levelo_inurba_marseille","lat":43.30586,"lon":5.39337,"is_reserved":false,"is_disabled":false,"rental_uris":{"android":"levelo://app?vid=0f37e119-70d5-41eb-90ed-58aca4fe1023","ios":"levelo://app?vid=0f37e119-70d5-41eb-90ed-58aca4fe1023"},"vehicle_type_id":"4","last_reported":1739682524,"current_range_meters":37600,"station_id":"ce4bh0p2rcd13ifvqd80","pricing_plan_id":"cebpf4jnsgd1na2vs0mg"},{"bike_id":"6c4e18f7-9485-4121-8099-cbc5b94b4114","system_id":"levelo_inurba_marseille","lat":43.275713,"lon":5.384112,"is_reserved":false,"is_disabled":false,"rental_uris":{"android":"levelo://app?vid=6c4e18f7-9485-4121-8099-cbc5b94b4114","ios":"levelo://app?vid=6c4e18f7-9485-4121-8099-cbc5b94b4114"},"vehicle_type_id":"4","last_reported":1739682524,"current_range_meters":12000,"station_id":"ce4bhh92rcd13ifvqfi0","pricing_plan_id":"cebpf4jnsgd1na2vs0mg"},{"bike_id":"76e9689a-c738-4ae0-88ce-a636639e49f8","system_id":"levelo_inurba_marseille","lat":43.25572,"lon":5.38255,"is_reserved":false,"is_disabled":false,"rental_uris":{"android":"levelo://app?vid=76e9689a-c738-4ae0-88ce-a636639e49f8","ios":"levelo://app?vid=76e9689a-c738-4ae0-88ce-a636639e49f8"},"vehicle_type_id":"4","last_reported":1739682524,"current_range_meters":38800,"station_id":"ce4bhih2rcd13ifvqfs0","pricing_plan_id":"cebpf4jnsgd1na2vs0mg"},{"bike_id":"3625836a-8a03-4572-80d5-fadff11603e7","system_id":"levelo_inurba_marseille","lat":43.28034,"lon":5.3695,"is_reserved":false,"is_disabled":false,"rental_uris":{"android":"levelo://app?vid=3625836a-8a03-4572-80d5-fadff11603e7","ios":"levelo://app?vid=3625836a-8a03-4572-80d5-fadff11603e7"},"vehicle_type_id":"4","last_reported":1739682524,"current_range_meters":38800,"station_id":"ce4bha12rcd13ifvqef0","pricing_plan_id":"cebpf4jnsgd1na2vs0mg"},{"bike_id":"43dc5574-eed0-4b1d-9289-f32002400d84","system_id":"levelo_inurba_marseille","lat":43.24169,"lon":5.364,"is_reserved":false,"is_disabled":false,"rental_uris":{"android":"levelo://app?vid=43dc5574-eed0-4b1d-9289-f32002400d84","ios":"levelo://app?vid=43dc5574-eed0-4b1d-9289-f32002400d84"},"vehicle_type_id":"4","last_reported":1739682524,"current_range_meters":8800,"station_id":"cpo36qri1sfpv3e86is0","pricing_plan_id":"cebpf4jnsgd1na2vs0mg"},{"bike_id":"b7675672-ea91-4212-a3c2-1e75ea117425","system_id":"levelo_inurba_marseille","lat":43.28107,"lon":5.42706,"is_reserved":false,"is_disabled":true,"rental_uris":{"android":"levelo://app?vid=b7675672-ea91-4212-a3c2-1e75ea117425","ios":"levelo://app?vid=b7675672-ea91-4212-a3c2-1e75ea117425"},"vehicle_type_id":"4","last_reported":1739682524,"current_range_meters":0,"station_id":"","pricing_plan_id":"cebpf4jnsgd1na2vs0mg"},{"bike_id":"aa98da59-a777-4c7b-abc8-b8d5903f3dc4","system_id":"levelo_inurba_marseille","lat":43.32335,"lon":5.40617,"is_reserved":false,"is_disabled":false,"rental_uris":{"android":"levelo://app?vid=aa98da59-a777-4c7b-abc8-b8d5903f3dc4","ios":"levelo://app?vid=aa98da59-a777-4c7b-abc8-b8d5903f3dc4"},"vehicle_type_id":"4","last_reported":1739682524,"current_range_meters":36400,"station_id":"ce4bhq92rcd13ifvqhjg","pricing_plan_id":"cebpf4jnsgd1na2vs0mg"},{"bike_id":"91e27922-e676-45ea-94da-baf83d9c520d","system_id":"levelo_inurba_marseille","lat":43.28044,"lon":5.36952,"is_reserved":false,"is_disabled":true,"rental_uris":{"android":"levelo://app?vid=91e27922-e676-45ea-94da-baf83d9c520d","ios":"levelo://app?vid=91e27922-e676-45ea-94da-baf83d9c520d"},"vehicle_type_id":"4","last_reported":1739682524,"current_range_meters":36000,"station_id":"ce4bha12rcd13ifvqef0","pricing_plan_id":"cebpf4jnsgd1na2vs0mg"},{"bike_id":"7014a119-8e27-4243-b4d7-84049cd6576f","system_id":"levelo_inurba_marseille","lat":43.305939,"lon":5.393609,"is_reserved":false,"is_disabled":false,"rental_uris":{"android":"levelo://app?vid=7014a119-8e27-4243-b4d7-84049cd6576f","ios":"levelo://app?vid=7014a119-8e27-4243-b4d7-84049cd6576f"},"vehicle_type_id":"4","last_reported":1739682524,"current_range_meters":35600,"station_id":"ce4bh0p2rcd13ifvqd80","pricing_plan_id":"cebpf4jnsgd1na2vs0mg"},{"bike_id":"3267b8a7-1e4e-443c-a66a-46725243df34","system_id":"levelo_inurba_marseille","lat":43.30251,"lon":5.39707,"is_reserved":false,"is_disabled":false,"rental_uris":{"android":"levelo://app?vid=3267b8a7-1e4e-443c-a66a-46725243df34","ios":"levelo://app?vid=3267b8a7-1e4e-443c-a66a-46725243df34"},"vehicle_type_id":"4","last_reported":1739682524,"current_range_meters":37600,"station_id":"","pricing_plan_id":"cebpf4jnsgd1na2vs0mg"},{"bike_id":"39f0fa43-2961-47d0-8e28-d6ced3bcb1a4","system_id":"levelo_inurba_marseille","lat":43.26798,"lon":5.40259,"is_reserved":false,"is_disabled":true,"rental_uris":{"android":"levelo://app?vid=39f0fa43-2961-47d0-8e28-d6ced3bcb1a4","ios":"levelo://app?vid=39f0fa43-2961-47d0-8e28-d6ced3bcb1a4"},"vehicle_type_id":"4","last_reported":1739682524,"current_range_meters":30800,"station_id":"ce501612rcd8frsf0b60","pricing_plan_id":"cebpf4jnsgd1na2vs0mg"},{"bike_id":"4e814ba9-7f7f-413c-81c5-6cae18c64ff7","system_id":"levelo_inurba_marseille","lat":43.31327,"lon":5.39706,"is_reserved":false,"is_disabled":false,"rental_uris":{"android":"levelo://app?vid=4e814ba9-7f7f-413c-81c5-6cae18c64ff7","ios":"levelo://app?vid=4e814ba9-7f7f-413c-81c5-6cae18c64ff7"},"vehicle_type_id":"4","last_reported":1739682524,"current_range_meters":35200,"station_id":"ce4bgvp2rcd13ifvqcu0","pricing_plan_id":"cebpf4jnsgd1na2vs0mg"},{"bike_id":"9bcc3779-160f-4f11-a908-15bc41b1ac43","system_id":"levelo_inurba_marseille","lat":43.279929,"lon":5.400108,"is_reserved":false,"is_disabled":true,"rental_uris":{"android":"levelo://app?vid=9bcc3779-160f-4f11-a908-15bc41b1ac43","ios":"levelo://app?vid=9bcc3779-160f-4f11-a908-15bc41b1ac43"},"vehicle_type_id":"4","last_reported":1739682524,"current_range_meters":4400,"station_id":"ce4bho92rcd13ifvqh4g","pricing_plan_id":"cebpf4jnsgd1na2vs0mg"},{"bike_id":"3c64c24f-16f7-46ec-b068-15fe4ebda356","system_id":"levelo_inurba_marseille","lat":43.29493,"lon":5.36395,"is_reserved":false,"is_disabled":true,"rental_uris":{"android":"levelo://app?vid=3c64c24f-16f7-46ec-b068-15fe4ebda356","ios":"levelo://app?vid=3c64c24f-16f7-46ec-b068-15fe4ebda356"},"vehicle_type_id":"4","last_reported":1739682524,"current_range_meters":19200,"station_id":"","pricing_plan_id":"cebpf4jnsgd1na2vs0mg"},{"bike_id":"07103950-cfc8-4b51-a67a-cac3df3ef5e7","system_id":"levelo_inurba_marseille","lat":43.240755,"lon":5.377587,"is_reserved":false,"is_disabled":false,"rental_uris":{"android":"levelo://app?vid=07103950-cfc8-4b51-a67a-cac3df3ef5e7","ios":"levelo://app?vid=07103950-cfc8-4b51-a67a-cac3df3ef5e7"},"vehicle_type_id":"4","last_reported":1739682524,"current_range_meters":38800,"station_id":"ce4bhnp2rcd13ifvqgvg","pricing_plan_id":"cebpf4jnsgd1na2vs0mg"},{"bike_id":"ddade70e-450b-459c-901d-c8d7b6e39c7e","system_id":"levelo_inurba_marseille","lat":43.257099,"lon":5.411153,"is_reserved":false,"is_disabled":false,"rental_uris":{"android":"levelo://app?vid=ddade70e-450b-459c-901d-c8d7b6e39c7e","ios":"levelo://app?vid=ddade70e-450b-459c-901d-c8d7b6e39c7e"},"vehicle_type_id":"4","last_reported":1739682524,"current_range_meters":29600,"station_id":"ce4bhkp2rcd13ifvqgd0","pricing_plan_id":"cebpf4jnsgd1na2vs0mg"},{"bike_id":"3413a85c-593d-4e5d-9cc3-3c0941e30f51","system_id":"levelo_inurba_marseille","lat":43.29197,"lon":5.35802,"is_reserved":false,"is_disabled":false,"rental_uris":{"android":"levelo://app?vid=3413a85c-593d-4e5d-9cc3-3c0941e30f51","ios":"levelo://app?vid=3413a85c-593d-4e5d-9cc3-3c0941e30f51"},"vehicle_type_id":"4","last_reported":1739682524,"current_range_meters":25200,"station_id":"ce4bhb12rcd13ifvqel0","pricing_plan_id":"cebpf4jnsgd1na2vs0mg"},{"bike_id":"cfe30082-ce4b-47a8-9136-bff6c426673d","system_id":"levelo_inurba_marseille","lat":43.30303,"lon":5.36886,"is_reserved":false,"is_disabled":false,"rental_uris":{"android":"levelo://app?vid=cfe30082-ce4b-47a8-9136-bff6c426673d","ios":"levelo://app?vid=cfe30082-ce4b-47a8-9136-bff6c426673d"},"vehicle_type_id":"4","last_reported":1739682524,"current_range_meters":30400,"station_id":"ce4bgqh2rcd13ifvqc5g","pricing_plan_id":"cebpf4jnsgd1na2vs0mg"},{"bike_id":"2afd9b6e-b31d-467e-855d-1f73b24961b0","system_id":"levelo_inurba_marseille","lat":43.26783,"lon":5.39419,"is_reserved":false,"is_disabled":false,"rental_uris":{"android":"levelo://app?vid=2afd9b6e-b31d-467e-855d-1f73b24961b0","ios":"levelo://app?vid=2afd9b6e-b31d-467e-855d-1f73b24961b0"},"vehicle_type_id":"4","last_reported":1739682524,"current_range_meters":36400,"station_id":"ce4bhh12rcd13ifvqfg0","pricing_plan_id":"cebpf4jnsgd1na2vs0mg"},{"bike_id":"26ef4db8-d373-4e80-8b1e-f98947cb367b","system_id":"levelo_inurba_marseille","lat":43.23187,"lon":5.4,"is_reserved":false,"is_disabled":false,"rental_uris":{"android":"levelo://app?vid=26ef4db8-d373-4e80-8b1e-f98947cb367b","ios":"levelo://app?vid=26ef4db8-d373-4e80-8b1e-f98947cb367b"},