{"last_updated":1741705837,"ttl":60,"version":"2.2","data":{"bikes":[{"bike_id":"027c5f71-2dd9-4087-a04f-742dc2a8347d","system_id":"levelo_inurba_marseille","lat":43.28475,"lon":5.3842,"is_reserved":false,"is_disabled":false,"rental_uris":{"android":"levelo://app?vid=027c5f71-2dd9-4087-a04f-742dc2a8347d","ios":"levelo://app?vid=027c5f71-2dd9-4087-a04f-742dc2a8347d"},"vehicle_type_id":"4","last_reported":1741705837,"current_range_meters":3200,"station_id":"ce4bh512rcd13ifvqe3g","pricing_plan_id":"cebpf4jnsgd1na2vs0mg"},{"bike_id":"ddee3378-f6f4-476b-bc0a-68bb30b40c00","system_id":"levelo_inurba_marseille","lat":43.29714,"lon":5.37697,"is_reserved":false,"is_disabled":false,"rental_uris":{"android":"levelo://app?vid=ddee3378-f6f4-476b-bc0a-68bb30b40c00","ios":"levelo://app?vid=ddee3378-f6f4-476b-bc0a-68bb30b40c00"},"vehicle_type_id":"4","last_reported":1741705837,"current_range_meters":3200,"station_id":"ce4bgkh2rcd13ifvqbl0","pricing_plan_id":"cebpf4jnsgd1na2vs0mg"},{"bike_id":"9ca55634-bb08-42a8-ba0e-edd2059844df","system_id":"levelo_inurba_marseille","lat":43.29322,"lon":5.37151,"is_reserved":false,"is_disabled":false,"rental_uris":{"android":"levelo://app?vid=9ca55634-bb08-42a8-ba0e-edd2059844df","ios":"levelo://app?vid=9ca55634-bb08-42a8-ba0e-edd2059844df"},"vehicle_type_id":"4","last_reported":1741705837,"current_range_meters":3200,"station_id":"ce4bgh92rcd13ifvqb40","pricing_plan_id":"cebpf4jnsgd1na2vs0mg"},{"bike_id":"b104001a-10f7-4c93-b613-2b76cb885027","system_id":"levelo_inurba_marseille","lat":43.311579,"lon":5.371114,"is_reserved":false,"is_disabled":false,"rental_uris":{"android":"levelo://app?vid=b104001a-10f7-4c93-b613-2b76cb885027","ios":"levelo://app?vid=b104001a-10f7-4c93-b613-2b76cb885027"},"vehicle_type_id":"4","last_reported":1741705837,"current_range_meters":3200,"station_id":"","pricing_plan_id":"cebpf4jnsgd1na2vs0mg"},{"bike_id":"168cbdfd-bccb-4788-9213-16ff3f19dcd3","system_id":"levelo_inurba_marseille","lat":43.3107,"lon":5.38352,"is_reserved":false,"is_disabled":false,"rental_uris":{"android":"levelo://app?vid=168cbdfd-bccb-4788-9213-16ff3f19dcd3","ios":"levelo://app?vid=168cbdfd-bccb-4788-9213-16ff3f19dcd3"},"vehicle_type_id":"4","last_reported":1741705837,"current_range_meters":3600,"station_id":"ce4bgv92rcd13ifvqcr0","pricing_plan_id":"cebpf4jnsgd1na2vs0mg"},{"bike_id":"8f645716-0845-431d-8374-a382c5a09dc4","system_id":"levelo_inurba_marseille","lat":43.28936,"lon":5.36402,"is_reserved":false,"is_disabled":false,"rental_uris":{"android":"levelo://app?vid=8f645716-0845-431d-8374-a382c5a09dc4","ios":"levelo://app?vid=8f645716-0845-431d-8374-a382c5a09dc4"},"vehicle_type_id":"4","last_reported":1741705837,"current_range_meters":4000,"station_id":"ce4bhc92rcd13ifvqetg","pricing_plan_id":"cebpf4jnsgd1na2vs0mg"},{"bike_id":"2fbb2f0e-b64e-445e-a2b3-ee5227dc63e4","system_id":"levelo_inurba_marseille","lat":43.26915,"lon":5.36701,"is_reserved":false,"is_disabled":false,"rental_uris":{"android":"levelo://app?vid=2fbb2f0e-b64e-445e-a2b3-ee5227dc63e4","ios":"levelo://app?vid=2fbb2f0e-b64e-445e-a2b3-ee5227dc63e4"},"vehicle_type_id":"4","last_reported":1741705837,"current_range_meters":4000,"station_id":"","pricing_plan_id":"cebpf4jnsgd1na2vs0mg"},{"bike_id":"46c805d2-7df9-4baa-9f19-301b216cc990","system_id":"levelo_inurba_marseille","lat":43.286724,"lon":5.386567,"is_reserved":false,"is_disabled":false,"rental_uris":{"android":"levelo://app?vid=46c805d2-7df9-4baa-9f19-301b216cc990","ios":"levelo://app?vid=46c805d2-7df9-4baa-9f19-301b216cc990"},"vehicle_type_id":"4","last_reported":1741705837,"current_range_meters":4000,"station_id":"ce4bh492rcd13ifvqdug","pricing_plan_id":"cebpf4jnsgd1na2vs0mg"},{"bike_id":"7f08542c-3622-4bee-8852-d0974c0ec085","system_id":"levelo_inurba_marseille","lat":43.24184,"lon":5.36319,"is_reserved":false,"is_disabled":false,"rental_uris":{"android":"levelo://app?vid=7f08542c-3622-4bee-8852-d0974c0ec085","ios":"levelo://app?vid=7f08542c-3622-4bee-8852-d0974c0ec085"},"vehicle_type_id":"4","last_reported":1741705837,"current_range_meters":4000,"station_id":"","pricing_plan_id":"cebpf4jnsgd1na2vs0mg"},{"bike_id":"25a4a053-4bc3-453c-82ad-25db4eb7ebd8","system_id":"levelo_inurba_marseille","lat":43.30966,"lon":5.39083,"is_reserved":false,"is_disabled":false,"rental_uris":{"android":"levelo://app?vid=25a4a053-4bc3-453c-82ad-25db4eb7ebd8","ios":"levelo://app?vid=25a4a053-4bc3-453c-82ad-25db4eb7ebd8"},"vehicle_type_id":"4","last_reported":1741705837,"current_range_meters":1200,"station_id":"ce4bgup2rcd13ifvqco0","pricing_plan_id":"cebpf4jnsgd1na2vs0mg"},{"bike_id":"a329ae0e-056a-4f67-af01-fcea249b1608","system_id":"levelo_inurba_marseille","lat":43.290482,"lon":5.404936,"is_reserved":false,"is_disabled":false,"rental_uris":{"android":"levelo://app?vid=a329ae0e-056a-4f67-af01-fcea249b1608","ios":"levelo://app?vid=a329ae0e-056a-4f67-af01-fcea249b1608"},"vehicle_type_id":"4","last_reported":1741705837,"current_range_meters":4800,"station_id":"ce4bh0h2rcd13ifvqd60","pricing_plan_id":"cebpf4jnsgd1na2vs0mg"},{"bike_id":"c0042d76-6eb9-4507-8004-d614a3b13b33","system_id":"levelo_inurba_marseille","lat":43.31073,"lon":5.38356,"is_reserved":false,"is_disabled":false,"rental_uris":{"android":"levelo://app?vid=c0042d76-6eb9-4507-8004-d614a3b13b33","ios":"levelo://app?vid=c0042d76-6eb9-4507-8004-d614a3b13b33"},"vehicle_type_id":"4","last_reported":1741705837,"current_range_meters":5600,"station_id":"ce4bgv92rcd13ifvqcr0","pricing_plan_id":"cebpf4jnsgd1na2vs0mg"},{"bike_id":"7d325f8e-0ad3-4da1-8e9d-b9eaf1625b5a","system_id":"levelo_inurba_marseille","lat":43.28709,"lon":5.37915,"is_reserved":false,"is_disabled":false,"rental_uris":{"android":"levelo://app?vid=7d325f8e-0ad3-4da1-8e9d-b9eaf1625b5a","ios":"levelo://app?vid=7d325f8e-0ad3-4da1-8e9d-b9eaf1625b5a"},"vehicle_type_id":"4","last_reported":1741705837,"current_range_meters":5600,"station_id":"ce4bh9p2rcd13ifvqec0","pricing_plan_id":"cebpf4jnsgd1na2vs0mg"},{"bike_id":"dcb96671-e654-4375-86bd-078555756e30","system_id":"levelo_inurba_marseille","lat":43.27961,"lon":5.38748,"is_reserved":false,"is_disabled":false,"rental_uris":{"android":"levelo://app?vid=dcb96671-e654-4375-86bd-078555756e30","ios":"levelo://app?vid=dcb96671-e654-4375-86bd-078555756e30"},"vehicle_type_id":"4","last_reported":1741705837,"current_range_meters":5600,"station_id":"ce4bhg12rcd13ifvqf80","pricing_plan_id":"cebpf4jnsgd1na2vs0mg"},{"bike_id":"3e999145-d345-4762-ac5d-04d36a191e15","system_id":"levelo_inurba_marseille","lat":43.29572,"lon":5.37533,"is_reserved":false,"is_disabled":false,"rental_uris":{"android":"levelo://app?vid=3e999145-d345-4762-ac5d-04d36a191e15","ios":"levelo://app?vid=3e999145-d345-4762-ac5d-04d36a191e15"},"vehicle_type_id":"4","last_reported":1741705837,"current_range_meters":5600,"station_id":"ce4bgh92rcd13ifvqb50","pricing_plan_id":"cebpf4jnsgd1na2vs0mg"},{"bike_id":"4db736b9-68d3-4f2a-9431-002ce7a44183","system_id":"levelo_inurba_marseille","lat":43.23156,"lon":5.43715,"is_reserved":false,"is_disabled":false,"rental_uris":{"android":"levelo://app?vid=4db736b9-68d3-4f2a-9431-002ce7a44183","ios":"levelo://app?vid=4db736b9-68d3-4f2a-9431-002ce7a44183"},"vehicle_type_id":"4","last_reported":1741705837,"current_range_meters":5600,"station_id":"ce4bhmp2rcd13ifvqgog","pricing_plan_id":"cebpf4jnsgd1na2vs0mg"},{"bike_id":"e2111d68-6b13-4bda-8d79-8537217dfd9e","system_id":"levelo_inurba_marseille","lat":43.2998,"lon":5.39156,"is_reserved":false,"is_disabled":false,"rental_uris":{"android":"levelo://app?vid=e2111d68-6b13-4bda-8d79-8537217dfd9e","ios":"levelo://app?vid=e2111d68-6b13-4bda-8d79-8537217dfd9e"},"vehicle_type_id":"4","last_reported":1741705837,"current_range_meters":6000,"station_id":"ce4bh192rcd13ifvqdb0","pricing_plan_id":"cebpf4jnsgd1na2vs0mg"},{"bike_id":"3c37d746-5f63-4597-a617-71bd2c80a63f","system_id":"levelo_inurba_marseille","lat":43.30605,"lon":5.37237,"is_reserved":false,"is_disabled":false,"rental_uris":{"android":"levelo://app?vid=3c37d746-5f63-4597-a617-71bd2c80a63f","ios":"levelo://app?vid=3c37d746-5f63-4597-a617-71bd2c80a63f"},"vehicle_type_id":"4","last_reported":1741705837,"current_range_meters":2000,"station_id":"ce4bgqh2rcd13ifvqc4g","pricing_plan_id":"cebpf4jnsgd1na2vs0mg"},{"bike_id":"09c08ade-89aa-4169-a7b1-d869e5b3cd6d","system_id":"levelo_inurba_marseille","lat":43.27951,"lon":5.38701,"is_reserved":false,"is_disabled":false,"rental_uris":{"android":"levelo://app?vid=09c08ade-89aa-4169-a7b1-d869e5b3cd6d","ios":"levelo://app?vid=09c08ade-89aa-4169-a7b1-d869e5b3cd6d"},"vehicle_type_id":"4","last_reported":1741705837,"current_range_meters":6000,"station_id":"ce4bhg12rcd13ifvqf80","pricing_plan_id":"cebpf4jnsgd1na2vs0mg"},{"bike_id":"edb857b4-1bfb-4342-b5b8-95cfecfaa77c","system_id":"levelo_inurba_marseille","lat":43.25009,"lon":5.38937,"is_reserved":false,"is_disabled":false,"rental_uris":{"android":"levelo://app?vid=edb857b4-1bfb-4342-b5b8-95cfecfaa77c","ios":"levelo://app?vid=edb857b4-1bfb-4342-b5b8-95cfecfaa77c"},"vehicle_type_id":"4","last_reported":1741705837,"current_range_meters":6400,"station_id":"ce4bhgp2rcd13ifvqfd0","pricing_plan_id":"cebpf4jnsgd1na2vs0mg"},{"bike_id":"6b42988a-de91-4a30-b407-bb1347588844","system_id":"levelo_inurba_marseille","lat":43.2781,"lon":5.40716,"is_reserved":false,"is_disabled":false,"rental_uris":{"android":"levelo://app?vid=6b42988a-de91-4a30-b407-bb1347588844","ios":"levelo://app?vid=6b42988a-de91-4a30-b407-bb1347588844"},"vehicle_type_id":"4","last_reported":1741705837,"current_range_meters":6400,"station_id":"ce4bhnh2rcd13ifvqgtg","pricing_plan_id":"cebpf4jnsgd1na2vs0mg"},{"bike_id":"af7cad9e-fa8d-48b7-9985-2a246121bd34","system_id":"levelo_inurba_marseille","lat":43.28617,"lon":5.35115,"is_reserved":false,"is_disabled":false,"rental_uris":{"android":"levelo://app?vid=af7cad9e-fa8d-48b7-9985-2a246121bd34","ios":"levelo://app?vid=af7cad9e-fa8d-48b7-9985-2a246121bd34"},"vehicle_type_id":"4","last_reported":1741705837,"current_range_meters":6400,"station_id":"ce4bhch2rcd13ifvqeug","pricing_plan_id":"cebpf4jnsgd1na2vs0mg"},{"bike_id":"42b8606a-5a39-4c18-ab8e-ae2998dcaace","system_id":"levelo_inurba_marseille","lat":43.29896,"lon":5.43675,"is_reserved":false,"is_disabled":false,"rental_uris":{"android":"levelo://app?vid=42b8606a-5a39-4c18-ab8e-ae2998dcaace","ios":"levelo://app?vid=42b8606a-5a39-4c18-ab8e-ae2998dcaace"},"vehicle_type_id":"4","last_reported":1741705837,"current_range_meters":6800,"station_id":"ce4bhpp2rcd13ifvqhfg","pricing_plan_id":"cebpf4jnsgd1na2vs0mg"},{"bike_id":"2af4c0f8-7d74-403c-8b14-d800b574f4b0","system_id":"levelo_inurba_marseille","lat":43.28493,"lon":5.38432,"is_reserved":false,"is_disabled":false,"rental_uris":{"android":"levelo://app?vid=2af4c0f8-7d74-403c-8b14-d800b574f4b0","ios":"levelo://app?vid=2af4c0f8-7d74-403c-8b14-d800b574f4b0"},"vehicle_type_id":"4","last_reported":1741705837,"current_range_meters":6800,"station_id":"ce4bh512rcd13ifvqe3g","pricing_plan_id":"cebpf4jnsgd1na2vs0mg"},{"bike_id":"dc42e161-3661-4fd6-b581-259d0f327bf6","system_id":"levelo_inurba_marseille","lat":43.23186,"lon":5.39987,"is_reserved":false,"is_disabled":false,"rental_uris":{"android":"levelo://app?vid=dc42e161-3661-4fd6-b581-259d0f327bf6","ios":"levelo://app?vid=dc42e161-3661-4fd6-b581-259d0f327bf6"},"vehicle_type_id":"4","last_reported":1741705837,"current_range_meters":6800,"station_id":"ce4bhn12rcd13ifvqgqg","pricing_plan_id":"cebpf4jnsgd1na2vs0mg"},{"bike_id":"f0281310-9844-4d8f-846f-4b36e6b2c2c7","system_id":"levelo_inurba_marseille","lat":43.26193,"lon":5.37448,"is_reserved":false,"is_disabled":false,"rental_uris":{"android":"levelo://app?vid=f0281310-9844-4d8f-846f-4b36e6b2c2c7","ios":"levelo://app?vid=f0281310-9844-4d8f-846f-4b36e6b2c2c7"},"vehicle_type_id":"4","last_reported":1741705837,"current_range_meters":6800,"station_id":"ce4bhgp2rcd13ifvqfc0","pricing_plan_id":"cebpf4jnsgd1na2vs0mg"},{"bike_id":"f1459b28-1738-42f1-b12a-1bb0ad48378e","system_id":"levelo_inurba_marseille","lat":43.24663,"lon":5.3814,"is_reserved":false,"is_disabled":false,"rental_uris":{"android":"levelo://app?vid=f1459b28-1738-42f1-b12a-1bb0ad48378e","ios":"levelo://app?vid=f1459b28-1738-42f1-b12a-1bb0ad48378e"},"vehicle_type_id":"4","last_reported":1741705837,"current_range_meters":6800,"station_id":"ce4bhih2rcd13ifvqfr0","pricing_plan_id":"cebpf4jnsgd1na2vs0mg"},{"bike_id":"e48e2fa1-950b-4c58-87f2-8c15cded0183","system_id":"levelo_inurba_marseille","lat":43.26931,"lon":5.38918,"is_reserved":false,"is_disabled":false,"rental_uris":{"android":"levelo://app?vid=e48e2fa1-950b-4c58-87f2-8c15cded0183","ios":"levelo://app?vid=e48e2fa1-950b-4c58-87f2-8c15cded0183"},"vehicle_type_id":"4","last_reported":1741705837,"current_range_meters":4800,"station_id":"ce4bhhh2rcd13ifvqfl0","pricing_plan_id":"cebpf4jnsgd1na2vs0mg"},{"bike_id":"e7fbb933-d71b-4cc4-837e-f7d2e8cf1708","system_id":"levelo_inurba_marseille","lat":43.30262,"lon":5.40084,"is_reserved":false,"is_disabled":false,"rental_uris":{"android":"levelo://app?vid=e7fbb933-d71b-4cc4-837e-f7d2e8cf1708","ios":"levelo://app?vid=e7fbb933-d71b-4cc4-837e-f7d2e8cf1708"},"vehicle_type_id":"4","last_reported":1741705837,"current_range_meters":4000,"station_id":"ce4bgvh2rcd13ifvqcs0","pricing_plan_id":"cebpf4jnsgd1na2vs0mg"},{"bike_id":"98c9dabe-7dd3-4454-a608-b95751675ac5","system_id":"levelo_inurba_marseille","lat":43.29018,"lon":5.38128,"is_reserved":false,"is_disabled":false,"rental_uris":{"android":"levelo://app?vid=98c9dabe-7dd3-4454-a608-b95751675ac5","ios":"levelo://app?vid=98c9dabe-7dd3-4454-a608-b95751675ac5"},"vehicle_type_id":"4","last_reported":1741705837,"current_range_meters":7200,"station_id":"ce4bh4p2rcd13ifvqe1g","pricing_plan_id":"cebpf4jnsgd1na2vs0mg"},{"bike_id":"541078e0-c58e-43e0-af5f-8bd7e30d72aa","system_id":"levelo_inurba_marseille","lat":43.29807,"lon":5.38088,"is_reserved":false,"is_disabled":false,"rental_uris":{"android":"levelo://app?vid=541078e0-c58e-43e0-af5f-8bd7e30d72aa","ios":"levelo://app?vid=541078e0-c58e-43e0-af5f-8bd7e30d72aa"},"vehicle_type_id":"4","last_reported":1741705837,"current_range_meters":7200,"station_id":"ce4bgip2rcd13ifvqbb0","pricing_plan_id":"cebpf4jnsgd1na2vs0mg"},{"bike_id":"4043c340-bf44-4539-95c8-9a04eb8f982c","system_id":"levelo_inurba_marseille","lat":43.29419,"lon":5.3862,"is_reserved":false,"is_disabled":false,"rental_uris":{"android":"levelo://app?vid=4043c340-bf44-4539-95c8-9a04eb8f982c","ios":"levelo://app?vid=4043c340-bf44-4539-95c8-9a04eb8f982c"},"vehicle_type_id":"4","last_reported":1741705837,"current_range_meters":7200,"station_id":"ce4bh2h2rcd13ifvqdh0","pricing_plan_id":"cebpf4jnsgd1na2vs0mg"},{"bike_id":"54afd193-ee95-4f5e-975a-c9018d9dcb98","system_id":"levelo_inurba_marseille","lat":43.32358,"lon":5.36765,"is_reserved":false,"is_disabled":false,"rental_uris":{"android":"levelo://app?vid=54afd193-ee95-4f5e-975a-c9018d9dcb98","ios":"levelo://app?vid=54afd193-ee95-4f5e-975a-c9018d9dcb98"},"vehicle_type_id":"4","last_reported":1741705837,"current_range_meters":7200,"station_id":"ce4bhsh2rcd13ifvqi2g","pricing_plan_id":"cebpf4jnsgd1na2vs0mg"},{"bike_id":"d1ffb007-c8f4-4169-a441-984d939a1f24","system_id":"levelo_inurba_marseille","lat":43.31167,"lon":5.38722,"is_reserved":false,"is_disabled":false,"rental_uris":{"android":"levelo://app?vid=d1ffb007-c8f4-4169-a441-984d939a1f24","ios":"levelo://app?vid=d1ffb007-c8f4-4169-a441-984d939a1f24"},"vehicle_type_id":"4","last_reported":1741705837,"current_range_meters":800,"station_id":"ce4bgv12rcd13ifvqcp0","pricing_plan_id":"cebpf4jnsgd1na2vs0mg"},{"bike_id":"8933d9dc-e42a-4ba7-a33c-e6012e11ba77","system_id":"levelo_inurba_marseille","lat":43.28103,"lon":5.37839,"is_reserved":false,"is_disabled":false,"rental_uris":{"android":"levelo://app?vid=8933d9dc-e42a-4ba7-a33c-e6012e11ba77","ios":"levelo://app?vid=8933d9dc-e42a-4ba7-a33c-e6012e11ba77"},"vehicle_type_id":"4","last_reported":1741705837,"current_range_meters":12800,"station_id":"ce4bha12rcd13ifvqee0","pricing_plan_id":"cebpf4jnsgd1na2vs0mg"},{"bike_id":"15e74b16-5d2e-47fd-9cbd-c8ed22a04a66","system_id":"levelo_inurba_marseille","lat":43.28709,"lon":5.37937,"is_reserved":false,"is_disabled":false,"rental_uris":{"android":"levelo://app?vid=15e74b16-5d2e-47fd-9cbd-c8ed22a04a66","ios":"levelo://app?vid=15e74b16-5d2e-47fd-9cbd-c8ed22a04a66"},"vehicle_type_id":"4","last_reported":1741705837,"current_range_meters":7200,"station_id":"ce4bh9p2rcd13ifvqec0","pricing_plan_id":"cebpf4jnsgd1na2vs0mg"},{"bike_id":"c86d68f5-55ee-4a68-ba82-758fa1373f1d","system_id":"levelo_inurba_marseille","lat":43.317,"lon":5.43708,"is_reserved":false,"is_disabled":false,"rental_uris":{"android":"levelo://app?vid=c86d68f5-55ee-4a68-ba82-758fa1373f1d","ios":"levelo://app?vid=c86d68f5-55ee-4a68-ba82-758fa1373f1d"},"vehicle_type_id":"4","last_reported":1741705837,"current_range_meters":8000,"station_id":"ce4bhp92rcd13ifvqhcg","pricing_plan_id":"cebpf4jnsgd1na2vs0mg"},{"bike_id":"ffdd3460-ecd3-4034-b6d2-c8913101cd14","system_id":"levelo_inurba_marseille","lat":43.29282,"lon":5.36838,"is_reserved":false,"is_disabled":false,"rental_uris":{"android":"levelo://app?vid=ffdd3460-ecd3-4034-b6d2-c8913101cd14","ios":"levelo://app?vid=ffdd3460-ecd3-4034-b6d2-c8913101cd14"},"vehicle_type_id":"4","last_reported":1741705837,"current_range_meters":8000,"station_id":"ce4bhbp2rcd13ifvqesg","pricing_plan_id":"cebpf4jnsgd1na2vs0mg"},{"bike_id":"cbd6f8ee-d91a-4c06-a50f-8aefa40d8ceb","system_id":"levelo_inurba_marseille","lat":43.29899,"lon":5.43658,"is_reserved":false,"is_disabled":false,"rental_uris":{"android":"levelo://app?vid=cbd6f8ee-d91a-4c06-a50f-8aefa40d8ceb","ios":"levelo://app?vid=cbd6f8ee-d91a-4c06-a50f-8aefa40d8ceb"},"vehicle_type_id":"4","last_reported":1741705837,"current_range_meters":8000,"station_id":"ce4bhpp2rcd13ifvqhfg","pricing_plan_id":"cebpf4jnsgd1na2vs0mg"},{"bike_id":"8a49ff3e-4b2f-45dd-a573-cb01049d5051","system_id":"levelo_inurba_marseille","lat":43.33023,"lon":5.39042,"is_reserved":false,"is_disabled":false,"rental_uris":{"android":"levelo://app?vid=8a49ff3e-4b2f-45dd-a573-cb01049d5051","ios":"levelo://app?vid=8a49ff3e-4b2f-45dd-a573-cb01049d5051"},"vehicle_type_id":"4","last_reported":1741705837,"current_range_meters":8000,"station_id":"ce4bhr92rcd13ifvqhrg","pricing_plan_id":"cebpf4jnsgd1na2vs0mg"},{"bike_id":"9cd8ccf2-616c-44cd-8c19-24777655c8a9","system_id":"levelo_inurba_marseille","lat":43.28103,"lon":5.37854,"is_reserved":false,"is_disabled":false,"rental_uris":{"android":"levelo://app?vid=9cd8ccf2-616c-44cd-8c19-24777655c8a9","ios":"levelo://app?vid=9cd8ccf2-616c-44cd-8c19-24777655c8a9"},"vehicle_type_id":"4","last_reported":1741705837,"current_range_meters":8000,"station_id":"ce4bha12rcd13ifvqee0","pricing_plan_id":"cebpf4jnsgd1na2vs0mg"},{"bike_id":"03690356-08e9-4ea7-b9a3-8e88bf471e93","system_id":"levelo_inurba_marseille","lat":43.337444,"lon":5.374475,"is_reserved":false,"is_disabled":false,"rental_uris":{"android":"levelo://app?vid=03690356-08e9-4ea7-b9a3-8e88bf471e93","ios":"levelo://app?vid=03690356-08e9-4ea7-b9a3-8e88bf471e93"},"vehicle_type_id":"4","last_reported":1741705837,"current_range_meters":8000,"station_id":"","pricing_plan_id":"cebpf4jnsgd1na2vs0mg"},{"bike_id":"acc1658b-7ea3-44a5-a65b-40f1faa0438d","system_id":"levelo_inurba_marseille","lat":43.3254,"lon":5.41467,"is_reserved":false,"is_disabled":false,"rental_uris":{"android":"levelo://app?vid=acc1658b-7ea3-44a5-a65b-40f1faa0438d","ios":"levelo://app?vid=acc1658b-7ea3-44a5-a65b-40f1faa0438d"},"vehicle_type_id":"4","last_reported":1741705837,"current_range_meters":8400,"station_id":"ce4bhq12rcd13ifvqhhg","pricing_plan_id":"cebpf4jnsgd1na2vs0mg"},{"bike_id":"cbfd61c3-ceb0-4fb9-8372-38000385520a","system_id":"levelo_inurba_marseille","lat":43.30594,"lon":5.37229,"is_reserved":false,"is_disabled":false,"rental_uris":{"android":"levelo://app?vid=cbfd61c3-ceb0-4fb9-8372-38000385520a","ios":"levelo://app?vid=cbfd61c3-ceb0-4fb9-8372-38000385520a"},"vehicle_type_id":"4","last_reported":1741705837,"current_range_meters":8400,"station_id":"ce4bgqh2rcd13ifvqc4g","pricing_plan_id":"cebpf4jnsgd1na2vs0mg"},{"bike_id":"0a0d7e94-573b-4213-aa9e-18f9fab7c66a","system_id":"levelo_inurba_marseille","lat":43.26787,"lon":5.39421,"is_reserved":false,"is_disabled":false,"rental_uris":{"android":"levelo://app?vid=0a0d7e94-573b-4213-aa9e-18f9fab7c66a","ios":"levelo://app?vid=0a0d7e94-573b-4213-aa9e-18f9fab7c66a"},"vehicle_type_id":"4","last_reported":1741705837,"current_range_meters":8400,"station_id":"ce4bhh12rcd13ifvqfg0","pricing_plan_id":"cebpf4jnsgd1na2vs0mg"},{"bike_id":"8dc2c2dc-de0f-4fd2-b739-faf253fff5e5","system_id":"levelo_inurba_marseille","lat":43.23159,"lon":5.43702,"is_reserved":false,"is_disabled":false,"rental_uris":{"android":"levelo://app?vid=8dc2c2dc-de0f-4fd2-b739-faf253fff5e5","ios":"levelo://app?vid=8dc2c2dc-de0f-4fd2-b739-faf253fff5e5"},"vehicle_type_id":"4","last_reported":1741705837,"current_range_meters":8400,"station_id":"ce4bhmp2rcd13ifvqgog","pricing_plan_id":"cebpf4jnsgd1na2vs0mg"},{"bike_id":"bff15a5b-a1dd-4788-9a9c-dc988df9f19b","system_id":"levelo_inurba_marseille","lat":43.26789,"lon":5.39417,"is_reserved":false,"is_disabled":false,"rental_uris":{"android":"levelo://app?vid=bff15a5b-a1dd-4788-9a9c-dc988df9f19b","ios":"levelo://app?vid=bff15a5b-a1dd-4788-9a9c-dc988df9f19b"},"vehicle_type_id":"4","last_reported":1741705837,"current_range_meters":8400,"station_id":"ce4bhh12rcd13ifvqfg0","pricing_plan_id":"cebpf4jnsgd1na2vs0mg"},{"bike_id":"fe0de4ce-f100-43bf-be6a-ef3d7559f692","system_id":"levelo_inurba_marseille","lat":43.31218,"lon":5.36852,"is_reserved":false,"is_disabled":false,"rental_uris":{"android":"levelo://app?vid=fe0de4ce-f100-43bf-be6a-ef3d7559f692","ios":"levelo://app?vid=fe0de4ce-f100-43bf-be6a-ef3d7559f692"},"vehicle_type_id":"4","last_reported":1741705837,"current_range_meters":8400,"station_id":"ce4bgl92rcd13ifvqbq0","pricing_plan_id":"cebpf4jnsgd1na2vs0mg"},{"bike_id":"09bbb690-af86-458c-bbad-70d10e2033ee","system_id":"levelo_inurba_marseille","lat":43.23053,"lon":5.35487,"is_reserved":false,"is_disabled":false,"rental_uris":{"android":"levelo://app?vid=09bbb690-af86-458c-bbad-70d10e2033ee","ios":"levelo://app?vid=09bbb690-af86-458c-bbad-70d10e2033ee"},"vehicle_type_id":"4","last_reported":1741705837,"current_range_meters":8400,"station_id":"cpo3342slgdg3j2ifvpg","pricing_plan_id":"cebpf4jnsgd1na2vs0mg"},{"bike_id":"aad095c1-e5ad-4fd2-976b-e3414c3a6270","system_id":"levelo_inurba_marseille","lat":43.29276,"lon":5.3844,"is_reserved":false,"is_disabled":false,"rental_uris":{"android":"levelo://app?vid=aad095c1-e5ad-4fd2-976b-e3414c3a6270","ios":"levelo://app?vid=aad095c1-e5ad-4fd2-976b-e3414c3a6270"},"vehicle_type_id":"4","last_reported":1741705837,"current_range_meters":8400,"station_id":"ce4bh692rcd13ifvqea0","pricing_plan_id":"cebpf4jnsgd1na2vs0mg"},{"bike_id":"283c033a-14d3-4f56-9a03-afaa811c6248","system_id":"levelo_inurba_marseille","lat":43.23148,"lon":5.4372,"is_reserved":false,"is_disabled":false,"rental_uris":{"android":"levelo://app?vid=283c033a-14d3-4f56-9a03-afaa811c6248","ios":"levelo://app?vid=283c033a-14d3-4f56-9a03-afaa811c6248"},"vehicle_type_id":"4","last_reported":1741705837,"current_range_meters":8400,"station_id":"ce4bhmp2rcd13ifvqgog","pricing_plan_id":"cebpf4jnsgd1na2vs0mg"},{"bike_id":"970771d0-665e-4468-98fc-68584e8af67f","system_id":"levelo_inurba_marseille","lat":43.28036,"lon":5.36952,"is_reserved":false,"is_disabled":false,"rental_uris":{"android":"levelo://app?vid=970771d0-665e-4468-98fc-68584e8af67f","ios":"levelo://app?vid=970771d0-665e-4468-98fc-68584e8af67f"},"vehicle_type_id":"4","last_reported":1741705837,"current_range_meters":8400,"station_id":"ce4bha12rcd13ifvqef0","pricing_plan_id":"cebpf4jnsgd1na2vs0mg"},{"bike_id":"03d69f23-82e4-408d-85ed-ebe3556b11d6","system_id":"levelo_inurba_marseille","lat":43.27172,"lon":5.40998,"is_reserved":false,"is_disabled":false,"rental_uris":{"android":"levelo://app?vid=03d69f23-82e4-408d-85ed-ebe3556b11d6","ios":"levelo://app?vid=03d69f23-82e4-408d-85ed-ebe3556b11d6"},"vehicle_type_id":"4","last_reported":1741705837,"current_range_meters":8400,"station_id":"ce4bhl12rcd13ifvqgf0","pricing_plan_id":"cebpf4jnsgd1na2vs0mg"},{"bike_id":"79f51b89-608d-42fc-9457-860b0569ad19","system_id":"levelo_inurba_marseille","lat":43.28415,"lon":5.37532,"is_reserved":false,"is_disabled":false,"rental_uris":{"android":"levelo://app?vid=79f51b89-608d-42fc-9457-860b0569ad19","ios":"levelo://app?vid=79f51b89-608d-42fc-9457-860b0569ad19"},"vehicle_type_id":"4","last_reported":1741705837,"current_range_meters":8800,"station_id":"ce4bh412rcd13ifvqds0","pricing_plan_id":"cebpf4jnsgd1na2vs0mg"},{"bike_id":"a987ddd7-2876-46bf-875f-93e3ec29042b","system_id":"levelo_inurba_marseille","lat":43.31252,"lon":5.36877,"is_reserved":false,"is_disabled":false,"rental_uris":{"android":"levelo://app?vid=a987ddd7-2876-46bf-875f-93e3ec29042b","ios":"levelo://app?vid=a987ddd7-2876-46bf-875f-93e3ec29042b"},"vehicle_type_id":"4","last_reported":1741705837,"current_range_meters":8800,"station_id":"ce4bgl92rcd13ifvqbq0","pricing_plan_id":"cebpf4jnsgd1na2vs0mg"},{"bike_id":"bf2feb02-4272-4476-92f9-9420844c4078","system_id":"levelo_inurba_marseille","lat":43.31162,"lon":5.375877,"is_reserved":false,"is_disabled":false,"rental_uris":{"android":"levelo://app?vid=bf2feb02-4272-4476-92f9-9420844c4078","ios":"levelo://app?vid=bf2feb02-4272-4476-92f9-9420844c4078"},"vehicle_type_id":"4","last_reported":1741705837,"current_range_meters":8800,"station_id":"","pricing_plan_id":"cebpf4jnsgd1na2vs0mg"},{"bike_id":"80771939-f406-42f7-81c5-33180fd8a338","system_id":"levelo_inurba_marseille","lat":43.232015,"lon":5.355573,"is_reserved":false,"is_disabled":false,"rental_uris":{"android":"levelo://app?vid=80771939-f406-42f7-81c5-33180fd8a338","ios":"levelo://app?vid=80771939-f406-42f7-81c5-33180fd8a338"},"vehicle_type_id":"4","last_reported":1741705837,"current_range_meters":8800,"station_id":"ce4bhu92rcd13ifvqi70","pricing_plan_id":"cebpf4jnsgd1na2vs0mg"},{"bike_id":"2ea1d74a-2093-4f16-b7d4-12214c0c94c1","system_id":"levelo_inurba_marseille","lat":43.23062,"lon":5.35494,"is_reserved":false,"is_disabled":false,"rental_uris":{"android":"levelo://app?vid=2ea1d74a-2093-4f16-b7d4-12214c0c94c1","ios":"levelo://app?vid=2ea1d74a-2093-4f16-b7d4-12214c0c94c1"},"vehicle_type_id":"4","last_reported":1741705837,"current_range_meters":9200,"station_id":"cpo3342slgdg3j2ifvpg","pricing_plan_id":"cebpf4jnsgd1na2vs0mg"},{"bike_id":"a6907114-91e5-4406-958d-4b895c3084d0","system_id":"levelo_inurba_marseille","lat":43.29892,"lon":5.436661,"is_reserved":false,"is_disabled":false,"rental_uris":{"android":"levelo://app?vid=a6907114-91e5-4406-958d-4b895c3084d0","ios":"levelo://app?vid=a6907114-91e5-4406-958d-4b895c3084d0"},"vehicle_type_id":"4","last_reported":1741705837,"current_range_meters":9200,"station_id":"ce4bhpp2rcd13ifvqhfg","pricing_plan_id":"cebpf4jnsgd1na2vs0mg"},{"bike_id":"185dd92f-5ca3-4784-9453-5f8185d1714c","system_id":"levelo_inurba_marseille","lat":43.31201,"lon":5.39611,"is_reserved":false,"is_disabled":false,"rental_uris":{"android":"levelo://app?vid=185dd92f-5ca3-4784-9453-5f8185d1714c","ios":"levelo://app?vid=185dd92f-5ca3-4784-9453-5f8185d1714c"},"vehicle_type_id":"4","last_reported":1741705837,"current_range_meters":9200,"station_id":"ce4bgvp2rcd13ifvqcu0","pricing_plan_id":"cebpf4jnsgd1na2vs0mg"},{"bike_id":"a4651500-0781-416a-b6f3-1ff032ec9869","system_id":"levelo_inurba_marseille","lat":43.28709,"lon":5.37385,"is_reserved":false,"is_disabled":false,"rental_uris":{"android":"levelo://app?vid=a4651500-0781-416a-b6f3-1ff032ec9869","ios":"levelo://app?vid=a4651500-0781-416a-b6f3-1ff032ec9869"},"vehicle_type_id":"4","last_reported":1741705837,"current_range_meters":9200,"station_id":"ce4bh3p2rcd13ifvqdq0","pricing_plan_id":"cebpf4jnsgd1na2vs0mg"},{"bike_id":"6ccdf2f5-414f-41cc-bb56-6956a18cbb51","system_id":"levelo_inurba_marseille","lat":43.26779,"lon":5.39415,"is_reserved":false,"is_disabled":false,"rental_uris":{"android":"levelo://app?vid=6ccdf2f5-414f-41cc-bb56-6956a18cbb51","ios":"levelo://app?vid=6ccdf2f5-414f-41cc-bb56-6956a18cbb51"},"vehicle_type_id":"4","last_reported":1741705837,"current_range_meters":9200,"station_id":"ce4bhh12rcd13ifvqfg0","pricing_plan_id":"cebpf4jnsgd1na2vs0mg"},{"bike_id":"b9680ac6-d12e-4a12-9dd8-1396db5e067b","system_id":"levelo_inurba_marseille","lat":43.23154,"lon":5.43697,"is_reserved":false,"is_disabled":false,"rental_uris":{"android":"levelo://app?vid=b9680ac6-d12e-4a12-9dd8-1396db5e067b","ios":"levelo://app?vid=b9680ac6-d12e-4a12-9dd8-1396db5e067b"},"vehicle_type_id":"4","last_reported":1741705837,"current_range_meters":9600,"station_id":"ce4bhmp2rcd13ifvqgog","pricing_plan_id":"cebpf4jnsgd1na2vs0mg"},{"bike_id":"485c1a28-1b14-4d48-a9dc-804590b1c873","system_id":"levelo_inurba_marseille","lat":43.24651,"lon":5.38897,"is_reserved":false,"is_disabled":false,"rental_uris":{"android":"levelo://app?vid=485c1a28-1b14-4d48-a9dc-804590b1c873","ios":"levelo://app?vid=485c1a28-1b14-4d48-a9dc-804590b1c873"},"vehicle_type_id":"4","last_reported":1741705837,"current_range_meters":9600,"station_id":"ce4bhg12rcd13ifvqf60","pricing_plan_id":"cebpf4jnsgd1na2vs0mg"},{"bike_id":"233fb3d8-fef1-413d-acc2-7388ba7a767d","system_id":"levelo_inurba_marseille","lat":43.28409,"lon":5.37517,"is_reserved":false,"is_disabled":false,"rental_uris":{"android":"levelo://app?vid=233fb3d8-fef1-413d-acc2-7388ba7a767d","ios":"levelo://app?vid=233fb3d8-fef1-413d-acc2-7388ba7a767d"},"vehicle_type_id":"4","last_reported":1741705837,"current_range_meters":9600,"station_id":"ce4bh412rcd13ifvqds0","pricing_plan_id":"cebpf4jnsgd1na2vs0mg"},{"bike_id":"74e151f7-562e-4c8a-bec2-93216a8de200","system_id":"levelo_inurba_marseille","lat":43.29726,"lon":5.38057,"is_reserved":false,"is_disabled":false,"rental_uris":{"android":"levelo://app?vid=74e151f7-562e-4c8a-bec2-93216a8de200","ios":"levelo://app?vid=74e151f7-562e-4c8a-bec2-93216a8de200"},"vehicle_type_id":"4","last_reported":1741705837,"current_range_meters":9600,"station_id":"ce4bgip2rcd13ifvqbb0","pricing_plan_id":"cebpf4jnsgd1na2vs0mg"},{"bike_id":"0d9431e1-f868-427a-acb7-8ddd048ba317","system_id":"levelo_inurba_marseille","lat":43.29847,"lon":5.36266,"is_reserved":false,"is_disabled":false,"rental_uris":{"android":"levelo://app?vid=0d9431e1-f868-427a-acb7-8ddd048ba317","ios":"levelo://app?vid=0d9431e1-f868-427a-acb7-8ddd048ba317"},"vehicle_type_id":"4","last_reported":1741705837,"current_range_meters":9600,"station_id":"ce4bgpp2rcd13ifvqc3g","pricing_plan_id":"cebpf4jnsgd1na2vs0mg"},{"bike_id":"f640465e-8c9e-425a-8e36-08d8d5201bf6","system_id":"levelo_inurba_marseille","lat":43.232043,"lon":5.355503,"is_reserved":false,"is_disabled":false,"rental_uris":{"android":"levelo://app?vid=f640465e-8c9e-425a-8e36-08d8d5201bf6","ios":"levelo://app?vid=f640465e-8c9e-425a-8e36-08d8d5201bf6"},"vehicle_type_id":"4","last_reported":1741705837,"current_range_meters":9600,"station_id":"ce4bhu92rcd13ifvqi70","pricing_plan_id":"cebpf4jnsgd1na2vs0mg"},{"bike_id":"58d1b5b3-d322-4418-97d0-3066ec3d9afc","system_id":"levelo_inurba_marseille","lat":43.23198,"lon":5.35546,"is_reserved":false,"is_disabled":false,"rental_uris":{"android":"levelo://app?vid=58d1b5b3-d322-4418-97d0-3066ec3d9afc","ios":"levelo://app?vid=58d1b5b3-d322-4418-97d0-3066ec3d9afc"},"vehicle_type_id":"4","last_reported":1741705837,"current_range_meters":9600,"station_id":"ce4bhu92rcd13ifvqi70","pricing_plan_id":"cebpf4jnsgd1na2vs0mg"},{"bike_id":"864008a0-b962-4205-8d43-5ff6a655c162","system_id":"levelo_inurba_marseille","lat":43.23159,"lon":5.43705,"is_reserved":false,"is_disabled":false,"rental_uris":{"android":"levelo://app?vid=864008a0-b962-4205-8d43-5ff6a655c162","ios":"levelo://app?vid=864008a0-b962-4205-8d43-5ff6a655c162"},"vehicle_type_id":"4","last_reported":1741705837,"current_range_meters":10000,"station_id":"ce4bhmp2rcd13ifvqgog","pricing_plan_id":"cebpf4jnsgd1na2vs0mg"},{"bike_id":"553e069d-a104-48a7-9531-9d676b17d4ee","system_id":"levelo_inurba_marseille","lat":43.33026,"lon":5.39038,"is_reserved":false,"is_disabled":false,"rental_uris":{"android":"levelo://app?vid=553e069d-a104-48a7-9531-9d676b17d4ee","ios":"levelo://app?vid=553e069d-a104-48a7-9531-9d676b17d4ee"},"vehicle_type_id":"4","last_reported":1741705837,"current_range_meters":10000,"station_id":"ce4bhr92rcd13ifvqhrg","pricing_plan_id":"cebpf4jnsgd1na2vs0mg"},{"bike_id":"bfe76b26-4cce-4a8d-8e2e-190cbae21f24","system_id":"levelo_inurba_marseille","lat":43.27172,"lon":5.41014,"is_reserved":false,"is_disabled":false,"rental_uris":{"android":"levelo://app?vid=bfe76b26-4cce-4a8d-8e2e-190cbae21f24","ios":"levelo://app?vid=bfe76b26-4cce-4a8d-8e2e-190cbae21f24"},"vehicle_type_id":"4","last_reported":1741705837,"current_range_meters":10000,"station_id":"ce4bhl12rcd13ifvqgf0","pricing_plan_id":"cebpf4jnsgd1na2vs0mg"},{"bike_id":"c835eee2-01bf-4ff1-a164-4c90e0a065d9","system_id":"levelo_inurba_marseille","lat":43.25002,"lon":5.38936,"is_reserved":false,"is_disabled":false,"rental_uris":{"android":"levelo://app?vid=c835eee2-01bf-4ff1-a164-4c90e0a065d9","ios":"levelo://app?vid=c835eee2-01bf-4ff1-a164-4c90e0a065d9"},"vehicle_type_id":"4","last_reported":1741705837,"current_range_meters":10000,"station_id":"ce4bhgp2rcd13ifvqfd0","pricing_plan_id":"cebpf4jnsgd1na2vs0mg"},{"bike_id":"a5502eed-dac4-4ea9-87e0-fe659cec6f6c","system_id":"levelo_inurba_marseille","lat":43.30543,"lon":5.36535,"is_reserved":false,"is_disabled":true,"rental_uris":{"android":"levelo://app?vid=a5502eed-dac4-4ea9-87e0-fe659cec6f6c","ios":"levelo://app?vid=a5502eed-dac4-4ea9-87e0-fe659cec6f6c"},"vehicle_type_id":"4","last_reported":1741705837,"current_range_meters":10000,"station_id":"ce4bgs12rcd13ifvqcag","pricing_plan_id":"cebpf4jnsgd1na2vs0mg"},{"bike_id":"1ed1a68a-1459-44c6-8baf-85fcda1e78ae","system_id":"levelo_inurba_marseille","lat":43.24389,"lon":5.37064,"is_reserved":false,"is_disabled":false,"rental_uris":{"android":"levelo://app?vid=1ed1a68a-1459-44c6-8baf-85fcda1e78ae","ios":"levelo://app?vid=1ed1a68a-1459-44c6-8baf-85fcda1e78ae"},"vehicle_type_id":"4","last_reported":1741705837,"current_range_meters":10800,"station_id":"ce4bhhh2rcd13ifvqfk0","pricing_plan_id":"cebpf4jnsgd1na2vs0mg"},{"bike_id":"c9af09b2-9b94-4c1b-a4dc-7daaced2083a","system_id":"levelo_inurba_marseille","lat":43.274979,"lon":5.424517,"is_reserved":false,"is_disabled":false,"rental_uris":{"android":"levelo://app?vid=c9af09b2-9b94-4c1b-a4dc-7daaced2083a","ios":"levelo://app?vid=c9af09b2-9b94-4c1b-a4dc-7daaced2083a"},"vehicle_type_id":"4","last_reported":1741705837,"current_range_meters":10000,"station_id":"ce4bhn92rcd13ifvqgrg","pricing_plan_id":"cebpf4jnsgd1na2vs0mg"},{"bike_id":"9acab34d-76c9-4fd5-bed6-0265a89df8bb","system_id":"levelo_inurba_marseille","lat":43.25808,"lon":5.41053,"is_reserved":false,"is_disabled":false,"rental_uris":{"android":"levelo://app?vid=9acab34d-76c9-4fd5-bed6-0265a89df8bb","ios":"levelo://app?vid=9acab34d-76c9-4fd5-bed6-0265a89df8bb"},"vehicle_type_id":"4","last_reported":1741705837,"current_range_meters":10800,"station_id":"","pricing_plan_id":"cebpf4jnsgd1na2vs0mg"},{"bike_id":"e71ac1a8-4774-47aa-8382-83aa2d120751","system_id":"levelo_inurba_marseille","lat":43.29801,"lon":5.38114,"is_reserved":false,"is_disabled":false,"rental_uris":{"android":"levelo://app?vid=e71ac1a8-4774-47aa-8382-83aa2d120751","ios":"levelo://app?vid=e71ac1a8-4774-47aa-8382-83aa2d120751"},"vehicle_type_id":"4","last_reported":1741705837,"current_range_meters":10800,"station_id":"ce4bgip2rcd13ifvqbb0","pricing_plan_id":"cebpf4jnsgd1na2vs0mg"},{"bike_id":"602d068b-17ec-4c43-a941-51f4b635d1bf","system_id":"levelo_inurba_marseille","lat":43.25947,"lon":5.40907,"is_reserved":false,"is_disabled":false,"rental_uris":{"android":"levelo://app?vid=602d068b-17ec-4c43-a941-51f4b635d1bf","ios":"levelo://app?vid=602d068b-17ec-4c43-a941-51f4b635d1bf"},"vehicle_type_id":"4","last_reported":1741705837,"current_range_meters":10800,"station_id":"ce4bhm92rcd13ifvqglg","pricing_plan_id":"cebpf4jnsgd1na2vs0mg"},{"bike_id":"415e7a31-245d-4ead-9f33-dad092a04302","system_id":"levelo_inurba_marseille","lat":43.23072,"lon":5.35504,"is_reserved":false,"is_disabled":false,"rental_uris":{"android":"levelo://app?vid=415e7a31-245d-4ead-9f33-dad092a04302","ios":"levelo://app?vid=415e7a31-245d-4ead-9f33-dad092a04302"},"vehicle_type_id":"4","last_reported":1741705837,"current_range_meters":11200,"station_id":"cpo3342slgdg3j2ifvpg","pricing_plan_id":"cebpf4jnsgd1na2vs0mg"},{"bike_id":"6a8184e4-a674-47d5-8d52-d135def81574","system_id":"levelo_inurba_marseille","lat":43.30531,"lon":5.38416,"is_reserved":false,"is_disabled":false,"rental_uris":{"android":"levelo://app?vid=6a8184e4-a674-47d5-8d52-d135def81574","ios":"levelo://app?vid=6a8184e4-a674-47d5-8d52-d135def81574"},"vehicle_type_id":"4","last_reported":1741705837,"current_range_meters":11200,"station_id":"ce4bgg92rcd13ifvqb30","pricing_plan_id":"cebpf4jnsgd1na2vs0mg"},{"bike_id":"51bead88-7696-4efb-9522-148994f0510e","system_id":"levelo_inurba_marseille","lat":43.32521,"lon":5.41428,"is_reserved":false,"is_disabled":false,"rental_uris":{"android":"levelo://app?vid=51bead88-7696-4efb-9522-148994f0510e","ios":"levelo://app?vid=51bead88-7696-4efb-9522-148994f0510e"},"vehicle_type_id":"4","last_reported":1741705837,"current_range_meters":11200,"station_id":"ce4bhq12rcd13ifvqhhg","pricing_plan_id":"cebpf4jnsgd1na2vs0mg"},{"bike_id":"69af4c50-9077-436a-8c73-2ffdc4c386f1","system_id":"levelo_inurba_marseille","lat":43.241744,"lon":5.397261,"is_reserved":false,"is_disabled":false,"rental_uris":{"android":"levelo://app?vid=69af4c50-9077-436a-8c73-2ffdc4c386f1","ios":"levelo://app?vid=69af4c50-9077-436a-8c73-2ffdc4c386f1"},"vehicle_type_id":"4","last_reported":1741705837,"current_range_meters":11200,"station_id":"ce4bhn12rcd13ifvqgpg","pricing_plan_id":"cebpf4jnsgd1na2vs0mg"},{"bike_id":"fb629ba8-b376-4f9a-a280-fa2aa29efcd1","system_id":"levelo_inurba_marseille","lat":43.29847,"lon":5.36285,"is_reserved":false,"is_disabled":false,"rental_uris":{"android":"levelo://app?vid=fb629ba8-b376-4f9a-a280-fa2aa29efcd1","ios":"levelo://app?vid=fb629ba8-b376-4f9a-a280-fa2aa29efcd1"},"vehicle_type_id":"4","last_reported":1741705837,"current_range_meters":11200,"station_id":"ce4bgpp2rcd13ifvqc3g","pricing_plan_id":"cebpf4jnsgd1na2vs0mg"},{"bike_id":"8b247aa2-93c4-4945-a3c3-e200b81b95a3","system_id":"levelo_inurba_marseille","lat":43.32352,"lon":5.38924,"is_reserved":false,"is_disabled":false,"rental_uris":{"android":"levelo://app?vid=8b247aa2-93c4-4945-a3c3-e200b81b95a3","ios":"levelo://app?vid=8b247aa2-93c4-4945-a3c3-e200b81b95a3"},"vehicle_type_id":"4","last_reported":1741705837,"current_range_meters":11200,"station_id":"ce4bhqp2rcd13ifvqhog","pricing_plan_id":"cebpf4jnsgd1na2vs0mg"},{"bike_id":"36cb524c-1b80-40c5-a077-8069e8df473d","system_id":"levelo_inurba_marseille","lat":43.29785,"lon":5.38095,"is_reserved":false,"is_disabled":false,"rental_uris":{"android":"levelo://app?vid=36cb524c-1b80-40c5-a077-8069e8df473d","ios":"levelo://app?vid=36cb524c-1b80-40c5-a077-8069e8df473d"},"vehicle_type_id":"4","last_reported":1741705837,"current_range_meters":11200,"station_id":"ce4bgip2rcd13ifvqbb0","pricing_plan_id":"cebpf4jnsgd1na2vs0mg"},{"bike_id":"2daa6b57-4c5d-4283-92e9-46eccb65202e","system_id":"levelo_inurba_marseille","lat":43.29013,"lon":5.38135,"is_reserved":false,"is_disabled":false,"rental_uris":{"android":"levelo://app?vid=2daa6b57-4c5d-4283-92e9-46eccb65202e","ios":"levelo://app?vid=2daa6b57-4c5d-4283-92e9-46eccb65202e"},"vehicle_type_id":"4","last_reported":1741705837,"current_range_meters":14400,"station_id":"ce4bh4p2rcd13ifvqe1g","pricing_plan_id":"cebpf4jnsgd1na2vs0mg"},{"bike_id":"3a5f45b2-9e5f-4b8c-acda-a10ea5dadf24","system_id":"levelo_inurba_marseille","lat":43.27981,"lon":5.41671,"is_reserved":false,"is_disabled":false,"rental_uris":{"android":"levelo://app?vid=3a5f45b2-9e5f-4b8c-acda-a10ea5dadf24","ios":"levelo://app?vid=3a5f45b2-9e5f-4b8c-acda-a10ea5dadf24"},"vehicle_type_id":"4","last_reported":1741705837,"current_range_meters":11600,"station_id":"ce4bho12rcd13ifvqh1g","pricing_plan_id":"cebpf4jnsgd1na2vs0mg"},{"bike_id":"0b244dd2-03ae-4f3b-a114-b8a9401f7027","system_id":"levelo_inurba_marseille","lat":43.29608,"lon":5.38113,"is_reserved":false,"is_disabled":false,"rental_uris":{"android":"levelo://app?vid=0b244dd2-03ae-4f3b-a114-b8a9401f7027","ios":"levelo://app?vid=0b244dd2-03ae-4f3b-a114-b8a9401f7027"},"vehicle_type_id":"4","last_reported":1741705837,"current_range_meters":11600,"station_id":"ce4bgl12rcd13ifvqbo0","pricing_plan_id":"cebpf4jnsgd1na2vs0mg"},{"bike_id":"b832aa2d-2c93-4b9d-a77c-4ace66e3c37d","system_id":"levelo_inurba_marseille","lat":43.29011,"lon":5.38162,"is_reserved":false,"is_disabled":false,"rental_uris":{"android":"levelo://app?vid=b832aa2d-2c93-4b9d-a77c-4ace66e3c37d","ios":"levelo://app?vid=b832aa2d-2c93-4b9d-a77c-4ace66e3c37d"},"vehicle_type_id":"4","last_reported":1741705837,"current_range_meters":9600,"station_id":"ce4bh4p2rcd13ifvqe1g","pricing_plan_id":"cebpf4jnsgd1na2vs0mg"},{"bike_id":"716492ae-81b6-4ed5-8177-f4759b370b67","system_id":"levelo_inurba_marseille","lat":43.28146,"lon":5.42623,"is_reserved":false,"is_disabled":false,"rental_uris":{"android":"levelo://app?vid=716492ae-81b6-4ed5-8177-f4759b370b67","ios":"levelo://app?vid=716492ae-81b6-4ed5-8177-f4759b370b67"},"vehicle_type_id":"4","last_reported":1741705837,"current_range_meters":11600,"station_id":"ce4bhnh2rcd13ifvqgug","pricing_plan_id":"cebpf4jnsgd1na2vs0mg"},{"bike_id":"198c35de-6936-4391-ae43-f7980aafa13a","system_id":"levelo_inurba_marseille","lat":43.30793,"lon":5.38797,"is_reserved":false,"is_disabled":false,"rental_uris":{"android":"levelo://app?vid=198c35de-6936-4391-ae43-f7980aafa13a","ios":"levelo://app?vid=198c35de-6936-4391-ae43-f7980aafa13a"},"vehicle_type_id":"4","last_reported":1741705837,"current_range_meters":11600,"station_id":"","pricing_plan_id":"cebpf4jnsgd1na2vs0mg"},{"bike_id":"3787a0e8-2dd6-4d92-b4ae-8cc9caed1639","system_id":"levelo_inurba_marseille","lat":43.3014,"lon":5.38793,"is_reserved":false,"is_disabled":false,"rental_uris":{"android":"levelo://app?vid=3787a0e8-2dd6-4d92-b4ae-8cc9caed1639","ios":"levelo://app?vid=3787a0e8-2dd6-4d92-b4ae-8cc9caed1639"},"vehicle_type_id":"4","last_reported":1741705837,"current_range_meters":11600,"station_id":"ce4bghh2rcd13ifvqb60","pricing_plan_id":"cebpf4jnsgd1na2vs0mg"},{"bike_id":"9bb8bb62-485a-4c9e-85b5-bc3c288c9a28","system_id":"levelo_inurba_marseille","lat":43.24548,"lon":5.39525,"is_reserved":false,"is_disabled":false,"rental_uris":{"android":"levelo://app?vid=9bb8bb62-485a-4c9e-85b5-bc3c288c9a28","ios":"levelo://app?vid=9bb8bb62-485a-4c9e-85b5-bc3c288c9a28"},"vehicle_type_id":"4","last_reported":1741705837,"current_range_meters":11600,"station_id":"ce4bhlp2rcd13ifvqgjg","pricing_plan_id":"cebpf4jnsgd1na2vs0mg"},{"bike_id":"7335d3ef-c00a-4ff4-848d-8f9265c90822","system_id":"levelo_inurba_marseille","lat":43.32663,"lon":5.40994,"is_reserved":false,"is_disabled":false,"rental_uris":{"android":"levelo://app?vid=7335d3ef-c00a-4ff4-848d-8f9265c90822","ios":"levelo://app?vid=7335d3ef-c00a-4ff4-848d-8f9265c90822"},"vehicle_type_id":"4","last_reported":1741705837,"current_range_meters":11600,"station_id":"ce4bhpp2rcd13ifvqhgg","pricing_plan_id":"cebpf4jnsgd1na2vs0mg"},{"bike_id":"bd906489-96a5-49ca-9374-5f9b46c8162c","system_id":"levelo_inurba_marseille","lat":43.29266,"lon":5.36857,"is_reserved":false,"is_disabled":false,"rental_uris":{"android":"levelo://app?vid=bd906489-96a5-49ca-9374-5f9b46c8162c","ios":"levelo://app?vid=bd906489-96a5-49ca-9374-5f9b46c8162c"},"vehicle_type_id":"4","last_reported":1741705837,"current_range_meters":12000,"station_id":"ce4bhbp2rcd13ifvqesg","pricing_plan_id":"cebpf4jnsgd1na2vs0mg"},{"bike_id":"fedb551e-7f3c-4b1c-bb6c-078cb7c5e9de","system_id":"levelo_inurba_marseille","lat":43.29015,"lon":5.38138,"is_reserved":false,"is_disabled":false,"rental_uris":{"android":"levelo://app?vid=fedb551e-7f3c-4b1c-bb6c-078cb7c5e9de","ios":"levelo://app?vid=fedb551e-7f3c-4b1c-bb6c-078cb7c5e9de"},"vehicle_type_id":"4","last_reported":1741705837,"current_range_meters":12000,"station_id":"ce4bh4p2rcd13ifvqe1g","pricing_plan_id":"cebpf4jnsgd1na2vs0mg"},{"bike_id":"2931d81f-abb3-45b8-9224-dc3fce2fae31","system_id":"levelo_inurba_marseille","lat":43.32363,"lon":5.3675,"is_reserved":false,"is_disabled":false,"rental_uris":{"android":"levelo://app?vid=2931d81f-abb3-45b8-9224-dc3fce2fae31","ios":"levelo://app?vid=2931d81f-abb3-45b8-9224-dc3fce2fae31"},"vehicle_type_id":"4","last_reported":1741705837,"current_range_meters":12000,"station_id":"ce4bhsh2rcd13ifvqi2g","pricing_plan_id":"cebpf4jnsgd1na2vs0mg"},{"bike_id":"20c1e358-1c7f-4912-9588-5a74dcb84090","system_id":"levelo_inurba_marseille","lat":43.24999,"lon":5.38936,"is_reserved":false,"is_disabled":false,"rental_uris":{"android":"levelo://app?vid=20c1e358-1c7f-4912-9588-5a74dcb84090","ios":"levelo://app?vid=20c1e358-1c7f-4912-9588-5a74dcb84090"},"vehicle_type_id":"4","last_reported":1741705837,"current_range_meters":12000,"station_id":"ce4bhgp2rcd13ifvqfd0","pricing_plan_id":"cebpf4jnsgd1na2vs0mg"},{"bike_id":"fbf84a88-6512-4aea-9845-46fa2369eb7b","system_id":"levelo_inurba_marseille","lat":43.27968,"lon":5.38617,"is_reserved":false,"is_disabled":false,"rental_uris":{"android":"levelo://app?vid=fbf84a88-6512-4aea-9845-46fa2369eb7b","ios":"levelo://app?vid=fbf84a88-6512-4aea-9845-46fa2369eb7b"},"vehicle_type_id":"4","last_reported":1741705837,"current_range_meters":12400,"station_id":"","pricing_plan_id":"cebpf4jnsgd1na2vs0mg"},{"bike_id":"a1a61f35-c835-4ebd-8124-f5eb60ba2e4c","system_id":"levelo_inurba_marseille","lat":43.27211,"lon":5.3919,"is_reserved":false,"is_disabled":false,"rental_uris":{"android":"levelo://app?vid=a1a61f35-c835-4ebd-8124-f5eb60ba2e4c","ios":"levelo://app?vid=a1a61f35-c835-4ebd-8124-f5eb60ba2e4c"},"vehicle_type_id":"4","last_reported":1741705837,"current_range_meters":12000,"station_id":"ce4bhhp2rcd13ifvqfm0","pricing_plan_id":"cebpf4jnsgd1na2vs0mg"},{"bike_id":"bb21f9df-813e-4c19-b0a8-55a3e1d08f4b","system_id":"levelo_inurba_marseille","lat":43.28013,"lon":5.36945,"is_reserved":false,"is_disabled":false,"rental_uris":{"android":"levelo://app?vid=bb21f9df-813e-4c19-b0a8-55a3e1d08f4b","ios":"levelo://app?vid=bb21f9df-813e-4c19-b0a8-55a3e1d08f4b"},"vehicle_type_id":"4","last_reported":1741705837,"current_range_meters":11600,"station_id":"ce4bha12rcd13ifvqef0","pricing_plan_id":"cebpf4jnsgd1na2vs0mg"},{"bike_id":"e1067bdb-3b08-4c9f-a0c5-ccf85b034e12","system_id":"levelo_inurba_marseille","lat":43.28077,"lon":5.39669,"is_reserved":false,"is_disabled":false,"rental_uris":{"android":"levelo://app?vid=e1067bdb-3b08-4c9f-a0c5-ccf85b034e12","ios":"levelo://app?vid=e1067bdb-3b08-4c9f-a0c5-ccf85b034e12"},"vehicle_type_id":"4","last_reported":1741705837,"current_range_meters":12000,"station_id":"ce4bho12rcd13ifvqh2g","pricing_plan_id":"cebpf4jnsgd1na2vs0mg"},{"bike_id":"c8035fa5-857d-4f92-8c9a-094175db06f2","system_id":"levelo_inurba_marseille","lat":43.3014,"lon":5.37424,"is_reserved":false,"is_disabled":false,"rental_uris":{"android":"levelo://app?vid=c8035fa5-857d-4f92-8c9a-094175db06f2","ios":"levelo://app?vid=c8035fa5-857d-4f92-8c9a-094175db06f2"},"vehicle_type_id":"4","last_reported":1741705837,"current_range_meters":12400,"station_id":"ce4bgs92rcd13ifvqcc0","pricing_plan_id":"cebpf4jnsgd1na2vs0mg"},{"bike_id":"d4e44a73-dd1d-49de-bc82-8cfaa3a37170","system_id":"levelo_inurba_marseille","lat":43.30092,"lon":5.39091,"is_reserved":false,"is_disabled":false,"rental_uris":{"android":"levelo://app?vid=d4e44a73-dd1d-49de-bc82-8cfaa3a37170","ios":"levelo://app?vid=d4e44a73-dd1d-49de-bc82-8cfaa3a37170"},"vehicle_type_id":"4","last_reported":1741705837,"current_range_meters":12400,"station_id":"ce4bh192rcd13ifvqdb0","pricing_plan_id":"cebpf4jnsgd1na2vs0mg"},{"bike_id":"26060215-f632-4973-8f89-a06d755c336e","system_id":"levelo_inurba_marseille","lat":43.30537,"lon":5.38428,"is_reserved":false,"is_disabled":false,"rental_uris":{"android":"levelo://app?vid=26060215-f632-4973-8f89-a06d755c336e","ios":"levelo://app?vid=26060215-f632-4973-8f89-a06d755c336e"},"vehicle_type_id":"4","last_reported":1741705837,"current_range_meters":14000,"station_id":"ce4bgg92rcd13ifvqb30","pricing_plan_id":"cebpf4jnsgd1na2vs0mg"},{"bike_id":"29a2eadf-a51e-4030-aaa6-2edfad4c2148","system_id":"levelo_inurba_marseille","lat":43.28463,"lon":5.35898,"is_reserved":false,"is_disabled":false,"rental_uris":{"android":"levelo://app?vid=29a2eadf-a51e-4030-aaa6-2edfad4c2148","ios":"levelo://app?vid=29a2eadf-a51e-4030-aaa6-2edfad4c2148"},"vehicle_type_id":"4","last_reported":1741705837,"current_range_meters":12400,"station_id":"ce4bhah2rcd13ifvqei0","pricing_plan_id":"cebpf4jnsgd1na2vs0mg"},{"bike_id":"ebdc0adc-86d4-4882-8983-2d6c86413625","system_id":"levelo_inurba_marseille","lat":43.2315,"lon":5.4373,"is_reserved":false,"is_disabled":false,"rental_uris":{"android":"levelo://app?vid=ebdc0adc-86d4-4882-8983-2d6c86413625","ios":"levelo://app?vid=ebdc0adc-86d4-4882-8983-2d6c86413625"},"vehicle_type_id":"4","last_reported":1741705837,"current_range_meters":12400,"station_id":"ce4bhmp2rcd13ifvqgog","pricing_plan_id":"cebpf4jnsgd1na2vs0mg"},{"bike_id":"dadd7d6b-c383-4d47-8b72-946b7933fe43","system_id":"levelo_inurba_marseille","lat":43.29702,"lon":5.36622,"is_reserved":false,"is_disabled":false,"rental_uris":{"android":"levelo://app?vid=dadd7d6b-c383-4d47-8b72-946b7933fe43","ios":"levelo://app?vid=dadd7d6b-c383-4d47-8b72-946b7933fe43"},"vehicle_type_id":"4","last_reported":1741705837,"current_range_meters":12400,"station_id":"ce4bgn12rcd13ifvqbt0","pricing_plan_id":"cebpf4jnsgd1na2vs0mg"},{"bike_id":"21a98077-97a5-4182-b1fc-3570e927fac1","system_id":"levelo_inurba_marseille","lat":43.25865,"lon":5.39368,"is_reserved":false,"is_disabled":false,"rental_uris":{"android":"levelo://app?vid=21a98077-97a5-4182-b1fc-3570e927fac1","ios":"levelo://app?vid=21a98077-97a5-4182-b1fc-3570e927fac1"},"vehicle_type_id":"4","last_reported":1741705837,"current_range_meters":12800,"station_id":"","pricing_plan_id":"cebpf4jnsgd1na2vs0mg"},{"bike_id":"903d8692-0e09-4948-b3bd-e44b5956ca85","system_id":"levelo_inurba_marseille","lat":43.27573,"lon":5.38417,"is_reserved":false,"is_disabled":false,"rental_uris":{"android":"levelo://app?vid=903d8692-0e09-4948-b3bd-e44b5956ca85","ios":"levelo://app?vid=903d8692-0e09-4948-b3bd-e44b5956ca85"},"vehicle_type_id":"4","last_reported":1741705837,"current_range_meters":12800,"station_id":"ce4bhh92rcd13ifvqfi0","pricing_plan_id":"cebpf4jnsgd1na2vs0mg"},{"bike_id":"9776d519-3376-4f51-aaa3-2da63911d7cc","system_id":"levelo_inurba_marseille","lat":43.25088,"lon":5.395,"is_reserved":false,"is_disabled":false,"rental_uris":{"android":"levelo://app?vid=9776d519-3376-4f51-aaa3-2da63911d7cc","ios":"levelo://app?vid=9776d519-3376-4f51-aaa3-2da63911d7cc"},"vehicle_type_id":"4","last_reported":1741705837,"current_range_meters":12800,"station_id":"ce4bhm12rcd13ifvqgkg","pricing_plan_id":"cebpf4jnsgd1na2vs0mg"},{"bike_id":"a3e991cd-2936-493d-9fcb-48f77e04aeb1","system_id":"levelo_inurba_marseille","lat":43.3051,"lon":5.36535,"is_reserved":false,"is_disabled":false,"rental_uris":{"android":"levelo://app?vid=a3e991cd-2936-493d-9fcb-48f77e04aeb1","ios":"levelo://app?vid=a3e991cd-2936-493d-9fcb-48f77e04aeb1"},"vehicle_type_id":"4","last_reported":1741705837,"current_range_meters":13600,"station_id":"ce4bgs12rcd13ifvqcag","pricing_plan_id":"cebpf4jnsgd1na2vs0mg"},{"bike_id":"e01b2e48-7387-47c5-8105-d6d892f8ff06","system_id":"levelo_inurba_marseille","lat":43.28363,"lon":5.38655,"is_reserved":false,"is_disabled":false,"rental_uris":{"android":"levelo://app?vid=e01b2e48-7387-47c5-8105-d6d892f8ff06","ios":"levelo://app?vid=e01b2e48-7387-47c5-8105-d6d892f8ff06"},"vehicle_type_id":"4","last_reported":1741705837,"current_range_meters":13600,"station_id":"ce4bh492rcd13ifvqdvg","pricing_plan_id":"cebpf4jnsgd1na2vs0mg"},{"bike_id":"92270e2d-ff64-4b9f-b642-6884cfebb493","system_id":"levelo_inurba_marseille","lat":43.30888,"lon":5.39654,"is_reserved":false,"is_disabled":false,"rental_uris":{"android":"levelo://app?vid=92270e2d-ff64-4b9f-b642-6884cfebb493","ios":"levelo://app?vid=92270e2d-ff64-4b9f-b642-6884cfebb493"},"vehicle_type_id":"4","last_reported":1741705837,"current_range_meters":10000,"station_id":"ce4bh012rcd13ifvqcv0","pricing_plan_id":"cebpf4jnsgd1na2vs0mg"},{"bike_id":"c1fdf776-5ff6-4f38-96ad-d3bee4a7cebb","system_id":"levelo_inurba_marseille","lat":43.23129,"lon":5.43743,"is_reserved":false,"is_disabled":false,"rental_uris":{"android":"levelo://app?vid=c1fdf776-5ff6-4f38-96ad-d3bee4a7cebb","ios":"levelo://app?vid=c1fdf776-5ff6-4f38-96ad-d3bee4a7cebb"},"vehicle_type_id":"4","last_reported":1741705837,"current_range_meters":13600,"station_id":"ce4bhmp2rcd13ifvqgog","pricing_plan_id":"cebpf4jnsgd1na2vs0mg"},{"bike_id":"511a478b-16c6-4549-a89d-177a4b1ec633","system_id":"levelo_inurba_marseille","lat":43.26574,"lon":5.3729,"is_reserved":false,"is_disabled":false,"rental_uris":{"android":"levelo://app?vid=511a478b-16c6-4549-a89d-177a4b1ec633","ios":"levelo://app?vid=511a478b-16c6-4549-a89d-177a4b1ec633"},"vehicle_type_id":"4","last_reported":1741705837,"current_range_meters":13600,"station_id":"ce4bhg12rcd13ifvqf70","pricing_plan_id":"cebpf4jnsgd1na2vs0mg"},{"bike_id":"c44e8f74-8833-41f0-8243-79e5f05acb78","system_id":"levelo_inurba_marseille","lat":43.28743,"lon":5.37937,"is_reserved":false,"is_disabled":false,"rental_uris":{"android":"levelo://app?vid=c44e8f74-8833-41f0-8243-79e5f05acb78","ios":"levelo://app?vid=c44e8f74-8833-41f0-8243-79e5f05acb78"},"vehicle_type_id":"4","last_reported":1741705837,"current_range_meters":13600,"station_id":"ce4bh9p2rcd13ifvqec0","pricing_plan_id":"cebpf4jnsgd1na2vs0mg"},{"bike_id":"c465b171-d16f-4f8a-9aa7-315cd12f0be4","system_id":"levelo_inurba_marseille","lat":43.30345,"lon":5.38577,"is_reserved":false,"is_disabled":false,"rental_uris":{"android":"levelo://app?vid=c465b171-d16f-4f8a-9aa7-315cd12f0be4","ios":"levelo://app?vid=c465b171-d16f-4f8a-9aa7-315cd12f0be4"},"vehicle_type_id":"4","last_reported":1741705837,"current_range_meters":13600,"station_id":"ce4bgg92rcd13ifvqb30","pricing_plan_id":"cebpf4jnsgd1na2vs0mg"},{"bike_id":"a38ec86f-3adf-4727-8a77-b9fffa20414a","system_id":"levelo_inurba_marseille","lat":43.26925,"lon":5.38929,"is_reserved":false,"is_disabled":false,"rental_uris":{"android":"levelo://app?vid=a38ec86f-3adf-4727-8a77-b9fffa20414a","ios":"levelo://app?vid=a38ec86f-3adf-4727-8a77-b9fffa20414a"},"vehicle_type_id":"4","last_reported":1741705837,"current_range_meters":14000,"station_id":"ce4bhhh2rcd13ifvqfl0","pricing_plan_id":"cebpf4jnsgd1na2vs0mg"},{"bike_id":"42a520c9-616d-46a2-92a0-71f870e79c6f","system_id":"levelo_inurba_marseille","lat":43.29799,"lon":5.38104,"is_reserved":false,"is_disabled":false,"rental_uris":{"android":"levelo://app?vid=42a520c9-616d-46a2-92a0-71f870e79c6f","ios":"levelo://app?vid=42a520c9-616d-46a2-92a0-71f870e79c6f"},"vehicle_type_id":"4","last_reported":1741705837,"current_range_meters":15200,"station_id":"ce4bgip2rcd13ifvqbb0","pricing_plan_id":"cebpf4jnsgd1na2vs0mg"},{"bike_id":"5c2aa1ed-67ce-4ac7-a122-1eabfecc0b35","system_id":"levelo_inurba_marseille","lat":43.32105,"lon":5.36777,"is_reserved":false,"is_disabled":false,"rental_uris":{"android":"levelo://app?vid=5c2aa1ed-67ce-4ac7-a122-1eabfecc0b35","ios":"levelo://app?vid=5c2aa1ed-67ce-4ac7-a122-1eabfecc0b35"},"vehicle_type_id":"4","last_reported":1741705837,"current_range_meters":14000,"station_id":"ce4bhrh2rcd13ifvqhug","pricing_plan_id":"cebpf4jnsgd1na2vs0mg"},{"bike_id":"2a042781-c7f2-4e7d-8584-fc7b539687b4","system_id":"levelo_inurba_marseille","lat":43.3018,"lon":5.37457,"is_reserved":false,"is_disabled":false,"rental_uris":{"android":"levelo://app?vid=2a042781-c7f2-4e7d-8584-fc7b539687b4","ios":"levelo://app?vid=2a042781-c7f2-4e7d-8584-fc7b539687b4"},"vehicle_type_id":"4","last_reported":1741705837,"current_range_meters":14000,"station_id":"","pricing_plan_id":"cebpf4jnsgd1na2vs0mg"},{"bike_id":"cd5b2799-bc30-4344-ac6d-e0d61f27b5a0","system_id":"levelo_inurba_marseille","lat":43.2892,"lon":5.3757,"is_reserved":false,"is_disabled":false,"rental_uris":{"android":"levelo://app?vid=cd5b2799-bc30-4344-ac6d-e0d61f27b5a0","ios":"levelo://app?vid=cd5b2799-bc30-4344-ac6d-e0d61f27b5a0"},"vehicle_type_id":"4","last_reported":1741705837,"current_range_meters":14400,"station_id":"ce4bh692rcd13ifvqe90","pricing_plan_id":"cebpf4jnsgd1na2vs0mg"},{"bike_id":"e059eca7-fdf2-4e26-97ba-cbcc874149f8","system_id":"levelo_inurba_marseille","lat":43.27461,"lon":5.38477,"is_reserved":false,"is_disabled":false,"rental_uris":{"android":"levelo://app?vid=e059eca7-fdf2-4e26-97ba-cbcc874149f8","ios":"levelo://app?vid=e059eca7-fdf2-4e26-97ba-cbcc874149f8"},"vehicle_type_id":"4","last_reported":1741705837,"current_range_meters":14400,"station_id":"","pricing_plan_id":"cebpf4jnsgd1na2vs0mg"},{"bike_id":"19dbb428-bc96-4db9-a97e-22105f953f92","system_id":"levelo_inurba_marseille","lat":43.296,"lon":5.38197,"is_reserved":false,"is_disabled":false,"rental_uris":{"android":"levelo://app?vid=19dbb428-bc96-4db9-a97e-22105f953f92","ios":"levelo://app?vid=19dbb428-bc96-4db9-a97e-22105f953f92"},"vehicle_type_id":"4","last_reported":1741705837,"current_range_meters":14400,"station_id":"","pricing_plan_id":"cebpf4jnsgd1na2vs0mg"},{"bike_id":"fd92b730-09c3-460a-a0ef-ad06c08a5b15","system_id":"levelo_inurba_marseille","lat":43.31198,"lon":5.3683,"is_reserved":false,"is_disabled":false,"rental_uris":{"android":"levelo://app?vid=fd92b730-09c3-460a-a0ef-ad06c08a5b15","ios":"levelo://app?vid=fd92b730-09c3-460a-a0ef-ad06c08a5b15"},"vehicle_type_id":"4","last_reported":1741705837,"current_range_meters":14400,"station_id":"ce4bgl92rcd13ifvqbq0","pricing_plan_id":"cebpf4jnsgd1na2vs0mg"},{"bike_id":"29add8ac-ddf4-4c99-a1dc-e848c5ffca81","system_id":"levelo_inurba_marseille","lat":43.26228,"lon":5.40459,"is_reserved":false,"is_disabled":false,"rental_uris":{"android":"levelo://app?vid=29add8ac-ddf4-4c99-a1dc-e848c5ffca81","ios":"levelo://app?vid=29add8ac-ddf4-4c99-a1dc-e848c5ffca81"},"vehicle_type_id":"4","last_reported":1741705837,"current_range_meters":14800,"station_id":"ce4bhmh2rcd13ifvqgmg","pricing_plan_id":"cebpf4jnsgd1na2vs0mg"},{"bike_id":"b2946335-a2ae-41f0-9409-bfcc364ea5d0","system_id":"levelo_inurba_marseille","lat":43.27836,"lon":5.39214,"is_reserved":false,"is_disabled":false,"rental_uris":{"android":"levelo://app?vid=b2946335-a2ae-41f0-9409-bfcc364ea5d0","ios":"levelo://app?vid=b2946335-a2ae-41f0-9409-bfcc364ea5d0"},"vehicle_type_id":"4","last_reported":1741705837,"current_range_meters":14800,"station_id":"ce4bhh92rcd13ifvqfj0","pricing_plan_id":"cebpf4jnsgd1na2vs0mg"},{"bike_id":"dc5ea03d-97d6-427d-bb05-9da694c327a0","system_id":"levelo_inurba_marseille","lat":43.31496,"lon":5.373,"is_reserved":false,"is_disabled":false,"rental_uris":{"android":"levelo://app?vid=dc5ea03d-97d6-427d-bb05-9da694c327a0","ios":"levelo://app?vid=dc5ea03d-97d6-427d-bb05-9da694c327a0"},"vehicle_type_id":"4","last_reported":1741705837,"current_range_meters":14800,"station_id":"ce4bgt12rcd13ifvqcd0","pricing_plan_id":"cebpf4jnsgd1na2vs0mg"},{"bike_id":"0995eeb2-0168-4f54-b7a8-0f5e524205b8","system_id":"levelo_inurba_marseille","lat":43.29376,"lon":5.38217,"is_reserved":false,"is_disabled":false,"rental_uris":{"android":"levelo://app?vid=0995eeb2-0168-4f54-b7a8-0f5e524205b8","ios":"levelo://app?vid=0995eeb2-0168-4f54-b7a8-0f5e524205b8"},"vehicle_type_id":"4","last_reported":1741705837,"current_range_meters":14800,"station_id":"","pricing_plan_id":"cebpf4jnsgd1na2vs0mg"},{"bike_id":"b444e5de-941e-4746-8210-ed394e928316","system_id":"levelo_inurba_marseille","lat":43.29436,"lon":5.39754,"is_reserved":false,"is_disabled":false,"rental_uris":{"android":"levelo://app?vid=b444e5de-941e-4746-8210-ed394e928316","ios":"levelo://app?vid=b444e5de-941e-4746-8210-ed394e928316"},"vehicle_type_id":"4","last_reported":1741705837,"current_range_meters":15200,"station_id":"ce4bh3h2rcd13ifvqdo0","pricing_plan_id":"cebpf4jnsgd1na2vs0mg"},{"bike_id":"ccda690c-cf29-4274-b2d1-e98e7ad11d38","system_id":"levelo_inurba_marseille","lat":43.2407,"lon":5.37768,"is_reserved":false,"is_disabled":false,"rental_uris":{"android":"levelo://app?vid=ccda690c-cf29-4274-b2d1-e98e7ad11d38","ios":"levelo://app?vid=ccda690c-cf29-4274-b2d1-e98e7ad11d38"},"vehicle_type_id":"4","last_reported":1741705837,"current_range_meters":14800,"station_id":"ce4bhnp2rcd13ifvqgvg","pricing_plan_id":"cebpf4jnsgd1na2vs0mg"},{"bike_id":"03fcef79-f017-4d15-a10d-891c5cd96db2","system_id":"levelo_inurba_marseille","lat":43.230629,"lon":5.3549,"is_reserved":false,"is_disabled":false,"rental_uris":{"android":"levelo://app?vid=03fcef79-f017-4d15-a10d-891c5cd96db2","ios":"levelo://app?vid=03fcef79-f017-4d15-a10d-891c5cd96db2"},"vehicle_type_id":"4","last_reported":1741705837,"current_range_meters":14800,"station_id":"cpo3342slgdg3j2ifvpg","pricing_plan_id":"cebpf4jnsgd1na2vs0mg"},{"bike_id":"d14d4a41-62e1-430d-92b4-f14cbbea5edd","system_id":"levelo_inurba_marseille","lat":43.29787,"lon":5.38095,"is_reserved":false,"is_disabled":false,"rental_uris":{"android":"levelo://app?vid=d14d4a41-62e1-430d-92b4-f14cbbea5edd","ios":"levelo://app?vid=d14d4a41-62e1-430d-92b4-f14cbbea5edd"},"vehicle_type_id":"4","last_reported":1741705837,"current_range_meters":15200,"station_id":"ce4bgip2rcd13ifvqbb0","pricing_plan_id":"cebpf4jnsgd1na2vs0mg"},{"bike_id":"28ddcdf4-024a-4f42-80ff-fb3bac3f5f61","system_id":"levelo_inurba_marseille","lat":43.24168,"lon":5.36397,"is_reserved":false,"is_disabled":false,"rental_uris":{"android":"levelo://app?vid=28ddcdf4-024a-4f42-80ff-fb3bac3f5f61","ios":"levelo://app?vid=28ddcdf4-024a-4f42-80ff-fb3bac3f5f61"},"vehicle_type_id":"4","last_reported":1741705837,"current_range_meters":15200,"station_id":"cpo36qri1sfpv3e86is0","pricing_plan_id":"cebpf4jnsgd1na2vs0mg"},{"bike_id":"41215bcc-7f18-40a0-835d-54b5d45846af","system_id":"levelo_inurba_marseille","lat":43.29616,"lon":5.37736,"is_reserved":false,"is_disabled":false,"rental_uris":{"android":"levelo://app?vid=41215bcc-7f18-40a0-835d-54b5d45846af","ios":"levelo://app?vid=41215bcc-7f18-40a0-835d-54b5d45846af"},"vehicle_type_id":"4","last_reported":1741705837,"current_range_meters":13600,"station_id":"ce4bgi92rcd13ifvqb90","pricing_plan_id":"cebpf4jnsgd1na2vs0mg"},{"bike_id":"5348a7ea-5305-4810-ac6c-1f273fa36b5e","system_id":"levelo_inurba_marseille","lat":43.29696,"lon":5.36598,"is_reserved":false,"is_disabled":false,"rental_uris":{"android":"levelo://app?vid=5348a7ea-5305-4810-ac6c-1f273fa36b5e","ios":"levelo://app?vid=5348a7ea-5305-4810-ac6c-1f273fa36b5e"},"vehicle_type_id":"4","last_reported":1741705837,"current_range_meters":15200,"station_id":"ce4bgn12rcd13ifvqbt0","pricing_plan_id":"cebpf4jnsgd1na2vs0mg"},{"bike_id":"f829a819-671e-4b71-9c22-56c5f8047725","system_id":"levelo_inurba_marseille","lat":43.32352,"lon":5.36758,"is_reserved":false,"is_disabled":false,"rental_uris":{"android":"levelo://app?vid=f829a819-671e-4b71-9c22-56c5f8047725","ios":"levelo://app?vid=f829a819-671e-4b71-9c22-56c5f8047725"},"vehicle_type_id":"4","last_reported":1741705837,"current_range_meters":15200,"station_id":"ce4bhsh2rcd13ifvqi2g","pricing_plan_id":"cebpf4jnsgd1na2vs0mg"},{"bike_id":"8bca6b52-28c0-4932-8ec1-82b13d2e0c6d","system_id":"levelo_inurba_marseille","lat":43.29258,"lon":5.37594,"is_reserved":false,"is_disabled":false,"rental_uris":{"android":"levelo://app?vid=8bca6b52-28c0-4932-8ec1-82b13d2e0c6d","ios":"levelo://app?vid=8bca6b52-28c0-4932-8ec1-82b13d2e0c6d"},"vehicle_type_id":"4","last_reported":1741705837,"current_range_meters":16000,"station_id":"ce4bgi12rcd13ifvqb80","pricing_plan_id":"cebpf4jnsgd1na2vs0mg"},{"bike_id":"064a7988-ef05-4b3d-80d9-de2409a89127","system_id":"levelo_inurba_marseille","lat":43.25084,"lon":5.39527,"is_reserved":false,"is_disabled":false,"rental_uris":{"android":"levelo://app?vid=064a7988-ef05-4b3d-80d9-de2409a89127","ios":"levelo://app?vid=064a7988-ef05-4b3d-80d9-de2409a89127"},"vehicle_type_id":"4","last_reported":1741705837,"current_range_meters":16000,"station_id":"ce4bhm12rcd13ifvqgkg","pricing_plan_id":"cebpf4jnsgd1na2vs0mg"},{"bike_id":"65ab0346-837e-4ad8-8d4d-c6c7ffee11b5","system_id":"levelo_inurba_marseille","lat":43.33418,"lon":5.40056,"is_reserved":false,"is_disabled":false,"rental_uris":{"android":"levelo://app?vid=65ab0346-837e-4ad8-8d4d-c6c7ffee11b5","ios":"levelo://app?vid=65ab0346-837e-4ad8-8d4d-c6c7ffee11b5"},"vehicle_type_id":"4","last_reported":1741705837,"current_range_meters":16000,"station_id":"","pricing_plan_id":"cebpf4jnsgd1na2vs0mg"},{"bike_id":"44f257e9-ff17-4c8d-8747-07e7faddde01","system_id":"levelo_inurba_marseille","lat":43.27993,"lon":5.41646,"is_reserved":false,"is_disabled":false,"rental_uris":{"android":"levelo://app?vid=44f257e9-ff17-4c8d-8747-07e7faddde01","ios":"levelo://app?vid=44f257e9-ff17-4c8d-8747-07e7faddde01"},"vehicle_type_id":"4","last_reported":1741705837,"current_range_meters":16000,"station_id":"ce4bho12rcd13ifvqh1g","pricing_plan_id":"cebpf4jnsgd1na2vs0mg"},{"bike_id":"9cf8eed2-3613-463c-90a6-ffcebf42aaa5","system_id":"levelo_inurba_marseille","lat":43.30894,"lon":5.39652,"is_reserved":false,"is_disabled":false,"rental_uris":{"android":"levelo://app?vid=9cf8eed2-3613-463c-90a6-ffcebf42aaa5","ios":"levelo://app?vid=9cf8eed2-3613-463c-90a6-ffcebf42aaa5"},"vehicle_type_id":"4","last_reported":1741705837,"current_range_meters":16000,"station_id":"ce4bh012rcd13ifvqcv0","pricing_plan_id":"cebpf4jnsgd1na2vs0mg"},{"bike_id":"51bb4d06-8f06-4c81-9967-3f775de2b65e","system_id":"levelo_inurba_marseille","lat":43.2417,"lon":5.36398,"is_reserved":false,"is_disabled":false,"rental_uris":{"android":"levelo://app?vid=51bb4d06-8f06-4c81-9967-3f775de2b65e","ios":"levelo://app?vid=51bb4d06-8f06-4c81-9967-3f775de2b65e"},"vehicle_type_id":"4","last_reported":1741705837,"current_range_meters":16000,"station_id":"cpo36qri1sfpv3e86is0","pricing_plan_id":"cebpf4jnsgd1na2vs0mg"},{"bike_id":"81c0e1ec-e0cb-49fa-b94a-6f6b1c28b3dd","system_id":"levelo_inurba_marseille","lat":43.30119,"lon":5.39835,"is_reserved":false,"is_disabled":false,"rental_uris":{"android":"levelo://app?vid=81c0e1ec-e0cb-49fa-b94a-6f6b1c28b3dd","ios":"levelo://app?vid=81c0e1ec-e0cb-49fa-b94a-6f6b1c28b3dd"},"vehicle_type_id":"4","last_reported":1741705837,"current_range_meters":16000,"station_id":"ce4bh0h2rcd13ifvqd40","pricing_plan_id":"cebpf4jnsgd1na2vs0mg"},{"bike_id":"be04fb7b-49e7-491b-ab49-5893cbae4799","system_id":"levelo_inurba_marseille","lat":43.25018,"lon":5.3892,"is_reserved":false,"is_disabled":false,"rental_uris":{"android":"levelo://app?vid=be04fb7b-49e7-491b-ab49-5893cbae4799","ios":"levelo://app?vid=be04fb7b-49e7-491b-ab49-5893cbae4799"},"vehicle_type_id":"4","last_reported":1741705837,"current_range_meters":16000,"station_id":"ce4bhgp2rcd13ifvqfd0","pricing_plan_id":"cebpf4jnsgd1na2vs0mg"},{"bike_id":"d1cace5b-8c3a-4eae-9bca-532671ae4287","system_id":"levelo_inurba_marseille","lat":43.31708,"lon":5.37736,"is_reserved":false,"is_disabled":false,"rental_uris":{"android":"levelo://app?vid=d1cace5b-8c3a-4eae-9bca-532671ae4287","ios":"levelo://app?vid=d1cace5b-8c3a-4eae-9bca-532671ae4287"},"vehicle_type_id":"4","last_reported":1741705837,"current_range_meters":14800,"station_id":"ce4bgth2rcd13ifvqch0","pricing_plan_id":"cebpf4jnsgd1na2vs0mg"},{"bike_id":"0a995a9a-6122-4f4b-b298-a8b06cbca7e2","system_id":"levelo_inurba_marseille","lat":43.25014,"lon":5.38918,"is_reserved":false,"is_disabled":false,"rental_uris":{"android":"levelo://app?vid=0a995a9a-6122-4f4b-b298-a8b06cbca7e2","ios":"levelo://app?vid=0a995a9a-6122-4f4b-b298-a8b06cbca7e2"},"vehicle_type_id":"4","last_reported":1741705837,"current_range_meters":16400,"station_id":"ce4bhgp2rcd13ifvqfd0","pricing_plan_id":"cebpf4jnsgd1na2vs0mg"},{"bike_id":"f46b0504-c3d3-434c-a7ce-e42038726187","system_id":"levelo_inurba_marseille","lat":43.2893,"lon":5.38402,"is_reserved":false,"is_disabled":false,"rental_uris":{"android":"levelo://app?vid=f46b0504-c3d3-434c-a7ce-e42038726187","ios":"levelo://app?vid=f46b0504-c3d3-434c-a7ce-e42038726187"},"vehicle_type_id":"4","last_reported":1741705837,"current_range_meters":17200,"station_id":"ce4bh612rcd13ifvqe6g","pricing_plan_id":"cebpf4jnsgd1na2vs0mg"},{"bike_id":"bd61afa9-c73c-4c27-baad-5bbcf752eafb","system_id":"levelo_inurba_marseille","lat":43.26663,"lon":5.38262,"is_reserved":false,"is_disabled":false,"rental_uris":{"android":"levelo://app?vid=bd61afa9-c73c-4c27-baad-5bbcf752eafb","ios":"levelo://app?vid=bd61afa9-c73c-4c27-baad-5bbcf752eafb"},"vehicle_type_id":"4","last_reported":1741705837,"current_range_meters":16400,"station_id":"ce4bhg92rcd13ifvqf90","pricing_plan_id":"cebpf4jnsgd1na2vs0mg"},{"bike_id":"4f23cdcb-4a0c-482b-92b2-ae01477750dd","system_id":"levelo_inurba_marseille","lat":43.29618,"lon":5.3755,"is_reserved":false,"is_disabled":false,"rental_uris":{"android":"levelo://app?vid=4f23cdcb-4a0c-482b-92b2-ae01477750dd","ios":"levelo://app?vid=4f23cdcb-4a0c-482b-92b2-ae01477750dd"},"vehicle_type_id":"4","last_reported":1741705837,"current_range_meters":16400,"station_id":"","pricing_plan_id":"cebpf4jnsgd1na2vs0mg"},{"bike_id":"0a6985ed-b84c-4033-8e3e-05aa091718f5","system_id":"levelo_inurba_marseille","lat":43.29873,"lon":5.39724,"is_reserved":false,"is_disabled":false,"rental_uris":{"android":"levelo://app?vid=0a6985ed-b84c-4033-8e3e-05aa091718f5","ios":"levelo://app?vid=0a6985ed-b84c-4033-8e3e-05aa091718f5"},"vehicle_type_id":"4","last_reported":1741705837,"current_range_meters":16400,"station_id":"ce4bh0h2rcd13ifvqd50","pricing_plan_id":"cebpf4jnsgd1na2vs0mg"},{"bike_id":"24b4b104-5c89-4fc6-8924-6d1684e13415","system_id":"levelo_inurba_marseille","lat":43.23146,"lon":5.43716,"is_reserved":false,"is_disabled":false,"rental_uris":{"android":"levelo://app?vid=24b4b104-5c89-4fc6-8924-6d1684e13415","ios":"levelo://app?vid=24b4b104-5c89-4fc6-8924-6d1684e13415"},"vehicle_type_id":"4","last_reported":1741705837,"current_range_meters":16400,"station_id":"ce4bhmp2rcd13ifvqgog","pricing_plan_id":"cebpf4jnsgd1na2vs0mg"},{"bike_id":"24ae65e5-577f-4733-bfcb-41d743d4a04e","system_id":"levelo_inurba_marseille","lat":43.29455,"lon":5.39747,"is_reserved":false,"is_disabled":false,"rental_uris":{"android":"levelo://app?vid=24ae65e5-577f-4733-bfcb-41d743d4a04e","ios":"levelo://app?vid=24ae65e5-577f-4733-bfcb-41d743d4a04e"},"vehicle_type_id":"4","last_reported":1741705837,"current_range_meters":16400,"station_id":"ce4bh3h2rcd13ifvqdo0","pricing_plan_id":"cebpf4jnsgd1na2vs0mg"},{"bike_id":"0eecd69f-4814-4099-9308-41706ca678d7","system_id":"levelo_inurba_marseille","lat":43.2993,"lon":5.36537,"is_reserved":false,"is_disabled":false,"rental_uris":{"android":"levelo://app?vid=0eecd69f-4814-4099-9308-41706ca678d7","ios":"levelo://app?vid=0eecd69f-4814-4099-9308-41706ca678d7"},"vehicle_type_id":"4","last_reported":1741705837,"current_range_meters":16400,"station_id":"ce4bgm92rcd13ifvqbr0","pricing_plan_id":"cebpf4jnsgd1na2vs0mg"},{"bike_id":"b44022d5-a3c8-45f9-9984-eaba76929c7b","system_id":"levelo_inurba_marseille","lat":43.27822,"lon":5.40721,"is_reserved":false,"is_disabled":false,"rental_uris":{"android":"levelo://app?vid=b44022d5-a3c8-45f9-9984-eaba76929c7b","ios":"levelo://app?vid=b44022d5-a3c8-45f9-9984-eaba76929c7b"},"vehicle_type_id":"4","last_reported":1741705837,"current_range_meters":16400,"station_id":"ce4bhnh2rcd13ifvqgtg","pricing_plan_id":"cebpf4jnsgd1na2vs0mg"},{"bike_id":"a4ce6389-69c8-41eb-a2cb-27e113df5153","system_id":"levelo_inurba_marseille","lat":43.28611,"lon":5.35105,"is_reserved":false,"is_disabled":false,"rental_uris":{"android":"levelo://app?vid=a4ce6389-69c8-41eb-a2cb-27e113df5153","ios":"levelo://app?vid=a4ce6389-69c8-41eb-a2cb-27e113df5153"},"vehicle_type_id":"4","last_reported":1741705837,"current_range_meters":16800,"station_id":"ce4bhch2rcd13ifvqeug","pricing_plan_id":"cebpf4jnsgd1na2vs0mg"},{"bike_id":"2cf69d5a-2b78-43ed-8743-43b2ae4cf639","system_id":"levelo_inurba_marseille","lat":43.3176,"lon":5.39017,"is_reserved":false,"is_disabled":false,"rental_uris":{"android":"levelo://app?vid=2cf69d5a-2b78-43ed-8743-43b2ae4cf639","ios":"levelo://app?vid=2cf69d5a-2b78-43ed-8743-43b2ae4cf639"},"vehicle_type_id":"4","last_reported":1741705837,"current_range_meters":16800,"station_id":"ce4bhqp2rcd13ifvqhng","pricing_plan_id":"cebpf4jnsgd1na2vs0mg"},{"bike_id":"d927fc07-dae3-4a33-823e-664a59ce84fe","system_id":"levelo_inurba_marseille","lat":43.28152,"lon":5.42645,"is_reserved":false,"is_disabled":false,"rental_uris":{"android":"levelo://app?vid=d927fc07-dae3-4a33-823e-664a59ce84fe","ios":"levelo://app?vid=d927fc07-dae3-4a33-823e-664a59ce84fe"},"vehicle_type_id":"4","last_reported":1741705837,"current_range_meters":16800,"station_id":"ce4bhnh2rcd13ifvqgug","pricing_plan_id":"cebpf4jnsgd1na2vs0mg"},{"bike_id":"2f93c42c-c88d-476b-a3a3-2eee2d201720","system_id":"levelo_inurba_marseille","lat":43.230684,"lon":5.354943,"is_reserved":false,"is_disabled":false,"rental_uris":{"android":"levelo://app?vid=2f93c42c-c88d-476b-a3a3-2eee2d201720","ios":"levelo://app?vid=2f93c42c-c88d-476b-a3a3-2eee2d201720"},"vehicle_type_id":"4","last_reported":1741705837,"current_range_meters":16800,"station_id":"cpo3342slgdg3j2ifvpg","pricing_plan_id":"cebpf4jnsgd1na2vs0mg"},{"bike_id":"6dbc9b4a-c5a1-4dbf-a00f-5bb7462d2694","system_id":"levelo_inurba_marseille","lat":43.28105,"lon":5.39822,"is_reserved":false,"is_disabled":false,"rental_uris":{"android":"levelo://app?vid=6dbc9b4a-c5a1-4dbf-a00f-5bb7462d2694","ios":"levelo://app?vid=6dbc9b4a-c5a1-4dbf-a00f-5bb7462d2694"},"vehicle_type_id":"4","last_reported":1741705837,"current_range_meters":16800,"station_id":"","pricing_plan_id":"cebpf4jnsgd1na2vs0mg"},{"bike_id":"25937fb7-9dcc-40e4-8919-d293a5121ca0","system_id":"levelo_inurba_marseille","lat":43.28708,"lon":5.37928,"is_reserved":false,"is_disabled":false,"rental_uris":{"android":"levelo://app?vid=25937fb7-9dcc-40e4-8919-d293a5121ca0","ios":"levelo://app?vid=25937fb7-9dcc-40e4-8919-d293a5121ca0"},"vehicle_type_id":"4","last_reported":1741705837,"current_range_meters":16800,"station_id":"ce4bh9p2rcd13ifvqec0","pricing_plan_id":"cebpf4jnsgd1na2vs0mg"},{"bike_id":"eb0eec9a-95e6-4a60-9455-121aa4ee38f1","system_id":"levelo_inurba_marseille","lat":43.28039,"lon":5.3695,"is_reserved":false,"is_disabled":false,"rental_uris":{"android":"levelo://app?vid=eb0eec9a-95e6-4a60-9455-121aa4ee38f1","ios":"levelo://app?vid=eb0eec9a-95e6-4a60-9455-121aa4ee38f1"},"vehicle_type_id":"4","last_reported":1741705837,"current_range_meters":16800,"station_id":"ce4bha12rcd13ifvqef0","pricing_plan_id":"cebpf4jnsgd1na2vs0mg"},{"bike_id":"75525168-8949-46ba-93b1-f5e33e21f1bc","system_id":"levelo_inurba_marseille","lat":43.27898,"lon":5.38018,"is_reserved":false,"is_disabled":false,"rental_uris":{"android":"levelo://app?vid=75525168-8949-46ba-93b1-f5e33e21f1bc","ios":"levelo://app?vid=75525168-8949-46ba-93b1-f5e33e21f1bc"},"vehicle_type_id":"4","last_reported":1741705837,"current_range_meters":16800,"station_id":"ce4bhf92rcd13ifvqf50","pricing_plan_id":"cebpf4jnsgd1na2vs0mg"},{"bike_id":"97cd16a9-f9bc-4829-bd9a-0cf03a6882fb","system_id":"levelo_inurba_marseille","lat":43.29573,"lon":5.3999,"is_reserved":false,"is_disabled":false,"rental_uris":{"android":"levelo://app?vid=97cd16a9-f9bc-4829-bd9a-0cf03a6882fb","ios":"levelo://app?vid=97cd16a9-f9bc-4829-bd9a-0cf03a6882fb"},"vehicle_type_id":"4","last_reported":1741705837,"current_range_meters":18000,"station_id":"ce4bh312rcd13ifvqdj0","pricing_plan_id":"cebpf4jnsgd1na2vs0mg"},{"bike_id":"1156d9d2-b639-427b-9899-f6234dcd4076","system_id":"levelo_inurba_marseille","lat":43.28443,"lon":5.3921,"is_reserved":false,"is_disabled":false,"rental_uris":{"android":"levelo://app?vid=1156d9d2-b639-427b-9899-f6234dcd4076","ios":"levelo://app?vid=1156d9d2-b639-427b-9899-f6234dcd4076"},"vehicle_type_id":"4","last_reported":1741705837,"current_range_meters":17200,"station_id":"ce4bhoh2rcd13ifvqh5g","pricing_plan_id":"cebpf4jnsgd1na2vs0mg"},{"bike_id":"c4250e82-8c81-4e44-ba6b-37b6bdb4676e","system_id":"levelo_inurba_marseille","lat":43.30549,"lon":5.36697,"is_reserved":false,"is_disabled":false,"rental_uris":{"android":"levelo://app?vid=c4250e82-8c81-4e44-ba6b-37b6bdb4676e","ios":"levelo://app?vid=c4250e82-8c81-4e44-ba6b-37b6bdb4676e"},"vehicle_type_id":"4","last_reported":1741705837,"current_range_meters":17200,"station_id":"ce4bgrp2rcd13ifvqc9g","pricing_plan_id":"cebpf4jnsgd1na2vs0mg"},{"bike_id":"e925d4bc-bdd6-4e9b-8a99-0d2cf1ae03fe","system_id":"levelo_inurba_marseille","lat":43.30145,"lon":5.38071,"is_reserved":false,"is_disabled":false,"rental_uris":{"android":"levelo://app?vid=e925d4bc-bdd6-4e9b-8a99-0d2cf1ae03fe","ios":"levelo://app?vid=e925d4bc-bdd6-4e9b-8a99-0d2cf1ae03fe"},"vehicle_type_id":"4","last_reported":1741705837,"current_range_meters":17600,"station_id":"ce4bgjp2rcd13ifvqbh0","pricing_plan_id":"cebpf4jnsgd1na2vs0mg"},{"bike_id":"bbc3b890-debc-4a19-a72e-170063e098c1","system_id":"levelo_inurba_marseille","lat":43.29919,"lon":5.39765,"is_reserved":false,"is_disabled":false,"rental_uris":{"android":"levelo://app?vid=bbc3b890-debc-4a19-a72e-170063e098c1","ios":"levelo://app?vid=bbc3b890-debc-4a19-a72e-170063e098c1"},"vehicle_type_id":"4","last_reported":1741705837,"current_range_meters":17200,"station_id":"","pricing_plan_id":"cebpf4jnsgd1na2vs0mg"},{"bike_id":"fb55f9d1-18dc-4569-919c-3c5a2e705317","system_id":"levelo_inurba_marseille","lat":43.32466,"lon":5.36589,"is_reserved":false,"is_disabled":false,"rental_uris":{"android":"levelo://app?vid=fb55f9d1-18dc-4569-919c-3c5a2e705317","ios":"levelo://app?vid=fb55f9d1-18dc-4569-919c-3c5a2e705317"},"vehicle_type_id":"4","last_reported":1741705837,"current_range_meters":17200,"station_id":"ce4bhs12rcd13ifvqhvg","pricing_plan_id":"cebpf4jnsgd1na2vs0mg"},{"bike_id":"24526035-95ab-40e9-88c7-da58c659f6ae","system_id":"levelo_inurba_marseille","lat":43.29554,"lon":5.42288,"is_reserved":false,"is_disabled":false,"rental_uris":{"android":"levelo://app?vid=24526035-95ab-40e9-88c7-da58c659f6ae","ios":"levelo://app?vid=24526035-95ab-40e9-88c7-da58c659f6ae"},"vehicle_type_id":"4","last_reported":1741705837,"current_range_meters":17200,"station_id":"ce4bhph2rcd13ifvqhdg","pricing_plan_id":"cebpf4jnsgd1na2vs0mg"},{"bike_id":"f73fc35c-bb76-4a21-a460-fedd0ae029ad","system_id":"levelo_inurba_marseille","lat":43.27996,"lon":5.40014,"is_reserved":false,"is_disabled":false,"rental_uris":{"android":"levelo://app?vid=f73fc35c-bb76-4a21-a460-fedd0ae029ad","ios":"levelo://app?vid=f73fc35c-bb76-4a21-a460-fedd0ae029ad"},"vehicle_type_id":"4","last_reported":1741705837,"current_range_meters":17600,"station_id":"ce4bho92rcd13ifvqh4g","pricing_plan_id":"cebpf4jnsgd1na2vs0mg"},{"bike_id":"93c8757a-b079-4429-9df1-8556ee987cba","system_id":"levelo_inurba_marseille","lat":43.29608,"lon":5.38109,"is_reserved":false,"is_disabled":false,"rental_uris":{"android":"levelo://app?vid=93c8757a-b079-4429-9df1-8556ee987cba","ios":"levelo://app?vid=93c8757a-b079-4429-9df1-8556ee987cba"},"vehicle_type_id":"4","last_reported":1741705837,"current_range_meters":17600,"station_id":"ce4bgl12rcd13ifvqbo0","pricing_plan_id":"cebpf4jnsgd1na2vs0mg"},{"bike_id":"ebd4e792-a666-46a2-98a2-c70e9b7feb24","system_id":"levelo_inurba_marseille","lat":43.3054,"lon":5.36691,"is_reserved":false,"is_disabled":false,"rental_uris":{"android":"levelo://app?vid=ebd4e792-a666-46a2-98a2-c70e9b7feb24","ios":"levelo://app?vid=ebd4e792-a666-46a2-98a2-c70e9b7feb24"},"vehicle_type_id":"4","last_reported":1741705837,"current_range_meters":17600,"station_id":"ce4bgrp2rcd13ifvqc9g","pricing_plan_id":"cebpf4jnsgd1na2vs0mg"},{"bike_id":"4b19b6d9-fe46-44e6-8c71-98c5b5e0fc06","system_id":"levelo_inurba_marseille","lat":43.27688,"lon":5.3889,"is_reserved":false,"is_disabled":false,"rental_uris":{"android":"levelo://app?vid=4b19b6d9-fe46-44e6-8c71-98c5b5e0fc06","ios":"levelo://app?vid=4b19b6d9-fe46-44e6-8c71-98c5b5e0fc06"},"vehicle_type_id":"4","last_reported":1741705837,"current_range_meters":17600,"station_id":"ce4bhi12rcd13ifvqfo0","pricing_plan_id":"cebpf4jnsgd1na2vs0mg"},{"bike_id":"bcf2c972-114e-411f-8261-6e54fe7e5705","system_id":"levelo_inurba_marseille","lat":43.28156,"lon":5.42649,"is_reserved":false,"is_disabled":false,"rental_uris":{"android":"levelo://app?vid=bcf2c972-114e-411f-8261-6e54fe7e5705","ios":"levelo://app?vid=bcf2c972-114e-411f-8261-6e54fe7e5705"},"vehicle_type_id":"4","last_reported":1741705837,"current_range_meters":17600,"station_id":"ce4bhnh2rcd13ifvqgug","pricing_plan_id":"cebpf4jnsgd1na2vs0mg"},{"bike_id":"4c90015f-4884-41fc-8169-0311c0dfd31c","system_id":"levelo_inurba_marseille","lat":43.25012,"lon":5.38925,"is_reserved":false,"is_disabled":false,"rental_uris":{"android":"levelo://app?vid=4c90015f-4884-41fc-8169-0311c0dfd31c","ios":"levelo://app?vid=4c90015f-4884-41fc-8169-0311c0dfd31c"},"vehicle_type_id":"4","last_reported":1741705837,"current_range_meters":17600,"station_id":"ce4bhgp2rcd13ifvqfd0","pricing_plan_id":"cebpf4jnsgd1na2vs0mg"},{"bike_id":"cb8b5f3c-7631-48c2-8508-977457fbfd39","system_id":"levelo_inurba_marseille","lat":43.29034,"lon":5.38644,"is_reserved":false,"is_disabled":false,"rental_uris":{"android":"levelo://app?vid=cb8b5f3c-7631-48c2-8508-977457fbfd39","ios":"levelo://app?vid=cb8b5f3c-7631-48c2-8508-977457fbfd39"},"vehicle_type_id":"4","last_reported":1741705837,"current_range_meters":18000,"station_id":"ce4bh4p2rcd13ifvqe0g","pricing_plan_id":"cebpf4jnsgd1na2vs0mg"},{"bike_id":"bcb5a475-5d9f-4279-9602-6b71743480ae","system_id":"levelo_inurba_marseille","lat":43.29312,"lon":5.37183,"is_reserved":false,"is_disabled":false,"rental_uris":{"android":"levelo://app?vid=bcb5a475-5d9f-4279-9602-6b71743480ae","ios":"levelo://app?vid=bcb5a475-5d9f-4279-9602-6b71743480ae"},"vehicle_type_id":"4","last_reported":1741705837,"current_range_meters":17600,"station_id":"ce4bgh92rcd13ifvqb40","pricing_plan_id":"cebpf4jnsgd1na2vs0mg"},{"bike_id":"b2d34bca-5c3b-46d7-a15e-61755ce5e38a","system_id":"levelo_inurba_marseille","lat":43.28711,"lon":5.4,"is_reserved":false,"is_disabled":false,"rental_uris":{"android":"levelo://app?vid=b2d34bca-5c3b-46d7-a15e-61755ce5e38a","ios":"levelo://app?vid=b2d34bca-5c3b-46d7-a15e-61755ce5e38a"},"vehicle_type_id":"4","last_reported":1741705837,"current_range_meters":17600,"station_id":"ce4bho92rcd13ifvqh3g","pricing_plan_id":"cebpf4jnsgd1na2vs0mg"},{"bike_id":"96df2619-ae2d-46fe-a829-362635ac0885","system_id":"levelo_inurba_marseille","lat":43.30138,"lon":5.39859,"is_reserved":false,"is_disabled":false,"rental_uris":{"android":"levelo://app?vid=96df2619-ae2d-46fe-a829-362635ac0885","ios":"levelo://app?vid=96df2619-ae2d-46fe-a829-362635ac0885"},"vehicle_type_id":"4","last_reported":1741705837,"current_range_meters":17600,"station_id":"ce4bh0h2rcd13ifvqd40","pricing_plan_id":"cebpf4jnsgd1na2vs0mg"},{"bike_id":"60b55da3-2d25-49ad-9ce4-b2152fad8979","system_id":"levelo_inurba_marseille","lat":43.30309,"lon":5.36899,"is_reserved":false,"is_disabled":false,"rental_uris":{"android":"levelo://app?vid=60b55da3-2d25-49ad-9ce4-b2152fad8979","ios":"levelo://app?vid=60b55da3-2d25-49ad-9ce4-b2152fad8979"},"vehicle_type_id":"4","last_reported":1741705837,"current_range_meters":18000,"station_id":"ce4bgqh2rcd13ifvqc5g","pricing_plan_id":"cebpf4jnsgd1na2vs0mg"},{"bike_id":"6b89152a-56f8-4916-a72f-9fb506311835","system_id":"levelo_inurba_marseille","lat":43.28101,"lon":5.37842,"is_reserved":false,"is_disabled":false,"rental_uris":{"android":"levelo://app?vid=6b89152a-56f8-4916-a72f-9fb506311835","ios":"levelo://app?vid=6b89152a-56f8-4916-a72f-9fb506311835"},"vehicle_type_id":"4","last_reported":1741705837,"current_range_meters":18000,"station_id":"ce4bha12rcd13ifvqee0","pricing_plan_id":"cebpf4jnsgd1na2vs0mg"},{"bike_id":"e0718395-0e2e-4a7a-a474-5a05d3f79c13","system_id":"levelo_inurba_marseille","lat":43.28426,"lon":5.37545,"is_reserved":false,"is_disabled":false,"rental_uris":{"android":"levelo://app?vid=e0718395-0e2e-4a7a-a474-5a05d3f79c13","ios":"levelo://app?vid=e0718395-0e2e-4a7a-a474-5a05d3f79c13"},"vehicle_type_id":"4","last_reported":1741705837,"current_range_meters":18000,"station_id":"ce4bh412rcd13ifvqds0","pricing_plan_id":"cebpf4jnsgd1na2vs0mg"},{"bike_id":"d1f69cc3-831b-469c-999c-c23010756804","system_id":"levelo_inurba_marseille","lat":43.28443,"lon":5.39199,"is_reserved":false,"is_disabled":false,"rental_uris":{"android":"levelo://app?vid=d1f69cc3-831b-469c-999c-c23010756804","ios":"levelo://app?vid=d1f69cc3-831b-469c-999c-c23010756804"},"vehicle_type_id":"4","last_reported":1741705837,"current_range_meters":18000,"station_id":"ce4bhoh2rcd13ifvqh5g","pricing_plan_id":"cebpf4jnsgd1na2vs0mg"},{"bike_id":"0ac78fb3-ba05-4a66-81f6-f1b2103535ec","system_id":"levelo_inurba_marseille","lat":43.30553,"lon":5.36521,"is_reserved":false,"is_disabled":false,"rental_uris":{"android":"levelo://app?vid=0ac78fb3-ba05-4a66-81f6-f1b2103535ec","ios":"levelo://app?vid=0ac78fb3-ba05-4a66-81f6-f1b2103535ec"},"vehicle_type_id":"4","last_reported":1741705837,"current_range_meters":18000,"station_id":"ce4bgs12rcd13ifvqcag","pricing_plan_id":"cebpf4jnsgd1na2vs0mg"},{"bike_id":"8cb98100-8339-480d-872a-e2c4b7cea00c","system_id":"levelo_inurba_marseille","lat":43.28098,"lon":5.39852,"is_reserved":false,"is_disabled":false,"rental_uris":{"android":"levelo://app?vid=8cb98100-8339-480d-872a-e2c4b7cea00c","ios":"levelo://app?vid=8cb98100-8339-480d-872a-e2c4b7cea00c"},"vehicle_type_id":"4","last_reported":1741705837,"current_range_meters":18000,"station_id":"","pricing_plan_id":"cebpf4jnsgd1na2vs0mg"},{"bike_id":"9dd0e81c-4c8e-40ca-9d32-7163064b5050","system_id":"levelo_inurba_marseille","lat":43.29277,"lon":5.36845,"is_reserved":false,"is_disabled":false,"rental_uris":{"android":"levelo://app?vid=9dd0e81c-4c8e-40ca-9d32-7163064b5050","ios":"levelo://app?vid=9dd0e81c-4c8e-40ca-9d32-7163064b5050"},"vehicle_type_id":"4","last_reported":1741705837,"current_range_meters":18000,"station_id":"ce4bhbp2rcd13ifvqesg","pricing_plan_id":"cebpf4jnsgd1na2vs0mg"},{"bike_id":"b69ee5bd-d2de-41db-bc81-fa91aec3a040","system_id":"levelo_inurba_marseille","lat":43.29797,"lon":5.38114,"is_reserved":false,"is_disabled":false,"rental_uris":{"android":"levelo://app?vid=b69ee5bd-d2de-41db-bc81-fa91aec3a040","ios":"levelo://app?vid=b69ee5bd-d2de-41db-bc81-fa91aec3a040"},"vehicle_type_id":"4","last_reported":1741705837,"current_range_meters":18000,"station_id":"ce4bgip2rcd13ifvqbb0","pricing_plan_id":"cebpf4jnsgd1na2vs0mg"},{"bike_id":"febafa61-9fca-4f05-8642-7cd522524da9","system_id":"levelo_inurba_marseille","lat":43.31485,"lon":5.37315,"is_reserved":false,"is_disabled":false,"rental_uris":{"android":"levelo://app?vid=febafa61-9fca-4f05-8642-7cd522524da9","ios":"levelo://app?vid=febafa61-9fca-4f05-8642-7cd522524da9"},"vehicle_type_id":"4","last_reported":1741705837,"current_range_meters":18800,"station_id":"ce4bgt12rcd13ifvqcd0","pricing_plan_id":"cebpf4jnsgd1na2vs0mg"},{"bike_id":"5e36b6b8-6e77-45ed-9597-025342e46c0b","system_id":"levelo_inurba_marseille","lat":43.25501,"lon":5.37662,"is_reserved":false,"is_disabled":false,"rental_uris":{"android":"levelo://app?vid=5e36b6b8-6e77-45ed-9597-025342e46c0b","ios":"levelo://app?vid=5e36b6b8-6e77-45ed-9597-025342e46c0b"},"vehicle_type_id":"4","last_reported":1741705837,"current_range_meters":18800,"station_id":"ce4bhh12rcd13ifvqff0","pricing_plan_id":"cebpf4jnsgd1na2vs0mg"},{"bike_id":"894adb72-eba3-4c31-be33-a34cdb918fbd","system_id":"levelo_inurba_marseille","lat":43.2572,"lon":5.41116,"is_reserved":false,"is_disabled":false,"rental_uris":{"android":"levelo://app?vid=894adb72-eba3-4c31-be33-a34cdb918fbd","ios":"levelo://app?vid=894adb72-eba3-4c31-be33-a34cdb918fbd"},"vehicle_type_id":"4","last_reported":1741705837,"current_range_meters":18800,"station_id":"ce4bhkp2rcd13ifvqgd0","pricing_plan_id":"cebpf4jnsgd1na2vs0mg"},{"bike_id":"9b0ae61a-543e-4f63-814a-2559ae675d15","system_id":"levelo_inurba_marseille","lat":43.29299,"lon":5.37453,"is_reserved":false,"is_disabled":false,"rental_uris":{"android":"levelo://app?vid=9b0ae61a-543e-4f63-814a-2559ae675d15","ios":"levelo://app?vid=9b0ae61a-543e-4f63-814a-2559ae675d15"},"vehicle_type_id":"4","last_reported":1741705837,"current_range_meters":18800,"station_id":"ce4bgi12rcd13ifvqb70","pricing_plan_id":"cebpf4jnsgd1na2vs0mg"},{"bike_id":"e4884e77-88c1-4ef8-be6e-e28feea9aa6c","system_id":"levelo_inurba_marseille","lat":43.30905,"lon":5.38025,"is_reserved":false,"is_disabled":false,"rental_uris":{"android":"levelo://app?vid=e4884e77-88c1-4ef8-be6e-e28feea9aa6c","ios":"levelo://app?vid=e4884e77-88c1-4ef8-be6e-e28feea9aa6c"},"vehicle_type_id":"4","last_reported":1741705837,"current_range_meters":18800,"station_id":"ce4bgt12rcd13ifvqce0","pricing_plan_id":"cebpf4jnsgd1na2vs0mg"},{"bike_id":"7383ab11-8a2a-4b64-816e-55818da3d76c","system_id":"levelo_inurba_marseille","lat":43.29615,"lon":5.37751,"is_reserved":false,"is_disabled":false,"rental_uris":{"android":"levelo://app?vid=7383ab11-8a2a-4b64-816e-55818da3d76c","ios":"levelo://app?vid=7383ab11-8a2a-4b64-816e-55818da3d76c"},"vehicle_type_id":"4","last_reported":1741705837,"current_range_meters":18800,"station_id":"ce4bgi92rcd13ifvqb90","pricing_plan_id":"cebpf4jnsgd1na2vs0mg"},{"bike_id":"089ac6df-d35a-4c0d-989f-2e11dcbe6683","system_id":"levelo_inurba_marseille","lat":43.286652,"lon":5.38654,"is_reserved":false,"is_disabled":false,"rental_uris":{"android":"levelo://app?vid=089ac6df-d35a-4c0d-989f-2e11dcbe6683","ios":"levelo://app?vid=089ac6df-d35a-4c0d-989f-2e11dcbe6683"},"vehicle_type_id":"4","last_reported":1741705837,"current_range_meters":18800,"station_id":"ce4bh492rcd13ifvqdug","pricing_plan_id":"cebpf4jnsgd1na2vs0mg"},{"bike_id":"8ca8d784-c19f-4af3-8ead-b2f17f91f696","system_id":"levelo_inurba_marseille","lat":43.305337,"lon":5.367004,"is_reserved":false,"is_disabled":false,"rental_uris":{"android":"levelo://app?vid=8ca8d784-c19f-4af3-8ead-b2f17f91f696","ios":"levelo://app?vid=8ca8d784-c19f-4af3-8ead-b2f17f91f696"},"vehicle_type_id":"4","last_reported":1741705837,"current_range_meters":18800,"station_id":"ce4bgrp2rcd13ifvqc9g","pricing_plan_id":"cebpf4jnsgd1na2vs0mg"},{"bike_id":"6788ac72-97ba-4670-850c-82f03a027689","system_id":"levelo_inurba_marseille","lat":43.25075,"lon":5.39495,"is_reserved":false,"is_disabled":false,"rental_uris":{"android":"levelo://app?vid=6788ac72-97ba-4670-850c-82f03a027689","ios":"levelo://app?vid=6788ac72-97ba-4670-850c-82f03a027689"},"vehicle_type_id":"4","last_reported":1741705837,"current_range_meters":18800,"station_id":"ce4bhm12rcd13ifvqgkg","pricing_plan_id":"cebpf4jnsgd1na2vs0mg"},{"bike_id":"deba9e4a-71ab-4817-926e-ae17123bf18f","system_id":"levelo_inurba_marseille","lat":43.31327,"lon":5.3969,"is_reserved":false,"is_disabled":false,"rental_uris":{"android":"levelo://app?vid=deba9e4a-71ab-4817-926e-ae17123bf18f","ios":"levelo://app?vid=deba9e4a-71ab-4817-926e-ae17123bf18f"},"vehicle_type_id":"4","last_reported":1741705837,"current_range_meters":18000,"station_id":"ce4bgvp2rcd13ifvqcu0","pricing_plan_id":"cebpf4jnsgd1na2vs0mg"},{"bike_id":"a7063367-88b4-4f70-8a13-bbd78a86f142","system_id":"levelo_inurba_marseille","lat":43.28703,"lon":5.37948,"is_reserved":false,"is_disabled":false,"rental_uris":{"android":"levelo://app?vid=a7063367-88b4-4f70-8a13-bbd78a86f142","ios":"levelo://app?vid=a7063367-88b4-4f70-8a13-bbd78a86f142"},"vehicle_type_id":"4","last_reported":1741705837,"current_range_meters":19200,"station_id":"ce4bh9p2rcd13ifvqec0","pricing_plan_id":"cebpf4jnsgd1na2vs0mg"},{"bike_id":"11cdaade-4836-4802-b7cf-22f2329127d2","system_id":"levelo_inurba_marseille","lat":43.30419,"lon":5.41292,"is_reserved":false,"is_disabled":false,"rental_uris":{"android":"levelo://app?vid=11cdaade-4836-4802-b7cf-22f2329127d2","ios":"levelo://app?vid=11cdaade-4836-4802-b7cf-22f2329127d2"},"vehicle_type_id":"4","last_reported":1741705837,"current_range_meters":19200,"station_id":"ce4bhop2rcd13ifvqh8g","pricing_plan_id":"cebpf4jnsgd1na2vs0mg"},{"bike_id":"11db01fd-3f47-4880-b0c3-ebfc2afb21f8","system_id":"levelo_inurba_marseille","lat":43.30556,"lon":5.36743,"is_reserved":false,"is_disabled":false,"rental_uris":{"android":"levelo://app?vid=11db01fd-3f47-4880-b0c3-ebfc2afb21f8","ios":"levelo://app?vid=11db01fd-3f47-4880-b0c3-ebfc2afb21f8"},"vehicle_type_id":"4","last_reported":1741705837,"current_range_meters":19200,"station_id":"ce4bgrp2rcd13ifvqc9g","pricing_plan_id":"cebpf4jnsgd1na2vs0mg"},{"bike_id":"d3ac1ba6-6349-4d47-99e4-9f85d3ef1aa5","system_id":"levelo_inurba_marseille","lat":43.285111,"lon":5.368787,"is_reserved":false,"is_disabled":false,"rental_uris":{"android":"levelo://app?vid=d3ac1ba6-6349-4d47-99e4-9f85d3ef1aa5","ios":"levelo://app?vid=d3ac1ba6-6349-4d47-99e4-9f85d3ef1aa5"},"vehicle_type_id":"4","last_reported":1741705837,"current_range_meters":19200,"station_id":"","pricing_plan_id":"cebpf4jnsgd1na2vs0mg"},{"bike_id":"4e8e4d54-268e-4c0f-b975-4cff6c065937","system_id":"levelo_inurba_marseille","lat":43.26198,"lon":5.37448,"is_reserved":false,"is_disabled":false,"rental_uris":{"android":"levelo://app?vid=4e8e4d54-268e-4c0f-b975-4cff6c065937","ios":"levelo://app?vid=4e8e4d54-268e-4c0f-b975-4cff6c065937"},"vehicle_type_id":"4","last_reported":1741705837,"current_range_meters":19200,"station_id":"ce4bhgp2rcd13ifvqfc0","pricing_plan_id":"cebpf4jnsgd1na2vs0mg"},{"bike_id":"c9bb2178-5cf6-4308-8bec-06da1135fc1a","system_id":"levelo_inurba_marseille","lat":43.25932,"lon":5.40894,"is_reserved":false,"is_disabled":false,"rental_uris":{"android":"levelo://app?vid=c9bb2178-5cf6-4308-8bec-06da1135fc1a","ios":"levelo://app?vid=c9bb2178-5cf6-4308-8bec-06da1135fc1a"},"vehicle_type_id":"4","last_reported":1741705837,"current_range_meters":19200,"station_id":"ce4bhm92rcd13ifvqglg","pricing_plan_id":"cebpf4jnsgd1na2vs0mg"},{"bike_id":"ce073caa-0810-470c-abbd-c498e37856ad","system_id":"levelo_inurba_marseille","lat":43.28,"lon":5.40023,"is_reserved":false,"is_disabled":false,"rental_uris":{"android":"levelo://app?vid=ce073caa-0810-470c-abbd-c498e37856ad","ios":"levelo://app?vid=ce073caa-0810-470c-abbd-c498e37856ad"},"vehicle_type_id":"4","last_reported":1741705837,"current_range_meters":19200,"station_id":"ce4bho92rcd13ifvqh4g","pricing_plan_id":"cebpf4jnsgd1na2vs0mg"},{"bike_id":"4f4b5ef4-acef-44eb-8850-c3fc7f77be7b","system_id":"levelo_inurba_marseille","lat":43.27808,"lon":5.40716,"is_reserved":false,"is_disabled":false,"rental_uris":{"android":"levelo://app?vid=4f4b5ef4-acef-44eb-8850-c3fc7f77be7b","ios":"levelo://app?vid=4f4b5ef4-acef-44eb-8850-c3fc7f77be7b"},"vehicle_type_id":"4","last_reported":1741705837,"current_range_meters":19200,"station_id":"ce4bhnh2rcd13ifvqgtg","pricing_plan_id":"cebpf4jnsgd1na2vs0mg"},{"bike_id":"fcc44c11-ed5e-467c-a58c-38b775f23c86","system_id":"levelo_inurba_marseille","lat":43.30891,"lon":5.39626,"is_reserved":false,"is_disabled":false,"rental_uris":{"android":"levelo://app?vid=fcc44c11-ed5e-467c-a58c-38b775f23c86","ios":"levelo://app?vid=fcc44c11-ed5e-467c-a58c-38b775f23c86"},"vehicle_type_id":"4","last_reported":1741705837,"current_range_meters":19200,"station_id":"ce4bh012rcd13ifvqcv0","pricing_plan_id":"cebpf4jnsgd1na2vs0mg"},{"bike_id":"0196d479-6c1f-49e4-b7c0-c2f275915119","system_id":"levelo_inurba_marseille","lat":43.2803,"lon":5.36949,"is_reserved":false,"is_disabled":false,"rental_uris":{"android":"levelo://app?vid=0196d479-6c1f-49e4-b7c0-c2f275915119","ios":"levelo://app?vid=0196d479-6c1f-49e4-b7c0-c2f275915119"},"vehicle_type_id":"4","last_reported":1741705837,"current_range_meters":19200,"station_id":"ce4bha12rcd13ifvqef0","pricing_plan_id":"cebpf4jnsgd1na2vs0mg"},{"bike_id":"80ed522e-a704-4033-be24-41d5f4c753ed","system_id":"levelo_inurba_marseille","lat":43.2871,"lon":5.37932,"is_reserved":false,"is_disabled":false,"rental_uris":{"android":"levelo://app?vid=80ed522e-a704-4033-be24-41d5f4c753ed","ios":"levelo://app?vid=80ed522e-a704-4033-be24-41d5f4c753ed"},"vehicle_type_id":"4","last_reported":1741705837,"current_range_meters":19600,"station_id":"ce4bh9p2rcd13ifvqec0","pricing_plan_id":"cebpf4jnsgd1na2vs0mg"},{"bike_id":"0a0f7e3c-7736-45d4-93bb-27f3c0db4db1","system_id":"levelo_inurba_marseille","lat":43.25821,"lon":5.39438,"is_reserved":false,"is_disabled":false,"rental_uris":{"android":"levelo://app?vid=0a0f7e3c-7736-45d4-93bb-27f3c0db4db1","ios":"levelo://app?vid=0a0f7e3c-7736-45d4-93bb-27f3c0db4db1"},"vehicle_type_id":"4","last_reported":1741705837,"current_range_meters":19600,"station_id":"ce4bhip2rcd13ifvqft0","pricing_plan_id":"cebpf4jnsgd1na2vs0mg"},{"bike_id":"dde5be23-6c08-4fa2-bc65-daafc99079b4","system_id":"levelo_inurba_marseille","lat":43.29876,"lon":5.39726,"is_reserved":false,"is_disabled":false,"rental_uris":{"android":"levelo://app?vid=dde5be23-6c08-4fa2-bc65-daafc99079b4","ios":"levelo://app?vid=dde5be23-6c08-4fa2-bc65-daafc99079b4"},"vehicle_type_id":"4","last_reported":1741705837,"current_range_meters":19600,"station_id":"ce4bh0h2rcd13ifvqd50","pricing_plan_id":"cebpf4jnsgd1na2vs0mg"},{"bike_id":"d1dab548-e6e0-4589-ba56-49c689da7b0c","system_id":"levelo_inurba_marseille","lat":43.28037,"lon":5.36944,"is_reserved":false,"is_disabled":false,"rental_uris":{"android":"levelo://app?vid=d1dab548-e6e0-4589-ba56-49c689da7b0c","ios":"levelo://app?vid=d1dab548-e6e0-4589-ba56-49c689da7b0c"},"vehicle_type_id":"4","last_reported":1741705837,"current_range_meters":19600,"station_id":"ce4bha12rcd13ifvqef0","pricing_plan_id":"cebpf4jnsgd1na2vs0mg"},{"bike_id":"0118782e-a9be-4c57-a3c6-f989e8d3b9bf","system_id":"levelo_inurba_marseille","lat":43.24181,"lon":5.39733,"is_reserved":false,"is_disabled":false,"rental_uris":{"android":"levelo://app?vid=0118782e-a9be-4c57-a3c6-f989e8d3b9bf","ios":"levelo://app?vid=0118782e-a9be-4c57-a3c6-f989e8d3b9bf"},"vehicle_type_id":"4","last_reported":1741705837,"current_range_meters":19600,"station_id":"ce4bhn12rcd13ifvqgpg","pricing_plan_id":"cebpf4jnsgd1na2vs0mg"},{"bike_id":"6fc012dc-54b4-477c-bccd-a47f0be3dcb8","system_id":"levelo_inurba_marseille","lat":43.29615,"lon":5.38101,"is_reserved":false,"is_disabled":false,"rental_uris":{"android":"levelo://app?vid=6fc012dc-54b4-477c-bccd-a47f0be3dcb8","ios":"levelo://app?vid=6fc012dc-54b4-477c-bccd-a47f0be3dcb8"},"vehicle_type_id":"4","last_reported":1741705837,"current_range_meters":19600,"station_id":"ce4bgl12rcd13ifvqbo0","pricing_plan_id":"cebpf4jnsgd1na2vs0mg"},{"bike_id":"1f1826a3-f54a-4534-a067-4e1ce319471b","system_id":"levelo_inurba_marseille","lat":43.29726,"lon":5.37717,"is_reserved":false,"is_disabled":false,"rental_uris":{"android":"levelo://app?vid=1f1826a3-f54a-4534-a067-4e1ce319471b","ios":"levelo://app?vid=1f1826a3-f54a-4534-a067-4e1ce319471b"},"vehicle_type_id":"4","last_reported":1741705837,"current_range_meters":19600,"station_id":"ce4bgkh2rcd13ifvqbl0","pricing_plan_id":"cebpf4jnsgd1na2vs0mg"},{"bike_id":"b163a897-2123-480a-9769-19ef64f50813","system_id":"levelo_inurba_marseille","lat":43.25936,"lon":5.40909,"is_reserved":false,"is_disabled":false,"rental_uris":{"android":"levelo://app?vid=b163a897-2123-480a-9769-19ef64f50813","ios":"levelo://app?vid=b163a897-2123-480a-9769-19ef64f50813"},"vehicle_type_id":"4","last_reported":1741705837,"current_range_meters":19600,"station_id":"ce4bhm92rcd13ifvqglg","pricing_plan_id":"cebpf4jnsgd1na2vs0mg"},{"bike_id":"5e010522-ee63-447e-9bd0-e4572fe6d490","system_id":"levelo_inurba_marseille","lat":43.29611,"lon":5.36927,"is_reserved":false,"is_disabled":false,"rental_uris":{"android":"levelo://app?vid=5e010522-ee63-447e-9bd0-e4572fe6d490","ios":"levelo://app?vid=5e010522-ee63-447e-9bd0-e4572fe6d490"},"vehicle_type_id":"4","last_reported":1741705837,"current_range_meters":20000,"station_id":"","pricing_plan_id":"cebpf4jnsgd1na2vs0mg"},{"bike_id":"3c10fc3c-43d5-4bad-ba96-1600df3aebcf","system_id":"levelo_inurba_marseille","lat":43.29611,"lon":5.38114,"is_reserved":false,"is_disabled":false,"rental_uris":{"android":"levelo://app?vid=3c10fc3c-43d5-4bad-ba96-1600df3aebcf","ios":"levelo://app?vid=3c10fc3c-43d5-4bad-ba96-1600df3aebcf"},