{"last_updated":1742976782,"ttl":60,"version":"2.2","data":{"bikes":[{"bike_id":"0ab56da3-b1ee-41e8-993f-bfa2de9d36af","system_id":"levelo_inurba_marseille","lat":43.27818,"lon":5.39207,"is_reserved":false,"is_disabled":false,"rental_uris":{"android":"levelo://app?vid=0ab56da3-b1ee-41e8-993f-bfa2de9d36af","ios":"levelo://app?vid=0ab56da3-b1ee-41e8-993f-bfa2de9d36af"},"vehicle_type_id":"4","last_reported":1742976783,"current_range_meters":2800,"station_id":"ce4bhjp2rcd13ifvqga0","pricing_plan_id":"cebpf4jnsgd1na2vs0mg"},{"bike_id":"335a71c8-59f2-4bff-8e3b-4f04a6b028ca","system_id":"levelo_inurba_marseille","lat":43.28421,"lon":5.34981,"is_reserved":false,"is_disabled":false,"rental_uris":{"android":"levelo://app?vid=335a71c8-59f2-4bff-8e3b-4f04a6b028ca","ios":"levelo://app?vid=335a71c8-59f2-4bff-8e3b-4f04a6b028ca"},"vehicle_type_id":"4","last_reported":1742976783,"current_range_meters":2800,"station_id":"ce4bhbh2rcd13ifvqepg","pricing_plan_id":"cebpf4jnsgd1na2vs0mg"},{"bike_id":"2cddbb0d-de4c-4d33-b119-67ef87f35060","system_id":"levelo_inurba_marseille","lat":43.28442,"lon":5.39213,"is_reserved":false,"is_disabled":false,"rental_uris":{"android":"levelo://app?vid=2cddbb0d-de4c-4d33-b119-67ef87f35060","ios":"levelo://app?vid=2cddbb0d-de4c-4d33-b119-67ef87f35060"},"vehicle_type_id":"4","last_reported":1742976783,"current_range_meters":2800,"station_id":"ce4bhoh2rcd13ifvqh5g","pricing_plan_id":"cebpf4jnsgd1na2vs0mg"},{"bike_id":"abd8fd5c-549a-4d06-af65-1a9cc709c124","system_id":"levelo_inurba_marseille","lat":43.27215,"lon":5.39176,"is_reserved":false,"is_disabled":false,"rental_uris":{"android":"levelo://app?vid=abd8fd5c-549a-4d06-af65-1a9cc709c124","ios":"levelo://app?vid=abd8fd5c-549a-4d06-af65-1a9cc709c124"},"vehicle_type_id":"4","last_reported":1742976783,"current_range_meters":2800,"station_id":"ce4bhhp2rcd13ifvqfm0","pricing_plan_id":"cebpf4jnsgd1na2vs0mg"},{"bike_id":"c982c4c7-246d-4dbb-a597-7c703c050f83","system_id":"levelo_inurba_marseille","lat":43.29304,"lon":5.37459,"is_reserved":false,"is_disabled":false,"rental_uris":{"android":"levelo://app?vid=c982c4c7-246d-4dbb-a597-7c703c050f83","ios":"levelo://app?vid=c982c4c7-246d-4dbb-a597-7c703c050f83"},"vehicle_type_id":"4","last_reported":1742976783,"current_range_meters":2800,"station_id":"ce4bgi12rcd13ifvqb70","pricing_plan_id":"cebpf4jnsgd1na2vs0mg"},{"bike_id":"ecb42ffe-a31e-4210-9fcc-a29d223e03d4","system_id":"levelo_inurba_marseille","lat":43.231939,"lon":5.355579,"is_reserved":false,"is_disabled":false,"rental_uris":{"android":"levelo://app?vid=ecb42ffe-a31e-4210-9fcc-a29d223e03d4","ios":"levelo://app?vid=ecb42ffe-a31e-4210-9fcc-a29d223e03d4"},"vehicle_type_id":"4","last_reported":1742976783,"current_range_meters":3200,"station_id":"ce4bhu92rcd13ifvqi70","pricing_plan_id":"cebpf4jnsgd1na2vs0mg"},{"bike_id":"beb22cd1-647a-432e-84ba-d80dd23ff4f7","system_id":"levelo_inurba_marseille","lat":43.33594,"lon":5.41008,"is_reserved":false,"is_disabled":false,"rental_uris":{"android":"levelo://app?vid=beb22cd1-647a-432e-84ba-d80dd23ff4f7","ios":"levelo://app?vid=beb22cd1-647a-432e-84ba-d80dd23ff4f7"},"vehicle_type_id":"4","last_reported":1742976783,"current_range_meters":3200,"station_id":"ce4bhqh2rcd13ifvqhmg","pricing_plan_id":"cebpf4jnsgd1na2vs0mg"},{"bike_id":"f147740c-fa04-4cc4-869e-af7163fe8f00","system_id":"levelo_inurba_marseille","lat":43.27809,"lon":5.40705,"is_reserved":false,"is_disabled":false,"rental_uris":{"android":"levelo://app?vid=f147740c-fa04-4cc4-869e-af7163fe8f00","ios":"levelo://app?vid=f147740c-fa04-4cc4-869e-af7163fe8f00"},"vehicle_type_id":"4","last_reported":1742976783,"current_range_meters":3200,"station_id":"ce4bhnh2rcd13ifvqgtg","pricing_plan_id":"cebpf4jnsgd1na2vs0mg"},{"bike_id":"af080495-49bd-4a51-a1e9-ef24c4020ac9","system_id":"levelo_inurba_marseille","lat":43.305359,"lon":5.367055,"is_reserved":false,"is_disabled":false,"rental_uris":{"android":"levelo://app?vid=af080495-49bd-4a51-a1e9-ef24c4020ac9","ios":"levelo://app?vid=af080495-49bd-4a51-a1e9-ef24c4020ac9"},"vehicle_type_id":"4","last_reported":1742976783,"current_range_meters":3200,"station_id":"ce4bgrp2rcd13ifvqc9g","pricing_plan_id":"cebpf4jnsgd1na2vs0mg"},{"bike_id":"c92a1a7e-9037-4c90-bfb4-6ee6a9ba5a04","system_id":"levelo_inurba_marseille","lat":43.29027,"lon":5.3864,"is_reserved":false,"is_disabled":false,"rental_uris":{"android":"levelo://app?vid=c92a1a7e-9037-4c90-bfb4-6ee6a9ba5a04","ios":"levelo://app?vid=c92a1a7e-9037-4c90-bfb4-6ee6a9ba5a04"},"vehicle_type_id":"4","last_reported":1742976783,"current_range_meters":3200,"station_id":"ce4bh4p2rcd13ifvqe0g","pricing_plan_id":"cebpf4jnsgd1na2vs0mg"},{"bike_id":"a74cdeab-f896-49a2-9e69-1a408c582e96","system_id":"levelo_inurba_marseille","lat":43.2783,"lon":5.40721,"is_reserved":false,"is_disabled":false,"rental_uris":{"android":"levelo://app?vid=a74cdeab-f896-49a2-9e69-1a408c582e96","ios":"levelo://app?vid=a74cdeab-f896-49a2-9e69-1a408c582e96"},"vehicle_type_id":"4","last_reported":1742976783,"current_range_meters":3200,"station_id":"ce4bhnh2rcd13ifvqgtg","pricing_plan_id":"cebpf4jnsgd1na2vs0mg"},{"bike_id":"f6157e81-857a-447c-b8a7-5c91cd73d832","system_id":"levelo_inurba_marseille","lat":43.27173,"lon":5.40993,"is_reserved":false,"is_disabled":false,"rental_uris":{"android":"levelo://app?vid=f6157e81-857a-447c-b8a7-5c91cd73d832","ios":"levelo://app?vid=f6157e81-857a-447c-b8a7-5c91cd73d832"},"vehicle_type_id":"4","last_reported":1742976783,"current_range_meters":3200,"station_id":"ce4bhl12rcd13ifvqgf0","pricing_plan_id":"cebpf4jnsgd1na2vs0mg"},{"bike_id":"03ee78e5-8953-4476-b431-47f3628c00b6","system_id":"levelo_inurba_marseille","lat":43.31207,"lon":5.36852,"is_reserved":false,"is_disabled":false,"rental_uris":{"android":"levelo://app?vid=03ee78e5-8953-4476-b431-47f3628c00b6","ios":"levelo://app?vid=03ee78e5-8953-4476-b431-47f3628c00b6"},"vehicle_type_id":"4","last_reported":1742976783,"current_range_meters":3600,"station_id":"ce4bgl92rcd13ifvqbq0","pricing_plan_id":"cebpf4jnsgd1na2vs0mg"},{"bike_id":"113eda5c-c33d-48d6-833a-f334ce033e65","system_id":"levelo_inurba_marseille","lat":43.25001,"lon":5.38943,"is_reserved":false,"is_disabled":false,"rental_uris":{"android":"levelo://app?vid=113eda5c-c33d-48d6-833a-f334ce033e65","ios":"levelo://app?vid=113eda5c-c33d-48d6-833a-f334ce033e65"},"vehicle_type_id":"4","last_reported":1742976783,"current_range_meters":3600,"station_id":"ce4bhgp2rcd13ifvqfd0","pricing_plan_id":"cebpf4jnsgd1na2vs0mg"},{"bike_id":"3513a6f0-dbc9-4f37-8b52-79603521c288","system_id":"levelo_inurba_marseille","lat":43.23066,"lon":5.3549,"is_reserved":false,"is_disabled":false,"rental_uris":{"android":"levelo://app?vid=3513a6f0-dbc9-4f37-8b52-79603521c288","ios":"levelo://app?vid=3513a6f0-dbc9-4f37-8b52-79603521c288"},"vehicle_type_id":"4","last_reported":1742976783,"current_range_meters":3600,"station_id":"cpo3342slgdg3j2ifvpg","pricing_plan_id":"cebpf4jnsgd1na2vs0mg"},{"bike_id":"cddb2d48-ad91-422a-9966-039925cdc3aa","system_id":"levelo_inurba_marseille","lat":43.3014,"lon":5.37428,"is_reserved":false,"is_disabled":false,"rental_uris":{"android":"levelo://app?vid=cddb2d48-ad91-422a-9966-039925cdc3aa","ios":"levelo://app?vid=cddb2d48-ad91-422a-9966-039925cdc3aa"},"vehicle_type_id":"4","last_reported":1742976783,"current_range_meters":3600,"station_id":"ce4bgs92rcd13ifvqcc0","pricing_plan_id":"cebpf4jnsgd1na2vs0mg"},{"bike_id":"e15c1199-5f92-4ab5-bab2-66fe9cfee08b","system_id":"levelo_inurba_marseille","lat":43.28272,"lon":5.35068,"is_reserved":false,"is_disabled":false,"rental_uris":{"android":"levelo://app?vid=e15c1199-5f92-4ab5-bab2-66fe9cfee08b","ios":"levelo://app?vid=e15c1199-5f92-4ab5-bab2-66fe9cfee08b"},"vehicle_type_id":"4","last_reported":1742976783,"current_range_meters":3600,"station_id":"ce4bhbp2rcd13ifvqerg","pricing_plan_id":"cebpf4jnsgd1na2vs0mg"},{"bike_id":"e4e1622e-5434-4700-9131-c6c940b8d38c","system_id":"levelo_inurba_marseille","lat":43.27492,"lon":5.42457,"is_reserved":false,"is_disabled":false,"rental_uris":{"android":"levelo://app?vid=e4e1622e-5434-4700-9131-c6c940b8d38c","ios":"levelo://app?vid=e4e1622e-5434-4700-9131-c6c940b8d38c"},"vehicle_type_id":"4","last_reported":1742976783,"current_range_meters":4000,"station_id":"ce4bhn92rcd13ifvqgrg","pricing_plan_id":"cebpf4jnsgd1na2vs0mg"},{"bike_id":"32f54dc6-3413-47f1-9b2d-810e06f763c7","system_id":"levelo_inurba_marseille","lat":43.29252,"lon":5.409099,"is_reserved":false,"is_disabled":false,"rental_uris":{"android":"levelo://app?vid=32f54dc6-3413-47f1-9b2d-810e06f763c7","ios":"levelo://app?vid=32f54dc6-3413-47f1-9b2d-810e06f763c7"},"vehicle_type_id":"4","last_reported":1742976783,"current_range_meters":4000,"station_id":"ce4bh192rcd13ifvqdc0","pricing_plan_id":"cebpf4jnsgd1na2vs0mg"},{"bike_id":"02c642d0-bab7-4205-b1fb-4419adeb4af1","system_id":"levelo_inurba_marseille","lat":43.29042,"lon":5.356,"is_reserved":false,"is_disabled":true,"rental_uris":{"android":"levelo://app?vid=02c642d0-bab7-4205-b1fb-4419adeb4af1","ios":"levelo://app?vid=02c642d0-bab7-4205-b1fb-4419adeb4af1"},"vehicle_type_id":"4","last_reported":1742976783,"current_range_meters":4000,"station_id":"","pricing_plan_id":"cebpf4jnsgd1na2vs0mg"},{"bike_id":"02a1ac6b-d349-4b37-9d6e-0c2e0781da0b","system_id":"levelo_inurba_marseille","lat":43.33615,"lon":5.41046,"is_reserved":false,"is_disabled":false,"rental_uris":{"android":"levelo://app?vid=02a1ac6b-d349-4b37-9d6e-0c2e0781da0b","ios":"levelo://app?vid=02a1ac6b-d349-4b37-9d6e-0c2e0781da0b"},"vehicle_type_id":"4","last_reported":1742976783,"current_range_meters":4000,"station_id":"ce4bhqh2rcd13ifvqhmg","pricing_plan_id":"cebpf4jnsgd1na2vs0mg"},{"bike_id":"22fab63b-0a45-437e-94f0-df311425c259","system_id":"levelo_inurba_marseille","lat":43.23153,"lon":5.43708,"is_reserved":false,"is_disabled":false,"rental_uris":{"android":"levelo://app?vid=22fab63b-0a45-437e-94f0-df311425c259","ios":"levelo://app?vid=22fab63b-0a45-437e-94f0-df311425c259"},"vehicle_type_id":"4","last_reported":1742976783,"current_range_meters":4000,"station_id":"ce4bhmp2rcd13ifvqgog","pricing_plan_id":"cebpf4jnsgd1na2vs0mg"},{"bike_id":"ef7015b0-b900-47fe-8c61-16a4dd669a3d","system_id":"levelo_inurba_marseille","lat":43.28361,"lon":5.38096,"is_reserved":false,"is_disabled":false,"rental_uris":{"android":"levelo://app?vid=ef7015b0-b900-47fe-8c61-16a4dd669a3d","ios":"levelo://app?vid=ef7015b0-b900-47fe-8c61-16a4dd669a3d"},"vehicle_type_id":"4","last_reported":1742976783,"current_range_meters":4400,"station_id":"ce4bh412rcd13ifvqdr0","pricing_plan_id":"cebpf4jnsgd1na2vs0mg"},{"bike_id":"ef1feedc-5425-4f50-a645-66f231623a5e","system_id":"levelo_inurba_marseille","lat":43.33603,"lon":5.41033,"is_reserved":false,"is_disabled":false,"rental_uris":{"android":"levelo://app?vid=ef1feedc-5425-4f50-a645-66f231623a5e","ios":"levelo://app?vid=ef1feedc-5425-4f50-a645-66f231623a5e"},"vehicle_type_id":"4","last_reported":1742976783,"current_range_meters":4400,"station_id":"ce4bhqh2rcd13ifvqhmg","pricing_plan_id":"cebpf4jnsgd1na2vs0mg"},{"bike_id":"5eb00e60-b5d9-4a65-9bba-344db36c1e04","system_id":"levelo_inurba_marseille","lat":43.2584,"lon":5.39432,"is_reserved":false,"is_disabled":false,"rental_uris":{"android":"levelo://app?vid=5eb00e60-b5d9-4a65-9bba-344db36c1e04","ios":"levelo://app?vid=5eb00e60-b5d9-4a65-9bba-344db36c1e04"},"vehicle_type_id":"4","last_reported":1742976783,"current_range_meters":4400,"station_id":"ce4bhip2rcd13ifvqft0","pricing_plan_id":"cebpf4jnsgd1na2vs0mg"},{"bike_id":"bc9e59da-24a5-43b2-9344-e686036c5b53","system_id":"levelo_inurba_marseille","lat":43.26063,"lon":5.39405,"is_reserved":false,"is_disabled":false,"rental_uris":{"android":"levelo://app?vid=bc9e59da-24a5-43b2-9344-e686036c5b53","ios":"levelo://app?vid=bc9e59da-24a5-43b2-9344-e686036c5b53"},"vehicle_type_id":"4","last_reported":1742976783,"current_range_meters":4400,"station_id":"ce4bhh92rcd13ifvqfj0","pricing_plan_id":"cebpf4jnsgd1na2vs0mg"},{"bike_id":"9044c124-7f8b-4f46-92b4-6bb3bf42d405","system_id":"levelo_inurba_marseille","lat":43.24823,"lon":5.37442,"is_reserved":false,"is_disabled":false,"rental_uris":{"android":"levelo://app?vid=9044c124-7f8b-4f46-92b4-6bb3bf42d405","ios":"levelo://app?vid=9044c124-7f8b-4f46-92b4-6bb3bf42d405"},"vehicle_type_id":"4","last_reported":1742976783,"current_range_meters":4800,"station_id":"ce4bhgh2rcd13ifvqfb0","pricing_plan_id":"cebpf4jnsgd1na2vs0mg"},{"bike_id":"407cc8c7-8392-46d1-b38e-67982afb6c2b","system_id":"levelo_inurba_marseille","lat":43.29885,"lon":5.38144,"is_reserved":false,"is_disabled":false,"rental_uris":{"android":"levelo://app?vid=407cc8c7-8392-46d1-b38e-67982afb6c2b","ios":"levelo://app?vid=407cc8c7-8392-46d1-b38e-67982afb6c2b"},"vehicle_type_id":"4","last_reported":1742976783,"current_range_meters":4800,"station_id":"ce4bgj12rcd13ifvqbc0","pricing_plan_id":"cebpf4jnsgd1na2vs0mg"},{"bike_id":"c2826a42-9611-4d76-9da5-0170521c0d18","system_id":"levelo_inurba_marseille","lat":43.24088,"lon":5.378,"is_reserved":false,"is_disabled":false,"rental_uris":{"android":"levelo://app?vid=c2826a42-9611-4d76-9da5-0170521c0d18","ios":"levelo://app?vid=c2826a42-9611-4d76-9da5-0170521c0d18"},"vehicle_type_id":"4","last_reported":1742976783,"current_range_meters":4800,"station_id":"ce4bhnp2rcd13ifvqgvg","pricing_plan_id":"cebpf4jnsgd1na2vs0mg"},{"bike_id":"e3e58b7d-a745-42d7-bf54-3a94925681f1","system_id":"levelo_inurba_marseille","lat":43.23204,"lon":5.35548,"is_reserved":false,"is_disabled":false,"rental_uris":{"android":"levelo://app?vid=e3e58b7d-a745-42d7-bf54-3a94925681f1","ios":"levelo://app?vid=e3e58b7d-a745-42d7-bf54-3a94925681f1"},"vehicle_type_id":"4","last_reported":1742976783,"current_range_meters":4800,"station_id":"ce4bhu92rcd13ifvqi70","pricing_plan_id":"cebpf4jnsgd1na2vs0mg"},{"bike_id":"e06fd3a0-02a6-413f-81de-817b7da619bd","system_id":"levelo_inurba_marseille","lat":43.31288,"lon":5.40169,"is_reserved":false,"is_disabled":false,"rental_uris":{"android":"levelo://app?vid=e06fd3a0-02a6-413f-81de-817b7da619bd","ios":"levelo://app?vid=e06fd3a0-02a6-413f-81de-817b7da619bd"},"vehicle_type_id":"4","last_reported":1742976783,"current_range_meters":4800,"station_id":"ce4bh092rcd13ifvqd30","pricing_plan_id":"cebpf4jnsgd1na2vs0mg"},{"bike_id":"5a285ed5-90dc-4b6e-862a-02384c201442","system_id":"levelo_inurba_marseille","lat":43.292334,"lon":5.36069,"is_reserved":false,"is_disabled":false,"rental_uris":{"android":"levelo://app?vid=5a285ed5-90dc-4b6e-862a-02384c201442","ios":"levelo://app?vid=5a285ed5-90dc-4b6e-862a-02384c201442"},"vehicle_type_id":"4","last_reported":1742976783,"current_range_meters":4800,"station_id":"ce4bhbh2rcd13ifvqeqg","pricing_plan_id":"cebpf4jnsgd1na2vs0mg"},{"bike_id":"38e476a3-7fa7-42ff-bc10-2fcb40220abd","system_id":"levelo_inurba_marseille","lat":43.2322,"lon":5.35565,"is_reserved":false,"is_disabled":false,"rental_uris":{"android":"levelo://app?vid=38e476a3-7fa7-42ff-bc10-2fcb40220abd","ios":"levelo://app?vid=38e476a3-7fa7-42ff-bc10-2fcb40220abd"},"vehicle_type_id":"4","last_reported":1742976783,"current_range_meters":4800,"station_id":"ce4bhu92rcd13ifvqi70","pricing_plan_id":"cebpf4jnsgd1na2vs0mg"},{"bike_id":"092dfe83-96ca-4e7f-aa20-d64e440ff664","system_id":"levelo_inurba_marseille","lat":43.26949,"lon":5.38638,"is_reserved":false,"is_disabled":false,"rental_uris":{"android":"levelo://app?vid=092dfe83-96ca-4e7f-aa20-d64e440ff664","ios":"levelo://app?vid=092dfe83-96ca-4e7f-aa20-d64e440ff664"},"vehicle_type_id":"4","last_reported":1742976783,"current_range_meters":4800,"station_id":"ce4bhh92rcd13ifvqfh0","pricing_plan_id":"cebpf4jnsgd1na2vs0mg"},{"bike_id":"66250f55-b8e3-4e7f-8240-0a2a9448b92a","system_id":"levelo_inurba_marseille","lat":43.29715,"lon":5.37707,"is_reserved":false,"is_disabled":false,"rental_uris":{"android":"levelo://app?vid=66250f55-b8e3-4e7f-8240-0a2a9448b92a","ios":"levelo://app?vid=66250f55-b8e3-4e7f-8240-0a2a9448b92a"},"vehicle_type_id":"4","last_reported":1742976783,"current_range_meters":5600,"station_id":"ce4bgkh2rcd13ifvqbl0","pricing_plan_id":"cebpf4jnsgd1na2vs0mg"},{"bike_id":"66f69882-9bc0-4f69-af42-1e4faa3ed134","system_id":"levelo_inurba_marseille","lat":43.298873,"lon":5.4367,"is_reserved":false,"is_disabled":false,"rental_uris":{"android":"levelo://app?vid=66f69882-9bc0-4f69-af42-1e4faa3ed134","ios":"levelo://app?vid=66f69882-9bc0-4f69-af42-1e4faa3ed134"},"vehicle_type_id":"4","last_reported":1742976783,"current_range_meters":5600,"station_id":"ce4bhpp2rcd13ifvqhfg","pricing_plan_id":"cebpf4jnsgd1na2vs0mg"},{"bike_id":"91b528d9-2fac-4545-8a89-e2ce1c5c2685","system_id":"levelo_inurba_marseille","lat":43.30188,"lon":5.36619,"is_reserved":false,"is_disabled":false,"rental_uris":{"android":"levelo://app?vid=91b528d9-2fac-4545-8a89-e2ce1c5c2685","ios":"levelo://app?vid=91b528d9-2fac-4545-8a89-e2ce1c5c2685"},"vehicle_type_id":"4","last_reported":1742976783,"current_range_meters":5600,"station_id":"ce4bgrh2rcd13ifvqc8g","pricing_plan_id":"cebpf4jnsgd1na2vs0mg"},{"bike_id":"ef43d9bd-e531-4a59-b8a9-fdc80b41fa34","system_id":"levelo_inurba_marseille","lat":43.3128,"lon":5.40176,"is_reserved":false,"is_disabled":true,"rental_uris":{"android":"levelo://app?vid=ef43d9bd-e531-4a59-b8a9-fdc80b41fa34","ios":"levelo://app?vid=ef43d9bd-e531-4a59-b8a9-fdc80b41fa34"},"vehicle_type_id":"4","last_reported":1742976783,"current_range_meters":5600,"station_id":"ce4bh092rcd13ifvqd30","pricing_plan_id":"cebpf4jnsgd1na2vs0mg"},{"bike_id":"731571a8-8570-46cf-8be8-be6fb950820d","system_id":"levelo_inurba_marseille","lat":43.30545,"lon":5.36704,"is_reserved":false,"is_disabled":false,"rental_uris":{"android":"levelo://app?vid=731571a8-8570-46cf-8be8-be6fb950820d","ios":"levelo://app?vid=731571a8-8570-46cf-8be8-be6fb950820d"},"vehicle_type_id":"4","last_reported":1742976783,"current_range_meters":5600,"station_id":"ce4bgrp2rcd13ifvqc9g","pricing_plan_id":"cebpf4jnsgd1na2vs0mg"},{"bike_id":"5a38931b-2d7b-4bf3-8299-4a90c2fd7d7b","system_id":"levelo_inurba_marseille","lat":43.24065,"lon":5.37759,"is_reserved":false,"is_disabled":false,"rental_uris":{"android":"levelo://app?vid=5a38931b-2d7b-4bf3-8299-4a90c2fd7d7b","ios":"levelo://app?vid=5a38931b-2d7b-4bf3-8299-4a90c2fd7d7b"},"vehicle_type_id":"4","last_reported":1742976783,"current_range_meters":5600,"station_id":"ce4bhnp2rcd13ifvqgvg","pricing_plan_id":"cebpf4jnsgd1na2vs0mg"},{"bike_id":"2a00e69f-e8f0-4293-a71f-9f6c011d4f23","system_id":"levelo_inurba_marseille","lat":43.25011,"lon":5.38932,"is_reserved":false,"is_disabled":false,"rental_uris":{"android":"levelo://app?vid=2a00e69f-e8f0-4293-a71f-9f6c011d4f23","ios":"levelo://app?vid=2a00e69f-e8f0-4293-a71f-9f6c011d4f23"},"vehicle_type_id":"4","last_reported":1742976783,"current_range_meters":6000,"station_id":"ce4bhgp2rcd13ifvqfd0","pricing_plan_id":"cebpf4jnsgd1na2vs0mg"},{"bike_id":"a0d4632a-7a87-4031-aeeb-061ca0feaca6","system_id":"levelo_inurba_marseille","lat":43.239611,"lon":5.366237,"is_reserved":false,"is_disabled":false,"rental_uris":{"android":"levelo://app?vid=a0d4632a-7a87-4031-aeeb-061ca0feaca6","ios":"levelo://app?vid=a0d4632a-7a87-4031-aeeb-061ca0feaca6"},"vehicle_type_id":"4","last_reported":1742976783,"current_range_meters":6000,"station_id":"ce4bhi12rcd13ifvqfp0","pricing_plan_id":"cebpf4jnsgd1na2vs0mg"},{"bike_id":"a4b9b339-f96c-4877-b737-27c2f508fe26","system_id":"levelo_inurba_marseille","lat":43.32446,"lon":5.36601,"is_reserved":false,"is_disabled":false,"rental_uris":{"android":"levelo://app?vid=a4b9b339-f96c-4877-b737-27c2f508fe26","ios":"levelo://app?vid=a4b9b339-f96c-4877-b737-27c2f508fe26"},"vehicle_type_id":"4","last_reported":1742976783,"current_range_meters":6000,"station_id":"ce4bhs12rcd13ifvqhvg","pricing_plan_id":"cebpf4jnsgd1na2vs0mg"},{"bike_id":"f0dc1799-be0b-41f2-87a2-bbe5c38b40e1","system_id":"levelo_inurba_marseille","lat":43.30594,"lon":5.39359,"is_reserved":false,"is_disabled":true,"rental_uris":{"android":"levelo://app?vid=f0dc1799-be0b-41f2-87a2-bbe5c38b40e1","ios":"levelo://app?vid=f0dc1799-be0b-41f2-87a2-bbe5c38b40e1"},"vehicle_type_id":"4","last_reported":1742976783,"current_range_meters":6000,"station_id":"ce4bh0p2rcd13ifvqd80","pricing_plan_id":"cebpf4jnsgd1na2vs0mg"},{"bike_id":"3f3dc18c-6df6-4f10-bdb6-bb2ee80a2e60","system_id":"levelo_inurba_marseille","lat":43.27211,"lon":5.39215,"is_reserved":false,"is_disabled":false,"rental_uris":{"android":"levelo://app?vid=3f3dc18c-6df6-4f10-bdb6-bb2ee80a2e60","ios":"levelo://app?vid=3f3dc18c-6df6-4f10-bdb6-bb2ee80a2e60"},"vehicle_type_id":"4","last_reported":1742976783,"current_range_meters":6000,"station_id":"ce4bhhp2rcd13ifvqfm0","pricing_plan_id":"cebpf4jnsgd1na2vs0mg"},{"bike_id":"c1342d82-cc37-454b-900b-cfaa0750256a","system_id":"levelo_inurba_marseille","lat":43.28459,"lon":5.3589,"is_reserved":false,"is_disabled":true,"rental_uris":{"android":"levelo://app?vid=c1342d82-cc37-454b-900b-cfaa0750256a","ios":"levelo://app?vid=c1342d82-cc37-454b-900b-cfaa0750256a"},"vehicle_type_id":"4","last_reported":1742976783,"current_range_meters":6000,"station_id":"ce4bhah2rcd13ifvqei0","pricing_plan_id":"cebpf4jnsgd1na2vs0mg"},{"bike_id":"52d363fe-5316-4f57-b127-d18678d2192d","system_id":"levelo_inurba_marseille","lat":43.30311,"lon":5.369126,"is_reserved":false,"is_disabled":false,"rental_uris":{"android":"levelo://app?vid=52d363fe-5316-4f57-b127-d18678d2192d","ios":"levelo://app?vid=52d363fe-5316-4f57-b127-d18678d2192d"},"vehicle_type_id":"4","last_reported":1742976783,"current_range_meters":6000,"station_id":"ce4bgqh2rcd13ifvqc5g","pricing_plan_id":"cebpf4jnsgd1na2vs0mg"},{"bike_id":"df007844-4536-42db-80be-f65d902177bd","system_id":"levelo_inurba_marseille","lat":43.27204,"lon":5.39171,"is_reserved":false,"is_disabled":false,"rental_uris":{"android":"levelo://app?vid=df007844-4536-42db-80be-f65d902177bd","ios":"levelo://app?vid=df007844-4536-42db-80be-f65d902177bd"},"vehicle_type_id":"4","last_reported":1742976783,"current_range_meters":6000,"station_id":"ce4bhhp2rcd13ifvqfm0","pricing_plan_id":"cebpf4jnsgd1na2vs0mg"},{"bike_id":"860be869-172b-427c-b24d-57f9d355daca","system_id":"levelo_inurba_marseille","lat":43.27212,"lon":5.39177,"is_reserved":false,"is_disabled":false,"rental_uris":{"android":"levelo://app?vid=860be869-172b-427c-b24d-57f9d355daca","ios":"levelo://app?vid=860be869-172b-427c-b24d-57f9d355daca"},"vehicle_type_id":"4","last_reported":1742976783,"current_range_meters":6000,"station_id":"ce4bhhp2rcd13ifvqfm0","pricing_plan_id":"cebpf4jnsgd1na2vs0mg"},{"bike_id":"338ef5ef-6ed0-4719-a7ea-82be458e61b4","system_id":"levelo_inurba_marseille","lat":43.2408,"lon":5.37751,"is_reserved":false,"is_disabled":false,"rental_uris":{"android":"levelo://app?vid=338ef5ef-6ed0-4719-a7ea-82be458e61b4","ios":"levelo://app?vid=338ef5ef-6ed0-4719-a7ea-82be458e61b4"},"vehicle_type_id":"4","last_reported":1742976783,"current_range_meters":6400,"station_id":"ce4bhnp2rcd13ifvqgvg","pricing_plan_id":"cebpf4jnsgd1na2vs0mg"},{"bike_id":"7bcb2fd7-af3e-47fb-9a8d-65ecca5aecdd","system_id":"levelo_inurba_marseille","lat":43.304641,"lon":5.379026,"is_reserved":false,"is_disabled":false,"rental_uris":{"android":"levelo://app?vid=7bcb2fd7-af3e-47fb-9a8d-65ecca5aecdd","ios":"levelo://app?vid=7bcb2fd7-af3e-47fb-9a8d-65ecca5aecdd"},"vehicle_type_id":"4","last_reported":1742976783,"current_range_meters":6400,"station_id":"ce4bgup2rcd13ifvqcn0","pricing_plan_id":"cebpf4jnsgd1na2vs0mg"},{"bike_id":"c19444f2-40df-441c-a440-0e4c0b3b47cb","system_id":"levelo_inurba_marseille","lat":43.30473,"lon":5.37921,"is_reserved":false,"is_disabled":false,"rental_uris":{"android":"levelo://app?vid=c19444f2-40df-441c-a440-0e4c0b3b47cb","ios":"levelo://app?vid=c19444f2-40df-441c-a440-0e4c0b3b47cb"},"vehicle_type_id":"4","last_reported":1742976783,"current_range_meters":6400,"station_id":"ce4bgup2rcd13ifvqcn0","pricing_plan_id":"cebpf4jnsgd1na2vs0mg"},{"bike_id":"8e468d8c-1950-4d4c-96e5-7c98fdd56088","system_id":"levelo_inurba_marseille","lat":43.29027,"lon":5.38637,"is_reserved":false,"is_disabled":false,"rental_uris":{"android":"levelo://app?vid=8e468d8c-1950-4d4c-96e5-7c98fdd56088","ios":"levelo://app?vid=8e468d8c-1950-4d4c-96e5-7c98fdd56088"},"vehicle_type_id":"4","last_reported":1742976783,"current_range_meters":6400,"station_id":"ce4bh4p2rcd13ifvqe0g","pricing_plan_id":"cebpf4jnsgd1na2vs0mg"},{"bike_id":"201ea78f-8bb0-4415-ace4-67c59f4928ce","system_id":"levelo_inurba_marseille","lat":43.3031,"lon":5.39214,"is_reserved":false,"is_disabled":false,"rental_uris":{"android":"levelo://app?vid=201ea78f-8bb0-4415-ace4-67c59f4928ce","ios":"levelo://app?vid=201ea78f-8bb0-4415-ace4-67c59f4928ce"},"vehicle_type_id":"4","last_reported":1742976783,"current_range_meters":6400,"station_id":"ce4bgkh2rcd13ifvqbk0","pricing_plan_id":"cebpf4jnsgd1na2vs0mg"},{"bike_id":"70344d0b-4b6b-42c1-ac8f-1e9ab0a610ba","system_id":"levelo_inurba_marseille","lat":43.24808,"lon":5.37455,"is_reserved":false,"is_disabled":false,"rental_uris":{"android":"levelo://app?vid=70344d0b-4b6b-42c1-ac8f-1e9ab0a610ba","ios":"levelo://app?vid=70344d0b-4b6b-42c1-ac8f-1e9ab0a610ba"},"vehicle_type_id":"4","last_reported":1742976783,"current_range_meters":6800,"station_id":"ce4bhgh2rcd13ifvqfb0","pricing_plan_id":"cebpf4jnsgd1na2vs0mg"},{"bike_id":"93eef073-7cf2-4952-a01c-1090fc59e59e","system_id":"levelo_inurba_marseille","lat":43.31081,"lon":5.42428,"is_reserved":false,"is_disabled":false,"rental_uris":{"android":"levelo://app?vid=93eef073-7cf2-4952-a01c-1090fc59e59e","ios":"levelo://app?vid=93eef073-7cf2-4952-a01c-1090fc59e59e"},"vehicle_type_id":"4","last_reported":1742976783,"current_range_meters":6400,"station_id":"ce4bhp92rcd13ifvqhag","pricing_plan_id":"cebpf4jnsgd1na2vs0mg"},{"bike_id":"dcbf3777-ef71-4e08-8260-3969029ce833","system_id":"levelo_inurba_marseille","lat":43.31338,"lon":5.36715,"is_reserved":false,"is_disabled":false,"rental_uris":{"android":"levelo://app?vid=dcbf3777-ef71-4e08-8260-3969029ce833","ios":"levelo://app?vid=dcbf3777-ef71-4e08-8260-3969029ce833"},"vehicle_type_id":"4","last_reported":1742976783,"current_range_meters":6400,"station_id":"ce4bgr92rcd13ifvqc6g","pricing_plan_id":"cebpf4jnsgd1na2vs0mg"},{"bike_id":"3e3833c1-1af5-4c99-83bc-e5850a5c8043","system_id":"levelo_inurba_marseille","lat":43.26238,"lon":5.38774,"is_reserved":false,"is_disabled":false,"rental_uris":{"android":"levelo://app?vid=3e3833c1-1af5-4c99-83bc-e5850a5c8043","ios":"levelo://app?vid=3e3833c1-1af5-4c99-83bc-e5850a5c8043"},"vehicle_type_id":"4","last_reported":1742976783,"current_range_meters":6400,"station_id":"","pricing_plan_id":"cebpf4jnsgd1na2vs0mg"},{"bike_id":"2a99ecb7-4bf0-4c00-89bb-11ff019b8a6d","system_id":"levelo_inurba_marseille","lat":43.22937,"lon":5.35378,"is_reserved":false,"is_disabled":false,"rental_uris":{"android":"levelo://app?vid=2a99ecb7-4bf0-4c00-89bb-11ff019b8a6d","ios":"levelo://app?vid=2a99ecb7-4bf0-4c00-89bb-11ff019b8a6d"},"vehicle_type_id":"4","last_reported":1742976783,"current_range_meters":6800,"station_id":"cpo3532slgdg3j2ikp40","pricing_plan_id":"cebpf4jnsgd1na2vs0mg"},{"bike_id":"ccd7db91-2a06-4510-bd3a-6e7707ab1a6b","system_id":"levelo_inurba_marseille","lat":43.30954,"lon":5.39028,"is_reserved":false,"is_disabled":true,"rental_uris":{"android":"levelo://app?vid=ccd7db91-2a06-4510-bd3a-6e7707ab1a6b","ios":"levelo://app?vid=ccd7db91-2a06-4510-bd3a-6e7707ab1a6b"},"vehicle_type_id":"4","last_reported":1742976783,"current_range_meters":6800,"station_id":"ce4bgup2rcd13ifvqco0","pricing_plan_id":"cebpf4jnsgd1na2vs0mg"},{"bike_id":"e3f76d45-4904-44a7-aac2-e04832e991bb","system_id":"levelo_inurba_marseille","lat":43.29967,"lon":5.41322,"is_reserved":false,"is_disabled":true,"rental_uris":{"android":"levelo://app?vid=e3f76d45-4904-44a7-aac2-e04832e991bb","ios":"levelo://app?vid=e3f76d45-4904-44a7-aac2-e04832e991bb"},"vehicle_type_id":"4","last_reported":1742976783,"current_range_meters":6800,"station_id":"ce4bhp12rcd13ifvqh9g","pricing_plan_id":"cebpf4jnsgd1na2vs0mg"},{"bike_id":"14c70662-34d0-43f8-8c37-b1461efe6ec6","system_id":"levelo_inurba_marseille","lat":43.27547,"lon":5.38442,"is_reserved":false,"is_disabled":false,"rental_uris":{"android":"levelo://app?vid=14c70662-34d0-43f8-8c37-b1461efe6ec6","ios":"levelo://app?vid=14c70662-34d0-43f8-8c37-b1461efe6ec6"},"vehicle_type_id":"4","last_reported":1742976783,"current_range_meters":6800,"station_id":"ce4bhh92rcd13ifvqfi0","pricing_plan_id":"cebpf4jnsgd1na2vs0mg"},{"bike_id":"c63ac188-bce8-4039-bcdd-076e45bfbfb1","system_id":"levelo_inurba_marseille","lat":43.31221,"lon":5.36872,"is_reserved":false,"is_disabled":false,"rental_uris":{"android":"levelo://app?vid=c63ac188-bce8-4039-bcdd-076e45bfbfb1","ios":"levelo://app?vid=c63ac188-bce8-4039-bcdd-076e45bfbfb1"},"vehicle_type_id":"4","last_reported":1742976783,"current_range_meters":6800,"station_id":"ce4bgl92rcd13ifvqbq0","pricing_plan_id":"cebpf4jnsgd1na2vs0mg"},{"bike_id":"c9578b47-9857-4396-852d-050cd99a85f0","system_id":"levelo_inurba_marseille","lat":43.24641,"lon":5.3821,"is_reserved":false,"is_disabled":false,"rental_uris":{"android":"levelo://app?vid=c9578b47-9857-4396-852d-050cd99a85f0","ios":"levelo://app?vid=c9578b47-9857-4396-852d-050cd99a85f0"},"vehicle_type_id":"4","last_reported":1742976783,"current_range_meters":6800,"station_id":"ce4bhih2rcd13ifvqfr0","pricing_plan_id":"cebpf4jnsgd1na2vs0mg"},{"bike_id":"d0ce6a4c-8c1a-4117-b620-bb8816808dbc","system_id":"levelo_inurba_marseille","lat":43.23981,"lon":5.36647,"is_reserved":false,"is_disabled":false,"rental_uris":{"android":"levelo://app?vid=d0ce6a4c-8c1a-4117-b620-bb8816808dbc","ios":"levelo://app?vid=d0ce6a4c-8c1a-4117-b620-bb8816808dbc"},"vehicle_type_id":"4","last_reported":1742976783,"current_range_meters":6800,"station_id":"ce4bhi12rcd13ifvqfp0","pricing_plan_id":"cebpf4jnsgd1na2vs0mg"},{"bike_id":"c093a7d4-b886-4347-89c9-386e49a112e6","system_id":"levelo_inurba_marseille","lat":43.26679,"lon":5.38268,"is_reserved":false,"is_disabled":false,"rental_uris":{"android":"levelo://app?vid=c093a7d4-b886-4347-89c9-386e49a112e6","ios":"levelo://app?vid=c093a7d4-b886-4347-89c9-386e49a112e6"},"vehicle_type_id":"4","last_reported":1742976783,"current_range_meters":6800,"station_id":"ce4bhg92rcd13ifvqf90","pricing_plan_id":"cebpf4jnsgd1na2vs0mg"},{"bike_id":"b6fd1ec3-47b2-486f-8b84-f71e2b87ecef","system_id":"levelo_inurba_marseille","lat":43.31077,"lon":5.42431,"is_reserved":false,"is_disabled":true,"rental_uris":{"android":"levelo://app?vid=b6fd1ec3-47b2-486f-8b84-f71e2b87ecef","ios":"levelo://app?vid=b6fd1ec3-47b2-486f-8b84-f71e2b87ecef"},"vehicle_type_id":"4","last_reported":1742976783,"current_range_meters":6800,"station_id":"ce4bhp92rcd13ifvqhag","pricing_plan_id":"cebpf4jnsgd1na2vs0mg"},{"bike_id":"f63f5481-a6f7-4d46-af84-60ed21e786f8","system_id":"levelo_inurba_marseille","lat":43.28411,"lon":5.37528,"is_reserved":false,"is_disabled":true,"rental_uris":{"android":"levelo://app?vid=f63f5481-a6f7-4d46-af84-60ed21e786f8","ios":"levelo://app?vid=f63f5481-a6f7-4d46-af84-60ed21e786f8"},"vehicle_type_id":"4","last_reported":1742976783,"current_range_meters":6800,"station_id":"ce4bh412rcd13ifvqds0","pricing_plan_id":"cebpf4jnsgd1na2vs0mg"},{"bike_id":"a36f579f-9bbf-4f06-876a-ce29fd89f5e0","system_id":"levelo_inurba_marseille","lat":43.30442,"lon":5.38883,"is_reserved":false,"is_disabled":false,"rental_uris":{"android":"levelo://app?vid=a36f579f-9bbf-4f06-876a-ce29fd89f5e0","ios":"levelo://app?vid=a36f579f-9bbf-4f06-876a-ce29fd89f5e0"},"vehicle_type_id":"4","last_reported":1742976783,"current_range_meters":6800,"station_id":"ce4bgk12rcd13ifvqbi0","pricing_plan_id":"cebpf4jnsgd1na2vs0mg"},{"bike_id":"22a21f30-f926-4b55-9440-4d8cdfed855e","system_id":"levelo_inurba_marseille","lat":43.25957,"lon":5.40912,"is_reserved":false,"is_disabled":false,"rental_uris":{"android":"levelo://app?vid=22a21f30-f926-4b55-9440-4d8cdfed855e","ios":"levelo://app?vid=22a21f30-f926-4b55-9440-4d8cdfed855e"},"vehicle_type_id":"4","last_reported":1742976783,"current_range_meters":7200,"station_id":"ce4bhm92rcd13ifvqglg","pricing_plan_id":"cebpf4jnsgd1na2vs0mg"},{"bike_id":"886eeead-2d62-4b60-ad17-0ac5aff862e9","system_id":"levelo_inurba_marseille","lat":43.30965,"lon":5.39035,"is_reserved":false,"is_disabled":false,"rental_uris":{"android":"levelo://app?vid=886eeead-2d62-4b60-ad17-0ac5aff862e9","ios":"levelo://app?vid=886eeead-2d62-4b60-ad17-0ac5aff862e9"},"vehicle_type_id":"4","last_reported":1742976783,"current_range_meters":7200,"station_id":"ce4bgup2rcd13ifvqco0","pricing_plan_id":"cebpf4jnsgd1na2vs0mg"},{"bike_id":"2f3e2a92-1301-4a27-8eaa-7b0ea525530e","system_id":"levelo_inurba_marseille","lat":43.317128,"lon":5.437067,"is_reserved":false,"is_disabled":false,"rental_uris":{"android":"levelo://app?vid=2f3e2a92-1301-4a27-8eaa-7b0ea525530e","ios":"levelo://app?vid=2f3e2a92-1301-4a27-8eaa-7b0ea525530e"},"vehicle_type_id":"4","last_reported":1742976783,"current_range_meters":7200,"station_id":"ce4bhp92rcd13ifvqhcg","pricing_plan_id":"cebpf4jnsgd1na2vs0mg"},{"bike_id":"d9f7d8be-9425-4103-9342-1eabe2318a05","system_id":"levelo_inurba_marseille","lat":43.26684,"lon":5.3827,"is_reserved":false,"is_disabled":false,"rental_uris":{"android":"levelo://app?vid=d9f7d8be-9425-4103-9342-1eabe2318a05","ios":"levelo://app?vid=d9f7d8be-9425-4103-9342-1eabe2318a05"},"vehicle_type_id":"4","last_reported":1742976783,"current_range_meters":7200,"station_id":"ce4bhg92rcd13ifvqf90","pricing_plan_id":"cebpf4jnsgd1na2vs0mg"},{"bike_id":"c123cfce-707d-4ceb-8e62-9892377130d8","system_id":"levelo_inurba_marseille","lat":43.30905,"lon":5.36844,"is_reserved":false,"is_disabled":false,"rental_uris":{"android":"levelo://app?vid=c123cfce-707d-4ceb-8e62-9892377130d8","ios":"levelo://app?vid=c123cfce-707d-4ceb-8e62-9892377130d8"},"vehicle_type_id":"4","last_reported":1742976783,"current_range_meters":7200,"station_id":"ce4bgn92rcd13ifvqbvg","pricing_plan_id":"cebpf4jnsgd1na2vs0mg"},{"bike_id":"627845ef-bfd7-4734-b05b-d13d51758d23","system_id":"levelo_inurba_marseille","lat":43.3046,"lon":5.37913,"is_reserved":false,"is_disabled":false,"rental_uris":{"android":"levelo://app?vid=627845ef-bfd7-4734-b05b-d13d51758d23","ios":"levelo://app?vid=627845ef-bfd7-4734-b05b-d13d51758d23"},"vehicle_type_id":"4","last_reported":1742976783,"current_range_meters":7200,"station_id":"ce4bgup2rcd13ifvqcn0","pricing_plan_id":"cebpf4jnsgd1na2vs0mg"},{"bike_id":"8702dcec-f04a-458e-bcfa-994e8247fe78","system_id":"levelo_inurba_marseille","lat":43.2867,"lon":5.38662,"is_reserved":false,"is_disabled":false,"rental_uris":{"android":"levelo://app?vid=8702dcec-f04a-458e-bcfa-994e8247fe78","ios":"levelo://app?vid=8702dcec-f04a-458e-bcfa-994e8247fe78"},"vehicle_type_id":"4","last_reported":1742976783,"current_range_meters":7200,"station_id":"ce4bh492rcd13ifvqdug","pricing_plan_id":"cebpf4jnsgd1na2vs0mg"},{"bike_id":"bb8ab43e-d77e-40ca-92f3-39f857d462c7","system_id":"levelo_inurba_marseille","lat":43.29217,"lon":5.36047,"is_reserved":false,"is_disabled":false,"rental_uris":{"android":"levelo://app?vid=bb8ab43e-d77e-40ca-92f3-39f857d462c7","ios":"levelo://app?vid=bb8ab43e-d77e-40ca-92f3-39f857d462c7"},"vehicle_type_id":"4","last_reported":1742976783,"current_range_meters":7200,"station_id":"ce4bhbh2rcd13ifvqeqg","pricing_plan_id":"cebpf4jnsgd1na2vs0mg"},{"bike_id":"1e733dd7-cdce-44a5-b625-3008e053d2e9","system_id":"levelo_inurba_marseille","lat":43.27485,"lon":5.42457,"is_reserved":false,"is_disabled":false,"rental_uris":{"android":"levelo://app?vid=1e733dd7-cdce-44a5-b625-3008e053d2e9","ios":"levelo://app?vid=1e733dd7-cdce-44a5-b625-3008e053d2e9"},"vehicle_type_id":"4","last_reported":1742976783,"current_range_meters":8000,"station_id":"ce4bhn92rcd13ifvqgrg","pricing_plan_id":"cebpf4jnsgd1na2vs0mg"},{"bike_id":"4d1faf41-edb4-4994-8b69-3409a25e59b8","system_id":"levelo_inurba_marseille","lat":43.283489,"lon":5.381028,"is_reserved":false,"is_disabled":false,"rental_uris":{"android":"levelo://app?vid=4d1faf41-edb4-4994-8b69-3409a25e59b8","ios":"levelo://app?vid=4d1faf41-edb4-4994-8b69-3409a25e59b8"},"vehicle_type_id":"4","last_reported":1742976783,"current_range_meters":8000,"station_id":"ce4bh412rcd13ifvqdr0","pricing_plan_id":"cebpf4jnsgd1na2vs0mg"},{"bike_id":"f294d69a-8637-46e9-95b8-3d82151d6376","system_id":"levelo_inurba_marseille","lat":43.27988,"lon":5.41655,"is_reserved":false,"is_disabled":true,"rental_uris":{"android":"levelo://app?vid=f294d69a-8637-46e9-95b8-3d82151d6376","ios":"levelo://app?vid=f294d69a-8637-46e9-95b8-3d82151d6376"},"vehicle_type_id":"4","last_reported":1742976783,"current_range_meters":8000,"station_id":"ce4bho12rcd13ifvqh1g","pricing_plan_id":"cebpf4jnsgd1na2vs0mg"},{"bike_id":"225cbe9d-4f8e-432e-b5e7-cd7e14da2d62","system_id":"levelo_inurba_marseille","lat":43.28163,"lon":5.426518,"is_reserved":false,"is_disabled":false,"rental_uris":{"android":"levelo://app?vid=225cbe9d-4f8e-432e-b5e7-cd7e14da2d62","ios":"levelo://app?vid=225cbe9d-4f8e-432e-b5e7-cd7e14da2d62"},"vehicle_type_id":"4","last_reported":1742976783,"current_range_meters":8000,"station_id":"ce4bhnh2rcd13ifvqgug","pricing_plan_id":"cebpf4jnsgd1na2vs0mg"},{"bike_id":"59711038-6ef9-427e-989c-7fa605950be8","system_id":"levelo_inurba_marseille","lat":43.30286,"lon":5.37706,"is_reserved":false,"is_disabled":false,"rental_uris":{"android":"levelo://app?vid=59711038-6ef9-427e-989c-7fa605950be8","ios":"levelo://app?vid=59711038-6ef9-427e-989c-7fa605950be8"},"vehicle_type_id":"4","last_reported":1742976783,"current_range_meters":8000,"station_id":"ce4bguh2rcd13ifvqcj0","pricing_plan_id":"cebpf4jnsgd1na2vs0mg"},{"bike_id":"6633349b-54ae-41b8-88d5-61ec5d012302","system_id":"levelo_inurba_marseille","lat":43.32109,"lon":5.36764,"is_reserved":false,"is_disabled":false,"rental_uris":{"android":"levelo://app?vid=6633349b-54ae-41b8-88d5-61ec5d012302","ios":"levelo://app?vid=6633349b-54ae-41b8-88d5-61ec5d012302"},"vehicle_type_id":"4","last_reported":1742976783,"current_range_meters":8000,"station_id":"ce4bhrh2rcd13ifvqhug","pricing_plan_id":"cebpf4jnsgd1na2vs0mg"},{"bike_id":"0c9cada4-2764-4013-a528-15089818cb84","system_id":"levelo_inurba_marseille","lat":43.277538,"lon":5.411485,"is_reserved":false,"is_disabled":false,"rental_uris":{"android":"levelo://app?vid=0c9cada4-2764-4013-a528-15089818cb84","ios":"levelo://app?vid=0c9cada4-2764-4013-a528-15089818cb84"},"vehicle_type_id":"4","last_reported":1742976783,"current_range_meters":8000,"station_id":"","pricing_plan_id":"cebpf4jnsgd1na2vs0mg"},{"bike_id":"5947461e-f1d9-4b8a-a16b-079c1e611686","system_id":"levelo_inurba_marseille","lat":43.282707,"lon":5.350707,"is_reserved":false,"is_disabled":true,"rental_uris":{"android":"levelo://app?vid=5947461e-f1d9-4b8a-a16b-079c1e611686","ios":"levelo://app?vid=5947461e-f1d9-4b8a-a16b-079c1e611686"},"vehicle_type_id":"4","last_reported":1742976783,"current_range_meters":8000,"station_id":"ce4bhbp2rcd13ifvqerg","pricing_plan_id":"cebpf4jnsgd1na2vs0mg"},{"bike_id":"74406c35-ee35-437d-be26-2d7711378046","system_id":"levelo_inurba_marseille","lat":43.32372,"lon":5.3681,"is_reserved":false,"is_disabled":false,"rental_uris":{"android":"levelo://app?vid=74406c35-ee35-437d-be26-2d7711378046","ios":"levelo://app?vid=74406c35-ee35-437d-be26-2d7711378046"},"vehicle_type_id":"4","last_reported":1742976783,"current_range_meters":8000,"station_id":"ce4bhsh2rcd13ifvqi2g","pricing_plan_id":"cebpf4jnsgd1na2vs0mg"},{"bike_id":"11438d8e-2d0f-46ba-9f5d-f2d8f9f5eadf","system_id":"levelo_inurba_marseille","lat":43.25078,"lon":5.39533,"is_reserved":false,"is_disabled":false,"rental_uris":{"android":"levelo://app?vid=11438d8e-2d0f-46ba-9f5d-f2d8f9f5eadf","ios":"levelo://app?vid=11438d8e-2d0f-46ba-9f5d-f2d8f9f5eadf"},"vehicle_type_id":"4","last_reported":1742976783,"current_range_meters":8000,"station_id":"ce4bhm12rcd13ifvqgkg","pricing_plan_id":"cebpf4jnsgd1na2vs0mg"},{"bike_id":"74ed019f-51e9-4336-8496-4c595e435551","system_id":"levelo_inurba_marseille","lat":43.28276,"lon":5.35083,"is_reserved":false,"is_disabled":false,"rental_uris":{"android":"levelo://app?vid=74ed019f-51e9-4336-8496-4c595e435551","ios":"levelo://app?vid=74ed019f-51e9-4336-8496-4c595e435551"},"vehicle_type_id":"4","last_reported":1742976783,"current_range_meters":8000,"station_id":"ce4bhbp2rcd13ifvqerg","pricing_plan_id":"cebpf4jnsgd1na2vs0mg"},{"bike_id":"8c5e09de-c9ee-4ecd-8bf7-a9da954099c1","system_id":"levelo_inurba_marseille","lat":43.27981,"lon":5.40018,"is_reserved":false,"is_disabled":false,"rental_uris":{"android":"levelo://app?vid=8c5e09de-c9ee-4ecd-8bf7-a9da954099c1","ios":"levelo://app?vid=8c5e09de-c9ee-4ecd-8bf7-a9da954099c1"},"vehicle_type_id":"4","last_reported":1742976783,"current_range_meters":8000,"station_id":"ce4bho92rcd13ifvqh4g","pricing_plan_id":"cebpf4jnsgd1na2vs0mg"},{"bike_id":"30d2fbca-239f-49cd-b89b-17b0ba382ee0","system_id":"levelo_inurba_marseille","lat":43.24078,"lon":5.37756,"is_reserved":false,"is_disabled":false,"rental_uris":{"android":"levelo://app?vid=30d2fbca-239f-49cd-b89b-17b0ba382ee0","ios":"levelo://app?vid=30d2fbca-239f-49cd-b89b-17b0ba382ee0"},"vehicle_type_id":"4","last_reported":1742976783,"current_range_meters":8000,"station_id":"ce4bhnp2rcd13ifvqgvg","pricing_plan_id":"cebpf4jnsgd1na2vs0mg"},{"bike_id":"d8e407df-bc76-4856-b2d2-07a58f6ce4af","system_id":"levelo_inurba_marseille","lat":43.24066,"lon":5.37758,"is_reserved":false,"is_disabled":false,"rental_uris":{"android":"levelo://app?vid=d8e407df-bc76-4856-b2d2-07a58f6ce4af","ios":"levelo://app?vid=d8e407df-bc76-4856-b2d2-07a58f6ce4af"},"vehicle_type_id":"4","last_reported":1742976783,"current_range_meters":8000,"station_id":"ce4bhnp2rcd13ifvqgvg","pricing_plan_id":"cebpf4jnsgd1na2vs0mg"},{"bike_id":"0918998b-b360-401f-aa04-ed627df86fa6","system_id":"levelo_inurba_marseille","lat":43.29014,"lon":5.3865,"is_reserved":false,"is_disabled":false,"rental_uris":{"android":"levelo://app?vid=0918998b-b360-401f-aa04-ed627df86fa6","ios":"levelo://app?vid=0918998b-b360-401f-aa04-ed627df86fa6"},"vehicle_type_id":"4","last_reported":1742976783,"current_range_meters":7200,"station_id":"ce4bh4p2rcd13ifvqe0g","pricing_plan_id":"cebpf4jnsgd1na2vs0mg"},{"bike_id":"77823725-c761-49bc-902c-64c32b686ae7","system_id":"levelo_inurba_marseille","lat":43.230562,"lon":5.354907,"is_reserved":false,"is_disabled":false,"rental_uris":{"android":"levelo://app?vid=77823725-c761-49bc-902c-64c32b686ae7","ios":"levelo://app?vid=77823725-c761-49bc-902c-64c32b686ae7"},"vehicle_type_id":"4","last_reported":1742976783,"current_range_meters":8000,"station_id":"cpo3342slgdg3j2ifvpg","pricing_plan_id":"cebpf4jnsgd1na2vs0mg"},{"bike_id":"23b433e7-d6f0-49f4-a2b6-908a39c14fc8","system_id":"levelo_inurba_marseille","lat":43.30534,"lon":5.36545,"is_reserved":false,"is_disabled":false,"rental_uris":{"android":"levelo://app?vid=23b433e7-d6f0-49f4-a2b6-908a39c14fc8","ios":"levelo://app?vid=23b433e7-d6f0-49f4-a2b6-908a39c14fc8"},"vehicle_type_id":"4","last_reported":1742976783,"current_range_meters":8000,"station_id":"ce4bgs12rcd13ifvqcag","pricing_plan_id":"cebpf4jnsgd1na2vs0mg"},{"bike_id":"89e75ed9-7f20-48f7-ad37-e0033e47c633","system_id":"levelo_inurba_marseille","lat":43.246549,"lon":5.388816,"is_reserved":false,"is_disabled":false,"rental_uris":{"android":"levelo://app?vid=89e75ed9-7f20-48f7-ad37-e0033e47c633","ios":"levelo://app?vid=89e75ed9-7f20-48f7-ad37-e0033e47c633"},"vehicle_type_id":"4","last_reported":1742976783,"current_range_meters":8000,"station_id":"ce4bhg12rcd13ifvqf60","pricing_plan_id":"cebpf4jnsgd1na2vs0mg"},{"bike_id":"5eb0e2f0-8111-4362-8b3d-f072323b11aa","system_id":"levelo_inurba_marseille","lat":43.286,"lon":5.37058,"is_reserved":false,"is_disabled":false,"rental_uris":{"android":"levelo://app?vid=5eb0e2f0-8111-4362-8b3d-f072323b11aa","ios":"levelo://app?vid=5eb0e2f0-8111-4362-8b3d-f072323b11aa"},"vehicle_type_id":"4","last_reported":1742976783,"current_range_meters":8400,"station_id":"ce4bht12rcd13ifvqi60","pricing_plan_id":"cebpf4jnsgd1na2vs0mg"},{"bike_id":"fedf1202-2849-44e7-ad1f-8660a08adb48","system_id":"levelo_inurba_marseille","lat":43.30182,"lon":5.36632,"is_reserved":false,"is_disabled":false,"rental_uris":{"android":"levelo://app?vid=fedf1202-2849-44e7-ad1f-8660a08adb48","ios":"levelo://app?vid=fedf1202-2849-44e7-ad1f-8660a08adb48"},"vehicle_type_id":"4","last_reported":1742976783,"current_range_meters":8400,"station_id":"ce4bgrh2rcd13ifvqc8g","pricing_plan_id":"cebpf4jnsgd1na2vs0mg"},{"bike_id":"c5a53012-3ad4-48af-9734-3592df1799d5","system_id":"levelo_inurba_marseille","lat":43.23196,"lon":5.35544,"is_reserved":false,"is_disabled":false,"rental_uris":{"android":"levelo://app?vid=c5a53012-3ad4-48af-9734-3592df1799d5","ios":"levelo://app?vid=c5a53012-3ad4-48af-9734-3592df1799d5"},"vehicle_type_id":"4","last_reported":1742976783,"current_range_meters":8400,"station_id":"ce4bhu92rcd13ifvqi70","pricing_plan_id":"cebpf4jnsgd1na2vs0mg"},{"bike_id":"f41e022b-69b2-4d67-ac3a-fec74b700e03","system_id":"levelo_inurba_marseille","lat":43.29424,"lon":5.39787,"is_reserved":false,"is_disabled":false,"rental_uris":{"android":"levelo://app?vid=f41e022b-69b2-4d67-ac3a-fec74b700e03","ios":"levelo://app?vid=f41e022b-69b2-4d67-ac3a-fec74b700e03"},"vehicle_type_id":"4","last_reported":1742976783,"current_range_meters":8000,"station_id":"ce4bh3h2rcd13ifvqdo0","pricing_plan_id":"cebpf4jnsgd1na2vs0mg"},{"bike_id":"e3b71eec-a3d0-4b61-8d59-4c56fb14f990","system_id":"levelo_inurba_marseille","lat":43.27503,"lon":5.42448,"is_reserved":false,"is_disabled":false,"rental_uris":{"android":"levelo://app?vid=e3b71eec-a3d0-4b61-8d59-4c56fb14f990","ios":"levelo://app?vid=e3b71eec-a3d0-4b61-8d59-4c56fb14f990"},"vehicle_type_id":"4","last_reported":1742976783,"current_range_meters":8400,"station_id":"ce4bhn92rcd13ifvqgrg","pricing_plan_id":"cebpf4jnsgd1na2vs0mg"},{"bike_id":"3913544b-45c9-415b-aa4c-ba5e7f19b326","system_id":"levelo_inurba_marseille","lat":43.30124,"lon":5.3877,"is_reserved":false,"is_disabled":false,"rental_uris":{"android":"levelo://app?vid=3913544b-45c9-415b-aa4c-ba5e7f19b326","ios":"levelo://app?vid=3913544b-45c9-415b-aa4c-ba5e7f19b326"},"vehicle_type_id":"4","last_reported":1742976783,"current_range_meters":8400,"station_id":"ce4bghh2rcd13ifvqb60","pricing_plan_id":"cebpf4jnsgd1na2vs0mg"},{"bike_id":"16e3790f-41b6-400e-8d88-6751ca433300","system_id":"levelo_inurba_marseille","lat":43.25009,"lon":5.38974,"is_reserved":false,"is_disabled":false,"rental_uris":{"android":"levelo://app?vid=16e3790f-41b6-400e-8d88-6751ca433300","ios":"levelo://app?vid=16e3790f-41b6-400e-8d88-6751ca433300"},"vehicle_type_id":"4","last_reported":1742976783,"current_range_meters":8400,"station_id":"ce4bhgp2rcd13ifvqfd0","pricing_plan_id":"cebpf4jnsgd1na2vs0mg"},{"bike_id":"1baa9813-6397-4b25-a139-bb518e2b31eb","system_id":"levelo_inurba_marseille","lat":43.29222,"lon":5.3606,"is_reserved":false,"is_disabled":false,"rental_uris":{"android":"levelo://app?vid=1baa9813-6397-4b25-a139-bb518e2b31eb","ios":"levelo://app?vid=1baa9813-6397-4b25-a139-bb518e2b31eb"},"vehicle_type_id":"4","last_reported":1742976783,"current_range_meters":8400,"station_id":"ce4bhbh2rcd13ifvqeqg","pricing_plan_id":"cebpf4jnsgd1na2vs0mg"},{"bike_id":"82efc435-7eec-4dea-b095-375df48a06d3","system_id":"levelo_inurba_marseille","lat":43.2512,"lon":5.40303,"is_reserved":false,"is_disabled":false,"rental_uris":{"android":"levelo://app?vid=82efc435-7eec-4dea-b095-375df48a06d3","ios":"levelo://app?vid=82efc435-7eec-4dea-b095-375df48a06d3"},"vehicle_type_id":"4","last_reported":1742976783,"current_range_meters":8400,"station_id":"ce4bhlh2rcd13ifvqgig","pricing_plan_id":"cebpf4jnsgd1na2vs0mg"},{"bike_id":"8046ef72-cb0a-400d-b1d8-b0250c67a0d7","system_id":"levelo_inurba_marseille","lat":43.24653,"lon":5.38164,"is_reserved":false,"is_disabled":false,"rental_uris":{"android":"levelo://app?vid=8046ef72-cb0a-400d-b1d8-b0250c67a0d7","ios":"levelo://app?vid=8046ef72-cb0a-400d-b1d8-b0250c67a0d7"},"vehicle_type_id":"4","last_reported":1742976783,"current_range_meters":8400,"station_id":"ce4bhih2rcd13ifvqfr0","pricing_plan_id":"cebpf4jnsgd1na2vs0mg"},{"bike_id":"c6e3452b-f8d0-48b5-b208-01d642929070","system_id":"levelo_inurba_marseille","lat":43.30533,"lon":5.36715,"is_reserved":false,"is_disabled":false,"rental_uris":{"android":"levelo://app?vid=c6e3452b-f8d0-48b5-b208-01d642929070","ios":"levelo://app?vid=c6e3452b-f8d0-48b5-b208-01d642929070"},"vehicle_type_id":"4","last_reported":1742976783,"current_range_meters":8400,"station_id":"ce4bgrp2rcd13ifvqc9g","pricing_plan_id":"cebpf4jnsgd1na2vs0mg"},{"bike_id":"c16ec384-cc35-4949-bf8a-e4271ebe9984","system_id":"levelo_inurba_marseille","lat":43.31371,"lon":5.36758,"is_reserved":false,"is_disabled":false,"rental_uris":{"android":"levelo://app?vid=c16ec384-cc35-4949-bf8a-e4271ebe9984","ios":"levelo://app?vid=c16ec384-cc35-4949-bf8a-e4271ebe9984"},"vehicle_type_id":"4","last_reported":1742976783,"current_range_meters":8400,"station_id":"","pricing_plan_id":"cebpf4jnsgd1na2vs0mg"},{"bike_id":"954aae59-936e-434a-8098-b80f265b104a","system_id":"levelo_inurba_marseille","lat":43.26959,"lon":5.40246,"is_reserved":false,"is_disabled":false,"rental_uris":{"android":"levelo://app?vid=954aae59-936e-434a-8098-b80f265b104a","ios":"levelo://app?vid=954aae59-936e-434a-8098-b80f265b104a"},"vehicle_type_id":"4","last_reported":1742976783,"current_range_meters":8400,"station_id":"cjm6bp8fraef2m0cb0m0","pricing_plan_id":"cebpf4jnsgd1na2vs0mg"},{"bike_id":"6998abca-5316-4de7-9281-f1119ffbd138","system_id":"levelo_inurba_marseille","lat":43.30539,"lon":5.3654,"is_reserved":false,"is_disabled":false,"rental_uris":{"android":"levelo://app?vid=6998abca-5316-4de7-9281-f1119ffbd138","ios":"levelo://app?vid=6998abca-5316-4de7-9281-f1119ffbd138"},"vehicle_type_id":"4","last_reported":1742976783,"current_range_meters":8400,"station_id":"ce4bgs12rcd13ifvqcag","pricing_plan_id":"cebpf4jnsgd1na2vs0mg"},{"bike_id":"95c6e6c3-c323-41c6-b7aa-8355b08c216e","system_id":"levelo_inurba_marseille","lat":43.31692,"lon":5.40467,"is_reserved":false,"is_disabled":false,"rental_uris":{"android":"levelo://app?vid=95c6e6c3-c323-41c6-b7aa-8355b08c216e","ios":"levelo://app?vid=95c6e6c3-c323-41c6-b7aa-8355b08c216e"},"vehicle_type_id":"4","last_reported":1742976783,"current_range_meters":8400,"station_id":"ce4bh012rcd13ifvqd00","pricing_plan_id":"cebpf4jnsgd1na2vs0mg"},{"bike_id":"5b9797a2-bda3-4021-8e6d-a146c6aa57fd","system_id":"levelo_inurba_marseille","lat":43.28439,"lon":5.39185,"is_reserved":false,"is_disabled":false,"rental_uris":{"android":"levelo://app?vid=5b9797a2-bda3-4021-8e6d-a146c6aa57fd","ios":"levelo://app?vid=5b9797a2-bda3-4021-8e6d-a146c6aa57fd"},"vehicle_type_id":"4","last_reported":1742976783,"current_range_meters":8800,"station_id":"ce4bhoh2rcd13ifvqh5g","pricing_plan_id":"cebpf4jnsgd1na2vs0mg"},{"bike_id":"1c07003a-3333-410f-bd87-aa08fc3ffd08","system_id":"levelo_inurba_marseille","lat":43.27169,"lon":5.40994,"is_reserved":false,"is_disabled":false,"rental_uris":{"android":"levelo://app?vid=1c07003a-3333-410f-bd87-aa08fc3ffd08","ios":"levelo://app?vid=1c07003a-3333-410f-bd87-aa08fc3ffd08"},"vehicle_type_id":"4","last_reported":1742976783,"current_range_meters":8800,"station_id":"ce4bhl12rcd13ifvqgf0","pricing_plan_id":"cebpf4jnsgd1na2vs0mg"},{"bike_id":"6c1623d8-7c1c-4afb-9289-83b9abae8919","system_id":"levelo_inurba_marseille","lat":43.2407,"lon":5.37756,"is_reserved":false,"is_disabled":false,"rental_uris":{"android":"levelo://app?vid=6c1623d8-7c1c-4afb-9289-83b9abae8919","ios":"levelo://app?vid=6c1623d8-7c1c-4afb-9289-83b9abae8919"},"vehicle_type_id":"4","last_reported":1742976783,"current_range_meters":8800,"station_id":"ce4bhnp2rcd13ifvqgvg","pricing_plan_id":"cebpf4jnsgd1na2vs0mg"},{"bike_id":"f9ccb95c-1e1e-4730-9226-b94025c62f3e","system_id":"levelo_inurba_marseille","lat":43.30544,"lon":5.36548,"is_reserved":false,"is_disabled":false,"rental_uris":{"android":"levelo://app?vid=f9ccb95c-1e1e-4730-9226-b94025c62f3e","ios":"levelo://app?vid=f9ccb95c-1e1e-4730-9226-b94025c62f3e"},"vehicle_type_id":"4","last_reported":1742976783,"current_range_meters":8800,"station_id":"ce4bgs12rcd13ifvqcag","pricing_plan_id":"cebpf4jnsgd1na2vs0mg"},{"bike_id":"38351309-2dec-417c-a558-74c8bc991036","system_id":"levelo_inurba_marseille","lat":43.30806,"lon":5.4064,"is_reserved":false,"is_disabled":true,"rental_uris":{"android":"levelo://app?vid=38351309-2dec-417c-a558-74c8bc991036","ios":"levelo://app?vid=38351309-2dec-417c-a558-74c8bc991036"},"vehicle_type_id":"4","last_reported":1742976783,"current_range_meters":8800,"station_id":"","pricing_plan_id":"cebpf4jnsgd1na2vs0mg"},{"bike_id":"407a8141-59c8-4ce0-bd40-6deb4e5aec1d","system_id":"levelo_inurba_marseille","lat":43.25943,"lon":5.40898,"is_reserved":false,"is_disabled":false,"rental_uris":{"android":"levelo://app?vid=407a8141-59c8-4ce0-bd40-6deb4e5aec1d","ios":"levelo://app?vid=407a8141-59c8-4ce0-bd40-6deb4e5aec1d"},"vehicle_type_id":"4","last_reported":1742976783,"current_range_meters":8800,"station_id":"ce4bhm92rcd13ifvqglg","pricing_plan_id":"cebpf4jnsgd1na2vs0mg"},{"bike_id":"b552983c-06ba-4b69-a9c7-29e216a38c4c","system_id":"levelo_inurba_marseille","lat":43.30948,"lon":5.3903,"is_reserved":false,"is_disabled":false,"rental_uris":{"android":"levelo://app?vid=b552983c-06ba-4b69-a9c7-29e216a38c4c","ios":"levelo://app?vid=b552983c-06ba-4b69-a9c7-29e216a38c4c"},"vehicle_type_id":"4","last_reported":1742976783,"current_range_meters":8800,"station_id":"ce4bgup2rcd13ifvqco0","pricing_plan_id":"cebpf4jnsgd1na2vs0mg"},{"bike_id":"b5e57696-a120-4c97-a0b1-cb108aae85e3","system_id":"levelo_inurba_marseille","lat":43.23154,"lon":5.43704,"is_reserved":false,"is_disabled":false,"rental_uris":{"android":"levelo://app?vid=b5e57696-a120-4c97-a0b1-cb108aae85e3","ios":"levelo://app?vid=b5e57696-a120-4c97-a0b1-cb108aae85e3"},"vehicle_type_id":"4","last_reported":1742976783,"current_range_meters":8800,"station_id":"ce4bhmp2rcd13ifvqgog","pricing_plan_id":"cebpf4jnsgd1na2vs0mg"},{"bike_id":"d0c8e3fa-526b-4ef5-9b97-02151390c14f","system_id":"levelo_inurba_marseille","lat":43.231492,"lon":5.437151,"is_reserved":false,"is_disabled":false,"rental_uris":{"android":"levelo://app?vid=d0c8e3fa-526b-4ef5-9b97-02151390c14f","ios":"levelo://app?vid=d0c8e3fa-526b-4ef5-9b97-02151390c14f"},"vehicle_type_id":"4","last_reported":1742976783,"current_range_meters":8800,"station_id":"ce4bhmp2rcd13ifvqgog","pricing_plan_id":"cebpf4jnsgd1na2vs0mg"},{"bike_id":"0212deb9-29f3-4a07-9e8b-5135c180a147","system_id":"levelo_inurba_marseille","lat":43.301383,"lon":5.380934,"is_reserved":false,"is_disabled":false,"rental_uris":{"android":"levelo://app?vid=0212deb9-29f3-4a07-9e8b-5135c180a147","ios":"levelo://app?vid=0212deb9-29f3-4a07-9e8b-5135c180a147"},"vehicle_type_id":"4","last_reported":1742976783,"current_range_meters":9200,"station_id":"ce4bgjp2rcd13ifvqbh0","pricing_plan_id":"cebpf4jnsgd1na2vs0mg"},{"bike_id":"c49c8986-30f2-4efb-b4f1-0fe63f1c68d0","system_id":"levelo_inurba_marseille","lat":43.31221,"lon":5.36868,"is_reserved":false,"is_disabled":false,"rental_uris":{"android":"levelo://app?vid=c49c8986-30f2-4efb-b4f1-0fe63f1c68d0","ios":"levelo://app?vid=c49c8986-30f2-4efb-b4f1-0fe63f1c68d0"},"vehicle_type_id":"4","last_reported":1742976783,"current_range_meters":9200,"station_id":"ce4bgl92rcd13ifvqbq0","pricing_plan_id":"cebpf4jnsgd1na2vs0mg"},{"bike_id":"d1fde506-09f4-401a-acf4-096f6a273448","system_id":"levelo_inurba_marseille","lat":43.27306,"lon":5.39088,"is_reserved":false,"is_disabled":false,"rental_uris":{"android":"levelo://app?vid=d1fde506-09f4-401a-acf4-096f6a273448","ios":"levelo://app?vid=d1fde506-09f4-401a-acf4-096f6a273448"},"vehicle_type_id":"4","last_reported":1742976783,"current_range_meters":9200,"station_id":"ce4bhgp2rcd13ifvqfe0","pricing_plan_id":"cebpf4jnsgd1na2vs0mg"},{"bike_id":"3082883e-716b-4940-977a-23703e6964ed","system_id":"levelo_inurba_marseille","lat":43.31339,"lon":5.397,"is_reserved":false,"is_disabled":true,"rental_uris":{"android":"levelo://app?vid=3082883e-716b-4940-977a-23703e6964ed","ios":"levelo://app?vid=3082883e-716b-4940-977a-23703e6964ed"},"vehicle_type_id":"4","last_reported":1742976783,"current_range_meters":9200,"station_id":"ce4bgvp2rcd13ifvqcu0","pricing_plan_id":"cebpf4jnsgd1na2vs0mg"},{"bike_id":"881281f2-aea4-4daf-95f0-dd8ce97ccae7","system_id":"levelo_inurba_marseille","lat":43.28436,"lon":5.39198,"is_reserved":false,"is_disabled":false,"rental_uris":{"android":"levelo://app?vid=881281f2-aea4-4daf-95f0-dd8ce97ccae7","ios":"levelo://app?vid=881281f2-aea4-4daf-95f0-dd8ce97ccae7"},"vehicle_type_id":"4","last_reported":1742976783,"current_range_meters":9200,"station_id":"ce4bhoh2rcd13ifvqh5g","pricing_plan_id":"cebpf4jnsgd1na2vs0mg"},{"bike_id":"6bd82c37-6406-4469-9def-05b97b777f5e","system_id":"levelo_inurba_marseille","lat":43.21858,"lon":5.42024,"is_reserved":false,"is_disabled":false,"rental_uris":{"android":"levelo://app?vid=6bd82c37-6406-4469-9def-05b97b777f5e","ios":"levelo://app?vid=6bd82c37-6406-4469-9def-05b97b777f5e"},"vehicle_type_id":"4","last_reported":1742976783,"current_range_meters":9200,"station_id":"","pricing_plan_id":"cebpf4jnsgd1na2vs0mg"},{"bike_id":"c7cce9c4-ac3a-4d33-8fbb-f1f2dd369bd0","system_id":"levelo_inurba_marseille","lat":43.29925,"lon":5.37448,"is_reserved":false,"is_disabled":false,"rental_uris":{"android":"levelo://app?vid=c7cce9c4-ac3a-4d33-8fbb-f1f2dd369bd0","ios":"levelo://app?vid=c7cce9c4-ac3a-4d33-8fbb-f1f2dd369bd0"},"vehicle_type_id":"4","last_reported":1742976783,"current_range_meters":9200,"station_id":"ce4bgjh2rcd13ifvqbg0","pricing_plan_id":"cebpf4jnsgd1na2vs0mg"},{"bike_id":"de274171-f8c7-4497-894f-fcd4b0041ccc","system_id":"levelo_inurba_marseille","lat":43.29034,"lon":5.39973,"is_reserved":false,"is_disabled":false,"rental_uris":{"android":"levelo://app?vid=de274171-f8c7-4497-894f-fcd4b0041ccc","ios":"levelo://app?vid=de274171-f8c7-4497-894f-fcd4b0041ccc"},"vehicle_type_id":"4","last_reported":1742976783,"current_range_meters":9200,"station_id":"ce4bh392rcd13ifvqdm0","pricing_plan_id":"cebpf4jnsgd1na2vs0mg"},{"bike_id":"a2052c52-cd84-4f87-b704-4dd37901bb75","system_id":"levelo_inurba_marseille","lat":43.28464,"lon":5.35888,"is_reserved":false,"is_disabled":true,"rental_uris":{"android":"levelo://app?vid=a2052c52-cd84-4f87-b704-4dd37901bb75","ios":"levelo://app?vid=a2052c52-cd84-4f87-b704-4dd37901bb75"},"vehicle_type_id":"4","last_reported":1742976783,"current_range_meters":9600,"station_id":"ce4bhah2rcd13ifvqei0","pricing_plan_id":"cebpf4jnsgd1na2vs0mg"},{"bike_id":"1c058c5f-2dec-42f5-9437-366d59841df3","system_id":"levelo_inurba_marseille","lat":43.309105,"lon":5.368428,"is_reserved":false,"is_disabled":false,"rental_uris":{"android":"levelo://app?vid=1c058c5f-2dec-42f5-9437-366d59841df3","ios":"levelo://app?vid=1c058c5f-2dec-42f5-9437-366d59841df3"},"vehicle_type_id":"4","last_reported":1742976783,"current_range_meters":9600,"station_id":"ce4bgn92rcd13ifvqbvg","pricing_plan_id":"cebpf4jnsgd1na2vs0mg"},{"bike_id":"bd518952-6d41-4e80-b474-f72c5dfa6ad8","system_id":"levelo_inurba_marseille","lat":43.26958,"lon":5.40301,"is_reserved":false,"is_disabled":true,"rental_uris":{"android":"levelo://app?vid=bd518952-6d41-4e80-b474-f72c5dfa6ad8","ios":"levelo://app?vid=bd518952-6d41-4e80-b474-f72c5dfa6ad8"},"vehicle_type_id":"4","last_reported":1742976783,"current_range_meters":9600,"station_id":"cjm6bp8fraef2m0cb0m0","pricing_plan_id":"cebpf4jnsgd1na2vs0mg"},{"bike_id":"dda234f8-8062-40a8-ad65-b0bfed551472","system_id":"levelo_inurba_marseille","lat":43.25006,"lon":5.38921,"is_reserved":false,"is_disabled":false,"rental_uris":{"android":"levelo://app?vid=dda234f8-8062-40a8-ad65-b0bfed551472","ios":"levelo://app?vid=dda234f8-8062-40a8-ad65-b0bfed551472"},"vehicle_type_id":"4","last_reported":1742976783,"current_range_meters":9200,"station_id":"ce4bhgp2rcd13ifvqfd0","pricing_plan_id":"cebpf4jnsgd1na2vs0mg"},{"bike_id":"ee28380f-2566-499f-8ab8-5a75cb1ed72f","system_id":"levelo_inurba_marseille","lat":43.288329,"lon":5.393258,"is_reserved":false,"is_disabled":true,"rental_uris":{"android":"levelo://app?vid=ee28380f-2566-499f-8ab8-5a75cb1ed72f","ios":"levelo://app?vid=ee28380f-2566-499f-8ab8-5a75cb1ed72f"},"vehicle_type_id":"4","last_reported":1742976783,"current_range_meters":9600,"station_id":"","pricing_plan_id":"cebpf4jnsgd1na2vs0mg"},{"bike_id":"fa14eb3a-1fdb-4bc8-8092-af468e8ded60","system_id":"levelo_inurba_marseille","lat":43.27992,"lon":5.40036,"is_reserved":false,"is_disabled":false,"rental_uris":{"android":"levelo://app?vid=fa14eb3a-1fdb-4bc8-8092-af468e8ded60","ios":"levelo://app?vid=fa14eb3a-1fdb-4bc8-8092-af468e8ded60"},"vehicle_type_id":"4","last_reported":1742976783,"current_range_meters":9600,"station_id":"ce4bho92rcd13ifvqh4g","pricing_plan_id":"cebpf4jnsgd1na2vs0mg"},{"bike_id":"68254b2f-a8ae-4baa-bc07-7b79f85032f3","system_id":"levelo_inurba_marseille","lat":43.24085,"lon":5.37751,"is_reserved":false,"is_disabled":false,"rental_uris":{"android":"levelo://app?vid=68254b2f-a8ae-4baa-bc07-7b79f85032f3","ios":"levelo://app?vid=68254b2f-a8ae-4baa-bc07-7b79f85032f3"},"vehicle_type_id":"4","last_reported":1742976783,"current_range_meters":9600,"station_id":"ce4bhnp2rcd13ifvqgvg","pricing_plan_id":"cebpf4jnsgd1na2vs0mg"},{"bike_id":"c4b88c2e-98e3-4499-8e1f-4f4d33a56e5a","system_id":"levelo_inurba_marseille","lat":43.28429,"lon":5.34989,"is_reserved":false,"is_disabled":true,"rental_uris":{"android":"levelo://app?vid=c4b88c2e-98e3-4499-8e1f-4f4d33a56e5a","ios":"levelo://app?vid=c4b88c2e-98e3-4499-8e1f-4f4d33a56e5a"},"vehicle_type_id":"4","last_reported":1742976783,"current_range_meters":9600,"station_id":"ce4bhbh2rcd13ifvqepg","pricing_plan_id":"cebpf4jnsgd1na2vs0mg"},{"bike_id":"ab3885e5-48b8-4545-bd27-28094bc5e2e1","system_id":"levelo_inurba_marseille","lat":43.30136,"lon":5.37399,"is_reserved":false,"is_disabled":false,"rental_uris":{"android":"levelo://app?vid=ab3885e5-48b8-4545-bd27-28094bc5e2e1","ios":"levelo://app?vid=ab3885e5-48b8-4545-bd27-28094bc5e2e1"},"vehicle_type_id":"4","last_reported":1742976783,"current_range_meters":10000,"station_id":"ce4bgs92rcd13ifvqcc0","pricing_plan_id":"cebpf4jnsgd1na2vs0mg"},{"bike_id":"87dfd15a-95ae-4bee-80b6-7386fb5a180f","system_id":"levelo_inurba_marseille","lat":43.24176,"lon":5.3972,"is_reserved":false,"is_disabled":false,"rental_uris":{"android":"levelo://app?vid=87dfd15a-95ae-4bee-80b6-7386fb5a180f","ios":"levelo://app?vid=87dfd15a-95ae-4bee-80b6-7386fb5a180f"},"vehicle_type_id":"4","last_reported":1742976783,"current_range_meters":10000,"station_id":"ce4bhn12rcd13ifvqgpg","pricing_plan_id":"cebpf4jnsgd1na2vs0mg"},{"bike_id":"0eedf9a7-c32c-4bae-a37f-32439201ac09","system_id":"levelo_inurba_marseille","lat":43.28875,"lon":5.39341,"is_reserved":false,"is_disabled":true,"rental_uris":{"android":"levelo://app?vid=0eedf9a7-c32c-4bae-a37f-32439201ac09","ios":"levelo://app?vid=0eedf9a7-c32c-4bae-a37f-32439201ac09"},"vehicle_type_id":"4","last_reported":1742976783,"current_range_meters":10000,"station_id":"ce4bh2p2rcd13ifvqdi0","pricing_plan_id":"cebpf4jnsgd1na2vs0mg"},{"bike_id":"8a9602e7-e6f2-4dac-845f-cea224e49dd5","system_id":"levelo_inurba_marseille","lat":43.23072,"lon":5.35495,"is_reserved":false,"is_disabled":false,"rental_uris":{"android":"levelo://app?vid=8a9602e7-e6f2-4dac-845f-cea224e49dd5","ios":"levelo://app?vid=8a9602e7-e6f2-4dac-845f-cea224e49dd5"},"vehicle_type_id":"4","last_reported":1742976783,"current_range_meters":10000,"station_id":"cpo3342slgdg3j2ifvpg","pricing_plan_id":"cebpf4jnsgd1na2vs0mg"},{"bike_id":"7eea912f-50b3-4c30-a1b4-1631b75fef96","system_id":"levelo_inurba_marseille","lat":43.29006,"lon":5.3783,"is_reserved":false,"is_disabled":false,"rental_uris":{"android":"levelo://app?vid=7eea912f-50b3-4c30-a1b4-1631b75fef96","ios":"levelo://app?vid=7eea912f-50b3-4c30-a1b4-1631b75fef96"},"vehicle_type_id":"4","last_reported":1742976783,"current_range_meters":10000,"station_id":"ce4bh9p2rcd13ifvqed0","pricing_plan_id":"cebpf4jnsgd1na2vs0mg"},{"bike_id":"01cbffb0-3fb0-4769-96f8-4c2dd20b8277","system_id":"levelo_inurba_marseille","lat":43.28513,"lon":5.40563,"is_reserved":false,"is_disabled":true,"rental_uris":{"android":"levelo://app?vid=01cbffb0-3fb0-4769-96f8-4c2dd20b8277","ios":"levelo://app?vid=01cbffb0-3fb0-4769-96f8-4c2dd20b8277"},"vehicle_type_id":"4","last_reported":1742976783,"current_range_meters":10000,"station_id":"","pricing_plan_id":"cebpf4jnsgd1na2vs0mg"},{"bike_id":"da43d894-069e-486e-a738-14255c3635ad","system_id":"levelo_inurba_marseille","lat":43.260579,"lon":5.393939,"is_reserved":false,"is_disabled":false,"rental_uris":{"android":"levelo://app?vid=da43d894-069e-486e-a738-14255c3635ad","ios":"levelo://app?vid=da43d894-069e-486e-a738-14255c3635ad"},"vehicle_type_id":"4","last_reported":1742976783,"current_range_meters":10000,"station_id":"ce4bhh92rcd13ifvqfj0","pricing_plan_id":"cebpf4jnsgd1na2vs0mg"},{"bike_id":"adfc2b22-eee6-4a96-b93d-527dea11f419","system_id":"levelo_inurba_marseille","lat":43.29967,"lon":5.38491,"is_reserved":false,"is_disabled":false,"rental_uris":{"android":"levelo://app?vid=adfc2b22-eee6-4a96-b93d-527dea11f419","ios":"levelo://app?vid=adfc2b22-eee6-4a96-b93d-527dea11f419"},"vehicle_type_id":"4","last_reported":1742976783,"current_range_meters":9600,"station_id":"ce4bgj92rcd13ifvqbd0","pricing_plan_id":"cebpf4jnsgd1na2vs0mg"},{"bike_id":"18435acf-9e69-48a3-9043-5f434133a684","system_id":"levelo_inurba_marseille","lat":43.30887,"lon":5.37198,"is_reserved":false,"is_disabled":false,"rental_uris":{"android":"levelo://app?vid=18435acf-9e69-48a3-9043-5f434133a684","ios":"levelo://app?vid=18435acf-9e69-48a3-9043-5f434133a684"},"vehicle_type_id":"4","last_reported":1742976783,"current_range_meters":10000,"station_id":"ce4bguh2rcd13ifvqckg","pricing_plan_id":"cebpf4jnsgd1na2vs0mg"},{"bike_id":"7fdecdeb-36cb-4cf4-9c98-d803f5809435","system_id":"levelo_inurba_marseille","lat":43.26099,"lon":5.39785,"is_reserved":false,"is_disabled":false,"rental_uris":{"android":"levelo://app?vid=7fdecdeb-36cb-4cf4-9c98-d803f5809435","ios":"levelo://app?vid=7fdecdeb-36cb-4cf4-9c98-d803f5809435"},"vehicle_type_id":"4","last_reported":1742976783,"current_range_meters":10000,"station_id":"","pricing_plan_id":"cebpf4jnsgd1na2vs0mg"},{"bike_id":"efbcaaa6-b11f-400a-9240-cc4b1a3b098a","system_id":"levelo_inurba_marseille","lat":43.30596,"lon":5.39354,"is_reserved":false,"is_disabled":true,"rental_uris":{"android":"levelo://app?vid=efbcaaa6-b11f-400a-9240-cc4b1a3b098a","ios":"levelo://app?vid=efbcaaa6-b11f-400a-9240-cc4b1a3b098a"},"vehicle_type_id":"4","last_reported":1742976783,"current_range_meters":10000,"station_id":"ce4bh0p2rcd13ifvqd80","pricing_plan_id":"cebpf4jnsgd1na2vs0mg"},{"bike_id":"da56a854-5961-427a-a293-1df4280418cd","system_id":"levelo_inurba_marseille","lat":43.30194,"lon":5.36622,"is_reserved":false,"is_disabled":false,"rental_uris":{"android":"levelo://app?vid=da56a854-5961-427a-a293-1df4280418cd","ios":"levelo://app?vid=da56a854-5961-427a-a293-1df4280418cd"},"vehicle_type_id":"4","last_reported":1742976783,"current_range_meters":10800,"station_id":"ce4bgrh2rcd13ifvqc8g","pricing_plan_id":"cebpf4jnsgd1na2vs0mg"},{"bike_id":"6e155d52-426e-4f0a-956d-37881bbbef9e","system_id":"levelo_inurba_marseille","lat":43.30472,"lon":5.37901,"is_reserved":false,"is_disabled":false,"rental_uris":{"android":"levelo://app?vid=6e155d52-426e-4f0a-956d-37881bbbef9e","ios":"levelo://app?vid=6e155d52-426e-4f0a-956d-37881bbbef9e"},"vehicle_type_id":"4","last_reported":1742976783,"current_range_meters":10800,"station_id":"ce4bgup2rcd13ifvqcn0","pricing_plan_id":"cebpf4jnsgd1na2vs0mg"},{"bike_id":"84a7a785-5392-42bc-8088-fb903bcc7f5c","system_id":"levelo_inurba_marseille","lat":43.23132,"lon":5.35492,"is_reserved":false,"is_disabled":false,"rental_uris":{"android":"levelo://app?vid=84a7a785-5392-42bc-8088-fb903bcc7f5c","ios":"levelo://app?vid=84a7a785-5392-42bc-8088-fb903bcc7f5c"},"vehicle_type_id":"4","last_reported":1742976783,"current_range_meters":10800,"station_id":"ce4bhu92rcd13ifvqi70","pricing_plan_id":"cebpf4jnsgd1na2vs0mg"},{"bike_id":"34ff9dfa-f521-4b06-a88c-c4e4d9d74f39","system_id":"levelo_inurba_marseille","lat":43.27809,"lon":5.40715,"is_reserved":false,"is_disabled":true,"rental_uris":{"android":"levelo://app?vid=34ff9dfa-f521-4b06-a88c-c4e4d9d74f39","ios":"levelo://app?vid=34ff9dfa-f521-4b06-a88c-c4e4d9d74f39"},"vehicle_type_id":"4","last_reported":1742976783,"current_range_meters":10800,"station_id":"ce4bhnh2rcd13ifvqgtg","pricing_plan_id":"cebpf4jnsgd1na2vs0mg"},{"bike_id":"fc976bac-bfba-4117-a59a-6ec82a46de08","system_id":"levelo_inurba_marseille","lat":43.28344,"lon":5.38126,"is_reserved":false,"is_disabled":false,"rental_uris":{"android":"levelo://app?vid=fc976bac-bfba-4117-a59a-6ec82a46de08","ios":"levelo://app?vid=fc976bac-bfba-4117-a59a-6ec82a46de08"},"vehicle_type_id":"4","last_reported":1742976783,"current_range_meters":10800,"station_id":"ce4bh412rcd13ifvqdr0","pricing_plan_id":"cebpf4jnsgd1na2vs0mg"},{"bike_id":"1d165c56-236e-4374-8632-8a15f8f79471","system_id":"levelo_inurba_marseille","lat":43.31222,"lon":5.36852,"is_reserved":false,"is_disabled":false,"rental_uris":{"android":"levelo://app?vid=1d165c56-236e-4374-8632-8a15f8f79471","ios":"levelo://app?vid=1d165c56-236e-4374-8632-8a15f8f79471"},"vehicle_type_id":"4","last_reported":1742976783,"current_range_meters":10800,"station_id":"ce4bgl92rcd13ifvqbq0","pricing_plan_id":"cebpf4jnsgd1na2vs0mg"},{"bike_id":"974f5876-effd-44d0-911c-76ea7a107a8c","system_id":"levelo_inurba_marseille","lat":43.33362,"lon":5.35976,"is_reserved":false,"is_disabled":false,"rental_uris":{"android":"levelo://app?vid=974f5876-effd-44d0-911c-76ea7a107a8c","ios":"levelo://app?vid=974f5876-effd-44d0-911c-76ea7a107a8c"},"vehicle_type_id":"4","last_reported":1742976783,"current_range_meters":10800,"station_id":"","pricing_plan_id":"cebpf4jnsgd1na2vs0mg"},{"bike_id":"82219511-549c-4b63-baf5-ff8405cca9d7","system_id":"levelo_inurba_marseille","lat":43.31708,"lon":5.43705,"is_reserved":false,"is_disabled":false,"rental_uris":{"android":"levelo://app?vid=82219511-549c-4b63-baf5-ff8405cca9d7","ios":"levelo://app?vid=82219511-549c-4b63-baf5-ff8405cca9d7"},"vehicle_type_id":"4","last_reported":1742976783,"current_range_meters":10800,"station_id":"ce4bhp92rcd13ifvqhcg","pricing_plan_id":"cebpf4jnsgd1na2vs0mg"},{"bike_id":"41a3dd54-69c8-4a8c-8cb4-82f3648e8acc","system_id":"levelo_inurba_marseille","lat":43.24076,"lon":5.37755,"is_reserved":false,"is_disabled":false,"rental_uris":{"android":"levelo://app?vid=41a3dd54-69c8-4a8c-8cb4-82f3648e8acc","ios":"levelo://app?vid=41a3dd54-69c8-4a8c-8cb4-82f3648e8acc"},"vehicle_type_id":"4","last_reported":1742976783,"current_range_meters":10800,"station_id":"ce4bhnp2rcd13ifvqgvg","pricing_plan_id":"cebpf4jnsgd1na2vs0mg"},{"bike_id":"8e1b69fe-38a9-404e-9145-427fd10d244c","system_id":"levelo_inurba_marseille","lat":43.2841,"lon":5.34988,"is_reserved":false,"is_disabled":true,"rental_uris":{"android":"levelo://app?vid=8e1b69fe-38a9-404e-9145-427fd10d244c","ios":"levelo://app?vid=8e1b69fe-38a9-404e-9145-427fd10d244c"},"vehicle_type_id":"4","last_reported":1742976783,"current_range_meters":11200,"station_id":"ce4bhbh2rcd13ifvqepg","pricing_plan_id":"cebpf4jnsgd1na2vs0mg"},{"bike_id":"d45a2f6c-957b-46cd-bd89-ee8e58d1536e","system_id":"levelo_inurba_marseille","lat":43.27728,"lon":5.40811,"is_reserved":false,"is_disabled":false,"rental_uris":{"android":"levelo://app?vid=d45a2f6c-957b-46cd-bd89-ee8e58d1536e","ios":"levelo://app?vid=d45a2f6c-957b-46cd-bd89-ee8e58d1536e"},"vehicle_type_id":"4","last_reported":1742976783,"current_range_meters":11200,"station_id":"","pricing_plan_id":"cebpf4jnsgd1na2vs0mg"},{"bike_id":"638022dd-4547-48d2-bf6b-3ac63c13562c","system_id":"levelo_inurba_marseille","lat":43.30913,"lon":5.3686,"is_reserved":false,"is_disabled":false,"rental_uris":{"android":"levelo://app?vid=638022dd-4547-48d2-bf6b-3ac63c13562c","ios":"levelo://app?vid=638022dd-4547-48d2-bf6b-3ac63c13562c"},"vehicle_type_id":"4","last_reported":1742976783,"current_range_meters":11200,"station_id":"ce4bgn92rcd13ifvqbvg","pricing_plan_id":"cebpf4jnsgd1na2vs0mg"},{"bike_id":"ae64d049-3c54-4b63-a552-b1e07d06f548","system_id":"levelo_inurba_marseille","lat":43.26985,"lon":5.39308,"is_reserved":false,"is_disabled":false,"rental_uris":{"android":"levelo://app?vid=ae64d049-3c54-4b63-a552-b1e07d06f548","ios":"levelo://app?vid=ae64d049-3c54-4b63-a552-b1e07d06f548"},"vehicle_type_id":"4","last_reported":1742976783,"current_range_meters":11200,"station_id":"ce4bho12rcd13ifvqh1g","pricing_plan_id":"cebpf4jnsgd1na2vs0mg"},{"bike_id":"7bc072f1-057f-4089-85c2-8d6c7d37745e","system_id":"levelo_inurba_marseille","lat":43.24076,"lon":5.37748,"is_reserved":false,"is_disabled":false,"rental_uris":{"android":"levelo://app?vid=7bc072f1-057f-4089-85c2-8d6c7d37745e","ios":"levelo://app?vid=7bc072f1-057f-4089-85c2-8d6c7d37745e"},"vehicle_type_id":"4","last_reported":1742976783,"current_range_meters":11200,"station_id":"ce4bhnp2rcd13ifvqgvg","pricing_plan_id":"cebpf4jnsgd1na2vs0mg"},{"bike_id":"3d63c1ea-398b-48a2-94ae-b7e44551f43f","system_id":"levelo_inurba_marseille","lat":43.24163,"lon":5.39718,"is_reserved":false,"is_disabled":false,"rental_uris":{"android":"levelo://app?vid=3d63c1ea-398b-48a2-94ae-b7e44551f43f","ios":"levelo://app?vid=3d63c1ea-398b-48a2-94ae-b7e44551f43f"},"vehicle_type_id":"4","last_reported":1742976783,"current_range_meters":11200,"station_id":"ce4bhn12rcd13ifvqgpg","pricing_plan_id":"cebpf4jnsgd1na2vs0mg"},{"bike_id":"a446a54f-4fbf-40df-b247-11c1431d2281","system_id":"levelo_inurba_marseille","lat":43.309479,"lon":5.39035,"is_reserved":false,"is_disabled":false,"rental_uris":{"android":"levelo://app?vid=a446a54f-4fbf-40df-b247-11c1431d2281","ios":"levelo://app?vid=a446a54f-4fbf-40df-b247-11c1431d2281"},"vehicle_type_id":"4","last_reported":1742976783,"current_range_meters":11200,"station_id":"ce4bgl92rcd13ifvqbq0","pricing_plan_id":"cebpf4jnsgd1na2vs0mg"},{"bike_id":"f6788da0-87a8-4558-ba51-aba48bf0e8c0","system_id":"levelo_inurba_marseille","lat":43.30546,"lon":5.36708,"is_reserved":false,"is_disabled":false,"rental_uris":{"android":"levelo://app?vid=f6788da0-87a8-4558-ba51-aba48bf0e8c0","ios":"levelo://app?vid=f6788da0-87a8-4558-ba51-aba48bf0e8c0"},"vehicle_type_id":"4","last_reported":1742976783,"current_range_meters":11200,"station_id":"ce4bgrp2rcd13ifvqc9g","pricing_plan_id":"cebpf4jnsgd1na2vs0mg"},{"bike_id":"9c7b67ef-a80b-4d76-beff-aa96c2a3469a","system_id":"levelo_inurba_marseille","lat":43.28007,"lon":5.40056,"is_reserved":false,"is_disabled":false,"rental_uris":{"android":"levelo://app?vid=9c7b67ef-a80b-4d76-beff-aa96c2a3469a","ios":"levelo://app?vid=9c7b67ef-a80b-4d76-beff-aa96c2a3469a"},"vehicle_type_id":"4","last_reported":1742976783,"current_range_meters":11200,"station_id":"ce4bho92rcd13ifvqh4g","pricing_plan_id":"cebpf4jnsgd1na2vs0mg"},{"bike_id":"fd8b1fd8-2425-4dd0-b106-c462cdb90a86","system_id":"levelo_inurba_marseille","lat":43.31992,"lon":5.38164,"is_reserved":false,"is_disabled":false,"rental_uris":{"android":"levelo://app?vid=fd8b1fd8-2425-4dd0-b106-c462cdb90a86","ios":"levelo://app?vid=fd8b1fd8-2425-4dd0-b106-c462cdb90a86"},"vehicle_type_id":"4","last_reported":1742976783,"current_range_meters":11200,"station_id":"ce4bhr12rcd13ifvqhpg","pricing_plan_id":"cebpf4jnsgd1na2vs0mg"},{"bike_id":"52793577-8d59-4388-bc9a-d81f8bc1b0fa","system_id":"levelo_inurba_marseille","lat":43.324785,"lon":5.365721,"is_reserved":false,"is_disabled":true,"rental_uris":{"android":"levelo://app?vid=52793577-8d59-4388-bc9a-d81f8bc1b0fa","ios":"levelo://app?vid=52793577-8d59-4388-bc9a-d81f8bc1b0fa"},"vehicle_type_id":"4","last_reported":1742976783,"current_range_meters":11200,"station_id":"ce4bhs12rcd13ifvqhvg","pricing_plan_id":"cebpf4jnsgd1na2vs0mg"},{"bike_id":"b418d168-f2ad-4db0-9a6f-e88743ba94c8","system_id":"levelo_inurba_marseille","lat":43.2927,"lon":5.37624,"is_reserved":false,"is_disabled":true,"rental_uris":{"android":"levelo://app?vid=b418d168-f2ad-4db0-9a6f-e88743ba94c8","ios":"levelo://app?vid=b418d168-f2ad-4db0-9a6f-e88743ba94c8"},"vehicle_type_id":"4","last_reported":1742976783,"current_range_meters":11600,"station_id":"ce4bgi12rcd13ifvqb80","pricing_plan_id":"cebpf4jnsgd1na2vs0mg"},{"bike_id":"5d34a88f-e60d-4821-a85a-378298906811","system_id":"levelo_inurba_marseille","lat":43.33604,"lon":5.41034,"is_reserved":false,"is_disabled":false,"rental_uris":{"android":"levelo://app?vid=5d34a88f-e60d-4821-a85a-378298906811","ios":"levelo://app?vid=5d34a88f-e60d-4821-a85a-378298906811"},"vehicle_type_id":"4","last_reported":1742976783,"current_range_meters":11600,"station_id":"ce4bhqh2rcd13ifvqhmg","pricing_plan_id":"cebpf4jnsgd1na2vs0mg"},{"bike_id":"c8c01adc-5f8e-489a-91bd-e5fc7697064b","system_id":"levelo_inurba_marseille","lat":43.30531,"lon":5.36538,"is_reserved":false,"is_disabled":false,"rental_uris":{"android":"levelo://app?vid=c8c01adc-5f8e-489a-91bd-e5fc7697064b","ios":"levelo://app?vid=c8c01adc-5f8e-489a-91bd-e5fc7697064b"},"vehicle_type_id":"4","last_reported":1742976783,"current_range_meters":11600,"station_id":"ce4bgs12rcd13ifvqcag","pricing_plan_id":"cebpf4jnsgd1na2vs0mg"},{"bike_id":"79bf38e2-8dcd-4351-b1fa-50c7e9675b8a","system_id":"levelo_inurba_marseille","lat":43.26953,"lon":5.38633,"is_reserved":false,"is_disabled":false,"rental_uris":{"android":"levelo://app?vid=79bf38e2-8dcd-4351-b1fa-50c7e9675b8a","ios":"levelo://app?vid=79bf38e2-8dcd-4351-b1fa-50c7e9675b8a"},"vehicle_type_id":"4","last_reported":1742976783,"current_range_meters":11600,"station_id":"ce4bhh92rcd13ifvqfh0","pricing_plan_id":"cebpf4jnsgd1na2vs0mg"},{"bike_id":"2349ea78-e5ff-44c1-8a9d-5755df83b4b0","system_id":"levelo_inurba_marseille","lat":43.2814,"lon":5.42715,"is_reserved":false,"is_disabled":false,"rental_uris":{"android":"levelo://app?vid=2349ea78-e5ff-44c1-8a9d-5755df83b4b0","ios":"levelo://app?vid=2349ea78-e5ff-44c1-8a9d-5755df83b4b0"},"vehicle_type_id":"4","last_reported":1742976783,"current_range_meters":11600,"station_id":"","pricing_plan_id":"cebpf4jnsgd1na2vs0mg"},{"bike_id":"9c23b3c2-c990-4dbf-aa18-6e694601de23","system_id":"levelo_inurba_marseille","lat":43.30405,"lon":5.41271,"is_reserved":false,"is_disabled":true,"rental_uris":{"android":"levelo://app?vid=9c23b3c2-c990-4dbf-aa18-6e694601de23","ios":"levelo://app?vid=9c23b3c2-c990-4dbf-aa18-6e694601de23"},"vehicle_type_id":"4","last_reported":1742976783,"current_range_meters":12000,"station_id":"ce4bhop2rcd13ifvqh8g","pricing_plan_id":"cebpf4jnsgd1na2vs0mg"},{"bike_id":"d1f0bfd4-c951-4e4e-b8ea-91fef0511b94","system_id":"levelo_inurba_marseille","lat":43.32362,"lon":5.36753,"is_reserved":false,"is_disabled":false,"rental_uris":{"android":"levelo://app?vid=d1f0bfd4-c951-4e4e-b8ea-91fef0511b94","ios":"levelo://app?vid=d1f0bfd4-c951-4e4e-b8ea-91fef0511b94"},"vehicle_type_id":"4","last_reported":1742976783,"current_range_meters":12000,"station_id":"ce4bhsh2rcd13ifvqi2g","pricing_plan_id":"cebpf4jnsgd1na2vs0mg"},{"bike_id":"0d43dce8-283a-4441-a9c5-98b093f164f8","system_id":"levelo_inurba_marseille","lat":43.31286,"lon":5.40178,"is_reserved":false,"is_disabled":false,"rental_uris":{"android":"levelo://app?vid=0d43dce8-283a-4441-a9c5-98b093f164f8","ios":"levelo://app?vid=0d43dce8-283a-4441-a9c5-98b093f164f8"},"vehicle_type_id":"4","last_reported":1742976783,"current_range_meters":12000,"station_id":"ce4bh092rcd13ifvqd30","pricing_plan_id":"cebpf4jnsgd1na2vs0mg"},{"bike_id":"87807891-619d-45ef-9bc3-f89425f9a8a8","system_id":"levelo_inurba_marseille","lat":43.28013,"lon":5.41656,"is_reserved":false,"is_disabled":true,"rental_uris":{"android":"levelo://app?vid=87807891-619d-45ef-9bc3-f89425f9a8a8","ios":"levelo://app?vid=87807891-619d-45ef-9bc3-f89425f9a8a8"},"vehicle_type_id":"4","last_reported":1742976783,"current_range_meters":12000,"station_id":"ce4bho12rcd13ifvqh1g","pricing_plan_id":"cebpf4jnsgd1na2vs0mg"},{"bike_id":"0482f126-dcd4-4c55-95ad-5f37e13539d5","system_id":"levelo_inurba_marseille","lat":43.30139,"lon":5.38072,"is_reserved":false,"is_disabled":false,"rental_uris":{"android":"levelo://app?vid=0482f126-dcd4-4c55-95ad-5f37e13539d5","ios":"levelo://app?vid=0482f126-dcd4-4c55-95ad-5f37e13539d5"},"vehicle_type_id":"4","last_reported":1742976783,"current_range_meters":12000,"station_id":"ce4bgjp2rcd13ifvqbh0","pricing_plan_id":"cebpf4jnsgd1na2vs0mg"},{"bike_id":"40aff7bf-732b-4532-b918-3e0d681c692b","system_id":"levelo_inurba_marseille","lat":43.26028,"lon":5.37546,"is_reserved":false,"is_disabled":false,"rental_uris":{"android":"levelo://app?vid=40aff7bf-732b-4532-b918-3e0d681c692b","ios":"levelo://app?vid=40aff7bf-732b-4532-b918-3e0d681c692b"},"vehicle_type_id":"4","last_reported":1742976783,"current_range_meters":12400,"station_id":"ce4bhgh2rcd13ifvqfa0","pricing_plan_id":"cebpf4jnsgd1na2vs0mg"},{"bike_id":"cfa70219-598e-4d76-b57d-6a178556abe4","system_id":"levelo_inurba_marseille","lat":43.29841,"lon":5.36267,"is_reserved":false,"is_disabled":false,"rental_uris":{"android":"levelo://app?vid=cfa70219-598e-4d76-b57d-6a178556abe4","ios":"levelo://app?vid=cfa70219-598e-4d76-b57d-6a178556abe4"},"vehicle_type_id":"4","last_reported":1742976783,"current_range_meters":12400,"station_id":"ce4bgpp2rcd13ifvqc3g","pricing_plan_id":"cebpf4jnsgd1na2vs0mg"},{"bike_id":"659be5e0-eeef-44bd-8ac1-256d4a3cadd4","system_id":"levelo_inurba_marseille","lat":43.24813,"lon":5.37478,"is_reserved":false,"is_disabled":false,"rental_uris":{"android":"levelo://app?vid=659be5e0-eeef-44bd-8ac1-256d4a3cadd4","ios":"levelo://app?vid=659be5e0-eeef-44bd-8ac1-256d4a3cadd4"},"vehicle_type_id":"4","last_reported":1742976783,"current_range_meters":12400,"station_id":"ce4bhgh2rcd13ifvqfb0","pricing_plan_id":"cebpf4jnsgd1na2vs0mg"},{"bike_id":"f6d36fa9-5e79-48ba-b38c-999d88d5389a","system_id":"levelo_inurba_marseille","lat":43.28461,"lon":5.35895,"is_reserved":false,"is_disabled":false,"rental_uris":{"android":"levelo://app?vid=f6d36fa9-5e79-48ba-b38c-999d88d5389a","ios":"levelo://app?vid=f6d36fa9-5e79-48ba-b38c-999d88d5389a"},"vehicle_type_id":"4","last_reported":1742976783,"current_range_meters":12400,"station_id":"ce4bhah2rcd13ifvqei0","pricing_plan_id":"cebpf4jnsgd1na2vs0mg"},{"bike_id":"c2558eac-9c83-4e5b-ae66-7f9519e3d933","system_id":"levelo_inurba_marseille","lat":43.28985,"lon":5.37851,"is_reserved":false,"is_disabled":true,"rental_uris":{"android":"levelo://app?vid=c2558eac-9c83-4e5b-ae66-7f9519e3d933","ios":"levelo://app?vid=c2558eac-9c83-4e5b-ae66-7f9519e3d933"},"vehicle_type_id":"4","last_reported":1742976783,"current_range_meters":12400,"station_id":"ce4bh9p2rcd13ifvqed0","pricing_plan_id":"cebpf4jnsgd1na2vs0mg"},{"bike_id":"7e7a371c-b9b4-41ba-9c03-4ba1bef7f880","system_id":"levelo_inurba_marseille","lat":43.23157,"lon":5.43724,"is_reserved":false,"is_disabled":false,"rental_uris":{"android":"levelo://app?vid=7e7a371c-b9b4-41ba-9c03-4ba1bef7f880","ios":"levelo://app?vid=7e7a371c-b9b4-41ba-9c03-4ba1bef7f880"},"vehicle_type_id":"4","last_reported":1742976783,"current_range_meters":12400,"station_id":"ce4bhmp2rcd13ifvqgog","pricing_plan_id":"cebpf4jnsgd1na2vs0mg"},{"bike_id":"589f1146-20bc-4a88-9ab7-60ee275b3000","system_id":"levelo_inurba_marseille","lat":43.2974,"lon":5.38024,"is_reserved":false,"is_disabled":false,"rental_uris":{"android":"levelo://app?vid=589f1146-20bc-4a88-9ab7-60ee275b3000","ios":"levelo://app?vid=589f1146-20bc-4a88-9ab7-60ee275b3000"},"vehicle_type_id":"4","last_reported":1742976783,"current_range_meters":12800,"station_id":"","pricing_plan_id":"cebpf4jnsgd1na2vs0mg"},{"bike_id":"8ee06270-6e68-4f36-943c-c6853abcfcb7","system_id":"levelo_inurba_marseille","lat":43.30952,"lon":5.39057,"is_reserved":false,"is_disabled":false,"rental_uris":{"android":"levelo://app?vid=8ee06270-6e68-4f36-943c-c6853abcfcb7","ios":"levelo://app?vid=8ee06270-6e68-4f36-943c-c6853abcfcb7"},"vehicle_type_id":"4","last_reported":1742976783,"current_range_meters":12800,"station_id":"ce4bgup2rcd13ifvqco0","pricing_plan_id":"cebpf4jnsgd1na2vs0mg"},{"bike_id":"fef0ac2c-b230-4fc3-ab75-e0de87831c6b","system_id":"levelo_inurba_marseille","lat":43.30149,"lon":5.38099,"is_reserved":false,"is_disabled":false,"rental_uris":{"android":"levelo://app?vid=fef0ac2c-b230-4fc3-ab75-e0de87831c6b","ios":"levelo://app?vid=fef0ac2c-b230-4fc3-ab75-e0de87831c6b"},"vehicle_type_id":"4","last_reported":1742976783,"current_range_meters":12800,"station_id":"ce4bgjp2rcd13ifvqbh0","pricing_plan_id":"cebpf4jnsgd1na2vs0mg"},{"bike_id":"484928c8-8c60-48c3-a758-e3e274268153","system_id":"levelo_inurba_marseille","lat":43.24169,"lon":5.36371,"is_reserved":false,"is_disabled":false,"rental_uris":{"android":"levelo://app?vid=484928c8-8c60-48c3-a758-e3e274268153","ios":"levelo://app?vid=484928c8-8c60-48c3-a758-e3e274268153"},"vehicle_type_id":"4","last_reported":1742976783,"current_range_meters":12800,"station_id":"cpo36qri1sfpv3e86is0","pricing_plan_id":"cebpf4jnsgd1na2vs0mg"},{"bike_id":"dd3c2c21-8058-4ad2-bb2d-1b89c01c402f","system_id":"levelo_inurba_marseille","lat":43.30541,"lon":5.36543,"is_reserved":false,"is_disabled":false,"rental_uris":{"android":"levelo://app?vid=dd3c2c21-8058-4ad2-bb2d-1b89c01c402f","ios":"levelo://app?vid=dd3c2c21-8058-4ad2-bb2d-1b89c01c402f"},"vehicle_type_id":"4","last_reported":1742976783,"current_range_meters":12800,"station_id":"ce4bgs12rcd13ifvqcag","pricing_plan_id":"cebpf4jnsgd1na2vs0mg"},{"bike_id":"ccdfac36-22da-4f2d-bd50-7bf147cc0fff","system_id":"levelo_inurba_marseille","lat":43.29903,"lon":5.43683,"is_reserved":false,"is_disabled":false,"rental_uris":{"android":"levelo://app?vid=ccdfac36-22da-4f2d-bd50-7bf147cc0fff","ios":"levelo://app?vid=ccdfac36-22da-4f2d-bd50-7bf147cc0fff"},"vehicle_type_id":"4","last_reported":1742976783,"current_range_meters":13600,"station_id":"ce4bhpp2rcd13ifvqhfg","pricing_plan_id":"cebpf4jnsgd1na2vs0mg"},{"bike_id":"21e0fd66-4169-4167-9dc0-7b09c7791b9d","system_id":"levelo_inurba_marseille","lat":43.295281,"lon":5.385402,"is_reserved":false,"is_disabled":false,"rental_uris":{"android":"levelo://app?vid=21e0fd66-4169-4167-9dc0-7b09c7791b9d","ios":"levelo://app?vid=21e0fd66-4169-4167-9dc0-7b09c7791b9d"},"vehicle_type_id":"4","last_reported":1742976783,"current_range_meters":13600,"station_id":"ce4bgih2rcd13ifvqba0","pricing_plan_id":"cebpf4jnsgd1na2vs0mg"},{"bike_id":"53547c9f-a02f-4ac0-af36-8ad498e2186f","system_id":"levelo_inurba_marseille","lat":43.25871,"lon":5.39893,"is_reserved":false,"is_disabled":false,"rental_uris":{"android":"levelo://app?vid=53547c9f-a02f-4ac0-af36-8ad498e2186f","ios":"levelo://app?vid=53547c9f-a02f-4ac0-af36-8ad498e2186f"},"vehicle_type_id":"4","last_reported":1742976783,"current_range_meters":13600,"station_id":"ce4bhl92rcd13ifvqghg","pricing_plan_id":"cebpf4jnsgd1na2vs0mg"},{"bike_id":"2b8fa29f-97b5-4d0c-a5c2-98f3677f5d7e","system_id":"levelo_inurba_marseille","lat":43.33603,"lon":5.41034,"is_reserved":false,"is_disabled":false,"rental_uris":{"android":"levelo://app?vid=2b8fa29f-97b5-4d0c-a5c2-98f3677f5d7e","ios":"levelo://app?vid=2b8fa29f-97b5-4d0c-a5c2-98f3677f5d7e"},"vehicle_type_id":"4","last_reported":1742976783,"current_range_meters":13600,"station_id":"ce4bhqh2rcd13ifvqhmg","pricing_plan_id":"cebpf4jnsgd1na2vs0mg"},{"bike_id":"9490ab3f-b563-4312-b2ed-009944c7886e","system_id":"levelo_inurba_marseille","lat":43.32465,"lon":5.36597,"is_reserved":false,"is_disabled":false,"rental_uris":{"android":"levelo://app?vid=9490ab3f-b563-4312-b2ed-009944c7886e","ios":"levelo://app?vid=9490ab3f-b563-4312-b2ed-009944c7886e"},"vehicle_type_id":"4","last_reported":1742976783,"current_range_meters":13600,"station_id":"ce4bhs12rcd13ifvqhvg","pricing_plan_id":"cebpf4jnsgd1na2vs0mg"},{"bike_id":"2623a753-dcde-4ffa-9bf1-3275e6037e7a","system_id":"levelo_inurba_marseille","lat":43.32479,"lon":5.3658,"is_reserved":false,"is_disabled":false,"rental_uris":{"android":"levelo://app?vid=2623a753-dcde-4ffa-9bf1-3275e6037e7a","ios":"levelo://app?vid=2623a753-dcde-4ffa-9bf1-3275e6037e7a"},"vehicle_type_id":"4","last_reported":1742976783,"current_range_meters":13600,"station_id":"ce4bhs12rcd13ifvqhvg","pricing_plan_id":"cebpf4jnsgd1na2vs0mg"},{"bike_id":"e1286bcb-31ee-4020-bfdf-b33e9a0bfa99","system_id":"levelo_inurba_marseille","lat":43.24066,"lon":5.37755,"is_reserved":false,"is_disabled":false,"rental_uris":{"android":"levelo://app?vid=e1286bcb-31ee-4020-bfdf-b33e9a0bfa99","ios":"levelo://app?vid=e1286bcb-31ee-4020-bfdf-b33e9a0bfa99"},"vehicle_type_id":"4","last_reported":1742976783,"current_range_meters":13600,"station_id":"ce4bhnp2rcd13ifvqgvg","pricing_plan_id":"cebpf4jnsgd1na2vs0mg"},{"bike_id":"3eb12134-3306-4364-86a2-d05542413394","system_id":"levelo_inurba_marseille","lat":43.26501,"lon":5.39538,"is_reserved":false,"is_disabled":false,"rental_uris":{"android":"levelo://app?vid=3eb12134-3306-4364-86a2-d05542413394","ios":"levelo://app?vid=3eb12134-3306-4364-86a2-d05542413394"},"vehicle_type_id":"4","last_reported":1742976783,"current_range_meters":13600,"station_id":"ce4bhi12rcd13ifvqfq0","pricing_plan_id":"cebpf4jnsgd1na2vs0mg"},{"bike_id":"5b830359-30b8-45d9-a902-126192112277","system_id":"levelo_inurba_marseille","lat":43.23199,"lon":5.35547,"is_reserved":false,"is_disabled":false,"rental_uris":{"android":"levelo://app?vid=5b830359-30b8-45d9-a902-126192112277","ios":"levelo://app?vid=5b830359-30b8-45d9-a902-126192112277"},"vehicle_type_id":"4","last_reported":1742976783,"current_range_meters":14000,"station_id":"ce4bhu92rcd13ifvqi70","pricing_plan_id":"cebpf4jnsgd1na2vs0mg"},{"bike_id":"f4ffe053-6974-4ad9-ae74-b864a76257e4","system_id":"levelo_inurba_marseille","lat":43.29708,"lon":5.3769,"is_reserved":false,"is_disabled":false,"rental_uris":{"android":"levelo://app?vid=f4ffe053-6974-4ad9-ae74-b864a76257e4","ios":"levelo://app?vid=f4ffe053-6974-4ad9-ae74-b864a76257e4"},"vehicle_type_id":"4","last_reported":1742976783,"current_range_meters":14000,"station_id":"ce4bgkh2rcd13ifvqbl0","pricing_plan_id":"cebpf4jnsgd1na2vs0mg"},{"bike_id":"379879bf-1f7f-45f5-9cac-b09d574b3620","system_id":"levelo_inurba_marseille","lat":43.23153,"lon":5.43716,"is_reserved":false,"is_disabled":false,"rental_uris":{"android":"levelo://app?vid=379879bf-1f7f-45f5-9cac-b09d574b3620","ios":"levelo://app?vid=379879bf-1f7f-45f5-9cac-b09d574b3620"},"vehicle_type_id":"4","last_reported":1742976783,"current_range_meters":14000,"station_id":"ce4bhmp2rcd13ifvqgog","pricing_plan_id":"cebpf4jnsgd1na2vs0mg"},{"bike_id":"ae7ecd2d-53a9-410e-8845-089cecc7b3c1","system_id":"levelo_inurba_marseille","lat":43.26945,"lon":5.38631,"is_reserved":false,"is_disabled":false,"rental_uris":{"android":"levelo://app?vid=ae7ecd2d-53a9-410e-8845-089cecc7b3c1","ios":"levelo://app?vid=ae7ecd2d-53a9-410e-8845-089cecc7b3c1"},"vehicle_type_id":"4","last_reported":1742976783,"current_range_meters":14000,"station_id":"ce4bhh92rcd13ifvqfh0","pricing_plan_id":"cebpf4jnsgd1na2vs0mg"},{"bike_id":"96493bfe-5892-4f73-9aeb-64afbc6bc824","system_id":"levelo_inurba_marseille","lat":43.29263,"lon":5.38444,"is_reserved":false,"is_disabled":false,"rental_uris":{"android":"levelo://app?vid=96493bfe-5892-4f73-9aeb-64afbc6bc824","ios":"levelo://app?vid=96493bfe-5892-4f73-9aeb-64afbc6bc824"},"vehicle_type_id":"4","last_reported":1742976783,"current_range_meters":14000,"station_id":"ce4bh692rcd13ifvqea0","pricing_plan_id":"cebpf4jnsgd1na2vs0mg"},{"bike_id":"a93111f7-41f7-4c74-b8fe-0bb4ba97e331","system_id":"levelo_inurba_marseille","lat":43.30165,"lon":5.3809,"is_reserved":false,"is_disabled":false,"rental_uris":{"android":"levelo://app?vid=a93111f7-41f7-4c74-b8fe-0bb4ba97e331","ios":"levelo://app?vid=a93111f7-41f7-4c74-b8fe-0bb4ba97e331"},"vehicle_type_id":"4","last_reported":1742976783,"current_range_meters":14000,"station_id":"ce4bgjp2rcd13ifvqbh0","pricing_plan_id":"cebpf4jnsgd1na2vs0mg"},{"bike_id":"ceb50989-9a96-4a68-a2a6-d517e965d2d6","system_id":"levelo_inurba_marseille","lat":43.29262,"lon":5.37642,"is_reserved":false,"is_disabled":false,"rental_uris":{"android":"levelo://app?vid=ceb50989-9a96-4a68-a2a6-d517e965d2d6","ios":"levelo://app?vid=ceb50989-9a96-4a68-a2a6-d517e965d2d6"},"vehicle_type_id":"4","last_reported":1742976783,"current_range_meters":14000,"station_id":"ce4bgi12rcd13ifvqb80","pricing_plan_id":"cebpf4jnsgd1na2vs0mg"},{"bike_id":"68d42813-4eb5-41fe-a58d-c64b32f2b935","system_id":"levelo_inurba_marseille","lat":43.32358,"lon":5.36782,"is_reserved":false,"is_disabled":false,"rental_uris":{"android":"levelo://app?vid=68d42813-4eb5-41fe-a58d-c64b32f2b935","ios":"levelo://app?vid=68d42813-4eb5-41fe-a58d-c64b32f2b935"},"vehicle_type_id":"4","last_reported":1742976783,"current_range_meters":14400,"station_id":"ce4bhsh2rcd13ifvqi2g","pricing_plan_id":"cebpf4jnsgd1na2vs0mg"},{"bike_id":"59c94358-02c7-4347-8e5f-e8af632beba8","system_id":"levelo_inurba_marseille","lat":43.27172,"lon":5.40988,"is_reserved":false,"is_disabled":false,"rental_uris":{"android":"levelo://app?vid=59c94358-02c7-4347-8e5f-e8af632beba8","ios":"levelo://app?vid=59c94358-02c7-4347-8e5f-e8af632beba8"},"vehicle_type_id":"4","last_reported":1742976783,"current_range_meters":14800,"station_id":"ce4bhl12rcd13ifvqgf0","pricing_plan_id":"cebpf4jnsgd1na2vs0mg"},{"bike_id":"719e25c7-2a68-4f63-ba88-38c67a3f9085","system_id":"levelo_inurba_marseille","lat":43.29265,"lon":5.38432,"is_reserved":false,"is_disabled":false,"rental_uris":{"android":"levelo://app?vid=719e25c7-2a68-4f63-ba88-38c67a3f9085","ios":"levelo://app?vid=719e25c7-2a68-4f63-ba88-38c67a3f9085"},"vehicle_type_id":"4","last_reported":1742976783,"current_range_meters":14800,"station_id":"ce4bh692rcd13ifvqea0","pricing_plan_id":"cebpf4jnsgd1na2vs0mg"},{"bike_id":"d00f9495-9593-4460-875a-d3841f1a62eb","system_id":"levelo_inurba_marseille","lat":43.28565,"lon":5.39493,"is_reserved":false,"is_disabled":false,"rental_uris":{"android":"levelo://app?vid=d00f9495-9593-4460-875a-d3841f1a62eb","ios":"levelo://app?vid=d00f9495-9593-4460-875a-d3841f1a62eb"},"vehicle_type_id":"4","last_reported":1742976783,"current_range_meters":14800,"station_id":"ce4bh292rcd13ifvqdg0","pricing_plan_id":"cebpf4jnsgd1na2vs0mg"},{"bike_id":"32145f70-c572-4547-8f6a-23b0830aed57","system_id":"levelo_inurba_marseille","lat":43.314453,"lon":5.373142,"is_reserved":false,"is_disabled":false,"rental_uris":{"android":"levelo://app?vid=32145f70-c572-4547-8f6a-23b0830aed57","ios":"levelo://app?vid=32145f70-c572-4547-8f6a-23b0830aed57"},"vehicle_type_id":"4","last_reported":1742976783,"current_range_meters":14800,"station_id":"ce4bgt12rcd13ifvqcd0","pricing_plan_id":"cebpf4jnsgd1na2vs0mg"},{"bike_id":"46bc7627-5963-437b-83ed-b3f9497370e8","system_id":"levelo_inurba_marseille","lat":43.299066,"lon":5.436748,"is_reserved":false,"is_disabled":false,"rental_uris":{"android":"levelo://app?vid=46bc7627-5963-437b-83ed-b3f9497370e8","ios":"levelo://app?vid=46bc7627-5963-437b-83ed-b3f9497370e8"},"vehicle_type_id":"4","last_reported":1742976783,"current_range_meters":14800,"station_id":"ce4bhpp2rcd13ifvqhfg","pricing_plan_id":"cebpf4jnsgd1na2vs0mg"},{"bike_id":"83aac015-361e-46fc-99b9-1f07a74b976c","system_id":"levelo_inurba_marseille","lat":43.33605,"lon":5.41032,"is_reserved":false,"is_disabled":false,"rental_uris":{"android":"levelo://app?vid=83aac015-361e-46fc-99b9-1f07a74b976c","ios":"levelo://app?vid=83aac015-361e-46fc-99b9-1f07a74b976c"},"vehicle_type_id":"4","last_reported":1742976783,"current_range_meters":15200,"station_id":"ce4bhqh2rcd13ifvqhmg","pricing_plan_id":"cebpf4jnsgd1na2vs0mg"},{"bike_id":"0c981489-2607-4578-952a-4d51c0912cc1","system_id":"levelo_inurba_marseille","lat":43.308628,"lon":5.389155,"is_reserved":false,"is_disabled":false,"rental_uris":{"android":"levelo://app?vid=0c981489-2607-4578-952a-4d51c0912cc1","ios":"levelo://app?vid=0c981489-2607-4578-952a-4d51c0912cc1"},"vehicle_type_id":"4","last_reported":1742976783,"current_range_meters":15200,"station_id":"ce4bgup2rcd13ifvqcn0","pricing_plan_id":"cebpf4jnsgd1na2vs0mg"},{"bike_id":"f1414457-b578-4c46-b2bf-7e89a08e69ff","system_id":"levelo_inurba_marseille","lat":43.30539,"lon":5.36554,"is_reserved":false,"is_disabled":false,"rental_uris":{"android":"levelo://app?vid=f1414457-b578-4c46-b2bf-7e89a08e69ff","ios":"levelo://app?vid=f1414457-b578-4c46-b2bf-7e89a08e69ff"},"vehicle_type_id":"4","last_reported":1742976783,"current_range_meters":15200,"station_id":"ce4bgs12rcd13ifvqcag","pricing_plan_id":"cebpf4jnsgd1na2vs0mg"},{"bike_id":"5f081384-7804-4b45-99ed-b8b3a7bd8720","system_id":"levelo_inurba_marseille","lat":43.23963,"lon":5.36639,"is_reserved":false,"is_disabled":false,"rental_uris":{"android":"levelo://app?vid=5f081384-7804-4b45-99ed-b8b3a7bd8720","ios":"levelo://app?vid=5f081384-7804-4b45-99ed-b8b3a7bd8720"},"vehicle_type_id":"4","last_reported":1742976783,"current_range_meters":15200,"station_id":"ce4bhi12rcd13ifvqfp0","pricing_plan_id":"cebpf4jnsgd1na2vs0mg"},{"bike_id":"fd65cbfa-26ca-4f1f-b325-bf32d61398a1","system_id":"levelo_inurba_marseille","lat":43.30899,"lon":5.37181,"is_reserved":false,"is_disabled":false,"rental_uris":{"android":"levelo://app?vid=fd65cbfa-26ca-4f1f-b325-bf32d61398a1","ios":"levelo://app?vid=fd65cbfa-26ca-4f1f-b325-bf32d61398a1"},"vehicle_type_id":"4","last_reported":1742976783,"current_range_meters":14800,"station_id":"ce4bguh2rcd13ifvqckg","pricing_plan_id":"cebpf4jnsgd1na2vs0mg"},{"bike_id":"ea0c178f-c86b-4dc2-a106-8be999a5388e","system_id":"levelo_inurba_marseille","lat":43.309561,"lon":5.39052,"is_reserved":false,"is_disabled":false,"rental_uris":{"android":"levelo://app?vid=ea0c178f-c86b-4dc2-a106-8be999a5388e","ios":"levelo://app?vid=ea0c178f-c86b-4dc2-a106-8be999a5388e"},"vehicle_type_id":"4","last_reported":1742976783,"current_range_meters":15200,"station_id":"ce4bhi12rcd13ifvqfo0","pricing_plan_id":"cebpf4jnsgd1na2vs0mg"},{"bike_id":"f96db4d3-c8ff-43d9-85cc-2c17fffa4ee0","system_id":"levelo_inurba_marseille","lat":43.27492,"lon":5.42453,"is_reserved":false,"is_disabled":false,"rental_uris":{"android":"levelo://app?vid=f96db4d3-c8ff-43d9-85cc-2c17fffa4ee0","ios":"levelo://app?vid=f96db4d3-c8ff-43d9-85cc-2c17fffa4ee0"},"vehicle_type_id":"4","last_reported":1742976783,"current_range_meters":16000,"station_id":"ce4bhn92rcd13ifvqgrg","pricing_plan_id":"cebpf4jnsgd1na2vs0mg"},{"bike_id":"26a47bbc-7d75-44b8-9864-11f6acf207bc","system_id":"levelo_inurba_marseille","lat":43.24667,"lon":5.38917,"is_reserved":false,"is_disabled":false,"rental_uris":{"android":"levelo://app?vid=26a47bbc-7d75-44b8-9864-11f6acf207bc","ios":"levelo://app?vid=26a47bbc-7d75-44b8-9864-11f6acf207bc"},"vehicle_type_id":"4","last_reported":1742976783,"current_range_meters":16000,"station_id":"","pricing_plan_id":"cebpf4jnsgd1na2vs0mg"},{"bike_id":"ab255577-419b-4b2c-b48f-5c6fb00afdfd","system_id":"levelo_inurba_marseille","lat":43.32348,"lon":5.36771,"is_reserved":false,"is_disabled":false,"rental_uris":{"android":"levelo://app?vid=ab255577-419b-4b2c-b48f-5c6fb00afdfd","ios":"levelo://app?vid=ab255577-419b-4b2c-b48f-5c6fb00afdfd"},"vehicle_type_id":"4","last_reported":1742976783,"current_range_meters":16000,"station_id":"ce4bhsh2rcd13ifvqi2g","pricing_plan_id":"cebpf4jnsgd1na2vs0mg"},{"bike_id":"9e4dae27-4c9b-4b7d-bc96-eb2a33a07992","system_id":"levelo_inurba_marseille","lat":43.25932,"lon":5.40909,"is_reserved":false,"is_disabled":false,"rental_uris":{"android":"levelo://app?vid=9e4dae27-4c9b-4b7d-bc96-eb2a33a07992","ios":"levelo://app?vid=9e4dae27-4c9b-4b7d-bc96-eb2a33a07992"},"vehicle_type_id":"4","last_reported":1742976783,"current_range_meters":16000,"station_id":"ce4bhm92rcd13ifvqglg","pricing_plan_id":"cebpf4jnsgd1na2vs0mg"},{"bike_id":"94e79fc7-9367-4952-8689-794a28fc3d39","system_id":"levelo_inurba_marseille","lat":43.29905,"lon":5.43665,"is_reserved":false,"is_disabled":false,"rental_uris":{"android":"levelo://app?vid=94e79fc7-9367-4952-8689-794a28fc3d39","ios":"levelo://app?vid=94e79fc7-9367-4952-8689-794a28fc3d39"},"vehicle_type_id":"4","last_reported":1742976783,"current_range_meters":16000,"station_id":"ce4bhpp2rcd13ifvqhfg","pricing_plan_id":"cebpf4jnsgd1na2vs0mg"},