{"last_updated":1730895484,"ttl":60,"version":"2.2","data":{"bikes":[{"bike_id":"36c8cb02-af16-4d2c-8fa7-3354a6d35276","system_id":"levelo_inurba_marseille","lat":43.29786,"lon":5.37097,"is_reserved":false,"is_disabled":false,"rental_uris":{"android":"levelo://app?vid=36c8cb02-af16-4d2c-8fa7-3354a6d35276","ios":"levelo://app?vid=36c8cb02-af16-4d2c-8fa7-3354a6d35276"},"vehicle_type_id":"4","last_reported":1730895484,"current_range_meters":24000,"station_id":"ce4bgop2rcd13ifvqc1g","pricing_plan_id":"cebpf4jnsgd1na2vs0mg"},{"bike_id":"7ae96026-45f8-4be1-a705-40a234940d94","system_id":"levelo_inurba_marseille","lat":43.27992,"lon":5.40013,"is_reserved":false,"is_disabled":false,"rental_uris":{"android":"levelo://app?vid=7ae96026-45f8-4be1-a705-40a234940d94","ios":"levelo://app?vid=7ae96026-45f8-4be1-a705-40a234940d94"},"vehicle_type_id":"4","last_reported":1730895484,"current_range_meters":38800,"station_id":"ce4bho92rcd13ifvqh4g","pricing_plan_id":"cebpf4jnsgd1na2vs0mg"},{"bike_id":"19df1608-2db4-4a64-8a9a-d0d9548fc94a","system_id":"levelo_inurba_marseille","lat":43.32103,"lon":5.36769,"is_reserved":false,"is_disabled":false,"rental_uris":{"android":"levelo://app?vid=19df1608-2db4-4a64-8a9a-d0d9548fc94a","ios":"levelo://app?vid=19df1608-2db4-4a64-8a9a-d0d9548fc94a"},"vehicle_type_id":"4","last_reported":1730895484,"current_range_meters":5600,"station_id":"ce4bhrh2rcd13ifvqhug","pricing_plan_id":"cebpf4jnsgd1na2vs0mg"},{"bike_id":"e983a3a2-b468-48ef-a374-a54128068ac7","system_id":"levelo_inurba_marseille","lat":43.33019,"lon":5.39035,"is_reserved":false,"is_disabled":false,"rental_uris":{"android":"levelo://app?vid=e983a3a2-b468-48ef-a374-a54128068ac7","ios":"levelo://app?vid=e983a3a2-b468-48ef-a374-a54128068ac7"},"vehicle_type_id":"4","last_reported":1730895484,"current_range_meters":36800,"station_id":"ce4bhr92rcd13ifvqhrg","pricing_plan_id":"cebpf4jnsgd1na2vs0mg"},{"bike_id":"bc869811-1aad-4ece-b858-9965c373b037","system_id":"levelo_inurba_marseille","lat":43.23149,"lon":5.43704,"is_reserved":false,"is_disabled":false,"rental_uris":{"android":"levelo://app?vid=bc869811-1aad-4ece-b858-9965c373b037","ios":"levelo://app?vid=bc869811-1aad-4ece-b858-9965c373b037"},"vehicle_type_id":"4","last_reported":1730895484,"current_range_meters":36800,"station_id":"ce4bhmp2rcd13ifvqgog","pricing_plan_id":"cebpf4jnsgd1na2vs0mg"},{"bike_id":"ba12822a-1423-429c-ba5e-4a214c4a0dd5","system_id":"levelo_inurba_marseille","lat":43.25877,"lon":5.39911,"is_reserved":false,"is_disabled":false,"rental_uris":{"android":"levelo://app?vid=ba12822a-1423-429c-ba5e-4a214c4a0dd5","ios":"levelo://app?vid=ba12822a-1423-429c-ba5e-4a214c4a0dd5"},"vehicle_type_id":"4","last_reported":1730895484,"current_range_meters":36400,"station_id":"ce4bhl92rcd13ifvqghg","pricing_plan_id":"cebpf4jnsgd1na2vs0mg"},{"bike_id":"eee6a210-68ad-4c56-881c-8e3a55c4368c","system_id":"levelo_inurba_marseille","lat":43.30595,"lon":5.39353,"is_reserved":false,"is_disabled":false,"rental_uris":{"android":"levelo://app?vid=eee6a210-68ad-4c56-881c-8e3a55c4368c","ios":"levelo://app?vid=eee6a210-68ad-4c56-881c-8e3a55c4368c"},"vehicle_type_id":"4","last_reported":1730895484,"current_range_meters":32000,"station_id":"ce4bh0p2rcd13ifvqd80","pricing_plan_id":"cebpf4jnsgd1na2vs0mg"},{"bike_id":"132a7490-b2ca-43dc-ac45-97330026ed9a","system_id":"levelo_inurba_marseille","lat":43.28729,"lon":5.3608,"is_reserved":false,"is_disabled":false,"rental_uris":{"android":"levelo://app?vid=132a7490-b2ca-43dc-ac45-97330026ed9a","ios":"levelo://app?vid=132a7490-b2ca-43dc-ac45-97330026ed9a"},"vehicle_type_id":"4","last_reported":1730895484,"current_range_meters":37600,"station_id":"cki0cbj6b192h4jlfktg","pricing_plan_id":"cebpf4jnsgd1na2vs0mg"},{"bike_id":"aaf896be-23fc-4cde-b212-d643c208e7c1","system_id":"levelo_inurba_marseille","lat":43.3042,"lon":5.41285,"is_reserved":false,"is_disabled":false,"rental_uris":{"android":"levelo://app?vid=aaf896be-23fc-4cde-b212-d643c208e7c1","ios":"levelo://app?vid=aaf896be-23fc-4cde-b212-d643c208e7c1"},"vehicle_type_id":"4","last_reported":1730895484,"current_range_meters":38000,"station_id":"ce4bhop2rcd13ifvqh8g","pricing_plan_id":"cebpf4jnsgd1na2vs0mg"},{"bike_id":"b85c8e5c-e5c2-4ffd-ba28-7c1eb1b0a89e","system_id":"levelo_inurba_marseille","lat":43.26787,"lon":5.39413,"is_reserved":false,"is_disabled":false,"rental_uris":{"android":"levelo://app?vid=b85c8e5c-e5c2-4ffd-ba28-7c1eb1b0a89e","ios":"levelo://app?vid=b85c8e5c-e5c2-4ffd-ba28-7c1eb1b0a89e"},"vehicle_type_id":"4","last_reported":1730895484,"current_range_meters":37600,"station_id":"ce4bhh12rcd13ifvqfg0","pricing_plan_id":"cebpf4jnsgd1na2vs0mg"},{"bike_id":"3e44a259-abe4-4226-9633-ae30cd00b80d","system_id":"levelo_inurba_marseille","lat":43.30786,"lon":5.38164,"is_reserved":false,"is_disabled":false,"rental_uris":{"android":"levelo://app?vid=3e44a259-abe4-4226-9633-ae30cd00b80d","ios":"levelo://app?vid=3e44a259-abe4-4226-9633-ae30cd00b80d"},"vehicle_type_id":"4","last_reported":1730895484,"current_range_meters":36800,"station_id":"ce4bgt12rcd13ifvqce0","pricing_plan_id":"cebpf4jnsgd1na2vs0mg"},{"bike_id":"898302b0-5824-4b78-8ff3-b364b8983bee","system_id":"levelo_inurba_marseille","lat":43.2893,"lon":5.36643,"is_reserved":false,"is_disabled":false,"rental_uris":{"android":"levelo://app?vid=898302b0-5824-4b78-8ff3-b364b8983bee","ios":"levelo://app?vid=898302b0-5824-4b78-8ff3-b364b8983bee"},"vehicle_type_id":"4","last_reported":1730895484,"current_range_meters":38400,"station_id":"ce4bhap2rcd13ifvqek0","pricing_plan_id":"cebpf4jnsgd1na2vs0mg"},{"bike_id":"b72edff7-4773-4f11-bc5b-b8806c576b10","system_id":"levelo_inurba_marseille","lat":43.28717,"lon":5.37935,"is_reserved":false,"is_disabled":false,"rental_uris":{"android":"levelo://app?vid=b72edff7-4773-4f11-bc5b-b8806c576b10","ios":"levelo://app?vid=b72edff7-4773-4f11-bc5b-b8806c576b10"},"vehicle_type_id":"4","last_reported":1730895484,"current_range_meters":27600,"station_id":"ce4bh9p2rcd13ifvqec0","pricing_plan_id":"cebpf4jnsgd1na2vs0mg"},{"bike_id":"4d33ad7b-d794-49be-b174-98579eb4474a","system_id":"levelo_inurba_marseille","lat":43.33022,"lon":5.39035,"is_reserved":false,"is_disabled":false,"rental_uris":{"android":"levelo://app?vid=4d33ad7b-d794-49be-b174-98579eb4474a","ios":"levelo://app?vid=4d33ad7b-d794-49be-b174-98579eb4474a"},"vehicle_type_id":"4","last_reported":1730895484,"current_range_meters":18800,"station_id":"ce4bhr92rcd13ifvqhrg","pricing_plan_id":"cebpf4jnsgd1na2vs0mg"},{"bike_id":"288a6bd8-772f-46e4-a8d3-d767910638e4","system_id":"levelo_inurba_marseille","lat":43.31327,"lon":5.39682,"is_reserved":false,"is_disabled":false,"rental_uris":{"android":"levelo://app?vid=288a6bd8-772f-46e4-a8d3-d767910638e4","ios":"levelo://app?vid=288a6bd8-772f-46e4-a8d3-d767910638e4"},"vehicle_type_id":"4","last_reported":1730895484,"current_range_meters":28000,"station_id":"ce4bgvp2rcd13ifvqcu0","pricing_plan_id":"cebpf4jnsgd1na2vs0mg"},{"bike_id":"b140672b-ae2d-4f5c-8060-0341618fb455","system_id":"levelo_inurba_marseille","lat":43.3133,"lon":5.3969,"is_reserved":false,"is_disabled":false,"rental_uris":{"android":"levelo://app?vid=b140672b-ae2d-4f5c-8060-0341618fb455","ios":"levelo://app?vid=b140672b-ae2d-4f5c-8060-0341618fb455"},"vehicle_type_id":"4","last_reported":1730895484,"current_range_meters":39200,"station_id":"ce4bgvp2rcd13ifvqcu0","pricing_plan_id":"cebpf4jnsgd1na2vs0mg"},{"bike_id":"b8d9b873-53c4-4592-85ca-ed6f5a7e6300","system_id":"levelo_inurba_marseille","lat":43.29637,"lon":5.40597,"is_reserved":false,"is_disabled":false,"rental_uris":{"android":"levelo://app?vid=b8d9b873-53c4-4592-85ca-ed6f5a7e6300","ios":"levelo://app?vid=b8d9b873-53c4-4592-85ca-ed6f5a7e6300"},"vehicle_type_id":"4","last_reported":1730895484,"current_range_meters":20800,"station_id":"ce4bh0h2rcd13ifvqd60","pricing_plan_id":"cebpf4jnsgd1na2vs0mg"},{"bike_id":"c3164add-6c50-4254-9aa2-3f9a96194cf7","system_id":"levelo_inurba_marseille","lat":43.30534,"lon":5.36534,"is_reserved":false,"is_disabled":false,"rental_uris":{"android":"levelo://app?vid=c3164add-6c50-4254-9aa2-3f9a96194cf7","ios":"levelo://app?vid=c3164add-6c50-4254-9aa2-3f9a96194cf7"},"vehicle_type_id":"4","last_reported":1730895484,"current_range_meters":9200,"station_id":"ce4bgs12rcd13ifvqcag","pricing_plan_id":"cebpf4jnsgd1na2vs0mg"},{"bike_id":"35cf71f5-f37e-4bbb-b151-04fa72375f7a","system_id":"levelo_inurba_marseille","lat":43.23149,"lon":5.43714,"is_reserved":false,"is_disabled":false,"rental_uris":{"android":"levelo://app?vid=35cf71f5-f37e-4bbb-b151-04fa72375f7a","ios":"levelo://app?vid=35cf71f5-f37e-4bbb-b151-04fa72375f7a"},"vehicle_type_id":"4","last_reported":1730895484,"current_range_meters":37600,"station_id":"ce4bhmp2rcd13ifvqgog","pricing_plan_id":"cebpf4jnsgd1na2vs0mg"},{"bike_id":"5c958c05-0b36-4b44-b755-410a66f37e37","system_id":"levelo_inurba_marseille","lat":43.30319,"lon":5.36898,"is_reserved":false,"is_disabled":false,"rental_uris":{"android":"levelo://app?vid=5c958c05-0b36-4b44-b755-410a66f37e37","ios":"levelo://app?vid=5c958c05-0b36-4b44-b755-410a66f37e37"},"vehicle_type_id":"4","last_reported":1730895484,"current_range_meters":38800,"station_id":"ce4bgqh2rcd13ifvqc5g","pricing_plan_id":"cebpf4jnsgd1na2vs0mg"},{"bike_id":"17b71f90-95bf-447a-8b6a-1c69ed312ec0","system_id":"levelo_inurba_marseille","lat":43.29031,"lon":5.38638,"is_reserved":false,"is_disabled":false,"rental_uris":{"android":"levelo://app?vid=17b71f90-95bf-447a-8b6a-1c69ed312ec0","ios":"levelo://app?vid=17b71f90-95bf-447a-8b6a-1c69ed312ec0"},"vehicle_type_id":"4","last_reported":1730895484,"current_range_meters":4000,"station_id":"ce4bh4p2rcd13ifvqe0g","pricing_plan_id":"cebpf4jnsgd1na2vs0mg"},{"bike_id":"eb5966d1-f371-4d30-8263-a955d6da997d","system_id":"levelo_inurba_marseille","lat":43.28727,"lon":5.3608,"is_reserved":false,"is_disabled":false,"rental_uris":{"android":"levelo://app?vid=eb5966d1-f371-4d30-8263-a955d6da997d","ios":"levelo://app?vid=eb5966d1-f371-4d30-8263-a955d6da997d"},"vehicle_type_id":"4","last_reported":1730895484,"current_range_meters":34800,"station_id":"cki0cbj6b192h4jlfktg","pricing_plan_id":"cebpf4jnsgd1na2vs0mg"},{"bike_id":"b5f01ca1-08a3-4b12-8a1e-5c3219f2f4c8","system_id":"levelo_inurba_marseille","lat":43.2781,"lon":5.40712,"is_reserved":false,"is_disabled":false,"rental_uris":{"android":"levelo://app?vid=b5f01ca1-08a3-4b12-8a1e-5c3219f2f4c8","ios":"levelo://app?vid=b5f01ca1-08a3-4b12-8a1e-5c3219f2f4c8"},"vehicle_type_id":"4","last_reported":1730895484,"current_range_meters":36400,"station_id":"ce4bhnh2rcd13ifvqgtg","pricing_plan_id":"cebpf4jnsgd1na2vs0mg"},{"bike_id":"36dca36c-50eb-408b-99f5-8ad49cc11302","system_id":"levelo_inurba_marseille","lat":43.2928,"lon":5.40117,"is_reserved":false,"is_disabled":false,"rental_uris":{"android":"levelo://app?vid=36dca36c-50eb-408b-99f5-8ad49cc11302","ios":"levelo://app?vid=36dca36c-50eb-408b-99f5-8ad49cc11302"},"vehicle_type_id":"4","last_reported":1730895484,"current_range_meters":36400,"station_id":"ce4bh312rcd13ifvqdk0","pricing_plan_id":"cebpf4jnsgd1na2vs0mg"},{"bike_id":"a083af48-d791-41e6-8ee8-826e048fad8d","system_id":"levelo_inurba_marseille","lat":43.31493,"lon":5.3731,"is_reserved":false,"is_disabled":false,"rental_uris":{"android":"levelo://app?vid=a083af48-d791-41e6-8ee8-826e048fad8d","ios":"levelo://app?vid=a083af48-d791-41e6-8ee8-826e048fad8d"},"vehicle_type_id":"4","last_reported":1730895484,"current_range_meters":10000,"station_id":"ce4bgt12rcd13ifvqcd0","pricing_plan_id":"cebpf4jnsgd1na2vs0mg"},{"bike_id":"e10a265c-6cec-4cf1-a0ae-4528eeeaf535","system_id":"levelo_inurba_marseille","lat":43.29711,"lon":5.36614,"is_reserved":false,"is_disabled":false,"rental_uris":{"android":"levelo://app?vid=e10a265c-6cec-4cf1-a0ae-4528eeeaf535","ios":"levelo://app?vid=e10a265c-6cec-4cf1-a0ae-4528eeeaf535"},"vehicle_type_id":"4","last_reported":1730895484,"current_range_meters":21600,"station_id":"ce4bgn12rcd13ifvqbt0","pricing_plan_id":"cebpf4jnsgd1na2vs0mg"},{"bike_id":"7f668cd2-a556-41dc-97fe-9b25f7338b49","system_id":"levelo_inurba_marseille","lat":43.3043,"lon":5.39751,"is_reserved":false,"is_disabled":false,"rental_uris":{"android":"levelo://app?vid=7f668cd2-a556-41dc-97fe-9b25f7338b49","ios":"levelo://app?vid=7f668cd2-a556-41dc-97fe-9b25f7338b49"},"vehicle_type_id":"4","last_reported":1730895484,"current_range_meters":28000,"station_id":"ce4bh092rcd13ifvqd20","pricing_plan_id":"cebpf4jnsgd1na2vs0mg"},{"bike_id":"e09626d7-6ad5-4f83-99e0-4ecc70ad6a62","system_id":"levelo_inurba_marseille","lat":43.28424,"lon":5.34982,"is_reserved":false,"is_disabled":false,"rental_uris":{"android":"levelo://app?vid=e09626d7-6ad5-4f83-99e0-4ecc70ad6a62","ios":"levelo://app?vid=e09626d7-6ad5-4f83-99e0-4ecc70ad6a62"},"vehicle_type_id":"4","last_reported":1730895484,"current_range_meters":38000,"station_id":"ce4bhbh2rcd13ifvqepg","pricing_plan_id":"cebpf4jnsgd1na2vs0mg"},{"bike_id":"96b6c566-d2a6-4c57-acf7-e1e62783be68","system_id":"levelo_inurba_marseille","lat":43.3031,"lon":5.36898,"is_reserved":false,"is_disabled":false,"rental_uris":{"android":"levelo://app?vid=96b6c566-d2a6-4c57-acf7-e1e62783be68","ios":"levelo://app?vid=96b6c566-d2a6-4c57-acf7-e1e62783be68"},"vehicle_type_id":"4","last_reported":1730895484,"current_range_meters":38800,"station_id":"ce4bgqh2rcd13ifvqc5g","pricing_plan_id":"cebpf4jnsgd1na2vs0mg"},{"bike_id":"692f31da-ed64-4e18-b7cc-350f01a2fb79","system_id":"levelo_inurba_marseille","lat":43.29897,"lon":5.43663,"is_reserved":false,"is_disabled":false,"rental_uris":{"android":"levelo://app?vid=692f31da-ed64-4e18-b7cc-350f01a2fb79","ios":"levelo://app?vid=692f31da-ed64-4e18-b7cc-350f01a2fb79"},"vehicle_type_id":"4","last_reported":1730895484,"current_range_meters":19200,"station_id":"ce4bhpp2rcd13ifvqhfg","pricing_plan_id":"cebpf4jnsgd1na2vs0mg"},{"bike_id":"dc447025-5846-4f51-844b-240a8200cd06","system_id":"levelo_inurba_marseille","lat":43.29788,"lon":5.37107,"is_reserved":false,"is_disabled":false,"rental_uris":{"android":"levelo://app?vid=dc447025-5846-4f51-844b-240a8200cd06","ios":"levelo://app?vid=dc447025-5846-4f51-844b-240a8200cd06"},"vehicle_type_id":"4","last_reported":1730895484,"current_range_meters":35600,"station_id":"ce4bgop2rcd13ifvqc1g","pricing_plan_id":"cebpf4jnsgd1na2vs0mg"},{"bike_id":"cef088fc-14e6-41c6-992b-1fc7bb5e4aa9","system_id":"levelo_inurba_marseille","lat":43.30277,"lon":5.3771,"is_reserved":false,"is_disabled":false,"rental_uris":{"android":"levelo://app?vid=cef088fc-14e6-41c6-992b-1fc7bb5e4aa9","ios":"levelo://app?vid=cef088fc-14e6-41c6-992b-1fc7bb5e4aa9"},"vehicle_type_id":"4","last_reported":1730895484,"current_range_meters":26000,"station_id":"ce4bguh2rcd13ifvqcj0","pricing_plan_id":"cebpf4jnsgd1na2vs0mg"},{"bike_id":"4ab8c7b5-e141-4a25-97af-102d3a57a5f1","system_id":"levelo_inurba_marseille","lat":43.29417,"lon":5.38606,"is_reserved":false,"is_disabled":false,"rental_uris":{"android":"levelo://app?vid=4ab8c7b5-e141-4a25-97af-102d3a57a5f1","ios":"levelo://app?vid=4ab8c7b5-e141-4a25-97af-102d3a57a5f1"},"vehicle_type_id":"4","last_reported":1730895484,"current_range_meters":9200,"station_id":"ce4bh2h2rcd13ifvqdh0","pricing_plan_id":"cebpf4jnsgd1na2vs0mg"},{"bike_id":"6de8ccfc-0f7b-4e28-9ff8-0ebc5fd88b88","system_id":"levelo_inurba_marseille","lat":43.26788,"lon":5.39418,"is_reserved":false,"is_disabled":false,"rental_uris":{"android":"levelo://app?vid=6de8ccfc-0f7b-4e28-9ff8-0ebc5fd88b88","ios":"levelo://app?vid=6de8ccfc-0f7b-4e28-9ff8-0ebc5fd88b88"},"vehicle_type_id":"4","last_reported":1730895484,"current_range_meters":15200,"station_id":"ce4bhh12rcd13ifvqfg0","pricing_plan_id":"cebpf4jnsgd1na2vs0mg"},{"bike_id":"587e2033-43ab-44e0-a4f4-b4fc67d83408","system_id":"levelo_inurba_marseille","lat":43.305417,"lon":5.367001,"is_reserved":false,"is_disabled":false,"rental_uris":{"android":"levelo://app?vid=587e2033-43ab-44e0-a4f4-b4fc67d83408","ios":"levelo://app?vid=587e2033-43ab-44e0-a4f4-b4fc67d83408"},"vehicle_type_id":"4","last_reported":1730895484,"current_range_meters":38800,"station_id":"ce4bgrp2rcd13ifvqc9g","pricing_plan_id":"cebpf4jnsgd1na2vs0mg"},{"bike_id":"db79fab9-0b0c-4318-a49c-e060e76372e2","system_id":"levelo_inurba_marseille","lat":43.30132,"lon":5.39867,"is_reserved":false,"is_disabled":false,"rental_uris":{"android":"levelo://app?vid=db79fab9-0b0c-4318-a49c-e060e76372e2","ios":"levelo://app?vid=db79fab9-0b0c-4318-a49c-e060e76372e2"},"vehicle_type_id":"4","last_reported":1730895484,"current_range_meters":36800,"station_id":"ce4bh0h2rcd13ifvqd40","pricing_plan_id":"cebpf4jnsgd1na2vs0mg"},{"bike_id":"ad92d505-e54c-4fbd-9b19-09a8a7fd07da","system_id":"levelo_inurba_marseille","lat":43.3136,"lon":5.36732,"is_reserved":false,"is_disabled":false,"rental_uris":{"android":"levelo://app?vid=ad92d505-e54c-4fbd-9b19-09a8a7fd07da","ios":"levelo://app?vid=ad92d505-e54c-4fbd-9b19-09a8a7fd07da"},"vehicle_type_id":"4","last_reported":1730895484,"current_range_meters":38800,"station_id":"ce4bgr92rcd13ifvqc6g","pricing_plan_id":"cebpf4jnsgd1na2vs0mg"},{"bike_id":"99d2eb8f-6a2c-4ece-8d62-152231c63b54","system_id":"levelo_inurba_marseille","lat":43.29528,"lon":5.39058,"is_reserved":false,"is_disabled":false,"rental_uris":{"android":"levelo://app?vid=99d2eb8f-6a2c-4ece-8d62-152231c63b54","ios":"levelo://app?vid=99d2eb8f-6a2c-4ece-8d62-152231c63b54"},"vehicle_type_id":"4","last_reported":1730895484,"current_range_meters":36400,"station_id":"ce4bh3p2rcd13ifvqdp0","pricing_plan_id":"cebpf4jnsgd1na2vs0mg"},{"bike_id":"66cadc2f-87dc-4b78-bb91-c6d6eee1cfce","system_id":"levelo_inurba_marseille","lat":43.30135,"lon":5.3988,"is_reserved":false,"is_disabled":false,"rental_uris":{"android":"levelo://app?vid=66cadc2f-87dc-4b78-bb91-c6d6eee1cfce","ios":"levelo://app?vid=66cadc2f-87dc-4b78-bb91-c6d6eee1cfce"},"vehicle_type_id":"4","last_reported":1730895484,"current_range_meters":20000,"station_id":"ce4bh0h2rcd13ifvqd40","pricing_plan_id":"cebpf4jnsgd1na2vs0mg"},{"bike_id":"90a9fddc-02f7-4bcc-bfe8-78452e26c91a","system_id":"levelo_inurba_marseille","lat":43.27995,"lon":5.41645,"is_reserved":false,"is_disabled":false,"rental_uris":{"android":"levelo://app?vid=90a9fddc-02f7-4bcc-bfe8-78452e26c91a","ios":"levelo://app?vid=90a9fddc-02f7-4bcc-bfe8-78452e26c91a"},"vehicle_type_id":"4","last_reported":1730895484,"current_range_meters":8800,"station_id":"ce4bho12rcd13ifvqh1g","pricing_plan_id":"cebpf4jnsgd1na2vs0mg"},{"bike_id":"e5f32691-52b3-49a0-bf2d-4ae76cb03ca6","system_id":"levelo_inurba_marseille","lat":43.30184,"lon":5.3661,"is_reserved":false,"is_disabled":false,"rental_uris":{"android":"levelo://app?vid=e5f32691-52b3-49a0-bf2d-4ae76cb03ca6","ios":"levelo://app?vid=e5f32691-52b3-49a0-bf2d-4ae76cb03ca6"},"vehicle_type_id":"4","last_reported":1730895484,"current_range_meters":23200,"station_id":"ce4bgrh2rcd13ifvqc8g","pricing_plan_id":"cebpf4jnsgd1na2vs0mg"},{"bike_id":"6c0ec494-6a8d-470b-8cc1-989fb91438d3","system_id":"levelo_inurba_marseille","lat":43.24163,"lon":5.39344,"is_reserved":false,"is_disabled":false,"rental_uris":{"android":"levelo://app?vid=6c0ec494-6a8d-470b-8cc1-989fb91438d3","ios":"levelo://app?vid=6c0ec494-6a8d-470b-8cc1-989fb91438d3"},"vehicle_type_id":"4","last_reported":1730895484,"current_range_meters":35200,"station_id":"","pricing_plan_id":"cebpf4jnsgd1na2vs0mg"},{"bike_id":"bdbbaea9-237d-4daf-be87-8e4a54fea7c2","system_id":"levelo_inurba_marseille","lat":43.28619,"lon":5.35107,"is_reserved":false,"is_disabled":false,"rental_uris":{"android":"levelo://app?vid=bdbbaea9-237d-4daf-be87-8e4a54fea7c2","ios":"levelo://app?vid=bdbbaea9-237d-4daf-be87-8e4a54fea7c2"},"vehicle_type_id":"4","last_reported":1730895484,"current_range_meters":28800,"station_id":"ce4bhch2rcd13ifvqeug","pricing_plan_id":"cebpf4jnsgd1na2vs0mg"},{"bike_id":"504a2677-e7f9-490d-8752-2a9c4e557185","system_id":"levelo_inurba_marseille","lat":43.27181,"lon":5.40999,"is_reserved":false,"is_disabled":false,"rental_uris":{"android":"levelo://app?vid=504a2677-e7f9-490d-8752-2a9c4e557185","ios":"levelo://app?vid=504a2677-e7f9-490d-8752-2a9c4e557185"},"vehicle_type_id":"4","last_reported":1730895484,"current_range_meters":30000,"station_id":"ce4bhl12rcd13ifvqgf0","pricing_plan_id":"cebpf4jnsgd1na2vs0mg"},{"bike_id":"6c263834-c769-4a3c-8f0a-d7d3515b8679","system_id":"levelo_inurba_marseille","lat":43.30333,"lon":5.40427,"is_reserved":false,"is_disabled":false,"rental_uris":{"android":"levelo://app?vid=6c263834-c769-4a3c-8f0a-d7d3515b8679","ios":"levelo://app?vid=6c263834-c769-4a3c-8f0a-d7d3515b8679"},"vehicle_type_id":"4","last_reported":1730895484,"current_range_meters":20800,"station_id":"ce4bh012rcd13ifvqd10","pricing_plan_id":"cebpf4jnsgd1na2vs0mg"},{"bike_id":"765bd3c1-6e79-4ea5-a2b2-4ed2bff57d98","system_id":"levelo_inurba_marseille","lat":43.29256,"lon":5.40899,"is_reserved":false,"is_disabled":false,"rental_uris":{"android":"levelo://app?vid=765bd3c1-6e79-4ea5-a2b2-4ed2bff57d98","ios":"levelo://app?vid=765bd3c1-6e79-4ea5-a2b2-4ed2bff57d98"},"vehicle_type_id":"4","last_reported":1730895484,"current_range_meters":22400,"station_id":"ce4bh192rcd13ifvqdc0","pricing_plan_id":"cebpf4jnsgd1na2vs0mg"},{"bike_id":"44e623a5-b064-4f55-9164-7e9710f6b372","system_id":"levelo_inurba_marseille","lat":43.29626,"lon":5.37169,"is_reserved":false,"is_disabled":false,"rental_uris":{"android":"levelo://app?vid=44e623a5-b064-4f55-9164-7e9710f6b372","ios":"levelo://app?vid=44e623a5-b064-4f55-9164-7e9710f6b372"},"vehicle_type_id":"4","last_reported":1730895484,"current_range_meters":32400,"station_id":"ce4bgnh2rcd13ifvqc0g","pricing_plan_id":"cebpf4jnsgd1na2vs0mg"},{"bike_id":"d4a936c2-08b3-4b37-ae78-8b127d2980c7","system_id":"levelo_inurba_marseille","lat":43.2572,"lon":5.4111,"is_reserved":false,"is_disabled":false,"rental_uris":{"android":"levelo://app?vid=d4a936c2-08b3-4b37-ae78-8b127d2980c7","ios":"levelo://app?vid=d4a936c2-08b3-4b37-ae78-8b127d2980c7"},"vehicle_type_id":"4","last_reported":1730895484,"current_range_meters":18000,"station_id":"ce4bhkp2rcd13ifvqgd0","pricing_plan_id":"cebpf4jnsgd1na2vs0mg"},{"bike_id":"9b8567ef-4042-4b8a-b170-44ad3c689258","system_id":"levelo_inurba_marseille","lat":43.25009,"lon":5.38918,"is_reserved":false,"is_disabled":false,"rental_uris":{"android":"levelo://app?vid=9b8567ef-4042-4b8a-b170-44ad3c689258","ios":"levelo://app?vid=9b8567ef-4042-4b8a-b170-44ad3c689258"},"vehicle_type_id":"4","last_reported":1730895484,"current_range_meters":2800,"station_id":"ce4bhgp2rcd13ifvqfd0","pricing_plan_id":"cebpf4jnsgd1na2vs0mg"},{"bike_id":"42163e3e-5009-401f-a1ce-f09eb7e2a510","system_id":"levelo_inurba_marseille","lat":43.31324,"lon":5.39689,"is_reserved":false,"is_disabled":false,"rental_uris":{"android":"levelo://app?vid=42163e3e-5009-401f-a1ce-f09eb7e2a510","ios":"levelo://app?vid=42163e3e-5009-401f-a1ce-f09eb7e2a510"},"vehicle_type_id":"4","last_reported":1730895484,"current_range_meters":39200,"station_id":"ce4bgvp2rcd13ifvqcu0","pricing_plan_id":"cebpf4jnsgd1na2vs0mg"},{"bike_id":"5838d11e-2b64-4694-aa0d-d21394f0d95b","system_id":"levelo_inurba_marseille","lat":43.24654,"lon":5.38892,"is_reserved":false,"is_disabled":false,"rental_uris":{"android":"levelo://app?vid=5838d11e-2b64-4694-aa0d-d21394f0d95b","ios":"levelo://app?vid=5838d11e-2b64-4694-aa0d-d21394f0d95b"},"vehicle_type_id":"4","last_reported":1730895484,"current_range_meters":36000,"station_id":"ce4bhg12rcd13ifvqf60","pricing_plan_id":"cebpf4jnsgd1na2vs0mg"},{"bike_id":"a9b55777-f1e2-44bb-bd36-ea38a2f4482b","system_id":"levelo_inurba_marseille","lat":43.29984,"lon":5.38483,"is_reserved":false,"is_disabled":false,"rental_uris":{"android":"levelo://app?vid=a9b55777-f1e2-44bb-bd36-ea38a2f4482b","ios":"levelo://app?vid=a9b55777-f1e2-44bb-bd36-ea38a2f4482b"},"vehicle_type_id":"4","last_reported":1730895484,"current_range_meters":34800,"station_id":"ce4bgj92rcd13ifvqbd0","pricing_plan_id":"cebpf4jnsgd1na2vs0mg"},{"bike_id":"a0db1695-32d8-4d9c-9829-ab1da773a69e","system_id":"levelo_inurba_marseille","lat":43.30138,"lon":5.3987,"is_reserved":false,"is_disabled":false,"rental_uris":{"android":"levelo://app?vid=a0db1695-32d8-4d9c-9829-ab1da773a69e","ios":"levelo://app?vid=a0db1695-32d8-4d9c-9829-ab1da773a69e"},"vehicle_type_id":"4","last_reported":1730895484,"current_range_meters":36800,"station_id":"ce4bh0h2rcd13ifvqd40","pricing_plan_id":"cebpf4jnsgd1na2vs0mg"},{"bike_id":"7b7b77ab-2ffe-427f-8c6d-bd63340d1745","system_id":"levelo_inurba_marseille","lat":43.29567,"lon":5.39961,"is_reserved":false,"is_disabled":false,"rental_uris":{"android":"levelo://app?vid=7b7b77ab-2ffe-427f-8c6d-bd63340d1745","ios":"levelo://app?vid=7b7b77ab-2ffe-427f-8c6d-bd63340d1745"},"vehicle_type_id":"4","last_reported":1730895484,"current_range_meters":24000,"station_id":"ce4bh312rcd13ifvqdj0","pricing_plan_id":"cebpf4jnsgd1na2vs0mg"},{"bike_id":"cf86f9c2-b627-4bdc-b7c5-42c08013dc40","system_id":"levelo_inurba_marseille","lat":43.29972,"lon":5.38494,"is_reserved":false,"is_disabled":false,"rental_uris":{"android":"levelo://app?vid=cf86f9c2-b627-4bdc-b7c5-42c08013dc40","ios":"levelo://app?vid=cf86f9c2-b627-4bdc-b7c5-42c08013dc40"},"vehicle_type_id":"4","last_reported":1730895484,"current_range_meters":20800,"station_id":"ce4bgj92rcd13ifvqbd0","pricing_plan_id":"cebpf4jnsgd1na2vs0mg"},{"bike_id":"58dbcfe7-8396-4727-bcd9-e808db0688de","system_id":"levelo_inurba_marseille","lat":43.29623,"lon":5.37159,"is_reserved":false,"is_disabled":false,"rental_uris":{"android":"levelo://app?vid=58dbcfe7-8396-4727-bcd9-e808db0688de","ios":"levelo://app?vid=58dbcfe7-8396-4727-bcd9-e808db0688de"},"vehicle_type_id":"4","last_reported":1730895484,"current_range_meters":36000,"station_id":"ce4bgnh2rcd13ifvqc0g","pricing_plan_id":"cebpf4jnsgd1na2vs0mg"},{"bike_id":"2be58595-1ee4-4e97-90d2-c6d933b5e1c7","system_id":"levelo_inurba_marseille","lat":43.29897,"lon":5.43668,"is_reserved":false,"is_disabled":false,"rental_uris":{"android":"levelo://app?vid=2be58595-1ee4-4e97-90d2-c6d933b5e1c7","ios":"levelo://app?vid=2be58595-1ee4-4e97-90d2-c6d933b5e1c7"},"vehicle_type_id":"4","last_reported":1730895484,"current_range_meters":20000,"station_id":"ce4bhpp2rcd13ifvqhfg","pricing_plan_id":"cebpf4jnsgd1na2vs0mg"},{"bike_id":"0ab2d0fb-4558-435e-8a7a-e5e54e69a749","system_id":"levelo_inurba_marseille","lat":43.30419,"lon":5.4128,"is_reserved":false,"is_disabled":false,"rental_uris":{"android":"levelo://app?vid=0ab2d0fb-4558-435e-8a7a-e5e54e69a749","ios":"levelo://app?vid=0ab2d0fb-4558-435e-8a7a-e5e54e69a749"},"vehicle_type_id":"4","last_reported":1730895484,"current_range_meters":29600,"station_id":"ce4bhop2rcd13ifvqh8g","pricing_plan_id":"cebpf4jnsgd1na2vs0mg"},{"bike_id":"7ee8f716-c78d-4026-affe-fbf44b9f1146","system_id":"levelo_inurba_marseille","lat":43.29549,"lon":5.42287,"is_reserved":false,"is_disabled":false,"rental_uris":{"android":"levelo://app?vid=7ee8f716-c78d-4026-affe-fbf44b9f1146","ios":"levelo://app?vid=7ee8f716-c78d-4026-affe-fbf44b9f1146"},"vehicle_type_id":"4","last_reported":1730895484,"current_range_meters":32800,"station_id":"ce4bhph2rcd13ifvqhdg","pricing_plan_id":"cebpf4jnsgd1na2vs0mg"},{"bike_id":"cdbefca1-2453-493e-901e-7bbd9e077f14","system_id":"levelo_inurba_marseille","lat":43.2572,"lon":5.41111,"is_reserved":false,"is_disabled":false,"rental_uris":{"android":"levelo://app?vid=cdbefca1-2453-493e-901e-7bbd9e077f14","ios":"levelo://app?vid=cdbefca1-2453-493e-901e-7bbd9e077f14"},"vehicle_type_id":"4","last_reported":1730895484,"current_range_meters":25600,"station_id":"ce4bhkp2rcd13ifvqgd0","pricing_plan_id":"cebpf4jnsgd1na2vs0mg"},{"bike_id":"cc9d94b0-5673-43e5-ade1-073c59830731","system_id":"levelo_inurba_marseille","lat":43.29218,"lon":5.36055,"is_reserved":false,"is_disabled":false,"rental_uris":{"android":"levelo://app?vid=cc9d94b0-5673-43e5-ade1-073c59830731","ios":"levelo://app?vid=cc9d94b0-5673-43e5-ade1-073c59830731"},"vehicle_type_id":"4","last_reported":1730895484,"current_range_meters":32800,"station_id":"ce4bhbh2rcd13ifvqeqg","pricing_plan_id":"cebpf4jnsgd1na2vs0mg"},{"bike_id":"b0f4393b-b503-4568-9710-28dd11dce18d","system_id":"levelo_inurba_marseille","lat":43.26579,"lon":5.39011,"is_reserved":false,"is_disabled":false,"rental_uris":{"android":"levelo://app?vid=b0f4393b-b503-4568-9710-28dd11dce18d","ios":"levelo://app?vid=b0f4393b-b503-4568-9710-28dd11dce18d"},"vehicle_type_id":"4","last_reported":1730895484,"current_range_meters":4000,"station_id":"ce4bhe12rcd13ifvqf30","pricing_plan_id":"cebpf4jnsgd1na2vs0mg"},{"bike_id":"af40c465-3c25-4b8b-95c5-982f2fde9235","system_id":"levelo_inurba_marseille","lat":43.27815,"lon":5.40716,"is_reserved":false,"is_disabled":false,"rental_uris":{"android":"levelo://app?vid=af40c465-3c25-4b8b-95c5-982f2fde9235","ios":"levelo://app?vid=af40c465-3c25-4b8b-95c5-982f2fde9235"},"vehicle_type_id":"4","last_reported":1730895484,"current_range_meters":18800,"station_id":"ce4bhnh2rcd13ifvqgtg","pricing_plan_id":"cebpf4jnsgd1na2vs0mg"},{"bike_id":"1dafc3c8-1077-44b3-aea7-a66bf4d6f2cd","system_id":"levelo_inurba_marseille","lat":43.30952,"lon":5.39038,"is_reserved":false,"is_disabled":false,"rental_uris":{"android":"levelo://app?vid=1dafc3c8-1077-44b3-aea7-a66bf4d6f2cd","ios":"levelo://app?vid=1dafc3c8-1077-44b3-aea7-a66bf4d6f2cd"},"vehicle_type_id":"4","last_reported":1730895484,"current_range_meters":9200,"station_id":"ce4bgup2rcd13ifvqco0","pricing_plan_id":"cebpf4jnsgd1na2vs0mg"},{"bike_id":"f348c9f4-9a66-4443-89e4-59eadd84ea52","system_id":"levelo_inurba_marseille","lat":43.31521,"lon":5.37244,"is_reserved":false,"is_disabled":false,"rental_uris":{"android":"levelo://app?vid=f348c9f4-9a66-4443-89e4-59eadd84ea52","ios":"levelo://app?vid=f348c9f4-9a66-4443-89e4-59eadd84ea52"},"vehicle_type_id":"4","last_reported":1730895484,"current_range_meters":8000,"station_id":"","pricing_plan_id":"cebpf4jnsgd1na2vs0mg"},{"bike_id":"cc7d51f7-814e-45ba-9409-9bdc4d46534b","system_id":"levelo_inurba_marseille","lat":43.298099,"lon":5.381013,"is_reserved":false,"is_disabled":false,"rental_uris":{"android":"levelo://app?vid=cc7d51f7-814e-45ba-9409-9bdc4d46534b","ios":"levelo://app?vid=cc7d51f7-814e-45ba-9409-9bdc4d46534b"},"vehicle_type_id":"4","last_reported":1730895484,"current_range_meters":28400,"station_id":"ce4bgt92rcd13ifvqcf0","pricing_plan_id":"cebpf4jnsgd1na2vs0mg"},{"bike_id":"70180937-bd3a-43ca-bd00-b5f907cabb3d","system_id":"levelo_inurba_marseille","lat":43.296289,"lon":5.377007,"is_reserved":false,"is_disabled":false,"rental_uris":{"android":"levelo://app?vid=70180937-bd3a-43ca-bd00-b5f907cabb3d","ios":"levelo://app?vid=70180937-bd3a-43ca-bd00-b5f907cabb3d"},"vehicle_type_id":"4","last_reported":1730895484,"current_range_meters":16800,"station_id":"ce4bgi92rcd13ifvqb90","pricing_plan_id":"cebpf4jnsgd1na2vs0mg"},{"bike_id":"da96c2be-ffe8-410e-b05f-bd4285b4e703","system_id":"levelo_inurba_marseille","lat":43.23148,"lon":5.43714,"is_reserved":false,"is_disabled":false,"rental_uris":{"android":"levelo://app?vid=da96c2be-ffe8-410e-b05f-bd4285b4e703","ios":"levelo://app?vid=da96c2be-ffe8-410e-b05f-bd4285b4e703"},"vehicle_type_id":"4","last_reported":1730895484,"current_range_meters":20400,"station_id":"ce4bhmp2rcd13ifvqgog","pricing_plan_id":"cebpf4jnsgd1na2vs0mg"},{"bike_id":"dfc5a11b-cfc2-4ce9-8698-799cdda3d684","system_id":"levelo_inurba_marseille","lat":43.28076,"lon":5.39642,"is_reserved":false,"is_disabled":false,"rental_uris":{"android":"levelo://app?vid=dfc5a11b-cfc2-4ce9-8698-799cdda3d684","ios":"levelo://app?vid=dfc5a11b-cfc2-4ce9-8698-799cdda3d684"},"vehicle_type_id":"4","last_reported":1730895484,"current_range_meters":38400,"station_id":"ce4bho12rcd13ifvqh2g","pricing_plan_id":"cebpf4jnsgd1na2vs0mg"},{"bike_id":"41d1f86c-47c8-47d8-9882-96d09b861f50","system_id":"levelo_inurba_marseille","lat":43.31374,"lon":5.38383,"is_reserved":false,"is_disabled":false,"rental_uris":{"android":"levelo://app?vid=41d1f86c-47c8-47d8-9882-96d09b861f50","ios":"levelo://app?vid=41d1f86c-47c8-47d8-9882-96d09b861f50"},"vehicle_type_id":"4","last_reported":1730895484,"current_range_meters":37600,"station_id":"","pricing_plan_id":"cebpf4jnsgd1na2vs0mg"},{"bike_id":"d1980623-f2e9-488f-ad4c-96f1b4b18325","system_id":"levelo_inurba_marseille","lat":43.26214,"lon":5.37442,"is_reserved":false,"is_disabled":false,"rental_uris":{"android":"levelo://app?vid=d1980623-f2e9-488f-ad4c-96f1b4b18325","ios":"levelo://app?vid=d1980623-f2e9-488f-ad4c-96f1b4b18325"},"vehicle_type_id":"4","last_reported":1730895484,"current_range_meters":34000,"station_id":"ce4bhgp2rcd13ifvqfc0","pricing_plan_id":"cebpf4jnsgd1na2vs0mg"},{"bike_id":"3e4ebbfd-57e7-4a76-af26-cf750e071e89","system_id":"levelo_inurba_marseille","lat":43.3133,"lon":5.39698,"is_reserved":false,"is_disabled":false,"rental_uris":{"android":"levelo://app?vid=3e4ebbfd-57e7-4a76-af26-cf750e071e89","ios":"levelo://app?vid=3e4ebbfd-57e7-4a76-af26-cf750e071e89"},"vehicle_type_id":"4","last_reported":1730895484,"current_range_meters":38800,"station_id":"ce4bgvp2rcd13ifvqcu0","pricing_plan_id":"cebpf4jnsgd1na2vs0mg"},{"bike_id":"4c5cf20b-b392-4566-944f-1600750b1527","system_id":"levelo_inurba_marseille","lat":43.25003,"lon":5.38938,"is_reserved":false,"is_disabled":false,"rental_uris":{"android":"levelo://app?vid=4c5cf20b-b392-4566-944f-1600750b1527","ios":"levelo://app?vid=4c5cf20b-b392-4566-944f-1600750b1527"},"vehicle_type_id":"4","last_reported":1730895484,"current_range_meters":36400,"station_id":"ce4bhgp2rcd13ifvqfd0","pricing_plan_id":"cebpf4jnsgd1na2vs0mg"},{"bike_id":"ce2fb28c-ad6a-4ba1-baf0-cc04e75bf748","system_id":"levelo_inurba_marseille","lat":43.29219,"lon":5.36055,"is_reserved":false,"is_disabled":false,"rental_uris":{"android":"levelo://app?vid=ce2fb28c-ad6a-4ba1-baf0-cc04e75bf748","ios":"levelo://app?vid=ce2fb28c-ad6a-4ba1-baf0-cc04e75bf748"},"vehicle_type_id":"4","last_reported":1730895484,"current_range_meters":34000,"station_id":"ce4bhbh2rcd13ifvqeqg","pricing_plan_id":"cebpf4jnsgd1na2vs0mg"},{"bike_id":"7fd2d072-1280-4445-b1d2-ca98c3a4542c","system_id":"levelo_inurba_marseille","lat":43.2465,"lon":5.38893,"is_reserved":false,"is_disabled":false,"rental_uris":{"android":"levelo://app?vid=7fd2d072-1280-4445-b1d2-ca98c3a4542c","ios":"levelo://app?vid=7fd2d072-1280-4445-b1d2-ca98c3a4542c"},"vehicle_type_id":"4","last_reported":1730895484,"current_range_meters":37600,"station_id":"ce4bhg12rcd13ifvqf60","pricing_plan_id":"cebpf4jnsgd1na2vs0mg"},{"bike_id":"25198fe7-c926-4914-979d-a669fcc0a61c","system_id":"levelo_inurba_marseille","lat":43.290299,"lon":5.386484,"is_reserved":false,"is_disabled":false,"rental_uris":{"android":"levelo://app?vid=25198fe7-c926-4914-979d-a669fcc0a61c","ios":"levelo://app?vid=25198fe7-c926-4914-979d-a669fcc0a61c"},"vehicle_type_id":"4","last_reported":1730895484,"current_range_meters":33600,"station_id":"ce4bh4p2rcd13ifvqe0g","pricing_plan_id":"cebpf4jnsgd1na2vs0mg"},{"bike_id":"8cd85f26-d6e4-45e1-8456-7a7bd1f87a38","system_id":"levelo_inurba_marseille","lat":43.27835,"lon":5.39214,"is_reserved":false,"is_disabled":false,"rental_uris":{"android":"levelo://app?vid=8cd85f26-d6e4-45e1-8456-7a7bd1f87a38","ios":"levelo://app?vid=8cd85f26-d6e4-45e1-8456-7a7bd1f87a38"},"vehicle_type_id":"4","last_reported":1730895484,"current_range_meters":36000,"station_id":"ce4bhjp2rcd13ifvqga0","pricing_plan_id":"cebpf4jnsgd1na2vs0mg"},{"bike_id":"340ee037-c5f9-4ff6-a16b-0e0f3098fa79","system_id":"levelo_inurba_marseille","lat":43.31458,"lon":5.37381,"is_reserved":false,"is_disabled":false,"rental_uris":{"android":"levelo://app?vid=340ee037-c5f9-4ff6-a16b-0e0f3098fa79","ios":"levelo://app?vid=340ee037-c5f9-4ff6-a16b-0e0f3098fa79"},"vehicle_type_id":"4","last_reported":1730895484,"current_range_meters":24400,"station_id":"","pricing_plan_id":"cebpf4jnsgd1na2vs0mg"},{"bike_id":"8f43fe37-2b63-4a02-98dd-daf0496db2f7","system_id":"levelo_inurba_marseille","lat":43.30155,"lon":5.38084,"is_reserved":false,"is_disabled":false,"rental_uris":{"android":"levelo://app?vid=8f43fe37-2b63-4a02-98dd-daf0496db2f7","ios":"levelo://app?vid=8f43fe37-2b63-4a02-98dd-daf0496db2f7"},"vehicle_type_id":"4","last_reported":1730895484,"current_range_meters":38400,"station_id":"ce4bgjp2rcd13ifvqbh0","pricing_plan_id":"cebpf4jnsgd1na2vs0mg"},{"bike_id":"3b8fb496-7cfc-4bab-bdb0-1f6f6ea988cb","system_id":"levelo_inurba_marseille","lat":43.28361,"lon":5.38626,"is_reserved":false,"is_disabled":false,"rental_uris":{"android":"levelo://app?vid=3b8fb496-7cfc-4bab-bdb0-1f6f6ea988cb","ios":"levelo://app?vid=3b8fb496-7cfc-4bab-bdb0-1f6f6ea988cb"},"vehicle_type_id":"4","last_reported":1730895484,"current_range_meters":36400,"station_id":"ce4bh492rcd13ifvqdvg","pricing_plan_id":"cebpf4jnsgd1na2vs0mg"},{"bike_id":"b4678c20-7935-41da-9eb4-bbd1cd730c71","system_id":"levelo_inurba_marseille","lat":43.25868,"lon":5.39899,"is_reserved":false,"is_disabled":false,"rental_uris":{"android":"levelo://app?vid=b4678c20-7935-41da-9eb4-bbd1cd730c71","ios":"levelo://app?vid=b4678c20-7935-41da-9eb4-bbd1cd730c71"},"vehicle_type_id":"4","last_reported":1730895484,"current_range_meters":30400,"station_id":"ce4bhl92rcd13ifvqghg","pricing_plan_id":"cebpf4jnsgd1na2vs0mg"},{"bike_id":"cde33d01-4fdf-4588-9993-50576e545d63","system_id":"levelo_inurba_marseille","lat":43.29894,"lon":5.43657,"is_reserved":false,"is_disabled":false,"rental_uris":{"android":"levelo://app?vid=cde33d01-4fdf-4588-9993-50576e545d63","ios":"levelo://app?vid=cde33d01-4fdf-4588-9993-50576e545d63"},"vehicle_type_id":"4","last_reported":1730895484,"current_range_meters":38000,"station_id":"ce4bhpp2rcd13ifvqhfg","pricing_plan_id":"cebpf4jnsgd1na2vs0mg"},{"bike_id":"86a86d13-51a7-4d8d-bf2d-63d1fd1cc015","system_id":"levelo_inurba_marseille","lat":43.29523,"lon":5.39032,"is_reserved":false,"is_disabled":false,"rental_uris":{"android":"levelo://app?vid=86a86d13-51a7-4d8d-bf2d-63d1fd1cc015","ios":"levelo://app?vid=86a86d13-51a7-4d8d-bf2d-63d1fd1cc015"},"vehicle_type_id":"4","last_reported":1730895484,"current_range_meters":38800,"station_id":"ce4bh3p2rcd13ifvqdp0","pricing_plan_id":"cebpf4jnsgd1na2vs0mg"},{"bike_id":"cfeb4f1a-c28e-4d28-a128-3f5ea0030cc0","system_id":"levelo_inurba_marseille","lat":43.30208,"lon":5.39473,"is_reserved":false,"is_disabled":false,"rental_uris":{"android":"levelo://app?vid=cfeb4f1a-c28e-4d28-a128-3f5ea0030cc0","ios":"levelo://app?vid=cfeb4f1a-c28e-4d28-a128-3f5ea0030cc0"},"vehicle_type_id":"4","last_reported":1730895484,"current_range_meters":34000,"station_id":"ce4bh0p2rcd13ifvqd70","pricing_plan_id":"cebpf4jnsgd1na2vs0mg"},{"bike_id":"9d9dc117-b422-4432-b305-2ee17862cef6","system_id":"levelo_inurba_marseille","lat":43.31216,"lon":5.3689,"is_reserved":false,"is_disabled":false,"rental_uris":{"android":"levelo://app?vid=9d9dc117-b422-4432-b305-2ee17862cef6","ios":"levelo://app?vid=9d9dc117-b422-4432-b305-2ee17862cef6"},"vehicle_type_id":"4","last_reported":1730895484,"current_range_meters":28800,"station_id":"ce4bgl92rcd13ifvqbq0","pricing_plan_id":"cebpf4jnsgd1na2vs0mg"},{"bike_id":"b6610bdf-8909-491b-82af-22d5ec18a8c3","system_id":"levelo_inurba_marseille","lat":43.30959,"lon":5.39043,"is_reserved":false,"is_disabled":false,"rental_uris":{"android":"levelo://app?vid=b6610bdf-8909-491b-82af-22d5ec18a8c3","ios":"levelo://app?vid=b6610bdf-8909-491b-82af-22d5ec18a8c3"},"vehicle_type_id":"4","last_reported":1730895484,"current_range_meters":10800,"station_id":"ce4bgup2rcd13ifvqco0","pricing_plan_id":"cebpf4jnsgd1na2vs0mg"},{"bike_id":"7c11a563-75b5-427a-8e7e-4e83724c2cde","system_id":"levelo_inurba_marseille","lat":43.25865,"lon":5.39892,"is_reserved":false,"is_disabled":false,"rental_uris":{"android":"levelo://app?vid=7c11a563-75b5-427a-8e7e-4e83724c2cde","ios":"levelo://app?vid=7c11a563-75b5-427a-8e7e-4e83724c2cde"},"vehicle_type_id":"4","last_reported":1730895484,"current_range_meters":29600,"station_id":"ce4bhl92rcd13ifvqghg","pricing_plan_id":"cebpf4jnsgd1na2vs0mg"},{"bike_id":"f5596869-7913-4686-95ca-aa0c6c69ba13","system_id":"levelo_inurba_marseille","lat":43.3091,"lon":5.36856,"is_reserved":false,"is_disabled":false,"rental_uris":{"android":"levelo://app?vid=f5596869-7913-4686-95ca-aa0c6c69ba13","ios":"levelo://app?vid=f5596869-7913-4686-95ca-aa0c6c69ba13"},"vehicle_type_id":"4","last_reported":1730895484,"current_range_meters":38400,"station_id":"ce4bgn92rcd13ifvqbvg","pricing_plan_id":"cebpf4jnsgd1na2vs0mg"},{"bike_id":"1c1b85fe-b319-4c1d-aafd-6f3529098df8","system_id":"levelo_inurba_marseille","lat":43.29193,"lon":5.39313,"is_reserved":false,"is_disabled":false,"rental_uris":{"android":"levelo://app?vid=1c1b85fe-b319-4c1d-aafd-6f3529098df8","ios":"levelo://app?vid=1c1b85fe-b319-4c1d-aafd-6f3529098df8"},"vehicle_type_id":"4","last_reported":1730895484,"current_range_meters":36800,"station_id":"ce4bh192rcd13ifvqdd0","pricing_plan_id":"cebpf4jnsgd1na2vs0mg"},{"bike_id":"5174ae6b-73b7-4eb9-b82e-9c61c1f78ce8","system_id":"levelo_inurba_marseille","lat":43.31216,"lon":5.40635,"is_reserved":false,"is_disabled":false,"rental_uris":{"android":"levelo://app?vid=5174ae6b-73b7-4eb9-b82e-9c61c1f78ce8","ios":"levelo://app?vid=5174ae6b-73b7-4eb9-b82e-9c61c1f78ce8"},"vehicle_type_id":"4","last_reported":1730895484,"current_range_meters":23200,"station_id":"","pricing_plan_id":"cebpf4jnsgd1na2vs0mg"},{"bike_id":"791820e4-4597-4f4e-ac70-d9b61efd8e67","system_id":"levelo_inurba_marseille","lat":43.28704,"lon":5.39982,"is_reserved":false,"is_disabled":false,"rental_uris":{"android":"levelo://app?vid=791820e4-4597-4f4e-ac70-d9b61efd8e67","ios":"levelo://app?vid=791820e4-4597-4f4e-ac70-d9b61efd8e67"},"vehicle_type_id":"4","last_reported":1730895484,"current_range_meters":38800,"station_id":"ce4bho92rcd13ifvqh3g","pricing_plan_id":"cebpf4jnsgd1na2vs0mg"},{"bike_id":"daf92f98-f55b-4ce1-9313-d0256864e116","system_id":"levelo_inurba_marseille","lat":43.29048,"lon":5.35911,"is_reserved":false,"is_disabled":false,"rental_uris":{"android":"levelo://app?vid=daf92f98-f55b-4ce1-9313-d0256864e116","ios":"levelo://app?vid=daf92f98-f55b-4ce1-9313-d0256864e116"},"vehicle_type_id":"4","last_reported":1730895484,"current_range_meters":24800,"station_id":"ce4bha92rcd13ifvqeg0","pricing_plan_id":"cebpf4jnsgd1na2vs0mg"},{"bike_id":"206293ad-7e31-422a-b835-21e609ea696e","system_id":"levelo_inurba_marseille","lat":43.25868,"lon":5.39889,"is_reserved":false,"is_disabled":false,"rental_uris":{"android":"levelo://app?vid=206293ad-7e31-422a-b835-21e609ea696e","ios":"levelo://app?vid=206293ad-7e31-422a-b835-21e609ea696e"},"vehicle_type_id":"4","last_reported":1730895484,"current_range_meters":27600,"station_id":"ce4bhl92rcd13ifvqghg","pricing_plan_id":"cebpf4jnsgd1na2vs0mg"},{"bike_id":"b723420b-bd2d-4a96-bc3e-b9bd38c780ea","system_id":"levelo_inurba_marseille","lat":43.26942,"lon":5.40242,"is_reserved":false,"is_disabled":false,"rental_uris":{"android":"levelo://app?vid=b723420b-bd2d-4a96-bc3e-b9bd38c780ea","ios":"levelo://app?vid=b723420b-bd2d-4a96-bc3e-b9bd38c780ea"},"vehicle_type_id":"4","last_reported":1730895484,"current_range_meters":34800,"station_id":"cjm6bp8fraef2m0cb0m0","pricing_plan_id":"cebpf4jnsgd1na2vs0mg"},{"bike_id":"bff19b85-fa9d-4d2e-a404-1b3282f15d63","system_id":"levelo_inurba_marseille","lat":43.2799,"lon":5.40025,"is_reserved":false,"is_disabled":false,"rental_uris":{"android":"levelo://app?vid=bff19b85-fa9d-4d2e-a404-1b3282f15d63","ios":"levelo://app?vid=bff19b85-fa9d-4d2e-a404-1b3282f15d63"},"vehicle_type_id":"4","last_reported":1730895484,"current_range_meters":38800,"station_id":"ce4bho92rcd13ifvqh4g","pricing_plan_id":"cebpf4jnsgd1na2vs0mg"},{"bike_id":"2a7df4ec-06da-413c-bc1a-209293937860","system_id":"levelo_inurba_marseille","lat":43.27565,"lon":5.3843,"is_reserved":false,"is_disabled":false,"rental_uris":{"android":"levelo://app?vid=2a7df4ec-06da-413c-bc1a-209293937860","ios":"levelo://app?vid=2a7df4ec-06da-413c-bc1a-209293937860"},"vehicle_type_id":"4","last_reported":1730895484,"current_range_meters":28800,"station_id":"ce4bhh92rcd13ifvqfi0","pricing_plan_id":"cebpf4jnsgd1na2vs0mg"},{"bike_id":"c4adc539-427f-422f-bb38-68580f6c935f","system_id":"levelo_inurba_marseille","lat":43.2894,"lon":5.36629,"is_reserved":false,"is_disabled":false,"rental_uris":{"android":"levelo://app?vid=c4adc539-427f-422f-bb38-68580f6c935f","ios":"levelo://app?vid=c4adc539-427f-422f-bb38-68580f6c935f"},"vehicle_type_id":"4","last_reported":1730895484,"current_range_meters":17200,"station_id":"ce4bhap2rcd13ifvqek0","pricing_plan_id":"cebpf4jnsgd1na2vs0mg"},{"bike_id":"7e5e3e37-f509-442f-ba79-3dc63ff09b88","system_id":"levelo_inurba_marseille","lat":43.29187,"lon":5.39323,"is_reserved":false,"is_disabled":false,"rental_uris":{"android":"levelo://app?vid=7e5e3e37-f509-442f-ba79-3dc63ff09b88","ios":"levelo://app?vid=7e5e3e37-f509-442f-ba79-3dc63ff09b88"},"vehicle_type_id":"4","last_reported":1730895484,"current_range_meters":34000,"station_id":"ce4bh192rcd13ifvqdd0","pricing_plan_id":"cebpf4jnsgd1na2vs0mg"},{"bike_id":"22c8e94c-cd91-4389-b457-c402495f49ad","system_id":"levelo_inurba_marseille","lat":43.30435,"lon":5.37337,"is_reserved":false,"is_disabled":false,"rental_uris":{"android":"levelo://app?vid=22c8e94c-cd91-4389-b457-c402495f49ad","ios":"levelo://app?vid=22c8e94c-cd91-4389-b457-c402495f49ad"},"vehicle_type_id":"4","last_reported":1730895484,"current_range_meters":21600,"station_id":"ce4bh312rcd13ifvqdk0","pricing_plan_id":"cebpf4jnsgd1na2vs0mg"},{"bike_id":"ebcf6733-e41e-4f70-b758-d56fe1de23df","system_id":"levelo_inurba_marseille","lat":43.30535,"lon":5.36532,"is_reserved":false,"is_disabled":false,"rental_uris":{"android":"levelo://app?vid=ebcf6733-e41e-4f70-b758-d56fe1de23df","ios":"levelo://app?vid=ebcf6733-e41e-4f70-b758-d56fe1de23df"},"vehicle_type_id":"4","last_reported":1730895484,"current_range_meters":38800,"station_id":"ce4bgs12rcd13ifvqcag","pricing_plan_id":"cebpf4jnsgd1na2vs0mg"},{"bike_id":"515bf0ae-6142-4692-89de-ded36d86fe01","system_id":"levelo_inurba_marseille","lat":43.2455,"lon":5.39533,"is_reserved":false,"is_disabled":false,"rental_uris":{"android":"levelo://app?vid=515bf0ae-6142-4692-89de-ded36d86fe01","ios":"levelo://app?vid=515bf0ae-6142-4692-89de-ded36d86fe01"},"vehicle_type_id":"4","last_reported":1730895484,"current_range_meters":35200,"station_id":"ce4bhlp2rcd13ifvqgjg","pricing_plan_id":"cebpf4jnsgd1na2vs0mg"},{"bike_id":"dc397fa6-87ca-400e-beb0-b20e68c09032","system_id":"levelo_inurba_marseille","lat":43.31488,"lon":5.37303,"is_reserved":false,"is_disabled":false,"rental_uris":{"android":"levelo://app?vid=dc397fa6-87ca-400e-beb0-b20e68c09032","ios":"levelo://app?vid=dc397fa6-87ca-400e-beb0-b20e68c09032"},"vehicle_type_id":"4","last_reported":1730895484,"current_range_meters":21600,"station_id":"ce4bgt12rcd13ifvqcd0","pricing_plan_id":"cebpf4jnsgd1na2vs0mg"},{"bike_id":"59536c05-1a51-4535-bc6f-81ff9686e774","system_id":"levelo_inurba_marseille","lat":43.30428,"lon":5.39751,"is_reserved":false,"is_disabled":false,"rental_uris":{"android":"levelo://app?vid=59536c05-1a51-4535-bc6f-81ff9686e774","ios":"levelo://app?vid=59536c05-1a51-4535-bc6f-81ff9686e774"},"vehicle_type_id":"4","last_reported":1730895484,"current_range_meters":39200,"station_id":"ce4bh092rcd13ifvqd20","pricing_plan_id":"cebpf4jnsgd1na2vs0mg"},{"bike_id":"9242cf7b-da3d-4aee-b710-3874a6670de9","system_id":"levelo_inurba_marseille","lat":43.30431,"lon":5.39753,"is_reserved":false,"is_disabled":false,"rental_uris":{"android":"levelo://app?vid=9242cf7b-da3d-4aee-b710-3874a6670de9","ios":"levelo://app?vid=9242cf7b-da3d-4aee-b710-3874a6670de9"},"vehicle_type_id":"4","last_reported":1730895484,"current_range_meters":37600,"station_id":"ce4bh092rcd13ifvqd20","pricing_plan_id":"cebpf4jnsgd1na2vs0mg"},{"bike_id":"437037e9-de2d-4c1f-b6d8-074d1c9b96f5","system_id":"levelo_inurba_marseille","lat":43.30801,"lon":5.38145,"is_reserved":false,"is_disabled":false,"rental_uris":{"android":"levelo://app?vid=437037e9-de2d-4c1f-b6d8-074d1c9b96f5","ios":"levelo://app?vid=437037e9-de2d-4c1f-b6d8-074d1c9b96f5"},"vehicle_type_id":"4","last_reported":1730895484,"current_range_meters":36800,"station_id":"ce4bgt12rcd13ifvqce0","pricing_plan_id":"cebpf4jnsgd1na2vs0mg"},{"bike_id":"7e4ef42e-38bf-4d76-b3b7-5c276a9bcb70","system_id":"levelo_inurba_marseille","lat":43.30434,"lon":5.38879,"is_reserved":false,"is_disabled":false,"rental_uris":{"android":"levelo://app?vid=7e4ef42e-38bf-4d76-b3b7-5c276a9bcb70","ios":"levelo://app?vid=7e4ef42e-38bf-4d76-b3b7-5c276a9bcb70"},"vehicle_type_id":"4","last_reported":1730895484,"current_range_meters":39200,"station_id":"ce4bgk12rcd13ifvqbi0","pricing_plan_id":"cebpf4jnsgd1na2vs0mg"},{"bike_id":"d5d11bad-be1d-4262-bdd4-65e7b4d3aa1d","system_id":"levelo_inurba_marseille","lat":43.30787,"lon":5.37646,"is_reserved":false,"is_disabled":false,"rental_uris":{"android":"levelo://app?vid=d5d11bad-be1d-4262-bdd4-65e7b4d3aa1d","ios":"levelo://app?vid=d5d11bad-be1d-4262-bdd4-65e7b4d3aa1d"},"vehicle_type_id":"4","last_reported":1730895484,"current_range_meters":37600,"station_id":"ce4bgv92rcd13ifvqcq0","pricing_plan_id":"cebpf4jnsgd1na2vs0mg"},{"bike_id":"18992983-cf90-49cf-97fd-3c914e26aab6","system_id":"levelo_inurba_marseille","lat":43.25719,"lon":5.4111,"is_reserved":false,"is_disabled":false,"rental_uris":{"android":"levelo://app?vid=18992983-cf90-49cf-97fd-3c914e26aab6","ios":"levelo://app?vid=18992983-cf90-49cf-97fd-3c914e26aab6"},"vehicle_type_id":"4","last_reported":1730895484,"current_range_meters":19600,"station_id":"ce4bhkp2rcd13ifvqgd0","pricing_plan_id":"cebpf4jnsgd1na2vs0mg"},{"bike_id":"056e213e-57dd-4779-934b-6fea5b73380b","system_id":"levelo_inurba_marseille","lat":43.30415,"lon":5.38908,"is_reserved":false,"is_disabled":false,"rental_uris":{"android":"levelo://app?vid=056e213e-57dd-4779-934b-6fea5b73380b","ios":"levelo://app?vid=056e213e-57dd-4779-934b-6fea5b73380b"},"vehicle_type_id":"4","last_reported":1730895484,"current_range_meters":38800,"station_id":"ce4bgk12rcd13ifvqbi0","pricing_plan_id":"cebpf4jnsgd1na2vs0mg"},{"bike_id":"19967602-0220-4594-a4ef-1ebbf5fe1945","system_id":"levelo_inurba_marseille","lat":43.29551,"lon":5.42286,"is_reserved":false,"is_disabled":false,"rental_uris":{"android":"levelo://app?vid=19967602-0220-4594-a4ef-1ebbf5fe1945","ios":"levelo://app?vid=19967602-0220-4594-a4ef-1ebbf5fe1945"},"vehicle_type_id":"4","last_reported":1730895484,"current_range_meters":38800,"station_id":"ce4bhph2rcd13ifvqhdg","pricing_plan_id":"cebpf4jnsgd1na2vs0mg"},{"bike_id":"5f90ade6-8af5-4d4e-a04a-7955570f51c1","system_id":"levelo_inurba_marseille","lat":43.30533,"lon":5.36541,"is_reserved":false,"is_disabled":false,"rental_uris":{"android":"levelo://app?vid=5f90ade6-8af5-4d4e-a04a-7955570f51c1","ios":"levelo://app?vid=5f90ade6-8af5-4d4e-a04a-7955570f51c1"},"vehicle_type_id":"4","last_reported":1730895484,"current_range_meters":24400,"station_id":"ce4bgs12rcd13ifvqcag","pricing_plan_id":"cebpf4jnsgd1na2vs0mg"},{"bike_id":"1f0bd02c-63e8-42f8-8ce3-b97d8dcb66d3","system_id":"levelo_inurba_marseille","lat":43.29421,"lon":5.38615,"is_reserved":false,"is_disabled":false,"rental_uris":{"android":"levelo://app?vid=1f0bd02c-63e8-42f8-8ce3-b97d8dcb66d3","ios":"levelo://app?vid=1f0bd02c-63e8-42f8-8ce3-b97d8dcb66d3"},"vehicle_type_id":"4","last_reported":1730895484,"current_range_meters":32000,"station_id":"ce4bh2h2rcd13ifvqdh0","pricing_plan_id":"cebpf4jnsgd1na2vs0mg"},{"bike_id":"b7dd8bea-767b-4a90-a1d4-bc825086e891","system_id":"levelo_inurba_marseille","lat":43.30136,"lon":5.39885,"is_reserved":false,"is_disabled":false,"rental_uris":{"android":"levelo://app?vid=b7dd8bea-767b-4a90-a1d4-bc825086e891","ios":"levelo://app?vid=b7dd8bea-767b-4a90-a1d4-bc825086e891"},"vehicle_type_id":"4","last_reported":1730895484,"current_range_meters":28400,"station_id":"ce4bh0h2rcd13ifvqd40","pricing_plan_id":"cebpf4jnsgd1na2vs0mg"},{"bike_id":"2c4af81a-61a4-4b7d-9737-a21161e3b7d5","system_id":"levelo_inurba_marseille","lat":43.30548,"lon":5.3653,"is_reserved":false,"is_disabled":false,"rental_uris":{"android":"levelo://app?vid=2c4af81a-61a4-4b7d-9737-a21161e3b7d5","ios":"levelo://app?vid=2c4af81a-61a4-4b7d-9737-a21161e3b7d5"},"vehicle_type_id":"4","last_reported":1730895484,"current_range_meters":32800,"station_id":"ce4bgs12rcd13ifvqcag","pricing_plan_id":"cebpf4jnsgd1na2vs0mg"},{"bike_id":"f1d613b9-e75f-4ef8-933e-251bf274d323","system_id":"levelo_inurba_marseille","lat":43.30139,"lon":5.39878,"is_reserved":false,"is_disabled":false,"rental_uris":{"android":"levelo://app?vid=f1d613b9-e75f-4ef8-933e-251bf274d323","ios":"levelo://app?vid=f1d613b9-e75f-4ef8-933e-251bf274d323"},"vehicle_type_id":"4","last_reported":1730895484,"current_range_meters":16400,"station_id":"ce4bh0h2rcd13ifvqd40","pricing_plan_id":"cebpf4jnsgd1na2vs0mg"},{"bike_id":"b8d968c2-430e-4297-9b22-19cd8c0f916d","system_id":"levelo_inurba_marseille","lat":43.23155,"lon":5.437,"is_reserved":false,"is_disabled":false,"rental_uris":{"android":"levelo://app?vid=b8d968c2-430e-4297-9b22-19cd8c0f916d","ios":"levelo://app?vid=b8d968c2-430e-4297-9b22-19cd8c0f916d"},"vehicle_type_id":"4","last_reported":1730895484,"current_range_meters":38000,"station_id":"ce4bhmp2rcd13ifvqgog","pricing_plan_id":"cebpf4jnsgd1na2vs0mg"},{"bike_id":"4eb50040-f52f-46c0-a67d-2e65f9d92d61","system_id":"levelo_inurba_marseille","lat":43.2928,"lon":5.40119,"is_reserved":false,"is_disabled":false,"rental_uris":{"android":"levelo://app?vid=4eb50040-f52f-46c0-a67d-2e65f9d92d61","ios":"levelo://app?vid=4eb50040-f52f-46c0-a67d-2e65f9d92d61"},"vehicle_type_id":"4","last_reported":1730895484,"current_range_meters":36800,"station_id":"ce4bh312rcd13ifvqdk0","pricing_plan_id":"cebpf4jnsgd1na2vs0mg"},{"bike_id":"d709ec0c-4d7b-4594-a952-7782f25e840e","system_id":"levelo_inurba_marseille","lat":43.29003,"lon":5.35596,"is_reserved":false,"is_disabled":false,"rental_uris":{"android":"levelo://app?vid=d709ec0c-4d7b-4594-a952-7782f25e840e","ios":"levelo://app?vid=d709ec0c-4d7b-4594-a952-7782f25e840e"},"vehicle_type_id":"4","last_reported":1730895484,"current_range_meters":20800,"station_id":"ce4bhb92rcd13ifvqen0","pricing_plan_id":"cebpf4jnsgd1na2vs0mg"},{"bike_id":"f2560b82-cf64-4610-bf6e-f802ad9f72bf","system_id":"levelo_inurba_marseille","lat":43.33748,"lon":5.37454,"is_reserved":false,"is_disabled":false,"rental_uris":{"android":"levelo://app?vid=f2560b82-cf64-4610-bf6e-f802ad9f72bf","ios":"levelo://app?vid=f2560b82-cf64-4610-bf6e-f802ad9f72bf"},"vehicle_type_id":"4","last_reported":1730895484,"current_range_meters":32400,"station_id":"","pricing_plan_id":"cebpf4jnsgd1na2vs0mg"},{"bike_id":"4e5d727a-7c34-44b8-af94-45a54b88c1cc","system_id":"levelo_inurba_marseille","lat":43.33721,"lon":5.39182,"is_reserved":false,"is_disabled":false,"rental_uris":{"android":"levelo://app?vid=4e5d727a-7c34-44b8-af94-45a54b88c1cc","ios":"levelo://app?vid=4e5d727a-7c34-44b8-af94-45a54b88c1cc"},"vehicle_type_id":"4","last_reported":1730895484,"current_range_meters":38800,"station_id":"ce4bhr92rcd13ifvqhsg","pricing_plan_id":"cebpf4jnsgd1na2vs0mg"},{"bike_id":"6581b319-446e-4e29-ba37-72a798d4a653","system_id":"levelo_inurba_marseille","lat":43.31328,"lon":5.39684,"is_reserved":false,"is_disabled":false,"rental_uris":{"android":"levelo://app?vid=6581b319-446e-4e29-ba37-72a798d4a653","ios":"levelo://app?vid=6581b319-446e-4e29-ba37-72a798d4a653"},"vehicle_type_id":"4","last_reported":1730895484,"current_range_meters":36400,"station_id":"ce4bgvp2rcd13ifvqcu0","pricing_plan_id":"cebpf4jnsgd1na2vs0mg"},{"bike_id":"597b74d7-5fba-452b-a0b9-168e38ee85ca","system_id":"levelo_inurba_marseille","lat":43.30175,"lon":5.38104,"is_reserved":false,"is_disabled":false,"rental_uris":{"android":"levelo://app?vid=597b74d7-5fba-452b-a0b9-168e38ee85ca","ios":"levelo://app?vid=597b74d7-5fba-452b-a0b9-168e38ee85ca"},"vehicle_type_id":"4","last_reported":1730895484,"current_range_meters":20000,"station_id":"ce4bgjp2rcd13ifvqbh0","pricing_plan_id":"cebpf4jnsgd1na2vs0mg"},{"bike_id":"0083bb7a-5f5a-45e6-8222-b09a0998216e","system_id":"levelo_inurba_marseille","lat":43.30434,"lon":5.38891,"is_reserved":false,"is_disabled":false,"rental_uris":{"android":"levelo://app?vid=0083bb7a-5f5a-45e6-8222-b09a0998216e","ios":"levelo://app?vid=0083bb7a-5f5a-45e6-8222-b09a0998216e"},"vehicle_type_id":"4","last_reported":1730895484,"current_range_meters":36400,"station_id":"ce4bgk12rcd13ifvqbi0","pricing_plan_id":"cebpf4jnsgd1na2vs0mg"},{"bike_id":"f1782029-15e4-4990-8ef8-55f2d9f1602d","system_id":"levelo_inurba_marseille","lat":43.23149,"lon":5.43717,"is_reserved":false,"is_disabled":false,"rental_uris":{"android":"levelo://app?vid=f1782029-15e4-4990-8ef8-55f2d9f1602d","ios":"levelo://app?vid=f1782029-15e4-4990-8ef8-55f2d9f1602d"},"vehicle_type_id":"4","last_reported":1730895484,"current_range_meters":26800,"station_id":"ce4bhmp2rcd13ifvqgog","pricing_plan_id":"cebpf4jnsgd1na2vs0mg"},{"bike_id":"198e4f0a-aad9-484c-8a93-c134530f4de4","system_id":"levelo_inurba_marseille","lat":43.30437,"lon":5.39751,"is_reserved":false,"is_disabled":false,"rental_uris":{"android":"levelo://app?vid=198e4f0a-aad9-484c-8a93-c134530f4de4","ios":"levelo://app?vid=198e4f0a-aad9-484c-8a93-c134530f4de4"},"vehicle_type_id":"4","last_reported":1730895484,"current_range_meters":14800,"station_id":"ce4bh092rcd13ifvqd20","pricing_plan_id":"cebpf4jnsgd1na2vs0mg"},{"bike_id":"124ba63b-976e-4a28-ad55-acbecb3a2172","system_id":"levelo_inurba_marseille","lat":43.28722,"lon":5.37939,"is_reserved":false,"is_disabled":false,"rental_uris":{"android":"levelo://app?vid=124ba63b-976e-4a28-ad55-acbecb3a2172","ios":"levelo://app?vid=124ba63b-976e-4a28-ad55-acbecb3a2172"},"vehicle_type_id":"4","last_reported":1730895484,"current_range_meters":18800,"station_id":"ce4bh9p2rcd13ifvqec0","pricing_plan_id":"cebpf4jnsgd1na2vs0mg"},{"bike_id":"a42ecc90-5ef6-4c1d-bd04-5bc5ecf8a4d2","system_id":"levelo_inurba_marseille","lat":43.3055,"lon":5.36702,"is_reserved":false,"is_disabled":false,"rental_uris":{"android":"levelo://app?vid=a42ecc90-5ef6-4c1d-bd04-5bc5ecf8a4d2","ios":"levelo://app?vid=a42ecc90-5ef6-4c1d-bd04-5bc5ecf8a4d2"},"vehicle_type_id":"4","last_reported":1730895484,"current_range_meters":38800,"station_id":"ce4bgrp2rcd13ifvqc9g","pricing_plan_id":"cebpf4jnsgd1na2vs0mg"},{"bike_id":"77f0f942-cc19-4114-9693-f96851c5cf8b","system_id":"levelo_inurba_marseille","lat":43.31072,"lon":5.38344,"is_reserved":false,"is_disabled":false,"rental_uris":{"android":"levelo://app?vid=77f0f942-cc19-4114-9693-f96851c5cf8b","ios":"levelo://app?vid=77f0f942-cc19-4114-9693-f96851c5cf8b"},"vehicle_type_id":"4","last_reported":1730895484,"current_range_meters":9600,"station_id":"ce4bgv92rcd13ifvqcr0","pricing_plan_id":"cebpf4jnsgd1na2vs0mg"},{"bike_id":"4d927612-b47c-46ad-925b-1c594552897f","system_id":"levelo_inurba_marseille","lat":43.24651,"lon":5.38891,"is_reserved":false,"is_disabled":false,"rental_uris":{"android":"levelo://app?vid=4d927612-b47c-46ad-925b-1c594552897f","ios":"levelo://app?vid=4d927612-b47c-46ad-925b-1c594552897f"},"vehicle_type_id":"4","last_reported":1730895484,"current_range_meters":24800,"station_id":"ce4bhg12rcd13ifvqf60","pricing_plan_id":"cebpf4jnsgd1na2vs0mg"},{"bike_id":"fb6bfbe6-5b71-4c52-9df5-d0d6496c3665","system_id":"levelo_inurba_marseille","lat":43.29579,"lon":5.37518,"is_reserved":false,"is_disabled":false,"rental_uris":{"android":"levelo://app?vid=fb6bfbe6-5b71-4c52-9df5-d0d6496c3665","ios":"levelo://app?vid=fb6bfbe6-5b71-4c52-9df5-d0d6496c3665"},"vehicle_type_id":"4","last_reported":1730895484,"current_range_meters":38000,"station_id":"ce4bgh92rcd13ifvqb50","pricing_plan_id":"cebpf4jnsgd1na2vs0mg"},{"bike_id":"bb920e0e-5ecf-4c85-b873-be2901559229","system_id":"levelo_inurba_marseille","lat":43.2465,"lon":5.38892,"is_reserved":false,"is_disabled":false,"rental_uris":{"android":"levelo://app?vid=bb920e0e-5ecf-4c85-b873-be2901559229","ios":"levelo://app?vid=bb920e0e-5ecf-4c85-b873-be2901559229"},"vehicle_type_id":"4","last_reported":1730895484,"current_range_meters":20000,"station_id":"ce4bhg12rcd13ifvqf60","pricing_plan_id":"cebpf4jnsgd1na2vs0mg"},{"bike_id":"b596e564-d20b-490a-8982-cda09f2d60b4","system_id":"levelo_inurba_marseille","lat":43.29962,"lon":5.37167,"is_reserved":false,"is_disabled":false,"rental_uris":{"android":"levelo://app?vid=b596e564-d20b-490a-8982-cda09f2d60b4","ios":"levelo://app?vid=b596e564-d20b-490a-8982-cda09f2d60b4"},"vehicle_type_id":"4","last_reported":1730895484,"current_range_meters":20400,"station_id":"ce4bgr92rcd13ifvqc7g","pricing_plan_id":"cebpf4jnsgd1na2vs0mg"},{"bike_id":"566aaba3-94bf-4e65-aea4-37d3301bc778","system_id":"levelo_inurba_marseille","lat":43.28699,"lon":5.39981,"is_reserved":false,"is_disabled":false,"rental_uris":{"android":"levelo://app?vid=566aaba3-94bf-4e65-aea4-37d3301bc778","ios":"levelo://app?vid=566aaba3-94bf-4e65-aea4-37d3301bc778"},"vehicle_type_id":"4","last_reported":1730895484,"current_range_meters":22800,"station_id":"ce4bho92rcd13ifvqh3g","pricing_plan_id":"cebpf4jnsgd1na2vs0mg"},{"bike_id":"6a1ff42f-e89f-495d-8c70-9d353ff7b464","system_id":"levelo_inurba_marseille","lat":43.30354,"lon":5.41873,"is_reserved":false,"is_disabled":false,"rental_uris":{"android":"levelo://app?vid=6a1ff42f-e89f-495d-8c70-9d353ff7b464","ios":"levelo://app?vid=6a1ff42f-e89f-495d-8c70-9d353ff7b464"},"vehicle_type_id":"4","last_reported":1730895484,"current_range_meters":39200,"station_id":"ce4bhop2rcd13ifvqh7g","pricing_plan_id":"cebpf4jnsgd1na2vs0mg"},{"bike_id":"6fe4bc2e-51f4-4940-a67c-15377a8954c3","system_id":"levelo_inurba_marseille","lat":43.29904,"lon":5.4367,"is_reserved":false,"is_disabled":false,"rental_uris":{"android":"levelo://app?vid=6fe4bc2e-51f4-4940-a67c-15377a8954c3","ios":"levelo://app?vid=6fe4bc2e-51f4-4940-a67c-15377a8954c3"},"vehicle_type_id":"4","last_reported":1730895484,"current_range_meters":38000,"station_id":"ce4bhpp2rcd13ifvqhfg","pricing_plan_id":"cebpf4jnsgd1na2vs0mg"},{"bike_id":"0072c09f-84dc-4387-89a5-d8c408b867ad","system_id":"levelo_inurba_marseille","lat":43.30141,"lon":5.39863,"is_reserved":false,"is_disabled":false,"rental_uris":{"android":"levelo://app?vid=0072c09f-84dc-4387-89a5-d8c408b867ad","ios":"levelo://app?vid=0072c09f-84dc-4387-89a5-d8c408b867ad"},"vehicle_type_id":"4","last_reported":1730895484,"current_range_meters":38800,"station_id":"ce4bh0h2rcd13ifvqd40","pricing_plan_id":"cebpf4jnsgd1na2vs0mg"},{"bike_id":"49226c82-2b99-4be1-9ef7-99a7e07e5029","system_id":"levelo_inurba_marseille","lat":43.25113,"lon":5.40321,"is_reserved":false,"is_disabled":false,"rental_uris":{"android":"levelo://app?vid=49226c82-2b99-4be1-9ef7-99a7e07e5029","ios":"levelo://app?vid=49226c82-2b99-4be1-9ef7-99a7e07e5029"},"vehicle_type_id":"4","last_reported":1730895484,"current_range_meters":31200,"station_id":"ce4bhlh2rcd13ifvqgig","pricing_plan_id":"cebpf4jnsgd1na2vs0mg"},{"bike_id":"88b98dba-2073-4983-9539-ecdaff941dda","system_id":"levelo_inurba_marseille","lat":43.3053,"lon":5.36534,"is_reserved":false,"is_disabled":false,"rental_uris":{"android":"levelo://app?vid=88b98dba-2073-4983-9539-ecdaff941dda","ios":"levelo://app?vid=88b98dba-2073-4983-9539-ecdaff941dda"},"vehicle_type_id":"4","last_reported":1730895484,"current_range_meters":29600,"station_id":"ce4bgs12rcd13ifvqcag","pricing_plan_id":"cebpf4jnsgd1na2vs0mg"},{"bike_id":"eec4a6f2-ab3e-48aa-9e8e-1193f6ac04cb","system_id":"levelo_inurba_marseille","lat":43.27996,"lon":5.41669,"is_reserved":false,"is_disabled":false,"rental_uris":{"android":"levelo://app?vid=eec4a6f2-ab3e-48aa-9e8e-1193f6ac04cb","ios":"levelo://app?vid=eec4a6f2-ab3e-48aa-9e8e-1193f6ac04cb"},"vehicle_type_id":"4","last_reported":1730895484,"current_range_meters":15200,"station_id":"ce4bho12rcd13ifvqh1g","pricing_plan_id":"cebpf4jnsgd1na2vs0mg"},{"bike_id":"35b06bc8-da46-4ba5-8c07-e31dde1f57ed","system_id":"levelo_inurba_marseille","lat":43.30328,"lon":5.40438,"is_reserved":false,"is_disabled":false,"rental_uris":{"android":"levelo://app?vid=35b06bc8-da46-4ba5-8c07-e31dde1f57ed","ios":"levelo://app?vid=35b06bc8-da46-4ba5-8c07-e31dde1f57ed"},"vehicle_type_id":"4","last_reported":1730895484,"current_range_meters":32800,"station_id":"ce4bh012rcd13ifvqd10","pricing_plan_id":"cebpf4jnsgd1na2vs0mg"},{"bike_id":"2f1fe4d5-4e0b-4752-a5c5-61ba2a270464","system_id":"levelo_inurba_marseille","lat":43.29595,"lon":5.38102,"is_reserved":false,"is_disabled":false,"rental_uris":{"android":"levelo://app?vid=2f1fe4d5-4e0b-4752-a5c5-61ba2a270464","ios":"levelo://app?vid=2f1fe4d5-4e0b-4752-a5c5-61ba2a270464"},"vehicle_type_id":"4","last_reported":1730895484,"current_range_meters":32400,"station_id":"ce4bgl12rcd13ifvqbo0","pricing_plan_id":"cebpf4jnsgd1na2vs0mg"},{"bike_id":"c7367667-89df-47fe-81c7-f08f2b8feb92","system_id":"levelo_inurba_marseille","lat":43.30415,"lon":5.41283,"is_reserved":false,"is_disabled":false,"rental_uris":{"android":"levelo://app?vid=c7367667-89df-47fe-81c7-f08f2b8feb92","ios":"levelo://app?vid=c7367667-89df-47fe-81c7-f08f2b8feb92"},"vehicle_type_id":"4","last_reported":1730895484,"current_range_meters":38400,"station_id":"ce4bhop2rcd13ifvqh8g","pricing_plan_id":"cebpf4jnsgd1na2vs0mg"},{"bike_id":"28732b85-e2ea-4a0e-9bad-44f81ad20925","system_id":"levelo_inurba_marseille","lat":43.27051,"lon":5.40264,"is_reserved":false,"is_disabled":false,"rental_uris":{"android":"levelo://app?vid=28732b85-e2ea-4a0e-9bad-44f81ad20925","ios":"levelo://app?vid=28732b85-e2ea-4a0e-9bad-44f81ad20925"},"vehicle_type_id":"4","last_reported":1730895484,"current_range_meters":22800,"station_id":"ce4bhk92rcd13ifvqgc0","pricing_plan_id":"cebpf4jnsgd1na2vs0mg"},{"bike_id":"fec6ab6b-0fed-4295-ba70-60eb2964ccd5","system_id":"levelo_inurba_marseille","lat":43.29919,"lon":5.37486,"is_reserved":false,"is_disabled":false,"rental_uris":{"android":"levelo://app?vid=fec6ab6b-0fed-4295-ba70-60eb2964ccd5","ios":"levelo://app?vid=fec6ab6b-0fed-4295-ba70-60eb2964ccd5"},"vehicle_type_id":"4","last_reported":1730895484,"current_range_meters":10800,"station_id":"ce4bgjh2rcd13ifvqbg0","pricing_plan_id":"cebpf4jnsgd1na2vs0mg"},{"bike_id":"d016b93e-5594-41e4-bde2-25ccecc90321","system_id":"levelo_inurba_marseille","lat":43.27813,"lon":5.40703,"is_reserved":false,"is_disabled":false,"rental_uris":{"android":"levelo://app?vid=d016b93e-5594-41e4-bde2-25ccecc90321","ios":"levelo://app?vid=d016b93e-5594-41e4-bde2-25ccecc90321"},"vehicle_type_id":"4","last_reported":1730895484,"current_range_meters":36400,"station_id":"ce4bhnh2rcd13ifvqgtg","pricing_plan_id":"cebpf4jnsgd1na2vs0mg"},{"bike_id":"ef65c891-f7da-4796-bc0f-1118289dbc8f","system_id":"levelo_inurba_marseille","lat":43.30136,"lon":5.3987,"is_reserved":false,"is_disabled":false,"rental_uris":{"android":"levelo://app?vid=ef65c891-f7da-4796-bc0f-1118289dbc8f","ios":"levelo://app?vid=ef65c891-f7da-4796-bc0f-1118289dbc8f"},"vehicle_type_id":"4","last_reported":1730895484,"current_range_meters":20000,"station_id":"ce4bh0h2rcd13ifvqd40","pricing_plan_id":"cebpf4jnsgd1na2vs0mg"},{"bike_id":"e4691311-a3b5-44c1-849b-e099d33fc3de","system_id":"levelo_inurba_marseille","lat":43.24179,"lon":5.39725,"is_reserved":false,"is_disabled":false,"rental_uris":{"android":"levelo://app?vid=e4691311-a3b5-44c1-849b-e099d33fc3de","ios":"levelo://app?vid=e4691311-a3b5-44c1-849b-e099d33fc3de"},"vehicle_type_id":"4","last_reported":1730895484,"current_range_meters":26800,"station_id":"ce4bhn12rcd13ifvqgpg","pricing_plan_id":"cebpf4jnsgd1na2vs0mg"},{"bike_id":"b746cfd6-7513-4555-a77a-956893c57def","system_id":"levelo_inurba_marseille","lat":43.29034,"lon":5.39969,"is_reserved":false,"is_disabled":false,"rental_uris":{"android":"levelo://app?vid=b746cfd6-7513-4555-a77a-956893c57def","ios":"levelo://app?vid=b746cfd6-7513-4555-a77a-956893c57def"},"vehicle_type_id":"4","last_reported":1730895484,"current_range_meters":25600,"station_id":"ce4bh392rcd13ifvqdm0","pricing_plan_id":"cebpf4jnsgd1na2vs0mg"},{"bike_id":"7e7a13b8-0a56-439b-9fd8-db07d130efc9","system_id":"levelo_inurba_marseille","lat":43.25088,"lon":5.39519,"is_reserved":false,"is_disabled":false,"rental_uris":{"android":"levelo://app?vid=7e7a13b8-0a56-439b-9fd8-db07d130efc9","ios":"levelo://app?vid=7e7a13b8-0a56-439b-9fd8-db07d130efc9"},"vehicle_type_id":"4","last_reported":1730895484,"current_range_meters":23200,"station_id":"ce4bhm12rcd13ifvqgkg","pricing_plan_id":"cebpf4jnsgd1na2vs0mg"},{"bike_id":"a98c4e4f-9217-4cbd-ad2d-c176a4698d4a","system_id":"levelo_inurba_marseille","lat":43.30544,"lon":5.36696,"is_reserved":false,"is_disabled":false,"rental_uris":{"android":"levelo://app?vid=a98c4e4f-9217-4cbd-ad2d-c176a4698d4a","ios":"levelo://app?vid=a98c4e4f-9217-4cbd-ad2d-c176a4698d4a"},"vehicle_type_id":"4","last_reported":1730895484,"current_range_meters":34000,"station_id":"ce4bgrp2rcd13ifvqc9g","pricing_plan_id":"cebpf4jnsgd1na2vs0mg"},{"bike_id":"e58aacf2-a8a5-4ce2-835e-5eb9a75e9200","system_id":"levelo_inurba_marseille","lat":43.30905,"lon":5.36849,"is_reserved":false,"is_disabled":false,"rental_uris":{"android":"levelo://app?vid=e58aacf2-a8a5-4ce2-835e-5eb9a75e9200","ios":"levelo://app?vid=e58aacf2-a8a5-4ce2-835e-5eb9a75e9200"},"vehicle_type_id":"4","last_reported":1730895484,"current_range_meters":3200,"station_id":"ce4bgn92rcd13ifvqbvg","pricing_plan_id":"cebpf4jnsgd1na2vs0mg"},{"bike_id":"4ba708c0-8ced-418c-bdca-7748a87a5ef6","system_id":"levelo_inurba_marseille","lat":43.29038,"lon":5.39969,"is_reserved":false,"is_disabled":false,"rental_uris":{"android":"levelo://app?vid=4ba708c0-8ced-418c-bdca-7748a87a5ef6","ios":"levelo://app?vid=4ba708c0-8ced-418c-bdca-7748a87a5ef6"},"vehicle_type_id":"4","last_reported":1730895484,"current_range_meters":35200,"station_id":"ce4bh392rcd13ifvqdm0","pricing_plan_id":"cebpf4jnsgd1na2vs0mg"},{"bike_id":"0a3c1a6b-eadc-4e53-adb5-ce60bbc39060","system_id":"levelo_inurba_marseille","lat":43.33023,"lon":5.3903,"is_reserved":false,"is_disabled":false,"rental_uris":{"android":"levelo://app?vid=0a3c1a6b-eadc-4e53-adb5-ce60bbc39060","ios":"levelo://app?vid=0a3c1a6b-eadc-4e53-adb5-ce60bbc39060"},"vehicle_type_id":"4","last_reported":1730895484,"current_range_meters":37600,"station_id":"ce4bhr92rcd13ifvqhrg","pricing_plan_id":"cebpf4jnsgd1na2vs0mg"},{"bike_id":"2f076aaa-29b0-4fb9-a4cc-3fad6e37f57d","system_id":"levelo_inurba_marseille","lat":43.30536,"lon":5.36534,"is_reserved":false,"is_disabled":false,"rental_uris":{"android":"levelo://app?vid=2f076aaa-29b0-4fb9-a4cc-3fad6e37f57d","ios":"levelo://app?vid=2f076aaa-29b0-4fb9-a4cc-3fad6e37f57d"},"vehicle_type_id":"4","last_reported":1730895484,"current_range_meters":38800,"station_id":"ce4bgs12rcd13ifvqcag","pricing_plan_id":"cebpf4jnsgd1na2vs0mg"},{"bike_id":"9fae83eb-b88f-49db-8a0a-1bf41cfd562c","system_id":"levelo_inurba_marseille","lat":43.289365,"lon":5.39621,"is_reserved":false,"is_disabled":false,"rental_uris":{"android":"levelo://app?vid=9fae83eb-b88f-49db-8a0a-1bf41cfd562c","ios":"levelo://app?vid=9fae83eb-b88f-49db-8a0a-1bf41cfd562c"},"vehicle_type_id":"4","last_reported":1730895484,"current_range_meters":38800,"station_id":"ce4bh3h2rcd13ifvqdn0","pricing_plan_id":"cebpf4jnsgd1na2vs0mg"},{"bike_id":"21bd8168-20b0-4c2a-93dc-9dc8c7bee7f3","system_id":"levelo_inurba_marseille","lat":43.2987,"lon":5.39722,"is_reserved":false,"is_disabled":false,"rental_uris":{"android":"levelo://app?vid=21bd8168-20b0-4c2a-93dc-9dc8c7bee7f3","ios":"levelo://app?vid=21bd8168-20b0-4c2a-93dc-9dc8c7bee7f3"},"vehicle_type_id":"4","last_reported":1730895484,"current_range_meters":36800,"station_id":"ce4bh0h2rcd13ifvqd50","pricing_plan_id":"cebpf4jnsgd1na2vs0mg"},{"bike_id":"36437367-ae2c-4c47-be19-84507274126a","system_id":"levelo_inurba_marseille","lat":43.3059,"lon":5.39356,"is_reserved":false,"is_disabled":false,"rental_uris":{"android":"levelo://app?vid=36437367-ae2c-4c47-be19-84507274126a","ios":"levelo://app?vid=36437367-ae2c-4c47-be19-84507274126a"},"vehicle_type_id":"4","last_reported":1730895484,"current_range_meters":33600,"station_id":"ce4bh0p2rcd13ifvqd80","pricing_plan_id":"cebpf4jnsgd1na2vs0mg"},{"bike_id":"37c4356f-53a4-4fc1-9027-d635783b81a2","system_id":"levelo_inurba_marseille","lat":43.299,"lon":5.38125,"is_reserved":false,"is_disabled":false,"rental_uris":{"android":"levelo://app?vid=37c4356f-53a4-4fc1-9027-d635783b81a2","ios":"levelo://app?vid=37c4356f-53a4-4fc1-9027-d635783b81a2"},"vehicle_type_id":"4","last_reported":1730895484,"current_range_meters":36000,"station_id":"ce4bgj12rcd13ifvqbc0","pricing_plan_id":"cebpf4jnsgd1na2vs0mg"},{"bike_id":"bed45303-abab-499e-a266-c3aa97d37e54","system_id":"levelo_inurba_marseille","lat":43.28079,"lon":5.39663,"is_reserved":false,"is_disabled":false,"rental_uris":{"android":"levelo://app?vid=bed45303-abab-499e-a266-c3aa97d37e54","ios":"levelo://app?vid=bed45303-abab-499e-a266-c3aa97d37e54"},"vehicle_type_id":"4","last_reported":1730895484,"current_range_meters":38800,"station_id":"ce4bho12rcd13ifvqh2g","pricing_plan_id":"cebpf4jnsgd1na2vs0mg"},{"bike_id":"ac3085be-2aba-453a-b37c-d1057ee9d66b","system_id":"levelo_inurba_marseille","lat":43.31276,"lon":5.40159,"is_reserved":false,"is_disabled":false,"rental_uris":{"android":"levelo://app?vid=ac3085be-2aba-453a-b37c-d1057ee9d66b","ios":"levelo://app?vid=ac3085be-2aba-453a-b37c-d1057ee9d66b"},"vehicle_type_id":"4","last_reported":1730895484,"current_range_meters":22800,"station_id":"ce4bh092rcd13ifvqd30","pricing_plan_id":"cebpf4jnsgd1na2vs0mg"},{"bike_id":"8b46309a-7199-4d2b-a754-79c7883c0aba","system_id":"levelo_inurba_marseille","lat":43.26214,"lon":5.37439,"is_reserved":false,"is_disabled":false,"rental_uris":{"android":"levelo://app?vid=8b46309a-7199-4d2b-a754-79c7883c0aba","ios":"levelo://app?vid=8b46309a-7199-4d2b-a754-79c7883c0aba"},"vehicle_type_id":"4","last_reported":1730895484,"current_range_meters":27600,"station_id":"ce4bhgp2rcd13ifvqfc0","pricing_plan_id":"cebpf4jnsgd1na2vs0mg"},{"bike_id":"557787a5-7f44-46f0-98ae-22ea9bd452c8","system_id":"levelo_inurba_marseille","lat":43.30098,"lon":5.39079,"is_reserved":false,"is_disabled":false,"rental_uris":{"android":"levelo://app?vid=557787a5-7f44-46f0-98ae-22ea9bd452c8","ios":"levelo://app?vid=557787a5-7f44-46f0-98ae-22ea9bd452c8"},"vehicle_type_id":"4","last_reported":1730895484,"current_range_meters":16800,"station_id":"ce4bh192rcd13ifvqdb0","pricing_plan_id":"cebpf4jnsgd1na2vs0mg"},{"bike_id":"859091fc-808f-4395-bb7c-90175e8112eb","system_id":"levelo_inurba_marseille","lat":43.33026,"lon":5.39034,"is_reserved":false,"is_disabled":false,"rental_uris":{"android":"levelo://app?vid=859091fc-808f-4395-bb7c-90175e8112eb","ios":"levelo://app?vid=859091fc-808f-4395-bb7c-90175e8112eb"},"vehicle_type_id":"4","last_reported":1730895484,"current_range_meters":39200,"station_id":"ce4bhr92rcd13ifvqhrg","pricing_plan_id":"cebpf4jnsgd1na2vs0mg"},{"bike_id":"224877d9-8388-42eb-81fd-99a2a960ebe1","system_id":"levelo_inurba_marseille","lat":43.28462,"lon":5.35896,"is_reserved":false,"is_disabled":false,"rental_uris":{"android":"levelo://app?vid=224877d9-8388-42eb-81fd-99a2a960ebe1","ios":"levelo://app?vid=224877d9-8388-42eb-81fd-99a2a960ebe1"},"vehicle_type_id":"4","last_reported":1730895484,"current_range_meters":33600,"station_id":"ce4bhah2rcd13ifvqei0","pricing_plan_id":"cebpf4jnsgd1na2vs0mg"},{"bike_id":"818f01a2-70c1-4282-8f3e-a5df75b74421","system_id":"levelo_inurba_marseille","lat":43.23149,"lon":5.43706,"is_reserved":false,"is_disabled":false,"rental_uris":{"android":"levelo://app?vid=818f01a2-70c1-4282-8f3e-a5df75b74421","ios":"levelo://app?vid=818f01a2-70c1-4282-8f3e-a5df75b74421"},"vehicle_type_id":"4","last_reported":1730895484,"current_range_meters":36000,"station_id":"ce4bhmp2rcd13ifvqgog","pricing_plan_id":"cebpf4jnsgd1na2vs0mg"},{"bike_id":"c61c261f-6e7c-47f2-9517-7b46566fdc27","system_id":"levelo_inurba_marseille","lat":43.24394,"lon":5.37051,"is_reserved":false,"is_disabled":false,"rental_uris":{"android":"levelo://app?vid=c61c261f-6e7c-47f2-9517-7b46566fdc27","ios":"levelo://app?vid=c61c261f-6e7c-47f2-9517-7b46566fdc27"},"vehicle_type_id":"4","last_reported":1730895484,"current_range_meters":26000,"station_id":"ce4bhhh2rcd13ifvqfk0","pricing_plan_id":"cebpf4jnsgd1na2vs0mg"},{"bike_id":"65fc5769-d693-4d47-b081-3a1d2d9e3401","system_id":"levelo_inurba_marseille","lat":43.2963,"lon":5.406,"is_reserved":false,"is_disabled":false,"rental_uris":{"android":"levelo://app?vid=65fc5769-d693-4d47-b081-3a1d2d9e3401","ios":"levelo://app?vid=65fc5769-d693-4d47-b081-3a1d2d9e3401"},"vehicle_type_id":"4","last_reported":1730895484,"current_range_meters":38400,"station_id":"ce4bh0h2rcd13ifvqd60","pricing_plan_id":"cebpf4jnsgd1na2vs0mg"},{"bike_id":"f5280d86-8dcc-47f9-816f-73fe2e16cb81","system_id":"levelo_inurba_marseille","lat":43.31708,"lon":5.37734,"is_reserved":false,"is_disabled":false,"rental_uris":{"android":"levelo://app?vid=f5280d86-8dcc-47f9-816f-73fe2e16cb81","ios":"levelo://app?vid=f5280d86-8dcc-47f9-816f-73fe2e16cb81"},"vehicle_type_id":"4","last_reported":1730895484,"current_range_meters":24400,"station_id":"ce4bgth2rcd13ifvqch0","pricing_plan_id":"cebpf4jnsgd1na2vs0mg"},{"bike_id":"89b72991-99c2-4b3e-a7af-f3a408a8007f","system_id":"levelo_inurba_marseille","lat":43.2315,"lon":5.43705,"is_reserved":false,"is_disabled":false,"rental_uris":{"android":"levelo://app?vid=89b72991-99c2-4b3e-a7af-f3a408a8007f","ios":"levelo://app?vid=89b72991-99c2-4b3e-a7af-f3a408a8007f"},"vehicle_type_id":"4","last_reported":1730895484,"current_range_meters":24000,"station_id":"ce4bhmp2rcd13ifvqgog","pricing_plan_id":"cebpf4jnsgd1na2vs0mg"},{"bike_id":"aff4cc40-c923-4034-be9c-e88ce8ea159c","system_id":"levelo_inurba_marseille","lat":43.30914,"lon":5.36852,"is_reserved":false,"is_disabled":false,"rental_uris":{"android":"levelo://app?vid=aff4cc40-c923-4034-be9c-e88ce8ea159c","ios":"levelo://app?vid=aff4cc40-c923-4034-be9c-e88ce8ea159c"},"vehicle_type_id":"4","last_reported":1730895484,"current_range_meters":38800,"station_id":"ce4bgn92rcd13ifvqbvg","pricing_plan_id":"cebpf4jnsgd1na2vs0mg"},{"bike_id":"167c8a95-b72d-4f7f-a79e-cf4e65ebb3df","system_id":"levelo_inurba_marseille","lat":43.29794,"lon":5.38094,"is_reserved":false,"is_disabled":false,"rental_uris":{"android":"levelo://app?vid=167c8a95-b72d-4f7f-a79e-cf4e65ebb3df","ios":"levelo://app?vid=167c8a95-b72d-4f7f-a79e-cf4e65ebb3df"},"vehicle_type_id":"4","last_reported":1730895484,"current_range_meters":38800,"station_id":"ce4bgip2rcd13ifvqbb0","pricing_plan_id":"cebpf4jnsgd1na2vs0mg"},{"bike_id":"1c95d7fc-75d1-4d96-bd04-cc94dad1ed45","system_id":"levelo_inurba_marseille","lat":43.33023,"lon":5.39043,"is_reserved":false,"is_disabled":false,"rental_uris":{"android":"levelo://app?vid=1c95d7fc-75d1-4d96-bd04-cc94dad1ed45","ios":"levelo://app?vid=1c95d7fc-75d1-4d96-bd04-cc94dad1ed45"},"vehicle_type_id":"4","last_reported":1730895484,"current_range_meters":32400,"station_id":"ce4bhr92rcd13ifvqhrg","pricing_plan_id":"cebpf4jnsgd1na2vs0mg"},{"bike_id":"2b2cb5ff-ef71-409d-a80f-c39a4fc7080d","system_id":"levelo_inurba_marseille","lat":43.30466,"lon":5.37911,"is_reserved":false,"is_disabled":false,"rental_uris":{"android":"levelo://app?vid=2b2cb5ff-ef71-409d-a80f-c39a4fc7080d","ios":"levelo://app?vid=2b2cb5ff-ef71-409d-a80f-c39a4fc7080d"},"vehicle_type_id":"4","last_reported":1730895484,"current_range_meters":28800,"station_id":"ce4bgup2rcd13ifvqcn0","pricing_plan_id":"cebpf4jnsgd1na2vs0mg"},{"bike_id":"4ac96b00-0055-4fe6-ac4f-248572183378","system_id":"levelo_inurba_marseille","lat":43.29534,"lon":5.38544,"is_reserved":false,"is_disabled":false,"rental_uris":{"android":"levelo://app?vid=4ac96b00-0055-4fe6-ac4f-248572183378","ios":"levelo://app?vid=4ac96b00-0055-4fe6-ac4f-248572183378"},"vehicle_type_id":"4","last_reported":1730895484,"current_range_meters":9200,"station_id":"ce4bgih2rcd13ifvqba0","pricing_plan_id":"cebpf4jnsgd1na2vs0mg"},{"bike_id":"0b7da37c-df2f-4754-9d47-099537abbb16","system_id":"levelo_inurba_marseille","lat":43.26499,"lon":5.3954,"is_reserved":false,"is_disabled":false,"rental_uris":{"android":"levelo://app?vid=0b7da37c-df2f-4754-9d47-099537abbb16","ios":"levelo://app?vid=0b7da37c-df2f-4754-9d47-099537abbb16"},"vehicle_type_id":"4","last_reported":1730895484,"current_range_meters":30000,"station_id":"ce4bhi12rcd13ifvqfq0","pricing_plan_id":"cebpf4jnsgd1na2vs0mg"},{"bike_id":"81208776-8b44-4877-8548-efe019e0cc6d","system_id":"levelo_inurba_marseille","lat":43.29391,"lon":5.38609,"is_reserved":false,"is_disabled":false,"rental_uris":{"android":"levelo://app?vid=81208776-8b44-4877-8548-efe019e0cc6d","ios":"levelo://app?vid=81208776-8b44-4877-8548-efe019e0cc6d"},"vehicle_type_id":"4","last_reported":1730895484,"current_range_meters":30800,"station_id":"ce4bh3p2rcd13ifvqdp0","pricing_plan_id":"cebpf4jnsgd1na2vs0mg"},{"bike_id":"cb88ee8d-5c92-46c2-8b0d-47e01176a68d","system_id":"levelo_inurba_marseille","lat":43.25712,"lon":5.41105,"is_reserved":false,"is_disabled":false,"rental_uris":{"android":"levelo://app?vid=cb88ee8d-5c92-46c2-8b0d-47e01176a68d","ios":"levelo://app?vid=cb88ee8d-5c92-46c2-8b0d-47e01176a68d"},"vehicle_type_id":"4","last_reported":1730895484,"current_range_meters":38800,"station_id":"ce4bhkp2rcd13ifvqgd0","pricing_plan_id":"cebpf4jnsgd1na2vs0mg"},{"bike_id":"9048ebe6-0239-470a-af7d-c5634530ba1b","system_id":"levelo_inurba_marseille","lat":43.33024,"lon":5.39042,"is_reserved":false,"is_disabled":false,"rental_uris":{"android":"levelo://app?vid=9048ebe6-0239-470a-af7d-c5634530ba1b","ios":"levelo://app?vid=9048ebe6-0239-470a-af7d-c5634530ba1b"},"vehicle_type_id":"4","last_reported":1730895484,"current_range_meters":20000,"station_id":"ce4bhr92rcd13ifvqhrg","pricing_plan_id":"cebpf4jnsgd1na2vs0mg"},{"bike_id":"891d6d3e-a298-4fda-a5ad-9fa1bebf9898","system_id":"levelo_inurba_marseille","lat":43.24544,"lon":5.3952,"is_reserved":false,"is_disabled":false,"rental_uris":{"android":"levelo://app?vid=891d6d3e-a298-4fda-a5ad-9fa1bebf9898","ios":"levelo://app?vid=891d6d3e-a298-4fda-a5ad-9fa1bebf9898"},"vehicle_type_id":"4","last_reported":1730895484,"current_range_meters":25200,"station_id":"ce4bhlp2rcd13ifvqgjg","pricing_plan_id":"cebpf4jnsgd1na2vs0mg"},{"bike_id":"ce1990ac-3390-413c-9a93-5d1336a43aa1","system_id":"levelo_inurba_marseille","lat":43.27374,"lon":5.36239,"is_reserved":false,"is_disabled":false,"rental_uris":{"android":"levelo://app?vid=ce1990ac-3390-413c-9a93-5d1336a43aa1","ios":"levelo://app?vid=ce1990ac-3390-413c-9a93-5d1336a43aa1"},"vehicle_type_id":"4","last_reported":1730895484,"current_range_meters":36400,"station_id":"ce4bhbh2rcd13ifvqeo0","pricing_plan_id":"cebpf4jnsgd1na2vs0mg"},{"bike_id":"74695514-743b-4a43-8a3c-3ee8c9a28175","system_id":"levelo_inurba_marseille","lat":43.23196,"lon":5.35553,"is_reserved":false,"is_disabled":false,"rental_uris":{"android":"levelo://app?vid=74695514-743b-4a43-8a3c-3ee8c9a28175","ios":"levelo://app?vid=74695514-743b-4a43-8a3c-3ee8c9a28175"},"vehicle_type_id":"4","last_reported":1730895484,"current_range_meters":39200,"station_id":"ce4bhu92rcd13ifvqi70","pricing_plan_id":"cebpf4jnsgd1na2vs0mg"},{"bike_id":"3f3041da-8424-4cc3-a139-fd8a99ad9a6c","system_id":"levelo_inurba_marseille","lat":43.33606,"lon":5.41028,"is_reserved":false,"is_disabled":false,"rental_uris":{"android":"levelo://app?vid=3f3041da-8424-4cc3-a139-fd8a99ad9a6c","ios":"levelo://app?vid=3f3041da-8424-4cc3-a139-fd8a99ad9a6c"},"vehicle_type_id":"4","last_reported":1730895484,"current_range_meters":12400,"station_id":"ce4bhqh2rcd13ifvqhmg","pricing_plan_id":"cebpf4jnsgd1na2vs0mg"},{"bike_id":"21ada0ba-3690-4b1c-9dd6-116e87f878cc","system_id":"levelo_inurba_marseille","lat":43.29773,"lon":5.3712,"is_reserved":false,"is_disabled":false,"rental_uris":{"android":"levelo://app?vid=21ada0ba-3690-4b1c-9dd6-116e87f878cc","ios":"levelo://app?vid=21ada0ba-3690-4b1c-9dd6-116e87f878cc"},"vehicle_type_id":"4","last_reported":1730895484,"current_range_meters":29600,"station_id":"ce4bgop2rcd13ifvqc1g","pricing_plan_id":"cebpf4jnsgd1na2vs0mg"},{"bike_id":"9f320a4a-84eb-4cde-883b-d4cebf0160fb","system_id":"levelo_inurba_marseille","lat":43.25001,"lon":5.38924,"is_reserved":false,"is_disabled":false,"rental_uris":{"android":"levelo://app?vid=9f320a4a-84eb-4cde-883b-d4cebf0160fb","ios":"levelo://app?vid=9f320a4a-84eb-4cde-883b-d4cebf0160fb"},"vehicle_type_id":"4","last_reported":1730895484,"current_range_meters":36400,"station_id":"ce4bhgp2rcd13ifvqfd0","pricing_plan_id":"cebpf4jnsgd1na2vs0mg"},{"bike_id":"f9a8c473-50f6-461e-98fa-f58e5ab7fcbc","system_id":"levelo_inurba_marseille","lat":43.31021,"lon":5.37013,"is_reserved":false,"is_disabled":false,"rental_uris":{"android":"levelo://app?vid=f9a8c473-50f6-461e-98fa-f58e5ab7fcbc","ios":"levelo://app?vid=f9a8c473-50f6-461e-98fa-f58e5ab7fcbc"},"vehicle_type_id":"4","last_reported":1730895484,"current_range_meters":37600,"station_id":"","pricing_plan_id":"cebpf4jnsgd1na2vs0mg"},{"bike_id":"c06ce476-8847-475f-9a79-9a08d653175a","system_id":"levelo_inurba_marseille","lat":43.29873,"lon":5.39738,"is_reserved":false,"is_disabled":false,"rental_uris":{"android":"levelo://app?vid=c06ce476-8847-475f-9a79-9a08d653175a","ios":"levelo://app?vid=c06ce476-8847-475f-9a79-9a08d653175a"},"vehicle_type_id":"4","last_reported":1730895484,"current_range_meters":26800,"station_id":"ce4bh0h2rcd13ifvqd50","pricing_plan_id":"cebpf4jnsgd1na2vs0mg"},{"bike_id":"9c07c115-8458-42eb-a90e-dec43e520f3f","system_id":"levelo_inurba_marseille","lat":43.26028,"lon":5.37559,"is_reserved":false,"is_disabled":false,"rental_uris":{"android":"levelo://app?vid=9c07c115-8458-42eb-a90e-dec43e520f3f","ios":"levelo://app?vid=9c07c115-8458-42eb-a90e-dec43e520f3f"},"vehicle_type_id":"4","last_reported":1730895484,"current_range_meters":38000,"station_id":"ce4bhgh2rcd13ifvqfa0","pricing_plan_id":"cebpf4jnsgd1na2vs0mg"},{"bike_id":"063ac76c-7dc9-49c1-80b2-af40a50c2880","system_id":"levelo_inurba_marseille","lat":43.30543,"lon":5.36522,"is_reserved":false,"is_disabled":false,"rental_uris":{"android":"levelo://app?vid=063ac76c-7dc9-49c1-80b2-af40a50c2880","ios":"levelo://app?vid=063ac76c-7dc9-49c1-80b2-af40a50c2880"},"vehicle_type_id":"4","last_reported":1730895484,"current_range_meters":22000,"station_id":"ce4bgs12rcd13ifvqcag","pricing_plan_id":"cebpf4jnsgd1na2vs0mg"},{"bike_id":"e7874ce2-f692-46c5-87b4-56890b100158","system_id":"levelo_inurba_marseille","lat":43.23066,"lon":5.3549,"is_reserved":false,"is_disabled":false,"rental_uris":{"android":"levelo://app?vid=e7874ce2-f692-46c5-87b4-56890b100158","ios":"levelo://app?vid=e7874ce2-f692-46c5-87b4-56890b100158"},"vehicle_type_id":"4","last_reported":1730895484,"current_range_meters":37600,"station_id":"cpo3342slgdg3j2ifvpg","pricing_plan_id":"cebpf4jnsgd1na2vs0mg"},{"bike_id":"a6472af6-7a48-4ce2-9ffd-b7c1f65c55a7","system_id":"levelo_inurba_marseille","lat":43.26551,"lon":5.37285,"is_reserved":false,"is_disabled":false,"rental_uris":{"android":"levelo://app?vid=a6472af6-7a48-4ce2-9ffd-b7c1f65c55a7","ios":"levelo://app?vid=a6472af6-7a48-4ce2-9ffd-b7c1f65c55a7"},"vehicle_type_id":"4","last_reported":1730895484,"current_range_meters":27600,"station_id":"ce4bhg12rcd13ifvqf70","pricing_plan_id":"cebpf4jnsgd1na2vs0mg"},{"bike_id":"5762ed2d-019a-4513-8343-3f40a713eb9c","system_id":"levelo_inurba_marseille","lat":43.31684,"lon":5.40465,"is_reserved":false,"is_disabled":false,"rental_uris":{"android":"levelo://app?vid=5762ed2d-019a-4513-8343-3f40a713eb9c","ios":"levelo://app?vid=5762ed2d-019a-4513-8343-3f40a713eb9c"},"vehicle_type_id":"4","last_reported":1730895484,"current_range_meters":38800,"station_id":"ce4bh012rcd13ifvqd00","pricing_plan_id":"cebpf4jnsgd1na2vs0mg"},{"bike_id":"696aa659-3d72-4e02-8983-4481895f7afc","system_id":"levelo_inurba_marseille","lat":43.31272,"lon":5.40156,"is_reserved":false,"is_disabled":false,"rental_uris":{"android":"levelo://app?vid=696aa659-3d72-4e02-8983-4481895f7afc","ios":"levelo://app?vid=696aa659-3d72-4e02-8983-4481895f7afc"},"vehicle_type_id":"4","last_reported":1730895484,"current_range_meters":22400,"station_id":"ce4bh092rcd13ifvqd30","pricing_plan_id":"cebpf4jnsgd1na2vs0mg"},{"bike_id":"66c86b3c-9169-469d-a2db-a1c38c38f50d","system_id":"levelo_inurba_marseille","lat":43.29979,"lon":5.37175,"is_reserved":false,"is_disabled":false,"rental_uris":{"android":"levelo://app?vid=66c86b3c-9169-469d-a2db-a1c38c38f50d","ios":"levelo://app?vid=66c86b3c-9169-469d-a2db-a1c38c38f50d"},"vehicle_type_id":"4","last_reported":1730895484,"current_range_meters":38800,"station_id":"ce4bgr92rcd13ifvqc7g","pricing_plan_id":"cebpf4jnsgd1na2vs0mg"},{"bike_id":"751a672e-8ff5-447a-bc1e-4870610af017","system_id":"levelo_inurba_marseille","lat":43.28694,"lon":5.39987,"is_reserved":false,"is_disabled":false,"rental_uris":{"android":"levelo://app?vid=751a672e-8ff5-447a-bc1e-4870610af017","ios":"levelo://app?vid=751a672e-8ff5-447a-bc1e-4870610af017"},"vehicle_type_id":"4","last_reported":1730895484,"current_range_meters":7200,"station_id":"ce4bho92rcd13ifvqh3g","pricing_plan_id":"cebpf4jnsgd1na2vs0mg"},{"bike_id":"ce2b7b0a-da9e-4ad7-9541-832f2fe5f5ed","system_id":"levelo_inurba_marseille","lat":43.32478,"lon":5.36567,"is_reserved":false,"is_disabled":false,"rental_uris":{"android":"levelo://app?vid=ce2b7b0a-da9e-4ad7-9541-832f2fe5f5ed","ios":"levelo://app?vid=ce2b7b0a-da9e-4ad7-9541-832f2fe5f5ed"},"vehicle_type_id":"4","last_reported":1730895484,"current_range_meters":26000,"station_id":"ce4bhs12rcd13ifvqhvg","pricing_plan_id":"cebpf4jnsgd1na2vs0mg"},{"bike_id":"56863bad-1672-4347-b9b3-c3faffaab7aa","system_id":"levelo_inurba_marseille","lat":43.29275,"lon":5.40114,"is_reserved":false,"is_disabled":false,"rental_uris":{"android":"levelo://app?vid=56863bad-1672-4347-b9b3-c3faffaab7aa","ios":"levelo://app?vid=56863bad-1672-4347-b9b3-c3faffaab7aa"},"vehicle_type_id":"4","last_reported":1730895484,"current_range_meters":28000,"station_id":"ce4bh312rcd13ifvqdk0","pricing_plan_id":"cebpf4jnsgd1na2vs0mg"},{"bike_id":"2cc98d62-8db6-4424-88b3-c6172c713eb9","system_id":"levelo_inurba_marseille","lat":43.29032,"lon":5.39953,"is_reserved":false,"is_disabled":false,"rental_uris":{"android":"levelo://app?vid=2cc98d62-8db6-4424-88b3-c6172c713eb9","ios":"levelo://app?vid=2cc98d62-8db6-4424-88b3-c6172c713eb9"},"vehicle_type_id":"4","last_reported":1730895484,"current_range_meters":39200,"station_id":"ce4bh392rcd13ifvqdm0","pricing_plan_id":"cebpf4jnsgd1na2vs0mg"},{"bike_id":"bdd6b99c-0ee9-4524-86ba-4eb707f1a4eb","system_id":"levelo_inurba_marseille","lat":43.31358,"lon":5.367134,"is_reserved":false,"is_disabled":false,"rental_uris":{"android":"levelo://app?vid=bdd6b99c-0ee9-4524-86ba-4eb707f1a4eb","ios":"levelo://app?vid=bdd6b99c-0ee9-4524-86ba-4eb707f1a4eb"},"vehicle_type_id":"4","last_reported":1730895484,"current_range_meters":14000,"station_id":"ce4bgr92rcd13ifvqc6g","pricing_plan_id":"cebpf4jnsgd1na2vs0mg"},{"bike_id":"f2db6799-5c41-4fb5-bc3e-24e767bf9afd","system_id":"levelo_inurba_marseille","lat":43.26551,"lon":5.37287,"is_reserved":false,"is_disabled":false,"rental_uris":{"android":"levelo://app?vid=f2db6799-5c41-4fb5-bc3e-24e767bf9afd","ios":"levelo://app?vid=f2db6799-5c41-4fb5-bc3e-24e767bf9afd"},"vehicle_type_id":"4","last_reported":1730895484,"current_range_meters":8400,"station_id":"ce4bhg12rcd13ifvqf70","pricing_plan_id":"cebpf4jnsgd1na2vs0mg"},{"bike_id":"f91fc694-c894-4ca2-89e7-991d5ce8f350","system_id":"levelo_inurba_marseille","lat":43.30147,"lon":5.38087,"is_reserved":false,"is_disabled":false,"rental_uris":{"android":"levelo://app?vid=f91fc694-c894-4ca2-89e7-991d5ce8f350","ios":"levelo://app?vid=f91fc694-c894-4ca2-89e7-991d5ce8f350"},"vehicle_type_id":"4","last_reported":1730895484,"current_range_meters":18000,"station_id":"ce4bgjp2rcd13ifvqbh0","pricing_plan_id":"cebpf4jnsgd1na2vs0mg"},{"bike_id":"40ff6146-766a-4986-bada-c3c0f2bb47ce","system_id":"levelo_inurba_marseille","lat":43.2583,"lon":5.39447,"is_reserved":false,"is_disabled":false,"rental_uris":{"android":"levelo://app?vid=40ff6146-766a-4986-bada-c3c0f2bb47ce","ios":"levelo://app?vid=40ff6146-766a-4986-bada-c3c0f2bb47ce"},"vehicle_type_id":"4","last_reported":1730895484,"current_range_meters":27600,"station_id":"ce4bhip2rcd13ifvqft0","pricing_plan_id":"cebpf4jnsgd1na2vs0mg"},{"bike_id":"a0ad9079-fe37-4893-b447-7ef4518a09ca","system_id":"levelo_inurba_marseille","lat":43.29852,"lon":5.36282,"is_reserved":false,"is_disabled":false,"rental_uris":{"android":"levelo://app?vid=a0ad9079-fe37-4893-b447-7ef4518a09ca","ios":"levelo://app?vid=a0ad9079-fe37-4893-b447-7ef4518a09ca"},"vehicle_type_id":"4","last_reported":1730895484,"current_range_meters":38000,"station_id":"ce4bgpp2rcd13ifvqc3g","pricing_plan_id":"cebpf4jnsgd1na2vs0mg"},{"bike_id":"1f0c5b52-0098-4313-86a8-5984af0206da","system_id":"levelo_inurba_marseille","lat":43.301513,"lon":5.375191,"is_reserved":false,"is_disabled":false,"rental_uris":{"android":"levelo://app?vid=1f0c5b52-0098-4313-86a8-5984af0206da","ios":"levelo://app?vid=1f0c5b52-0098-4313-86a8-5984af0206da"},"vehicle_type_id":"4","last_reported":1730895484,"current_range_meters":11600,"station_id":"ce4bgs92rcd13ifvqcc0","pricing_plan_id":"cebpf4jnsgd1na2vs0mg"},{"bike_id":"c70ce901-03c4-42fb-87df-d47a2b13ac72","system_id":"levelo_inurba_marseille","lat":43.27844,"lon":5.39213,"is_reserved":false,"is_disabled":false,"rental_uris":{"android":"levelo://app?vid=c70ce901-03c4-42fb-87df-d47a2b13ac72","ios":"levelo://app?vid=c70ce901-03c4-42fb-87df-d47a2b13ac72"},"vehicle_type_id":"4","last_reported":1730895484,"current_range_meters":38400,"station_id":"ce4bhjp2rcd13ifvqga0","pricing_plan_id":"cebpf4jnsgd1na2vs0mg"},{"bike_id":"9e53f0f1-1942-40f0-b7c9-a9e6ff704758","system_id":"levelo_inurba_marseille","lat":43.30325,"lon":5.40446,"is_reserved":false,"is_disabled":false,"rental_uris":{"android":"levelo://app?vid=9e53f0f1-1942-40f0-b7c9-a9e6ff704758","ios":"levelo://app?vid=9e53f0f1-1942-40f0-b7c9-a9e6ff704758"},"vehicle_type_id":"4","last_reported":1730895484,"current_range_meters":36800,"station_id":"ce4bh012rcd13ifvqd10","pricing_plan_id":"cebpf4jnsgd1na2vs0mg"},{"bike_id":"f55cc1d3-66e2-4092-8a56-209373b1b8a1","system_id":"levelo_inurba_marseille","lat":43.27622,"lon":5.36113,"is_reserved":false,"is_disabled":false,"rental_uris":{"android":"levelo://app?vid=f55cc1d3-66e2-4092-8a56-209373b1b8a1","ios":"levelo://app?vid=f55cc1d3-66e2-4092-8a56-209373b1b8a1"},"vehicle_type_id":"4","last_reported":1730895484,"current_range_meters":23200,"station_id":"ce4bgj92rcd13ifvqbe0","pricing_plan_id":"cebpf4jnsgd1na2vs0mg"},{"bike_id":"93ad7110-4a39-4455-89cc-cf7a59526584","system_id":"levelo_inurba_marseille","lat":43.29981,"lon":5.37173,"is_reserved":false,"is_disabled":false,"rental_uris":{"android":"levelo://app?vid=93ad7110-4a39-4455-89cc-cf7a59526584","ios":"levelo://app?vid=93ad7110-4a39-4455-89cc-cf7a59526584"},"vehicle_type_id":"4","last_reported":1730895484,"current_range_meters":32000,"station_id":"ce4bgr92rcd13ifvqc7g","pricing_plan_id":"cebpf4jnsgd1na2vs0mg"},{"bike_id":"0c72472c-e71f-441a-9536-829018df6c24","system_id":"levelo_inurba_marseille","lat":43.30097,"lon":5.39077,"is_reserved":false,"is_disabled":false,"rental_uris":{"android":"levelo://app?vid=0c72472c-e71f-441a-9536-829018df6c24","ios":"levelo://app?vid=0c72472c-e71f-441a-9536-829018df6c24"},"vehicle_type_id":"4","last_reported":1730895484,"current_range_meters":38000,"station_id":"ce4bh192rcd13ifvqdb0","pricing_plan_id":"cebpf4jnsgd1na2vs0mg"},{"bike_id":"462c3fbe-1cc4-4f52-8b2d-73fcd04fa24c","system_id":"levelo_inurba_marseille","lat":43.24999,"lon":5.38923,"is_reserved":false,"is_disabled":false,"rental_uris":{"android":"levelo://app?vid=462c3fbe-1cc4-4f52-8b2d-73fcd04fa24c","ios":"levelo://app?vid=462c3fbe-1cc4-4f52-8b2d-73fcd04fa24c"},"vehicle_type_id":"4","last_reported":1730895484,"current_range_meters":32000,"station_id":"ce4bhgp2rcd13ifvqfd0","pricing_plan_id":"cebpf4jnsgd1na2vs0mg"},{"bike_id":"8b20c080-0b07-4dc4-a1f7-0f5aa18160ee","system_id":"levelo_inurba_marseille","lat":43.28272,"lon":5.35071,"is_reserved":false,"is_disabled":false,"rental_uris":{"android":"levelo://app?vid=8b20c080-0b07-4dc4-a1f7-0f5aa18160ee","ios":"levelo://app?vid=8b20c080-0b07-4dc4-a1f7-0f5aa18160ee"},"vehicle_type_id":"4","last_reported":1730895484,"current_range_meters":19600,"station_id":"ce4bhbp2rcd13ifvqerg","pricing_plan_id":"cebpf4jnsgd1na2vs0mg"},{"bike_id":"2c1a9f76-c405-4fba-8fcd-9b6c3d0978ad","system_id":"levelo_inurba_marseille","lat":43.30554,"lon":5.3653,"is_reserved":false,"is_disabled":false,"rental_uris":{"android":"levelo://app?vid=2c1a9f76-c405-4fba-8fcd-9b6c3d0978ad","ios":"levelo://app?vid=2c1a9f76-c405-4fba-8fcd-9b6c3d0978ad"},"vehicle_type_id":"4","last_reported":1730895484,"current_range_meters":37600,"station_id":"ce4bgs12rcd13ifvqcag","pricing_plan_id":"cebpf4jnsgd1na2vs0mg"},{"bike_id":"5184b831-ac28-4da3-8f4a-26abd17da980","system_id":"levelo_inurba_marseille","lat":43.30587,"lon":5.39348,"is_reserved":false,"is_disabled":false,"rental_uris":{"android":"levelo://app?vid=5184b831-ac28-4da3-8f4a-26abd17da980","ios":"levelo://app?vid=5184b831-ac28-4da3-8f4a-26abd17da980"},"vehicle_type_id":"4","last_reported":1730895484,"current_range_meters":38000,"station_id":"ce4bh0p2rcd13ifvqd80","pricing_plan_id":"cebpf4jnsgd1na2vs0mg"},{"bike_id":"753c10d7-ebba-4d29-ba69-f087fb042ea5","system_id":"levelo_inurba_marseille","lat":43.26592,"lon":5.39176,"is_reserved":false,"is_disabled":false,"rental_uris":{"android":"levelo://app?vid=753c10d7-ebba-4d29-ba69-f087fb042ea5","ios":"levelo://app?vid=753c10d7-ebba-4d29-ba69-f087fb042ea5"},"vehicle_type_id":"4","last_reported":1730895484,"current_range_meters":31200,"station_id":"ce4bhl92rcd13ifvqghg","pricing_plan_id":"cebpf4jnsgd1na2vs0mg"},{"bike_id":"1bb0ae7b-4e04-4610-ac08-64eea4914143","system_id":"levelo_inurba_marseille","lat":43.306,"lon":5.37227,"is_reserved":false,"is_disabled":false,"rental_uris":{"android":"levelo://app?vid=1bb0ae7b-4e04-4610-ac08-64eea4914143","ios":"levelo://app?vid=1bb0ae7b-4e04-4610-ac08-64eea4914143"},"vehicle_type_id":"4","last_reported":1730895484,"current_range_meters":38800,"station_id":"ce4bgqh2rcd13ifvqc4g","pricing_plan_id":"cebpf4jnsgd1na2vs0mg"},{"bike_id":"81fee9d0-6982-4ff4-8609-6bcf144d544c","system_id":"levelo_inurba_marseille","lat":43.289348,"lon":5.36641,"is_reserved":false,"is_disabled":false,"rental_uris":{"android":"levelo://app?vid=81fee9d0-6982-4ff4-8609-6bcf144d544c","ios":"levelo://app?vid=81fee9d0-6982-4ff4-8609-6bcf144d544c"},"vehicle_type_id":"4","last_reported":1730895484,"current_range_meters":24400,"station_id":"","pricing_plan_id":"cebpf4jnsgd1na2vs0mg"},{"bike_id":"9f819501-5ae1-4c50-807f-031d07b47e1d","system_id":"levelo_inurba_marseille","lat":43.30541,"lon":5.36695,"is_reserved":false,"is_disabled":false,"rental_uris":{"android":"levelo://app?vid=9f819501-5ae1-4c50-807f-031d07b47e1d","ios":"levelo://app?vid=9f819501-5ae1-4c50-807f-031d07b47e1d"},"vehicle_type_id":"4","last_reported":1730895484,"current_range_meters":24800,"station_id":"ce4bgrp2rcd13ifvqc9g","pricing_plan_id":"cebpf4jnsgd1na2vs0mg"},{"bike_id":"615280ca-f059-40fe-82f2-b888639b02a5","system_id":"levelo_inurba_marseille","lat":43.326584,"lon":5.409937,"is_reserved":false,"is_disabled":false,"rental_uris":{"android":"levelo://app?vid=615280ca-f059-40fe-82f2-b888639b02a5","ios":"levelo://app?vid=615280ca-f059-40fe-82f2-b888639b02a5"},"vehicle_type_id":"4","last_reported":1730895484,"current_range_meters":32800,"station_id":"ce4bhpp2rcd13ifvqhgg","pricing_plan_id":"cebpf4jnsgd1na2vs0mg"},{"bike_id":"61e68236-7c96-48ea-937f-863da20e4553","system_id":"levelo_inurba_marseille","lat":43.2293,"lon":5.35373,"is_reserved":false,"is_disabled":false,"rental_uris":{"android":"levelo://app?vid=61e68236-7c96-48ea-937f-863da20e4553","ios":"levelo://app?vid=61e68236-7c96-48ea-937f-863da20e4553"},"vehicle_type_id":"4","last_reported":1730895484,"current_range_meters":20400,"station_id":"cpo3532slgdg3j2ikp40","pricing_plan_id":"cebpf4jnsgd1na2vs0mg"},{"bike_id":"7f316980-47ce-44c8-a098-7624e315058f","system_id":"levelo_inurba_marseille","lat":43.30802,"lon":5.38158,"is_reserved":false,"is_disabled":false,"rental_uris":{"android":"levelo://app?vid=7f316980-47ce-44c8-a098-7624e315058f","ios":"levelo://app?vid=7f316980-47ce-44c8-a098-7624e315058f"},"vehicle_type_id":"4","last_reported":1730895484,"current_range_meters":27200,"station_id":"ce4bgt12rcd13ifvqce0","pricing_plan_id":"cebpf4jnsgd1na2vs0mg"},