{"last_updated":1721063256,"ttl":30,"version":"2.2","data":{"bikes":[{"bike_id":"6202ab64-15ad-4200-b116-eac8f936da71","system_id":"levelo_inurba_marseille","lat":43.3109,"lon":5.36748,"is_reserved":false,"is_disabled":false,"rental_uris":{"android":"levelo://app?vid=6202ab64-15ad-4200-b116-eac8f936da71","ios":"levelo://app?vid=6202ab64-15ad-4200-b116-eac8f936da71"},"vehicle_type_id":"4","last_reported":1721063256,"current_range_meters":25600,"station_id":"","pricing_plan_id":"cebpf4jnsgd1na2vs0mg"},{"bike_id":"14d49a7a-f1a4-4cdf-ac4c-4bb539baf279","system_id":"levelo_inurba_marseille","lat":43.309076,"lon":5.368465,"is_reserved":false,"is_disabled":false,"rental_uris":{"android":"levelo://app?vid=14d49a7a-f1a4-4cdf-ac4c-4bb539baf279","ios":"levelo://app?vid=14d49a7a-f1a4-4cdf-ac4c-4bb539baf279"},"vehicle_type_id":"4","last_reported":1721063256,"current_range_meters":400,"station_id":"ce4bgn92rcd13ifvqbvg","pricing_plan_id":"cebpf4jnsgd1na2vs0mg"},{"bike_id":"b99bddf4-db18-46b6-b8ce-71686758c105","system_id":"levelo_inurba_marseille","lat":43.309039,"lon":5.371797,"is_reserved":false,"is_disabled":false,"rental_uris":{"android":"levelo://app?vid=b99bddf4-db18-46b6-b8ce-71686758c105","ios":"levelo://app?vid=b99bddf4-db18-46b6-b8ce-71686758c105"},"vehicle_type_id":"4","last_reported":1721063256,"current_range_meters":6800,"station_id":"ce4bguh2rcd13ifvqckg","pricing_plan_id":"cebpf4jnsgd1na2vs0mg"},{"bike_id":"d5a69a80-d794-40c2-acd0-502e80aa7210","system_id":"levelo_inurba_marseille","lat":43.309034,"lon":5.371783,"is_reserved":false,"is_disabled":false,"rental_uris":{"android":"levelo://app?vid=d5a69a80-d794-40c2-acd0-502e80aa7210","ios":"levelo://app?vid=d5a69a80-d794-40c2-acd0-502e80aa7210"},"vehicle_type_id":"4","last_reported":1721063256,"current_range_meters":0,"station_id":"ce4bguh2rcd13ifvqckg","pricing_plan_id":"cebpf4jnsgd1na2vs0mg"},{"bike_id":"866f9f78-2806-4725-9549-83bd12bd093e","system_id":"levelo_inurba_marseille","lat":43.309039,"lon":5.371797,"is_reserved":false,"is_disabled":false,"rental_uris":{"android":"levelo://app?vid=866f9f78-2806-4725-9549-83bd12bd093e","ios":"levelo://app?vid=866f9f78-2806-4725-9549-83bd12bd093e"},"vehicle_type_id":"4","last_reported":1721063256,"current_range_meters":16000,"station_id":"ce4bguh2rcd13ifvqckg","pricing_plan_id":"cebpf4jnsgd1na2vs0mg"},{"bike_id":"bac73ac6-4a06-4afb-97cf-88338f2cbc3a","system_id":"levelo_inurba_marseille","lat":43.305714,"lon":5.365633,"is_reserved":false,"is_disabled":false,"rental_uris":{"android":"levelo://app?vid=bac73ac6-4a06-4afb-97cf-88338f2cbc3a","ios":"levelo://app?vid=bac73ac6-4a06-4afb-97cf-88338f2cbc3a"},"vehicle_type_id":"4","last_reported":1721063256,"current_range_meters":0,"station_id":"ce4bgs12rcd13ifvqcag","pricing_plan_id":"cebpf4jnsgd1na2vs0mg"},{"bike_id":"ac11510a-7670-415c-ac0a-4a559fa57408","system_id":"levelo_inurba_marseille","lat":43.305714,"lon":5.365633,"is_reserved":false,"is_disabled":false,"rental_uris":{"android":"levelo://app?vid=ac11510a-7670-415c-ac0a-4a559fa57408","ios":"levelo://app?vid=ac11510a-7670-415c-ac0a-4a559fa57408"},"vehicle_type_id":"4","last_reported":1721063256,"current_range_meters":26000,"station_id":"ce4bgs12rcd13ifvqcag","pricing_plan_id":"cebpf4jnsgd1na2vs0mg"},{"bike_id":"11d574a5-2ce0-4a49-ac59-0facaf4df9a7","system_id":"levelo_inurba_marseille","lat":43.30599,"lon":5.37224,"is_reserved":false,"is_disabled":false,"rental_uris":{"android":"levelo://app?vid=11d574a5-2ce0-4a49-ac59-0facaf4df9a7","ios":"levelo://app?vid=11d574a5-2ce0-4a49-ac59-0facaf4df9a7"},"vehicle_type_id":"4","last_reported":1721063256,"current_range_meters":0,"station_id":"ce4bgqh2rcd13ifvqc4g","pricing_plan_id":"cebpf4jnsgd1na2vs0mg"},{"bike_id":"22f4b68d-d8e3-4fda-89b9-6d5152d65e6f","system_id":"levelo_inurba_marseille","lat":43.317075,"lon":5.377367,"is_reserved":false,"is_disabled":false,"rental_uris":{"android":"levelo://app?vid=22f4b68d-d8e3-4fda-89b9-6d5152d65e6f","ios":"levelo://app?vid=22f4b68d-d8e3-4fda-89b9-6d5152d65e6f"},"vehicle_type_id":"4","last_reported":1721063256,"current_range_meters":400,"station_id":"ce4bgth2rcd13ifvqch0","pricing_plan_id":"cebpf4jnsgd1na2vs0mg"},{"bike_id":"d77a49d9-9e08-4ef4-b7c0-95d5f935c20d","system_id":"levelo_inurba_marseille","lat":43.32479,"lon":5.36556,"is_reserved":false,"is_disabled":false,"rental_uris":{"android":"levelo://app?vid=d77a49d9-9e08-4ef4-b7c0-95d5f935c20d","ios":"levelo://app?vid=d77a49d9-9e08-4ef4-b7c0-95d5f935c20d"},"vehicle_type_id":"4","last_reported":1721063256,"current_range_meters":0,"station_id":"ce4bhs12rcd13ifvqhvg","pricing_plan_id":"cebpf4jnsgd1na2vs0mg"},{"bike_id":"ff164d84-f8fd-4c54-a6d2-1682e7aa4574","system_id":"levelo_inurba_marseille","lat":43.32482,"lon":5.36563,"is_reserved":false,"is_disabled":false,"rental_uris":{"android":"levelo://app?vid=ff164d84-f8fd-4c54-a6d2-1682e7aa4574","ios":"levelo://app?vid=ff164d84-f8fd-4c54-a6d2-1682e7aa4574"},"vehicle_type_id":"4","last_reported":1721063256,"current_range_meters":14800,"station_id":"ce4bhs12rcd13ifvqhvg","pricing_plan_id":"cebpf4jnsgd1na2vs0mg"},{"bike_id":"54bb3e1a-bf0f-42db-8d8c-e31200f8540a","system_id":"levelo_inurba_marseille","lat":43.32485,"lon":5.36561,"is_reserved":false,"is_disabled":false,"rental_uris":{"android":"levelo://app?vid=54bb3e1a-bf0f-42db-8d8c-e31200f8540a","ios":"levelo://app?vid=54bb3e1a-bf0f-42db-8d8c-e31200f8540a"},"vehicle_type_id":"4","last_reported":1721063256,"current_range_meters":0,"station_id":"ce4bhs12rcd13ifvqhvg","pricing_plan_id":"cebpf4jnsgd1na2vs0mg"},{"bike_id":"c8ecea27-ec7a-4b71-a03a-9fe1c508e77d","system_id":"levelo_inurba_marseille","lat":43.310692,"lon":5.383474,"is_reserved":false,"is_disabled":false,"rental_uris":{"android":"levelo://app?vid=c8ecea27-ec7a-4b71-a03a-9fe1c508e77d","ios":"levelo://app?vid=c8ecea27-ec7a-4b71-a03a-9fe1c508e77d"},"vehicle_type_id":"4","last_reported":1721063256,"current_range_meters":0,"station_id":"ce4bgv92rcd13ifvqcr0","pricing_plan_id":"cebpf4jnsgd1na2vs0mg"},{"bike_id":"a8f8fa04-98a5-4b05-9e53-35e3aaf88a2b","system_id":"levelo_inurba_marseille","lat":43.302784,"lon":5.377158,"is_reserved":false,"is_disabled":false,"rental_uris":{"android":"levelo://app?vid=a8f8fa04-98a5-4b05-9e53-35e3aaf88a2b","ios":"levelo://app?vid=a8f8fa04-98a5-4b05-9e53-35e3aaf88a2b"},"vehicle_type_id":"4","last_reported":1721063256,"current_range_meters":0,"station_id":"ce4bguh2rcd13ifvqcj0","pricing_plan_id":"cebpf4jnsgd1na2vs0mg"},{"bike_id":"c0a38ec2-b7df-4049-8704-48c934a9cbde","system_id":"levelo_inurba_marseille","lat":43.302784,"lon":5.377158,"is_reserved":false,"is_disabled":false,"rental_uris":{"android":"levelo://app?vid=c0a38ec2-b7df-4049-8704-48c934a9cbde","ios":"levelo://app?vid=c0a38ec2-b7df-4049-8704-48c934a9cbde"},"vehicle_type_id":"4","last_reported":1721063256,"current_range_meters":3200,"station_id":"ce4bguh2rcd13ifvqcj0","pricing_plan_id":"cebpf4jnsgd1na2vs0mg"},{"bike_id":"c064cd0b-ff1c-40de-8b9d-eefd3435dcf1","system_id":"levelo_inurba_marseille","lat":43.305913,"lon":5.381824,"is_reserved":false,"is_disabled":false,"rental_uris":{"android":"levelo://app?vid=c064cd0b-ff1c-40de-8b9d-eefd3435dcf1","ios":"levelo://app?vid=c064cd0b-ff1c-40de-8b9d-eefd3435dcf1"},"vehicle_type_id":"4","last_reported":1721063256,"current_range_meters":19600,"station_id":"","pricing_plan_id":"cebpf4jnsgd1na2vs0mg"},{"bike_id":"8d0cd942-e749-4e1d-b077-0b45ac1091cc","system_id":"levelo_inurba_marseille","lat":43.267966,"lon":5.393976,"is_reserved":false,"is_disabled":false,"rental_uris":{"android":"levelo://app?vid=8d0cd942-e749-4e1d-b077-0b45ac1091cc","ios":"levelo://app?vid=8d0cd942-e749-4e1d-b077-0b45ac1091cc"},"vehicle_type_id":"4","last_reported":1721063256,"current_range_meters":1200,"station_id":"ce4bhh12rcd13ifvqfg0","pricing_plan_id":"cebpf4jnsgd1na2vs0mg"},{"bike_id":"e2cc78a4-772c-4442-ab87-39e8f6993ad1","system_id":"levelo_inurba_marseille","lat":43.305364,"lon":5.384119,"is_reserved":false,"is_disabled":false,"rental_uris":{"android":"levelo://app?vid=e2cc78a4-772c-4442-ab87-39e8f6993ad1","ios":"levelo://app?vid=e2cc78a4-772c-4442-ab87-39e8f6993ad1"},"vehicle_type_id":"4","last_reported":1721063256,"current_range_meters":31200,"station_id":"ce4bgg92rcd13ifvqb30","pricing_plan_id":"cebpf4jnsgd1na2vs0mg"},{"bike_id":"28fdd0d3-05bb-4a03-a55f-b6e7848a7676","system_id":"levelo_inurba_marseille","lat":43.322872,"lon":5.382756,"is_reserved":false,"is_disabled":false,"rental_uris":{"android":"levelo://app?vid=28fdd0d3-05bb-4a03-a55f-b6e7848a7676","ios":"levelo://app?vid=28fdd0d3-05bb-4a03-a55f-b6e7848a7676"},"vehicle_type_id":"4","last_reported":1721063256,"current_range_meters":31200,"station_id":"ce4bhr12rcd13ifvqhqg","pricing_plan_id":"cebpf4jnsgd1na2vs0mg"},{"bike_id":"9ea9ba12-57a7-4cf6-85c3-9caa62d58c7b","system_id":"levelo_inurba_marseille","lat":43.296921,"lon":5.376579,"is_reserved":false,"is_disabled":false,"rental_uris":{"android":"levelo://app?vid=9ea9ba12-57a7-4cf6-85c3-9caa62d58c7b","ios":"levelo://app?vid=9ea9ba12-57a7-4cf6-85c3-9caa62d58c7b"},"vehicle_type_id":"4","last_reported":1721063256,"current_range_meters":16400,"station_id":"ce4bgkh2rcd13ifvqbl0","pricing_plan_id":"cebpf4jnsgd1na2vs0mg"},{"bike_id":"a926d2ee-699a-46bc-a06a-fc7bbf665438","system_id":"levelo_inurba_marseille","lat":43.309589,"lon":5.390258,"is_reserved":false,"is_disabled":false,"rental_uris":{"android":"levelo://app?vid=a926d2ee-699a-46bc-a06a-fc7bbf665438","ios":"levelo://app?vid=a926d2ee-699a-46bc-a06a-fc7bbf665438"},"vehicle_type_id":"4","last_reported":1721063256,"current_range_meters":17600,"station_id":"ce4bgup2rcd13ifvqco0","pricing_plan_id":"cebpf4jnsgd1na2vs0mg"},{"bike_id":"d3e09ea2-460b-4d3d-b52a-73d521d46fed","system_id":"levelo_inurba_marseille","lat":43.309589,"lon":5.390258,"is_reserved":false,"is_disabled":false,"rental_uris":{"android":"levelo://app?vid=d3e09ea2-460b-4d3d-b52a-73d521d46fed","ios":"levelo://app?vid=d3e09ea2-460b-4d3d-b52a-73d521d46fed"},"vehicle_type_id":"4","last_reported":1721063256,"current_range_meters":400,"station_id":"ce4bgup2rcd13ifvqco0","pricing_plan_id":"cebpf4jnsgd1na2vs0mg"},{"bike_id":"51c34d10-8645-465d-b81d-940d8a75aaad","system_id":"levelo_inurba_marseille","lat":43.298037,"lon":5.381066,"is_reserved":false,"is_disabled":false,"rental_uris":{"android":"levelo://app?vid=51c34d10-8645-465d-b81d-940d8a75aaad","ios":"levelo://app?vid=51c34d10-8645-465d-b81d-940d8a75aaad"},"vehicle_type_id":"4","last_reported":1721063256,"current_range_meters":27200,"station_id":"ce4bgip2rcd13ifvqbb0","pricing_plan_id":"cebpf4jnsgd1na2vs0mg"},{"bike_id":"f6fecde2-41ac-4bba-9660-6c0162a98a11","system_id":"levelo_inurba_marseille","lat":43.295748,"lon":5.37522,"is_reserved":false,"is_disabled":false,"rental_uris":{"android":"levelo://app?vid=f6fecde2-41ac-4bba-9660-6c0162a98a11","ios":"levelo://app?vid=f6fecde2-41ac-4bba-9660-6c0162a98a11"},"vehicle_type_id":"4","last_reported":1721063256,"current_range_meters":1600,"station_id":"ce4bgh92rcd13ifvqb50","pricing_plan_id":"cebpf4jnsgd1na2vs0mg"},{"bike_id":"c3e4ab79-d7b1-4418-8c5a-478c9032a6f8","system_id":"levelo_inurba_marseille","lat":43.295279,"lon":5.375048,"is_reserved":false,"is_disabled":false,"rental_uris":{"android":"levelo://app?vid=c3e4ab79-d7b1-4418-8c5a-478c9032a6f8","ios":"levelo://app?vid=c3e4ab79-d7b1-4418-8c5a-478c9032a6f8"},"vehicle_type_id":"4","last_reported":1721063256,"current_range_meters":0,"station_id":"ce4bgkp2rcd13ifvqbmg","pricing_plan_id":"cebpf4jnsgd1na2vs0mg"},{"bike_id":"5b2d5deb-1bfb-4fe2-9133-fc7baa03e526","system_id":"levelo_inurba_marseille","lat":43.295279,"lon":5.375048,"is_reserved":false,"is_disabled":false,"rental_uris":{"android":"levelo://app?vid=5b2d5deb-1bfb-4fe2-9133-fc7baa03e526","ios":"levelo://app?vid=5b2d5deb-1bfb-4fe2-9133-fc7baa03e526"},"vehicle_type_id":"4","last_reported":1721063256,"current_range_meters":27200,"station_id":"ce4bgkp2rcd13ifvqbmg","pricing_plan_id":"cebpf4jnsgd1na2vs0mg"},{"bike_id":"239e0100-b84f-4d5b-85c7-945abfb4d8fa","system_id":"levelo_inurba_marseille","lat":43.29553,"lon":5.37723,"is_reserved":false,"is_disabled":false,"rental_uris":{"android":"levelo://app?vid=239e0100-b84f-4d5b-85c7-945abfb4d8fa","ios":"levelo://app?vid=239e0100-b84f-4d5b-85c7-945abfb4d8fa"},"vehicle_type_id":"4","last_reported":1721063256,"current_range_meters":9600,"station_id":"","pricing_plan_id":"cebpf4jnsgd1na2vs0mg"},{"bike_id":"dfb9b770-334d-4cee-95ac-40458d98ad86","system_id":"levelo_inurba_marseille","lat":43.296124,"lon":5.379019,"is_reserved":false,"is_disabled":false,"rental_uris":{"android":"levelo://app?vid=dfb9b770-334d-4cee-95ac-40458d98ad86","ios":"levelo://app?vid=dfb9b770-334d-4cee-95ac-40458d98ad86"},"vehicle_type_id":"4","last_reported":1721063256,"current_range_meters":3600,"station_id":"","pricing_plan_id":"cebpf4jnsgd1na2vs0mg"},{"bike_id":"eeba6aa6-081d-41da-9862-2cb98f96ffdd","system_id":"levelo_inurba_marseille","lat":43.32367,"lon":5.388836,"is_reserved":false,"is_disabled":false,"rental_uris":{"android":"levelo://app?vid=eeba6aa6-081d-41da-9862-2cb98f96ffdd","ios":"levelo://app?vid=eeba6aa6-081d-41da-9862-2cb98f96ffdd"},"vehicle_type_id":"4","last_reported":1721063256,"current_range_meters":10400,"station_id":"ce4bhqp2rcd13ifvqhog","pricing_plan_id":"cebpf4jnsgd1na2vs0mg"},{"bike_id":"688daa3d-ca55-491b-a0cb-fab365324b6e","system_id":"levelo_inurba_marseille","lat":43.32368,"lon":5.38877,"is_reserved":false,"is_disabled":false,"rental_uris":{"android":"levelo://app?vid=688daa3d-ca55-491b-a0cb-fab365324b6e","ios":"levelo://app?vid=688daa3d-ca55-491b-a0cb-fab365324b6e"},"vehicle_type_id":"4","last_reported":1721063256,"current_range_meters":9600,"station_id":"ce4bhqp2rcd13ifvqhog","pricing_plan_id":"cebpf4jnsgd1na2vs0mg"},{"bike_id":"343de34d-d15a-4332-addb-bc627a08a646","system_id":"levelo_inurba_marseille","lat":43.32367,"lon":5.388836,"is_reserved":false,"is_disabled":false,"rental_uris":{"android":"levelo://app?vid=343de34d-d15a-4332-addb-bc627a08a646","ios":"levelo://app?vid=343de34d-d15a-4332-addb-bc627a08a646"},"vehicle_type_id":"4","last_reported":1721063256,"current_range_meters":1200,"station_id":"ce4bhqp2rcd13ifvqhog","pricing_plan_id":"cebpf4jnsgd1na2vs0mg"},{"bike_id":"d451669e-8cf6-410f-9b4a-1ac8ac4abc04","system_id":"levelo_inurba_marseille","lat":43.292749,"lon":5.368402,"is_reserved":false,"is_disabled":false,"rental_uris":{"android":"levelo://app?vid=d451669e-8cf6-410f-9b4a-1ac8ac4abc04","ios":"levelo://app?vid=d451669e-8cf6-410f-9b4a-1ac8ac4abc04"},"vehicle_type_id":"4","last_reported":1721063256,"current_range_meters":0,"station_id":"ce4bhbp2rcd13ifvqesg","pricing_plan_id":"cebpf4jnsgd1na2vs0mg"},{"bike_id":"230ba4eb-76d9-499d-81eb-68a354c315d8","system_id":"levelo_inurba_marseille","lat":43.293259,"lon":5.371586,"is_reserved":false,"is_disabled":false,"rental_uris":{"android":"levelo://app?vid=230ba4eb-76d9-499d-81eb-68a354c315d8","ios":"levelo://app?vid=230ba4eb-76d9-499d-81eb-68a354c315d8"},"vehicle_type_id":"4","last_reported":1721063256,"current_range_meters":0,"station_id":"ce4bgh92rcd13ifvqb40","pricing_plan_id":"cebpf4jnsgd1na2vs0mg"},{"bike_id":"faaeaa3d-03e2-4561-9bc6-e538bdb4e9b9","system_id":"levelo_inurba_marseille","lat":43.293023,"lon":5.3743,"is_reserved":false,"is_disabled":false,"rental_uris":{"android":"levelo://app?vid=faaeaa3d-03e2-4561-9bc6-e538bdb4e9b9","ios":"levelo://app?vid=faaeaa3d-03e2-4561-9bc6-e538bdb4e9b9"},"vehicle_type_id":"4","last_reported":1721063256,"current_range_meters":0,"station_id":"ce4bgi12rcd13ifvqb70","pricing_plan_id":"cebpf4jnsgd1na2vs0mg"},{"bike_id":"f9571938-fc44-4cb8-a395-a6003c2ba43b","system_id":"levelo_inurba_marseille","lat":43.303002,"lon":5.392142,"is_reserved":false,"is_disabled":false,"rental_uris":{"android":"levelo://app?vid=f9571938-fc44-4cb8-a395-a6003c2ba43b","ios":"levelo://app?vid=f9571938-fc44-4cb8-a395-a6003c2ba43b"},"vehicle_type_id":"4","last_reported":1721063256,"current_range_meters":14800,"station_id":"ce4bgkh2rcd13ifvqbk0","pricing_plan_id":"cebpf4jnsgd1na2vs0mg"},{"bike_id":"2ea3e051-5d1d-494a-a5d2-558e8da7c0a2","system_id":"levelo_inurba_marseille","lat":43.29368,"lon":5.378537,"is_reserved":false,"is_disabled":false,"rental_uris":{"android":"levelo://app?vid=2ea3e051-5d1d-494a-a5d2-558e8da7c0a2","ios":"levelo://app?vid=2ea3e051-5d1d-494a-a5d2-558e8da7c0a2"},"vehicle_type_id":"4","last_reported":1721063256,"current_range_meters":2400,"station_id":"","pricing_plan_id":"cebpf4jnsgd1na2vs0mg"},{"bike_id":"a7dd9795-8d58-40b3-8f75-b5d76c5bd48a","system_id":"levelo_inurba_marseille","lat":43.292311,"lon":5.360731,"is_reserved":false,"is_disabled":false,"rental_uris":{"android":"levelo://app?vid=a7dd9795-8d58-40b3-8f75-b5d76c5bd48a","ios":"levelo://app?vid=a7dd9795-8d58-40b3-8f75-b5d76c5bd48a"},"vehicle_type_id":"4","last_reported":1721063256,"current_range_meters":4000,"station_id":"ce4bhbh2rcd13ifvqeqg","pricing_plan_id":"cebpf4jnsgd1na2vs0mg"},{"bike_id":"16606862-9d70-459f-a7b4-7f81cf997ed1","system_id":"levelo_inurba_marseille","lat":43.300852,"lon":5.390859,"is_reserved":false,"is_disabled":false,"rental_uris":{"android":"levelo://app?vid=16606862-9d70-459f-a7b4-7f81cf997ed1","ios":"levelo://app?vid=16606862-9d70-459f-a7b4-7f81cf997ed1"},"vehicle_type_id":"4","last_reported":1721063256,"current_range_meters":1600,"station_id":"ce4bh192rcd13ifvqdb0","pricing_plan_id":"cebpf4jnsgd1na2vs0mg"},{"bike_id":"59c67628-11fa-4162-b136-6e6500f03ec7","system_id":"levelo_inurba_marseille","lat":43.291994,"lon":5.357886,"is_reserved":false,"is_disabled":false,"rental_uris":{"android":"levelo://app?vid=59c67628-11fa-4162-b136-6e6500f03ec7","ios":"levelo://app?vid=59c67628-11fa-4162-b136-6e6500f03ec7"},"vehicle_type_id":"4","last_reported":1721063256,"current_range_meters":0,"station_id":"ce4bhb12rcd13ifvqel0","pricing_plan_id":"cebpf4jnsgd1na2vs0mg"},{"bike_id":"4419e074-a522-4b37-aebc-72e2d2cea878","system_id":"levelo_inurba_marseille","lat":43.313291,"lon":5.396838,"is_reserved":false,"is_disabled":false,"rental_uris":{"android":"levelo://app?vid=4419e074-a522-4b37-aebc-72e2d2cea878","ios":"levelo://app?vid=4419e074-a522-4b37-aebc-72e2d2cea878"},"vehicle_type_id":"4","last_reported":1721063256,"current_range_meters":0,"station_id":"ce4bgvp2rcd13ifvqcu0","pricing_plan_id":"cebpf4jnsgd1na2vs0mg"},{"bike_id":"33855639-b5be-4d71-b9d0-9fad2b51f405","system_id":"levelo_inurba_marseille","lat":43.313291,"lon":5.396838,"is_reserved":false,"is_disabled":false,"rental_uris":{"android":"levelo://app?vid=33855639-b5be-4d71-b9d0-9fad2b51f405","ios":"levelo://app?vid=33855639-b5be-4d71-b9d0-9fad2b51f405"},"vehicle_type_id":"4","last_reported":1721063256,"current_range_meters":2800,"station_id":"ce4bgvp2rcd13ifvqcu0","pricing_plan_id":"cebpf4jnsgd1na2vs0mg"},{"bike_id":"f7f847ab-7ba8-4de9-85c3-9817516cd66c","system_id":"levelo_inurba_marseille","lat":43.291994,"lon":5.357886,"is_reserved":false,"is_disabled":false,"rental_uris":{"android":"levelo://app?vid=f7f847ab-7ba8-4de9-85c3-9817516cd66c","ios":"levelo://app?vid=f7f847ab-7ba8-4de9-85c3-9817516cd66c"},"vehicle_type_id":"4","last_reported":1721063256,"current_range_meters":3200,"station_id":"ce4bhb12rcd13ifvqel0","pricing_plan_id":"cebpf4jnsgd1na2vs0mg"},{"bike_id":"ba85aaee-21aa-4e57-a982-5256192ab97f","system_id":"levelo_inurba_marseille","lat":43.29529,"lon":5.385581,"is_reserved":false,"is_disabled":false,"rental_uris":{"android":"levelo://app?vid=ba85aaee-21aa-4e57-a982-5256192ab97f","ios":"levelo://app?vid=ba85aaee-21aa-4e57-a982-5256192ab97f"},"vehicle_type_id":"4","last_reported":1721063256,"current_range_meters":22400,"station_id":"ce4bgih2rcd13ifvqba0","pricing_plan_id":"cebpf4jnsgd1na2vs0mg"},{"bike_id":"c3258acc-3976-4b09-8efe-4f84fbba3e1e","system_id":"levelo_inurba_marseille","lat":43.29529,"lon":5.385581,"is_reserved":false,"is_disabled":false,"rental_uris":{"android":"levelo://app?vid=c3258acc-3976-4b09-8efe-4f84fbba3e1e","ios":"levelo://app?vid=c3258acc-3976-4b09-8efe-4f84fbba3e1e"},"vehicle_type_id":"4","last_reported":1721063256,"current_range_meters":2400,"station_id":"ce4bgih2rcd13ifvqba0","pricing_plan_id":"cebpf4jnsgd1na2vs0mg"},{"bike_id":"4dc8fb1d-a6b0-4322-9af6-fb4a4579f78e","system_id":"levelo_inurba_marseille","lat":43.290779,"lon":5.371482,"is_reserved":false,"is_disabled":false,"rental_uris":{"android":"levelo://app?vid=4dc8fb1d-a6b0-4322-9af6-fb4a4579f78e","ios":"levelo://app?vid=4dc8fb1d-a6b0-4322-9af6-fb4a4579f78e"},"vehicle_type_id":"4","last_reported":1721063256,"current_range_meters":0,"station_id":"ce4bh5p2rcd13ifvqe4g","pricing_plan_id":"cebpf4jnsgd1na2vs0mg"},{"bike_id":"7e57e3d5-3318-406b-b56c-1f0e0a6d68c3","system_id":"levelo_inurba_marseille","lat":43.29064,"lon":5.37158,"is_reserved":false,"is_disabled":false,"rental_uris":{"android":"levelo://app?vid=7e57e3d5-3318-406b-b56c-1f0e0a6d68c3","ios":"levelo://app?vid=7e57e3d5-3318-406b-b56c-1f0e0a6d68c3"},"vehicle_type_id":"4","last_reported":1721063256,"current_range_meters":0,"station_id":"ce4bh5p2rcd13ifvqe4g","pricing_plan_id":"cebpf4jnsgd1na2vs0mg"},{"bike_id":"3342feb2-2b9f-4755-89fa-0fffe58e9feb","system_id":"levelo_inurba_marseille","lat":43.294367,"lon":5.385393,"is_reserved":false,"is_disabled":false,"rental_uris":{"android":"levelo://app?vid=3342feb2-2b9f-4755-89fa-0fffe58e9feb","ios":"levelo://app?vid=3342feb2-2b9f-4755-89fa-0fffe58e9feb"},"vehicle_type_id":"4","last_reported":1721063256,"current_range_meters":0,"station_id":"","pricing_plan_id":"cebpf4jnsgd1na2vs0mg"},{"bike_id":"1298d410-b187-4c6b-b214-1000209eb5ce","system_id":"levelo_inurba_marseille","lat":43.302008,"lon":5.394694,"is_reserved":false,"is_disabled":false,"rental_uris":{"android":"levelo://app?vid=1298d410-b187-4c6b-b214-1000209eb5ce","ios":"levelo://app?vid=1298d410-b187-4c6b-b214-1000209eb5ce"},"vehicle_type_id":"4","last_reported":1721063256,"current_range_meters":3200,"station_id":"ce4bh0p2rcd13ifvqd70","pricing_plan_id":"cebpf4jnsgd1na2vs0mg"},{"bike_id":"53711856-9df9-4437-bc9b-264ca3f7898e","system_id":"levelo_inurba_marseille","lat":43.290327,"lon":5.375711,"is_reserved":false,"is_disabled":false,"rental_uris":{"android":"levelo://app?vid=53711856-9df9-4437-bc9b-264ca3f7898e","ios":"levelo://app?vid=53711856-9df9-4437-bc9b-264ca3f7898e"},"vehicle_type_id":"4","last_reported":1721063256,"current_range_meters":20800,"station_id":"ce4bh692rcd13ifvqe90","pricing_plan_id":"cebpf4jnsgd1na2vs0mg"},{"bike_id":"2bd4c995-d55c-49ab-83ed-83965c43dfae","system_id":"levelo_inurba_marseille","lat":43.294162,"lon":5.386292,"is_reserved":false,"is_disabled":false,"rental_uris":{"android":"levelo://app?vid=2bd4c995-d55c-49ab-83ed-83965c43dfae","ios":"levelo://app?vid=2bd4c995-d55c-49ab-83ed-83965c43dfae"},"vehicle_type_id":"4","last_reported":1721063256,"current_range_meters":0,"station_id":"ce4bh2h2rcd13ifvqdh0","pricing_plan_id":"cebpf4jnsgd1na2vs0mg"},{"bike_id":"2c0ae5bf-6409-4820-b5f4-a5609f89361c","system_id":"levelo_inurba_marseille","lat":43.290319,"lon":5.375732,"is_reserved":false,"is_disabled":false,"rental_uris":{"android":"levelo://app?vid=2c0ae5bf-6409-4820-b5f4-a5609f89361c","ios":"levelo://app?vid=2c0ae5bf-6409-4820-b5f4-a5609f89361c"},"vehicle_type_id":"4","last_reported":1721063256,"current_range_meters":8000,"station_id":"ce4bh692rcd13ifvqe90","pricing_plan_id":"cebpf4jnsgd1na2vs0mg"},{"bike_id":"ca216e16-59a6-405d-8816-62dd94013ef2","system_id":"levelo_inurba_marseille","lat":43.289433,"lon":5.364028,"is_reserved":false,"is_disabled":false,"rental_uris":{"android":"levelo://app?vid=ca216e16-59a6-405d-8816-62dd94013ef2","ios":"levelo://app?vid=ca216e16-59a6-405d-8816-62dd94013ef2"},"vehicle_type_id":"4","last_reported":1721063256,"current_range_meters":26000,"station_id":"","pricing_plan_id":"cebpf4jnsgd1na2vs0mg"},{"bike_id":"264af3e2-a341-4dc9-8869-29366fe981b4","system_id":"levelo_inurba_marseille","lat":43.289468,"lon":5.363719,"is_reserved":false,"is_disabled":false,"rental_uris":{"android":"levelo://app?vid=264af3e2-a341-4dc9-8869-29366fe981b4","ios":"levelo://app?vid=264af3e2-a341-4dc9-8869-29366fe981b4"},"vehicle_type_id":"4","last_reported":1721063256,"current_range_meters":16400,"station_id":"ce4bhc92rcd13ifvqetg","pricing_plan_id":"cebpf4jnsgd1na2vs0mg"},{"bike_id":"f7b87327-0306-480d-a8b8-b506d9bbeaef","system_id":"levelo_inurba_marseille","lat":43.295169,"lon":5.390426,"is_reserved":false,"is_disabled":false,"rental_uris":{"android":"levelo://app?vid=f7b87327-0306-480d-a8b8-b506d9bbeaef","ios":"levelo://app?vid=f7b87327-0306-480d-a8b8-b506d9bbeaef"},"vehicle_type_id":"4","last_reported":1721063256,"current_range_meters":12000,"station_id":"ce4bh3p2rcd13ifvqdp0","pricing_plan_id":"cebpf4jnsgd1na2vs0mg"},{"bike_id":"24f48a2d-aa91-4add-aba8-f37e20e2165e","system_id":"levelo_inurba_marseille","lat":43.292644,"lon":5.384257,"is_reserved":false,"is_disabled":false,"rental_uris":{"android":"levelo://app?vid=24f48a2d-aa91-4add-aba8-f37e20e2165e","ios":"levelo://app?vid=24f48a2d-aa91-4add-aba8-f37e20e2165e"},"vehicle_type_id":"4","last_reported":1721063256,"current_range_meters":0,"station_id":"ce4bh692rcd13ifvqea0","pricing_plan_id":"cebpf4jnsgd1na2vs0mg"},{"bike_id":"2124a40c-174d-4bbb-bcee-14363822cda1","system_id":"levelo_inurba_marseille","lat":43.289468,"lon":5.363719,"is_reserved":false,"is_disabled":false,"rental_uris":{"android":"levelo://app?vid=2124a40c-174d-4bbb-bcee-14363822cda1","ios":"levelo://app?vid=2124a40c-174d-4bbb-bcee-14363822cda1"},"vehicle_type_id":"4","last_reported":1721063256,"current_range_meters":800,"station_id":"ce4bhc92rcd13ifvqetg","pricing_plan_id":"cebpf4jnsgd1na2vs0mg"},{"bike_id":"16a3d332-e922-40ef-b105-0c36cf209ea8","system_id":"levelo_inurba_marseille","lat":43.30415,"lon":5.39745,"is_reserved":false,"is_disabled":false,"rental_uris":{"android":"levelo://app?vid=16a3d332-e922-40ef-b105-0c36cf209ea8","ios":"levelo://app?vid=16a3d332-e922-40ef-b105-0c36cf209ea8"},"vehicle_type_id":"4","last_reported":1721063256,"current_range_meters":0,"station_id":"ce4bh092rcd13ifvqd20","pricing_plan_id":"cebpf4jnsgd1na2vs0mg"},{"bike_id":"ab4c5981-d6d2-4789-8464-4cdb329e28c4","system_id":"levelo_inurba_marseille","lat":43.290104,"lon":5.356111,"is_reserved":false,"is_disabled":false,"rental_uris":{"android":"levelo://app?vid=ab4c5981-d6d2-4789-8464-4cdb329e28c4","ios":"levelo://app?vid=ab4c5981-d6d2-4789-8464-4cdb329e28c4"},"vehicle_type_id":"4","last_reported":1721063256,"current_range_meters":28400,"station_id":"ce4bhb92rcd13ifvqen0","pricing_plan_id":"cebpf4jnsgd1na2vs0mg"},{"bike_id":"f49183f5-95c6-450c-805c-290461c0f4c5","system_id":"levelo_inurba_marseille","lat":43.290995,"lon":5.381361,"is_reserved":false,"is_disabled":false,"rental_uris":{"android":"levelo://app?vid=f49183f5-95c6-450c-805c-290461c0f4c5","ios":"levelo://app?vid=f49183f5-95c6-450c-805c-290461c0f4c5"},"vehicle_type_id":"4","last_reported":1721063256,"current_range_meters":0,"station_id":"ce4bh512rcd13ifvqe2g","pricing_plan_id":"cebpf4jnsgd1na2vs0mg"},{"bike_id":"55de1040-1a36-480c-bf06-3d7eba8b409e","system_id":"levelo_inurba_marseille","lat":43.323172,"lon":5.396996,"is_reserved":false,"is_disabled":false,"rental_uris":{"android":"levelo://app?vid=55de1040-1a36-480c-bf06-3d7eba8b409e","ios":"levelo://app?vid=55de1040-1a36-480c-bf06-3d7eba8b409e"},"vehicle_type_id":"4","last_reported":1721063256,"current_range_meters":400,"station_id":"","pricing_plan_id":"cebpf4jnsgd1na2vs0mg"},{"bike_id":"4ad5af15-874b-4052-99a1-a3fdba20cdcb","system_id":"levelo_inurba_marseille","lat":43.295169,"lon":5.390426,"is_reserved":false,"is_disabled":false,"rental_uris":{"android":"levelo://app?vid=4ad5af15-874b-4052-99a1-a3fdba20cdcb","ios":"levelo://app?vid=4ad5af15-874b-4052-99a1-a3fdba20cdcb"},"vehicle_type_id":"4","last_reported":1721063256,"current_range_meters":1200,"station_id":"ce4bh3p2rcd13ifvqdp0","pricing_plan_id":"cebpf4jnsgd1na2vs0mg"},{"bike_id":"dee03e38-5e4a-439e-9d7f-3161f70d28ec","system_id":"levelo_inurba_marseille","lat":43.29529,"lon":5.3903,"is_reserved":false,"is_disabled":false,"rental_uris":{"android":"levelo://app?vid=dee03e38-5e4a-439e-9d7f-3161f70d28ec","ios":"levelo://app?vid=dee03e38-5e4a-439e-9d7f-3161f70d28ec"},"vehicle_type_id":"4","last_reported":1721063256,"current_range_meters":0,"station_id":"ce4bh3p2rcd13ifvqdp0","pricing_plan_id":"cebpf4jnsgd1na2vs0mg"},{"bike_id":"91d71084-b800-4feb-84ce-4b1ecb686daa","system_id":"levelo_inurba_marseille","lat":43.295169,"lon":5.390426,"is_reserved":false,"is_disabled":false,"rental_uris":{"android":"levelo://app?vid=91d71084-b800-4feb-84ce-4b1ecb686daa","ios":"levelo://app?vid=91d71084-b800-4feb-84ce-4b1ecb686daa"},"vehicle_type_id":"4","last_reported":1721063256,"current_range_meters":4000,"station_id":"ce4bh3p2rcd13ifvqdp0","pricing_plan_id":"cebpf4jnsgd1na2vs0mg"},{"bike_id":"9353c8b8-a67c-453b-8c0d-b74ee3e71b70","system_id":"levelo_inurba_marseille","lat":43.289743,"lon":5.378304,"is_reserved":false,"is_disabled":false,"rental_uris":{"android":"levelo://app?vid=9353c8b8-a67c-453b-8c0d-b74ee3e71b70","ios":"levelo://app?vid=9353c8b8-a67c-453b-8c0d-b74ee3e71b70"},"vehicle_type_id":"4","last_reported":1721063256,"current_range_meters":0,"station_id":"ce4bh9p2rcd13ifvqed0","pricing_plan_id":"cebpf4jnsgd1na2vs0mg"},{"bike_id":"e89fb8ff-e46e-4cb2-8e6f-2872425f0957","system_id":"levelo_inurba_marseille","lat":43.295169,"lon":5.390426,"is_reserved":false,"is_disabled":false,"rental_uris":{"android":"levelo://app?vid=e89fb8ff-e46e-4cb2-8e6f-2872425f0957","ios":"levelo://app?vid=e89fb8ff-e46e-4cb2-8e6f-2872425f0957"},"vehicle_type_id":"4","last_reported":1721063256,"current_range_meters":0,"station_id":"ce4bh3p2rcd13ifvqdp0","pricing_plan_id":"cebpf4jnsgd1na2vs0mg"},{"bike_id":"50420d11-cb09-48ce-bc6b-fa1007a342c1","system_id":"levelo_inurba_marseille","lat":43.295169,"lon":5.390426,"is_reserved":false,"is_disabled":false,"rental_uris":{"android":"levelo://app?vid=50420d11-cb09-48ce-bc6b-fa1007a342c1","ios":"levelo://app?vid=50420d11-cb09-48ce-bc6b-fa1007a342c1"},"vehicle_type_id":"4","last_reported":1721063256,"current_range_meters":7200,"station_id":"ce4bh3p2rcd13ifvqdp0","pricing_plan_id":"cebpf4jnsgd1na2vs0mg"},{"bike_id":"f4a8c381-6281-4013-950e-9d96b3a0f522","system_id":"levelo_inurba_marseille","lat":43.330442,"lon":5.389148,"is_reserved":false,"is_disabled":false,"rental_uris":{"android":"levelo://app?vid=f4a8c381-6281-4013-950e-9d96b3a0f522","ios":"levelo://app?vid=f4a8c381-6281-4013-950e-9d96b3a0f522"},"vehicle_type_id":"4","last_reported":1721063256,"current_range_meters":14000,"station_id":"ce4bhr92rcd13ifvqhrg","pricing_plan_id":"cebpf4jnsgd1na2vs0mg"},{"bike_id":"b15bc265-ce34-44c3-a74b-f20f4e6afcf2","system_id":"levelo_inurba_marseille","lat":43.33023,"lon":5.39043,"is_reserved":false,"is_disabled":false,"rental_uris":{"android":"levelo://app?vid=b15bc265-ce34-44c3-a74b-f20f4e6afcf2","ios":"levelo://app?vid=b15bc265-ce34-44c3-a74b-f20f4e6afcf2"},"vehicle_type_id":"4","last_reported":1721063256,"current_range_meters":0,"station_id":"ce4bhr92rcd13ifvqhrg","pricing_plan_id":"cebpf4jnsgd1na2vs0mg"},{"bike_id":"571b24e3-9805-472b-a6f7-b8b8f1afcf6a","system_id":"levelo_inurba_marseille","lat":43.330442,"lon":5.389148,"is_reserved":false,"is_disabled":false,"rental_uris":{"android":"levelo://app?vid=571b24e3-9805-472b-a6f7-b8b8f1afcf6a","ios":"levelo://app?vid=571b24e3-9805-472b-a6f7-b8b8f1afcf6a"},"vehicle_type_id":"4","last_reported":1721063256,"current_range_meters":9200,"station_id":"ce4bhr92rcd13ifvqhrg","pricing_plan_id":"cebpf4jnsgd1na2vs0mg"},{"bike_id":"f8412d24-43fc-46aa-87b3-9e5f2a3e73eb","system_id":"levelo_inurba_marseille","lat":43.330442,"lon":5.389148,"is_reserved":false,"is_disabled":false,"rental_uris":{"android":"levelo://app?vid=f8412d24-43fc-46aa-87b3-9e5f2a3e73eb","ios":"levelo://app?vid=f8412d24-43fc-46aa-87b3-9e5f2a3e73eb"},"vehicle_type_id":"4","last_reported":1721063256,"current_range_meters":1200,"station_id":"ce4bhr92rcd13ifvqhrg","pricing_plan_id":"cebpf4jnsgd1na2vs0mg"},{"bike_id":"f6dd224e-59fb-4884-a2a6-c7eacf09c6ed","system_id":"levelo_inurba_marseille","lat":43.295169,"lon":5.390426,"is_reserved":false,"is_disabled":false,"rental_uris":{"android":"levelo://app?vid=f6dd224e-59fb-4884-a2a6-c7eacf09c6ed","ios":"levelo://app?vid=f6dd224e-59fb-4884-a2a6-c7eacf09c6ed"},"vehicle_type_id":"4","last_reported":1721063256,"current_range_meters":20400,"station_id":"ce4bh3p2rcd13ifvqdp0","pricing_plan_id":"cebpf4jnsgd1na2vs0mg"},{"bike_id":"21130598-87a4-41e1-aed4-deeb6f4f8ac0","system_id":"levelo_inurba_marseille","lat":43.28979,"lon":5.354853,"is_reserved":false,"is_disabled":false,"rental_uris":{"android":"levelo://app?vid=21130598-87a4-41e1-aed4-deeb6f4f8ac0","ios":"levelo://app?vid=21130598-87a4-41e1-aed4-deeb6f4f8ac0"},"vehicle_type_id":"4","last_reported":1721063256,"current_range_meters":5600,"station_id":"","pricing_plan_id":"cebpf4jnsgd1na2vs0mg"},{"bike_id":"39597a22-4694-434d-98df-ec75f235bfa8","system_id":"levelo_inurba_marseille","lat":43.29511,"lon":5.39046,"is_reserved":false,"is_disabled":false,"rental_uris":{"android":"levelo://app?vid=39597a22-4694-434d-98df-ec75f235bfa8","ios":"levelo://app?vid=39597a22-4694-434d-98df-ec75f235bfa8"},"vehicle_type_id":"4","last_reported":1721063256,"current_range_meters":1200,"station_id":"ce4bh3p2rcd13ifvqdp0","pricing_plan_id":"cebpf4jnsgd1na2vs0mg"},{"bike_id":"14a2ccd3-51a3-44d4-8a38-da66449fe25f","system_id":"levelo_inurba_marseille","lat":43.3107,"lon":5.40081,"is_reserved":false,"is_disabled":false,"rental_uris":{"android":"levelo://app?vid=14a2ccd3-51a3-44d4-8a38-da66449fe25f","ios":"levelo://app?vid=14a2ccd3-51a3-44d4-8a38-da66449fe25f"},"vehicle_type_id":"4","last_reported":1721063256,"current_range_meters":15600,"station_id":"","pricing_plan_id":"cebpf4jnsgd1na2vs0mg"},{"bike_id":"e5f9b488-7ae3-4362-9941-63ecfec68cf1","system_id":"levelo_inurba_marseille","lat":43.289487,"lon":5.35486,"is_reserved":false,"is_disabled":false,"rental_uris":{"android":"levelo://app?vid=e5f9b488-7ae3-4362-9941-63ecfec68cf1","ios":"levelo://app?vid=e5f9b488-7ae3-4362-9941-63ecfec68cf1"},"vehicle_type_id":"4","last_reported":1721063256,"current_range_meters":1600,"station_id":"","pricing_plan_id":"cebpf4jnsgd1na2vs0mg"},{"bike_id":"f436da8d-6aba-4cb6-ba38-71ffc41a63e8","system_id":"levelo_inurba_marseille","lat":43.292311,"lon":5.360731,"is_reserved":false,"is_disabled":false,"rental_uris":{"android":"levelo://app?vid=f436da8d-6aba-4cb6-ba38-71ffc41a63e8","ios":"levelo://app?vid=f436da8d-6aba-4cb6-ba38-71ffc41a63e8"},"vehicle_type_id":"4","last_reported":1721063256,"current_range_meters":18400,"station_id":"ce4bhbh2rcd13ifvqeqg","pricing_plan_id":"cebpf4jnsgd1na2vs0mg"},{"bike_id":"11e2a0c5-dab4-4134-ad65-c03b9bccd0e0","system_id":"levelo_inurba_marseille","lat":43.33749,"lon":5.37445,"is_reserved":false,"is_disabled":false,"rental_uris":{"android":"levelo://app?vid=11e2a0c5-dab4-4134-ad65-c03b9bccd0e0","ios":"levelo://app?vid=11e2a0c5-dab4-4134-ad65-c03b9bccd0e0"},"vehicle_type_id":"4","last_reported":1721063256,"current_range_meters":28400,"station_id":"","pricing_plan_id":"cebpf4jnsgd1na2vs0mg"},{"bike_id":"5e29faa5-737f-4677-875d-f28ec400b2e0","system_id":"levelo_inurba_marseille","lat":43.337481,"lon":5.37466,"is_reserved":false,"is_disabled":false,"rental_uris":{"android":"levelo://app?vid=5e29faa5-737f-4677-875d-f28ec400b2e0","ios":"levelo://app?vid=5e29faa5-737f-4677-875d-f28ec400b2e0"},"vehicle_type_id":"4","last_reported":1721063256,"current_range_meters":18800,"station_id":"","pricing_plan_id":"cebpf4jnsgd1na2vs0mg"},{"bike_id":"0d091c58-9642-4728-9c17-4a33f996ef40","system_id":"levelo_inurba_marseille","lat":43.30642,"lon":5.401031,"is_reserved":false,"is_disabled":false,"rental_uris":{"android":"levelo://app?vid=0d091c58-9642-4728-9c17-4a33f996ef40","ios":"levelo://app?vid=0d091c58-9642-4728-9c17-4a33f996ef40"},"vehicle_type_id":"4","last_reported":1721063256,"current_range_meters":19200,"station_id":"ce4bh112rcd13ifvqda0","pricing_plan_id":"cebpf4jnsgd1na2vs0mg"},{"bike_id":"bc181a61-1a7b-4496-ba49-e2799bac86fb","system_id":"levelo_inurba_marseille","lat":43.337642,"lon":5.374828,"is_reserved":false,"is_disabled":false,"rental_uris":{"android":"levelo://app?vid=bc181a61-1a7b-4496-ba49-e2799bac86fb","ios":"levelo://app?vid=bc181a61-1a7b-4496-ba49-e2799bac86fb"},"vehicle_type_id":"4","last_reported":1721063256,"current_range_meters":17600,"station_id":"","pricing_plan_id":"cebpf4jnsgd1na2vs0mg"},{"bike_id":"ff9d206a-355a-4341-ba04-c3838543dd38","system_id":"levelo_inurba_marseille","lat":43.301117,"lon":5.398795,"is_reserved":false,"is_disabled":false,"rental_uris":{"android":"levelo://app?vid=ff9d206a-355a-4341-ba04-c3838543dd38","ios":"levelo://app?vid=ff9d206a-355a-4341-ba04-c3838543dd38"},"vehicle_type_id":"4","last_reported":1721063256,"current_range_meters":400,"station_id":"ce4bh0h2rcd13ifvqd40","pricing_plan_id":"cebpf4jnsgd1na2vs0mg"},{"bike_id":"7a0da779-a466-4f0c-a8f0-3e0d02557207","system_id":"levelo_inurba_marseille","lat":43.28727,"lon":5.36078,"is_reserved":false,"is_disabled":false,"rental_uris":{"android":"levelo://app?vid=7a0da779-a466-4f0c-a8f0-3e0d02557207","ios":"levelo://app?vid=7a0da779-a466-4f0c-a8f0-3e0d02557207"},"vehicle_type_id":"4","last_reported":1721063256,"current_range_meters":14000,"station_id":"cki0cbj6b192h4jlfktg","pricing_plan_id":"cebpf4jnsgd1na2vs0mg"},{"bike_id":"02625ceb-ce6d-48d5-9667-e8d3b395f64b","system_id":"levelo_inurba_marseille","lat":43.28727,"lon":5.36078,"is_reserved":false,"is_disabled":false,"rental_uris":{"android":"levelo://app?vid=02625ceb-ce6d-48d5-9667-e8d3b395f64b","ios":"levelo://app?vid=02625ceb-ce6d-48d5-9667-e8d3b395f64b"},"vehicle_type_id":"4","last_reported":1721063256,"current_range_meters":11600,"station_id":"cki0cbj6b192h4jlfktg","pricing_plan_id":"cebpf4jnsgd1na2vs0mg"},{"bike_id":"c735e716-295b-448c-bfcd-547361aa0f57","system_id":"levelo_inurba_marseille","lat":43.286961,"lon":5.373785,"is_reserved":false,"is_disabled":false,"rental_uris":{"android":"levelo://app?vid=c735e716-295b-448c-bfcd-547361aa0f57","ios":"levelo://app?vid=c735e716-295b-448c-bfcd-547361aa0f57"},"vehicle_type_id":"4","last_reported":1721063256,"current_range_meters":10400,"station_id":"ce4bh3p2rcd13ifvqdq0","pricing_plan_id":"cebpf4jnsgd1na2vs0mg"},{"bike_id":"c21e3bbf-74e7-459f-8cee-d95f53910f22","system_id":"levelo_inurba_marseille","lat":43.298681,"lon":5.397225,"is_reserved":false,"is_disabled":false,"rental_uris":{"android":"levelo://app?vid=c21e3bbf-74e7-459f-8cee-d95f53910f22","ios":"levelo://app?vid=c21e3bbf-74e7-459f-8cee-d95f53910f22"},"vehicle_type_id":"4","last_reported":1721063256,"current_range_meters":7200,"station_id":"ce4bh0h2rcd13ifvqd50","pricing_plan_id":"cebpf4jnsgd1na2vs0mg"},{"bike_id":"68decd1d-1655-4619-8ba9-5a34ad74b1c2","system_id":"levelo_inurba_marseille","lat":43.298681,"lon":5.397225,"is_reserved":false,"is_disabled":false,"rental_uris":{"android":"levelo://app?vid=68decd1d-1655-4619-8ba9-5a34ad74b1c2","ios":"levelo://app?vid=68decd1d-1655-4619-8ba9-5a34ad74b1c2"},"vehicle_type_id":"4","last_reported":1721063256,"current_range_meters":20000,"station_id":"ce4bh0h2rcd13ifvqd50","pricing_plan_id":"cebpf4jnsgd1na2vs0mg"},{"bike_id":"a4353c16-0244-4490-bc09-3685058aa051","system_id":"levelo_inurba_marseille","lat":43.302759,"lon":5.400793,"is_reserved":false,"is_disabled":false,"rental_uris":{"android":"levelo://app?vid=a4353c16-0244-4490-bc09-3685058aa051","ios":"levelo://app?vid=a4353c16-0244-4490-bc09-3685058aa051"},"vehicle_type_id":"4","last_reported":1721063256,"current_range_meters":0,"station_id":"ce4bgvh2rcd13ifvqcs0","pricing_plan_id":"cebpf4jnsgd1na2vs0mg"},{"bike_id":"b64cdf61-db93-4d6d-bde8-ec97ca43358e","system_id":"levelo_inurba_marseille","lat":43.290336,"lon":5.386425,"is_reserved":false,"is_disabled":false,"rental_uris":{"android":"levelo://app?vid=b64cdf61-db93-4d6d-bde8-ec97ca43358e","ios":"levelo://app?vid=b64cdf61-db93-4d6d-bde8-ec97ca43358e"},"vehicle_type_id":"4","last_reported":1721063256,"current_range_meters":20000,"station_id":"ce4bh4p2rcd13ifvqe0g","pricing_plan_id":"cebpf4jnsgd1na2vs0mg"},{"bike_id":"81eb9043-8b63-42b9-a23c-6b12a883088a","system_id":"levelo_inurba_marseille","lat":43.32743,"lon":5.39735,"is_reserved":false,"is_disabled":false,"rental_uris":{"android":"levelo://app?vid=81eb9043-8b63-42b9-a23c-6b12a883088a","ios":"levelo://app?vid=81eb9043-8b63-42b9-a23c-6b12a883088a"},"vehicle_type_id":"4","last_reported":1721063256,"current_range_meters":7200,"station_id":"","pricing_plan_id":"cebpf4jnsgd1na2vs0mg"},{"bike_id":"3580287b-d7a4-4061-aaf7-2bd6e0bfb93c","system_id":"levelo_inurba_marseille","lat":43.290336,"lon":5.386425,"is_reserved":false,"is_disabled":false,"rental_uris":{"android":"levelo://app?vid=3580287b-d7a4-4061-aaf7-2bd6e0bfb93c","ios":"levelo://app?vid=3580287b-d7a4-4061-aaf7-2bd6e0bfb93c"},"vehicle_type_id":"4","last_reported":1721063256,"current_range_meters":0,"station_id":"ce4bh4p2rcd13ifvqe0g","pricing_plan_id":"cebpf4jnsgd1na2vs0mg"},{"bike_id":"d2ee04bb-274a-49f4-9ef8-201250f92e44","system_id":"levelo_inurba_marseille","lat":43.290336,"lon":5.386425,"is_reserved":false,"is_disabled":false,"rental_uris":{"android":"levelo://app?vid=d2ee04bb-274a-49f4-9ef8-201250f92e44","ios":"levelo://app?vid=d2ee04bb-274a-49f4-9ef8-201250f92e44"},"vehicle_type_id":"4","last_reported":1721063256,"current_range_meters":0,"station_id":"ce4bh4p2rcd13ifvqe0g","pricing_plan_id":"cebpf4jnsgd1na2vs0mg"},{"bike_id":"2d9f7bcd-d186-442d-a231-2e3bc1f407a5","system_id":"levelo_inurba_marseille","lat":43.327295,"lon":5.39753,"is_reserved":false,"is_disabled":false,"rental_uris":{"android":"levelo://app?vid=2d9f7bcd-d186-442d-a231-2e3bc1f407a5","ios":"levelo://app?vid=2d9f7bcd-d186-442d-a231-2e3bc1f407a5"},"vehicle_type_id":"4","last_reported":1721063256,"current_range_meters":5600,"station_id":"","pricing_plan_id":"cebpf4jnsgd1na2vs0mg"},{"bike_id":"832d28cd-acf1-4b47-be6b-853916b4f4d2","system_id":"levelo_inurba_marseille","lat":43.302759,"lon":5.400793,"is_reserved":false,"is_disabled":false,"rental_uris":{"android":"levelo://app?vid=832d28cd-acf1-4b47-be6b-853916b4f4d2","ios":"levelo://app?vid=832d28cd-acf1-4b47-be6b-853916b4f4d2"},"vehicle_type_id":"4","last_reported":1721063256,"current_range_meters":13200,"station_id":"ce4bgvh2rcd13ifvqcs0","pricing_plan_id":"cebpf4jnsgd1na2vs0mg"},{"bike_id":"d13aa575-831f-492b-9da3-7021859a906c","system_id":"levelo_inurba_marseille","lat":43.287184,"lon":5.37937,"is_reserved":false,"is_disabled":false,"rental_uris":{"android":"levelo://app?vid=d13aa575-831f-492b-9da3-7021859a906c","ios":"levelo://app?vid=d13aa575-831f-492b-9da3-7021859a906c"},"vehicle_type_id":"4","last_reported":1721063256,"current_range_meters":0,"station_id":"ce4bh9p2rcd13ifvqec0","pricing_plan_id":"cebpf4jnsgd1na2vs0mg"},{"bike_id":"05caed85-3523-43f3-8742-8182199ee2f8","system_id":"levelo_inurba_marseille","lat":43.287763,"lon":5.3827,"is_reserved":false,"is_disabled":false,"rental_uris":{"android":"levelo://app?vid=05caed85-3523-43f3-8742-8182199ee2f8","ios":"levelo://app?vid=05caed85-3523-43f3-8742-8182199ee2f8"},"vehicle_type_id":"4","last_reported":1721063256,"current_range_meters":0,"station_id":"","pricing_plan_id":"cebpf4jnsgd1na2vs0mg"},{"bike_id":"ddab85e1-cf74-4754-83f5-362b9285f389","system_id":"levelo_inurba_marseille","lat":43.291994,"lon":5.392907,"is_reserved":false,"is_disabled":false,"rental_uris":{"android":"levelo://app?vid=ddab85e1-cf74-4754-83f5-362b9285f389","ios":"levelo://app?vid=ddab85e1-cf74-4754-83f5-362b9285f389"},"vehicle_type_id":"4","last_reported":1721063256,"current_range_meters":6400,"station_id":"ce4bh192rcd13ifvqdd0","pricing_plan_id":"cebpf4jnsgd1na2vs0mg"},{"bike_id":"a16d8996-80ae-4fb5-b198-b4a7c1f33eff","system_id":"levelo_inurba_marseille","lat":43.291994,"lon":5.392907,"is_reserved":false,"is_disabled":false,"rental_uris":{"android":"levelo://app?vid=a16d8996-80ae-4fb5-b198-b4a7c1f33eff","ios":"levelo://app?vid=a16d8996-80ae-4fb5-b198-b4a7c1f33eff"},"vehicle_type_id":"4","last_reported":1721063256,"current_range_meters":1200,"station_id":"ce4bh192rcd13ifvqdd0","pricing_plan_id":"cebpf4jnsgd1na2vs0mg"},{"bike_id":"28e262d4-42b3-4855-88ac-f68e7bf36b08","system_id":"levelo_inurba_marseille","lat":43.291994,"lon":5.392907,"is_reserved":false,"is_disabled":false,"rental_uris":{"android":"levelo://app?vid=28e262d4-42b3-4855-88ac-f68e7bf36b08","ios":"levelo://app?vid=28e262d4-42b3-4855-88ac-f68e7bf36b08"},"vehicle_type_id":"4","last_reported":1721063256,"current_range_meters":16800,"station_id":"ce4bh192rcd13ifvqdd0","pricing_plan_id":"cebpf4jnsgd1na2vs0mg"},{"bike_id":"ff5cd3ad-0a85-4d44-be9c-5ff776f2b922","system_id":"levelo_inurba_marseille","lat":43.31287,"lon":5.4058,"is_reserved":false,"is_disabled":false,"rental_uris":{"android":"levelo://app?vid=ff5cd3ad-0a85-4d44-be9c-5ff776f2b922","ios":"levelo://app?vid=ff5cd3ad-0a85-4d44-be9c-5ff776f2b922"},"vehicle_type_id":"4","last_reported":1721063256,"current_range_meters":0,"station_id":"","pricing_plan_id":"cebpf4jnsgd1na2vs0mg"},{"bike_id":"b8a7c24c-b4ae-408d-a5f3-814acfb975d5","system_id":"levelo_inurba_marseille","lat":43.294314,"lon":5.397498,"is_reserved":false,"is_disabled":false,"rental_uris":{"android":"levelo://app?vid=b8a7c24c-b4ae-408d-a5f3-814acfb975d5","ios":"levelo://app?vid=b8a7c24c-b4ae-408d-a5f3-814acfb975d5"},"vehicle_type_id":"4","last_reported":1721063256,"current_range_meters":17600,"station_id":"ce4bh3h2rcd13ifvqdo0","pricing_plan_id":"cebpf4jnsgd1na2vs0mg"},{"bike_id":"a7390627-8b6c-4149-9d20-d0ff687565c1","system_id":"levelo_inurba_marseille","lat":43.29439,"lon":5.397455,"is_reserved":false,"is_disabled":false,"rental_uris":{"android":"levelo://app?vid=a7390627-8b6c-4149-9d20-d0ff687565c1","ios":"levelo://app?vid=a7390627-8b6c-4149-9d20-d0ff687565c1"},"vehicle_type_id":"4","last_reported":1721063256,"current_range_meters":0,"station_id":"ce4bh3h2rcd13ifvqdo0","pricing_plan_id":"cebpf4jnsgd1na2vs0mg"},{"bike_id":"e0800873-4bfb-4340-ac77-6b33c9302665","system_id":"levelo_inurba_marseille","lat":43.294461,"lon":5.397602,"is_reserved":false,"is_disabled":false,"rental_uris":{"android":"levelo://app?vid=e0800873-4bfb-4340-ac77-6b33c9302665","ios":"levelo://app?vid=e0800873-4bfb-4340-ac77-6b33c9302665"},"vehicle_type_id":"4","last_reported":1721063256,"current_range_meters":0,"station_id":"ce4bh3h2rcd13ifvqdo0","pricing_plan_id":"cebpf4jnsgd1na2vs0mg"},{"bike_id":"e0d222a8-51e0-40d7-b822-dd9484bd1aa2","system_id":"levelo_inurba_marseille","lat":43.28626,"lon":5.35113,"is_reserved":false,"is_disabled":false,"rental_uris":{"android":"levelo://app?vid=e0d222a8-51e0-40d7-b822-dd9484bd1aa2","ios":"levelo://app?vid=e0d222a8-51e0-40d7-b822-dd9484bd1aa2"},"vehicle_type_id":"4","last_reported":1721063256,"current_range_meters":0,"station_id":"ce4bhch2rcd13ifvqeug","pricing_plan_id":"cebpf4jnsgd1na2vs0mg"},{"bike_id":"fd96b9fc-11af-4188-b95a-f1b0cc673881","system_id":"levelo_inurba_marseille","lat":43.285856,"lon":5.350771,"is_reserved":false,"is_disabled":false,"rental_uris":{"android":"levelo://app?vid=fd96b9fc-11af-4188-b95a-f1b0cc673881","ios":"levelo://app?vid=fd96b9fc-11af-4188-b95a-f1b0cc673881"},"vehicle_type_id":"4","last_reported":1721063256,"current_range_meters":12000,"station_id":"ce4bhch2rcd13ifvqeug","pricing_plan_id":"cebpf4jnsgd1na2vs0mg"},{"bike_id":"a763543c-049a-48f6-805a-cb103fc1556b","system_id":"levelo_inurba_marseille","lat":43.28621,"lon":5.35109,"is_reserved":false,"is_disabled":false,"rental_uris":{"android":"levelo://app?vid=a763543c-049a-48f6-805a-cb103fc1556b","ios":"levelo://app?vid=a763543c-049a-48f6-805a-cb103fc1556b"},"vehicle_type_id":"4","last_reported":1721063256,"current_range_meters":5600,"station_id":"ce4bhch2rcd13ifvqeug","pricing_plan_id":"cebpf4jnsgd1na2vs0mg"},{"bike_id":"47cc5f95-9916-4f95-a2d2-ff4082472ddf","system_id":"levelo_inurba_marseille","lat":43.28621,"lon":5.35104,"is_reserved":false,"is_disabled":false,"rental_uris":{"android":"levelo://app?vid=47cc5f95-9916-4f95-a2d2-ff4082472ddf","ios":"levelo://app?vid=47cc5f95-9916-4f95-a2d2-ff4082472ddf"},"vehicle_type_id":"4","last_reported":1721063256,"current_range_meters":31600,"station_id":"ce4bhch2rcd13ifvqeug","pricing_plan_id":"cebpf4jnsgd1na2vs0mg"},{"bike_id":"afffb2f7-f79b-4aa8-a686-20d958362d44","system_id":"levelo_inurba_marseille","lat":43.285856,"lon":5.350771,"is_reserved":false,"is_disabled":false,"rental_uris":{"android":"levelo://app?vid=afffb2f7-f79b-4aa8-a686-20d958362d44","ios":"levelo://app?vid=afffb2f7-f79b-4aa8-a686-20d958362d44"},"vehicle_type_id":"4","last_reported":1721063256,"current_range_meters":14800,"station_id":"ce4bhch2rcd13ifvqeug","pricing_plan_id":"cebpf4jnsgd1na2vs0mg"},{"bike_id":"7985df56-419a-4cbc-a6f4-6d03983507d1","system_id":"levelo_inurba_marseille","lat":43.28618,"lon":5.35106,"is_reserved":false,"is_disabled":false,"rental_uris":{"android":"levelo://app?vid=7985df56-419a-4cbc-a6f4-6d03983507d1","ios":"levelo://app?vid=7985df56-419a-4cbc-a6f4-6d03983507d1"},"vehicle_type_id":"4","last_reported":1721063256,"current_range_meters":2400,"station_id":"ce4bhch2rcd13ifvqeug","pricing_plan_id":"cebpf4jnsgd1na2vs0mg"},{"bike_id":"a3c97f93-99cb-49d3-9e3c-219e6bab08cc","system_id":"levelo_inurba_marseille","lat":43.28615,"lon":5.35111,"is_reserved":false,"is_disabled":false,"rental_uris":{"android":"levelo://app?vid=a3c97f93-99cb-49d3-9e3c-219e6bab08cc","ios":"levelo://app?vid=a3c97f93-99cb-49d3-9e3c-219e6bab08cc"},"vehicle_type_id":"4","last_reported":1721063256,"current_range_meters":26000,"station_id":"ce4bhch2rcd13ifvqeug","pricing_plan_id":"cebpf4jnsgd1na2vs0mg"},{"bike_id":"dd2c0e9e-e06a-43c4-bd45-ecbdf8ee0005","system_id":"levelo_inurba_marseille","lat":43.28617,"lon":5.35104,"is_reserved":false,"is_disabled":false,"rental_uris":{"android":"levelo://app?vid=dd2c0e9e-e06a-43c4-bd45-ecbdf8ee0005","ios":"levelo://app?vid=dd2c0e9e-e06a-43c4-bd45-ecbdf8ee0005"},"vehicle_type_id":"4","last_reported":1721063256,"current_range_meters":30400,"station_id":"ce4bhch2rcd13ifvqeug","pricing_plan_id":"cebpf4jnsgd1na2vs0mg"},{"bike_id":"f9de53b5-9a07-4b36-a504-b6071289e26f","system_id":"levelo_inurba_marseille","lat":43.285856,"lon":5.350771,"is_reserved":false,"is_disabled":false,"rental_uris":{"android":"levelo://app?vid=f9de53b5-9a07-4b36-a504-b6071289e26f","ios":"levelo://app?vid=f9de53b5-9a07-4b36-a504-b6071289e26f"},"vehicle_type_id":"4","last_reported":1721063256,"current_range_meters":22000,"station_id":"ce4bhch2rcd13ifvqeug","pricing_plan_id":"cebpf4jnsgd1na2vs0mg"},{"bike_id":"cbc2d7ff-32f4-4aac-b604-1eec8f67b962","system_id":"levelo_inurba_marseille","lat":43.28616,"lon":5.35104,"is_reserved":false,"is_disabled":false,"rental_uris":{"android":"levelo://app?vid=cbc2d7ff-32f4-4aac-b604-1eec8f67b962","ios":"levelo://app?vid=cbc2d7ff-32f4-4aac-b604-1eec8f67b962"},"vehicle_type_id":"4","last_reported":1721063256,"current_range_meters":30800,"station_id":"ce4bhch2rcd13ifvqeug","pricing_plan_id":"cebpf4jnsgd1na2vs0mg"},{"bike_id":"804b5bb2-7290-4ca6-b887-7a58fbf4d5ff","system_id":"levelo_inurba_marseille","lat":43.28617,"lon":5.351,"is_reserved":false,"is_disabled":false,"rental_uris":{"android":"levelo://app?vid=804b5bb2-7290-4ca6-b887-7a58fbf4d5ff","ios":"levelo://app?vid=804b5bb2-7290-4ca6-b887-7a58fbf4d5ff"},"vehicle_type_id":"4","last_reported":1721063256,"current_range_meters":31200,"station_id":"ce4bhch2rcd13ifvqeug","pricing_plan_id":"cebpf4jnsgd1na2vs0mg"},{"bike_id":"8738a8c7-be08-420c-b14a-4db6d4bc699f","system_id":"levelo_inurba_marseille","lat":43.28616,"lon":5.35103,"is_reserved":false,"is_disabled":false,"rental_uris":{"android":"levelo://app?vid=8738a8c7-be08-420c-b14a-4db6d4bc699f","ios":"levelo://app?vid=8738a8c7-be08-420c-b14a-4db6d4bc699f"},"vehicle_type_id":"4","last_reported":1721063256,"current_range_meters":31200,"station_id":"ce4bhch2rcd13ifvqeug","pricing_plan_id":"cebpf4jnsgd1na2vs0mg"},{"bike_id":"d1eab666-e9e6-4e59-b5b2-347b5162553e","system_id":"levelo_inurba_marseille","lat":43.28613,"lon":5.35103,"is_reserved":false,"is_disabled":false,"rental_uris":{"android":"levelo://app?vid=d1eab666-e9e6-4e59-b5b2-347b5162553e","ios":"levelo://app?vid=d1eab666-e9e6-4e59-b5b2-347b5162553e"},"vehicle_type_id":"4","last_reported":1721063256,"current_range_meters":21600,"station_id":"ce4bhch2rcd13ifvqeug","pricing_plan_id":"cebpf4jnsgd1na2vs0mg"},{"bike_id":"710c17d5-7226-4c9d-acc1-5e435b765495","system_id":"levelo_inurba_marseille","lat":43.28613,"lon":5.35103,"is_reserved":false,"is_disabled":false,"rental_uris":{"android":"levelo://app?vid=710c17d5-7226-4c9d-acc1-5e435b765495","ios":"levelo://app?vid=710c17d5-7226-4c9d-acc1-5e435b765495"},"vehicle_type_id":"4","last_reported":1721063256,"current_range_meters":8000,"station_id":"ce4bhch2rcd13ifvqeug","pricing_plan_id":"cebpf4jnsgd1na2vs0mg"},{"bike_id":"f0052a65-ed1e-4a27-b6f7-c0ab00c60227","system_id":"levelo_inurba_marseille","lat":43.28613,"lon":5.35099,"is_reserved":false,"is_disabled":false,"rental_uris":{"android":"levelo://app?vid=f0052a65-ed1e-4a27-b6f7-c0ab00c60227","ios":"levelo://app?vid=f0052a65-ed1e-4a27-b6f7-c0ab00c60227"},"vehicle_type_id":"4","last_reported":1721063256,"current_range_meters":13600,"station_id":"ce4bhch2rcd13ifvqeug","pricing_plan_id":"cebpf4jnsgd1na2vs0mg"},{"bike_id":"2f1c6682-6219-4829-b78a-cda424a7c5fe","system_id":"levelo_inurba_marseille","lat":43.28611,"lon":5.35098,"is_reserved":false,"is_disabled":false,"rental_uris":{"android":"levelo://app?vid=2f1c6682-6219-4829-b78a-cda424a7c5fe","ios":"levelo://app?vid=2f1c6682-6219-4829-b78a-cda424a7c5fe"},"vehicle_type_id":"4","last_reported":1721063256,"current_range_meters":24400,"station_id":"ce4bhch2rcd13ifvqeug","pricing_plan_id":"cebpf4jnsgd1na2vs0mg"},{"bike_id":"0d073cde-d8af-4c23-8ef3-f8ffeca4450c","system_id":"levelo_inurba_marseille","lat":43.286091,"lon":5.350962,"is_reserved":false,"is_disabled":false,"rental_uris":{"android":"levelo://app?vid=0d073cde-d8af-4c23-8ef3-f8ffeca4450c","ios":"levelo://app?vid=0d073cde-d8af-4c23-8ef3-f8ffeca4450c"},"vehicle_type_id":"4","last_reported":1721063256,"current_range_meters":31200,"station_id":"ce4bhch2rcd13ifvqeug","pricing_plan_id":"cebpf4jnsgd1na2vs0mg"},{"bike_id":"5e8001aa-d847-4cbd-ae9b-3ef5e4e040ae","system_id":"levelo_inurba_marseille","lat":43.28425,"lon":5.37525,"is_reserved":false,"is_disabled":false,"rental_uris":{"android":"levelo://app?vid=5e8001aa-d847-4cbd-ae9b-3ef5e4e040ae","ios":"levelo://app?vid=5e8001aa-d847-4cbd-ae9b-3ef5e4e040ae"},"vehicle_type_id":"4","last_reported":1721063256,"current_range_meters":22800,"station_id":"ce4bh412rcd13ifvqds0","pricing_plan_id":"cebpf4jnsgd1na2vs0mg"},{"bike_id":"e0dac6d9-f181-4bda-8430-c58acda6f3e5","system_id":"levelo_inurba_marseille","lat":43.285856,"lon":5.350771,"is_reserved":false,"is_disabled":false,"rental_uris":{"android":"levelo://app?vid=e0dac6d9-f181-4bda-8430-c58acda6f3e5","ios":"levelo://app?vid=e0dac6d9-f181-4bda-8430-c58acda6f3e5"},"vehicle_type_id":"4","last_reported":1721063256,"current_range_meters":0,"station_id":"ce4bhch2rcd13ifvqeug","pricing_plan_id":"cebpf4jnsgd1na2vs0mg"},{"bike_id":"606dbe91-6e03-4497-9465-c299a4641750","system_id":"levelo_inurba_marseille","lat":43.283998,"lon":5.375062,"is_reserved":false,"is_disabled":false,"rental_uris":{"android":"levelo://app?vid=606dbe91-6e03-4497-9465-c299a4641750","ios":"levelo://app?vid=606dbe91-6e03-4497-9465-c299a4641750"},"vehicle_type_id":"4","last_reported":1721063256,"current_range_meters":0,"station_id":"ce4bh412rcd13ifvqds0","pricing_plan_id":"cebpf4jnsgd1na2vs0mg"},{"bike_id":"2b84df4b-e7ae-4387-a9b9-07e7d323c71b","system_id":"levelo_inurba_marseille","lat":43.283498,"lon":5.380948,"is_reserved":false,"is_disabled":false,"rental_uris":{"android":"levelo://app?vid=2b84df4b-e7ae-4387-a9b9-07e7d323c71b","ios":"levelo://app?vid=2b84df4b-e7ae-4387-a9b9-07e7d323c71b"},"vehicle_type_id":"4","last_reported":1721063256,"current_range_meters":16000,"station_id":"ce4bh412rcd13ifvqdr0","pricing_plan_id":"cebpf4jnsgd1na2vs0mg"},{"bike_id":"b12da940-5187-4469-baa0-71c6204b59f8","system_id":"levelo_inurba_marseille","lat":43.33717,"lon":5.391857,"is_reserved":false,"is_disabled":false,"rental_uris":{"android":"levelo://app?vid=b12da940-5187-4469-baa0-71c6204b59f8","ios":"levelo://app?vid=b12da940-5187-4469-baa0-71c6204b59f8"},"vehicle_type_id":"4","last_reported":1721063256,"current_range_meters":16400,"station_id":"ce4bhr92rcd13ifvqhsg","pricing_plan_id":"cebpf4jnsgd1na2vs0mg"},{"bike_id":"85a6c07f-247b-42a0-ba8c-2a5cf6452bce","system_id":"levelo_inurba_marseille","lat":43.337168,"lon":5.391825,"is_reserved":false,"is_disabled":false,"rental_uris":{"android":"levelo://app?vid=85a6c07f-247b-42a0-ba8c-2a5cf6452bce","ios":"levelo://app?vid=85a6c07f-247b-42a0-ba8c-2a5cf6452bce"},"vehicle_type_id":"4","last_reported":1721063256,"current_range_meters":11200,"station_id":"ce4bhr92rcd13ifvqhsg","pricing_plan_id":"cebpf4jnsgd1na2vs0mg"},{"bike_id":"1073b922-a70a-4806-a718-388969fd5106","system_id":"levelo_inurba_marseille","lat":43.337168,"lon":5.391825,"is_reserved":false,"is_disabled":false,"rental_uris":{"android":"levelo://app?vid=1073b922-a70a-4806-a718-388969fd5106","ios":"levelo://app?vid=1073b922-a70a-4806-a718-388969fd5106"},"vehicle_type_id":"4","last_reported":1721063256,"current_range_meters":31200,"station_id":"ce4bhr92rcd13ifvqhsg","pricing_plan_id":"cebpf4jnsgd1na2vs0mg"},{"bike_id":"15e6fafc-31db-4e1b-9bc7-cf72ee2199b7","system_id":"levelo_inurba_marseille","lat":43.32335,"lon":5.40619,"is_reserved":false,"is_disabled":false,"rental_uris":{"android":"levelo://app?vid=15e6fafc-31db-4e1b-9bc7-cf72ee2199b7","ios":"levelo://app?vid=15e6fafc-31db-4e1b-9bc7-cf72ee2199b7"},"vehicle_type_id":"4","last_reported":1721063256,"current_range_meters":0,"station_id":"ce4bhq92rcd13ifvqhjg","pricing_plan_id":"cebpf4jnsgd1na2vs0mg"},{"bike_id":"33a18f26-76b5-49b0-bc1a-075a050a2c82","system_id":"levelo_inurba_marseille","lat":43.32342,"lon":5.40624,"is_reserved":false,"is_disabled":false,"rental_uris":{"android":"levelo://app?vid=33a18f26-76b5-49b0-bc1a-075a050a2c82","ios":"levelo://app?vid=33a18f26-76b5-49b0-bc1a-075a050a2c82"},"vehicle_type_id":"4","last_reported":1721063256,"current_range_meters":10800,"station_id":"ce4bhq92rcd13ifvqhjg","pricing_plan_id":"cebpf4jnsgd1na2vs0mg"},{"bike_id":"77836a1a-e868-4892-b879-462c541f1b9b","system_id":"levelo_inurba_marseille","lat":43.28474,"lon":5.38414,"is_reserved":false,"is_disabled":false,"rental_uris":{"android":"levelo://app?vid=77836a1a-e868-4892-b879-462c541f1b9b","ios":"levelo://app?vid=77836a1a-e868-4892-b879-462c541f1b9b"},"vehicle_type_id":"4","last_reported":1721063256,"current_range_meters":0,"station_id":"ce4bh512rcd13ifvqe3g","pricing_plan_id":"cebpf4jnsgd1na2vs0mg"},{"bike_id":"362830f3-a629-41fa-a2ed-1d8c580146ab","system_id":"levelo_inurba_marseille","lat":43.284725,"lon":5.384115,"is_reserved":false,"is_disabled":false,"rental_uris":{"android":"levelo://app?vid=362830f3-a629-41fa-a2ed-1d8c580146ab","ios":"levelo://app?vid=362830f3-a629-41fa-a2ed-1d8c580146ab"},"vehicle_type_id":"4","last_reported":1721063256,"current_range_meters":0,"station_id":"ce4bh512rcd13ifvqe3g","pricing_plan_id":"cebpf4jnsgd1na2vs0mg"},{"bike_id":"9efc5f27-a313-4e5e-ad4a-3685c011b46e","system_id":"levelo_inurba_marseille","lat":43.284793,"lon":5.384113,"is_reserved":false,"is_disabled":false,"rental_uris":{"android":"levelo://app?vid=9efc5f27-a313-4e5e-ad4a-3685c011b46e","ios":"levelo://app?vid=9efc5f27-a313-4e5e-ad4a-3685c011b46e"},"vehicle_type_id":"4","last_reported":1721063256,"current_range_meters":10800,"station_id":"ce4bh512rcd13ifvqe3g","pricing_plan_id":"cebpf4jnsgd1na2vs0mg"},{"bike_id":"21fc9863-0a32-4aba-9b4d-c0d730c9b4e8","system_id":"levelo_inurba_marseille","lat":43.297946,"lon":5.404063,"is_reserved":false,"is_disabled":false,"rental_uris":{"android":"levelo://app?vid=21fc9863-0a32-4aba-9b4d-c0d730c9b4e8","ios":"levelo://app?vid=21fc9863-0a32-4aba-9b4d-c0d730c9b4e8"},"vehicle_type_id":"4","last_reported":1721063256,"current_range_meters":0,"station_id":"ce4bh112rcd13ifvqd90","pricing_plan_id":"cebpf4jnsgd1na2vs0mg"},{"bike_id":"d23bbc33-0bc9-4f84-b181-66e236c96554","system_id":"levelo_inurba_marseille","lat":43.288497,"lon":5.393089,"is_reserved":false,"is_disabled":false,"rental_uris":{"android":"levelo://app?vid=d23bbc33-0bc9-4f84-b181-66e236c96554","ios":"levelo://app?vid=d23bbc33-0bc9-4f84-b181-66e236c96554"},"vehicle_type_id":"4","last_reported":1721063256,"current_range_meters":0,"station_id":"ce4bh2p2rcd13ifvqdi0","pricing_plan_id":"cebpf4jnsgd1na2vs0mg"},{"bike_id":"040bc72b-ad6c-4f1b-9d2e-8b5fb5084ead","system_id":"levelo_inurba_marseille","lat":43.283494,"lon":5.380945,"is_reserved":false,"is_disabled":false,"rental_uris":{"android":"levelo://app?vid=040bc72b-ad6c-4f1b-9d2e-8b5fb5084ead","ios":"levelo://app?vid=040bc72b-ad6c-4f1b-9d2e-8b5fb5084ead"},"vehicle_type_id":"4","last_reported":1721063256,"current_range_meters":4000,"station_id":"ce4bh412rcd13ifvqdr0","pricing_plan_id":"cebpf4jnsgd1na2vs0mg"},{"bike_id":"0a3f9dc9-b8ca-42b5-941b-e98c4eadd795","system_id":"levelo_inurba_marseille","lat":43.283494,"lon":5.380945,"is_reserved":false,"is_disabled":false,"rental_uris":{"android":"levelo://app?vid=0a3f9dc9-b8ca-42b5-941b-e98c4eadd795","ios":"levelo://app?vid=0a3f9dc9-b8ca-42b5-941b-e98c4eadd795"},"vehicle_type_id":"4","last_reported":1721063256,"current_range_meters":21200,"station_id":"ce4bh412rcd13ifvqdr0","pricing_plan_id":"cebpf4jnsgd1na2vs0mg"},{"bike_id":"94fa4988-6b7f-473b-a5bd-39150079b493","system_id":"levelo_inurba_marseille","lat":43.28481,"lon":5.3854,"is_reserved":false,"is_disabled":false,"rental_uris":{"android":"levelo://app?vid=94fa4988-6b7f-473b-a5bd-39150079b493","ios":"levelo://app?vid=94fa4988-6b7f-473b-a5bd-39150079b493"},"vehicle_type_id":"4","last_reported":1721063256,"current_range_meters":0,"station_id":"ce4bh8p2rcd13ifvqeb0","pricing_plan_id":"cebpf4jnsgd1na2vs0mg"},{"bike_id":"c5c9ded3-3737-4680-821e-dc6b5c6d443d","system_id":"levelo_inurba_marseille","lat":43.284219,"lon":5.3497,"is_reserved":false,"is_disabled":false,"rental_uris":{"android":"levelo://app?vid=c5c9ded3-3737-4680-821e-dc6b5c6d443d","ios":"levelo://app?vid=c5c9ded3-3737-4680-821e-dc6b5c6d443d"},"vehicle_type_id":"4","last_reported":1721063256,"current_range_meters":15600,"station_id":"ce4bhbh2rcd13ifvqepg","pricing_plan_id":"cebpf4jnsgd1na2vs0mg"},{"bike_id":"8ccf3a0d-a1b4-4505-b4d6-fe7864892e2b","system_id":"levelo_inurba_marseille","lat":43.284219,"lon":5.3497,"is_reserved":false,"is_disabled":false,"rental_uris":{"android":"levelo://app?vid=8ccf3a0d-a1b4-4505-b4d6-fe7864892e2b","ios":"levelo://app?vid=8ccf3a0d-a1b4-4505-b4d6-fe7864892e2b"},"vehicle_type_id":"4","last_reported":1721063256,"current_range_meters":23600,"station_id":"ce4bhbh2rcd13ifvqepg","pricing_plan_id":"cebpf4jnsgd1na2vs0mg"},{"bike_id":"b05ce9a4-2f57-437f-97d5-baf91d285340","system_id":"levelo_inurba_marseille","lat":43.284219,"lon":5.3497,"is_reserved":false,"is_disabled":false,"rental_uris":{"android":"levelo://app?vid=b05ce9a4-2f57-437f-97d5-baf91d285340","ios":"levelo://app?vid=b05ce9a4-2f57-437f-97d5-baf91d285340"},"vehicle_type_id":"4","last_reported":1721063256,"current_range_meters":31200,"station_id":"ce4bhbh2rcd13ifvqepg","pricing_plan_id":"cebpf4jnsgd1na2vs0mg"},{"bike_id":"fbd9c991-9aa5-4b86-b36c-9793ed0fb62f","system_id":"levelo_inurba_marseille","lat":43.284219,"lon":5.3497,"is_reserved":false,"is_disabled":false,"rental_uris":{"android":"levelo://app?vid=fbd9c991-9aa5-4b86-b36c-9793ed0fb62f","ios":"levelo://app?vid=fbd9c991-9aa5-4b86-b36c-9793ed0fb62f"},"vehicle_type_id":"4","last_reported":1721063256,"current_range_meters":19600,"station_id":"ce4bhbh2rcd13ifvqepg","pricing_plan_id":"cebpf4jnsgd1na2vs0mg"},{"bike_id":"db280e60-0d1b-46e6-aecc-dde0a3545237","system_id":"levelo_inurba_marseille","lat":43.28425,"lon":5.34984,"is_reserved":false,"is_disabled":false,"rental_uris":{"android":"levelo://app?vid=db280e60-0d1b-46e6-aecc-dde0a3545237","ios":"levelo://app?vid=db280e60-0d1b-46e6-aecc-dde0a3545237"},"vehicle_type_id":"4","last_reported":1721063256,"current_range_meters":22400,"station_id":"ce4bhbh2rcd13ifvqepg","pricing_plan_id":"cebpf4jnsgd1na2vs0mg"},{"bike_id":"6a6be0c6-d483-4acd-919f-74312f66d931","system_id":"levelo_inurba_marseille","lat":43.284214,"lon":5.349706,"is_reserved":false,"is_disabled":false,"rental_uris":{"android":"levelo://app?vid=6a6be0c6-d483-4acd-919f-74312f66d931","ios":"levelo://app?vid=6a6be0c6-d483-4acd-919f-74312f66d931"},"vehicle_type_id":"4","last_reported":1721063256,"current_range_meters":4000,"station_id":"ce4bhbh2rcd13ifvqepg","pricing_plan_id":"cebpf4jnsgd1na2vs0mg"},{"bike_id":"ca7b1b14-456e-4005-95b4-44d9e223a62b","system_id":"levelo_inurba_marseille","lat":43.284219,"lon":5.3497,"is_reserved":false,"is_disabled":false,"rental_uris":{"android":"levelo://app?vid=ca7b1b14-456e-4005-95b4-44d9e223a62b","ios":"levelo://app?vid=ca7b1b14-456e-4005-95b4-44d9e223a62b"},"vehicle_type_id":"4","last_reported":1721063256,"current_range_meters":15200,"station_id":"ce4bhbh2rcd13ifvqepg","pricing_plan_id":"cebpf4jnsgd1na2vs0mg"},{"bike_id":"8c0676ad-26f5-4f6f-99b8-910543a3800a","system_id":"levelo_inurba_marseille","lat":43.284225,"lon":5.349871,"is_reserved":false,"is_disabled":false,"rental_uris":{"android":"levelo://app?vid=8c0676ad-26f5-4f6f-99b8-910543a3800a","ios":"levelo://app?vid=8c0676ad-26f5-4f6f-99b8-910543a3800a"},"vehicle_type_id":"4","last_reported":1721063256,"current_range_meters":11600,"station_id":"ce4bhbh2rcd13ifvqepg","pricing_plan_id":"cebpf4jnsgd1na2vs0mg"},{"bike_id":"88547130-358e-4ace-ac03-ea2929dcd94d","system_id":"levelo_inurba_marseille","lat":43.284219,"lon":5.3497,"is_reserved":false,"is_disabled":false,"rental_uris":{"android":"levelo://app?vid=88547130-358e-4ace-ac03-ea2929dcd94d","ios":"levelo://app?vid=88547130-358e-4ace-ac03-ea2929dcd94d"},"vehicle_type_id":"4","last_reported":1721063256,"current_range_meters":7200,"station_id":"ce4bhbh2rcd13ifvqepg","pricing_plan_id":"cebpf4jnsgd1na2vs0mg"},{"bike_id":"c149177b-3e72-4438-a0a8-404c4eee8a17","system_id":"levelo_inurba_marseille","lat":43.284217,"lon":5.349697,"is_reserved":false,"is_disabled":false,"rental_uris":{"android":"levelo://app?vid=c149177b-3e72-4438-a0a8-404c4eee8a17","ios":"levelo://app?vid=c149177b-3e72-4438-a0a8-404c4eee8a17"},"vehicle_type_id":"4","last_reported":1721063256,"current_range_meters":18400,"station_id":"ce4bhbh2rcd13ifvqepg","pricing_plan_id":"cebpf4jnsgd1na2vs0mg"},{"bike_id":"c5a13694-8810-460e-87a1-528645945447","system_id":"levelo_inurba_marseille","lat":43.28425,"lon":5.34975,"is_reserved":false,"is_disabled":false,"rental_uris":{"android":"levelo://app?vid=c5a13694-8810-460e-87a1-528645945447","ios":"levelo://app?vid=c5a13694-8810-460e-87a1-528645945447"},"vehicle_type_id":"4","last_reported":1721063256,"current_range_meters":31200,"station_id":"ce4bhbh2rcd13ifvqepg","pricing_plan_id":"cebpf4jnsgd1na2vs0mg"},{"bike_id":"1d83582b-d5af-478e-86d3-14ecfda3e8c5","system_id":"levelo_inurba_marseille","lat":43.28424,"lon":5.34977,"is_reserved":false,"is_disabled":false,"rental_uris":{"android":"levelo://app?vid=1d83582b-d5af-478e-86d3-14ecfda3e8c5","ios":"levelo://app?vid=1d83582b-d5af-478e-86d3-14ecfda3e8c5"},"vehicle_type_id":"4","last_reported":1721063256,"current_range_meters":19200,"station_id":"ce4bhbh2rcd13ifvqepg","pricing_plan_id":"cebpf4jnsgd1na2vs0mg"},{"bike_id":"aae7256e-0672-475c-a324-62656e32676a","system_id":"levelo_inurba_marseille","lat":43.28423,"lon":5.3498,"is_reserved":false,"is_disabled":false,"rental_uris":{"android":"levelo://app?vid=aae7256e-0672-475c-a324-62656e32676a","ios":"levelo://app?vid=aae7256e-0672-475c-a324-62656e32676a"},"vehicle_type_id":"4","last_reported":1721063256,"current_range_meters":2000,"station_id":"ce4bhbh2rcd13ifvqepg","pricing_plan_id":"cebpf4jnsgd1na2vs0mg"},{"bike_id":"8794c528-c6b0-4c8a-a08b-6df70fb9a21f","system_id":"levelo_inurba_marseille","lat":43.284219,"lon":5.3497,"is_reserved":false,"is_disabled":false,"rental_uris":{"android":"levelo://app?vid=8794c528-c6b0-4c8a-a08b-6df70fb9a21f","ios":"levelo://app?vid=8794c528-c6b0-4c8a-a08b-6df70fb9a21f"},"vehicle_type_id":"4","last_reported":1721063256,"current_range_meters":27600,"station_id":"ce4bhbh2rcd13ifvqepg","pricing_plan_id":"cebpf4jnsgd1na2vs0mg"},{"bike_id":"3c616bd4-553a-4451-b116-8562784c6812","system_id":"levelo_inurba_marseille","lat":43.2842,"lon":5.34986,"is_reserved":false,"is_disabled":false,"rental_uris":{"android":"levelo://app?vid=3c616bd4-553a-4451-b116-8562784c6812","ios":"levelo://app?vid=3c616bd4-553a-4451-b116-8562784c6812"},"vehicle_type_id":"4","last_reported":1721063256,"current_range_meters":31200,"station_id":"ce4bhbh2rcd13ifvqepg","pricing_plan_id":"cebpf4jnsgd1na2vs0mg"},{"bike_id":"56faedee-9f0c-408e-a181-da13b1525025","system_id":"levelo_inurba_marseille","lat":43.28418,"lon":5.3499,"is_reserved":false,"is_disabled":false,"rental_uris":{"android":"levelo://app?vid=56faedee-9f0c-408e-a181-da13b1525025","ios":"levelo://app?vid=56faedee-9f0c-408e-a181-da13b1525025"},"vehicle_type_id":"4","last_reported":1721063256,"current_range_meters":31200,"station_id":"ce4bhbh2rcd13ifvqepg","pricing_plan_id":"cebpf4jnsgd1na2vs0mg"},{"bike_id":"1106481f-0f9e-4688-bfcc-d2e5132a289a","system_id":"levelo_inurba_marseille","lat":43.28422,"lon":5.34977,"is_reserved":false,"is_disabled":false,"rental_uris":{"android":"levelo://app?vid=1106481f-0f9e-4688-bfcc-d2e5132a289a","ios":"levelo://app?vid=1106481f-0f9e-4688-bfcc-d2e5132a289a"},"vehicle_type_id":"4","last_reported":1721063256,"current_range_meters":23600,"station_id":"ce4bhbh2rcd13ifvqepg","pricing_plan_id":"cebpf4jnsgd1na2vs0mg"},{"bike_id":"6a471b94-d8fe-4c44-bc0f-ef6512922ad2","system_id":"levelo_inurba_marseille","lat":43.284219,"lon":5.3497,"is_reserved":false,"is_disabled":false,"rental_uris":{"android":"levelo://app?vid=6a471b94-d8fe-4c44-bc0f-ef6512922ad2","ios":"levelo://app?vid=6a471b94-d8fe-4c44-bc0f-ef6512922ad2"},"vehicle_type_id":"4","last_reported":1721063256,"current_range_meters":800,"station_id":"ce4bhbh2rcd13ifvqepg","pricing_plan_id":"cebpf4jnsgd1na2vs0mg"},{"bike_id":"8b1ce9ed-297e-402b-a693-101f4f59ebfe","system_id":"levelo_inurba_marseille","lat":43.284214,"lon":5.349706,"is_reserved":false,"is_disabled":false,"rental_uris":{"android":"levelo://app?vid=8b1ce9ed-297e-402b-a693-101f4f59ebfe","ios":"levelo://app?vid=8b1ce9ed-297e-402b-a693-101f4f59ebfe"},"vehicle_type_id":"4","last_reported":1721063256,"current_range_meters":30800,"station_id":"ce4bhbh2rcd13ifvqepg","pricing_plan_id":"cebpf4jnsgd1na2vs0mg"},{"bike_id":"9b8823d3-879a-44f8-9ec1-1629f425af3d","system_id":"levelo_inurba_marseille","lat":43.284219,"lon":5.3497,"is_reserved":false,"is_disabled":false,"rental_uris":{"android":"levelo://app?vid=9b8823d3-879a-44f8-9ec1-1629f425af3d","ios":"levelo://app?vid=9b8823d3-879a-44f8-9ec1-1629f425af3d"},"vehicle_type_id":"4","last_reported":1721063256,"current_range_meters":16400,"station_id":"ce4bhbh2rcd13ifvqepg","pricing_plan_id":"cebpf4jnsgd1na2vs0mg"},{"bike_id":"cbc0d9e9-716e-4605-828e-b8e0f34eec8c","system_id":"levelo_inurba_marseille","lat":43.284217,"lon":5.349697,"is_reserved":false,"is_disabled":false,"rental_uris":{"android":"levelo://app?vid=cbc0d9e9-716e-4605-828e-b8e0f34eec8c","ios":"levelo://app?vid=cbc0d9e9-716e-4605-828e-b8e0f34eec8c"},"vehicle_type_id":"4","last_reported":1721063256,"current_range_meters":32000,"station_id":"ce4bhbh2rcd13ifvqepg","pricing_plan_id":"cebpf4jnsgd1na2vs0mg"},{"bike_id":"099f5e43-9d9f-4249-a5e9-c3194eacb85e","system_id":"levelo_inurba_marseille","lat":43.284153,"lon":5.349936,"is_reserved":false,"is_disabled":false,"rental_uris":{"android":"levelo://app?vid=099f5e43-9d9f-4249-a5e9-c3194eacb85e","ios":"levelo://app?vid=099f5e43-9d9f-4249-a5e9-c3194eacb85e"},"vehicle_type_id":"4","last_reported":1721063256,"current_range_meters":28000,"station_id":"ce4bhbh2rcd13ifvqepg","pricing_plan_id":"cebpf4jnsgd1na2vs0mg"},{"bike_id":"3de296a2-cebc-4926-b442-785e7a9b94c1","system_id":"levelo_inurba_marseille","lat":43.284214,"lon":5.349706,"is_reserved":false,"is_disabled":false,"rental_uris":{"android":"levelo://app?vid=3de296a2-cebc-4926-b442-785e7a9b94c1","ios":"levelo://app?vid=3de296a2-cebc-4926-b442-785e7a9b94c1"},"vehicle_type_id":"4","last_reported":1721063256,"current_range_meters":12000,"station_id":"ce4bhbh2rcd13ifvqepg","pricing_plan_id":"cebpf4jnsgd1na2vs0mg"},{"bike_id":"18944bd6-b470-47c2-aa4d-87b67441366e","system_id":"levelo_inurba_marseille","lat":43.284217,"lon":5.349697,"is_reserved":false,"is_disabled":false,"rental_uris":{"android":"levelo://app?vid=18944bd6-b470-47c2-aa4d-87b67441366e","ios":"levelo://app?vid=18944bd6-b470-47c2-aa4d-87b67441366e"},"vehicle_type_id":"4","last_reported":1721063256,"current_range_meters":10000,"station_id":"ce4bhbh2rcd13ifvqepg","pricing_plan_id":"cebpf4jnsgd1na2vs0mg"},{"bike_id":"10b144d0-c697-42ed-bb2b-5ff07c70bdb4","system_id":"levelo_inurba_marseille","lat":43.28416,"lon":5.34984,"is_reserved":false,"is_disabled":false,"rental_uris":{"android":"levelo://app?vid=10b144d0-c697-42ed-bb2b-5ff07c70bdb4","ios":"levelo://app?vid=10b144d0-c697-42ed-bb2b-5ff07c70bdb4"},"vehicle_type_id":"4","last_reported":1721063256,"current_range_meters":23200,"station_id":"ce4bhbh2rcd13ifvqepg","pricing_plan_id":"cebpf4jnsgd1na2vs0mg"},{"bike_id":"9dc2901a-db80-4868-93de-cb158634d51b","system_id":"levelo_inurba_marseille","lat":43.284217,"lon":5.349697,"is_reserved":false,"is_disabled":false,"rental_uris":{"android":"levelo://app?vid=9dc2901a-db80-4868-93de-cb158634d51b","ios":"levelo://app?vid=9dc2901a-db80-4868-93de-cb158634d51b"},"vehicle_type_id":"4","last_reported":1721063256,"current_range_meters":32000,"station_id":"ce4bhbh2rcd13ifvqepg","pricing_plan_id":"cebpf4jnsgd1na2vs0mg"},{"bike_id":"79363dc5-5b65-47e7-afe1-3b37da508cd2","system_id":"levelo_inurba_marseille","lat":43.284167,"lon":5.349803,"is_reserved":false,"is_disabled":false,"rental_uris":{"android":"levelo://app?vid=79363dc5-5b65-47e7-afe1-3b37da508cd2","ios":"levelo://app?vid=79363dc5-5b65-47e7-afe1-3b37da508cd2"},"vehicle_type_id":"4","last_reported":1721063256,"current_range_meters":30400,"station_id":"ce4bhbh2rcd13ifvqepg","pricing_plan_id":"cebpf4jnsgd1na2vs0mg"},{"bike_id":"ba13aca3-837d-49df-a051-ed662a937bd0","system_id":"levelo_inurba_marseille","lat":43.284217,"lon":5.349697,"is_reserved":false,"is_disabled":false,"rental_uris":{"android":"levelo://app?vid=ba13aca3-837d-49df-a051-ed662a937bd0","ios":"levelo://app?vid=ba13aca3-837d-49df-a051-ed662a937bd0"},"vehicle_type_id":"4","last_reported":1721063256,"current_range_meters":23200,"station_id":"ce4bhbh2rcd13ifvqepg","pricing_plan_id":"cebpf4jnsgd1na2vs0mg"},{"bike_id":"29a271c2-a5c6-4d52-b7f6-6a88fa8a3047","system_id":"levelo_inurba_marseille","lat":43.28413,"lon":5.34988,"is_reserved":false,"is_disabled":false,"rental_uris":{"android":"levelo://app?vid=29a271c2-a5c6-4d52-b7f6-6a88fa8a3047","ios":"levelo://app?vid=29a271c2-a5c6-4d52-b7f6-6a88fa8a3047"},"vehicle_type_id":"4","last_reported":1721063256,"current_range_meters":0,"station_id":"ce4bhbh2rcd13ifvqepg","pricing_plan_id":"cebpf4jnsgd1na2vs0mg"},{"bike_id":"09009c69-ea76-413d-bd1f-b2079fcd9ec1","system_id":"levelo_inurba_marseille","lat":43.284123,"lon":5.349857,"is_reserved":false,"is_disabled":false,"rental_uris":{"android":"levelo://app?vid=09009c69-ea76-413d-bd1f-b2079fcd9ec1","ios":"levelo://app?vid=09009c69-ea76-413d-bd1f-b2079fcd9ec1"},"vehicle_type_id":"4","last_reported":1721063256,"current_range_meters":18000,"station_id":"ce4bhbh2rcd13ifvqepg","pricing_plan_id":"cebpf4jnsgd1na2vs0mg"},{"bike_id":"f109387c-2b87-49f3-8941-478ec175bdce","system_id":"levelo_inurba_marseille","lat":43.284088,"lon":5.349892,"is_reserved":false,"is_disabled":false,"rental_uris":{"android":"levelo://app?vid=f109387c-2b87-49f3-8941-478ec175bdce","ios":"levelo://app?vid=f109387c-2b87-49f3-8941-478ec175bdce"},"vehicle_type_id":"4","last_reported":1721063256,"current_range_meters":17600,"station_id":"ce4bhbh2rcd13ifvqepg","pricing_plan_id":"cebpf4jnsgd1na2vs0mg"},{"bike_id":"caa8527e-d44a-4286-9677-4e8f662bc118","system_id":"levelo_inurba_marseille","lat":43.284217,"lon":5.349697,"is_reserved":false,"is_disabled":false,"rental_uris":{"android":"levelo://app?vid=caa8527e-d44a-4286-9677-4e8f662bc118","ios":"levelo://app?vid=caa8527e-d44a-4286-9677-4e8f662bc118"},"vehicle_type_id":"4","last_reported":1721063256,"current_range_meters":32000,"station_id":"ce4bhbh2rcd13ifvqepg","pricing_plan_id":"cebpf4jnsgd1na2vs0mg"},{"bike_id":"7b964e48-d41a-4c98-94d8-13fea4754671","system_id":"levelo_inurba_marseille","lat":43.28411,"lon":5.3498,"is_reserved":false,"is_disabled":false,"rental_uris":{"android":"levelo://app?vid=7b964e48-d41a-4c98-94d8-13fea4754671","ios":"levelo://app?vid=7b964e48-d41a-4c98-94d8-13fea4754671"},"vehicle_type_id":"4","last_reported":1721063256,"current_range_meters":30400,"station_id":"ce4bhbh2rcd13ifvqepg","pricing_plan_id":"cebpf4jnsgd1na2vs0mg"},{"bike_id":"185d4b43-154e-4330-9908-d8f85477c415","system_id":"levelo_inurba_marseille","lat":43.28412,"lon":5.349728,"is_reserved":false,"is_disabled":false,"rental_uris":{"android":"levelo://app?vid=185d4b43-154e-4330-9908-d8f85477c415","ios":"levelo://app?vid=185d4b43-154e-4330-9908-d8f85477c415"},"vehicle_type_id":"4","last_reported":1721063256,"current_range_meters":16000,"station_id":"ce4bhbh2rcd13ifvqepg","pricing_plan_id":"cebpf4jnsgd1na2vs0mg"},{"bike_id":"92c84486-ddb6-481b-a3d0-0c7b9772cc7f","system_id":"levelo_inurba_marseille","lat":43.283998,"lon":5.349941,"is_reserved":false,"is_disabled":false,"rental_uris":{"android":"levelo://app?vid=92c84486-ddb6-481b-a3d0-0c7b9772cc7f","ios":"levelo://app?vid=92c84486-ddb6-481b-a3d0-0c7b9772cc7f"},"vehicle_type_id":"4","last_reported":1721063256,"current_range_meters":21600,"station_id":"ce4bhbh2rcd13ifvqepg","pricing_plan_id":"cebpf4jnsgd1na2vs0mg"},{"bike_id":"a000da5c-bee3-42e0-b2a3-ec641ac6a2e3","system_id":"levelo_inurba_marseille","lat":43.292585,"lon":5.39987,"is_reserved":false,"is_disabled":false,"rental_uris":{"android":"levelo://app?vid=a000da5c-bee3-42e0-b2a3-ec641ac6a2e3","ios":"levelo://app?vid=a000da5c-bee3-42e0-b2a3-ec641ac6a2e3"},"vehicle_type_id":"4","last_reported":1721063256,"current_range_meters":11600,"station_id":"","pricing_plan_id":"cebpf4jnsgd1na2vs0mg"},{"bike_id":"660f86e8-70d7-4f8c-b041-05092432da11","system_id":"levelo_inurba_marseille","lat":43.284,"lon":5.34962,"is_reserved":false,"is_disabled":false,"rental_uris":{"android":"levelo://app?vid=660f86e8-70d7-4f8c-b041-05092432da11","ios":"levelo://app?vid=660f86e8-70d7-4f8c-b041-05092432da11"},"vehicle_type_id":"4","last_reported":1721063256,"current_range_meters":31200,"station_id":"ce4bhbh2rcd13ifvqepg","pricing_plan_id":"cebpf4jnsgd1na2vs0mg"},{"bike_id":"9f329902-5c90-4cb4-8388-33db21ae9d0f","system_id":"levelo_inurba_marseille","lat":43.289363,"lon":5.396322,"is_reserved":false,"is_disabled":false,"rental_uris":{"android":"levelo://app?vid=9f329902-5c90-4cb4-8388-33db21ae9d0f","ios":"levelo://app?vid=9f329902-5c90-4cb4-8388-33db21ae9d0f"},"vehicle_type_id":"4","last_reported":1721063256,"current_range_meters":13200,"station_id":"ce4bh3h2rcd13ifvqdn0","pricing_plan_id":"cebpf4jnsgd1na2vs0mg"},{"bike_id":"b6cf60d1-938a-46ce-a184-6d4b6e283d31","system_id":"levelo_inurba_marseille","lat":43.289363,"lon":5.396322,"is_reserved":false,"is_disabled":false,"rental_uris":{"android":"levelo://app?vid=b6cf60d1-938a-46ce-a184-6d4b6e283d31","ios":"levelo://app?vid=b6cf60d1-938a-46ce-a184-6d4b6e283d31"},"vehicle_type_id":"4","last_reported":1721063256,"current_range_meters":4800,"station_id":"ce4bh3h2rcd13ifvqdn0","pricing_plan_id":"cebpf4jnsgd1na2vs0mg"},{"bike_id":"4bc7d698-7d58-4d10-abde-9cb5d220997f","system_id":"levelo_inurba_marseille","lat":43.292724,"lon":5.401131,"is_reserved":false,"is_disabled":false,"rental_uris":{"android":"levelo://app?vid=4bc7d698-7d58-4d10-abde-9cb5d220997f","ios":"levelo://app?vid=4bc7d698-7d58-4d10-abde-9cb5d220997f"},"vehicle_type_id":"4","last_reported":1721063256,"current_range_meters":25600,"station_id":"ce4bh312rcd13ifvqdk0","pricing_plan_id":"cebpf4jnsgd1na2vs0mg"},{"bike_id":"205b0f13-e13d-40d1-a770-0c325e5158ea","system_id":"levelo_inurba_marseille","lat":43.28273,"lon":5.35067,"is_reserved":false,"is_disabled":false,"rental_uris":{"android":"levelo://app?vid=205b0f13-e13d-40d1-a770-0c325e5158ea","ios":"levelo://app?vid=205b0f13-e13d-40d1-a770-0c325e5158ea"},"vehicle_type_id":"4","last_reported":1721063256,"current_range_meters":9600,"station_id":"ce4bhbp2rcd13ifvqerg","pricing_plan_id":"cebpf4jnsgd1na2vs0mg"},{"bike_id":"b2ea1b57-8012-49f8-8d5f-1e4c50542a17","system_id":"levelo_inurba_marseille","lat":43.2827,"lon":5.35068,"is_reserved":false,"is_disabled":false,"rental_uris":{"android":"levelo://app?vid=b2ea1b57-8012-49f8-8d5f-1e4c50542a17","ios":"levelo://app?vid=b2ea1b57-8012-49f8-8d5f-1e4c50542a17"},"vehicle_type_id":"4","last_reported":1721063256,"current_range_meters":18800,"station_id":"ce4bhbp2rcd13ifvqerg","pricing_plan_id":"cebpf4jnsgd1na2vs0mg"},{"bike_id":"c50dac8c-09a7-4758-bdf6-c696b9ec4c8e","system_id":"levelo_inurba_marseille","lat":43.28271,"lon":5.35063,"is_reserved":false,"is_disabled":false,"rental_uris":{"android":"levelo://app?vid=c50dac8c-09a7-4758-bdf6-c696b9ec4c8e","ios":"levelo://app?vid=c50dac8c-09a7-4758-bdf6-c696b9ec4c8e"},"vehicle_type_id":"4","last_reported":1721063256,"current_range_meters":30800,"station_id":"ce4bhbp2rcd13ifvqerg","pricing_plan_id":"cebpf4jnsgd1na2vs0mg"},{"bike_id":"f3b3aa31-1391-4428-8d4e-32d32370a70d","system_id":"levelo_inurba_marseille","lat":43.28268,"lon":5.350665,"is_reserved":false,"is_disabled":false,"rental_uris":{"android":"levelo://app?vid=f3b3aa31-1391-4428-8d4e-32d32370a70d","ios":"levelo://app?vid=f3b3aa31-1391-4428-8d4e-32d32370a70d"},"vehicle_type_id":"4","last_reported":1721063256,"current_range_meters":31200,"station_id":"ce4bhbp2rcd13ifvqerg","pricing_plan_id":"cebpf4jnsgd1na2vs0mg"},{"bike_id":"5bc8b5cb-b401-4ed3-a8c9-4ef0b4a3cdb3","system_id":"levelo_inurba_marseille","lat":43.292644,"lon":5.384257,"is_reserved":false,"is_disabled":false,"rental_uris":{"android":"levelo://app?vid=5bc8b5cb-b401-4ed3-a8c9-4ef0b4a3cdb3","ios":"levelo://app?vid=5bc8b5cb-b401-4ed3-a8c9-4ef0b4a3cdb3"},"vehicle_type_id":"4","last_reported":1721063256,"current_range_meters":4800,"station_id":"ce4bh692rcd13ifvqea0","pricing_plan_id":"cebpf4jnsgd1na2vs0mg"},{"bike_id":"2541d0f8-d00c-4942-bcb5-a1534c768566","system_id":"levelo_inurba_marseille","lat":43.282754,"lon":5.350519,"is_reserved":false,"is_disabled":false,"rental_uris":{"android":"levelo://app?vid=2541d0f8-d00c-4942-bcb5-a1534c768566","ios":"levelo://app?vid=2541d0f8-d00c-4942-bcb5-a1534c768566"},"vehicle_type_id":"4","last_reported":1721063256,"current_range_meters":1200,"station_id":"ce4bhbp2rcd13ifvqerg","pricing_plan_id":"cebpf4jnsgd1na2vs0mg"},{"bike_id":"7e506d0d-4163-4a31-bdc0-61475ef5a344","system_id":"levelo_inurba_marseille","lat":43.28264,"lon":5.350658,"is_reserved":false,"is_disabled":false,"rental_uris":{"android":"levelo://app?vid=7e506d0d-4163-4a31-bdc0-61475ef5a344","ios":"levelo://app?vid=7e506d0d-4163-4a31-bdc0-61475ef5a344"},"vehicle_type_id":"4","last_reported":1721063256,"current_range_meters":26000,"station_id":"ce4bhbp2rcd13ifvqerg","pricing_plan_id":"cebpf4jnsgd1na2vs0mg"},{"bike_id":"accf4191-081d-4369-a613-c663ac9593de","system_id":"levelo_inurba_marseille","lat":43.273609,"lon":5.362708,"is_reserved":false,"is_disabled":false,"rental_uris":{"android":"levelo://app?vid=accf4191-081d-4369-a613-c663ac9593de","ios":"levelo://app?vid=accf4191-081d-4369-a613-c663ac9593de"},"vehicle_type_id":"4","last_reported":1721063256,"current_range_meters":15200,"station_id":"ce4bhbh2rcd13ifvqeo0","pricing_plan_id":"cebpf4jnsgd1na2vs0mg"},{"bike_id":"0e73efa3-2efb-48f6-8de9-96fcddca862c","system_id":"levelo_inurba_marseille","lat":43.282744,"lon":5.350533,"is_reserved":false,"is_disabled":false,"rental_uris":{"android":"levelo://app?vid=0e73efa3-2efb-48f6-8de9-96fcddca862c","ios":"levelo://app?vid=0e73efa3-2efb-48f6-8de9-96fcddca862c"},"vehicle_type_id":"4","last_reported":1721063256,"current_range_meters":31200,"station_id":"ce4bhbp2rcd13ifvqerg","pricing_plan_id":"cebpf4jnsgd1na2vs0mg"},{"bike_id":"d88bc74f-1424-40ba-8d39-e5c8ed2cf50f","system_id":"levelo_inurba_marseille","lat":43.28037,"lon":5.36942,"is_reserved":false,"is_disabled":false,"rental_uris":{"android":"levelo://app?vid=d88bc74f-1424-40ba-8d39-e5c8ed2cf50f","ios":"levelo://app?vid=d88bc74f-1424-40ba-8d39-e5c8ed2cf50f"},"vehicle_type_id":"4","last_reported":1721063256,"current_range_meters":0,"station_id":"ce4bha12rcd13ifvqef0","pricing_plan_id":"cebpf4jnsgd1na2vs0mg"},{"bike_id":"0088ccb5-e5e3-4cf7-bcd2-e435537966e5","system_id":"levelo_inurba_marseille","lat":43.280382,"lon":5.369291,"is_reserved":false,"is_disabled":false,"rental_uris":{"android":"levelo://app?vid=0088ccb5-e5e3-4cf7-bcd2-e435537966e5","ios":"levelo://app?vid=0088ccb5-e5e3-4cf7-bcd2-e435537966e5"},"vehicle_type_id":"4","last_reported":1721063256,"current_range_meters":9200,"station_id":"ce4bha12rcd13ifvqef0","pricing_plan_id":"cebpf4jnsgd1na2vs0mg"},{"bike_id":"8468e833-3554-421b-89b6-eb5d1860a4a9","system_id":"levelo_inurba_marseille","lat":43.28035,"lon":5.36946,"is_reserved":false,"is_disabled":false,"rental_uris":{"android":"levelo://app?vid=8468e833-3554-421b-89b6-eb5d1860a4a9","ios":"levelo://app?vid=8468e833-3554-421b-89b6-eb5d1860a4a9"},"vehicle_type_id":"4","last_reported":1721063256,"current_range_meters":0,"station_id":"ce4bha12rcd13ifvqef0","pricing_plan_id":"cebpf4jnsgd1na2vs0mg"},{"bike_id":"9f3db89d-1229-4a2a-8cf4-fed6a6aa9e07","system_id":"levelo_inurba_marseille","lat":43.281044,"lon":5.378308,"is_reserved":false,"is_disabled":false,"rental_uris":{"android":"levelo://app?vid=9f3db89d-1229-4a2a-8cf4-fed6a6aa9e07","ios":"levelo://app?vid=9f3db89d-1229-4a2a-8cf4-fed6a6aa9e07"},"vehicle_type_id":"4","last_reported":1721063256,"current_range_meters":2800,"station_id":"ce4bha12rcd13ifvqee0","pricing_plan_id":"cebpf4jnsgd1na2vs0mg"},{"bike_id":"d2b5ee5c-2e16-4ac9-8b19-eb931dcd6cb2","system_id":"levelo_inurba_marseille","lat":43.28099,"lon":5.37837,"is_reserved":false,"is_disabled":false,"rental_uris":{"android":"levelo://app?vid=d2b5ee5c-2e16-4ac9-8b19-eb931dcd6cb2","ios":"levelo://app?vid=d2b5ee5c-2e16-4ac9-8b19-eb931dcd6cb2"},"vehicle_type_id":"4","last_reported":1721063256,"current_range_meters":0,"station_id":"ce4bha12rcd13ifvqee0","pricing_plan_id":"cebpf4jnsgd1na2vs0mg"},{"bike_id":"b2511a52-6dd0-4175-b1a3-ad7bbc7d0991","system_id":"levelo_inurba_marseille","lat":43.286475,"lon":5.395762,"is_reserved":false,"is_disabled":false,"rental_uris":{"android":"levelo://app?vid=b2511a52-6dd0-4175-b1a3-ad7bbc7d0991","ios":"levelo://app?vid=b2511a52-6dd0-4175-b1a3-ad7bbc7d0991"},"vehicle_type_id":"4","last_reported":1721063256,"current_range_meters":400,"station_id":"","pricing_plan_id":"cebpf4jnsgd1na2vs0mg"},{"bike_id":"553dfa61-6e11-4729-b347-184f06fa3caf","system_id":"levelo_inurba_marseille","lat":43.284462,"lon":5.392121,"is_reserved":false,"is_disabled":false,"rental_uris":{"android":"levelo://app?vid=553dfa61-6e11-4729-b347-184f06fa3caf","ios":"levelo://app?vid=553dfa61-6e11-4729-b347-184f06fa3caf"},"vehicle_type_id":"4","last_reported":1721063256,"current_range_meters":21600,"station_id":"ce4bhoh2rcd13ifvqh5g","pricing_plan_id":"cebpf4jnsgd1na2vs0mg"},{"bike_id":"c2465f36-a0ce-4c2b-88a0-9d8791c9be67","system_id":"levelo_inurba_marseille","lat":43.28506,"lon":5.39439,"is_reserved":false,"is_disabled":false,"rental_uris":{"android":"levelo://app?vid=c2465f36-a0ce-4c2b-88a0-9d8791c9be67","ios":"levelo://app?vid=c2465f36-a0ce-4c2b-88a0-9d8791c9be67"},"vehicle_type_id":"4","last_reported":1721063256,"current_range_meters":3200,"station_id":"","pricing_plan_id":"cebpf4jnsgd1na2vs0mg"},{"bike_id":"e459395a-9bce-4e6b-9b0d-853e4d38b8c4","system_id":"levelo_inurba_marseille","lat":43.326605,"lon":5.409903,"is_reserved":false,"is_disabled":false,"rental_uris":{"android":"levelo://app?vid=e459395a-9bce-4e6b-9b0d-853e4d38b8c4","ios":"levelo://app?vid=e459395a-9bce-4e6b-9b0d-853e4d38b8c4"},"vehicle_type_id":"4","last_reported":1721063256,"current_range_meters":10800,"station_id":"ce4bhpp2rcd13ifvqhgg","pricing_plan_id":"cebpf4jnsgd1na2vs0mg"},{"bike_id":"d7d1b37f-b2c8-4df7-b179-725511fc02f3","system_id":"levelo_inurba_marseille","lat":43.304188,"lon":5.412904,"is_reserved":false,"is_disabled":false,"rental_uris":{"android":"levelo://app?vid=d7d1b37f-b2c8-4df7-b179-725511fc02f3","ios":"levelo://app?vid=d7d1b37f-b2c8-4df7-b179-725511fc02f3"},"vehicle_type_id":"4","last_reported":1721063256,"current_range_meters":20800,"station_id":"ce4bhop2rcd13ifvqh8g","pricing_plan_id":"cebpf4jnsgd1na2vs0mg"},{"bike_id":"937ce2a7-3cf8-4b81-a47b-9c0c935d0842","system_id":"levelo_inurba_marseille","lat":43.287154,"lon":5.399979,"is_reserved":false,"is_disabled":false,"rental_uris":{"android":"levelo://app?vid=937ce2a7-3cf8-4b81-a47b-9c0c935d0842","ios":"levelo://app?vid=937ce2a7-3cf8-4b81-a47b-9c0c935d0842"},"vehicle_type_id":"4","last_reported":1721063256,"current_range_meters":1200,"station_id":"ce4bho92rcd13ifvqh3g","pricing_plan_id":"cebpf4jnsgd1na2vs0mg"},{"bike_id":"d727c75f-6150-481f-93cf-00bf7a95ddd9","system_id":"levelo_inurba_marseille","lat":43.279087,"lon":5.380114,"is_reserved":false,"is_disabled":false,"rental_uris":{"android":"levelo://app?vid=d727c75f-6150-481f-93cf-00bf7a95ddd9","ios":"levelo://app?vid=d727c75f-6150-481f-93cf-00bf7a95ddd9"},"vehicle_type_id":"4","last_reported":1721063256,"current_range_meters":6400,"station_id":"ce4bhf92rcd13ifvqf50","pricing_plan_id":"cebpf4jnsgd1na2vs0mg"},{"bike_id":"9c114e30-7b69-4ebf-b2a5-8db102bb1da5","system_id":"levelo_inurba_marseille","lat":43.279087,"lon":5.380114,"is_reserved":false,"is_disabled":false,"rental_uris":{"android":"levelo://app?vid=9c114e30-7b69-4ebf-b2a5-8db102bb1da5","ios":"levelo://app?vid=9c114e30-7b69-4ebf-b2a5-8db102bb1da5"},"vehicle_type_id":"4","last_reported":1721063256,"current_range_meters":19600,"station_id":"ce4bhf92rcd13ifvqf50","pricing_plan_id":"cebpf4jnsgd1na2vs0mg"},{"bike_id":"2d883cca-d6a9-4885-bc1f-b5c21d17c588","system_id":"levelo_inurba_marseille","lat":43.29602,"lon":5.381084,"is_reserved":false,"is_disabled":false,"rental_uris":{"android":"levelo://app?vid=2d883cca-d6a9-4885-bc1f-b5c21d17c588","ios":"levelo://app?vid=2d883cca-d6a9-4885-bc1f-b5c21d17c588"},"vehicle_type_id":"4","last_reported":1721063256,"current_range_meters":24400,"station_id":"ce4bgl12rcd13ifvqbo0","pricing_plan_id":"cebpf4jnsgd1na2vs0mg"},{"bike_id":"ba4475c1-e302-4787-881e-6204f05a9c7e","system_id":"levelo_inurba_marseille","lat":43.28464,"lon":5.39854,"is_reserved":false,"is_disabled":false,"rental_uris":{"android":"levelo://app?vid=ba4475c1-e302-4787-881e-6204f05a9c7e","ios":"levelo://app?vid=ba4475c1-e302-4787-881e-6204f05a9c7e"},"vehicle_type_id":"4","last_reported":1721063256,"current_range_meters":20000,"station_id":"","pricing_plan_id":"cebpf4jnsgd1na2vs0mg"},{"bike_id":"4e0af8c9-45b7-46c8-a322-e66baa465d66","system_id":"levelo_inurba_marseille","lat":43.27618,"lon":5.361009,"is_reserved":false,"is_disabled":false,"rental_uris":{"android":"levelo://app?vid=4e0af8c9-45b7-46c8-a322-e66baa465d66","ios":"levelo://app?vid=4e0af8c9-45b7-46c8-a322-e66baa465d66"},"vehicle_type_id":"4","last_reported":1721063256,"current_range_meters":10000,"station_id":"ce4bgj92rcd13ifvqbe0","pricing_plan_id":"cebpf4jnsgd1na2vs0mg"},{"bike_id":"806463f4-a177-4ad8-a61a-541d3b37e1f0","system_id":"levelo_inurba_marseille","lat":43.27618,"lon":5.361009,"is_reserved":false,"is_disabled":false,"rental_uris":{"android":"levelo://app?vid=806463f4-a177-4ad8-a61a-541d3b37e1f0","ios":"levelo://app?vid=806463f4-a177-4ad8-a61a-541d3b37e1f0"},"vehicle_type_id":"4","last_reported":1721063256,"current_range_meters":28000,"station_id":"ce4bgj92rcd13ifvqbe0","pricing_plan_id":"cebpf4jnsgd1na2vs0mg"},{"bike_id":"8d607e3b-b8c2-44b2-bf37-0bed2f5a05ec","system_id":"levelo_inurba_marseille","lat":43.27618,"lon":5.361009,"is_reserved":false,"is_disabled":false,"rental_uris":{"android":"levelo://app?vid=8d607e3b-b8c2-44b2-bf37-0bed2f5a05ec","ios":"levelo://app?vid=8d607e3b-b8c2-44b2-bf37-0bed2f5a05ec"},"vehicle_type_id":"4","last_reported":1721063256,"current_range_meters":1200,"station_id":"ce4bgj92rcd13ifvqbe0","pricing_plan_id":"cebpf4jnsgd1na2vs0mg"},{"bike_id":"e23f664b-6b1f-43df-83c9-b4e09e14d7ad","system_id":"levelo_inurba_marseille","lat":43.336134,"lon":5.410341,"is_reserved":false,"is_disabled":false,"rental_uris":{"android":"levelo://app?vid=e23f664b-6b1f-43df-83c9-b4e09e14d7ad","ios":"levelo://app?vid=e23f664b-6b1f-43df-83c9-b4e09e14d7ad"},"vehicle_type_id":"4","last_reported":1721063256,"current_range_meters":6000,"station_id":"ce4bhqh2rcd13ifvqhmg","pricing_plan_id":"cebpf4jnsgd1na2vs0mg"},{"bike_id":"f8b7f521-55dc-43df-aab4-dd58677a105a","system_id":"levelo_inurba_marseille","lat":43.32151,"lon":5.41786,"is_reserved":false,"is_disabled":false,"rental_uris":{"android":"levelo://app?vid=f8b7f521-55dc-43df-aab4-dd58677a105a","ios":"levelo://app?vid=f8b7f521-55dc-43df-aab4-dd58677a105a"},"vehicle_type_id":"4","last_reported":1721063256,"current_range_meters":20800,"station_id":"","pricing_plan_id":"cebpf4jnsgd1na2vs0mg"},{"bike_id":"ecb6dd09-9caa-4eb4-a8ba-96ef9d80e03d","system_id":"levelo_inurba_marseille","lat":43.3217,"lon":5.418,"is_reserved":false,"is_disabled":false,"rental_uris":{"android":"levelo://app?vid=ecb6dd09-9caa-4eb4-a8ba-96ef9d80e03d","ios":"levelo://app?vid=ecb6dd09-9caa-4eb4-a8ba-96ef9d80e03d"},"vehicle_type_id":"4","last_reported":1721063256,"current_range_meters":5200,"station_id":"","pricing_plan_id":"cebpf4jnsgd1na2vs0mg"},{"bike_id":"a8d1e358-3b10-4323-846b-035c85a749f9","system_id":"levelo_inurba_marseille","lat":43.280784,"lon":5.396622,"is_reserved":false,"is_disabled":false,"rental_uris":{"android":"levelo://app?vid=a8d1e358-3b10-4323-846b-035c85a749f9","ios":"levelo://app?vid=a8d1e358-3b10-4323-846b-035c85a749f9"},"vehicle_type_id":"4","last_reported":1721063256,"current_range_meters":1200,"station_id":"ce4bho12rcd13ifvqh2g","pricing_plan_id":"cebpf4jnsgd1na2vs0mg"},{"bike_id":"41aa6539-4155-48c6-8ae2-bab3b4add94f","system_id":"levelo_inurba_marseille","lat":43.280784,"lon":5.396622,"is_reserved":false,"is_disabled":false,"rental_uris":{"android":"levelo://app?vid=41aa6539-4155-48c6-8ae2-bab3b4add94f","ios":"levelo://app?vid=41aa6539-4155-48c6-8ae2-bab3b4add94f"},"vehicle_type_id":"4","last_reported":1721063256,"current_range_meters":13600,"station_id":"ce4bho12rcd13ifvqh2g","pricing_plan_id":"cebpf4jnsgd1na2vs0mg"},{"bike_id":"b33a118c-2ed0-4bdf-85cc-6ef50a9d7f0a","system_id":"levelo_inurba_marseille","lat":43.280784,"lon":5.396622,"is_reserved":false,"is_disabled":false,"rental_uris":{"android":"levelo://app?vid=b33a118c-2ed0-4bdf-85cc-6ef50a9d7f0a","ios":"levelo://app?vid=b33a118c-2ed0-4bdf-85cc-6ef50a9d7f0a"},"vehicle_type_id":"4","last_reported":1721063256,"current_range_meters":13200,"station_id":"ce4bho12rcd13ifvqh2g","pricing_plan_id":"cebpf4jnsgd1na2vs0mg"},{"bike_id":"800ebcac-c622-4209-9b1d-4dd7d54faf48","system_id":"levelo_inurba_marseille","lat":43.280784,"lon":5.396622,"is_reserved":false,"is_disabled":false,"rental_uris":{"android":"levelo://app?vid=800ebcac-c622-4209-9b1d-4dd7d54faf48","ios":"levelo://app?vid=800ebcac-c622-4209-9b1d-4dd7d54faf48"},"vehicle_type_id":"4","last_reported":1721063256,"current_range_meters":11600,"station_id":"ce4bho12rcd13ifvqh2g","pricing_plan_id":"cebpf4jnsgd1na2vs0mg"},{"bike_id":"e95d392d-d251-42dd-a9e5-d78b3b9afce2","system_id":"levelo_inurba_marseille","lat":43.280784,"lon":5.396622,"is_reserved":false,"is_disabled":false,"rental_uris":{"android":"levelo://app?vid=e95d392d-d251-42dd-a9e5-d78b3b9afce2","ios":"levelo://app?vid=e95d392d-d251-42dd-a9e5-d78b3b9afce2"},"vehicle_type_id":"4","last_reported":1721063256,"current_range_meters":30000,"station_id":"ce4bho12rcd13ifvqh2g","pricing_plan_id":"cebpf4jnsgd1na2vs0mg"},{"bike_id":"4fbdeb5a-807e-4030-b5fd-f6aa4c478242","system_id":"levelo_inurba_marseille","lat":43.303837,"lon":5.418724,"is_reserved":false,"is_disabled":false,"rental_uris":{"android":"levelo://app?vid=4fbdeb5a-807e-4030-b5fd-f6aa4c478242","ios":"levelo://app?vid=4fbdeb5a-807e-4030-b5fd-f6aa4c478242"},"vehicle_type_id":"4","last_reported":1721063256,"current_range_meters":7600,"station_id":"ce4bhop2rcd13ifvqh7g","pricing_plan_id":"cebpf4jnsgd1na2vs0mg"},{"bike_id":"01decadd-73e2-461d-be4a-5959a12c0fc2","system_id":"levelo_inurba_marseille","lat":43.278399,"lon":5.392139,"is_reserved":false,"is_disabled":false,"rental_uris":{"android":"levelo://app?vid=01decadd-73e2-461d-be4a-5959a12c0fc2","ios":"levelo://app?vid=01decadd-73e2-461d-be4a-5959a12c0fc2"},"vehicle_type_id":"4","last_reported":1721063256,"current_range_meters":0,"station_id":"ce4bhjp2rcd13ifvqga0","pricing_plan_id":"cebpf4jnsgd1na2vs0mg"},{"bike_id":"c060334f-d4e5-4369-aab5-3318bdf3807b","system_id":"levelo_inurba_marseille","lat":43.278399,"lon":5.392139,"is_reserved":false,"is_disabled":false,"rental_uris":{"android":"levelo://app?vid=c060334f-d4e5-4369-aab5-3318bdf3807b","ios":"levelo://app?vid=c060334f-d4e5-4369-aab5-3318bdf3807b"},"vehicle_type_id":"4","last_reported":1721063256,"current_range_meters":13600,"station_id":"ce4bhjp2rcd13ifvqga0","pricing_plan_id":"cebpf4jnsgd1na2vs0mg"},{"bike_id":"11eaa5c3-07e0-4d45-94c6-46a11a585a2d","system_id":"levelo_inurba_marseille","lat":43.273613,"lon":5.362705,"is_reserved":false,"is_disabled":false,"rental_uris":{"android":"levelo://app?vid=11eaa5c3-07e0-4d45-94c6-46a11a585a2d","ios":"levelo://app?vid=11eaa5c3-07e0-4d45-94c6-46a11a585a2d"},"vehicle_type_id":"4","last_reported":1721063256,"current_range_meters":2000,"station_id":"ce4bhbh2rcd13ifvqeo0","pricing_plan_id":"cebpf4jnsgd1na2vs0mg"},{"bike_id":"bc2fed23-2fbd-4596-9301-0669a31140d9","system_id":"levelo_inurba_marseille","lat":43.273613,"lon":5.362705,"is_reserved":false,"is_disabled":false,"rental_uris":{"android":"levelo://app?vid=bc2fed23-2fbd-4596-9301-0669a31140d9","ios":"levelo://app?vid=bc2fed23-2fbd-4596-9301-0669a31140d9"},"vehicle_type_id":"4","last_reported":1721063256,"current_range_meters":5600,"station_id":"ce4bhbh2rcd13ifvqeo0","pricing_plan_id":"cebpf4jnsgd1na2vs0mg"},{"bike_id":"0ef35777-1213-4d5e-9f2b-d2c70067bab0","system_id":"levelo_inurba_marseille","lat":43.273828,"lon":5.362568,"is_reserved":false,"is_disabled":false,"rental_uris":{"android":"levelo://app?vid=0ef35777-1213-4d5e-9f2b-d2c70067bab0","ios":"levelo://app?vid=0ef35777-1213-4d5e-9f2b-d2c70067bab0"},"vehicle_type_id":"4","last_reported":1721063256,"current_range_meters":30800,"station_id":"ce4bhbh2rcd13ifvqeo0","pricing_plan_id":"cebpf4jnsgd1na2vs0mg"},{"bike_id":"a32e2a53-3e9c-477c-875c-ede03e5b2f59","system_id":"levelo_inurba_marseille","lat":43.27382,"lon":5.36253,"is_reserved":false,"is_disabled":false,"rental_uris":{"android":"levelo://app?vid=a32e2a53-3e9c-477c-875c-ede03e5b2f59","ios":"levelo://app?vid=a32e2a53-3e9c-477c-875c-ede03e5b2f59"},"vehicle_type_id":"4","last_reported":1721063256,"current_range_meters":6800,"station_id":"ce4bhbh2rcd13ifvqeo0","pricing_plan_id":"cebpf4jnsgd1na2vs0mg"},{"bike_id":"13756f9a-9b04-48b2-ad7c-f588edb05b87","system_id":"levelo_inurba_marseille","lat":43.273613,"lon":5.362705,"is_reserved":false,"is_disabled":false,"rental_uris":{"android":"levelo://app?vid=13756f9a-9b04-48b2-ad7c-f588edb05b87","ios":"levelo://app?vid=13756f9a-9b04-48b2-ad7c-f588edb05b87"},"vehicle_type_id":"4","last_reported":1721063256,"current_range_meters":14400,"station_id":"ce4bhbh2rcd13ifvqeo0","pricing_plan_id":"cebpf4jnsgd1na2vs0mg"},{"bike_id":"ffc579c2-56c9-4a87-b00d-0639564f15b0","system_id":"levelo_inurba_marseille","lat":43.27381,"lon":5.36254,"is_reserved":false,"is_disabled":false,"rental_uris":{"android":"levelo://app?vid=ffc579c2-56c9-4a87-b00d-0639564f15b0","ios":"levelo://app?vid=ffc579c2-56c9-4a87-b00d-0639564f15b0"},