{"last_updated":1709593657,"ttl":30,"version":"2.2","data":{"bikes":[{"bike_id":"232931e6-03ce-4b82-a8e9-aa15f217c184","system_id":"levelo_inurba_marseille","lat":43.31341,"lon":5.367098,"is_reserved":false,"is_disabled":false,"rental_uris":{"android":"levelo://app?vid=232931e6-03ce-4b82-a8e9-aa15f217c184","ios":"levelo://app?vid=232931e6-03ce-4b82-a8e9-aa15f217c184"},"vehicle_type_id":"4","last_reported":1709593657,"current_range_meters":22800,"station_id":"ce4bgr92rcd13ifvqc6g","pricing_plan_id":"cebpf4jnsgd1na2vs0mg"},{"bike_id":"bed79921-45a7-471f-9ec0-f259847a5eb4","system_id":"levelo_inurba_marseille","lat":43.31341,"lon":5.367098,"is_reserved":false,"is_disabled":false,"rental_uris":{"android":"levelo://app?vid=bed79921-45a7-471f-9ec0-f259847a5eb4","ios":"levelo://app?vid=bed79921-45a7-471f-9ec0-f259847a5eb4"},"vehicle_type_id":"4","last_reported":1709593657,"current_range_meters":21600,"station_id":"ce4bgr92rcd13ifvqc6g","pricing_plan_id":"cebpf4jnsgd1na2vs0mg"},{"bike_id":"ca6c22f6-4bc0-4720-8685-8493464f44aa","system_id":"levelo_inurba_marseille","lat":43.31341,"lon":5.367098,"is_reserved":false,"is_disabled":false,"rental_uris":{"android":"levelo://app?vid=ca6c22f6-4bc0-4720-8685-8493464f44aa","ios":"levelo://app?vid=ca6c22f6-4bc0-4720-8685-8493464f44aa"},"vehicle_type_id":"4","last_reported":1709593657,"current_range_meters":27200,"station_id":"ce4bgr92rcd13ifvqc6g","pricing_plan_id":"cebpf4jnsgd1na2vs0mg"},{"bike_id":"22f3a0e5-0259-4085-a0d0-e5d529a4bb7d","system_id":"levelo_inurba_marseille","lat":43.309076,"lon":5.368465,"is_reserved":false,"is_disabled":false,"rental_uris":{"android":"levelo://app?vid=22f3a0e5-0259-4085-a0d0-e5d529a4bb7d","ios":"levelo://app?vid=22f3a0e5-0259-4085-a0d0-e5d529a4bb7d"},"vehicle_type_id":"4","last_reported":1709593657,"current_range_meters":17200,"station_id":"ce4bgn92rcd13ifvqbvg","pricing_plan_id":"cebpf4jnsgd1na2vs0mg"},{"bike_id":"ad4c6593-0e37-4df1-945c-2ba05ef8bf03","system_id":"levelo_inurba_marseille","lat":43.31482,"lon":5.37302,"is_reserved":false,"is_disabled":false,"rental_uris":{"android":"levelo://app?vid=ad4c6593-0e37-4df1-945c-2ba05ef8bf03","ios":"levelo://app?vid=ad4c6593-0e37-4df1-945c-2ba05ef8bf03"},"vehicle_type_id":"4","last_reported":1709593657,"current_range_meters":0,"station_id":"ce4bgt12rcd13ifvqcd0","pricing_plan_id":"cebpf4jnsgd1na2vs0mg"},{"bike_id":"36e78600-74ab-4f4d-8d60-b355103ea5d1","system_id":"levelo_inurba_marseille","lat":43.314811,"lon":5.373103,"is_reserved":false,"is_disabled":false,"rental_uris":{"android":"levelo://app?vid=36e78600-74ab-4f4d-8d60-b355103ea5d1","ios":"levelo://app?vid=36e78600-74ab-4f4d-8d60-b355103ea5d1"},"vehicle_type_id":"4","last_reported":1709593657,"current_range_meters":17600,"station_id":"ce4bgt12rcd13ifvqcd0","pricing_plan_id":"cebpf4jnsgd1na2vs0mg"},{"bike_id":"647bd53f-3e74-40aa-8ddd-582ee75927bc","system_id":"levelo_inurba_marseille","lat":43.314811,"lon":5.373103,"is_reserved":false,"is_disabled":false,"rental_uris":{"android":"levelo://app?vid=647bd53f-3e74-40aa-8ddd-582ee75927bc","ios":"levelo://app?vid=647bd53f-3e74-40aa-8ddd-582ee75927bc"},"vehicle_type_id":"4","last_reported":1709593657,"current_range_meters":21600,"station_id":"ce4bgt12rcd13ifvqcd0","pricing_plan_id":"cebpf4jnsgd1na2vs0mg"},{"bike_id":"b3727711-be01-41ab-a8c2-2f610b73780c","system_id":"levelo_inurba_marseille","lat":43.314811,"lon":5.373103,"is_reserved":false,"is_disabled":false,"rental_uris":{"android":"levelo://app?vid=b3727711-be01-41ab-a8c2-2f610b73780c","ios":"levelo://app?vid=b3727711-be01-41ab-a8c2-2f610b73780c"},"vehicle_type_id":"4","last_reported":1709593657,"current_range_meters":26400,"station_id":"ce4bgt12rcd13ifvqcd0","pricing_plan_id":"cebpf4jnsgd1na2vs0mg"},{"bike_id":"1658b25d-5cbb-498a-a671-ae12137aca1a","system_id":"levelo_inurba_marseille","lat":43.31502,"lon":5.37315,"is_reserved":false,"is_disabled":false,"rental_uris":{"android":"levelo://app?vid=1658b25d-5cbb-498a-a671-ae12137aca1a","ios":"levelo://app?vid=1658b25d-5cbb-498a-a671-ae12137aca1a"},"vehicle_type_id":"4","last_reported":1709593657,"current_range_meters":29200,"station_id":"ce4bgt12rcd13ifvqcd0","pricing_plan_id":"cebpf4jnsgd1na2vs0mg"},{"bike_id":"8c73ce2e-cd3a-44ab-873c-ecfad27edc8c","system_id":"levelo_inurba_marseille","lat":43.313462,"lon":5.376896,"is_reserved":false,"is_disabled":false,"rental_uris":{"android":"levelo://app?vid=8c73ce2e-cd3a-44ab-873c-ecfad27edc8c","ios":"levelo://app?vid=8c73ce2e-cd3a-44ab-873c-ecfad27edc8c"},"vehicle_type_id":"4","last_reported":1709593657,"current_range_meters":25200,"station_id":"","pricing_plan_id":"cebpf4jnsgd1na2vs0mg"},{"bike_id":"afb9ea9a-fdc2-40da-b6be-a2801c8fe861","system_id":"levelo_inurba_marseille","lat":43.305989,"lon":5.37225,"is_reserved":false,"is_disabled":false,"rental_uris":{"android":"levelo://app?vid=afb9ea9a-fdc2-40da-b6be-a2801c8fe861","ios":"levelo://app?vid=afb9ea9a-fdc2-40da-b6be-a2801c8fe861"},"vehicle_type_id":"4","last_reported":1709593657,"current_range_meters":14800,"station_id":"ce4bgqh2rcd13ifvqc4g","pricing_plan_id":"cebpf4jnsgd1na2vs0mg"},{"bike_id":"6a021a1e-fcc6-42a4-8968-6b8441574616","system_id":"levelo_inurba_marseille","lat":43.305989,"lon":5.37225,"is_reserved":false,"is_disabled":false,"rental_uris":{"android":"levelo://app?vid=6a021a1e-fcc6-42a4-8968-6b8441574616","ios":"levelo://app?vid=6a021a1e-fcc6-42a4-8968-6b8441574616"},"vehicle_type_id":"4","last_reported":1709593657,"current_range_meters":15600,"station_id":"ce4bgqh2rcd13ifvqc4g","pricing_plan_id":"cebpf4jnsgd1na2vs0mg"},{"bike_id":"467891a3-4ad4-40fc-a256-74338581a5b3","system_id":"levelo_inurba_marseille","lat":43.305989,"lon":5.37225,"is_reserved":false,"is_disabled":false,"rental_uris":{"android":"levelo://app?vid=467891a3-4ad4-40fc-a256-74338581a5b3","ios":"levelo://app?vid=467891a3-4ad4-40fc-a256-74338581a5b3"},"vehicle_type_id":"4","last_reported":1709593657,"current_range_meters":9600,"station_id":"ce4bgqh2rcd13ifvqc4g","pricing_plan_id":"cebpf4jnsgd1na2vs0mg"},{"bike_id":"54f6d7ea-4e22-4173-b89d-39c18c515bdb","system_id":"levelo_inurba_marseille","lat":43.311131,"lon":5.377651,"is_reserved":false,"is_disabled":false,"rental_uris":{"android":"levelo://app?vid=54f6d7ea-4e22-4173-b89d-39c18c515bdb","ios":"levelo://app?vid=54f6d7ea-4e22-4173-b89d-39c18c515bdb"},"vehicle_type_id":"4","last_reported":1709593657,"current_range_meters":8000,"station_id":"ce4bgt92rcd13ifvqcg0","pricing_plan_id":"cebpf4jnsgd1na2vs0mg"},{"bike_id":"25bff0f1-9319-4a21-8ab5-3a9389f2706e","system_id":"levelo_inurba_marseille","lat":43.311131,"lon":5.377651,"is_reserved":false,"is_disabled":false,"rental_uris":{"android":"levelo://app?vid=25bff0f1-9319-4a21-8ab5-3a9389f2706e","ios":"levelo://app?vid=25bff0f1-9319-4a21-8ab5-3a9389f2706e"},"vehicle_type_id":"4","last_reported":1709593657,"current_range_meters":0,"station_id":"ce4bgt92rcd13ifvqcg0","pricing_plan_id":"cebpf4jnsgd1na2vs0mg"},{"bike_id":"a53bd5d1-e5c3-4025-9fc3-93a36784964d","system_id":"levelo_inurba_marseille","lat":43.311131,"lon":5.377651,"is_reserved":false,"is_disabled":false,"rental_uris":{"android":"levelo://app?vid=a53bd5d1-e5c3-4025-9fc3-93a36784964d","ios":"levelo://app?vid=a53bd5d1-e5c3-4025-9fc3-93a36784964d"},"vehicle_type_id":"4","last_reported":1709593657,"current_range_meters":12400,"station_id":"ce4bgt92rcd13ifvqcg0","pricing_plan_id":"cebpf4jnsgd1na2vs0mg"},{"bike_id":"156e6110-a6df-4517-9e9d-7a20f3295c98","system_id":"levelo_inurba_marseille","lat":43.311131,"lon":5.377651,"is_reserved":false,"is_disabled":false,"rental_uris":{"android":"levelo://app?vid=156e6110-a6df-4517-9e9d-7a20f3295c98","ios":"levelo://app?vid=156e6110-a6df-4517-9e9d-7a20f3295c98"},"vehicle_type_id":"4","last_reported":1709593657,"current_range_meters":7200,"station_id":"ce4bgt92rcd13ifvqcg0","pricing_plan_id":"cebpf4jnsgd1na2vs0mg"},{"bike_id":"e0f4c4d2-af9a-4000-b2f1-364b2e700b5e","system_id":"levelo_inurba_marseille","lat":43.311125,"lon":5.377624,"is_reserved":false,"is_disabled":false,"rental_uris":{"android":"levelo://app?vid=e0f4c4d2-af9a-4000-b2f1-364b2e700b5e","ios":"levelo://app?vid=e0f4c4d2-af9a-4000-b2f1-364b2e700b5e"},"vehicle_type_id":"4","last_reported":1709593657,"current_range_meters":4400,"station_id":"ce4bgt92rcd13ifvqcg0","pricing_plan_id":"cebpf4jnsgd1na2vs0mg"},{"bike_id":"b6b7a6e2-11de-413c-88a4-44f8c753bafb","system_id":"levelo_inurba_marseille","lat":43.311131,"lon":5.377651,"is_reserved":false,"is_disabled":false,"rental_uris":{"android":"levelo://app?vid=b6b7a6e2-11de-413c-88a4-44f8c753bafb","ios":"levelo://app?vid=b6b7a6e2-11de-413c-88a4-44f8c753bafb"},"vehicle_type_id":"4","last_reported":1709593657,"current_range_meters":22400,"station_id":"ce4bgt92rcd13ifvqcg0","pricing_plan_id":"cebpf4jnsgd1na2vs0mg"},{"bike_id":"7a50b68e-38b0-4a98-8580-45b88b6162b5","system_id":"levelo_inurba_marseille","lat":43.311125,"lon":5.377624,"is_reserved":false,"is_disabled":false,"rental_uris":{"android":"levelo://app?vid=7a50b68e-38b0-4a98-8580-45b88b6162b5","ios":"levelo://app?vid=7a50b68e-38b0-4a98-8580-45b88b6162b5"},"vehicle_type_id":"4","last_reported":1709593657,"current_range_meters":27600,"station_id":"ce4bgt92rcd13ifvqcg0","pricing_plan_id":"cebpf4jnsgd1na2vs0mg"},{"bike_id":"efe5a1bd-0268-48af-8734-5dbd60621967","system_id":"levelo_inurba_marseille","lat":43.311125,"lon":5.377624,"is_reserved":false,"is_disabled":false,"rental_uris":{"android":"levelo://app?vid=efe5a1bd-0268-48af-8734-5dbd60621967","ios":"levelo://app?vid=efe5a1bd-0268-48af-8734-5dbd60621967"},"vehicle_type_id":"4","last_reported":1709593657,"current_range_meters":0,"station_id":"ce4bgt92rcd13ifvqcg0","pricing_plan_id":"cebpf4jnsgd1na2vs0mg"},{"bike_id":"b2c4fc33-3316-4a70-89c5-4414a90664f0","system_id":"levelo_inurba_marseille","lat":43.307945,"lon":5.376487,"is_reserved":false,"is_disabled":false,"rental_uris":{"android":"levelo://app?vid=b2c4fc33-3316-4a70-89c5-4414a90664f0","ios":"levelo://app?vid=b2c4fc33-3316-4a70-89c5-4414a90664f0"},"vehicle_type_id":"4","last_reported":1709593657,"current_range_meters":8000,"station_id":"ce4bgv92rcd13ifvqcq0","pricing_plan_id":"cebpf4jnsgd1na2vs0mg"},{"bike_id":"cce7b8cb-f837-49d6-ad61-60cd647659d2","system_id":"levelo_inurba_marseille","lat":43.307945,"lon":5.376487,"is_reserved":false,"is_disabled":false,"rental_uris":{"android":"levelo://app?vid=cce7b8cb-f837-49d6-ad61-60cd647659d2","ios":"levelo://app?vid=cce7b8cb-f837-49d6-ad61-60cd647659d2"},"vehicle_type_id":"4","last_reported":1709593657,"current_range_meters":29200,"station_id":"ce4bgv92rcd13ifvqcq0","pricing_plan_id":"cebpf4jnsgd1na2vs0mg"},{"bike_id":"a16c0c49-620b-4de9-be96-1d598e260b82","system_id":"levelo_inurba_marseille","lat":43.307945,"lon":5.376487,"is_reserved":false,"is_disabled":false,"rental_uris":{"android":"levelo://app?vid=a16c0c49-620b-4de9-be96-1d598e260b82","ios":"levelo://app?vid=a16c0c49-620b-4de9-be96-1d598e260b82"},"vehicle_type_id":"4","last_reported":1709593657,"current_range_meters":15600,"station_id":"ce4bgv92rcd13ifvqcq0","pricing_plan_id":"cebpf4jnsgd1na2vs0mg"},{"bike_id":"e6314e1c-3f56-4a72-88b1-1cb7c09be2ae","system_id":"levelo_inurba_marseille","lat":43.307945,"lon":5.376487,"is_reserved":false,"is_disabled":false,"rental_uris":{"android":"levelo://app?vid=e6314e1c-3f56-4a72-88b1-1cb7c09be2ae","ios":"levelo://app?vid=e6314e1c-3f56-4a72-88b1-1cb7c09be2ae"},"vehicle_type_id":"4","last_reported":1709593657,"current_range_meters":20400,"station_id":"ce4bgv92rcd13ifvqcq0","pricing_plan_id":"cebpf4jnsgd1na2vs0mg"},{"bike_id":"9c4df5b1-ba21-4f2e-966c-394893a359e1","system_id":"levelo_inurba_marseille","lat":43.307945,"lon":5.376487,"is_reserved":false,"is_disabled":false,"rental_uris":{"android":"levelo://app?vid=9c4df5b1-ba21-4f2e-966c-394893a359e1","ios":"levelo://app?vid=9c4df5b1-ba21-4f2e-966c-394893a359e1"},"vehicle_type_id":"4","last_reported":1709593657,"current_range_meters":6800,"station_id":"ce4bgv92rcd13ifvqcq0","pricing_plan_id":"cebpf4jnsgd1na2vs0mg"},{"bike_id":"ccf02eeb-3377-476a-81f8-786893f5a8ae","system_id":"levelo_inurba_marseille","lat":43.307945,"lon":5.376487,"is_reserved":false,"is_disabled":false,"rental_uris":{"android":"levelo://app?vid=ccf02eeb-3377-476a-81f8-786893f5a8ae","ios":"levelo://app?vid=ccf02eeb-3377-476a-81f8-786893f5a8ae"},"vehicle_type_id":"4","last_reported":1709593657,"current_range_meters":15600,"station_id":"ce4bgv92rcd13ifvqcq0","pricing_plan_id":"cebpf4jnsgd1na2vs0mg"},{"bike_id":"66faee2f-b05c-4541-bac9-7b6469fca192","system_id":"levelo_inurba_marseille","lat":43.307945,"lon":5.376487,"is_reserved":false,"is_disabled":false,"rental_uris":{"android":"levelo://app?vid=66faee2f-b05c-4541-bac9-7b6469fca192","ios":"levelo://app?vid=66faee2f-b05c-4541-bac9-7b6469fca192"},"vehicle_type_id":"4","last_reported":1709593657,"current_range_meters":27600,"station_id":"ce4bgv92rcd13ifvqcq0","pricing_plan_id":"cebpf4jnsgd1na2vs0mg"},{"bike_id":"7a92fbe2-9c26-46ed-8b1d-dc3c21ae03e3","system_id":"levelo_inurba_marseille","lat":43.307945,"lon":5.376487,"is_reserved":false,"is_disabled":false,"rental_uris":{"android":"levelo://app?vid=7a92fbe2-9c26-46ed-8b1d-dc3c21ae03e3","ios":"levelo://app?vid=7a92fbe2-9c26-46ed-8b1d-dc3c21ae03e3"},"vehicle_type_id":"4","last_reported":1709593657,"current_range_meters":5600,"station_id":"ce4bgv92rcd13ifvqcq0","pricing_plan_id":"cebpf4jnsgd1na2vs0mg"},{"bike_id":"bcac2093-e0fc-4e9b-9dff-43ec9f52ffa1","system_id":"levelo_inurba_marseille","lat":43.307945,"lon":5.376487,"is_reserved":false,"is_disabled":false,"rental_uris":{"android":"levelo://app?vid=bcac2093-e0fc-4e9b-9dff-43ec9f52ffa1","ios":"levelo://app?vid=bcac2093-e0fc-4e9b-9dff-43ec9f52ffa1"},"vehicle_type_id":"4","last_reported":1709593657,"current_range_meters":29200,"station_id":"ce4bgv92rcd13ifvqcq0","pricing_plan_id":"cebpf4jnsgd1na2vs0mg"},{"bike_id":"5d5cd16f-0a69-4e97-87bb-cbe82e8bd2bf","system_id":"levelo_inurba_marseille","lat":43.317075,"lon":5.377367,"is_reserved":false,"is_disabled":false,"rental_uris":{"android":"levelo://app?vid=5d5cd16f-0a69-4e97-87bb-cbe82e8bd2bf","ios":"levelo://app?vid=5d5cd16f-0a69-4e97-87bb-cbe82e8bd2bf"},"vehicle_type_id":"4","last_reported":1709593657,"current_range_meters":14400,"station_id":"ce4bgth2rcd13ifvqch0","pricing_plan_id":"cebpf4jnsgd1na2vs0mg"},{"bike_id":"3aa62869-f645-4015-84ea-9f07ad644077","system_id":"levelo_inurba_marseille","lat":43.317075,"lon":5.377367,"is_reserved":false,"is_disabled":false,"rental_uris":{"android":"levelo://app?vid=3aa62869-f645-4015-84ea-9f07ad644077","ios":"levelo://app?vid=3aa62869-f645-4015-84ea-9f07ad644077"},"vehicle_type_id":"4","last_reported":1709593657,"current_range_meters":6000,"station_id":"ce4bgth2rcd13ifvqch0","pricing_plan_id":"cebpf4jnsgd1na2vs0mg"},{"bike_id":"6c45884a-b019-4175-8532-d3e4c4ec1024","system_id":"levelo_inurba_marseille","lat":43.304987,"lon":5.373723,"is_reserved":false,"is_disabled":false,"rental_uris":{"android":"levelo://app?vid=6c45884a-b019-4175-8532-d3e4c4ec1024","ios":"levelo://app?vid=6c45884a-b019-4175-8532-d3e4c4ec1024"},"vehicle_type_id":"4","last_reported":1709593657,"current_range_meters":11200,"station_id":"","pricing_plan_id":"cebpf4jnsgd1na2vs0mg"},{"bike_id":"042fe454-2b74-49dc-835d-4c2f2731e24c","system_id":"levelo_inurba_marseille","lat":43.303046,"lon":5.368981,"is_reserved":false,"is_disabled":false,"rental_uris":{"android":"levelo://app?vid=042fe454-2b74-49dc-835d-4c2f2731e24c","ios":"levelo://app?vid=042fe454-2b74-49dc-835d-4c2f2731e24c"},"vehicle_type_id":"4","last_reported":1709593657,"current_range_meters":26000,"station_id":"ce4bgqh2rcd13ifvqc5g","pricing_plan_id":"cebpf4jnsgd1na2vs0mg"},{"bike_id":"fb116dbb-9ec7-413f-9dd7-33f18722cb57","system_id":"levelo_inurba_marseille","lat":43.315289,"lon":5.380349,"is_reserved":false,"is_disabled":false,"rental_uris":{"android":"levelo://app?vid=fb116dbb-9ec7-413f-9dd7-33f18722cb57","ios":"levelo://app?vid=fb116dbb-9ec7-413f-9dd7-33f18722cb57"},"vehicle_type_id":"4","last_reported":1709593657,"current_range_meters":29600,"station_id":"ce4bhsp2rcd13ifvqi50","pricing_plan_id":"cebpf4jnsgd1na2vs0mg"},{"bike_id":"e99ff4a2-2bac-46bc-af7f-d99e5547fc4f","system_id":"levelo_inurba_marseille","lat":43.315292,"lon":5.38034,"is_reserved":false,"is_disabled":false,"rental_uris":{"android":"levelo://app?vid=e99ff4a2-2bac-46bc-af7f-d99e5547fc4f","ios":"levelo://app?vid=e99ff4a2-2bac-46bc-af7f-d99e5547fc4f"},"vehicle_type_id":"4","last_reported":1709593657,"current_range_meters":8400,"station_id":"ce4bhsp2rcd13ifvqi50","pricing_plan_id":"cebpf4jnsgd1na2vs0mg"},{"bike_id":"741feb25-dd3a-4940-b820-a2e59f8a520a","system_id":"levelo_inurba_marseille","lat":43.315289,"lon":5.380349,"is_reserved":false,"is_disabled":false,"rental_uris":{"android":"levelo://app?vid=741feb25-dd3a-4940-b820-a2e59f8a520a","ios":"levelo://app?vid=741feb25-dd3a-4940-b820-a2e59f8a520a"},"vehicle_type_id":"4","last_reported":1709593657,"current_range_meters":8000,"station_id":"ce4bhsp2rcd13ifvqi50","pricing_plan_id":"cebpf4jnsgd1na2vs0mg"},{"bike_id":"48ecacc2-30d3-43b1-8a2f-0b4f1010bb9c","system_id":"levelo_inurba_marseille","lat":43.315293,"lon":5.380349,"is_reserved":false,"is_disabled":false,"rental_uris":{"android":"levelo://app?vid=48ecacc2-30d3-43b1-8a2f-0b4f1010bb9c","ios":"levelo://app?vid=48ecacc2-30d3-43b1-8a2f-0b4f1010bb9c"},"vehicle_type_id":"4","last_reported":1709593657,"current_range_meters":31600,"station_id":"ce4bhsp2rcd13ifvqi50","pricing_plan_id":"cebpf4jnsgd1na2vs0mg"},{"bike_id":"b653551a-3e7f-43ef-a6b8-f82bed62223d","system_id":"levelo_inurba_marseille","lat":43.315289,"lon":5.380349,"is_reserved":false,"is_disabled":false,"rental_uris":{"android":"levelo://app?vid=b653551a-3e7f-43ef-a6b8-f82bed62223d","ios":"levelo://app?vid=b653551a-3e7f-43ef-a6b8-f82bed62223d"},"vehicle_type_id":"4","last_reported":1709593657,"current_range_meters":14400,"station_id":"ce4bhsp2rcd13ifvqi50","pricing_plan_id":"cebpf4jnsgd1na2vs0mg"},{"bike_id":"6010857a-948d-47f7-8883-ab1cc8481593","system_id":"levelo_inurba_marseille","lat":43.315293,"lon":5.380349,"is_reserved":false,"is_disabled":false,"rental_uris":{"android":"levelo://app?vid=6010857a-948d-47f7-8883-ab1cc8481593","ios":"levelo://app?vid=6010857a-948d-47f7-8883-ab1cc8481593"},"vehicle_type_id":"4","last_reported":1709593657,"current_range_meters":18400,"station_id":"ce4bhsp2rcd13ifvqi50","pricing_plan_id":"cebpf4jnsgd1na2vs0mg"},{"bike_id":"c32625b6-ab5c-4682-9e0a-cad275750e56","system_id":"levelo_inurba_marseille","lat":43.315293,"lon":5.380349,"is_reserved":false,"is_disabled":false,"rental_uris":{"android":"levelo://app?vid=c32625b6-ab5c-4682-9e0a-cad275750e56","ios":"levelo://app?vid=c32625b6-ab5c-4682-9e0a-cad275750e56"},"vehicle_type_id":"4","last_reported":1709593657,"current_range_meters":5600,"station_id":"ce4bhsp2rcd13ifvqi50","pricing_plan_id":"cebpf4jnsgd1na2vs0mg"},{"bike_id":"796f9807-e383-4696-bbbd-441d976e8ebe","system_id":"levelo_inurba_marseille","lat":43.301939,"lon":5.366286,"is_reserved":false,"is_disabled":false,"rental_uris":{"android":"levelo://app?vid=796f9807-e383-4696-bbbd-441d976e8ebe","ios":"levelo://app?vid=796f9807-e383-4696-bbbd-441d976e8ebe"},"vehicle_type_id":"4","last_reported":1709593657,"current_range_meters":13200,"station_id":"ce4bgrh2rcd13ifvqc8g","pricing_plan_id":"cebpf4jnsgd1na2vs0mg"},{"bike_id":"7ae669a3-6d9d-4ff3-a81b-a8df1dbf72af","system_id":"levelo_inurba_marseille","lat":43.301939,"lon":5.366286,"is_reserved":false,"is_disabled":false,"rental_uris":{"android":"levelo://app?vid=7ae669a3-6d9d-4ff3-a81b-a8df1dbf72af","ios":"levelo://app?vid=7ae669a3-6d9d-4ff3-a81b-a8df1dbf72af"},"vehicle_type_id":"4","last_reported":1709593657,"current_range_meters":2000,"station_id":"ce4bgrh2rcd13ifvqc8g","pricing_plan_id":"cebpf4jnsgd1na2vs0mg"},{"bike_id":"8894dca6-068d-4708-a75c-ac58d2d3349a","system_id":"levelo_inurba_marseille","lat":43.301939,"lon":5.366286,"is_reserved":false,"is_disabled":false,"rental_uris":{"android":"levelo://app?vid=8894dca6-068d-4708-a75c-ac58d2d3349a","ios":"levelo://app?vid=8894dca6-068d-4708-a75c-ac58d2d3349a"},"vehicle_type_id":"4","last_reported":1709593657,"current_range_meters":27600,"station_id":"ce4bgrh2rcd13ifvqc8g","pricing_plan_id":"cebpf4jnsgd1na2vs0mg"},{"bike_id":"8445949b-4371-4e9f-87de-0ef4a83730b7","system_id":"levelo_inurba_marseille","lat":43.308114,"lon":5.381471,"is_reserved":false,"is_disabled":false,"rental_uris":{"android":"levelo://app?vid=8445949b-4371-4e9f-87de-0ef4a83730b7","ios":"levelo://app?vid=8445949b-4371-4e9f-87de-0ef4a83730b7"},"vehicle_type_id":"4","last_reported":1709593657,"current_range_meters":3600,"station_id":"ce4bgt12rcd13ifvqce0","pricing_plan_id":"cebpf4jnsgd1na2vs0mg"},{"bike_id":"aa41c5e1-3bfd-44bc-9c72-c39a58a53bf4","system_id":"levelo_inurba_marseille","lat":43.308012,"lon":5.381511,"is_reserved":false,"is_disabled":false,"rental_uris":{"android":"levelo://app?vid=aa41c5e1-3bfd-44bc-9c72-c39a58a53bf4","ios":"levelo://app?vid=aa41c5e1-3bfd-44bc-9c72-c39a58a53bf4"},"vehicle_type_id":"4","last_reported":1709593657,"current_range_meters":0,"station_id":"ce4bgt12rcd13ifvqce0","pricing_plan_id":"cebpf4jnsgd1na2vs0mg"},{"bike_id":"4aeab3ee-3c83-4f37-8f8f-18ceb8ec494b","system_id":"levelo_inurba_marseille","lat":43.308012,"lon":5.381511,"is_reserved":false,"is_disabled":false,"rental_uris":{"android":"levelo://app?vid=4aeab3ee-3c83-4f37-8f8f-18ceb8ec494b","ios":"levelo://app?vid=4aeab3ee-3c83-4f37-8f8f-18ceb8ec494b"},"vehicle_type_id":"4","last_reported":1709593657,"current_range_meters":20400,"station_id":"ce4bgt12rcd13ifvqce0","pricing_plan_id":"cebpf4jnsgd1na2vs0mg"},{"bike_id":"f24269b0-765f-4966-a007-7ab3a56ed073","system_id":"levelo_inurba_marseille","lat":43.308012,"lon":5.381511,"is_reserved":false,"is_disabled":false,"rental_uris":{"android":"levelo://app?vid=f24269b0-765f-4966-a007-7ab3a56ed073","ios":"levelo://app?vid=f24269b0-765f-4966-a007-7ab3a56ed073"},"vehicle_type_id":"4","last_reported":1709593657,"current_range_meters":12000,"station_id":"ce4bgt12rcd13ifvqce0","pricing_plan_id":"cebpf4jnsgd1na2vs0mg"},{"bike_id":"517a45cc-ae00-4f63-a72e-0ff20a7abf6c","system_id":"levelo_inurba_marseille","lat":43.308012,"lon":5.381511,"is_reserved":false,"is_disabled":false,"rental_uris":{"android":"levelo://app?vid=517a45cc-ae00-4f63-a72e-0ff20a7abf6c","ios":"levelo://app?vid=517a45cc-ae00-4f63-a72e-0ff20a7abf6c"},"vehicle_type_id":"4","last_reported":1709593657,"current_range_meters":32000,"station_id":"ce4bgt12rcd13ifvqce0","pricing_plan_id":"cebpf4jnsgd1na2vs0mg"},{"bike_id":"5a54d805-0e23-4650-8abc-3b9627263cbd","system_id":"levelo_inurba_marseille","lat":43.308012,"lon":5.381511,"is_reserved":false,"is_disabled":false,"rental_uris":{"android":"levelo://app?vid=5a54d805-0e23-4650-8abc-3b9627263cbd","ios":"levelo://app?vid=5a54d805-0e23-4650-8abc-3b9627263cbd"},"vehicle_type_id":"4","last_reported":1709593657,"current_range_meters":8000,"station_id":"ce4bgt12rcd13ifvqce0","pricing_plan_id":"cebpf4jnsgd1na2vs0mg"},{"bike_id":"4e56a443-c7b1-4271-8414-ff7346870ce3","system_id":"levelo_inurba_marseille","lat":43.308012,"lon":5.381511,"is_reserved":false,"is_disabled":false,"rental_uris":{"android":"levelo://app?vid=4e56a443-c7b1-4271-8414-ff7346870ce3","ios":"levelo://app?vid=4e56a443-c7b1-4271-8414-ff7346870ce3"},"vehicle_type_id":"4","last_reported":1709593657,"current_range_meters":11600,"station_id":"ce4bgt12rcd13ifvqce0","pricing_plan_id":"cebpf4jnsgd1na2vs0mg"},{"bike_id":"cdb6baae-60fc-42bd-a5af-ef8c3ec26cbc","system_id":"levelo_inurba_marseille","lat":43.308012,"lon":5.381511,"is_reserved":false,"is_disabled":false,"rental_uris":{"android":"levelo://app?vid=cdb6baae-60fc-42bd-a5af-ef8c3ec26cbc","ios":"levelo://app?vid=cdb6baae-60fc-42bd-a5af-ef8c3ec26cbc"},"vehicle_type_id":"4","last_reported":1709593657,"current_range_meters":18800,"station_id":"ce4bgt12rcd13ifvqce0","pricing_plan_id":"cebpf4jnsgd1na2vs0mg"},{"bike_id":"193aafa9-cc72-48bd-b629-67fc78c58f20","system_id":"levelo_inurba_marseille","lat":43.308012,"lon":5.381511,"is_reserved":false,"is_disabled":false,"rental_uris":{"android":"levelo://app?vid=193aafa9-cc72-48bd-b629-67fc78c58f20","ios":"levelo://app?vid=193aafa9-cc72-48bd-b629-67fc78c58f20"},"vehicle_type_id":"4","last_reported":1709593657,"current_range_meters":21600,"station_id":"ce4bgt12rcd13ifvqce0","pricing_plan_id":"cebpf4jnsgd1na2vs0mg"},{"bike_id":"92f85968-9c64-4d17-805c-02275a027689","system_id":"levelo_inurba_marseille","lat":43.308012,"lon":5.381511,"is_reserved":false,"is_disabled":false,"rental_uris":{"android":"levelo://app?vid=92f85968-9c64-4d17-805c-02275a027689","ios":"levelo://app?vid=92f85968-9c64-4d17-805c-02275a027689"},"vehicle_type_id":"4","last_reported":1709593657,"current_range_meters":5600,"station_id":"ce4bgt12rcd13ifvqce0","pricing_plan_id":"cebpf4jnsgd1na2vs0mg"},{"bike_id":"1b059764-63cd-4568-b7cc-cd1938a84e65","system_id":"levelo_inurba_marseille","lat":43.324771,"lon":5.36557,"is_reserved":false,"is_disabled":false,"rental_uris":{"android":"levelo://app?vid=1b059764-63cd-4568-b7cc-cd1938a84e65","ios":"levelo://app?vid=1b059764-63cd-4568-b7cc-cd1938a84e65"},"vehicle_type_id":"4","last_reported":1709593657,"current_range_meters":10400,"station_id":"ce4bhs12rcd13ifvqhvg","pricing_plan_id":"cebpf4jnsgd1na2vs0mg"},{"bike_id":"77a79aca-bd8c-4e93-aa90-ffe422f75c29","system_id":"levelo_inurba_marseille","lat":43.324771,"lon":5.36557,"is_reserved":false,"is_disabled":false,"rental_uris":{"android":"levelo://app?vid=77a79aca-bd8c-4e93-aa90-ffe422f75c29","ios":"levelo://app?vid=77a79aca-bd8c-4e93-aa90-ffe422f75c29"},"vehicle_type_id":"4","last_reported":1709593657,"current_range_meters":6400,"station_id":"ce4bhs12rcd13ifvqhvg","pricing_plan_id":"cebpf4jnsgd1na2vs0mg"},{"bike_id":"09171ad4-c046-4a6a-b254-7a86b183ba2b","system_id":"levelo_inurba_marseille","lat":43.324771,"lon":5.36557,"is_reserved":false,"is_disabled":false,"rental_uris":{"android":"levelo://app?vid=09171ad4-c046-4a6a-b254-7a86b183ba2b","ios":"levelo://app?vid=09171ad4-c046-4a6a-b254-7a86b183ba2b"},"vehicle_type_id":"4","last_reported":1709593657,"current_range_meters":21200,"station_id":"ce4bhs12rcd13ifvqhvg","pricing_plan_id":"cebpf4jnsgd1na2vs0mg"},{"bike_id":"5883364f-a61e-440b-a38e-98d53a54b721","system_id":"levelo_inurba_marseille","lat":43.324771,"lon":5.36557,"is_reserved":false,"is_disabled":false,"rental_uris":{"android":"levelo://app?vid=5883364f-a61e-440b-a38e-98d53a54b721","ios":"levelo://app?vid=5883364f-a61e-440b-a38e-98d53a54b721"},"vehicle_type_id":"4","last_reported":1709593657,"current_range_meters":7600,"station_id":"ce4bhs12rcd13ifvqhvg","pricing_plan_id":"cebpf4jnsgd1na2vs0mg"},{"bike_id":"9b7cfd94-0a0d-4d74-a7e4-655c53c10423","system_id":"levelo_inurba_marseille","lat":43.324771,"lon":5.36557,"is_reserved":false,"is_disabled":false,"rental_uris":{"android":"levelo://app?vid=9b7cfd94-0a0d-4d74-a7e4-655c53c10423","ios":"levelo://app?vid=9b7cfd94-0a0d-4d74-a7e4-655c53c10423"},"vehicle_type_id":"4","last_reported":1709593657,"current_range_meters":10800,"station_id":"ce4bhs12rcd13ifvqhvg","pricing_plan_id":"cebpf4jnsgd1na2vs0mg"},{"bike_id":"4a38f246-f20a-4229-b3a7-98d233c4b71b","system_id":"levelo_inurba_marseille","lat":43.324771,"lon":5.36557,"is_reserved":false,"is_disabled":false,"rental_uris":{"android":"levelo://app?vid=4a38f246-f20a-4229-b3a7-98d233c4b71b","ios":"levelo://app?vid=4a38f246-f20a-4229-b3a7-98d233c4b71b"},"vehicle_type_id":"4","last_reported":1709593657,"current_range_meters":1600,"station_id":"ce4bhs12rcd13ifvqhvg","pricing_plan_id":"cebpf4jnsgd1na2vs0mg"},{"bike_id":"330c1d30-61ac-4dce-bda5-64eaf2fa22cb","system_id":"levelo_inurba_marseille","lat":43.324771,"lon":5.36557,"is_reserved":false,"is_disabled":false,"rental_uris":{"android":"levelo://app?vid=330c1d30-61ac-4dce-bda5-64eaf2fa22cb","ios":"levelo://app?vid=330c1d30-61ac-4dce-bda5-64eaf2fa22cb"},"vehicle_type_id":"4","last_reported":1709593657,"current_range_meters":8000,"station_id":"ce4bhs12rcd13ifvqhvg","pricing_plan_id":"cebpf4jnsgd1na2vs0mg"},{"bike_id":"0fde1c2f-7058-4cde-a568-520de38a3413","system_id":"levelo_inurba_marseille","lat":43.324771,"lon":5.36557,"is_reserved":false,"is_disabled":false,"rental_uris":{"android":"levelo://app?vid=0fde1c2f-7058-4cde-a568-520de38a3413","ios":"levelo://app?vid=0fde1c2f-7058-4cde-a568-520de38a3413"},"vehicle_type_id":"4","last_reported":1709593657,"current_range_meters":11600,"station_id":"ce4bhs12rcd13ifvqhvg","pricing_plan_id":"cebpf4jnsgd1na2vs0mg"},{"bike_id":"ebc8f392-892e-4642-b6ff-761d7a410b07","system_id":"levelo_inurba_marseille","lat":43.324807,"lon":5.3656,"is_reserved":false,"is_disabled":false,"rental_uris":{"android":"levelo://app?vid=ebc8f392-892e-4642-b6ff-761d7a410b07","ios":"levelo://app?vid=ebc8f392-892e-4642-b6ff-761d7a410b07"},"vehicle_type_id":"4","last_reported":1709593657,"current_range_meters":5200,"station_id":"ce4bhs12rcd13ifvqhvg","pricing_plan_id":"cebpf4jnsgd1na2vs0mg"},{"bike_id":"63c3265d-4eef-4eb2-b7b8-9c59069bbfea","system_id":"levelo_inurba_marseille","lat":43.324771,"lon":5.36557,"is_reserved":false,"is_disabled":false,"rental_uris":{"android":"levelo://app?vid=63c3265d-4eef-4eb2-b7b8-9c59069bbfea","ios":"levelo://app?vid=63c3265d-4eef-4eb2-b7b8-9c59069bbfea"},"vehicle_type_id":"4","last_reported":1709593657,"current_range_meters":16400,"station_id":"ce4bhs12rcd13ifvqhvg","pricing_plan_id":"cebpf4jnsgd1na2vs0mg"},{"bike_id":"82ed7681-ca60-471a-b7ad-f5addd19281a","system_id":"levelo_inurba_marseille","lat":43.324771,"lon":5.36557,"is_reserved":false,"is_disabled":false,"rental_uris":{"android":"levelo://app?vid=82ed7681-ca60-471a-b7ad-f5addd19281a","ios":"levelo://app?vid=82ed7681-ca60-471a-b7ad-f5addd19281a"},"vehicle_type_id":"4","last_reported":1709593657,"current_range_meters":12400,"station_id":"ce4bhs12rcd13ifvqhvg","pricing_plan_id":"cebpf4jnsgd1na2vs0mg"},{"bike_id":"dc1334bd-723b-4f47-bb2f-97619ac70217","system_id":"levelo_inurba_marseille","lat":43.324831,"lon":5.365771,"is_reserved":false,"is_disabled":false,"rental_uris":{"android":"levelo://app?vid=dc1334bd-723b-4f47-bb2f-97619ac70217","ios":"levelo://app?vid=dc1334bd-723b-4f47-bb2f-97619ac70217"},"vehicle_type_id":"4","last_reported":1709593657,"current_range_meters":1200,"station_id":"ce4bhs12rcd13ifvqhvg","pricing_plan_id":"cebpf4jnsgd1na2vs0mg"},{"bike_id":"d1e321b4-6ad2-42ba-9204-09b8f197e1e9","system_id":"levelo_inurba_marseille","lat":43.324771,"lon":5.36557,"is_reserved":false,"is_disabled":false,"rental_uris":{"android":"levelo://app?vid=d1e321b4-6ad2-42ba-9204-09b8f197e1e9","ios":"levelo://app?vid=d1e321b4-6ad2-42ba-9204-09b8f197e1e9"},"vehicle_type_id":"4","last_reported":1709593657,"current_range_meters":5600,"station_id":"ce4bhs12rcd13ifvqhvg","pricing_plan_id":"cebpf4jnsgd1na2vs0mg"},{"bike_id":"57603526-7a1b-4bdd-b732-1cb0d818d3fe","system_id":"levelo_inurba_marseille","lat":43.324771,"lon":5.36557,"is_reserved":false,"is_disabled":false,"rental_uris":{"android":"levelo://app?vid=57603526-7a1b-4bdd-b732-1cb0d818d3fe","ios":"levelo://app?vid=57603526-7a1b-4bdd-b732-1cb0d818d3fe"},"vehicle_type_id":"4","last_reported":1709593657,"current_range_meters":8800,"station_id":"ce4bhs12rcd13ifvqhvg","pricing_plan_id":"cebpf4jnsgd1na2vs0mg"},{"bike_id":"bb089a3b-9845-4b78-bdce-2ba8d005e314","system_id":"levelo_inurba_marseille","lat":43.32484,"lon":5.36563,"is_reserved":false,"is_disabled":false,"rental_uris":{"android":"levelo://app?vid=bb089a3b-9845-4b78-bdce-2ba8d005e314","ios":"levelo://app?vid=bb089a3b-9845-4b78-bdce-2ba8d005e314"},"vehicle_type_id":"4","last_reported":1709593657,"current_range_meters":12400,"station_id":"ce4bhs12rcd13ifvqhvg","pricing_plan_id":"cebpf4jnsgd1na2vs0mg"},{"bike_id":"b517cabf-1478-4807-875d-62cd36831bc9","system_id":"levelo_inurba_marseille","lat":43.324771,"lon":5.36557,"is_reserved":false,"is_disabled":false,"rental_uris":{"android":"levelo://app?vid=b517cabf-1478-4807-875d-62cd36831bc9","ios":"levelo://app?vid=b517cabf-1478-4807-875d-62cd36831bc9"},"vehicle_type_id":"4","last_reported":1709593657,"current_range_meters":17200,"station_id":"ce4bhs12rcd13ifvqhvg","pricing_plan_id":"cebpf4jnsgd1na2vs0mg"},{"bike_id":"5d3ece2b-8a81-4e83-9a62-78cb6984efed","system_id":"levelo_inurba_marseille","lat":43.32488,"lon":5.36561,"is_reserved":false,"is_disabled":false,"rental_uris":{"android":"levelo://app?vid=5d3ece2b-8a81-4e83-9a62-78cb6984efed","ios":"levelo://app?vid=5d3ece2b-8a81-4e83-9a62-78cb6984efed"},"vehicle_type_id":"4","last_reported":1709593657,"current_range_meters":0,"station_id":"ce4bhs12rcd13ifvqhvg","pricing_plan_id":"cebpf4jnsgd1na2vs0mg"},{"bike_id":"566882a6-5c45-4933-89ba-d3ec6f26612c","system_id":"levelo_inurba_marseille","lat":43.324771,"lon":5.36557,"is_reserved":false,"is_disabled":false,"rental_uris":{"android":"levelo://app?vid=566882a6-5c45-4933-89ba-d3ec6f26612c","ios":"levelo://app?vid=566882a6-5c45-4933-89ba-d3ec6f26612c"},"vehicle_type_id":"4","last_reported":1709593657,"current_range_meters":9600,"station_id":"ce4bhs12rcd13ifvqhvg","pricing_plan_id":"cebpf4jnsgd1na2vs0mg"},{"bike_id":"2c1b1deb-ce09-43e2-9310-1dcc52d9b600","system_id":"levelo_inurba_marseille","lat":43.324771,"lon":5.36557,"is_reserved":false,"is_disabled":false,"rental_uris":{"android":"levelo://app?vid=2c1b1deb-ce09-43e2-9310-1dcc52d9b600","ios":"levelo://app?vid=2c1b1deb-ce09-43e2-9310-1dcc52d9b600"},"vehicle_type_id":"4","last_reported":1709593657,"current_range_meters":14400,"station_id":"ce4bhs12rcd13ifvqhvg","pricing_plan_id":"cebpf4jnsgd1na2vs0mg"},{"bike_id":"7bcfb891-4033-4721-84bc-4291075674d1","system_id":"levelo_inurba_marseille","lat":43.324771,"lon":5.36557,"is_reserved":false,"is_disabled":false,"rental_uris":{"android":"levelo://app?vid=7bcfb891-4033-4721-84bc-4291075674d1","ios":"levelo://app?vid=7bcfb891-4033-4721-84bc-4291075674d1"},"vehicle_type_id":"4","last_reported":1709593657,"current_range_meters":11600,"station_id":"ce4bhs12rcd13ifvqhvg","pricing_plan_id":"cebpf4jnsgd1na2vs0mg"},{"bike_id":"76e22be2-3033-4586-8095-4e9ed9dad2b7","system_id":"levelo_inurba_marseille","lat":43.310804,"lon":5.38359,"is_reserved":false,"is_disabled":false,"rental_uris":{"android":"levelo://app?vid=76e22be2-3033-4586-8095-4e9ed9dad2b7","ios":"levelo://app?vid=76e22be2-3033-4586-8095-4e9ed9dad2b7"},"vehicle_type_id":"4","last_reported":1709593657,"current_range_meters":20400,"station_id":"ce4bgv92rcd13ifvqcr0","pricing_plan_id":"cebpf4jnsgd1na2vs0mg"},{"bike_id":"9ec3514f-ecab-40ff-9340-b8ecf252c95c","system_id":"levelo_inurba_marseille","lat":43.310804,"lon":5.38359,"is_reserved":false,"is_disabled":false,"rental_uris":{"android":"levelo://app?vid=9ec3514f-ecab-40ff-9340-b8ecf252c95c","ios":"levelo://app?vid=9ec3514f-ecab-40ff-9340-b8ecf252c95c"},"vehicle_type_id":"4","last_reported":1709593657,"current_range_meters":18000,"station_id":"ce4bgv92rcd13ifvqcr0","pricing_plan_id":"cebpf4jnsgd1na2vs0mg"},{"bike_id":"0eb5e81f-0d60-4024-9cbd-587b76d76205","system_id":"levelo_inurba_marseille","lat":43.310682,"lon":5.383544,"is_reserved":false,"is_disabled":false,"rental_uris":{"android":"levelo://app?vid=0eb5e81f-0d60-4024-9cbd-587b76d76205","ios":"levelo://app?vid=0eb5e81f-0d60-4024-9cbd-587b76d76205"},"vehicle_type_id":"4","last_reported":1709593657,"current_range_meters":400,"station_id":"ce4bgv92rcd13ifvqcr0","pricing_plan_id":"cebpf4jnsgd1na2vs0mg"},{"bike_id":"58f13cd2-1148-4200-b3eb-6d6eec917374","system_id":"levelo_inurba_marseille","lat":43.310804,"lon":5.38359,"is_reserved":false,"is_disabled":false,"rental_uris":{"android":"levelo://app?vid=58f13cd2-1148-4200-b3eb-6d6eec917374","ios":"levelo://app?vid=58f13cd2-1148-4200-b3eb-6d6eec917374"},"vehicle_type_id":"4","last_reported":1709593657,"current_range_meters":8000,"station_id":"ce4bgv92rcd13ifvqcr0","pricing_plan_id":"cebpf4jnsgd1na2vs0mg"},{"bike_id":"11dcc835-3168-4765-83e2-f072585a3137","system_id":"levelo_inurba_marseille","lat":43.310804,"lon":5.38359,"is_reserved":false,"is_disabled":false,"rental_uris":{"android":"levelo://app?vid=11dcc835-3168-4765-83e2-f072585a3137","ios":"levelo://app?vid=11dcc835-3168-4765-83e2-f072585a3137"},"vehicle_type_id":"4","last_reported":1709593657,"current_range_meters":8000,"station_id":"ce4bgv92rcd13ifvqcr0","pricing_plan_id":"cebpf4jnsgd1na2vs0mg"},{"bike_id":"1dae8cf9-c849-4214-995c-c3ddaf4be958","system_id":"levelo_inurba_marseille","lat":43.310804,"lon":5.38359,"is_reserved":false,"is_disabled":false,"rental_uris":{"android":"levelo://app?vid=1dae8cf9-c849-4214-995c-c3ddaf4be958","ios":"levelo://app?vid=1dae8cf9-c849-4214-995c-c3ddaf4be958"},"vehicle_type_id":"4","last_reported":1709593657,"current_range_meters":3200,"station_id":"ce4bgv92rcd13ifvqcr0","pricing_plan_id":"cebpf4jnsgd1na2vs0mg"},{"bike_id":"474b5cba-2f93-4a52-ba97-1da95287b3db","system_id":"levelo_inurba_marseille","lat":43.310743,"lon":5.383593,"is_reserved":false,"is_disabled":false,"rental_uris":{"android":"levelo://app?vid=474b5cba-2f93-4a52-ba97-1da95287b3db","ios":"levelo://app?vid=474b5cba-2f93-4a52-ba97-1da95287b3db"},"vehicle_type_id":"4","last_reported":1709593657,"current_range_meters":6800,"station_id":"ce4bgv92rcd13ifvqcr0","pricing_plan_id":"cebpf4jnsgd1na2vs0mg"},{"bike_id":"d96f9f68-b0ed-40fc-ba2c-c7fc3a2c4685","system_id":"levelo_inurba_marseille","lat":43.310729,"lon":5.383596,"is_reserved":false,"is_disabled":false,"rental_uris":{"android":"levelo://app?vid=d96f9f68-b0ed-40fc-ba2c-c7fc3a2c4685","ios":"levelo://app?vid=d96f9f68-b0ed-40fc-ba2c-c7fc3a2c4685"},"vehicle_type_id":"4","last_reported":1709593657,"current_range_meters":24400,"station_id":"ce4bgv92rcd13ifvqcr0","pricing_plan_id":"cebpf4jnsgd1na2vs0mg"},{"bike_id":"ff5fbc8b-1e80-482a-95ca-5dc176358c45","system_id":"levelo_inurba_marseille","lat":43.310731,"lon":5.383603,"is_reserved":false,"is_disabled":false,"rental_uris":{"android":"levelo://app?vid=ff5fbc8b-1e80-482a-95ca-5dc176358c45","ios":"levelo://app?vid=ff5fbc8b-1e80-482a-95ca-5dc176358c45"},"vehicle_type_id":"4","last_reported":1709593657,"current_range_meters":17200,"station_id":"ce4bgv92rcd13ifvqcr0","pricing_plan_id":"cebpf4jnsgd1na2vs0mg"},{"bike_id":"00a0c8b7-2b86-497b-8aac-a9e9a4df2734","system_id":"levelo_inurba_marseille","lat":43.310756,"lon":5.383614,"is_reserved":false,"is_disabled":false,"rental_uris":{"android":"levelo://app?vid=00a0c8b7-2b86-497b-8aac-a9e9a4df2734","ios":"levelo://app?vid=00a0c8b7-2b86-497b-8aac-a9e9a4df2734"},"vehicle_type_id":"4","last_reported":1709593657,"current_range_meters":19200,"station_id":"ce4bgv92rcd13ifvqcr0","pricing_plan_id":"cebpf4jnsgd1na2vs0mg"},{"bike_id":"3e85e31e-006f-41e9-b598-b3c3968490c4","system_id":"levelo_inurba_marseille","lat":43.310804,"lon":5.38359,"is_reserved":false,"is_disabled":false,"rental_uris":{"android":"levelo://app?vid=3e85e31e-006f-41e9-b598-b3c3968490c4","ios":"levelo://app?vid=3e85e31e-006f-41e9-b598-b3c3968490c4"},"vehicle_type_id":"4","last_reported":1709593657,"current_range_meters":20400,"station_id":"ce4bgv92rcd13ifvqcr0","pricing_plan_id":"cebpf4jnsgd1na2vs0mg"},{"bike_id":"ae99d063-6b34-45d3-9d56-d128263330d0","system_id":"levelo_inurba_marseille","lat":43.302784,"lon":5.377158,"is_reserved":false,"is_disabled":false,"rental_uris":{"android":"levelo://app?vid=ae99d063-6b34-45d3-9d56-d128263330d0","ios":"levelo://app?vid=ae99d063-6b34-45d3-9d56-d128263330d0"},"vehicle_type_id":"4","last_reported":1709593657,"current_range_meters":26000,"station_id":"ce4bguh2rcd13ifvqcj0","pricing_plan_id":"cebpf4jnsgd1na2vs0mg"},{"bike_id":"59b1d14d-c65f-4ab1-b826-fbacb330635b","system_id":"levelo_inurba_marseille","lat":43.310804,"lon":5.38359,"is_reserved":false,"is_disabled":false,"rental_uris":{"android":"levelo://app?vid=59b1d14d-c65f-4ab1-b826-fbacb330635b","ios":"levelo://app?vid=59b1d14d-c65f-4ab1-b826-fbacb330635b"},"vehicle_type_id":"4","last_reported":1709593657,"current_range_meters":3200,"station_id":"ce4bgv92rcd13ifvqcr0","pricing_plan_id":"cebpf4jnsgd1na2vs0mg"},{"bike_id":"221b3d2b-cea3-49cc-a951-da90935717a1","system_id":"levelo_inurba_marseille","lat":43.302784,"lon":5.377158,"is_reserved":false,"is_disabled":false,"rental_uris":{"android":"levelo://app?vid=221b3d2b-cea3-49cc-a951-da90935717a1","ios":"levelo://app?vid=221b3d2b-cea3-49cc-a951-da90935717a1"},"vehicle_type_id":"4","last_reported":1709593657,"current_range_meters":30800,"station_id":"ce4bguh2rcd13ifvqcj0","pricing_plan_id":"cebpf4jnsgd1na2vs0mg"},{"bike_id":"a3f6c0f9-f314-450b-918c-4bf762e3b4d0","system_id":"levelo_inurba_marseille","lat":43.30143,"lon":5.37413,"is_reserved":false,"is_disabled":false,"rental_uris":{"android":"levelo://app?vid=a3f6c0f9-f314-450b-918c-4bf762e3b4d0","ios":"levelo://app?vid=a3f6c0f9-f314-450b-918c-4bf762e3b4d0"},"vehicle_type_id":"4","last_reported":1709593657,"current_range_meters":800,"station_id":"ce4bgs92rcd13ifvqcc0","pricing_plan_id":"cebpf4jnsgd1na2vs0mg"},{"bike_id":"da78ba2b-6311-4407-abfc-1fec81e879a7","system_id":"levelo_inurba_marseille","lat":43.302784,"lon":5.377158,"is_reserved":false,"is_disabled":false,"rental_uris":{"android":"levelo://app?vid=da78ba2b-6311-4407-abfc-1fec81e879a7","ios":"levelo://app?vid=da78ba2b-6311-4407-abfc-1fec81e879a7"},"vehicle_type_id":"4","last_reported":1709593657,"current_range_meters":0,"station_id":"ce4bguh2rcd13ifvqcj0","pricing_plan_id":"cebpf4jnsgd1na2vs0mg"},{"bike_id":"c24be399-27e7-49b3-bc5c-d467cd286778","system_id":"levelo_inurba_marseille","lat":43.302784,"lon":5.377158,"is_reserved":false,"is_disabled":false,"rental_uris":{"android":"levelo://app?vid=c24be399-27e7-49b3-bc5c-d467cd286778","ios":"levelo://app?vid=c24be399-27e7-49b3-bc5c-d467cd286778"},"vehicle_type_id":"4","last_reported":1709593657,"current_range_meters":10000,"station_id":"ce4bguh2rcd13ifvqcj0","pricing_plan_id":"cebpf4jnsgd1na2vs0mg"},{"bike_id":"53b16f19-f36e-46f3-bcf2-b85888c3d20b","system_id":"levelo_inurba_marseille","lat":43.302784,"lon":5.377158,"is_reserved":false,"is_disabled":false,"rental_uris":{"android":"levelo://app?vid=53b16f19-f36e-46f3-bcf2-b85888c3d20b","ios":"levelo://app?vid=53b16f19-f36e-46f3-bcf2-b85888c3d20b"},"vehicle_type_id":"4","last_reported":1709593657,"current_range_meters":11600,"station_id":"ce4bguh2rcd13ifvqcj0","pricing_plan_id":"cebpf4jnsgd1na2vs0mg"},{"bike_id":"0c57bc0f-c686-45f6-8cd3-57bbd5bbfae1","system_id":"levelo_inurba_marseille","lat":43.319935,"lon":5.381699,"is_reserved":false,"is_disabled":false,"rental_uris":{"android":"levelo://app?vid=0c57bc0f-c686-45f6-8cd3-57bbd5bbfae1","ios":"levelo://app?vid=0c57bc0f-c686-45f6-8cd3-57bbd5bbfae1"},"vehicle_type_id":"4","last_reported":1709593657,"current_range_meters":14800,"station_id":"ce4bhr12rcd13ifvqhpg","pricing_plan_id":"cebpf4jnsgd1na2vs0mg"},{"bike_id":"4faf8d38-aa55-450e-a315-6328e3cce9e3","system_id":"levelo_inurba_marseille","lat":43.319935,"lon":5.381699,"is_reserved":false,"is_disabled":false,"rental_uris":{"android":"levelo://app?vid=4faf8d38-aa55-450e-a315-6328e3cce9e3","ios":"levelo://app?vid=4faf8d38-aa55-450e-a315-6328e3cce9e3"},"vehicle_type_id":"4","last_reported":1709593657,"current_range_meters":20400,"station_id":"ce4bhr12rcd13ifvqhpg","pricing_plan_id":"cebpf4jnsgd1na2vs0mg"},{"bike_id":"9c4a2d0f-a708-49ad-b4ec-cc7d0f6e7ffc","system_id":"levelo_inurba_marseille","lat":43.304606,"lon":5.379026,"is_reserved":false,"is_disabled":false,"rental_uris":{"android":"levelo://app?vid=9c4a2d0f-a708-49ad-b4ec-cc7d0f6e7ffc","ios":"levelo://app?vid=9c4a2d0f-a708-49ad-b4ec-cc7d0f6e7ffc"},"vehicle_type_id":"4","last_reported":1709593657,"current_range_meters":10400,"station_id":"ce4bgup2rcd13ifvqcn0","pricing_plan_id":"cebpf4jnsgd1na2vs0mg"},{"bike_id":"3381c3e7-3ed4-4728-b3ac-6f98c1557439","system_id":"levelo_inurba_marseille","lat":43.319935,"lon":5.381699,"is_reserved":false,"is_disabled":false,"rental_uris":{"android":"levelo://app?vid=3381c3e7-3ed4-4728-b3ac-6f98c1557439","ios":"levelo://app?vid=3381c3e7-3ed4-4728-b3ac-6f98c1557439"},"vehicle_type_id":"4","last_reported":1709593657,"current_range_meters":8000,"station_id":"ce4bhr12rcd13ifvqhpg","pricing_plan_id":"cebpf4jnsgd1na2vs0mg"},{"bike_id":"8657df2a-d1d1-4559-aec1-21bc6e0c89d6","system_id":"levelo_inurba_marseille","lat":43.319935,"lon":5.381699,"is_reserved":false,"is_disabled":false,"rental_uris":{"android":"levelo://app?vid=8657df2a-d1d1-4559-aec1-21bc6e0c89d6","ios":"levelo://app?vid=8657df2a-d1d1-4559-aec1-21bc6e0c89d6"},"vehicle_type_id":"4","last_reported":1709593657,"current_range_meters":12000,"station_id":"ce4bhr12rcd13ifvqhpg","pricing_plan_id":"cebpf4jnsgd1na2vs0mg"},{"bike_id":"32273df4-185e-4d44-8cf1-707fc2f049cb","system_id":"levelo_inurba_marseille","lat":43.319935,"lon":5.381699,"is_reserved":false,"is_disabled":false,"rental_uris":{"android":"levelo://app?vid=32273df4-185e-4d44-8cf1-707fc2f049cb","ios":"levelo://app?vid=32273df4-185e-4d44-8cf1-707fc2f049cb"},"vehicle_type_id":"4","last_reported":1709593657,"current_range_meters":10400,"station_id":"ce4bhr12rcd13ifvqhpg","pricing_plan_id":"cebpf4jnsgd1na2vs0mg"},{"bike_id":"6c09d3ea-b776-450e-87f2-204ce550b54e","system_id":"levelo_inurba_marseille","lat":43.319935,"lon":5.381699,"is_reserved":false,"is_disabled":false,"rental_uris":{"android":"levelo://app?vid=6c09d3ea-b776-450e-87f2-204ce550b54e","ios":"levelo://app?vid=6c09d3ea-b776-450e-87f2-204ce550b54e"},"vehicle_type_id":"4","last_reported":1709593657,"current_range_meters":30000,"station_id":"ce4bhr12rcd13ifvqhpg","pricing_plan_id":"cebpf4jnsgd1na2vs0mg"},{"bike_id":"95438a36-9559-49e1-8a62-805672944756","system_id":"levelo_inurba_marseille","lat":43.313571,"lon":5.384829,"is_reserved":false,"is_disabled":false,"rental_uris":{"android":"levelo://app?vid=95438a36-9559-49e1-8a62-805672944756","ios":"levelo://app?vid=95438a36-9559-49e1-8a62-805672944756"},"vehicle_type_id":"4","last_reported":1709593657,"current_range_meters":24400,"station_id":"ce4bgt92rcd13ifvqcf0","pricing_plan_id":"cebpf4jnsgd1na2vs0mg"},{"bike_id":"4f4737bf-b235-4c51-ba25-9c7339e505e3","system_id":"levelo_inurba_marseille","lat":43.31365,"lon":5.38497,"is_reserved":false,"is_disabled":false,"rental_uris":{"android":"levelo://app?vid=4f4737bf-b235-4c51-ba25-9c7339e505e3","ios":"levelo://app?vid=4f4737bf-b235-4c51-ba25-9c7339e505e3"},"vehicle_type_id":"4","last_reported":1709593657,"current_range_meters":7600,"station_id":"ce4bgt92rcd13ifvqcf0","pricing_plan_id":"cebpf4jnsgd1na2vs0mg"},{"bike_id":"5442234b-a09b-4545-a42a-d43ffa70920f","system_id":"levelo_inurba_marseille","lat":43.31359,"lon":5.38506,"is_reserved":false,"is_disabled":false,"rental_uris":{"android":"levelo://app?vid=5442234b-a09b-4545-a42a-d43ffa70920f","ios":"levelo://app?vid=5442234b-a09b-4545-a42a-d43ffa70920f"},"vehicle_type_id":"4","last_reported":1709593657,"current_range_meters":0,"station_id":"ce4bgt92rcd13ifvqcf0","pricing_plan_id":"cebpf4jnsgd1na2vs0mg"},{"bike_id":"e8784999-1817-4dad-98f7-291999df2280","system_id":"levelo_inurba_marseille","lat":43.299904,"lon":5.371823,"is_reserved":false,"is_disabled":false,"rental_uris":{"android":"levelo://app?vid=e8784999-1817-4dad-98f7-291999df2280","ios":"levelo://app?vid=e8784999-1817-4dad-98f7-291999df2280"},"vehicle_type_id":"4","last_reported":1709593657,"current_range_meters":25600,"station_id":"ce4bgr92rcd13ifvqc7g","pricing_plan_id":"cebpf4jnsgd1na2vs0mg"},{"bike_id":"a9284a0e-b4bc-45e5-96ac-819219c4092b","system_id":"levelo_inurba_marseille","lat":43.299222,"lon":5.365554,"is_reserved":false,"is_disabled":false,"rental_uris":{"android":"levelo://app?vid=a9284a0e-b4bc-45e5-96ac-819219c4092b","ios":"levelo://app?vid=a9284a0e-b4bc-45e5-96ac-819219c4092b"},"vehicle_type_id":"4","last_reported":1709593657,"current_range_meters":15600,"station_id":"ce4bgm92rcd13ifvqbr0","pricing_plan_id":"cebpf4jnsgd1na2vs0mg"},{"bike_id":"36c9265e-f5aa-4713-b8d3-7c39a29d6c1f","system_id":"levelo_inurba_marseille","lat":43.299222,"lon":5.365554,"is_reserved":false,"is_disabled":false,"rental_uris":{"android":"levelo://app?vid=36c9265e-f5aa-4713-b8d3-7c39a29d6c1f","ios":"levelo://app?vid=36c9265e-f5aa-4713-b8d3-7c39a29d6c1f"},"vehicle_type_id":"4","last_reported":1709593657,"current_range_meters":23200,"station_id":"ce4bgm92rcd13ifvqbr0","pricing_plan_id":"cebpf4jnsgd1na2vs0mg"},{"bike_id":"dba0c4bf-2a52-4fc8-aec1-114362676c29","system_id":"levelo_inurba_marseille","lat":43.299209,"lon":5.365547,"is_reserved":false,"is_disabled":false,"rental_uris":{"android":"levelo://app?vid=dba0c4bf-2a52-4fc8-aec1-114362676c29","ios":"levelo://app?vid=dba0c4bf-2a52-4fc8-aec1-114362676c29"},"vehicle_type_id":"4","last_reported":1709593657,"current_range_meters":22400,"station_id":"ce4bgm92rcd13ifvqbr0","pricing_plan_id":"cebpf4jnsgd1na2vs0mg"},{"bike_id":"785f6378-8690-4294-aec4-1063b69fe351","system_id":"levelo_inurba_marseille","lat":43.299209,"lon":5.365547,"is_reserved":false,"is_disabled":false,"rental_uris":{"android":"levelo://app?vid=785f6378-8690-4294-aec4-1063b69fe351","ios":"levelo://app?vid=785f6378-8690-4294-aec4-1063b69fe351"},"vehicle_type_id":"4","last_reported":1709593657,"current_range_meters":3600,"station_id":"ce4bgm92rcd13ifvqbr0","pricing_plan_id":"cebpf4jnsgd1na2vs0mg"},{"bike_id":"de715efc-c6f1-479b-a104-1d1f95f13ed1","system_id":"levelo_inurba_marseille","lat":43.299209,"lon":5.365547,"is_reserved":false,"is_disabled":false,"rental_uris":{"android":"levelo://app?vid=de715efc-c6f1-479b-a104-1d1f95f13ed1","ios":"levelo://app?vid=de715efc-c6f1-479b-a104-1d1f95f13ed1"},"vehicle_type_id":"4","last_reported":1709593657,"current_range_meters":8000,"station_id":"ce4bgm92rcd13ifvqbr0","pricing_plan_id":"cebpf4jnsgd1na2vs0mg"},{"bike_id":"8bee4fb1-e89d-40ba-80d7-6cf6a2a7131a","system_id":"levelo_inurba_marseille","lat":43.29856,"lon":5.36287,"is_reserved":false,"is_disabled":false,"rental_uris":{"android":"levelo://app?vid=8bee4fb1-e89d-40ba-80d7-6cf6a2a7131a","ios":"levelo://app?vid=8bee4fb1-e89d-40ba-80d7-6cf6a2a7131a"},"vehicle_type_id":"4","last_reported":1709593657,"current_range_meters":17200,"station_id":"ce4bgpp2rcd13ifvqc3g","pricing_plan_id":"cebpf4jnsgd1na2vs0mg"},{"bike_id":"ab22a54e-516f-4ad5-bc4f-e7cbf6e7951f","system_id":"levelo_inurba_marseille","lat":43.29855,"lon":5.362844,"is_reserved":false,"is_disabled":false,"rental_uris":{"android":"levelo://app?vid=ab22a54e-516f-4ad5-bc4f-e7cbf6e7951f","ios":"levelo://app?vid=ab22a54e-516f-4ad5-bc4f-e7cbf6e7951f"},"vehicle_type_id":"4","last_reported":1709593657,"current_range_meters":27600,"station_id":"ce4bgpp2rcd13ifvqc3g","pricing_plan_id":"cebpf4jnsgd1na2vs0mg"},{"bike_id":"6b3102c9-ab5a-4142-beab-66bb2d0d309c","system_id":"levelo_inurba_marseille","lat":43.298433,"lon":5.362774,"is_reserved":false,"is_disabled":false,"rental_uris":{"android":"levelo://app?vid=6b3102c9-ab5a-4142-beab-66bb2d0d309c","ios":"levelo://app?vid=6b3102c9-ab5a-4142-beab-66bb2d0d309c"},"vehicle_type_id":"4","last_reported":1709593657,"current_range_meters":13200,"station_id":"ce4bgpp2rcd13ifvqc3g","pricing_plan_id":"cebpf4jnsgd1na2vs0mg"},{"bike_id":"09323236-d0cc-4eb0-ad86-03027649af94","system_id":"levelo_inurba_marseille","lat":43.298433,"lon":5.362774,"is_reserved":false,"is_disabled":false,"rental_uris":{"android":"levelo://app?vid=09323236-d0cc-4eb0-ad86-03027649af94","ios":"levelo://app?vid=09323236-d0cc-4eb0-ad86-03027649af94"},"vehicle_type_id":"4","last_reported":1709593657,"current_range_meters":2400,"station_id":"ce4bgpp2rcd13ifvqc3g","pricing_plan_id":"cebpf4jnsgd1na2vs0mg"},{"bike_id":"6c64887c-9edc-4998-aedc-63db47511459","system_id":"levelo_inurba_marseille","lat":43.298433,"lon":5.362774,"is_reserved":false,"is_disabled":false,"rental_uris":{"android":"levelo://app?vid=6c64887c-9edc-4998-aedc-63db47511459","ios":"levelo://app?vid=6c64887c-9edc-4998-aedc-63db47511459"},"vehicle_type_id":"4","last_reported":1709593657,"current_range_meters":6400,"station_id":"ce4bgpp2rcd13ifvqc3g","pricing_plan_id":"cebpf4jnsgd1na2vs0mg"},{"bike_id":"ed04fe3d-78e8-4479-9c0b-7d2ce8019fb2","system_id":"levelo_inurba_marseille","lat":43.298536,"lon":5.362724,"is_reserved":false,"is_disabled":false,"rental_uris":{"android":"levelo://app?vid=ed04fe3d-78e8-4479-9c0b-7d2ce8019fb2","ios":"levelo://app?vid=ed04fe3d-78e8-4479-9c0b-7d2ce8019fb2"},"vehicle_type_id":"4","last_reported":1709593657,"current_range_meters":28000,"station_id":"ce4bgpp2rcd13ifvqc3g","pricing_plan_id":"cebpf4jnsgd1na2vs0mg"},{"bike_id":"411e4d5b-69d6-4220-b533-bd0435d4304e","system_id":"levelo_inurba_marseille","lat":43.298433,"lon":5.362774,"is_reserved":false,"is_disabled":false,"rental_uris":{"android":"levelo://app?vid=411e4d5b-69d6-4220-b533-bd0435d4304e","ios":"levelo://app?vid=411e4d5b-69d6-4220-b533-bd0435d4304e"},"vehicle_type_id":"4","last_reported":1709593657,"current_range_meters":24800,"station_id":"ce4bgpp2rcd13ifvqc3g","pricing_plan_id":"cebpf4jnsgd1na2vs0mg"},{"bike_id":"18917f5a-4d11-4e9e-9c7b-d81afe3de7f9","system_id":"levelo_inurba_marseille","lat":43.298433,"lon":5.362774,"is_reserved":false,"is_disabled":false,"rental_uris":{"android":"levelo://app?vid=18917f5a-4d11-4e9e-9c7b-d81afe3de7f9","ios":"levelo://app?vid=18917f5a-4d11-4e9e-9c7b-d81afe3de7f9"},"vehicle_type_id":"4","last_reported":1709593657,"current_range_meters":16000,"station_id":"ce4bgpp2rcd13ifvqc3g","pricing_plan_id":"cebpf4jnsgd1na2vs0mg"},{"bike_id":"230c5c6c-69fc-4cc7-b112-fc6b434ed815","system_id":"levelo_inurba_marseille","lat":43.2985,"lon":5.36285,"is_reserved":false,"is_disabled":false,"rental_uris":{"android":"levelo://app?vid=230c5c6c-69fc-4cc7-b112-fc6b434ed815","ios":"levelo://app?vid=230c5c6c-69fc-4cc7-b112-fc6b434ed815"},"vehicle_type_id":"4","last_reported":1709593657,"current_range_meters":16800,"station_id":"ce4bgpp2rcd13ifvqc3g","pricing_plan_id":"cebpf4jnsgd1na2vs0mg"},{"bike_id":"427153b5-e577-44d9-bbb2-c62722e42933","system_id":"levelo_inurba_marseille","lat":43.29849,"lon":5.36286,"is_reserved":false,"is_disabled":false,"rental_uris":{"android":"levelo://app?vid=427153b5-e577-44d9-bbb2-c62722e42933","ios":"levelo://app?vid=427153b5-e577-44d9-bbb2-c62722e42933"},"vehicle_type_id":"4","last_reported":1709593657,"current_range_meters":11200,"station_id":"ce4bgpp2rcd13ifvqc3g","pricing_plan_id":"cebpf4jnsgd1na2vs0mg"},{"bike_id":"53945259-a7ec-4859-b4ea-46ad0a96f35d","system_id":"levelo_inurba_marseille","lat":43.29848,"lon":5.36286,"is_reserved":false,"is_disabled":false,"rental_uris":{"android":"levelo://app?vid=53945259-a7ec-4859-b4ea-46ad0a96f35d","ios":"levelo://app?vid=53945259-a7ec-4859-b4ea-46ad0a96f35d"},"vehicle_type_id":"4","last_reported":1709593657,"current_range_meters":3200,"station_id":"ce4bgpp2rcd13ifvqc3g","pricing_plan_id":"cebpf4jnsgd1na2vs0mg"},{"bike_id":"5de1de6e-e9fb-4639-a5b9-e0c05827cdb3","system_id":"levelo_inurba_marseille","lat":43.305429,"lon":5.384323,"is_reserved":false,"is_disabled":false,"rental_uris":{"android":"levelo://app?vid=5de1de6e-e9fb-4639-a5b9-e0c05827cdb3","ios":"levelo://app?vid=5de1de6e-e9fb-4639-a5b9-e0c05827cdb3"},"vehicle_type_id":"4","last_reported":1709593657,"current_range_meters":25600,"station_id":"ce4bgg92rcd13ifvqb30","pricing_plan_id":"cebpf4jnsgd1na2vs0mg"},{"bike_id":"c1b377ac-6ec1-4d17-afae-5a5d160f3394","system_id":"levelo_inurba_marseille","lat":43.299243,"lon":5.37481,"is_reserved":false,"is_disabled":false,"rental_uris":{"android":"levelo://app?vid=c1b377ac-6ec1-4d17-afae-5a5d160f3394","ios":"levelo://app?vid=c1b377ac-6ec1-4d17-afae-5a5d160f3394"},"vehicle_type_id":"4","last_reported":1709593657,"current_range_meters":16400,"station_id":"ce4bgjh2rcd13ifvqbg0","pricing_plan_id":"cebpf4jnsgd1na2vs0mg"},{"bike_id":"fb4e363a-9d98-485e-8470-114e7bb65d4b","system_id":"levelo_inurba_marseille","lat":43.298433,"lon":5.362774,"is_reserved":false,"is_disabled":false,"rental_uris":{"android":"levelo://app?vid=fb4e363a-9d98-485e-8470-114e7bb65d4b","ios":"levelo://app?vid=fb4e363a-9d98-485e-8470-114e7bb65d4b"},"vehicle_type_id":"4","last_reported":1709593657,"current_range_meters":3200,"station_id":"ce4bgpp2rcd13ifvqc3g","pricing_plan_id":"cebpf4jnsgd1na2vs0mg"},{"bike_id":"b64894d8-2d92-4b73-824e-294cf5ac351a","system_id":"levelo_inurba_marseille","lat":43.305364,"lon":5.384119,"is_reserved":false,"is_disabled":false,"rental_uris":{"android":"levelo://app?vid=b64894d8-2d92-4b73-824e-294cf5ac351a","ios":"levelo://app?vid=b64894d8-2d92-4b73-824e-294cf5ac351a"},"vehicle_type_id":"4","last_reported":1709593657,"current_range_meters":8800,"station_id":"ce4bgg92rcd13ifvqb30","pricing_plan_id":"cebpf4jnsgd1na2vs0mg"},{"bike_id":"82a6504d-c1f4-486e-b8d1-8a9013473313","system_id":"levelo_inurba_marseille","lat":43.31182,"lon":5.38707,"is_reserved":false,"is_disabled":false,"rental_uris":{"android":"levelo://app?vid=82a6504d-c1f4-486e-b8d1-8a9013473313","ios":"levelo://app?vid=82a6504d-c1f4-486e-b8d1-8a9013473313"},"vehicle_type_id":"4","last_reported":1709593657,"current_range_meters":22800,"station_id":"ce4bgv12rcd13ifvqcp0","pricing_plan_id":"cebpf4jnsgd1na2vs0mg"},{"bike_id":"3927f6d2-22f2-482f-829f-ced49375b703","system_id":"levelo_inurba_marseille","lat":43.311722,"lon":5.387247,"is_reserved":false,"is_disabled":false,"rental_uris":{"android":"levelo://app?vid=3927f6d2-22f2-482f-829f-ced49375b703","ios":"levelo://app?vid=3927f6d2-22f2-482f-829f-ced49375b703"},"vehicle_type_id":"4","last_reported":1709593657,"current_range_meters":32000,"station_id":"ce4bgv12rcd13ifvqcp0","pricing_plan_id":"cebpf4jnsgd1na2vs0mg"},{"bike_id":"1893a063-4542-47bb-bc22-c9ff09d03e36","system_id":"levelo_inurba_marseille","lat":43.311722,"lon":5.387247,"is_reserved":false,"is_disabled":false,"rental_uris":{"android":"levelo://app?vid=1893a063-4542-47bb-bc22-c9ff09d03e36","ios":"levelo://app?vid=1893a063-4542-47bb-bc22-c9ff09d03e36"},"vehicle_type_id":"4","last_reported":1709593657,"current_range_meters":9200,"station_id":"ce4bgv12rcd13ifvqcp0","pricing_plan_id":"cebpf4jnsgd1na2vs0mg"},{"bike_id":"53822925-c8ad-47d4-95eb-4137b431a5b7","system_id":"levelo_inurba_marseille","lat":43.311722,"lon":5.387247,"is_reserved":false,"is_disabled":false,"rental_uris":{"android":"levelo://app?vid=53822925-c8ad-47d4-95eb-4137b431a5b7","ios":"levelo://app?vid=53822925-c8ad-47d4-95eb-4137b431a5b7"},"vehicle_type_id":"4","last_reported":1709593657,"current_range_meters":28800,"station_id":"ce4bgv12rcd13ifvqcp0","pricing_plan_id":"cebpf4jnsgd1na2vs0mg"},{"bike_id":"bec2c1c1-c8e4-4052-aa2e-5597d65bd8c7","system_id":"levelo_inurba_marseille","lat":43.31184,"lon":5.38713,"is_reserved":false,"is_disabled":false,"rental_uris":{"android":"levelo://app?vid=bec2c1c1-c8e4-4052-aa2e-5597d65bd8c7","ios":"levelo://app?vid=bec2c1c1-c8e4-4052-aa2e-5597d65bd8c7"},"vehicle_type_id":"4","last_reported":1709593657,"current_range_meters":23200,"station_id":"ce4bgv12rcd13ifvqcp0","pricing_plan_id":"cebpf4jnsgd1na2vs0mg"},{"bike_id":"66ef1af1-196a-4415-b0e9-a40a2b04461c","system_id":"levelo_inurba_marseille","lat":43.311863,"lon":5.387143,"is_reserved":false,"is_disabled":false,"rental_uris":{"android":"levelo://app?vid=66ef1af1-196a-4415-b0e9-a40a2b04461c","ios":"levelo://app?vid=66ef1af1-196a-4415-b0e9-a40a2b04461c"},"vehicle_type_id":"4","last_reported":1709593657,"current_range_meters":28000,"station_id":"ce4bgv12rcd13ifvqcp0","pricing_plan_id":"cebpf4jnsgd1na2vs0mg"},{"bike_id":"37ef35ab-8bc5-44cb-82b7-856215e43b31","system_id":"levelo_inurba_marseille","lat":43.299243,"lon":5.37481,"is_reserved":false,"is_disabled":false,"rental_uris":{"android":"levelo://app?vid=37ef35ab-8bc5-44cb-82b7-856215e43b31","ios":"levelo://app?vid=37ef35ab-8bc5-44cb-82b7-856215e43b31"},"vehicle_type_id":"4","last_reported":1709593657,"current_range_meters":16000,"station_id":"ce4bgjh2rcd13ifvqbg0","pricing_plan_id":"cebpf4jnsgd1na2vs0mg"},{"bike_id":"79a732c6-3445-48ca-96f7-c717b33d68d8","system_id":"levelo_inurba_marseille","lat":43.311722,"lon":5.387247,"is_reserved":false,"is_disabled":false,"rental_uris":{"android":"levelo://app?vid=79a732c6-3445-48ca-96f7-c717b33d68d8","ios":"levelo://app?vid=79a732c6-3445-48ca-96f7-c717b33d68d8"},"vehicle_type_id":"4","last_reported":1709593657,"current_range_meters":30000,"station_id":"ce4bgv12rcd13ifvqcp0","pricing_plan_id":"cebpf4jnsgd1na2vs0mg"},{"bike_id":"4c215c5a-81e7-4bd7-965a-65733a792370","system_id":"levelo_inurba_marseille","lat":43.299243,"lon":5.374807,"is_reserved":false,"is_disabled":false,"rental_uris":{"android":"levelo://app?vid=4c215c5a-81e7-4bd7-965a-65733a792370","ios":"levelo://app?vid=4c215c5a-81e7-4bd7-965a-65733a792370"},"vehicle_type_id":"4","last_reported":1709593657,"current_range_meters":31200,"station_id":"ce4bgjh2rcd13ifvqbg0","pricing_plan_id":"cebpf4jnsgd1na2vs0mg"},{"bike_id":"acac5979-56ed-4bd1-a585-9f5e8208fb08","system_id":"levelo_inurba_marseille","lat":43.311722,"lon":5.387247,"is_reserved":false,"is_disabled":false,"rental_uris":{"android":"levelo://app?vid=acac5979-56ed-4bd1-a585-9f5e8208fb08","ios":"levelo://app?vid=acac5979-56ed-4bd1-a585-9f5e8208fb08"},"vehicle_type_id":"4","last_reported":1709593657,"current_range_meters":24800,"station_id":"ce4bgv12rcd13ifvqcp0","pricing_plan_id":"cebpf4jnsgd1na2vs0mg"},{"bike_id":"b26adbdf-f0f7-425e-b180-f633f8ebd1b9","system_id":"levelo_inurba_marseille","lat":43.311722,"lon":5.387247,"is_reserved":false,"is_disabled":false,"rental_uris":{"android":"levelo://app?vid=b26adbdf-f0f7-425e-b180-f633f8ebd1b9","ios":"levelo://app?vid=b26adbdf-f0f7-425e-b180-f633f8ebd1b9"},"vehicle_type_id":"4","last_reported":1709593657,"current_range_meters":22000,"station_id":"ce4bgv12rcd13ifvqcp0","pricing_plan_id":"cebpf4jnsgd1na2vs0mg"},{"bike_id":"b590cb06-eb51-4b59-ad60-6dff15296568","system_id":"levelo_inurba_marseille","lat":43.311722,"lon":5.387247,"is_reserved":false,"is_disabled":false,"rental_uris":{"android":"levelo://app?vid=b590cb06-eb51-4b59-ad60-6dff15296568","ios":"levelo://app?vid=b590cb06-eb51-4b59-ad60-6dff15296568"},"vehicle_type_id":"4","last_reported":1709593657,"current_range_meters":18800,"station_id":"ce4bgv12rcd13ifvqcp0","pricing_plan_id":"cebpf4jnsgd1na2vs0mg"},{"bike_id":"a22f5c4d-dfcc-443d-be8b-b4f34f4480b7","system_id":"levelo_inurba_marseille","lat":43.311722,"lon":5.387247,"is_reserved":false,"is_disabled":false,"rental_uris":{"android":"levelo://app?vid=a22f5c4d-dfcc-443d-be8b-b4f34f4480b7","ios":"levelo://app?vid=a22f5c4d-dfcc-443d-be8b-b4f34f4480b7"},"vehicle_type_id":"4","last_reported":1709593657,"current_range_meters":24400,"station_id":"ce4bgv12rcd13ifvqcp0","pricing_plan_id":"cebpf4jnsgd1na2vs0mg"},{"bike_id":"c035e8ca-15cd-4e67-a32c-1ee5bf665171","system_id":"levelo_inurba_marseille","lat":43.299243,"lon":5.37481,"is_reserved":false,"is_disabled":false,"rental_uris":{"android":"levelo://app?vid=c035e8ca-15cd-4e67-a32c-1ee5bf665171","ios":"levelo://app?vid=c035e8ca-15cd-4e67-a32c-1ee5bf665171"},"vehicle_type_id":"4","last_reported":1709593657,"current_range_meters":31600,"station_id":"ce4bgjh2rcd13ifvqbg0","pricing_plan_id":"cebpf4jnsgd1na2vs0mg"},{"bike_id":"2d5b25f1-2e41-4a77-99f3-34938d4e81b4","system_id":"levelo_inurba_marseille","lat":43.297794,"lon":5.370888,"is_reserved":false,"is_disabled":false,"rental_uris":{"android":"levelo://app?vid=2d5b25f1-2e41-4a77-99f3-34938d4e81b4","ios":"levelo://app?vid=2d5b25f1-2e41-4a77-99f3-34938d4e81b4"},"vehicle_type_id":"4","last_reported":1709593657,"current_range_meters":3600,"station_id":"ce4bgop2rcd13ifvqc1g","pricing_plan_id":"cebpf4jnsgd1na2vs0mg"},{"bike_id":"18d6b678-5348-4637-ac14-b52633b74db0","system_id":"levelo_inurba_marseille","lat":43.297794,"lon":5.370888,"is_reserved":false,"is_disabled":false,"rental_uris":{"android":"levelo://app?vid=18d6b678-5348-4637-ac14-b52633b74db0","ios":"levelo://app?vid=18d6b678-5348-4637-ac14-b52633b74db0"},"vehicle_type_id":"4","last_reported":1709593657,"current_range_meters":14000,"station_id":"ce4bgop2rcd13ifvqc1g","pricing_plan_id":"cebpf4jnsgd1na2vs0mg"},{"bike_id":"04277f71-9a24-4a68-9c27-7886460b2105","system_id":"levelo_inurba_marseille","lat":43.322872,"lon":5.382756,"is_reserved":false,"is_disabled":false,"rental_uris":{"android":"levelo://app?vid=04277f71-9a24-4a68-9c27-7886460b2105","ios":"levelo://app?vid=04277f71-9a24-4a68-9c27-7886460b2105"},"vehicle_type_id":"4","last_reported":1709593657,"current_range_meters":12000,"station_id":"ce4bhr12rcd13ifvqhqg","pricing_plan_id":"cebpf4jnsgd1na2vs0mg"},{"bike_id":"c8b9d32c-c6f5-414c-94f5-86b56c1bc436","system_id":"levelo_inurba_marseille","lat":43.322872,"lon":5.382756,"is_reserved":false,"is_disabled":false,"rental_uris":{"android":"levelo://app?vid=c8b9d32c-c6f5-414c-94f5-86b56c1bc436","ios":"levelo://app?vid=c8b9d32c-c6f5-414c-94f5-86b56c1bc436"},"vehicle_type_id":"4","last_reported":1709593657,"current_range_meters":31600,"station_id":"ce4bhr12rcd13ifvqhqg","pricing_plan_id":"cebpf4jnsgd1na2vs0mg"},{"bike_id":"9bb52770-1551-4b39-849e-bee90710a3d8","system_id":"levelo_inurba_marseille","lat":43.29778,"lon":5.37108,"is_reserved":false,"is_disabled":false,"rental_uris":{"android":"levelo://app?vid=9bb52770-1551-4b39-849e-bee90710a3d8","ios":"levelo://app?vid=9bb52770-1551-4b39-849e-bee90710a3d8"},"vehicle_type_id":"4","last_reported":1709593657,"current_range_meters":2400,"station_id":"ce4bgop2rcd13ifvqc1g","pricing_plan_id":"cebpf4jnsgd1na2vs0mg"},{"bike_id":"bcb94b14-0b31-4eb8-a7bc-4a8f0375f667","system_id":"levelo_inurba_marseille","lat":43.322872,"lon":5.382756,"is_reserved":false,"is_disabled":false,"rental_uris":{"android":"levelo://app?vid=bcb94b14-0b31-4eb8-a7bc-4a8f0375f667","ios":"levelo://app?vid=bcb94b14-0b31-4eb8-a7bc-4a8f0375f667"},"vehicle_type_id":"4","last_reported":1709593657,"current_range_meters":0,"station_id":"ce4bhr12rcd13ifvqhqg","pricing_plan_id":"cebpf4jnsgd1na2vs0mg"},{"bike_id":"ffbdf6c3-f658-4e57-a69d-65ff207077a4","system_id":"levelo_inurba_marseille","lat":43.297774,"lon":5.370875,"is_reserved":false,"is_disabled":false,"rental_uris":{"android":"levelo://app?vid=ffbdf6c3-f658-4e57-a69d-65ff207077a4","ios":"levelo://app?vid=ffbdf6c3-f658-4e57-a69d-65ff207077a4"},"vehicle_type_id":"4","last_reported":1709593657,"current_range_meters":22400,"station_id":"ce4bgop2rcd13ifvqc1g","pricing_plan_id":"cebpf4jnsgd1na2vs0mg"},{"bike_id":"7943c7c1-df13-48f9-8bef-2955f3e25eda","system_id":"levelo_inurba_marseille","lat":43.32287,"lon":5.38268,"is_reserved":false,"is_disabled":false,"rental_uris":{"android":"levelo://app?vid=7943c7c1-df13-48f9-8bef-2955f3e25eda","ios":"levelo://app?vid=7943c7c1-df13-48f9-8bef-2955f3e25eda"},"vehicle_type_id":"4","last_reported":1709593657,"current_range_meters":7200,"station_id":"ce4bhr12rcd13ifvqhqg","pricing_plan_id":"cebpf4jnsgd1na2vs0mg"},{"bike_id":"ade3fe0c-613e-41d7-b13b-a29db446ebe8","system_id":"levelo_inurba_marseille","lat":43.322872,"lon":5.382756,"is_reserved":false,"is_disabled":false,"rental_uris":{"android":"levelo://app?vid=ade3fe0c-613e-41d7-b13b-a29db446ebe8","ios":"levelo://app?vid=ade3fe0c-613e-41d7-b13b-a29db446ebe8"},"vehicle_type_id":"4","last_reported":1709593657,"current_range_meters":20400,"station_id":"ce4bhr12rcd13ifvqhqg","pricing_plan_id":"cebpf4jnsgd1na2vs0mg"},{"bike_id":"07b32308-00fc-4b1d-bd30-c57fc7f04f46","system_id":"levelo_inurba_marseille","lat":43.322872,"lon":5.382756,"is_reserved":false,"is_disabled":false,"rental_uris":{"android":"levelo://app?vid=07b32308-00fc-4b1d-bd30-c57fc7f04f46","ios":"levelo://app?vid=07b32308-00fc-4b1d-bd30-c57fc7f04f46"},"vehicle_type_id":"4","last_reported":1709593657,"current_range_meters":23600,"station_id":"ce4bhr12rcd13ifvqhqg","pricing_plan_id":"cebpf4jnsgd1na2vs0mg"},{"bike_id":"81a73b5b-283c-4bf7-b754-c42af3f9cb25","system_id":"levelo_inurba_marseille","lat":43.297163,"lon":5.365866,"is_reserved":false,"is_disabled":false,"rental_uris":{"android":"levelo://app?vid=81a73b5b-283c-4bf7-b754-c42af3f9cb25","ios":"levelo://app?vid=81a73b5b-283c-4bf7-b754-c42af3f9cb25"},"vehicle_type_id":"4","last_reported":1709593657,"current_range_meters":16000,"station_id":"ce4bgn12rcd13ifvqbt0","pricing_plan_id":"cebpf4jnsgd1na2vs0mg"},{"bike_id":"41be03ed-efdf-497d-9d5e-03c819ad4390","system_id":"levelo_inurba_marseille","lat":43.297163,"lon":5.365866,"is_reserved":false,"is_disabled":false,"rental_uris":{"android":"levelo://app?vid=41be03ed-efdf-497d-9d5e-03c819ad4390","ios":"levelo://app?vid=41be03ed-efdf-497d-9d5e-03c819ad4390"},"vehicle_type_id":"4","last_reported":1709593657,"current_range_meters":13200,"station_id":"ce4bgn12rcd13ifvqbt0","pricing_plan_id":"cebpf4jnsgd1na2vs0mg"},{"bike_id":"bfedc9c0-55bc-4268-9ba3-d5b4753f28ee","system_id":"levelo_inurba_marseille","lat":43.2968,"lon":5.37291,"is_reserved":false,"is_disabled":false,"rental_uris":{"android":"levelo://app?vid=bfedc9c0-55bc-4268-9ba3-d5b4753f28ee","ios":"levelo://app?vid=bfedc9c0-55bc-4268-9ba3-d5b4753f28ee"},"vehicle_type_id":"4","last_reported":1709593657,"current_range_meters":0,"station_id":"ce4bgk12rcd13ifvqbj0","pricing_plan_id":"cebpf4jnsgd1na2vs0mg"},{"bike_id":"5896edf7-0362-4f65-97f5-100a9c8edd15","system_id":"levelo_inurba_marseille","lat":43.2968,"lon":5.37291,"is_reserved":false,"is_disabled":false,"rental_uris":{"android":"levelo://app?vid=5896edf7-0362-4f65-97f5-100a9c8edd15","ios":"levelo://app?vid=5896edf7-0362-4f65-97f5-100a9c8edd15"},"vehicle_type_id":"4","last_reported":1709593657,"current_range_meters":26400,"station_id":"ce4bgk12rcd13ifvqbj0","pricing_plan_id":"cebpf4jnsgd1na2vs0mg"},{"bike_id":"83d3e498-9bc0-4835-90f2-ccb888bb2116","system_id":"levelo_inurba_marseille","lat":43.29595,"lon":5.36804,"is_reserved":false,"is_disabled":false,"rental_uris":{"android":"levelo://app?vid=83d3e498-9bc0-4835-90f2-ccb888bb2116","ios":"levelo://app?vid=83d3e498-9bc0-4835-90f2-ccb888bb2116"},"vehicle_type_id":"4","last_reported":1709593657,"current_range_meters":0,"station_id":"","pricing_plan_id":"cebpf4jnsgd1na2vs0mg"},{"bike_id":"a3d87382-4212-4a0f-8739-5725147dee04","system_id":"levelo_inurba_marseille","lat":43.296131,"lon":5.370791,"is_reserved":false,"is_disabled":false,"rental_uris":{"android":"levelo://app?vid=a3d87382-4212-4a0f-8739-5725147dee04","ios":"levelo://app?vid=a3d87382-4212-4a0f-8739-5725147dee04"},"vehicle_type_id":"4","last_reported":1709593657,"current_range_meters":26400,"station_id":"ce4bgnh2rcd13ifvqc0g","pricing_plan_id":"cebpf4jnsgd1na2vs0mg"},{"bike_id":"dfbea99c-c999-41c0-9ac6-b646573219ee","system_id":"levelo_inurba_marseille","lat":43.29573,"lon":5.367355,"is_reserved":false,"is_disabled":false,"rental_uris":{"android":"levelo://app?vid=dfbea99c-c999-41c0-9ac6-b646573219ee","ios":"levelo://app?vid=dfbea99c-c999-41c0-9ac6-b646573219ee"},"vehicle_type_id":"4","last_reported":1709593657,"current_range_meters":10000,"station_id":"ce4bgph2rcd13ifvqc2g","pricing_plan_id":"cebpf4jnsgd1na2vs0mg"},{"bike_id":"5555c5df-be79-467b-b6ed-28cd832066b5","system_id":"levelo_inurba_marseille","lat":43.29573,"lon":5.367355,"is_reserved":false,"is_disabled":false,"rental_uris":{"android":"levelo://app?vid=5555c5df-be79-467b-b6ed-28cd832066b5","ios":"levelo://app?vid=5555c5df-be79-467b-b6ed-28cd832066b5"},"vehicle_type_id":"4","last_reported":1709593657,"current_range_meters":10000,"station_id":"ce4bgph2rcd13ifvqc2g","pricing_plan_id":"cebpf4jnsgd1na2vs0mg"},{"bike_id":"61b39993-e38f-43f0-bd0b-2dcbe6392e94","system_id":"levelo_inurba_marseille","lat":43.296921,"lon":5.376579,"is_reserved":false,"is_disabled":false,"rental_uris":{"android":"levelo://app?vid=61b39993-e38f-43f0-bd0b-2dcbe6392e94","ios":"levelo://app?vid=61b39993-e38f-43f0-bd0b-2dcbe6392e94"},"vehicle_type_id":"4","last_reported":1709593657,"current_range_meters":30400,"station_id":"ce4bgkh2rcd13ifvqbl0","pricing_plan_id":"cebpf4jnsgd1na2vs0mg"},{"bike_id":"2b4c16c9-ee17-4cfb-92dc-27890e115983","system_id":"levelo_inurba_marseille","lat":43.299028,"lon":5.381509,"is_reserved":false,"is_disabled":false,"rental_uris":{"android":"levelo://app?vid=2b4c16c9-ee17-4cfb-92dc-27890e115983","ios":"levelo://app?vid=2b4c16c9-ee17-4cfb-92dc-27890e115983"},"vehicle_type_id":"4","last_reported":1709593657,"current_range_meters":4800,"station_id":"ce4bgj12rcd13ifvqbc0","pricing_plan_id":"cebpf4jnsgd1na2vs0mg"},{"bike_id":"11517127-5088-4649-9eb1-a0d089abae9f","system_id":"levelo_inurba_marseille","lat":43.299028,"lon":5.381509,"is_reserved":false,"is_disabled":false,"rental_uris":{"android":"levelo://app?vid=11517127-5088-4649-9eb1-a0d089abae9f","ios":"levelo://app?vid=11517127-5088-4649-9eb1-a0d089abae9f"},"vehicle_type_id":"4","last_reported":1709593657,"current_range_meters":11600,"station_id":"ce4bgj12rcd13ifvqbc0","pricing_plan_id":"cebpf4jnsgd1na2vs0mg"},{"bike_id":"4f5690cf-b956-489f-ad76-dc2c16c5dd6f","system_id":"levelo_inurba_marseille","lat":43.299028,"lon":5.381509,"is_reserved":false,"is_disabled":false,"rental_uris":{"android":"levelo://app?vid=4f5690cf-b956-489f-ad76-dc2c16c5dd6f","ios":"levelo://app?vid=4f5690cf-b956-489f-ad76-dc2c16c5dd6f"},"vehicle_type_id":"4","last_reported":1709593657,"current_range_meters":31600,"station_id":"ce4bgj12rcd13ifvqbc0","pricing_plan_id":"cebpf4jnsgd1na2vs0mg"},{"bike_id":"662219d4-b38b-4e89-be90-4e60c1696d1f","system_id":"levelo_inurba_marseille","lat":43.299028,"lon":5.381509,"is_reserved":false,"is_disabled":false,"rental_uris":{"android":"levelo://app?vid=662219d4-b38b-4e89-be90-4e60c1696d1f","ios":"levelo://app?vid=662219d4-b38b-4e89-be90-4e60c1696d1f"},"vehicle_type_id":"4","last_reported":1709593657,"current_range_meters":24400,"station_id":"ce4bgj12rcd13ifvqbc0","pricing_plan_id":"cebpf4jnsgd1na2vs0mg"},{"bike_id":"15140829-e0f9-4dd6-8569-2e810171e3dd","system_id":"levelo_inurba_marseille","lat":43.309589,"lon":5.390258,"is_reserved":false,"is_disabled":false,"rental_uris":{"android":"levelo://app?vid=15140829-e0f9-4dd6-8569-2e810171e3dd","ios":"levelo://app?vid=15140829-e0f9-4dd6-8569-2e810171e3dd"},"vehicle_type_id":"4","last_reported":1709593657,"current_range_meters":24000,"station_id":"ce4bgup2rcd13ifvqco0","pricing_plan_id":"cebpf4jnsgd1na2vs0mg"},{"bike_id":"548a876a-965d-480a-a2c5-1bdfa8112573","system_id":"levelo_inurba_marseille","lat":43.309589,"lon":5.390258,"is_reserved":false,"is_disabled":false,"rental_uris":{"android":"levelo://app?vid=548a876a-965d-480a-a2c5-1bdfa8112573","ios":"levelo://app?vid=548a876a-965d-480a-a2c5-1bdfa8112573"},"vehicle_type_id":"4","last_reported":1709593657,"current_range_meters":19600,"station_id":"ce4bgup2rcd13ifvqco0","pricing_plan_id":"cebpf4jnsgd1na2vs0mg"},{"bike_id":"2f57771f-a9ac-4b3e-a6f7-bfc20ecc032d","system_id":"levelo_inurba_marseille","lat":43.317557,"lon":5.390173,"is_reserved":false,"is_disabled":false,"rental_uris":{"android":"levelo://app?vid=2f57771f-a9ac-4b3e-a6f7-bfc20ecc032d","ios":"levelo://app?vid=2f57771f-a9ac-4b3e-a6f7-bfc20ecc032d"},"vehicle_type_id":"4","last_reported":1709593657,"current_range_meters":32000,"station_id":"ce4bhqp2rcd13ifvqhng","pricing_plan_id":"cebpf4jnsgd1na2vs0mg"},{"bike_id":"fd9c1b69-50e8-4bd9-b806-2114e3b7a810","system_id":"levelo_inurba_marseille","lat":43.317557,"lon":5.390173,"is_reserved":false,"is_disabled":false,"rental_uris":{"android":"levelo://app?vid=fd9c1b69-50e8-4bd9-b806-2114e3b7a810","ios":"levelo://app?vid=fd9c1b69-50e8-4bd9-b806-2114e3b7a810"},"vehicle_type_id":"4","last_reported":1709593657,"current_range_meters":30400,"station_id":"ce4bhqp2rcd13ifvqhng","pricing_plan_id":"cebpf4jnsgd1na2vs0mg"},{"bike_id":"49f0560f-76cb-4fe2-b91a-61275bf93c98","system_id":"levelo_inurba_marseille","lat":43.31757,"lon":5.39014,"is_reserved":false,"is_disabled":false,"rental_uris":{"android":"levelo://app?vid=49f0560f-76cb-4fe2-b91a-61275bf93c98","ios":"levelo://app?vid=49f0560f-76cb-4fe2-b91a-61275bf93c98"},"vehicle_type_id":"4","last_reported":1709593657,"current_range_meters":16400,"station_id":"ce4bhqp2rcd13ifvqhng","pricing_plan_id":"cebpf4jnsgd1na2vs0mg"},{"bike_id":"45ee9f7d-d977-4951-9cfe-d29fd2c14be1","system_id":"levelo_inurba_marseille","lat":43.317557,"lon":5.390173,"is_reserved":false,"is_disabled":false,"rental_uris":{"android":"levelo://app?vid=45ee9f7d-d977-4951-9cfe-d29fd2c14be1","ios":"levelo://app?vid=45ee9f7d-d977-4951-9cfe-d29fd2c14be1"},"vehicle_type_id":"4","last_reported":1709593657,"current_range_meters":32000,"station_id":"ce4bhqp2rcd13ifvqhng","pricing_plan_id":"cebpf4jnsgd1na2vs0mg"},{"bike_id":"31415fbb-fc8a-48d5-83f2-ea643f262d23","system_id":"levelo_inurba_marseille","lat":43.317557,"lon":5.390173,"is_reserved":false,"is_disabled":false,"rental_uris":{"android":"levelo://app?vid=31415fbb-fc8a-48d5-83f2-ea643f262d23","ios":"levelo://app?vid=31415fbb-fc8a-48d5-83f2-ea643f262d23"},"vehicle_type_id":"4","last_reported":1709593657,"current_range_meters":13600,"station_id":"ce4bhqp2rcd13ifvqhng","pricing_plan_id":"cebpf4jnsgd1na2vs0mg"},{"bike_id":"066622f4-6edf-4a55-98da-2eaec44e1f37","system_id":"levelo_inurba_marseille","lat":43.317557,"lon":5.390173,"is_reserved":false,"is_disabled":false,"rental_uris":{"android":"levelo://app?vid=066622f4-6edf-4a55-98da-2eaec44e1f37","ios":"levelo://app?vid=066622f4-6edf-4a55-98da-2eaec44e1f37"},"vehicle_type_id":"4","last_reported":1709593657,"current_range_meters":13200,"station_id":"ce4bhqp2rcd13ifvqhng","pricing_plan_id":"cebpf4jnsgd1na2vs0mg"},{"bike_id":"bd4d88f1-ffe6-4488-8d6e-ce53e484f166","system_id":"levelo_inurba_marseille","lat":43.317557,"lon":5.390173,"is_reserved":false,"is_disabled":false,"rental_uris":{"android":"levelo://app?vid=bd4d88f1-ffe6-4488-8d6e-ce53e484f166","ios":"levelo://app?vid=bd4d88f1-ffe6-4488-8d6e-ce53e484f166"},"vehicle_type_id":"4","last_reported":1709593657,"current_range_meters":12400,"station_id":"ce4bhqp2rcd13ifvqhng","pricing_plan_id":"cebpf4jnsgd1na2vs0mg"},{"bike_id":"bfe865f7-1a44-4907-9f0e-d79cce19464f","system_id":"levelo_inurba_marseille","lat":43.317557,"lon":5.390173,"is_reserved":false,"is_disabled":false,"rental_uris":{"android":"levelo://app?vid=bfe865f7-1a44-4907-9f0e-d79cce19464f","ios":"levelo://app?vid=bfe865f7-1a44-4907-9f0e-d79cce19464f"},"vehicle_type_id":"4","last_reported":1709593657,"current_range_meters":24400,"station_id":"ce4bhqp2rcd13ifvqhng","pricing_plan_id":"cebpf4jnsgd1na2vs0mg"},{"bike_id":"73f0cdb5-ab2c-4830-8584-b2e81db4056e","system_id":"levelo_inurba_marseille","lat":43.317557,"lon":5.390173,"is_reserved":false,"is_disabled":false,"rental_uris":{"android":"levelo://app?vid=73f0cdb5-ab2c-4830-8584-b2e81db4056e","ios":"levelo://app?vid=73f0cdb5-ab2c-4830-8584-b2e81db4056e"},"vehicle_type_id":"4","last_reported":1709593657,"current_range_meters":16800,"station_id":"ce4bhqp2rcd13ifvqhng","pricing_plan_id":"cebpf4jnsgd1na2vs0mg"},{"bike_id":"1eec78d4-463e-4c26-8e41-81096266dc70","system_id":"levelo_inurba_marseille","lat":43.317557,"lon":5.390173,"is_reserved":false,"is_disabled":false,"rental_uris":{"android":"levelo://app?vid=1eec78d4-463e-4c26-8e41-81096266dc70","ios":"levelo://app?vid=1eec78d4-463e-4c26-8e41-81096266dc70"},"vehicle_type_id":"4","last_reported":1709593657,"current_range_meters":29600,"station_id":"ce4bhqp2rcd13ifvqhng","pricing_plan_id":"cebpf4jnsgd1na2vs0mg"},{"bike_id":"fe6a7615-2ead-490a-a3a0-c9d8cc7c4062","system_id":"levelo_inurba_marseille","lat":43.29804,"lon":5.381003,"is_reserved":false,"is_disabled":false,"rental_uris":{"android":"levelo://app?vid=fe6a7615-2ead-490a-a3a0-c9d8cc7c4062","ios":"levelo://app?vid=fe6a7615-2ead-490a-a3a0-c9d8cc7c4062"},"vehicle_type_id":"4","last_reported":1709593657,"current_range_meters":0,"station_id":"ce4bgip2rcd13ifvqbb0","pricing_plan_id":"cebpf4jnsgd1na2vs0mg"},{"bike_id":"c3bf32ba-f518-4adf-b503-9d830ff3c0cc","system_id":"levelo_inurba_marseille","lat":43.30447,"lon":5.38889,"is_reserved":false,"is_disabled":false,"rental_uris":{"android":"levelo://app?vid=c3bf32ba-f518-4adf-b503-9d830ff3c0cc","ios":"levelo://app?vid=c3bf32ba-f518-4adf-b503-9d830ff3c0cc"},"vehicle_type_id":"4","last_reported":1709593657,"current_range_meters":6400,"station_id":"ce4bgk12rcd13ifvqbi0","pricing_plan_id":"cebpf4jnsgd1na2vs0mg"},{"bike_id":"0d573eb4-e31f-4a5b-bc2b-40f880af019e","system_id":"levelo_inurba_marseille","lat":43.304324,"lon":5.388834,"is_reserved":false,"is_disabled":false,"rental_uris":{"android":"levelo://app?vid=0d573eb4-e31f-4a5b-bc2b-40f880af019e","ios":"levelo://app?vid=0d573eb4-e31f-4a5b-bc2b-40f880af019e"},"vehicle_type_id":"4","last_reported":1709593657,"current_range_meters":14000,"station_id":"ce4bgk12rcd13ifvqbi0","pricing_plan_id":"cebpf4jnsgd1na2vs0mg"},{"bike_id":"c24132df-41b3-4b33-b7ca-0b7d1b1f0c38","system_id":"levelo_inurba_marseille","lat":43.3044,"lon":5.3889,"is_reserved":false,"is_disabled":false,"rental_uris":{"android":"levelo://app?vid=c24132df-41b3-4b33-b7ca-0b7d1b1f0c38","ios":"levelo://app?vid=c24132df-41b3-4b33-b7ca-0b7d1b1f0c38"},"vehicle_type_id":"4","last_reported":1709593657,"current_range_meters":0,"station_id":"ce4bgk12rcd13ifvqbi0","pricing_plan_id":"cebpf4jnsgd1na2vs0mg"},{"bike_id":"12d21c3e-f18b-4763-a9ae-33a0df0b8a4e","system_id":"levelo_inurba_marseille","lat":43.30435,"lon":5.38887,"is_reserved":false,"is_disabled":false,"rental_uris":{"android":"levelo://app?vid=12d21c3e-f18b-4763-a9ae-33a0df0b8a4e","ios":"levelo://app?vid=12d21c3e-f18b-4763-a9ae-33a0df0b8a4e"},"vehicle_type_id":"4","last_reported":1709593657,"current_range_meters":0,"station_id":"ce4bgk12rcd13ifvqbi0","pricing_plan_id":"cebpf4jnsgd1na2vs0mg"},{"bike_id":"c68147e2-8c33-46cb-a47b-7fae40cb7ef5","system_id":"levelo_inurba_marseille","lat":43.304274,"lon":5.388873,"is_reserved":false,"is_disabled":false,"rental_uris":{"android":"levelo://app?vid=c68147e2-8c33-46cb-a47b-7fae40cb7ef5","ios":"levelo://app?vid=c68147e2-8c33-46cb-a47b-7fae40cb7ef5"},"vehicle_type_id":"4","last_reported":1709593657,"current_range_meters":24400,"station_id":"ce4bgk12rcd13ifvqbi0","pricing_plan_id":"cebpf4jnsgd1na2vs0mg"},{"bike_id":"714fc50a-17d3-4273-bb3f-b3fff277d059","system_id":"levelo_inurba_marseille","lat":43.304274,"lon":5.388873,"is_reserved":false,"is_disabled":false,"rental_uris":{"android":"levelo://app?vid=714fc50a-17d3-4273-bb3f-b3fff277d059","ios":"levelo://app?vid=714fc50a-17d3-4273-bb3f-b3fff277d059"},"vehicle_type_id":"4","last_reported":1709593657,"current_range_meters":6800,"station_id":"ce4bgk12rcd13ifvqbi0","pricing_plan_id":"cebpf4jnsgd1na2vs0mg"},{"bike_id":"6336ecab-2133-478e-9796-369b78f64f29","system_id":"levelo_inurba_marseille","lat":43.304274,"lon":5.388873,"is_reserved":false,"is_disabled":false,"rental_uris":{"android":"levelo://app?vid=6336ecab-2133-478e-9796-369b78f64f29","ios":"levelo://app?vid=6336ecab-2133-478e-9796-369b78f64f29"},"vehicle_type_id":"4","last_reported":1709593657,"current_range_meters":11600,"station_id":"ce4bgk12rcd13ifvqbi0","pricing_plan_id":"cebpf4jnsgd1na2vs0mg"},{"bike_id":"709a3037-b6cc-4609-b555-f00918755486","system_id":"levelo_inurba_marseille","lat":43.304278,"lon":5.388868,"is_reserved":false,"is_disabled":false,"rental_uris":{"android":"levelo://app?vid=709a3037-b6cc-4609-b555-f00918755486","ios":"levelo://app?vid=709a3037-b6cc-4609-b555-f00918755486"},"vehicle_type_id":"4","last_reported":1709593657,"current_range_meters":16400,"station_id":"ce4bgk12rcd13ifvqbi0","pricing_plan_id":"cebpf4jnsgd1na2vs0mg"},{"bike_id":"c9262f36-7566-49f8-bdff-47321d6726b1","system_id":"levelo_inurba_marseille","lat":43.304274,"lon":5.388873,"is_reserved":false,"is_disabled":false,"rental_uris":{"android":"levelo://app?vid=c9262f36-7566-49f8-bdff-47321d6726b1","ios":"levelo://app?vid=c9262f36-7566-49f8-bdff-47321d6726b1"},"vehicle_type_id":"4","last_reported":1709593657,"current_range_meters":23600,"station_id":"ce4bgk12rcd13ifvqbi0","pricing_plan_id":"cebpf4jnsgd1na2vs0mg"},{"bike_id":"c5abb050-a544-4996-869d-8c1370fdd3f4","system_id":"levelo_inurba_marseille","lat":43.304274,"lon":5.388873,"is_reserved":false,"is_disabled":false,"rental_uris":{"android":"levelo://app?vid=c5abb050-a544-4996-869d-8c1370fdd3f4","ios":"levelo://app?vid=c5abb050-a544-4996-869d-8c1370fdd3f4"},"vehicle_type_id":"4","last_reported":1709593657,"current_range_meters":22800,"station_id":"ce4bgk12rcd13ifvqbi0","pricing_plan_id":"cebpf4jnsgd1na2vs0mg"},{"bike_id":"24e49c09-5df9-4a93-844c-73f3701d17b1","system_id":"levelo_inurba_marseille","lat":43.296277,"lon":5.377108,"is_reserved":false,"is_disabled":false,"rental_uris":{"android":"levelo://app?vid=24e49c09-5df9-4a93-844c-73f3701d17b1","ios":"levelo://app?vid=24e49c09-5df9-4a93-844c-73f3701d17b1"},"vehicle_type_id":"4","last_reported":1709593657,"current_range_meters":31200,"station_id":"ce4bgi92rcd13ifvqb90","pricing_plan_id":"cebpf4jnsgd1na2vs0mg"},{"bike_id":"edb4c3fa-a161-41cd-8799-3ec1123a5f30","system_id":"levelo_inurba_marseille","lat":43.295748,"lon":5.37522,"is_reserved":false,"is_disabled":false,"rental_uris":{"android":"levelo://app?vid=edb4c3fa-a161-41cd-8799-3ec1123a5f30","ios":"levelo://app?vid=edb4c3fa-a161-41cd-8799-3ec1123a5f30"},"vehicle_type_id":"4","last_reported":1709593657,"current_range_meters":31600,"station_id":"ce4bgh92rcd13ifvqb50","pricing_plan_id":"cebpf4jnsgd1na2vs0mg"},{"bike_id":"570084a7-081b-4698-8403-fdce7dfe6f47","system_id":"levelo_inurba_marseille","lat":43.29611,"lon":5.37719,"is_reserved":false,"is_disabled":false,"rental_uris":{"android":"levelo://app?vid=570084a7-081b-4698-8403-fdce7dfe6f47","ios":"levelo://app?vid=570084a7-081b-4698-8403-fdce7dfe6f47"},"vehicle_type_id":"4","last_reported":1709593657,"current_range_meters":30400,"station_id":"ce4bgi92rcd13ifvqb90","pricing_plan_id":"cebpf4jnsgd1na2vs0mg"},{"bike_id":"0b4877f5-23e4-4a69-b64d-dcaf9b0179bd","system_id":"levelo_inurba_marseille","lat":43.304278,"lon":5.388868,"is_reserved":false,"is_disabled":false,"rental_uris":{"android":"levelo://app?vid=0b4877f5-23e4-4a69-b64d-dcaf9b0179bd","ios":"levelo://app?vid=0b4877f5-23e4-4a69-b64d-dcaf9b0179bd"},"vehicle_type_id":"4","last_reported":1709593657,"current_range_meters":30000,"station_id":"ce4bgk12rcd13ifvqbi0","pricing_plan_id":"cebpf4jnsgd1na2vs0mg"},{"bike_id":"4202bf47-b3d4-4bc7-b05f-93596e5e64ad","system_id":"levelo_inurba_marseille","lat":43.296,"lon":5.37717,"is_reserved":false,"is_disabled":false,"rental_uris":{"android":"levelo://app?vid=4202bf47-b3d4-4bc7-b05f-93596e5e64ad","ios":"levelo://app?vid=4202bf47-b3d4-4bc7-b05f-93596e5e64ad"},"vehicle_type_id":"4","last_reported":1709593657,"current_range_meters":28400,"station_id":"ce4bgi92rcd13ifvqb90","pricing_plan_id":"cebpf4jnsgd1na2vs0mg"},{"bike_id":"7087070a-4a66-425e-8b21-f883fdf3f301","system_id":"levelo_inurba_marseille","lat":43.29981,"lon":5.38486,"is_reserved":false,"is_disabled":false,"rental_uris":{"android":"levelo://app?vid=7087070a-4a66-425e-8b21-f883fdf3f301","ios":"levelo://app?vid=7087070a-4a66-425e-8b21-f883fdf3f301"},"vehicle_type_id":"4","last_reported":1709593657,"current_range_meters":4000,"station_id":"ce4bgj92rcd13ifvqbd0","pricing_plan_id":"cebpf4jnsgd1na2vs0mg"},{"bike_id":"8385990d-f45e-478a-86ac-73f2d0cf219d","system_id":"levelo_inurba_marseille","lat":43.29534,"lon":5.37504,"is_reserved":false,"is_disabled":false,"rental_uris":{"android":"levelo://app?vid=8385990d-f45e-478a-86ac-73f2d0cf219d","ios":"levelo://app?vid=8385990d-f45e-478a-86ac-73f2d0cf219d"},"vehicle_type_id":"4","last_reported":1709593657,"current_range_meters":14000,"station_id":"ce4bgkp2rcd13ifvqbmg","pricing_plan_id":"cebpf4jnsgd1na2vs0mg"},{"bike_id":"14aefa8b-c4e8-4b32-afe7-dbc3f6af1ee2","system_id":"levelo_inurba_marseille","lat":43.29521,"lon":5.37495,"is_reserved":false,"is_disabled":false,"rental_uris":{"android":"levelo://app?vid=14aefa8b-c4e8-4b32-afe7-dbc3f6af1ee2","ios":"levelo://app?vid=14aefa8b-c4e8-4b32-afe7-dbc3f6af1ee2"},"vehicle_type_id":"4","last_reported":1709593657,"current_range_meters":3600,"station_id":"ce4bgkp2rcd13ifvqbmg","pricing_plan_id":"cebpf4jnsgd1na2vs0mg"},{"bike_id":"13c5e1a5-3583-4c83-87d4-c4fb2054fcf9","system_id":"levelo_inurba_marseille","lat":43.299717,"lon":5.384845,"is_reserved":false,"is_disabled":false,"rental_uris":{"android":"levelo://app?vid=13c5e1a5-3583-4c83-87d4-c4fb2054fcf9","ios":"levelo://app?vid=13c5e1a5-3583-4c83-87d4-c4fb2054fcf9"},"vehicle_type_id":"4","last_reported":1709593657,"current_range_meters":31200,"station_id":"ce4bgj92rcd13ifvqbd0","pricing_plan_id":"cebpf4jnsgd1na2vs0mg"},{"bike_id":"e988baab-d5dd-454a-9f7a-1d0791b4e800","system_id":"levelo_inurba_marseille","lat":43.29519,"lon":5.37511,"is_reserved":false,"is_disabled":false,"rental_uris":{"android":"levelo://app?vid=e988baab-d5dd-454a-9f7a-1d0791b4e800","ios":"levelo://app?vid=e988baab-d5dd-454a-9f7a-1d0791b4e800"},"vehicle_type_id":"4","last_reported":1709593657,"current_range_meters":12800,"station_id":"ce4bgkp2rcd13ifvqbmg","pricing_plan_id":"cebpf4jnsgd1na2vs0mg"},{"bike_id":"8b69db6f-a237-419c-9d33-8040c6b00e65","system_id":"levelo_inurba_marseille","lat":43.32367,"lon":5.388836,"is_reserved":false,"is_disabled":false,"rental_uris":{"android":"levelo://app?vid=8b69db6f-a237-419c-9d33-8040c6b00e65","ios":"levelo://app?vid=8b69db6f-a237-419c-9d33-8040c6b00e65"},"vehicle_type_id":"4","last_reported":1709593657,"current_range_meters":19600,"station_id":"ce4bhqp2rcd13ifvqhog","pricing_plan_id":"cebpf4jnsgd1na2vs0mg"},{"bike_id":"f9a0ef72-5e0d-416d-b7d9-d0fb9188cc1d","system_id":"levelo_inurba_marseille","lat":43.32367,"lon":5.388836,"is_reserved":false,"is_disabled":false,"rental_uris":{"android":"levelo://app?vid=f9a0ef72-5e0d-416d-b7d9-d0fb9188cc1d","ios":"levelo://app?vid=f9a0ef72-5e0d-416d-b7d9-d0fb9188cc1d"},"vehicle_type_id":"4","last_reported":1709593657,"current_range_meters":25200,"station_id":"ce4bhqp2rcd13ifvqhog","pricing_plan_id":"cebpf4jnsgd1na2vs0mg"},{"bike_id":"26510d95-c6a9-4098-a0a8-d59854aee601","system_id":"levelo_inurba_marseille","lat":43.305989,"lon":5.37225,"is_reserved":false,"is_disabled":false,"rental_uris":{"android":"levelo://app?vid=26510d95-c6a9-4098-a0a8-d59854aee601","ios":"levelo://app?vid=26510d95-c6a9-4098-a0a8-d59854aee601"},"vehicle_type_id":"4","last_reported":1709593657,"current_range_meters":0,"station_id":"ce4bgqh2rcd13ifvqc4g","pricing_plan_id":"cebpf4jnsgd1na2vs0mg"},{"bike_id":"e87eecb1-fe51-4b7f-882e-9a553bcb15b8","system_id":"levelo_inurba_marseille","lat":43.29593,"lon":5.38097,"is_reserved":false,"is_disabled":false,"rental_uris":{"android":"levelo://app?vid=e87eecb1-fe51-4b7f-882e-9a553bcb15b8","ios":"levelo://app?vid=e87eecb1-fe51-4b7f-882e-9a553bcb15b8"},"vehicle_type_id":"4","last_reported":1709593657,"current_range_meters":26000,"station_id":"ce4bgl12rcd13ifvqbo0","pricing_plan_id":"cebpf4jnsgd1na2vs0mg"},{"bike_id":"5e6a1c91-ed84-4f7a-9e51-966a11d1ed3b","system_id":"levelo_inurba_marseille","lat":43.2928,"lon":5.36838,"is_reserved":false,"is_disabled":false,"rental_uris":{"android":"levelo://app?vid=5e6a1c91-ed84-4f7a-9e51-966a11d1ed3b","ios":"levelo://app?vid=5e6a1c91-ed84-4f7a-9e51-966a11d1ed3b"},"vehicle_type_id":"4","last_reported":1709593657,"current_range_meters":29600,"station_id":"ce4bhbp2rcd13ifvqesg","pricing_plan_id":"cebpf4jnsgd1na2vs0mg"},{"bike_id":"7f863b03-a925-4723-aac5-d6cdba0e3680","system_id":"levelo_inurba_marseille","lat":43.292749,"lon":5.368398,"is_reserved":false,"is_disabled":false,"rental_uris":{"android":"levelo://app?vid=7f863b03-a925-4723-aac5-d6cdba0e3680","ios":"levelo://app?vid=7f863b03-a925-4723-aac5-d6cdba0e3680"},"vehicle_type_id":"4","last_reported":1709593657,"current_range_meters":16800,"station_id":"ce4bhbp2rcd13ifvqesg","pricing_plan_id":"cebpf4jnsgd1na2vs0mg"},{"bike_id":"1ad18469-0d8f-49a0-9773-41547a87e307","system_id":"levelo_inurba_marseille","lat":43.292749,"lon":5.368402,"is_reserved":false,"is_disabled":false,"rental_uris":{"android":"levelo://app?vid=1ad18469-0d8f-49a0-9773-41547a87e307","ios":"levelo://app?vid=1ad18469-0d8f-49a0-9773-41547a87e307"},"vehicle_type_id":"4","last_reported":1709593657,"current_range_meters":0,"station_id":"ce4bhbp2rcd13ifvqesg","pricing_plan_id":"cebpf4jnsgd1na2vs0mg"},{"bike_id":"dd155254-1102-45ff-906e-9f67aa2ec571","system_id":"levelo_inurba_marseille","lat":43.293137,"lon":5.374597,"is_reserved":false,"is_disabled":false,"rental_uris":{"android":"levelo://app?vid=dd155254-1102-45ff-906e-9f67aa2ec571","ios":"levelo://app?vid=dd155254-1102-45ff-906e-9f67aa2ec571"},"vehicle_type_id":"4","last_reported":1709593657,"current_range_meters":0,"station_id":"ce4bgi12rcd13ifvqb70","pricing_plan_id":"cebpf4jnsgd1na2vs0mg"},{"bike_id":"3dcaf240-a977-41c1-9a55-ddd0d1bc3b8e","system_id":"levelo_inurba_marseille","lat":43.305994,"lon":5.393687,"is_reserved":false,"is_disabled":false,"rental_uris":{"android":"levelo://app?vid=3dcaf240-a977-41c1-9a55-ddd0d1bc3b8e","ios":"levelo://app?vid=3dcaf240-a977-41c1-9a55-ddd0d1bc3b8e"},"vehicle_type_id":"4","last_reported":1709593657,"current_range_meters":8000,"station_id":"ce4bh0p2rcd13ifvqd80","pricing_plan_id":"cebpf4jnsgd1na2vs0mg"},{"bike_id":"8436f58a-60b1-405e-b3af-1623c8afbd60","system_id":"levelo_inurba_marseille","lat":43.293009,"lon":5.374584,"is_reserved":false,"is_disabled":false,"rental_uris":{"android":"levelo://app?vid=8436f58a-60b1-405e-b3af-1623c8afbd60","ios":"levelo://app?vid=8436f58a-60b1-405e-b3af-1623c8afbd60"},"vehicle_type_id":"4","last_reported":1709593657,"current_range_meters":24000,"station_id":"ce4bgi12rcd13ifvqb70","pricing_plan_id":"cebpf4jnsgd1na2vs0mg"},{"bike_id":"9343a211-012c-4b96-80db-4832c07ecb7e","system_id":"levelo_inurba_marseille","lat":43.305994,"lon":5.393687,"is_reserved":false,"is_disabled":false,"rental_uris":{"android":"levelo://app?vid=9343a211-012c-4b96-80db-4832c07ecb7e","ios":"levelo://app?vid=9343a211-012c-4b96-80db-4832c07ecb7e"},"vehicle_type_id":"4","last_reported":1709593657,"current_range_meters":20800,"station_id":"ce4bh0p2rcd13ifvqd80","pricing_plan_id":"cebpf4jnsgd1na2vs0mg"},{"bike_id":"c88c0f1a-1b82-4ad6-af6e-205f5d2198bc","system_id":"levelo_inurba_marseille","lat":43.305965,"lon":5.393631,"is_reserved":false,"is_disabled":false,"rental_uris":{"android":"levelo://app?vid=c88c0f1a-1b82-4ad6-af6e-205f5d2198bc","ios":"levelo://app?vid=c88c0f1a-1b82-4ad6-af6e-205f5d2198bc"},"vehicle_type_id":"4","last_reported":1709593657,"current_range_meters":23600,"station_id":"ce4bh0p2rcd13ifvqd80","pricing_plan_id":"cebpf4jnsgd1na2vs0mg"},{"bike_id":"79819a29-aa99-4617-805b-2f1eb31b6e57","system_id":"levelo_inurba_marseille","lat":43.305994,"lon":5.393687,"is_reserved":false,"is_disabled":false,"rental_uris":{"android":"levelo://app?vid=79819a29-aa99-4617-805b-2f1eb31b6e57","ios":"levelo://app?vid=79819a29-aa99-4617-805b-2f1eb31b6e57"},"vehicle_type_id":"4","last_reported":1709593657,"current_range_meters":21200,"station_id":"ce4bh0p2rcd13ifvqd80","pricing_plan_id":"cebpf4jnsgd1na2vs0mg"},{"bike_id":"524b255d-ac59-4817-b2ae-a542a7a5f6b1","system_id":"levelo_inurba_marseille","lat":43.303002,"lon":5.392142,"is_reserved":false,"is_disabled":false,"rental_uris":{"android":"levelo://app?vid=524b255d-ac59-4817-b2ae-a542a7a5f6b1","ios":"levelo://app?vid=524b255d-ac59-4817-b2ae-a542a7a5f6b1"},"vehicle_type_id":"4","last_reported":1709593657,"current_range_meters":23600,"station_id":"ce4bgkh2rcd13ifvqbk0","pricing_plan_id":"cebpf4jnsgd1na2vs0mg"},{"bike_id":"a8c4f4cb-9882-4899-9794-68c9a8134a67","system_id":"levelo_inurba_marseille","lat":43.303002,"lon":5.392142,"is_reserved":false,"is_disabled":false,"rental_uris":{"android":"levelo://app?vid=a8c4f4cb-9882-4899-9794-68c9a8134a67","ios":"levelo://app?vid=a8c4f4cb-9882-4899-9794-68c9a8134a67"},"vehicle_type_id":"4","last_reported":1709593657,"current_range_meters":26000,"station_id":"ce4bgkh2rcd13ifvqbk0","pricing_plan_id":"cebpf4jnsgd1na2vs0mg"},{"bike_id":"fe3256a0-0b6f-49f9-85d6-bf46f4a62f34","system_id":"levelo_inurba_marseille","lat":43.303002,"lon":5.392142,"is_reserved":false,"is_disabled":false,"rental_uris":{"android":"levelo://app?vid=fe3256a0-0b6f-49f9-85d6-bf46f4a62f34","ios":"levelo://app?vid=fe3256a0-0b6f-49f9-85d6-bf46f4a62f34"},"vehicle_type_id":"4","last_reported":1709593657,"current_range_meters":18400,"station_id":"ce4bgkh2rcd13ifvqbk0","pricing_plan_id":"cebpf4jnsgd1na2vs0mg"},{"bike_id":"e74da7c7-9e15-41d4-971d-847ac5a1c854","system_id":"levelo_inurba_marseille","lat":43.303002,"lon":5.392142,"is_reserved":false,"is_disabled":false,"rental_uris":{"android":"levelo://app?vid=e74da7c7-9e15-41d4-971d-847ac5a1c854","ios":"levelo://app?vid=e74da7c7-9e15-41d4-971d-847ac5a1c854"},"vehicle_type_id":"4","last_reported":1709593657,"current_range_meters":18400,"station_id":"ce4bgkh2rcd13ifvqbk0","pricing_plan_id":"cebpf4jnsgd1na2vs0mg"},{"bike_id":"a0d78f3e-57b8-43aa-99e3-ec4bede017f8","system_id":"levelo_inurba_marseille","lat":43.303002,"lon":5.392142,"is_reserved":false,"is_disabled":false,"rental_uris":{"android":"levelo://app?vid=a0d78f3e-57b8-43aa-99e3-ec4bede017f8","ios":"levelo://app?vid=a0d78f3e-57b8-43aa-99e3-ec4bede017f8"},"vehicle_type_id":"4","last_reported":1709593657,"current_range_meters":24800,"station_id":"ce4bgkh2rcd13ifvqbk0","pricing_plan_id":"cebpf4jnsgd1na2vs0mg"},{"bike_id":"0c5f864d-8cd6-4122-900e-a14ec7640c2e","system_id":"levelo_inurba_marseille","lat":43.302992,"lon":5.392136,"is_reserved":false,"is_disabled":false,"rental_uris":{"android":"levelo://app?vid=0c5f864d-8cd6-4122-900e-a14ec7640c2e","ios":"levelo://app?vid=0c5f864d-8cd6-4122-900e-a14ec7640c2e"},"vehicle_type_id":"4","last_reported":1709593657,"current_range_meters":31600,"station_id":"ce4bgkh2rcd13ifvqbk0","pricing_plan_id":"cebpf4jnsgd1na2vs0mg"},{"bike_id":"5999491d-0789-4cb8-8950-d70caaa9ff95","system_id":"levelo_inurba_marseille","lat":43.302992,"lon":5.392136,"is_reserved":false,"is_disabled":false,"rental_uris":{"android":"levelo://app?vid=5999491d-0789-4cb8-8950-d70caaa9ff95","ios":"levelo://app?vid=5999491d-0789-4cb8-8950-d70caaa9ff95"},"vehicle_type_id":"4","last_reported":1709593657,"current_range_meters":26000,"station_id":"ce4bgkh2rcd13ifvqbk0","pricing_plan_id":"cebpf4jnsgd1na2vs0mg"},{"bike_id":"3ca9c69d-11e6-43af-bfc8-e4dc76f63940","system_id":"levelo_inurba_marseille","lat":43.302992,"lon":5.392136,"is_reserved":false,"is_disabled":false,"rental_uris":{"android":"levelo://app?vid=3ca9c69d-11e6-43af-bfc8-e4dc76f63940","ios":"levelo://app?vid=3ca9c69d-11e6-43af-bfc8-e4dc76f63940"},"vehicle_type_id":"4","last_reported":1709593657,"current_range_meters":26000,"station_id":"ce4bgkh2rcd13ifvqbk0","pricing_plan_id":"cebpf4jnsgd1na2vs0mg"},{"bike_id":"0fd5d570-2ea6-411b-87d3-55dedab07714","system_id":"levelo_inurba_marseille","lat":43.303002,"lon":5.392142,"is_reserved":false,"is_disabled":false,"rental_uris":{"android":"levelo://app?vid=0fd5d570-2ea6-411b-87d3-55dedab07714","ios":"levelo://app?vid=0fd5d570-2ea6-411b-87d3-55dedab07714"},"vehicle_type_id":"4","last_reported":1709593657,"current_range_meters":21600,"station_id":"ce4bgkh2rcd13ifvqbk0","pricing_plan_id":"cebpf4jnsgd1na2vs0mg"},{"bike_id":"770ea2e1-3fb9-441c-bcfd-6ca99937cada","system_id":"levelo_inurba_marseille","lat":43.303002,"lon":5.392142,"is_reserved":false,"is_disabled":false,"rental_uris":{"android":"levelo://app?vid=770ea2e1-3fb9-441c-bcfd-6ca99937cada","ios":"levelo://app?vid=770ea2e1-3fb9-441c-bcfd-6ca99937cada"},"vehicle_type_id":"4","last_reported":1709593657,"current_range_meters":6000,"station_id":"ce4bgkh2rcd13ifvqbk0","pricing_plan_id":"cebpf4jnsgd1na2vs0mg"},{"bike_id":"8e7152b5-9d5b-4cbd-909c-ef59224d9ca9","system_id":"levelo_inurba_marseille","lat":43.303002,"lon":5.392142,"is_reserved":false,"is_disabled":false,"rental_uris":{"android":"levelo://app?vid=8e7152b5-9d5b-4cbd-909c-ef59224d9ca9","ios":"levelo://app?vid=8e7152b5-9d5b-4cbd-909c-ef59224d9ca9"},"vehicle_type_id":"4","last_reported":1709593657,"current_range_meters":10000,"station_id":"ce4bgkh2rcd13ifvqbk0","pricing_plan_id":"cebpf4jnsgd1na2vs0mg"},{"bike_id":"8f2d061e-6252-4b93-92ed-9b5b0e7b7b01","system_id":"levelo_inurba_marseille","lat":43.302992,"lon":5.392136,"is_reserved":false,"is_disabled":false,"rental_uris":{"android":"levelo://app?vid=8f2d061e-6252-4b93-92ed-9b5b0e7b7b01","ios":"levelo://app?vid=8f2d061e-6252-4b93-92ed-9b5b0e7b7b01"},"vehicle_type_id":"4","last_reported":1709593657,"current_range_meters":27200,"station_id":"ce4bgkh2rcd13ifvqbk0","pricing_plan_id":"cebpf4jnsgd1na2vs0mg"},