{"last_updated":1731759408,"ttl":60,"version":"2.2","data":{"bikes":[{"bike_id":"068871ea-d6b1-4efa-8d3d-16266a43c46f","system_id":"levelo_inurba_marseille","lat":43.289704,"lon":5.364933,"is_reserved":false,"is_disabled":false,"rental_uris":{"android":"levelo://app?vid=068871ea-d6b1-4efa-8d3d-16266a43c46f","ios":"levelo://app?vid=068871ea-d6b1-4efa-8d3d-16266a43c46f"},"vehicle_type_id":"4","last_reported":1731759408,"current_range_meters":38000,"station_id":"ce4bhc92rcd13ifvqetg","pricing_plan_id":"cebpf4jnsgd1na2vs0mg"},{"bike_id":"0ced7113-db48-4671-8b7b-648b43de37ab","system_id":"levelo_inurba_marseille","lat":43.27374,"lon":5.36256,"is_reserved":false,"is_disabled":false,"rental_uris":{"android":"levelo://app?vid=0ced7113-db48-4671-8b7b-648b43de37ab","ios":"levelo://app?vid=0ced7113-db48-4671-8b7b-648b43de37ab"},"vehicle_type_id":"4","last_reported":1731759408,"current_range_meters":40000,"station_id":"ce4bhbh2rcd13ifvqeo0","pricing_plan_id":"cebpf4jnsgd1na2vs0mg"},{"bike_id":"a668b72b-69d8-4b09-b6de-d87ab752cc3d","system_id":"levelo_inurba_marseille","lat":43.27906,"lon":5.38005,"is_reserved":false,"is_disabled":false,"rental_uris":{"android":"levelo://app?vid=a668b72b-69d8-4b09-b6de-d87ab752cc3d","ios":"levelo://app?vid=a668b72b-69d8-4b09-b6de-d87ab752cc3d"},"vehicle_type_id":"4","last_reported":1731759408,"current_range_meters":30800,"station_id":"ce4bhf92rcd13ifvqf50","pricing_plan_id":"cebpf4jnsgd1na2vs0mg"},{"bike_id":"75e58bc8-ed69-4a86-a30b-9e5abcadd741","system_id":"levelo_inurba_marseille","lat":43.25725,"lon":5.41107,"is_reserved":false,"is_disabled":false,"rental_uris":{"android":"levelo://app?vid=75e58bc8-ed69-4a86-a30b-9e5abcadd741","ios":"levelo://app?vid=75e58bc8-ed69-4a86-a30b-9e5abcadd741"},"vehicle_type_id":"4","last_reported":1731759408,"current_range_meters":36000,"station_id":"ce4bhkp2rcd13ifvqgd0","pricing_plan_id":"cebpf4jnsgd1na2vs0mg"},{"bike_id":"c3429b5d-0a8f-4b7c-81b0-334f0f780e95","system_id":"levelo_inurba_marseille","lat":43.298067,"lon":5.404083,"is_reserved":false,"is_disabled":false,"rental_uris":{"android":"levelo://app?vid=c3429b5d-0a8f-4b7c-81b0-334f0f780e95","ios":"levelo://app?vid=c3429b5d-0a8f-4b7c-81b0-334f0f780e95"},"vehicle_type_id":"4","last_reported":1731759408,"current_range_meters":39200,"station_id":"ce4bh112rcd13ifvqd90","pricing_plan_id":"cebpf4jnsgd1na2vs0mg"},{"bike_id":"bac9ea6d-d678-4ba7-b7d0-bd4735cfa5dd","system_id":"levelo_inurba_marseille","lat":43.31721,"lon":5.42391,"is_reserved":false,"is_disabled":false,"rental_uris":{"android":"levelo://app?vid=bac9ea6d-d678-4ba7-b7d0-bd4735cfa5dd","ios":"levelo://app?vid=bac9ea6d-d678-4ba7-b7d0-bd4735cfa5dd"},"vehicle_type_id":"4","last_reported":1731759408,"current_range_meters":38000,"station_id":"ce4bhp92rcd13ifvqhbg","pricing_plan_id":"cebpf4jnsgd1na2vs0mg"},{"bike_id":"efaacad8-2930-43e4-a64c-7b15599e5770","system_id":"levelo_inurba_marseille","lat":43.26586,"lon":5.39017,"is_reserved":false,"is_disabled":false,"rental_uris":{"android":"levelo://app?vid=efaacad8-2930-43e4-a64c-7b15599e5770","ios":"levelo://app?vid=efaacad8-2930-43e4-a64c-7b15599e5770"},"vehicle_type_id":"4","last_reported":1731759408,"current_range_meters":33200,"station_id":"ce4bhe12rcd13ifvqf30","pricing_plan_id":"cebpf4jnsgd1na2vs0mg"},{"bike_id":"d0d2b5d9-d57a-4879-b435-0110f20b1db6","system_id":"levelo_inurba_marseille","lat":43.29305,"lon":5.37464,"is_reserved":false,"is_disabled":false,"rental_uris":{"android":"levelo://app?vid=d0d2b5d9-d57a-4879-b435-0110f20b1db6","ios":"levelo://app?vid=d0d2b5d9-d57a-4879-b435-0110f20b1db6"},"vehicle_type_id":"4","last_reported":1731759408,"current_range_meters":36800,"station_id":"ce4bgi12rcd13ifvqb70","pricing_plan_id":"cebpf4jnsgd1na2vs0mg"},{"bike_id":"13ecd984-3bbf-449a-b4e0-2d024829111b","system_id":"levelo_inurba_marseille","lat":43.25935,"lon":5.40911,"is_reserved":false,"is_disabled":false,"rental_uris":{"android":"levelo://app?vid=13ecd984-3bbf-449a-b4e0-2d024829111b","ios":"levelo://app?vid=13ecd984-3bbf-449a-b4e0-2d024829111b"},"vehicle_type_id":"4","last_reported":1731759408,"current_range_meters":31200,"station_id":"ce4bhm92rcd13ifvqglg","pricing_plan_id":"cebpf4jnsgd1na2vs0mg"},{"bike_id":"ab6dc4ee-6007-4de0-8391-e0c3a471920a","system_id":"levelo_inurba_marseille","lat":43.29606,"lon":5.37712,"is_reserved":false,"is_disabled":false,"rental_uris":{"android":"levelo://app?vid=ab6dc4ee-6007-4de0-8391-e0c3a471920a","ios":"levelo://app?vid=ab6dc4ee-6007-4de0-8391-e0c3a471920a"},"vehicle_type_id":"4","last_reported":1731759408,"current_range_meters":26800,"station_id":"ce4bgi92rcd13ifvqb90","pricing_plan_id":"cebpf4jnsgd1na2vs0mg"},{"bike_id":"d9d8a7d9-cde4-4fab-ab69-fcee8fe6a6da","system_id":"levelo_inurba_marseille","lat":43.25003,"lon":5.38929,"is_reserved":false,"is_disabled":false,"rental_uris":{"android":"levelo://app?vid=d9d8a7d9-cde4-4fab-ab69-fcee8fe6a6da","ios":"levelo://app?vid=d9d8a7d9-cde4-4fab-ab69-fcee8fe6a6da"},"vehicle_type_id":"4","last_reported":1731759408,"current_range_meters":13600,"station_id":"ce4bhgp2rcd13ifvqfd0","pricing_plan_id":"cebpf4jnsgd1na2vs0mg"},{"bike_id":"2a4d0619-1af9-46f8-8f27-2f5bb3726a6d","system_id":"levelo_inurba_marseille","lat":43.24382,"lon":5.37011,"is_reserved":false,"is_disabled":false,"rental_uris":{"android":"levelo://app?vid=2a4d0619-1af9-46f8-8f27-2f5bb3726a6d","ios":"levelo://app?vid=2a4d0619-1af9-46f8-8f27-2f5bb3726a6d"},"vehicle_type_id":"4","last_reported":1731759408,"current_range_meters":38800,"station_id":"ce4bhhh2rcd13ifvqfk0","pricing_plan_id":"cebpf4jnsgd1na2vs0mg"},{"bike_id":"860f7f0f-99f3-49c9-8f27-d8f644f87c2f","system_id":"levelo_inurba_marseille","lat":43.27371,"lon":5.36263,"is_reserved":false,"is_disabled":false,"rental_uris":{"android":"levelo://app?vid=860f7f0f-99f3-49c9-8f27-d8f644f87c2f","ios":"levelo://app?vid=860f7f0f-99f3-49c9-8f27-d8f644f87c2f"},"vehicle_type_id":"4","last_reported":1731759408,"current_range_meters":39200,"station_id":"ce4bhbh2rcd13ifvqeo0","pricing_plan_id":"cebpf4jnsgd1na2vs0mg"},{"bike_id":"cecd4dbe-b789-4ef2-b972-0ab534ca376f","system_id":"levelo_inurba_marseille","lat":43.29722,"lon":5.37698,"is_reserved":false,"is_disabled":false,"rental_uris":{"android":"levelo://app?vid=cecd4dbe-b789-4ef2-b972-0ab534ca376f","ios":"levelo://app?vid=cecd4dbe-b789-4ef2-b972-0ab534ca376f"},"vehicle_type_id":"4","last_reported":1731759408,"current_range_meters":8400,"station_id":"ce4bgkh2rcd13ifvqbl0","pricing_plan_id":"cebpf4jnsgd1na2vs0mg"},{"bike_id":"4918d70d-bff2-495b-8e04-e7961a58f152","system_id":"levelo_inurba_marseille","lat":43.28726,"lon":5.37412,"is_reserved":false,"is_disabled":false,"rental_uris":{"android":"levelo://app?vid=4918d70d-bff2-495b-8e04-e7961a58f152","ios":"levelo://app?vid=4918d70d-bff2-495b-8e04-e7961a58f152"},"vehicle_type_id":"4","last_reported":1731759408,"current_range_meters":38400,"station_id":"ce4bh3p2rcd13ifvqdq0","pricing_plan_id":"cebpf4jnsgd1na2vs0mg"},{"bike_id":"38a37675-38da-4b91-87df-fb891f488796","system_id":"levelo_inurba_marseille","lat":43.25815,"lon":5.39435,"is_reserved":false,"is_disabled":false,"rental_uris":{"android":"levelo://app?vid=38a37675-38da-4b91-87df-fb891f488796","ios":"levelo://app?vid=38a37675-38da-4b91-87df-fb891f488796"},"vehicle_type_id":"4","last_reported":1731759408,"current_range_meters":37600,"station_id":"ce4bhip2rcd13ifvqft0","pricing_plan_id":"cebpf4jnsgd1na2vs0mg"},{"bike_id":"60413f7a-71cb-42c5-b0a9-edd027aa5b8b","system_id":"levelo_inurba_marseille","lat":43.2994,"lon":5.36539,"is_reserved":false,"is_disabled":false,"rental_uris":{"android":"levelo://app?vid=60413f7a-71cb-42c5-b0a9-edd027aa5b8b","ios":"levelo://app?vid=60413f7a-71cb-42c5-b0a9-edd027aa5b8b"},"vehicle_type_id":"4","last_reported":1731759408,"current_range_meters":28800,"station_id":"ce4bgm92rcd13ifvqbr0","pricing_plan_id":"cebpf4jnsgd1na2vs0mg"},{"bike_id":"a9a0df93-8c44-45b4-8814-7f8406867e71","system_id":"levelo_inurba_marseille","lat":43.30804,"lon":5.38161,"is_reserved":false,"is_disabled":false,"rental_uris":{"android":"levelo://app?vid=a9a0df93-8c44-45b4-8814-7f8406867e71","ios":"levelo://app?vid=a9a0df93-8c44-45b4-8814-7f8406867e71"},"vehicle_type_id":"4","last_reported":1731759408,"current_range_meters":38800,"station_id":"ce4bgt12rcd13ifvqce0","pricing_plan_id":"cebpf4jnsgd1na2vs0mg"},{"bike_id":"083506b1-8385-4e70-aa47-6a6ea122116b","system_id":"levelo_inurba_marseille","lat":43.2795,"lon":5.41051,"is_reserved":false,"is_disabled":false,"rental_uris":{"android":"levelo://app?vid=083506b1-8385-4e70-aa47-6a6ea122116b","ios":"levelo://app?vid=083506b1-8385-4e70-aa47-6a6ea122116b"},"vehicle_type_id":"4","last_reported":1731759408,"current_range_meters":12000,"station_id":"ce4bhnp2rcd13ifvqh0g","pricing_plan_id":"cebpf4jnsgd1na2vs0mg"},{"bike_id":"60dfa2fd-02a9-404e-ab04-d5d71ff40670","system_id":"levelo_inurba_marseille","lat":43.33765,"lon":5.37424,"is_reserved":false,"is_disabled":false,"rental_uris":{"android":"levelo://app?vid=60dfa2fd-02a9-404e-ab04-d5d71ff40670","ios":"levelo://app?vid=60dfa2fd-02a9-404e-ab04-d5d71ff40670"},"vehicle_type_id":"4","last_reported":1731759408,"current_range_meters":38800,"station_id":"","pricing_plan_id":"cebpf4jnsgd1na2vs0mg"},{"bike_id":"906347f7-b857-4677-b3f3-7720e8dfadfc","system_id":"levelo_inurba_marseille","lat":43.26935,"lon":5.40274,"is_reserved":false,"is_disabled":false,"rental_uris":{"android":"levelo://app?vid=906347f7-b857-4677-b3f3-7720e8dfadfc","ios":"levelo://app?vid=906347f7-b857-4677-b3f3-7720e8dfadfc"},"vehicle_type_id":"4","last_reported":1731759408,"current_range_meters":39200,"station_id":"cjm6bp8fraef2m0cb0m0","pricing_plan_id":"cebpf4jnsgd1na2vs0mg"},{"bike_id":"2b9c8386-fb3a-4d26-aa06-c1bfe47c12b9","system_id":"levelo_inurba_marseille","lat":43.2707,"lon":5.4228,"is_reserved":false,"is_disabled":false,"rental_uris":{"android":"levelo://app?vid=2b9c8386-fb3a-4d26-aa06-c1bfe47c12b9","ios":"levelo://app?vid=2b9c8386-fb3a-4d26-aa06-c1bfe47c12b9"},"vehicle_type_id":"4","last_reported":1731759408,"current_range_meters":38800,"station_id":"ce4bhk92rcd13ifvqgb0","pricing_plan_id":"cebpf4jnsgd1na2vs0mg"},{"bike_id":"6b0ea79e-cb12-4a50-9845-e4686b3cacc8","system_id":"levelo_inurba_marseille","lat":43.295751,"lon":5.399791,"is_reserved":false,"is_disabled":false,"rental_uris":{"android":"levelo://app?vid=6b0ea79e-cb12-4a50-9845-e4686b3cacc8","ios":"levelo://app?vid=6b0ea79e-cb12-4a50-9845-e4686b3cacc8"},"vehicle_type_id":"4","last_reported":1731759408,"current_range_meters":14400,"station_id":"","pricing_plan_id":"cebpf4jnsgd1na2vs0mg"},{"bike_id":"fcadc9df-00ed-4742-9aad-2922b88d8c1c","system_id":"levelo_inurba_marseille","lat":43.26802,"lon":5.40269,"is_reserved":false,"is_disabled":false,"rental_uris":{"android":"levelo://app?vid=fcadc9df-00ed-4742-9aad-2922b88d8c1c","ios":"levelo://app?vid=fcadc9df-00ed-4742-9aad-2922b88d8c1c"},"vehicle_type_id":"4","last_reported":1731759408,"current_range_meters":33600,"station_id":"ce4bh512rcd13ifvqe3g","pricing_plan_id":"cebpf4jnsgd1na2vs0mg"},{"bike_id":"4a74f469-1d99-48ee-a8ca-9199898c00a4","system_id":"levelo_inurba_marseille","lat":43.23211,"lon":5.35528,"is_reserved":false,"is_disabled":false,"rental_uris":{"android":"levelo://app?vid=4a74f469-1d99-48ee-a8ca-9199898c00a4","ios":"levelo://app?vid=4a74f469-1d99-48ee-a8ca-9199898c00a4"},"vehicle_type_id":"4","last_reported":1731759408,"current_range_meters":9200,"station_id":"ce4bhu92rcd13ifvqi70","pricing_plan_id":"cebpf4jnsgd1na2vs0mg"},{"bike_id":"9379ab22-f100-411d-a967-996a84e39d43","system_id":"levelo_inurba_marseille","lat":43.25494,"lon":5.37664,"is_reserved":false,"is_disabled":false,"rental_uris":{"android":"levelo://app?vid=9379ab22-f100-411d-a967-996a84e39d43","ios":"levelo://app?vid=9379ab22-f100-411d-a967-996a84e39d43"},"vehicle_type_id":"4","last_reported":1731759408,"current_range_meters":30400,"station_id":"ce4bhh12rcd13ifvqff0","pricing_plan_id":"cebpf4jnsgd1na2vs0mg"},{"bike_id":"2d00514c-8fa3-4a54-a5ab-4e2c3c95825a","system_id":"levelo_inurba_marseille","lat":43.25578,"lon":5.3823,"is_reserved":false,"is_disabled":false,"rental_uris":{"android":"levelo://app?vid=2d00514c-8fa3-4a54-a5ab-4e2c3c95825a","ios":"levelo://app?vid=2d00514c-8fa3-4a54-a5ab-4e2c3c95825a"},"vehicle_type_id":"4","last_reported":1731759408,"current_range_meters":6000,"station_id":"ce4bhih2rcd13ifvqfs0","pricing_plan_id":"cebpf4jnsgd1na2vs0mg"},{"bike_id":"837f58a2-5a0e-4a83-a411-897a63204915","system_id":"levelo_inurba_marseille","lat":43.30528,"lon":5.38428,"is_reserved":false,"is_disabled":false,"rental_uris":{"android":"levelo://app?vid=837f58a2-5a0e-4a83-a411-897a63204915","ios":"levelo://app?vid=837f58a2-5a0e-4a83-a411-897a63204915"},"vehicle_type_id":"4","last_reported":1731759408,"current_range_meters":30000,"station_id":"ce4bgg92rcd13ifvqb30","pricing_plan_id":"cebpf4jnsgd1na2vs0mg"},{"bike_id":"a787bf83-5a96-4ca7-b9f1-8d6f62b9bef8","system_id":"levelo_inurba_marseille","lat":43.284,"lon":5.37517,"is_reserved":false,"is_disabled":false,"rental_uris":{"android":"levelo://app?vid=a787bf83-5a96-4ca7-b9f1-8d6f62b9bef8","ios":"levelo://app?vid=a787bf83-5a96-4ca7-b9f1-8d6f62b9bef8"},"vehicle_type_id":"4","last_reported":1731759408,"current_range_meters":36800,"station_id":"ce4bh412rcd13ifvqds0","pricing_plan_id":"cebpf4jnsgd1na2vs0mg"},{"bike_id":"0fa27546-01ca-4fb8-9c28-277f910ffd7d","system_id":"levelo_inurba_marseille","lat":43.28462,"lon":5.359,"is_reserved":false,"is_disabled":false,"rental_uris":{"android":"levelo://app?vid=0fa27546-01ca-4fb8-9c28-277f910ffd7d","ios":"levelo://app?vid=0fa27546-01ca-4fb8-9c28-277f910ffd7d"},"vehicle_type_id":"4","last_reported":1731759408,"current_range_meters":37600,"station_id":"ce4bgg92rcd13ifvqb30","pricing_plan_id":"cebpf4jnsgd1na2vs0mg"},{"bike_id":"6450918e-7c82-4b45-9ed9-61543ee9aa65","system_id":"levelo_inurba_marseille","lat":43.26495,"lon":5.39545,"is_reserved":false,"is_disabled":false,"rental_uris":{"android":"levelo://app?vid=6450918e-7c82-4b45-9ed9-61543ee9aa65","ios":"levelo://app?vid=6450918e-7c82-4b45-9ed9-61543ee9aa65"},"vehicle_type_id":"4","last_reported":1731759408,"current_range_meters":25600,"station_id":"ce4bhi12rcd13ifvqfq0","pricing_plan_id":"cebpf4jnsgd1na2vs0mg"},{"bike_id":"f8661d75-a9d6-4f3e-930f-79b6d9eb8ecc","system_id":"levelo_inurba_marseille","lat":43.29581,"lon":5.36748,"is_reserved":false,"is_disabled":false,"rental_uris":{"android":"levelo://app?vid=f8661d75-a9d6-4f3e-930f-79b6d9eb8ecc","ios":"levelo://app?vid=f8661d75-a9d6-4f3e-930f-79b6d9eb8ecc"},"vehicle_type_id":"4","last_reported":1731759408,"current_range_meters":22800,"station_id":"ce4bgph2rcd13ifvqc2g","pricing_plan_id":"cebpf4jnsgd1na2vs0mg"},{"bike_id":"752fa91f-4962-469f-8bee-a80a786556e0","system_id":"levelo_inurba_marseille","lat":43.24387,"lon":5.37058,"is_reserved":false,"is_disabled":false,"rental_uris":{"android":"levelo://app?vid=752fa91f-4962-469f-8bee-a80a786556e0","ios":"levelo://app?vid=752fa91f-4962-469f-8bee-a80a786556e0"},"vehicle_type_id":"4","last_reported":1731759408,"current_range_meters":38800,"station_id":"ce4bhhh2rcd13ifvqfk0","pricing_plan_id":"cebpf4jnsgd1na2vs0mg"},{"bike_id":"638bf84a-c8e0-4058-9eb2-fcaf15e25675","system_id":"levelo_inurba_marseille","lat":43.30538,"lon":5.3652,"is_reserved":false,"is_disabled":false,"rental_uris":{"android":"levelo://app?vid=638bf84a-c8e0-4058-9eb2-fcaf15e25675","ios":"levelo://app?vid=638bf84a-c8e0-4058-9eb2-fcaf15e25675"},"vehicle_type_id":"4","last_reported":1731759408,"current_range_meters":27600,"station_id":"ce4bgs12rcd13ifvqcag","pricing_plan_id":"cebpf4jnsgd1na2vs0mg"},{"bike_id":"915ebdb7-7ffc-4a2b-b41e-9202a0849411","system_id":"levelo_inurba_marseille","lat":43.311218,"lon":5.377666,"is_reserved":false,"is_disabled":false,"rental_uris":{"android":"levelo://app?vid=915ebdb7-7ffc-4a2b-b41e-9202a0849411","ios":"levelo://app?vid=915ebdb7-7ffc-4a2b-b41e-9202a0849411"},"vehicle_type_id":"4","last_reported":1731759408,"current_range_meters":9600,"station_id":"ce4bgt92rcd13ifvqcg0","pricing_plan_id":"cebpf4jnsgd1na2vs0mg"},{"bike_id":"e1020878-a795-4adb-a507-e3ae12d62a0a","system_id":"levelo_inurba_marseille","lat":43.27173,"lon":5.40993,"is_reserved":false,"is_disabled":false,"rental_uris":{"android":"levelo://app?vid=e1020878-a795-4adb-a507-e3ae12d62a0a","ios":"levelo://app?vid=e1020878-a795-4adb-a507-e3ae12d62a0a"},"vehicle_type_id":"4","last_reported":1731759408,"current_range_meters":39200,"station_id":"ce4bhl12rcd13ifvqgf0","pricing_plan_id":"cebpf4jnsgd1na2vs0mg"},{"bike_id":"b5825e57-3464-4a22-8cf7-a34310074398","system_id":"levelo_inurba_marseille","lat":43.29583,"lon":5.3674,"is_reserved":false,"is_disabled":false,"rental_uris":{"android":"levelo://app?vid=b5825e57-3464-4a22-8cf7-a34310074398","ios":"levelo://app?vid=b5825e57-3464-4a22-8cf7-a34310074398"},"vehicle_type_id":"4","last_reported":1731759408,"current_range_meters":39200,"station_id":"ce4bgph2rcd13ifvqc2g","pricing_plan_id":"cebpf4jnsgd1na2vs0mg"},{"bike_id":"6875c373-3a3e-464e-8826-15cf173d3295","system_id":"levelo_inurba_marseille","lat":43.24165,"lon":5.36411,"is_reserved":false,"is_disabled":false,"rental_uris":{"android":"levelo://app?vid=6875c373-3a3e-464e-8826-15cf173d3295","ios":"levelo://app?vid=6875c373-3a3e-464e-8826-15cf173d3295"},"vehicle_type_id":"4","last_reported":1731759408,"current_range_meters":37600,"station_id":"cpo36qri1sfpv3e86is0","pricing_plan_id":"cebpf4jnsgd1na2vs0mg"},{"bike_id":"8b5f82c8-5d0f-4f01-8818-25860759f9b9","system_id":"levelo_inurba_marseille","lat":43.2319,"lon":5.35555,"is_reserved":false,"is_disabled":false,"rental_uris":{"android":"levelo://app?vid=8b5f82c8-5d0f-4f01-8818-25860759f9b9","ios":"levelo://app?vid=8b5f82c8-5d0f-4f01-8818-25860759f9b9"},"vehicle_type_id":"4","last_reported":1731759408,"current_range_meters":26000,"station_id":"ce4bhu92rcd13ifvqi70","pricing_plan_id":"cebpf4jnsgd1na2vs0mg"},{"bike_id":"27085de3-a81c-4a9c-8915-4b4ac3fed02e","system_id":"levelo_inurba_marseille","lat":43.27059,"lon":5.40257,"is_reserved":false,"is_disabled":false,"rental_uris":{"android":"levelo://app?vid=27085de3-a81c-4a9c-8915-4b4ac3fed02e","ios":"levelo://app?vid=27085de3-a81c-4a9c-8915-4b4ac3fed02e"},"vehicle_type_id":"4","last_reported":1731759408,"current_range_meters":22400,"station_id":"ce4bhk92rcd13ifvqgc0","pricing_plan_id":"cebpf4jnsgd1na2vs0mg"},{"bike_id":"d315d5ce-dec9-4141-968e-bc3a7bb885c0","system_id":"levelo_inurba_marseille","lat":43.29571,"lon":5.37504,"is_reserved":false,"is_disabled":false,"rental_uris":{"android":"levelo://app?vid=d315d5ce-dec9-4141-968e-bc3a7bb885c0","ios":"levelo://app?vid=d315d5ce-dec9-4141-968e-bc3a7bb885c0"},"vehicle_type_id":"4","last_reported":1731759408,"current_range_meters":38800,"station_id":"ce4bgh92rcd13ifvqb50","pricing_plan_id":"cebpf4jnsgd1na2vs0mg"},{"bike_id":"b4a11eee-4cdb-41b7-803e-439054ccaa2e","system_id":"levelo_inurba_marseille","lat":43.24663,"lon":5.38168,"is_reserved":false,"is_disabled":false,"rental_uris":{"android":"levelo://app?vid=b4a11eee-4cdb-41b7-803e-439054ccaa2e","ios":"levelo://app?vid=b4a11eee-4cdb-41b7-803e-439054ccaa2e"},"vehicle_type_id":"4","last_reported":1731759408,"current_range_meters":20400,"station_id":"ce4bhih2rcd13ifvqfr0","pricing_plan_id":"cebpf4jnsgd1na2vs0mg"},{"bike_id":"54837950-c928-4ffe-9ad1-246c52859268","system_id":"levelo_inurba_marseille","lat":43.25579,"lon":5.38238,"is_reserved":false,"is_disabled":false,"rental_uris":{"android":"levelo://app?vid=54837950-c928-4ffe-9ad1-246c52859268","ios":"levelo://app?vid=54837950-c928-4ffe-9ad1-246c52859268"},"vehicle_type_id":"4","last_reported":1731759408,"current_range_meters":28000,"station_id":"ce4bhih2rcd13ifvqfs0","pricing_plan_id":"cebpf4jnsgd1na2vs0mg"},{"bike_id":"a5373a09-bd19-4bac-934e-2e5760e30f0b","system_id":"levelo_inurba_marseille","lat":43.29582,"lon":5.37512,"is_reserved":false,"is_disabled":false,"rental_uris":{"android":"levelo://app?vid=a5373a09-bd19-4bac-934e-2e5760e30f0b","ios":"levelo://app?vid=a5373a09-bd19-4bac-934e-2e5760e30f0b"},"vehicle_type_id":"4","last_reported":1731759408,"current_range_meters":10800,"station_id":"ce4bgh92rcd13ifvqb50","pricing_plan_id":"cebpf4jnsgd1na2vs0mg"},{"bike_id":"3b2f9214-f4a1-4af0-8ea4-725389312500","system_id":"levelo_inurba_marseille","lat":43.337444,"lon":5.374475,"is_reserved":false,"is_disabled":false,"rental_uris":{"android":"levelo://app?vid=3b2f9214-f4a1-4af0-8ea4-725389312500","ios":"levelo://app?vid=3b2f9214-f4a1-4af0-8ea4-725389312500"},"vehicle_type_id":"4","last_reported":1731759408,"current_range_meters":37600,"station_id":"","pricing_plan_id":"cebpf4jnsgd1na2vs0mg"},{"bike_id":"31701f10-be20-4f51-b297-67bf3e7c5ac5","system_id":"levelo_inurba_marseille","lat":43.309052,"lon":5.38039,"is_reserved":false,"is_disabled":false,"rental_uris":{"android":"levelo://app?vid=31701f10-be20-4f51-b297-67bf3e7c5ac5","ios":"levelo://app?vid=31701f10-be20-4f51-b297-67bf3e7c5ac5"},"vehicle_type_id":"4","last_reported":1731759408,"current_range_meters":38800,"station_id":"ce4bgt12rcd13ifvqce0","pricing_plan_id":"cebpf4jnsgd1na2vs0mg"},{"bike_id":"4cbd7226-43bc-4a1c-b31a-f299d9bf5ede","system_id":"levelo_inurba_marseille","lat":43.25504,"lon":5.37654,"is_reserved":false,"is_disabled":false,"rental_uris":{"android":"levelo://app?vid=4cbd7226-43bc-4a1c-b31a-f299d9bf5ede","ios":"levelo://app?vid=4cbd7226-43bc-4a1c-b31a-f299d9bf5ede"},"vehicle_type_id":"4","last_reported":1731759408,"current_range_meters":40000,"station_id":"ce4bhh12rcd13ifvqff0","pricing_plan_id":"cebpf4jnsgd1na2vs0mg"},{"bike_id":"638ee7c2-fe87-45ad-9d30-192c05a964ea","system_id":"levelo_inurba_marseille","lat":43.26939,"lon":5.40244,"is_reserved":false,"is_disabled":false,"rental_uris":{"android":"levelo://app?vid=638ee7c2-fe87-45ad-9d30-192c05a964ea","ios":"levelo://app?vid=638ee7c2-fe87-45ad-9d30-192c05a964ea"},"vehicle_type_id":"4","last_reported":1731759408,"current_range_meters":30400,"station_id":"cjm6bp8fraef2m0cb0m0","pricing_plan_id":"cebpf4jnsgd1na2vs0mg"},{"bike_id":"31b75d55-7b11-49e2-9427-1fbf54457b83","system_id":"levelo_inurba_marseille","lat":43.28278,"lon":5.3507,"is_reserved":false,"is_disabled":false,"rental_uris":{"android":"levelo://app?vid=31b75d55-7b11-49e2-9427-1fbf54457b83","ios":"levelo://app?vid=31b75d55-7b11-49e2-9427-1fbf54457b83"},"vehicle_type_id":"4","last_reported":1731759408,"current_range_meters":39200,"station_id":"ce4bhbp2rcd13ifvqerg","pricing_plan_id":"cebpf4jnsgd1na2vs0mg"},{"bike_id":"9abd54d1-7da6-4ec2-90f9-8a3e190b5e37","system_id":"levelo_inurba_marseille","lat":43.25826,"lon":5.3943,"is_reserved":false,"is_disabled":false,"rental_uris":{"android":"levelo://app?vid=9abd54d1-7da6-4ec2-90f9-8a3e190b5e37","ios":"levelo://app?vid=9abd54d1-7da6-4ec2-90f9-8a3e190b5e37"},"vehicle_type_id":"4","last_reported":1731759408,"current_range_meters":22000,"station_id":"ce4bhip2rcd13ifvqft0","pricing_plan_id":"cebpf4jnsgd1na2vs0mg"},{"bike_id":"82588854-e185-482e-a51c-801099d30d24","system_id":"levelo_inurba_marseille","lat":43.24667,"lon":5.38166,"is_reserved":false,"is_disabled":false,"rental_uris":{"android":"levelo://app?vid=82588854-e185-482e-a51c-801099d30d24","ios":"levelo://app?vid=82588854-e185-482e-a51c-801099d30d24"},"vehicle_type_id":"4","last_reported":1731759408,"current_range_meters":9600,"station_id":"ce4bhih2rcd13ifvqfr0","pricing_plan_id":"cebpf4jnsgd1na2vs0mg"},{"bike_id":"628c1355-2ea0-4342-bd56-bd5cb0de6cab","system_id":"levelo_inurba_marseille","lat":43.32336,"lon":5.40629,"is_reserved":false,"is_disabled":false,"rental_uris":{"android":"levelo://app?vid=628c1355-2ea0-4342-bd56-bd5cb0de6cab","ios":"levelo://app?vid=628c1355-2ea0-4342-bd56-bd5cb0de6cab"},"vehicle_type_id":"4","last_reported":1731759408,"current_range_meters":2000,"station_id":"ce4bhq92rcd13ifvqhjg","pricing_plan_id":"cebpf4jnsgd1na2vs0mg"},{"bike_id":"28eea392-cf18-43a7-9f9c-fb2897fc5b32","system_id":"levelo_inurba_marseille","lat":43.30808,"lon":5.38146,"is_reserved":false,"is_disabled":false,"rental_uris":{"android":"levelo://app?vid=28eea392-cf18-43a7-9f9c-fb2897fc5b32","ios":"levelo://app?vid=28eea392-cf18-43a7-9f9c-fb2897fc5b32"},"vehicle_type_id":"4","last_reported":1731759408,"current_range_meters":34000,"station_id":"ce4bgt12rcd13ifvqce0","pricing_plan_id":"cebpf4jnsgd1na2vs0mg"},{"bike_id":"ed3a53e2-0eb8-4235-92cd-3c94f54b8d64","system_id":"levelo_inurba_marseille","lat":43.30535,"lon":5.3652,"is_reserved":false,"is_disabled":false,"rental_uris":{"android":"levelo://app?vid=ed3a53e2-0eb8-4235-92cd-3c94f54b8d64","ios":"levelo://app?vid=ed3a53e2-0eb8-4235-92cd-3c94f54b8d64"},"vehicle_type_id":"4","last_reported":1731759408,"current_range_meters":17600,"station_id":"ce4bgs12rcd13ifvqcag","pricing_plan_id":"cebpf4jnsgd1na2vs0mg"},{"bike_id":"e274446e-f32a-4464-837f-90a7639c55e2","system_id":"levelo_inurba_marseille","lat":43.24654,"lon":5.38172,"is_reserved":false,"is_disabled":false,"rental_uris":{"android":"levelo://app?vid=e274446e-f32a-4464-837f-90a7639c55e2","ios":"levelo://app?vid=e274446e-f32a-4464-837f-90a7639c55e2"},"vehicle_type_id":"4","last_reported":1731759408,"current_range_meters":17600,"station_id":"ce4bhih2rcd13ifvqfr0","pricing_plan_id":"cebpf4jnsgd1na2vs0mg"},{"bike_id":"b02cad58-3de4-410a-a29d-78e174a9d94a","system_id":"levelo_inurba_marseille","lat":43.23193,"lon":5.35548,"is_reserved":false,"is_disabled":false,"rental_uris":{"android":"levelo://app?vid=b02cad58-3de4-410a-a29d-78e174a9d94a","ios":"levelo://app?vid=b02cad58-3de4-410a-a29d-78e174a9d94a"},"vehicle_type_id":"4","last_reported":1731759408,"current_range_meters":38000,"station_id":"ce4bhu92rcd13ifvqi70","pricing_plan_id":"cebpf4jnsgd1na2vs0mg"},{"bike_id":"f4dae6c3-a983-4585-a665-788eeb9df138","system_id":"levelo_inurba_marseille","lat":43.29534,"lon":5.37512,"is_reserved":false,"is_disabled":false,"rental_uris":{"android":"levelo://app?vid=f4dae6c3-a983-4585-a665-788eeb9df138","ios":"levelo://app?vid=f4dae6c3-a983-4585-a665-788eeb9df138"},"vehicle_type_id":"4","last_reported":1731759408,"current_range_meters":29600,"station_id":"ce4bgkp2rcd13ifvqbmg","pricing_plan_id":"cebpf4jnsgd1na2vs0mg"},{"bike_id":"980c2b64-5ae6-4e8e-ac4f-88eb697394b6","system_id":"levelo_inurba_marseille","lat":43.25933,"lon":5.40911,"is_reserved":false,"is_disabled":false,"rental_uris":{"android":"levelo://app?vid=980c2b64-5ae6-4e8e-ac4f-88eb697394b6","ios":"levelo://app?vid=980c2b64-5ae6-4e8e-ac4f-88eb697394b6"},"vehicle_type_id":"4","last_reported":1731759408,"current_range_meters":19200,"station_id":"ce4bhm92rcd13ifvqglg","pricing_plan_id":"cebpf4jnsgd1na2vs0mg"},{"bike_id":"2dadf21e-ec09-4e24-b70e-5c5fae182956","system_id":"levelo_inurba_marseille","lat":43.25499,"lon":5.37652,"is_reserved":false,"is_disabled":false,"rental_uris":{"android":"levelo://app?vid=2dadf21e-ec09-4e24-b70e-5c5fae182956","ios":"levelo://app?vid=2dadf21e-ec09-4e24-b70e-5c5fae182956"},"vehicle_type_id":"4","last_reported":1731759408,"current_range_meters":30400,"station_id":"ce4bhh12rcd13ifvqff0","pricing_plan_id":"cebpf4jnsgd1na2vs0mg"},{"bike_id":"f82da10c-cf42-4d1e-8b05-fcaa6def071f","system_id":"levelo_inurba_marseille","lat":43.29622,"lon":5.37153,"is_reserved":false,"is_disabled":false,"rental_uris":{"android":"levelo://app?vid=f82da10c-cf42-4d1e-8b05-fcaa6def071f","ios":"levelo://app?vid=f82da10c-cf42-4d1e-8b05-fcaa6def071f"},"vehicle_type_id":"4","last_reported":1731759408,"current_range_meters":35600,"station_id":"ce4bgnh2rcd13ifvqc0g","pricing_plan_id":"cebpf4jnsgd1na2vs0mg"},{"bike_id":"7da8785d-8ceb-437a-9d70-92acc0f4f423","system_id":"levelo_inurba_marseille","lat":43.25575,"lon":5.38229,"is_reserved":false,"is_disabled":false,"rental_uris":{"android":"levelo://app?vid=7da8785d-8ceb-437a-9d70-92acc0f4f423","ios":"levelo://app?vid=7da8785d-8ceb-437a-9d70-92acc0f4f423"},"vehicle_type_id":"4","last_reported":1731759408,"current_range_meters":33600,"station_id":"ce4bhih2rcd13ifvqfs0","pricing_plan_id":"cebpf4jnsgd1na2vs0mg"},{"bike_id":"c7ad3112-6fa1-480b-b6f6-f0b1dce495ed","system_id":"levelo_inurba_marseille","lat":43.27381,"lon":5.3625,"is_reserved":false,"is_disabled":false,"rental_uris":{"android":"levelo://app?vid=c7ad3112-6fa1-480b-b6f6-f0b1dce495ed","ios":"levelo://app?vid=c7ad3112-6fa1-480b-b6f6-f0b1dce495ed"},"vehicle_type_id":"4","last_reported":1731759408,"current_range_meters":36800,"station_id":"ce4bhbh2rcd13ifvqeo0","pricing_plan_id":"cebpf4jnsgd1na2vs0mg"},{"bike_id":"3fb6e5ba-5339-482a-aa9a-4b5d048de305","system_id":"levelo_inurba_marseille","lat":43.2962,"lon":5.3773,"is_reserved":false,"is_disabled":false,"rental_uris":{"android":"levelo://app?vid=3fb6e5ba-5339-482a-aa9a-4b5d048de305","ios":"levelo://app?vid=3fb6e5ba-5339-482a-aa9a-4b5d048de305"},"vehicle_type_id":"4","last_reported":1731759408,"current_range_meters":16800,"station_id":"ce4bgi92rcd13ifvqb90","pricing_plan_id":"cebpf4jnsgd1na2vs0mg"},{"bike_id":"da6c4056-b9d9-4fbd-9bff-fdbb53bf99fa","system_id":"levelo_inurba_marseille","lat":43.31715,"lon":5.37751,"is_reserved":false,"is_disabled":false,"rental_uris":{"android":"levelo://app?vid=da6c4056-b9d9-4fbd-9bff-fdbb53bf99fa","ios":"levelo://app?vid=da6c4056-b9d9-4fbd-9bff-fdbb53bf99fa"},"vehicle_type_id":"4","last_reported":1731759408,"current_range_meters":39200,"station_id":"ce4bgth2rcd13ifvqch0","pricing_plan_id":"cebpf4jnsgd1na2vs0mg"},{"bike_id":"decfdfa3-3c86-4a53-8dff-a825db127ec6","system_id":"levelo_inurba_marseille","lat":43.29106,"lon":5.4174,"is_reserved":false,"is_disabled":false,"rental_uris":{"android":"levelo://app?vid=decfdfa3-3c86-4a53-8dff-a825db127ec6","ios":"levelo://app?vid=decfdfa3-3c86-4a53-8dff-a825db127ec6"},"vehicle_type_id":"4","last_reported":1731759408,"current_range_meters":30000,"station_id":"","pricing_plan_id":"cebpf4jnsgd1na2vs0mg"},{"bike_id":"46632805-d598-46ca-8978-4f5e71b702c6","system_id":"levelo_inurba_marseille","lat":43.28147,"lon":5.42635,"is_reserved":false,"is_disabled":false,"rental_uris":{"android":"levelo://app?vid=46632805-d598-46ca-8978-4f5e71b702c6","ios":"levelo://app?vid=46632805-d598-46ca-8978-4f5e71b702c6"},"vehicle_type_id":"4","last_reported":1731759408,"current_range_meters":37600,"station_id":"ce4bhnh2rcd13ifvqgug","pricing_plan_id":"cebpf4jnsgd1na2vs0mg"},{"bike_id":"d9906bd0-44a4-461f-ad8c-6931dca74a9e","system_id":"levelo_inurba_marseille","lat":43.23184,"lon":5.35542,"is_reserved":false,"is_disabled":false,"rental_uris":{"android":"levelo://app?vid=d9906bd0-44a4-461f-ad8c-6931dca74a9e","ios":"levelo://app?vid=d9906bd0-44a4-461f-ad8c-6931dca74a9e"},"vehicle_type_id":"4","last_reported":1731759408,"current_range_meters":33200,"station_id":"ce4bhu92rcd13ifvqi70","pricing_plan_id":"cebpf4jnsgd1na2vs0mg"},{"bike_id":"811aec99-0ab9-44a4-a760-19620ef9a65c","system_id":"levelo_inurba_marseille","lat":43.30549,"lon":5.36707,"is_reserved":false,"is_disabled":false,"rental_uris":{"android":"levelo://app?vid=811aec99-0ab9-44a4-a760-19620ef9a65c","ios":"levelo://app?vid=811aec99-0ab9-44a4-a760-19620ef9a65c"},"vehicle_type_id":"4","last_reported":1731759408,"current_range_meters":12400,"station_id":"ce4bgrp2rcd13ifvqc9g","pricing_plan_id":"cebpf4jnsgd1na2vs0mg"},{"bike_id":"78c8b720-d06e-48e6-8867-066c50e53e96","system_id":"levelo_inurba_marseille","lat":43.29431,"lon":5.38601,"is_reserved":false,"is_disabled":false,"rental_uris":{"android":"levelo://app?vid=78c8b720-d06e-48e6-8867-066c50e53e96","ios":"levelo://app?vid=78c8b720-d06e-48e6-8867-066c50e53e96"},"vehicle_type_id":"4","last_reported":1731759408,"current_range_meters":24000,"station_id":"ce4bh2h2rcd13ifvqdh0","pricing_plan_id":"cebpf4jnsgd1na2vs0mg"},{"bike_id":"2c7da520-bf3f-4579-bbaf-d8bed38515fb","system_id":"levelo_inurba_marseille","lat":43.24647,"lon":5.38897,"is_reserved":false,"is_disabled":false,"rental_uris":{"android":"levelo://app?vid=2c7da520-bf3f-4579-bbaf-d8bed38515fb","ios":"levelo://app?vid=2c7da520-bf3f-4579-bbaf-d8bed38515fb"},"vehicle_type_id":"4","last_reported":1731759408,"current_range_meters":39200,"station_id":"ce4bhg12rcd13ifvqf60","pricing_plan_id":"cebpf4jnsgd1na2vs0mg"},{"bike_id":"589eab06-680a-4b38-8262-d7927ca5535f","system_id":"levelo_inurba_marseille","lat":43.31361,"lon":5.38494,"is_reserved":false,"is_disabled":false,"rental_uris":{"android":"levelo://app?vid=589eab06-680a-4b38-8262-d7927ca5535f","ios":"levelo://app?vid=589eab06-680a-4b38-8262-d7927ca5535f"},"vehicle_type_id":"4","last_reported":1731759408,"current_range_meters":10000,"station_id":"ce4bgt92rcd13ifvqcf0","pricing_plan_id":"cebpf4jnsgd1na2vs0mg"},{"bike_id":"d450545d-116d-4b19-a52c-b8eb7dcdcab9","system_id":"levelo_inurba_marseille","lat":43.25578,"lon":5.38238,"is_reserved":false,"is_disabled":false,"rental_uris":{"android":"levelo://app?vid=d450545d-116d-4b19-a52c-b8eb7dcdcab9","ios":"levelo://app?vid=d450545d-116d-4b19-a52c-b8eb7dcdcab9"},"vehicle_type_id":"4","last_reported":1731759408,"current_range_meters":18000,"station_id":"ce4bhih2rcd13ifvqfs0","pricing_plan_id":"cebpf4jnsgd1na2vs0mg"},{"bike_id":"36153c6b-e3e9-4ef1-9f64-153b02bef0bc","system_id":"levelo_inurba_marseille","lat":43.31697,"lon":5.37752,"is_reserved":false,"is_disabled":false,"rental_uris":{"android":"levelo://app?vid=36153c6b-e3e9-4ef1-9f64-153b02bef0bc","ios":"levelo://app?vid=36153c6b-e3e9-4ef1-9f64-153b02bef0bc"},"vehicle_type_id":"4","last_reported":1731759408,"current_range_meters":39200,"station_id":"ce4bgth2rcd13ifvqch0","pricing_plan_id":"cebpf4jnsgd1na2vs0mg"},{"bike_id":"c7df644c-1bb2-4c76-a135-c3504f376860","system_id":"levelo_inurba_marseille","lat":43.23201,"lon":5.35549,"is_reserved":false,"is_disabled":false,"rental_uris":{"android":"levelo://app?vid=c7df644c-1bb2-4c76-a135-c3504f376860","ios":"levelo://app?vid=c7df644c-1bb2-4c76-a135-c3504f376860"},"vehicle_type_id":"4","last_reported":1731759408,"current_range_meters":20000,"station_id":"ce4bhu92rcd13ifvqi70","pricing_plan_id":"cebpf4jnsgd1na2vs0mg"},{"bike_id":"a65a2419-69e6-4d19-b1e3-3abe61fd327b","system_id":"levelo_inurba_marseille","lat":43.24811,"lon":5.37458,"is_reserved":false,"is_disabled":false,"rental_uris":{"android":"levelo://app?vid=a65a2419-69e6-4d19-b1e3-3abe61fd327b","ios":"levelo://app?vid=a65a2419-69e6-4d19-b1e3-3abe61fd327b"},"vehicle_type_id":"4","last_reported":1731759408,"current_range_meters":36400,"station_id":"ce4bhgh2rcd13ifvqfb0","pricing_plan_id":"cebpf4jnsgd1na2vs0mg"},{"bike_id":"d206d41a-8ea1-48b7-8dea-76f005b54e28","system_id":"levelo_inurba_marseille","lat":43.33764,"lon":5.37435,"is_reserved":false,"is_disabled":false,"rental_uris":{"android":"levelo://app?vid=d206d41a-8ea1-48b7-8dea-76f005b54e28","ios":"levelo://app?vid=d206d41a-8ea1-48b7-8dea-76f005b54e28"},"vehicle_type_id":"4","last_reported":1731759408,"current_range_meters":26000,"station_id":"","pricing_plan_id":"cebpf4jnsgd1na2vs0mg"},{"bike_id":"07f5ce7b-a911-43b0-8f5f-cdccb058e6cb","system_id":"levelo_inurba_marseille","lat":43.275623,"lon":5.384342,"is_reserved":false,"is_disabled":false,"rental_uris":{"android":"levelo://app?vid=07f5ce7b-a911-43b0-8f5f-cdccb058e6cb","ios":"levelo://app?vid=07f5ce7b-a911-43b0-8f5f-cdccb058e6cb"},"vehicle_type_id":"4","last_reported":1731759408,"current_range_meters":8400,"station_id":"ce4bhh92rcd13ifvqfi0","pricing_plan_id":"cebpf4jnsgd1na2vs0mg"},{"bike_id":"2116cd13-fe41-4de1-ac30-2e835b20508b","system_id":"levelo_inurba_marseille","lat":43.290375,"lon":5.399641,"is_reserved":false,"is_disabled":false,"rental_uris":{"android":"levelo://app?vid=2116cd13-fe41-4de1-ac30-2e835b20508b","ios":"levelo://app?vid=2116cd13-fe41-4de1-ac30-2e835b20508b"},"vehicle_type_id":"4","last_reported":1731759408,"current_range_meters":2000,"station_id":"cjm6bp8fraef2m0cb0m0","pricing_plan_id":"cebpf4jnsgd1na2vs0mg"},{"bike_id":"3714043f-73e7-4319-b499-dab8c9206828","system_id":"levelo_inurba_marseille","lat":43.28473,"lon":5.35859,"is_reserved":false,"is_disabled":false,"rental_uris":{"android":"levelo://app?vid=3714043f-73e7-4319-b499-dab8c9206828","ios":"levelo://app?vid=3714043f-73e7-4319-b499-dab8c9206828"},"vehicle_type_id":"4","last_reported":1731759408,"current_range_meters":27600,"station_id":"ce4bhah2rcd13ifvqej0","pricing_plan_id":"cebpf4jnsgd1na2vs0mg"},{"bike_id":"03e5a4f6-6982-436d-b77f-1677e38b4eea","system_id":"levelo_inurba_marseille","lat":43.28974,"lon":5.3784,"is_reserved":false,"is_disabled":false,"rental_uris":{"android":"levelo://app?vid=03e5a4f6-6982-436d-b77f-1677e38b4eea","ios":"levelo://app?vid=03e5a4f6-6982-436d-b77f-1677e38b4eea"},"vehicle_type_id":"4","last_reported":1731759408,"current_range_meters":11200,"station_id":"ce4bh9p2rcd13ifvqed0","pricing_plan_id":"cebpf4jnsgd1na2vs0mg"},{"bike_id":"790295b7-d5bb-462b-bb8d-95bc5723c815","system_id":"levelo_inurba_marseille","lat":43.24649,"lon":5.38899,"is_reserved":false,"is_disabled":false,"rental_uris":{"android":"levelo://app?vid=790295b7-d5bb-462b-bb8d-95bc5723c815","ios":"levelo://app?vid=790295b7-d5bb-462b-bb8d-95bc5723c815"},"vehicle_type_id":"4","last_reported":1731759408,"current_range_meters":36000,"station_id":"ce4bhg12rcd13ifvqf60","pricing_plan_id":"cebpf4jnsgd1na2vs0mg"},{"bike_id":"7505801d-8f05-4cd1-a1e1-caeb85c97642","system_id":"levelo_inurba_marseille","lat":43.29618,"lon":5.37171,"is_reserved":false,"is_disabled":false,"rental_uris":{"android":"levelo://app?vid=7505801d-8f05-4cd1-a1e1-caeb85c97642","ios":"levelo://app?vid=7505801d-8f05-4cd1-a1e1-caeb85c97642"},"vehicle_type_id":"4","last_reported":1731759408,"current_range_meters":24000,"station_id":"ce4bgnh2rcd13ifvqc0g","pricing_plan_id":"cebpf4jnsgd1na2vs0mg"},{"bike_id":"7407ba55-0e69-463f-b9ed-ec68973f1e99","system_id":"levelo_inurba_marseille","lat":43.27899,"lon":5.38011,"is_reserved":false,"is_disabled":false,"rental_uris":{"android":"levelo://app?vid=7407ba55-0e69-463f-b9ed-ec68973f1e99","ios":"levelo://app?vid=7407ba55-0e69-463f-b9ed-ec68973f1e99"},"vehicle_type_id":"4","last_reported":1731759408,"current_range_meters":26800,"station_id":"ce4bhf92rcd13ifvqf50","pricing_plan_id":"cebpf4jnsgd1na2vs0mg"},{"bike_id":"311ff7fc-adba-4c98-abf6-61341c6e123d","system_id":"levelo_inurba_marseille","lat":43.28441,"lon":5.39185,"is_reserved":false,"is_disabled":false,"rental_uris":{"android":"levelo://app?vid=311ff7fc-adba-4c98-abf6-61341c6e123d","ios":"levelo://app?vid=311ff7fc-adba-4c98-abf6-61341c6e123d"},"vehicle_type_id":"4","last_reported":1731759408,"current_range_meters":35600,"station_id":"ce4bhoh2rcd13ifvqh5g","pricing_plan_id":"cebpf4jnsgd1na2vs0mg"},{"bike_id":"ffe4c0c8-ec33-4bbf-8256-776177c0ca66","system_id":"levelo_inurba_marseille","lat":43.3302,"lon":5.39037,"is_reserved":false,"is_disabled":false,"rental_uris":{"android":"levelo://app?vid=ffe4c0c8-ec33-4bbf-8256-776177c0ca66","ios":"levelo://app?vid=ffe4c0c8-ec33-4bbf-8256-776177c0ca66"},"vehicle_type_id":"4","last_reported":1731759408,"current_range_meters":4000,"station_id":"ce4bhr92rcd13ifvqhrg","pricing_plan_id":"cebpf4jnsgd1na2vs0mg"},{"bike_id":"f0136ab4-0897-49b7-93c6-1bea7ea8d17a","system_id":"levelo_inurba_marseille","lat":43.27809,"lon":5.40716,"is_reserved":false,"is_disabled":false,"rental_uris":{"android":"levelo://app?vid=f0136ab4-0897-49b7-93c6-1bea7ea8d17a","ios":"levelo://app?vid=f0136ab4-0897-49b7-93c6-1bea7ea8d17a"},"vehicle_type_id":"4","last_reported":1731759408,"current_range_meters":12400,"station_id":"ce4bhnh2rcd13ifvqgtg","pricing_plan_id":"cebpf4jnsgd1na2vs0mg"},{"bike_id":"be2c094e-e362-44a9-b900-82a1deaa056e","system_id":"levelo_inurba_marseille","lat":43.2902,"lon":5.38126,"is_reserved":false,"is_disabled":false,"rental_uris":{"android":"levelo://app?vid=be2c094e-e362-44a9-b900-82a1deaa056e","ios":"levelo://app?vid=be2c094e-e362-44a9-b900-82a1deaa056e"},"vehicle_type_id":"4","last_reported":1731759408,"current_range_meters":16000,"station_id":"ce4bh4p2rcd13ifvqe1g","pricing_plan_id":"cebpf4jnsgd1na2vs0mg"},{"bike_id":"36431332-30c9-4c92-a4d2-20d5845ab51d","system_id":"levelo_inurba_marseille","lat":43.2749,"lon":5.42463,"is_reserved":false,"is_disabled":false,"rental_uris":{"android":"levelo://app?vid=36431332-30c9-4c92-a4d2-20d5845ab51d","ios":"levelo://app?vid=36431332-30c9-4c92-a4d2-20d5845ab51d"},"vehicle_type_id":"4","last_reported":1731759408,"current_range_meters":25200,"station_id":"ce4bhn92rcd13ifvqgrg","pricing_plan_id":"cebpf4jnsgd1na2vs0mg"},{"bike_id":"28c946ca-2988-47ac-a907-5cca6518a2e4","system_id":"levelo_inurba_marseille","lat":43.31173,"lon":5.38711,"is_reserved":false,"is_disabled":false,"rental_uris":{"android":"levelo://app?vid=28c946ca-2988-47ac-a907-5cca6518a2e4","ios":"levelo://app?vid=28c946ca-2988-47ac-a907-5cca6518a2e4"},"vehicle_type_id":"4","last_reported":1731759408,"current_range_meters":26000,"station_id":"ce4bgv12rcd13ifvqcp0","pricing_plan_id":"cebpf4jnsgd1na2vs0mg"},{"bike_id":"d7cad7ba-a3cf-4113-8f4d-63bd503bb522","system_id":"levelo_inurba_marseille","lat":43.27606,"lon":5.36114,"is_reserved":false,"is_disabled":false,"rental_uris":{"android":"levelo://app?vid=d7cad7ba-a3cf-4113-8f4d-63bd503bb522","ios":"levelo://app?vid=d7cad7ba-a3cf-4113-8f4d-63bd503bb522"},"vehicle_type_id":"4","last_reported":1731759408,"current_range_meters":19600,"station_id":"ce4bgj92rcd13ifvqbe0","pricing_plan_id":"cebpf4jnsgd1na2vs0mg"},{"bike_id":"9101a75c-5285-491f-9180-5f6c8675c1a3","system_id":"levelo_inurba_marseille","lat":43.27944,"lon":5.41041,"is_reserved":false,"is_disabled":false,"rental_uris":{"android":"levelo://app?vid=9101a75c-5285-491f-9180-5f6c8675c1a3","ios":"levelo://app?vid=9101a75c-5285-491f-9180-5f6c8675c1a3"},"vehicle_type_id":"4","last_reported":1731759408,"current_range_meters":32000,"station_id":"ce4bhnp2rcd13ifvqh0g","pricing_plan_id":"cebpf4jnsgd1na2vs0mg"},{"bike_id":"1187d249-3a0b-494b-abc3-854b255d2820","system_id":"levelo_inurba_marseille","lat":43.26949,"lon":5.38632,"is_reserved":false,"is_disabled":false,"rental_uris":{"android":"levelo://app?vid=1187d249-3a0b-494b-abc3-854b255d2820","ios":"levelo://app?vid=1187d249-3a0b-494b-abc3-854b255d2820"},"vehicle_type_id":"4","last_reported":1731759408,"current_range_meters":37600,"station_id":"ce4bhh92rcd13ifvqfh0","pricing_plan_id":"cebpf4jnsgd1na2vs0mg"},{"bike_id":"bc6a0de5-5039-4308-924c-5c1c160c1447","system_id":"levelo_inurba_marseille","lat":43.28476,"lon":5.3842,"is_reserved":false,"is_disabled":false,"rental_uris":{"android":"levelo://app?vid=bc6a0de5-5039-4308-924c-5c1c160c1447","ios":"levelo://app?vid=bc6a0de5-5039-4308-924c-5c1c160c1447"},"vehicle_type_id":"4","last_reported":1731759408,"current_range_meters":29600,"station_id":"ce4bh512rcd13ifvqe3g","pricing_plan_id":"cebpf4jnsgd1na2vs0mg"},{"bike_id":"9d256885-f74a-4bdd-9fc1-fad5baf98559","system_id":"levelo_inurba_marseille","lat":43.27482,"lon":5.42462,"is_reserved":false,"is_disabled":false,"rental_uris":{"android":"levelo://app?vid=9d256885-f74a-4bdd-9fc1-fad5baf98559","ios":"levelo://app?vid=9d256885-f74a-4bdd-9fc1-fad5baf98559"},"vehicle_type_id":"4","last_reported":1731759408,"current_range_meters":18000,"station_id":"ce4bhn92rcd13ifvqgrg","pricing_plan_id":"cebpf4jnsgd1na2vs0mg"},{"bike_id":"3f37f7d7-cfd0-46ff-ad64-e239f9c03c2e","system_id":"levelo_inurba_marseille","lat":43.33023,"lon":5.39041,"is_reserved":false,"is_disabled":false,"rental_uris":{"android":"levelo://app?vid=3f37f7d7-cfd0-46ff-ad64-e239f9c03c2e","ios":"levelo://app?vid=3f37f7d7-cfd0-46ff-ad64-e239f9c03c2e"},"vehicle_type_id":"4","last_reported":1731759408,"current_range_meters":39200,"station_id":"ce4bhr92rcd13ifvqhrg","pricing_plan_id":"cebpf4jnsgd1na2vs0mg"},{"bike_id":"240dd667-a231-4aba-bc4a-4e1a658faf3c","system_id":"levelo_inurba_marseille","lat":43.28725,"lon":5.37936,"is_reserved":false,"is_disabled":false,"rental_uris":{"android":"levelo://app?vid=240dd667-a231-4aba-bc4a-4e1a658faf3c","ios":"levelo://app?vid=240dd667-a231-4aba-bc4a-4e1a658faf3c"},"vehicle_type_id":"4","last_reported":1731759408,"current_range_meters":25200,"station_id":"ce4bh9p2rcd13ifvqec0","pricing_plan_id":"cebpf4jnsgd1na2vs0mg"},{"bike_id":"c8d81f8a-481c-4fb3-ba46-4f99661be3b4","system_id":"levelo_inurba_marseille","lat":43.29791,"lon":5.37105,"is_reserved":false,"is_disabled":false,"rental_uris":{"android":"levelo://app?vid=c8d81f8a-481c-4fb3-ba46-4f99661be3b4","ios":"levelo://app?vid=c8d81f8a-481c-4fb3-ba46-4f99661be3b4"},"vehicle_type_id":"4","last_reported":1731759408,"current_range_meters":38400,"station_id":"ce4bgop2rcd13ifvqc1g","pricing_plan_id":"cebpf4jnsgd1na2vs0mg"},{"bike_id":"febceee8-9349-4646-85b1-b868e8c3b497","system_id":"levelo_inurba_marseille","lat":43.28424,"lon":5.34997,"is_reserved":false,"is_disabled":false,"rental_uris":{"android":"levelo://app?vid=febceee8-9349-4646-85b1-b868e8c3b497","ios":"levelo://app?vid=febceee8-9349-4646-85b1-b868e8c3b497"},"vehicle_type_id":"4","last_reported":1731759408,"current_range_meters":15200,"station_id":"ce4bhbh2rcd13ifvqepg","pricing_plan_id":"cebpf4jnsgd1na2vs0mg"},{"bike_id":"d6029a07-4312-42af-9590-5c6b5c606e61","system_id":"levelo_inurba_marseille","lat":43.25579,"lon":5.38238,"is_reserved":false,"is_disabled":false,"rental_uris":{"android":"levelo://app?vid=d6029a07-4312-42af-9590-5c6b5c606e61","ios":"levelo://app?vid=d6029a07-4312-42af-9590-5c6b5c606e61"},"vehicle_type_id":"4","last_reported":1731759408,"current_range_meters":38000,"station_id":"ce4bhih2rcd13ifvqfs0","pricing_plan_id":"cebpf4jnsgd1na2vs0mg"},{"bike_id":"351eb419-d411-4017-a3aa-d6931858a388","system_id":"levelo_inurba_marseille","lat":43.29576,"lon":5.36747,"is_reserved":false,"is_disabled":false,"rental_uris":{"android":"levelo://app?vid=351eb419-d411-4017-a3aa-d6931858a388","ios":"levelo://app?vid=351eb419-d411-4017-a3aa-d6931858a388"},"vehicle_type_id":"4","last_reported":1731759408,"current_range_meters":19600,"station_id":"ce4bgph2rcd13ifvqc2g","pricing_plan_id":"cebpf4jnsgd1na2vs0mg"},{"bike_id":"9fd7a1f3-a23b-430f-a46e-07797ec16f5d","system_id":"levelo_inurba_marseille","lat":43.33779,"lon":5.3747,"is_reserved":false,"is_disabled":false,"rental_uris":{"android":"levelo://app?vid=9fd7a1f3-a23b-430f-a46e-07797ec16f5d","ios":"levelo://app?vid=9fd7a1f3-a23b-430f-a46e-07797ec16f5d"},"vehicle_type_id":"4","last_reported":1731759408,"current_range_meters":37600,"station_id":"","pricing_plan_id":"cebpf4jnsgd1na2vs0mg"},{"bike_id":"911a706d-c30e-4a39-9d34-42e795497fc6","system_id":"levelo_inurba_marseille","lat":43.33612,"lon":5.410309,"is_reserved":false,"is_disabled":false,"rental_uris":{"android":"levelo://app?vid=911a706d-c30e-4a39-9d34-42e795497fc6","ios":"levelo://app?vid=911a706d-c30e-4a39-9d34-42e795497fc6"},"vehicle_type_id":"4","last_reported":1731759408,"current_range_meters":28400,"station_id":"ce4bhpp2rcd13ifvqhgg","pricing_plan_id":"cebpf4jnsgd1na2vs0mg"},{"bike_id":"76fda271-4bcd-4529-8397-8074a1eff7fe","system_id":"levelo_inurba_marseille","lat":43.3376,"lon":5.37436,"is_reserved":false,"is_disabled":false,"rental_uris":{"android":"levelo://app?vid=76fda271-4bcd-4529-8397-8074a1eff7fe","ios":"levelo://app?vid=76fda271-4bcd-4529-8397-8074a1eff7fe"},"vehicle_type_id":"4","last_reported":1731759408,"current_range_meters":38000,"station_id":"","pricing_plan_id":"cebpf4jnsgd1na2vs0mg"},{"bike_id":"e6b0eba7-6836-417c-8e25-97eef808b3c4","system_id":"levelo_inurba_marseille","lat":43.25726,"lon":5.41109,"is_reserved":false,"is_disabled":false,"rental_uris":{"android":"levelo://app?vid=e6b0eba7-6836-417c-8e25-97eef808b3c4","ios":"levelo://app?vid=e6b0eba7-6836-417c-8e25-97eef808b3c4"},"vehicle_type_id":"4","last_reported":1731759408,"current_range_meters":11200,"station_id":"ce4bhkp2rcd13ifvqgd0","pricing_plan_id":"cebpf4jnsgd1na2vs0mg"},{"bike_id":"77e98fa8-2403-4754-b6f6-34c4f430fecf","system_id":"levelo_inurba_marseille","lat":43.26205,"lon":5.37454,"is_reserved":false,"is_disabled":false,"rental_uris":{"android":"levelo://app?vid=77e98fa8-2403-4754-b6f6-34c4f430fecf","ios":"levelo://app?vid=77e98fa8-2403-4754-b6f6-34c4f430fecf"},"vehicle_type_id":"4","last_reported":1731759408,"current_range_meters":36400,"station_id":"ce4bhgp2rcd13ifvqfc0","pricing_plan_id":"cebpf4jnsgd1na2vs0mg"},{"bike_id":"1c1d0c67-df50-4184-b2ad-5c67dab81714","system_id":"levelo_inurba_marseille","lat":43.29727,"lon":5.37692,"is_reserved":false,"is_disabled":false,"rental_uris":{"android":"levelo://app?vid=1c1d0c67-df50-4184-b2ad-5c67dab81714","ios":"levelo://app?vid=1c1d0c67-df50-4184-b2ad-5c67dab81714"},"vehicle_type_id":"4","last_reported":1731759408,"current_range_meters":16400,"station_id":"ce4bgkh2rcd13ifvqbl0","pricing_plan_id":"cebpf4jnsgd1na2vs0mg"},{"bike_id":"17d99e59-a66e-466d-9a10-533fe09329c2","system_id":"levelo_inurba_marseille","lat":43.28844,"lon":5.39322,"is_reserved":false,"is_disabled":false,"rental_uris":{"android":"levelo://app?vid=17d99e59-a66e-466d-9a10-533fe09329c2","ios":"levelo://app?vid=17d99e59-a66e-466d-9a10-533fe09329c2"},"vehicle_type_id":"4","last_reported":1731759408,"current_range_meters":10800,"station_id":"ce4bh2p2rcd13ifvqdi0","pricing_plan_id":"cebpf4jnsgd1na2vs0mg"},{"bike_id":"d54f2dfa-2ad2-469a-8720-163ef98eb87d","system_id":"levelo_inurba_marseille","lat":43.25093,"lon":5.39514,"is_reserved":false,"is_disabled":false,"rental_uris":{"android":"levelo://app?vid=d54f2dfa-2ad2-469a-8720-163ef98eb87d","ios":"levelo://app?vid=d54f2dfa-2ad2-469a-8720-163ef98eb87d"},"vehicle_type_id":"4","last_reported":1731759408,"current_range_meters":24000,"station_id":"ce4bhm12rcd13ifvqgkg","pricing_plan_id":"cebpf4jnsgd1na2vs0mg"},{"bike_id":"755464a4-f6da-4361-8ec0-ce0aac17f0ea","system_id":"levelo_inurba_marseille","lat":43.30542,"lon":5.3653,"is_reserved":false,"is_disabled":false,"rental_uris":{"android":"levelo://app?vid=755464a4-f6da-4361-8ec0-ce0aac17f0ea","ios":"levelo://app?vid=755464a4-f6da-4361-8ec0-ce0aac17f0ea"},"vehicle_type_id":"4","last_reported":1731759408,"current_range_meters":29600,"station_id":"ce4bgs12rcd13ifvqcag","pricing_plan_id":"cebpf4jnsgd1na2vs0mg"},{"bike_id":"821315e1-a1eb-4c91-b545-922557ef6c9f","system_id":"levelo_inurba_marseille","lat":43.30953,"lon":5.39028,"is_reserved":false,"is_disabled":false,"rental_uris":{"android":"levelo://app?vid=821315e1-a1eb-4c91-b545-922557ef6c9f","ios":"levelo://app?vid=821315e1-a1eb-4c91-b545-922557ef6c9f"},"vehicle_type_id":"4","last_reported":1731759408,"current_range_meters":39200,"station_id":"ce4bgup2rcd13ifvqco0","pricing_plan_id":"cebpf4jnsgd1na2vs0mg"},{"bike_id":"29a90765-585c-4227-9ddc-31b6ddca1503","system_id":"levelo_inurba_marseille","lat":43.23181,"lon":5.35535,"is_reserved":false,"is_disabled":false,"rental_uris":{"android":"levelo://app?vid=29a90765-585c-4227-9ddc-31b6ddca1503","ios":"levelo://app?vid=29a90765-585c-4227-9ddc-31b6ddca1503"},"vehicle_type_id":"4","last_reported":1731759408,"current_range_meters":30800,"station_id":"ce4bhu92rcd13ifvqi70","pricing_plan_id":"cebpf4jnsgd1na2vs0mg"},{"bike_id":"6d757fef-4f26-43f9-ac2c-ffab39bf7dae","system_id":"levelo_inurba_marseille","lat":43.32249,"lon":5.36901,"is_reserved":false,"is_disabled":false,"rental_uris":{"android":"levelo://app?vid=6d757fef-4f26-43f9-ac2c-ffab39bf7dae","ios":"levelo://app?vid=6d757fef-4f26-43f9-ac2c-ffab39bf7dae"},"vehicle_type_id":"4","last_reported":1731759408,"current_range_meters":20000,"station_id":"","pricing_plan_id":"cebpf4jnsgd1na2vs0mg"},{"bike_id":"6e30566b-c601-47bc-87e9-c49edb691bb7","system_id":"levelo_inurba_marseille","lat":43.29548,"lon":5.42287,"is_reserved":false,"is_disabled":false,"rental_uris":{"android":"levelo://app?vid=6e30566b-c601-47bc-87e9-c49edb691bb7","ios":"levelo://app?vid=6e30566b-c601-47bc-87e9-c49edb691bb7"},"vehicle_type_id":"4","last_reported":1731759408,"current_range_meters":37600,"station_id":"ce4bhph2rcd13ifvqhdg","pricing_plan_id":"cebpf4jnsgd1na2vs0mg"},{"bike_id":"56c1d888-8ce4-4252-8bbc-f3fcff8b7580","system_id":"levelo_inurba_marseille","lat":43.24649,"lon":5.38893,"is_reserved":false,"is_disabled":false,"rental_uris":{"android":"levelo://app?vid=56c1d888-8ce4-4252-8bbc-f3fcff8b7580","ios":"levelo://app?vid=56c1d888-8ce4-4252-8bbc-f3fcff8b7580"},"vehicle_type_id":"4","last_reported":1731759408,"current_range_meters":38400,"station_id":"ce4bhg12rcd13ifvqf60","pricing_plan_id":"cebpf4jnsgd1na2vs0mg"},{"bike_id":"f1899089-d1e9-41d6-8110-722f73011db8","system_id":"levelo_inurba_marseille","lat":43.29618,"lon":5.37721,"is_reserved":false,"is_disabled":false,"rental_uris":{"android":"levelo://app?vid=f1899089-d1e9-41d6-8110-722f73011db8","ios":"levelo://app?vid=f1899089-d1e9-41d6-8110-722f73011db8"},"vehicle_type_id":"4","last_reported":1731759408,"current_range_meters":27600,"station_id":"ce4bgi92rcd13ifvqb90","pricing_plan_id":"cebpf4jnsgd1na2vs0mg"},{"bike_id":"0ff88d0a-2e3e-428d-8c80-aae6151d2fc8","system_id":"levelo_inurba_marseille","lat":43.29283,"lon":5.36847,"is_reserved":false,"is_disabled":false,"rental_uris":{"android":"levelo://app?vid=0ff88d0a-2e3e-428d-8c80-aae6151d2fc8","ios":"levelo://app?vid=0ff88d0a-2e3e-428d-8c80-aae6151d2fc8"},"vehicle_type_id":"4","last_reported":1731759408,"current_range_meters":19600,"station_id":"ce4bhbp2rcd13ifvqesg","pricing_plan_id":"cebpf4jnsgd1na2vs0mg"},{"bike_id":"b7613723-f994-4e9b-86dd-c34b2e308e48","system_id":"levelo_inurba_marseille","lat":43.29022,"lon":5.38128,"is_reserved":false,"is_disabled":false,"rental_uris":{"android":"levelo://app?vid=b7613723-f994-4e9b-86dd-c34b2e308e48","ios":"levelo://app?vid=b7613723-f994-4e9b-86dd-c34b2e308e48"},"vehicle_type_id":"4","last_reported":1731759408,"current_range_meters":26800,"station_id":"ce4bh4p2rcd13ifvqe1g","pricing_plan_id":"cebpf4jnsgd1na2vs0mg"},{"bike_id":"0600d04a-24d2-4460-8e07-a08f3cec75a2","system_id":"levelo_inurba_marseille","lat":43.27375,"lon":5.36254,"is_reserved":false,"is_disabled":false,"rental_uris":{"android":"levelo://app?vid=0600d04a-24d2-4460-8e07-a08f3cec75a2","ios":"levelo://app?vid=0600d04a-24d2-4460-8e07-a08f3cec75a2"},"vehicle_type_id":"4","last_reported":1731759408,"current_range_meters":6800,"station_id":"ce4bhbh2rcd13ifvqeo0","pricing_plan_id":"cebpf4jnsgd1na2vs0mg"},{"bike_id":"aad4669a-3cee-431b-b28a-1ae7cd9f6df0","system_id":"levelo_inurba_marseille","lat":43.24994,"lon":5.38933,"is_reserved":false,"is_disabled":false,"rental_uris":{"android":"levelo://app?vid=aad4669a-3cee-431b-b28a-1ae7cd9f6df0","ios":"levelo://app?vid=aad4669a-3cee-431b-b28a-1ae7cd9f6df0"},"vehicle_type_id":"4","last_reported":1731759408,"current_range_meters":25200,"station_id":"ce4bhgp2rcd13ifvqfd0","pricing_plan_id":"cebpf4jnsgd1na2vs0mg"},{"bike_id":"4c7d6bfd-c875-49ee-9dd0-c92b313b09d1","system_id":"levelo_inurba_marseille","lat":43.29044,"lon":5.39958,"is_reserved":false,"is_disabled":false,"rental_uris":{"android":"levelo://app?vid=4c7d6bfd-c875-49ee-9dd0-c92b313b09d1","ios":"levelo://app?vid=4c7d6bfd-c875-49ee-9dd0-c92b313b09d1"},"vehicle_type_id":"4","last_reported":1731759408,"current_range_meters":27600,"station_id":"ce4bh392rcd13ifvqdm0","pricing_plan_id":"cebpf4jnsgd1na2vs0mg"},{"bike_id":"6c00da88-f9cd-4e41-9965-df819382bec1","system_id":"levelo_inurba_marseille","lat":43.23154,"lon":5.43703,"is_reserved":false,"is_disabled":false,"rental_uris":{"android":"levelo://app?vid=6c00da88-f9cd-4e41-9965-df819382bec1","ios":"levelo://app?vid=6c00da88-f9cd-4e41-9965-df819382bec1"},"vehicle_type_id":"4","last_reported":1731759408,"current_range_meters":19200,"station_id":"ce4bhmp2rcd13ifvqgog","pricing_plan_id":"cebpf4jnsgd1na2vs0mg"},{"bike_id":"53ff1ac3-bf46-48b4-9eac-754cc713820a","system_id":"levelo_inurba_marseille","lat":43.29443,"lon":5.39751,"is_reserved":false,"is_disabled":false,"rental_uris":{"android":"levelo://app?vid=53ff1ac3-bf46-48b4-9eac-754cc713820a","ios":"levelo://app?vid=53ff1ac3-bf46-48b4-9eac-754cc713820a"},"vehicle_type_id":"4","last_reported":1731759408,"current_range_meters":38000,"station_id":"ce4bh3h2rcd13ifvqdo0","pricing_plan_id":"cebpf4jnsgd1na2vs0mg"},{"bike_id":"e6f67e43-e116-40f2-8497-afc02a3d9a3f","system_id":"levelo_inurba_marseille","lat":43.25577,"lon":5.38236,"is_reserved":false,"is_disabled":false,"rental_uris":{"android":"levelo://app?vid=e6f67e43-e116-40f2-8497-afc02a3d9a3f","ios":"levelo://app?vid=e6f67e43-e116-40f2-8497-afc02a3d9a3f"},"vehicle_type_id":"4","last_reported":1731759408,"current_range_meters":30000,"station_id":"ce4bhih2rcd13ifvqfs0","pricing_plan_id":"cebpf4jnsgd1na2vs0mg"},{"bike_id":"89d65532-6780-451d-8295-77c745ae6df4","system_id":"levelo_inurba_marseille","lat":43.24072,"lon":5.37761,"is_reserved":false,"is_disabled":false,"rental_uris":{"android":"levelo://app?vid=89d65532-6780-451d-8295-77c745ae6df4","ios":"levelo://app?vid=89d65532-6780-451d-8295-77c745ae6df4"},"vehicle_type_id":"4","last_reported":1731759408,"current_range_meters":26800,"station_id":"ce4bhnp2rcd13ifvqgvg","pricing_plan_id":"cebpf4jnsgd1na2vs0mg"},{"bike_id":"8f7aacd3-4586-4661-8e01-8c63c46bb897","system_id":"levelo_inurba_marseille","lat":43.29582,"lon":5.36736,"is_reserved":false,"is_disabled":false,"rental_uris":{"android":"levelo://app?vid=8f7aacd3-4586-4661-8e01-8c63c46bb897","ios":"levelo://app?vid=8f7aacd3-4586-4661-8e01-8c63c46bb897"},"vehicle_type_id":"4","last_reported":1731759408,"current_range_meters":38400,"station_id":"ce4bgph2rcd13ifvqc2g","pricing_plan_id":"cebpf4jnsgd1na2vs0mg"},{"bike_id":"5c484865-68f7-4dbe-b349-2ff4649e99cc","system_id":"levelo_inurba_marseille","lat":43.27063,"lon":5.42268,"is_reserved":false,"is_disabled":false,"rental_uris":{"android":"levelo://app?vid=5c484865-68f7-4dbe-b349-2ff4649e99cc","ios":"levelo://app?vid=5c484865-68f7-4dbe-b349-2ff4649e99cc"},"vehicle_type_id":"4","last_reported":1731759408,"current_range_meters":37600,"station_id":"ce4bhk92rcd13ifvqgb0","pricing_plan_id":"cebpf4jnsgd1na2vs0mg"},{"bike_id":"a4e8e96c-867e-4521-9861-087b3f6c78bd","system_id":"levelo_inurba_marseille","lat":43.25008,"lon":5.38927,"is_reserved":false,"is_disabled":false,"rental_uris":{"android":"levelo://app?vid=a4e8e96c-867e-4521-9861-087b3f6c78bd","ios":"levelo://app?vid=a4e8e96c-867e-4521-9861-087b3f6c78bd"},"vehicle_type_id":"4","last_reported":1731759408,"current_range_meters":38800,"station_id":"ce4bhgp2rcd13ifvqfd0","pricing_plan_id":"cebpf4jnsgd1na2vs0mg"},{"bike_id":"85c6faf1-caca-4be7-8bdf-3f18846bd5df","system_id":"levelo_inurba_marseille","lat":43.26804,"lon":5.40262,"is_reserved":false,"is_disabled":false,"rental_uris":{"android":"levelo://app?vid=85c6faf1-caca-4be7-8bdf-3f18846bd5df","ios":"levelo://app?vid=85c6faf1-caca-4be7-8bdf-3f18846bd5df"},"vehicle_type_id":"4","last_reported":1731759408,"current_range_meters":37600,"station_id":"ce501612rcd8frsf0b60","pricing_plan_id":"cebpf4jnsgd1na2vs0mg"},{"bike_id":"581106ee-eea6-4036-afcc-bf8b4a69785f","system_id":"levelo_inurba_marseille","lat":43.28484,"lon":5.38411,"is_reserved":false,"is_disabled":false,"rental_uris":{"android":"levelo://app?vid=581106ee-eea6-4036-afcc-bf8b4a69785f","ios":"levelo://app?vid=581106ee-eea6-4036-afcc-bf8b4a69785f"},"vehicle_type_id":"4","last_reported":1731759408,"current_range_meters":25200,"station_id":"ce4bh512rcd13ifvqe3g","pricing_plan_id":"cebpf4jnsgd1na2vs0mg"},{"bike_id":"54a36784-235f-4bff-a31b-8d83e35c7859","system_id":"levelo_inurba_marseille","lat":43.25578,"lon":5.38234,"is_reserved":false,"is_disabled":false,"rental_uris":{"android":"levelo://app?vid=54a36784-235f-4bff-a31b-8d83e35c7859","ios":"levelo://app?vid=54a36784-235f-4bff-a31b-8d83e35c7859"},"vehicle_type_id":"4","last_reported":1731759408,"current_range_meters":22800,"station_id":"ce4bhih2rcd13ifvqfs0","pricing_plan_id":"cebpf4jnsgd1na2vs0mg"},{"bike_id":"bab05b77-6e65-4c17-8b83-59b258550033","system_id":"levelo_inurba_marseille","lat":43.24133,"lon":5.37692,"is_reserved":false,"is_disabled":false,"rental_uris":{"android":"levelo://app?vid=bab05b77-6e65-4c17-8b83-59b258550033","ios":"levelo://app?vid=bab05b77-6e65-4c17-8b83-59b258550033"},"vehicle_type_id":"4","last_reported":1731759408,"current_range_meters":39200,"station_id":"ce4bhnp2rcd13ifvqgvg","pricing_plan_id":"cebpf4jnsgd1na2vs0mg"},{"bike_id":"d7f79274-e640-43c4-b7dd-f4e3dad6011c","system_id":"levelo_inurba_marseille","lat":43.27987,"lon":5.41663,"is_reserved":false,"is_disabled":false,"rental_uris":{"android":"levelo://app?vid=d7f79274-e640-43c4-b7dd-f4e3dad6011c","ios":"levelo://app?vid=d7f79274-e640-43c4-b7dd-f4e3dad6011c"},"vehicle_type_id":"4","last_reported":1731759408,"current_range_meters":39200,"station_id":"ce4bho12rcd13ifvqh1g","pricing_plan_id":"cebpf4jnsgd1na2vs0mg"},{"bike_id":"f095f873-3c25-4d64-9c8a-9d3a77d97165","system_id":"levelo_inurba_marseille","lat":43.24078,"lon":5.37749,"is_reserved":false,"is_disabled":false,"rental_uris":{"android":"levelo://app?vid=f095f873-3c25-4d64-9c8a-9d3a77d97165","ios":"levelo://app?vid=f095f873-3c25-4d64-9c8a-9d3a77d97165"},"vehicle_type_id":"4","last_reported":1731759408,"current_range_meters":25200,"station_id":"ce4bhnp2rcd13ifvqgvg","pricing_plan_id":"cebpf4jnsgd1na2vs0mg"},{"bike_id":"052465b0-873b-4d86-b508-197a5ec55540","system_id":"levelo_inurba_marseille","lat":43.25582,"lon":5.38237,"is_reserved":false,"is_disabled":false,"rental_uris":{"android":"levelo://app?vid=052465b0-873b-4d86-b508-197a5ec55540","ios":"levelo://app?vid=052465b0-873b-4d86-b508-197a5ec55540"},"vehicle_type_id":"4","last_reported":1731759408,"current_range_meters":22800,"station_id":"ce4bhih2rcd13ifvqfs0","pricing_plan_id":"cebpf4jnsgd1na2vs0mg"},{"bike_id":"b86642f9-2f2d-48ec-b95c-b8d810fd43dc","system_id":"levelo_inurba_marseille","lat":43.23959,"lon":5.36635,"is_reserved":false,"is_disabled":false,"rental_uris":{"android":"levelo://app?vid=b86642f9-2f2d-48ec-b95c-b8d810fd43dc","ios":"levelo://app?vid=b86642f9-2f2d-48ec-b95c-b8d810fd43dc"},"vehicle_type_id":"4","last_reported":1731759408,"current_range_meters":16400,"station_id":"ce4bhi12rcd13ifvqfp0","pricing_plan_id":"cebpf4jnsgd1na2vs0mg"},{"bike_id":"733b8fbc-d1e7-4659-8527-d71807ce14b7","system_id":"levelo_inurba_marseille","lat":43.26938,"lon":5.40259,"is_reserved":false,"is_disabled":false,"rental_uris":{"android":"levelo://app?vid=733b8fbc-d1e7-4659-8527-d71807ce14b7","ios":"levelo://app?vid=733b8fbc-d1e7-4659-8527-d71807ce14b7"},"vehicle_type_id":"4","last_reported":1731759408,"current_range_meters":40000,"station_id":"cjm6bp8fraef2m0cb0m0","pricing_plan_id":"cebpf4jnsgd1na2vs0mg"},{"bike_id":"682423ae-e5d7-470d-b996-9cdb02bd7ddb","system_id":"levelo_inurba_marseille","lat":43.30104,"lon":5.398563,"is_reserved":false,"is_disabled":false,"rental_uris":{"android":"levelo://app?vid=682423ae-e5d7-470d-b996-9cdb02bd7ddb","ios":"levelo://app?vid=682423ae-e5d7-470d-b996-9cdb02bd7ddb"},"vehicle_type_id":"4","last_reported":1731759408,"current_range_meters":27600,"station_id":"ce4bh0h2rcd13ifvqd40","pricing_plan_id":"cebpf4jnsgd1na2vs0mg"},{"bike_id":"0822de53-10f1-4044-b858-548a2a7589b4","system_id":"levelo_inurba_marseille","lat":43.25821,"lon":5.39435,"is_reserved":false,"is_disabled":false,"rental_uris":{"android":"levelo://app?vid=0822de53-10f1-4044-b858-548a2a7589b4","ios":"levelo://app?vid=0822de53-10f1-4044-b858-548a2a7589b4"},"vehicle_type_id":"4","last_reported":1731759408,"current_range_meters":39200,"station_id":"ce4bhip2rcd13ifvqft0","pricing_plan_id":"cebpf4jnsgd1na2vs0mg"},{"bike_id":"a57fb143-973c-47ab-ad9f-272f194992ef","system_id":"levelo_inurba_marseille","lat":43.23153,"lon":5.43706,"is_reserved":false,"is_disabled":false,"rental_uris":{"android":"levelo://app?vid=a57fb143-973c-47ab-ad9f-272f194992ef","ios":"levelo://app?vid=a57fb143-973c-47ab-ad9f-272f194992ef"},"vehicle_type_id":"4","last_reported":1731759408,"current_range_meters":12800,"station_id":"ce4bhmp2rcd13ifvqgog","pricing_plan_id":"cebpf4jnsgd1na2vs0mg"},{"bike_id":"f1147a13-1a09-486c-be3b-5b4d79be5aaf","system_id":"levelo_inurba_marseille","lat":43.29773,"lon":5.37087,"is_reserved":false,"is_disabled":false,"rental_uris":{"android":"levelo://app?vid=f1147a13-1a09-486c-be3b-5b4d79be5aaf","ios":"levelo://app?vid=f1147a13-1a09-486c-be3b-5b4d79be5aaf"},"vehicle_type_id":"4","last_reported":1731759408,"current_range_meters":39200,"station_id":"ce4bgop2rcd13ifvqc1g","pricing_plan_id":"cebpf4jnsgd1na2vs0mg"},{"bike_id":"67b74999-7562-40a9-80d6-0bf76d158375","system_id":"levelo_inurba_marseille","lat":43.2558,"lon":5.38244,"is_reserved":false,"is_disabled":false,"rental_uris":{"android":"levelo://app?vid=67b74999-7562-40a9-80d6-0bf76d158375","ios":"levelo://app?vid=67b74999-7562-40a9-80d6-0bf76d158375"},"vehicle_type_id":"4","last_reported":1731759408,"current_range_meters":29600,"station_id":"ce4bhih2rcd13ifvqfs0","pricing_plan_id":"cebpf4jnsgd1na2vs0mg"},{"bike_id":"fcef6eeb-4dde-4e40-83d9-cfc202782f23","system_id":"levelo_inurba_marseille","lat":43.23963,"lon":5.36628,"is_reserved":false,"is_disabled":false,"rental_uris":{"android":"levelo://app?vid=fcef6eeb-4dde-4e40-83d9-cfc202782f23","ios":"levelo://app?vid=fcef6eeb-4dde-4e40-83d9-cfc202782f23"},"vehicle_type_id":"4","last_reported":1731759408,"current_range_meters":34000,"station_id":"ce4bhi12rcd13ifvqfp0","pricing_plan_id":"cebpf4jnsgd1na2vs0mg"},{"bike_id":"d759b2fa-5e8b-45c2-87d4-986fbbcf6533","system_id":"levelo_inurba_marseille","lat":43.33027,"lon":5.39042,"is_reserved":false,"is_disabled":false,"rental_uris":{"android":"levelo://app?vid=d759b2fa-5e8b-45c2-87d4-986fbbcf6533","ios":"levelo://app?vid=d759b2fa-5e8b-45c2-87d4-986fbbcf6533"},"vehicle_type_id":"4","last_reported":1731759408,"current_range_meters":22800,"station_id":"ce4bhr92rcd13ifvqhrg","pricing_plan_id":"cebpf4jnsgd1na2vs0mg"},{"bike_id":"e5f2da35-5cd4-49b0-a328-2a8118be3f43","system_id":"levelo_inurba_marseille","lat":43.284563,"lon":5.358717,"is_reserved":false,"is_disabled":false,"rental_uris":{"android":"levelo://app?vid=e5f2da35-5cd4-49b0-a328-2a8118be3f43","ios":"levelo://app?vid=e5f2da35-5cd4-49b0-a328-2a8118be3f43"},"vehicle_type_id":"4","last_reported":1731759408,"current_range_meters":20400,"station_id":"ce4bhah2rcd13ifvqei0","pricing_plan_id":"cebpf4jnsgd1na2vs0mg"},{"bike_id":"177db59b-b8ab-49f9-9ad1-eac7b66c33e6","system_id":"levelo_inurba_marseille","lat":43.23191,"lon":5.35553,"is_reserved":false,"is_disabled":false,"rental_uris":{"android":"levelo://app?vid=177db59b-b8ab-49f9-9ad1-eac7b66c33e6","ios":"levelo://app?vid=177db59b-b8ab-49f9-9ad1-eac7b66c33e6"},"vehicle_type_id":"4","last_reported":1731759408,"current_range_meters":16000,"station_id":"ce4bhu92rcd13ifvqi70","pricing_plan_id":"cebpf4jnsgd1na2vs0mg"},{"bike_id":"45156642-b4c8-42eb-82f7-126129e68141","system_id":"levelo_inurba_marseille","lat":43.25937,"lon":5.40905,"is_reserved":false,"is_disabled":false,"rental_uris":{"android":"levelo://app?vid=45156642-b4c8-42eb-82f7-126129e68141","ios":"levelo://app?vid=45156642-b4c8-42eb-82f7-126129e68141"},"vehicle_type_id":"4","last_reported":1731759408,"current_range_meters":24400,"station_id":"ce4bhm92rcd13ifvqglg","pricing_plan_id":"cebpf4jnsgd1na2vs0mg"},{"bike_id":"eb0b6258-25b5-4174-825d-16bccd206154","system_id":"levelo_inurba_marseille","lat":43.33027,"lon":5.39045,"is_reserved":false,"is_disabled":false,"rental_uris":{"android":"levelo://app?vid=eb0b6258-25b5-4174-825d-16bccd206154","ios":"levelo://app?vid=eb0b6258-25b5-4174-825d-16bccd206154"},"vehicle_type_id":"4","last_reported":1731759408,"current_range_meters":9200,"station_id":"ce4bhr92rcd13ifvqhrg","pricing_plan_id":"cebpf4jnsgd1na2vs0mg"},{"bike_id":"ca655f3b-8380-4045-b3f8-8acaa0e83ede","system_id":"levelo_inurba_marseille","lat":43.33739,"lon":5.37423,"is_reserved":false,"is_disabled":false,"rental_uris":{"android":"levelo://app?vid=ca655f3b-8380-4045-b3f8-8acaa0e83ede","ios":"levelo://app?vid=ca655f3b-8380-4045-b3f8-8acaa0e83ede"},"vehicle_type_id":"4","last_reported":1731759408,"current_range_meters":37600,"station_id":"","pricing_plan_id":"cebpf4jnsgd1na2vs0mg"},{"bike_id":"5014fbfa-bad7-4021-9ce1-84cdb1dd00c0","system_id":"levelo_inurba_marseille","lat":43.26556,"lon":5.37281,"is_reserved":false,"is_disabled":false,"rental_uris":{"android":"levelo://app?vid=5014fbfa-bad7-4021-9ce1-84cdb1dd00c0","ios":"levelo://app?vid=5014fbfa-bad7-4021-9ce1-84cdb1dd00c0"},"vehicle_type_id":"4","last_reported":1731759408,"current_range_meters":17600,"station_id":"ce4bhg12rcd13ifvqf70","pricing_plan_id":"cebpf4jnsgd1na2vs0mg"},{"bike_id":"2e298671-80fc-4060-bd3b-6941ddfa052f","system_id":"levelo_inurba_marseille","lat":43.32476,"lon":5.3657,"is_reserved":false,"is_disabled":false,"rental_uris":{"android":"levelo://app?vid=2e298671-80fc-4060-bd3b-6941ddfa052f","ios":"levelo://app?vid=2e298671-80fc-4060-bd3b-6941ddfa052f"},"vehicle_type_id":"4","last_reported":1731759408,"current_range_meters":40000,"station_id":"ce4bhs12rcd13ifvqhvg","pricing_plan_id":"cebpf4jnsgd1na2vs0mg"},{"bike_id":"a6b8c285-acc9-4039-9531-1aae39136a33","system_id":"levelo_inurba_marseille","lat":43.312042,"lon":5.367348,"is_reserved":false,"is_disabled":false,"rental_uris":{"android":"levelo://app?vid=a6b8c285-acc9-4039-9531-1aae39136a33","ios":"levelo://app?vid=a6b8c285-acc9-4039-9531-1aae39136a33"},"vehicle_type_id":"4","last_reported":1731759408,"current_range_meters":14800,"station_id":"","pricing_plan_id":"cebpf4jnsgd1na2vs0mg"},{"bike_id":"073064ef-88f3-4383-b111-586851d0a1ab","system_id":"levelo_inurba_marseille","lat":43.32705,"lon":5.3644,"is_reserved":false,"is_disabled":false,"rental_uris":{"android":"levelo://app?vid=073064ef-88f3-4383-b111-586851d0a1ab","ios":"levelo://app?vid=073064ef-88f3-4383-b111-586851d0a1ab"},"vehicle_type_id":"4","last_reported":1731759408,"current_range_meters":9200,"station_id":"","pricing_plan_id":"cebpf4jnsgd1na2vs0mg"},{"bike_id":"7533f0c2-14f7-425a-b3ed-0abe750ceb15","system_id":"levelo_inurba_marseille","lat":43.25586,"lon":5.38244,"is_reserved":false,"is_disabled":false,"rental_uris":{"android":"levelo://app?vid=7533f0c2-14f7-425a-b3ed-0abe750ceb15","ios":"levelo://app?vid=7533f0c2-14f7-425a-b3ed-0abe750ceb15"},"vehicle_type_id":"4","last_reported":1731759408,"current_range_meters":40000,"station_id":"ce4bhih2rcd13ifvqfs0","pricing_plan_id":"cebpf4jnsgd1na2vs0mg"},{"bike_id":"5c254126-8805-4ed8-9520-9f63561143b3","system_id":"levelo_inurba_marseille","lat":43.24161,"lon":5.36411,"is_reserved":false,"is_disabled":false,"rental_uris":{"android":"levelo://app?vid=5c254126-8805-4ed8-9520-9f63561143b3","ios":"levelo://app?vid=5c254126-8805-4ed8-9520-9f63561143b3"},"vehicle_type_id":"4","last_reported":1731759408,"current_range_meters":21600,"station_id":"cpo36qri1sfpv3e86is0","pricing_plan_id":"cebpf4jnsgd1na2vs0mg"},{"bike_id":"94bd05d4-6675-4ea4-8cc6-196e0879fa58","system_id":"levelo_inurba_marseille","lat":43.28263,"lon":5.35063,"is_reserved":false,"is_disabled":false,"rental_uris":{"android":"levelo://app?vid=94bd05d4-6675-4ea4-8cc6-196e0879fa58","ios":"levelo://app?vid=94bd05d4-6675-4ea4-8cc6-196e0879fa58"},"vehicle_type_id":"4","last_reported":1731759408,"current_range_meters":21600,"station_id":"ce4bhbp2rcd13ifvqerg","pricing_plan_id":"cebpf4jnsgd1na2vs0mg"},{"bike_id":"95189523-b163-438d-9cb1-f7dc4435500d","system_id":"levelo_inurba_marseille","lat":43.3234,"lon":5.40617,"is_reserved":false,"is_disabled":false,"rental_uris":{"android":"levelo://app?vid=95189523-b163-438d-9cb1-f7dc4435500d","ios":"levelo://app?vid=95189523-b163-438d-9cb1-f7dc4435500d"},"vehicle_type_id":"4","last_reported":1731759408,"current_range_meters":38800,"station_id":"ce4bhq92rcd13ifvqhjg","pricing_plan_id":"cebpf4jnsgd1na2vs0mg"},{"bike_id":"32fb8fcd-9b6e-4d51-81aa-23512ba1ae91","system_id":"levelo_inurba_marseille","lat":43.27177,"lon":5.40995,"is_reserved":false,"is_disabled":false,"rental_uris":{"android":"levelo://app?vid=32fb8fcd-9b6e-4d51-81aa-23512ba1ae91","ios":"levelo://app?vid=32fb8fcd-9b6e-4d51-81aa-23512ba1ae91"},"vehicle_type_id":"4","last_reported":1731759408,"current_range_meters":38400,"station_id":"ce4bhl12rcd13ifvqgf0","pricing_plan_id":"cebpf4jnsgd1na2vs0mg"},{"bike_id":"2d85a09a-d449-4542-89be-233c172327a2","system_id":"levelo_inurba_marseille","lat":43.296814,"lon":5.372897,"is_reserved":false,"is_disabled":false,"rental_uris":{"android":"levelo://app?vid=2d85a09a-d449-4542-89be-233c172327a2","ios":"levelo://app?vid=2d85a09a-d449-4542-89be-233c172327a2"},"vehicle_type_id":"4","last_reported":1731759408,"current_range_meters":35600,"station_id":"ce4bgk12rcd13ifvqbj0","pricing_plan_id":"cebpf4jnsgd1na2vs0mg"},{"bike_id":"621f6eff-fccd-450a-9135-eebf57d5e756","system_id":"levelo_inurba_marseille","lat":43.29524,"lon":5.3751,"is_reserved":false,"is_disabled":false,"rental_uris":{"android":"levelo://app?vid=621f6eff-fccd-450a-9135-eebf57d5e756","ios":"levelo://app?vid=621f6eff-fccd-450a-9135-eebf57d5e756"},"vehicle_type_id":"4","last_reported":1731759408,"current_range_meters":36400,"station_id":"ce4bgkp2rcd13ifvqbmg","pricing_plan_id":"cebpf4jnsgd1na2vs0mg"},{"bike_id":"6ef266d1-92eb-440d-9bcd-6ee947c0d029","system_id":"levelo_inurba_marseille","lat":43.27492,"lon":5.42457,"is_reserved":false,"is_disabled":false,"rental_uris":{"android":"levelo://app?vid=6ef266d1-92eb-440d-9bcd-6ee947c0d029","ios":"levelo://app?vid=6ef266d1-92eb-440d-9bcd-6ee947c0d029"},"vehicle_type_id":"4","last_reported":1731759408,"current_range_meters":39200,"station_id":"ce4bhn92rcd13ifvqgrg","pricing_plan_id":"cebpf4jnsgd1na2vs0mg"},{"bike_id":"dccfd8a4-a74f-4879-a146-91ac47750fa8","system_id":"levelo_inurba_marseille","lat":43.281006,"lon":5.378222,"is_reserved":false,"is_disabled":false,"rental_uris":{"android":"levelo://app?vid=dccfd8a4-a74f-4879-a146-91ac47750fa8","ios":"levelo://app?vid=dccfd8a4-a74f-4879-a146-91ac47750fa8"},"vehicle_type_id":"4","last_reported":1731759408,"current_range_meters":11600,"station_id":"ce4bha12rcd13ifvqee0","pricing_plan_id":"cebpf4jnsgd1na2vs0mg"},{"bike_id":"1ae8fe75-00ad-479b-a755-74d45d76bfbe","system_id":"levelo_inurba_marseille","lat":43.24167,"lon":5.36413,"is_reserved":false,"is_disabled":false,"rental_uris":{"android":"levelo://app?vid=1ae8fe75-00ad-479b-a755-74d45d76bfbe","ios":"levelo://app?vid=1ae8fe75-00ad-479b-a755-74d45d76bfbe"},"vehicle_type_id":"4","last_reported":1731759408,"current_range_meters":6400,"station_id":"cpo36qri1sfpv3e86is0","pricing_plan_id":"cebpf4jnsgd1na2vs0mg"},{"bike_id":"52c0c6d4-f9ee-40a5-b761-8bedce787186","system_id":"levelo_inurba_marseille","lat":43.29037,"lon":5.39965,"is_reserved":false,"is_disabled":false,"rental_uris":{"android":"levelo://app?vid=52c0c6d4-f9ee-40a5-b761-8bedce787186","ios":"levelo://app?vid=52c0c6d4-f9ee-40a5-b761-8bedce787186"},"vehicle_type_id":"4","last_reported":1731759408,"current_range_meters":10800,"station_id":"ce4bh392rcd13ifvqdm0","pricing_plan_id":"cebpf4jnsgd1na2vs0mg"},{"bike_id":"3474d99e-fbd0-40ff-b34a-22d171b4e4f0","system_id":"levelo_inurba_marseille","lat":43.31084,"lon":5.4243,"is_reserved":false,"is_disabled":false,"rental_uris":{"android":"levelo://app?vid=3474d99e-fbd0-40ff-b34a-22d171b4e4f0","ios":"levelo://app?vid=3474d99e-fbd0-40ff-b34a-22d171b4e4f0"},"vehicle_type_id":"4","last_reported":1731759408,"current_range_meters":27600,"station_id":"ce4bhp92rcd13ifvqhag","pricing_plan_id":"cebpf4jnsgd1na2vs0mg"},{"bike_id":"92ac4858-87d6-4ceb-8f6e-004635a816a8","system_id":"levelo_inurba_marseille","lat":43.27792,"lon":5.40724,"is_reserved":false,"is_disabled":false,"rental_uris":{"android":"levelo://app?vid=92ac4858-87d6-4ceb-8f6e-004635a816a8","ios":"levelo://app?vid=92ac4858-87d6-4ceb-8f6e-004635a816a8"},"vehicle_type_id":"4","last_reported":1731759408,"current_range_meters":32000,"station_id":"ce4bhnh2rcd13ifvqgtg","pricing_plan_id":"cebpf4jnsgd1na2vs0mg"},{"bike_id":"7fca553a-78a7-45f6-b129-5840f7da7368","system_id":"levelo_inurba_marseille","lat":43.25581,"lon":5.38234,"is_reserved":false,"is_disabled":false,"rental_uris":{"android":"levelo://app?vid=7fca553a-78a7-45f6-b129-5840f7da7368","ios":"levelo://app?vid=7fca553a-78a7-45f6-b129-5840f7da7368"},"vehicle_type_id":"4","last_reported":1731759408,"current_range_meters":24000,"station_id":"ce4bhih2rcd13ifvqfs0","pricing_plan_id":"cebpf4jnsgd1na2vs0mg"},{"bike_id":"4f072872-5e38-4a4b-9811-1d9e60a837c4","system_id":"levelo_inurba_marseille","lat":43.230991,"lon":5.354776,"is_reserved":false,"is_disabled":false,"rental_uris":{"android":"levelo://app?vid=4f072872-5e38-4a4b-9811-1d9e60a837c4","ios":"levelo://app?vid=4f072872-5e38-4a4b-9811-1d9e60a837c4"},"vehicle_type_id":"4","last_reported":1731759408,"current_range_meters":11600,"station_id":"","pricing_plan_id":"cebpf4jnsgd1na2vs0mg"},{"bike_id":"347c7842-b74d-475c-9f43-0b98799e9df1","system_id":"levelo_inurba_marseille","lat":43.32338,"lon":5.4063,"is_reserved":false,"is_disabled":false,"rental_uris":{"android":"levelo://app?vid=347c7842-b74d-475c-9f43-0b98799e9df1","ios":"levelo://app?vid=347c7842-b74d-475c-9f43-0b98799e9df1"},"vehicle_type_id":"4","last_reported":1731759408,"current_range_meters":37600,"station_id":"ce4bhq92rcd13ifvqhjg","pricing_plan_id":"cebpf4jnsgd1na2vs0mg"},{"bike_id":"9e5221bc-6ba3-4f80-a78a-00e1f24bd999","system_id":"levelo_inurba_marseille","lat":43.29973,"lon":5.37188,"is_reserved":false,"is_disabled":false,"rental_uris":{"android":"levelo://app?vid=9e5221bc-6ba3-4f80-a78a-00e1f24bd999","ios":"levelo://app?vid=9e5221bc-6ba3-4f80-a78a-00e1f24bd999"},"vehicle_type_id":"4","last_reported":1731759408,"current_range_meters":39200,"station_id":"ce4bgr92rcd13ifvqc7g","pricing_plan_id":"cebpf4jnsgd1na2vs0mg"},{"bike_id":"7c7cffa7-bb98-4bc3-8558-7ba8bc11713f","system_id":"levelo_inurba_marseille","lat":43.29801,"lon":5.38095,"is_reserved":false,"is_disabled":false,"rental_uris":{"android":"levelo://app?vid=7c7cffa7-bb98-4bc3-8558-7ba8bc11713f","ios":"levelo://app?vid=7c7cffa7-bb98-4bc3-8558-7ba8bc11713f"},"vehicle_type_id":"4","last_reported":1731759408,"current_range_meters":21600,"station_id":"ce4bgip2rcd13ifvqbb0","pricing_plan_id":"cebpf4jnsgd1na2vs0mg"},{"bike_id":"946f15e2-9f46-4bee-ae90-9c19306cdee4","system_id":"levelo_inurba_marseille","lat":43.28844,"lon":5.3585,"is_reserved":false,"is_disabled":false,"rental_uris":{"android":"levelo://app?vid=946f15e2-9f46-4bee-ae90-9c19306cdee4","ios":"levelo://app?vid=946f15e2-9f46-4bee-ae90-9c19306cdee4"},"vehicle_type_id":"4","last_reported":1731759408,"current_range_meters":10800,"station_id":"ce4bhb12rcd13ifvqem0","pricing_plan_id":"cebpf4jnsgd1na2vs0mg"},{"bike_id":"e79c1d71-1ce6-4d60-8fff-1fc1acef8ee4","system_id":"levelo_inurba_marseille","lat":43.23955,"lon":5.36641,"is_reserved":false,"is_disabled":false,"rental_uris":{"android":"levelo://app?vid=e79c1d71-1ce6-4d60-8fff-1fc1acef8ee4","ios":"levelo://app?vid=e79c1d71-1ce6-4d60-8fff-1fc1acef8ee4"},"vehicle_type_id":"4","last_reported":1731759408,"current_range_meters":24400,"station_id":"ce4bhi12rcd13ifvqfp0","pricing_plan_id":"cebpf4jnsgd1na2vs0mg"},{"bike_id":"892adb6d-c134-4f63-a947-4eee2b92b71d","system_id":"levelo_inurba_marseille","lat":43.23065,"lon":5.35493,"is_reserved":false,"is_disabled":false,"rental_uris":{"android":"levelo://app?vid=892adb6d-c134-4f63-a947-4eee2b92b71d","ios":"levelo://app?vid=892adb6d-c134-4f63-a947-4eee2b92b71d"},"vehicle_type_id":"4","last_reported":1731759408,"current_range_meters":22800,"station_id":"cpo3342slgdg3j2ifvpg","pricing_plan_id":"cebpf4jnsgd1na2vs0mg"},{"bike_id":"a84f5389-258d-4508-9c0f-32ee5d326b43","system_id":"levelo_inurba_marseille","lat":43.33767,"lon":5.37475,"is_reserved":false,"is_disabled":false,"rental_uris":{"android":"levelo://app?vid=a84f5389-258d-4508-9c0f-32ee5d326b43","ios":"levelo://app?vid=a84f5389-258d-4508-9c0f-32ee5d326b43"},"vehicle_type_id":"4","last_reported":1731759408,"current_range_meters":34000,"station_id":"","pricing_plan_id":"cebpf4jnsgd1na2vs0mg"},{"bike_id":"bdda4347-118f-4304-b506-09b4b5e15b39","system_id":"levelo_inurba_marseille","lat":43.33717,"lon":5.391811,"is_reserved":false,"is_disabled":false,"rental_uris":{"android":"levelo://app?vid=bdda4347-118f-4304-b506-09b4b5e15b39","ios":"levelo://app?vid=bdda4347-118f-4304-b506-09b4b5e15b39"},"vehicle_type_id":"4","last_reported":1731759408,"current_range_meters":12400,"station_id":"ce4bhr92rcd13ifvqhsg","pricing_plan_id":"cebpf4jnsgd1na2vs0mg"},{"bike_id":"24420a27-91b5-4a69-bca6-e715ce78c1dc","system_id":"levelo_inurba_marseille","lat":43.24665,"lon":5.38168,"is_reserved":false,"is_disabled":false,"rental_uris":{"android":"levelo://app?vid=24420a27-91b5-4a69-bca6-e715ce78c1dc","ios":"levelo://app?vid=24420a27-91b5-4a69-bca6-e715ce78c1dc"},"vehicle_type_id":"4","last_reported":1731759408,"current_range_meters":27600,"station_id":"ce4bhih2rcd13ifvqfr0","pricing_plan_id":"cebpf4jnsgd1na2vs0mg"},{"bike_id":"7bf18ed8-aa6e-412e-b253-1b6d6a062ccb","system_id":"levelo_inurba_marseille","lat":43.30289,"lon":5.37701,"is_reserved":false,"is_disabled":false,"rental_uris":{"android":"levelo://app?vid=7bf18ed8-aa6e-412e-b253-1b6d6a062ccb","ios":"levelo://app?vid=7bf18ed8-aa6e-412e-b253-1b6d6a062ccb"},"vehicle_type_id":"4","last_reported":1731759408,"current_range_meters":38800,"station_id":"ce4bguh2rcd13ifvqcj0","pricing_plan_id":"cebpf4jnsgd1na2vs0mg"},{"bike_id":"b5ce9235-4ffb-4d40-a9ab-7ab7ce5a79f6","system_id":"levelo_inurba_marseille","lat":43.24808,"lon":5.37455,"is_reserved":false,"is_disabled":false,"rental_uris":{"android":"levelo://app?vid=b5ce9235-4ffb-4d40-a9ab-7ab7ce5a79f6","ios":"levelo://app?vid=b5ce9235-4ffb-4d40-a9ab-7ab7ce5a79f6"},"vehicle_type_id":"4","last_reported":1731759408,"current_range_meters":38800,"station_id":"ce4bhgh2rcd13ifvqfb0","pricing_plan_id":"cebpf4jnsgd1na2vs0mg"},{"bike_id":"1905e423-9623-404a-bf2e-53fad8283f76","system_id":"levelo_inurba_marseille","lat":43.28429,"lon":5.34992,"is_reserved":false,"is_disabled":false,"rental_uris":{"android":"levelo://app?vid=1905e423-9623-404a-bf2e-53fad8283f76","ios":"levelo://app?vid=1905e423-9623-404a-bf2e-53fad8283f76"},"vehicle_type_id":"4","last_reported":1731759408,"current_range_meters":38800,"station_id":"ce4bhbh2rcd13ifvqepg","pricing_plan_id":"cebpf4jnsgd1na2vs0mg"},{"bike_id":"24b3f190-f529-452e-b813-e3e361448f27","system_id":"levelo_inurba_marseille","lat":43.296546,"lon":5.374886,"is_reserved":false,"is_disabled":false,"rental_uris":{"android":"levelo://app?vid=24b3f190-f529-452e-b813-e3e361448f27","ios":"levelo://app?vid=24b3f190-f529-452e-b813-e3e361448f27"},"vehicle_type_id":"4","last_reported":1731759408,"current_range_meters":27600,"station_id":"","pricing_plan_id":"cebpf4jnsgd1na2vs0mg"},{"bike_id":"dd16802b-cf7f-4de5-bf36-5eba3ccaf853","system_id":"levelo_inurba_marseille","lat":43.31236,"lon":5.36842,"is_reserved":false,"is_disabled":false,"rental_uris":{"android":"levelo://app?vid=dd16802b-cf7f-4de5-bf36-5eba3ccaf853","ios":"levelo://app?vid=dd16802b-cf7f-4de5-bf36-5eba3ccaf853"},"vehicle_type_id":"4","last_reported":1731759408,"current_range_meters":16000,"station_id":"ce4bgl92rcd13ifvqbq0","pricing_plan_id":"cebpf4jnsgd1na2vs0mg"},{"bike_id":"6d6992bf-ade3-4a22-a168-306dafdc4544","system_id":"levelo_inurba_marseille","lat":43.2417,"lon":5.36406,"is_reserved":false,"is_disabled":false,"rental_uris":{"android":"levelo://app?vid=6d6992bf-ade3-4a22-a168-306dafdc4544","ios":"levelo://app?vid=6d6992bf-ade3-4a22-a168-306dafdc4544"},"vehicle_type_id":"4","last_reported":1731759408,"current_range_meters":34000,"station_id":"cpo36qri1sfpv3e86is0","pricing_plan_id":"cebpf4jnsgd1na2vs0mg"},{"bike_id":"074c6971-4ae7-4906-8673-1607af29a7e1","system_id":"levelo_inurba_marseille","lat":43.25078,"lon":5.39512,"is_reserved":false,"is_disabled":false,"rental_uris":{"android":"levelo://app?vid=074c6971-4ae7-4906-8673-1607af29a7e1","ios":"levelo://app?vid=074c6971-4ae7-4906-8673-1607af29a7e1"},"vehicle_type_id":"4","last_reported":1731759408,"current_range_meters":33200,"station_id":"ce4bhm12rcd13ifvqgkg","pricing_plan_id":"cebpf4jnsgd1na2vs0mg"},{"bike_id":"8113ab17-ee57-4a3d-ad0d-a47fab7531da","system_id":"levelo_inurba_marseille","lat":43.33026,"lon":5.39044,"is_reserved":false,"is_disabled":false,"rental_uris":{"android":"levelo://app?vid=8113ab17-ee57-4a3d-ad0d-a47fab7531da","ios":"levelo://app?vid=8113ab17-ee57-4a3d-ad0d-a47fab7531da"},"vehicle_type_id":"4","last_reported":1731759408,"current_range_meters":27600,"station_id":"ce4bhr92rcd13ifvqhrg","pricing_plan_id":"cebpf4jnsgd1na2vs0mg"},{"bike_id":"fd108b9d-dd59-4891-a78a-5898f6e6e763","system_id":"levelo_inurba_marseille","lat":43.33019,"lon":5.39034,"is_reserved":false,"is_disabled":false,"rental_uris":{"android":"levelo://app?vid=fd108b9d-dd59-4891-a78a-5898f6e6e763","ios":"levelo://app?vid=fd108b9d-dd59-4891-a78a-5898f6e6e763"},"vehicle_type_id":"4","last_reported":1731759408,"current_range_meters":36800,"station_id":"ce4bhr92rcd13ifvqhrg","pricing_plan_id":"cebpf4jnsgd1na2vs0mg"},{"bike_id":"1ffd9b44-7dca-4d96-9489-b3eb353f6ac6","system_id":"levelo_inurba_marseille","lat":43.29543,"lon":5.37505,"is_reserved":false,"is_disabled":false,"rental_uris":{"android":"levelo://app?vid=1ffd9b44-7dca-4d96-9489-b3eb353f6ac6","ios":"levelo://app?vid=1ffd9b44-7dca-4d96-9489-b3eb353f6ac6"},"vehicle_type_id":"4","last_reported":1731759408,"current_range_meters":30000,"station_id":"ce4bgkp2rcd13ifvqbmg","pricing_plan_id":"cebpf4jnsgd1na2vs0mg"},{"bike_id":"63c00ffd-4a16-414a-978d-02d24075fa7d","system_id":"levelo_inurba_marseille","lat":43.30936,"lon":5.40145,"is_reserved":false,"is_disabled":false,"rental_uris":{"android":"levelo://app?vid=63c00ffd-4a16-414a-978d-02d24075fa7d","ios":"levelo://app?vid=63c00ffd-4a16-414a-978d-02d24075fa7d"},"vehicle_type_id":"4","last_reported":1731759408,"current_range_meters":16800,"station_id":"ce4bgvp2rcd13ifvqct0","pricing_plan_id":"cebpf4jnsgd1na2vs0mg"},{"bike_id":"a51c0585-1d64-432d-9928-c68981c9ec86","system_id":"levelo_inurba_marseille","lat":43.26062,"lon":5.39394,"is_reserved":false,"is_disabled":false,"rental_uris":{"android":"levelo://app?vid=a51c0585-1d64-432d-9928-c68981c9ec86","ios":"levelo://app?vid=a51c0585-1d64-432d-9928-c68981c9ec86"},"vehicle_type_id":"4","last_reported":1731759408,"current_range_meters":24400,"station_id":"ce4bhh92rcd13ifvqfj0","pricing_plan_id":"cebpf4jnsgd1na2vs0mg"},{"bike_id":"ce99c29d-25d3-43f4-80cb-ec44086b7861","system_id":"levelo_inurba_marseille","lat":43.23955,"lon":5.36641,"is_reserved":false,"is_disabled":false,"rental_uris":{"android":"levelo://app?vid=ce99c29d-25d3-43f4-80cb-ec44086b7861","ios":"levelo://app?vid=ce99c29d-25d3-43f4-80cb-ec44086b7861"},"vehicle_type_id":"4","last_reported":1731759408,"current_range_meters":40000,"station_id":"ce4bhi12rcd13ifvqfp0","pricing_plan_id":"cebpf4jnsgd1na2vs0mg"},{"bike_id":"e5733339-e5be-40f8-beb4-5d3577bb2de6","system_id":"levelo_inurba_marseille","lat":43.27377,"lon":5.3626,"is_reserved":false,"is_disabled":false,"rental_uris":{"android":"levelo://app?vid=e5733339-e5be-40f8-beb4-5d3577bb2de6","ios":"levelo://app?vid=e5733339-e5be-40f8-beb4-5d3577bb2de6"},"vehicle_type_id":"4","last_reported":1731759408,"current_range_meters":38800,"station_id":"ce4bhbh2rcd13ifvqeo0","pricing_plan_id":"cebpf4jnsgd1na2vs0mg"},{"bike_id":"70e089d0-d0b0-4a36-ba28-4f51863a6eb9","system_id":"levelo_inurba_marseille","lat":43.23187,"lon":5.35549,"is_reserved":false,"is_disabled":false,"rental_uris":{"android":"levelo://app?vid=70e089d0-d0b0-4a36-ba28-4f51863a6eb9","ios":"levelo://app?vid=70e089d0-d0b0-4a36-ba28-4f51863a6eb9"},"vehicle_type_id":"4","last_reported":1731759408,"current_range_meters":31200,"station_id":"ce4bhu92rcd13ifvqi70","pricing_plan_id":"cebpf4jnsgd1na2vs0mg"},{"bike_id":"4ee4605c-22f2-4532-b44d-f5fb03fd5142","system_id":"levelo_inurba_marseille","lat":43.30797,"lon":5.43522,"is_reserved":false,"is_disabled":false,"rental_uris":{"android":"levelo://app?vid=4ee4605c-22f2-4532-b44d-f5fb03fd5142","ios":"levelo://app?vid=4ee4605c-22f2-4532-b44d-f5fb03fd5142"},"vehicle_type_id":"4","last_reported":1731759408,"current_range_meters":16000,"station_id":"ce4bhph2rcd13ifvqheg","pricing_plan_id":"cebpf4jnsgd1na2vs0mg"},{"bike_id":"78071acb-30a3-4be0-bea8-435187383d3b","system_id":"levelo_inurba_marseille","lat":43.29367,"lon":5.37845,"is_reserved":false,"is_disabled":false,"rental_uris":{"android":"levelo://app?vid=78071acb-30a3-4be0-bea8-435187383d3b","ios":"levelo://app?vid=78071acb-30a3-4be0-bea8-435187383d3b"},"vehicle_type_id":"4","last_reported":1731759408,"current_range_meters":39200,"station_id":"ce4bgjh2rcd13ifvqbf0","pricing_plan_id":"cebpf4jnsgd1na2vs0mg"},{"bike_id":"5124e16c-61c0-4613-8bc6-146ae20a7fe3","system_id":"levelo_inurba_marseille","lat":43.28477,"lon":5.38414,"is_reserved":false,"is_disabled":false,"rental_uris":{"android":"levelo://app?vid=5124e16c-61c0-4613-8bc6-146ae20a7fe3","ios":"levelo://app?vid=5124e16c-61c0-4613-8bc6-146ae20a7fe3"},"vehicle_type_id":"4","last_reported":1731759408,"current_range_meters":16000,"station_id":"ce4bh512rcd13ifvqe3g","pricing_plan_id":"cebpf4jnsgd1na2vs0mg"},{"bike_id":"26694c47-17ba-40bf-80cb-a050c36b3324","system_id":"levelo_inurba_marseille","lat":43.29203,"lon":5.39323,"is_reserved":false,"is_disabled":false,"rental_uris":{"android":"levelo://app?vid=26694c47-17ba-40bf-80cb-a050c36b3324","ios":"levelo://app?vid=26694c47-17ba-40bf-80cb-a050c36b3324"},"vehicle_type_id":"4","last_reported":1731759408,"current_range_meters":25600,"station_id":"ce4bh192rcd13ifvqdd0","pricing_plan_id":"cebpf4jnsgd1na2vs0mg"},{"bike_id":"c144427d-0fd3-49e6-8bdc-4218cb62fd45","system_id":"levelo_inurba_marseille","lat":43.29885,"lon":5.389095,"is_reserved":false,"is_disabled":false,"rental_uris":{"android":"levelo://app?vid=c144427d-0fd3-49e6-8bdc-4218cb62fd45","ios":"levelo://app?vid=c144427d-0fd3-49e6-8bdc-4218cb62fd45"},"vehicle_type_id":"4","last_reported":1731759408,"current_range_meters":39200,"station_id":"ce4bh392rcd13ifvqdl0","pricing_plan_id":"cebpf4jnsgd1na2vs0mg"},{"bike_id":"ffef1166-6a0f-4823-92f1-7bea335b50d7","system_id":"levelo_inurba_marseille","lat":43.24072,"lon":5.37754,"is_reserved":false,"is_disabled":false,"rental_uris":{"android":"levelo://app?vid=ffef1166-6a0f-4823-92f1-7bea335b50d7","ios":"levelo://app?vid=ffef1166-6a0f-4823-92f1-7bea335b50d7"},"vehicle_type_id":"4","last_reported":1731759408,"current_range_meters":39200,"station_id":"ce4bhnp2rcd13ifvqgvg","pricing_plan_id":"cebpf4jnsgd1na2vs0mg"},{"bike_id":"8e486e66-c7cb-407a-a01a-247d3c3557c0","system_id":"levelo_inurba_marseille","lat":43.3014,"lon":5.37421,"is_reserved":false,"is_disabled":false,"rental_uris":{"android":"levelo://app?vid=8e486e66-c7cb-407a-a01a-247d3c3557c0","ios":"levelo://app?vid=8e486e66-c7cb-407a-a01a-247d3c3557c0"},"vehicle_type_id":"4","last_reported":1731759408,"current_range_meters":20800,"station_id":"ce4bgs92rcd13ifvqcc0","pricing_plan_id":"cebpf4jnsgd1na2vs0mg"},{"bike_id":"3c7520ab-75aa-474b-b39e-b35e2a7a5c24","system_id":"levelo_inurba_marseille","lat":43.27317,"lon":5.39086,"is_reserved":false,"is_disabled":false,"rental_uris":{"android":"levelo://app?vid=3c7520ab-75aa-474b-b39e-b35e2a7a5c24","ios":"levelo://app?vid=3c7520ab-75aa-474b-b39e-b35e2a7a5c24"},"vehicle_type_id":"4","last_reported":1731759408,"current_range_meters":38800,"station_id":"ce4bhgp2rcd13ifvqfe0","pricing_plan_id":"cebpf4jnsgd1na2vs0mg"},{"bike_id":"022f478e-da93-4eda-9d1b-2d0e36905c07","system_id":"levelo_inurba_marseille","lat":43.33751,"lon":5.37445,"is_reserved":false,"is_disabled":false,"rental_uris":{"android":"levelo://app?vid=022f478e-da93-4eda-9d1b-2d0e36905c07","ios":"levelo://app?vid=022f478e-da93-4eda-9d1b-2d0e36905c07"},"vehicle_type_id":"4","last_reported":1731759408,"current_range_meters":35600,"station_id":"","pricing_plan_id":"cebpf4jnsgd1na2vs0mg"},{"bike_id":"832dc837-5a56-4cbc-a761-cfa59cde04c6","system_id":"levelo_inurba_marseille","lat":43.26192,"lon":5.37449,"is_reserved":false,"is_disabled":false,"rental_uris":{"android":"levelo://app?vid=832dc837-5a56-4cbc-a761-cfa59cde04c6","ios":"levelo://app?vid=832dc837-5a56-4cbc-a761-cfa59cde04c6"},"vehicle_type_id":"4","last_reported":1731759408,"current_range_meters":28800,"station_id":"ce4bhgp2rcd13ifvqfc0","pricing_plan_id":"cebpf4jnsgd1na2vs0mg"},{"bike_id":"09e5d805-bcdf-46a1-84e2-4ecd6a3b4ec2","system_id":"levelo_inurba_marseille","lat":43.2319,"lon":5.35554,"is_reserved":false,"is_disabled":false,"rental_uris":{"android":"levelo://app?vid=09e5d805-bcdf-46a1-84e2-4ecd6a3b4ec2","ios":"levelo://app?vid=09e5d805-bcdf-46a1-84e2-4ecd6a3b4ec2"},"vehicle_type_id":"4","last_reported":1731759408,"current_range_meters":7200,"station_id":"ce4bhu92rcd13ifvqi70","pricing_plan_id":"cebpf4jnsgd1na2vs0mg"},{"bike_id":"09d0b3f8-a534-4146-9c19-f7f3c002e77d","system_id":"levelo_inurba_marseille","lat":43.26938,"lon":5.4026,"is_reserved":false,"is_disabled":false,"rental_uris":{"android":"levelo://app?vid=09d0b3f8-a534-4146-9c19-f7f3c002e77d","ios":"levelo://app?vid=09d0b3f8-a534-4146-9c19-f7f3c002e77d"},"vehicle_type_id":"4","last_reported":1731759408,"current_range_meters":40000,"station_id":"cjm6bp8fraef2m0cb0m0","pricing_plan_id":"cebpf4jnsgd1na2vs0mg"},{"bike_id":"3700c926-5615-487d-bbe1-0b8d8f444a62","system_id":"levelo_inurba_marseille","lat":43.29711,"lon":5.37697,"is_reserved":false,"is_disabled":false,"rental_uris":{"android":"levelo://app?vid=3700c926-5615-487d-bbe1-0b8d8f444a62","ios":"levelo://app?vid=3700c926-5615-487d-bbe1-0b8d8f444a62"},"vehicle_type_id":"4","last_reported":1731759408,"current_range_meters":13600,"station_id":"ce4bgkh2rcd13ifvqbl0","pricing_plan_id":"cebpf4jnsgd1na2vs0mg"},{"bike_id":"a6e02f20-851f-4a1e-be56-2aac661cb57d","system_id":"levelo_inurba_marseille","lat":43.31241,"lon":5.36846,"is_reserved":false,"is_disabled":false,"rental_uris":{"android":"levelo://app?vid=a6e02f20-851f-4a1e-be56-2aac661cb57d","ios":"levelo://app?vid=a6e02f20-851f-4a1e-be56-2aac661cb57d"},"vehicle_type_id":"4","last_reported":1731759408,"current_range_meters":36000,"station_id":"ce4bgl92rcd13ifvqbq0","pricing_plan_id":"cebpf4jnsgd1na2vs0mg"},{"bike_id":"251d8918-1250-4853-9293-89ee39d3be92","system_id":"levelo_inurba_marseille","lat":43.33022,"lon":5.39038,"is_reserved":false,"is_disabled":false,"rental_uris":{"android":"levelo://app?vid=251d8918-1250-4853-9293-89ee39d3be92","ios":"levelo://app?vid=251d8918-1250-4853-9293-89ee39d3be92"},"vehicle_type_id":"4","last_reported":1731759408,"current_range_meters":36800,"station_id":"ce4bhr92rcd13ifvqhrg","pricing_plan_id":"cebpf4jnsgd1na2vs0mg"},{"bike_id":"abba66d9-bf8b-4ea9-a92b-e74cd4de9afc","system_id":"levelo_inurba_marseille","lat":43.3199,"lon":5.38155,"is_reserved":false,"is_disabled":false,"rental_uris":{"android":"levelo://app?vid=abba66d9-bf8b-4ea9-a92b-e74cd4de9afc","ios":"levelo://app?vid=abba66d9-bf8b-4ea9-a92b-e74cd4de9afc"},"vehicle_type_id":"4","last_reported":1731759408,"current_range_meters":16800,"station_id":"ce4bhr12rcd13ifvqhpg","pricing_plan_id":"cebpf4jnsgd1na2vs0mg"},{"bike_id":"809471e3-ec39-4f2b-b271-49c8263623d6","system_id":"levelo_inurba_marseille","lat":43.24994,"lon":5.3896,"is_reserved":false,"is_disabled":false,"rental_uris":{"android":"levelo://app?vid=809471e3-ec39-4f2b-b271-49c8263623d6","ios":"levelo://app?vid=809471e3-ec39-4f2b-b271-49c8263623d6"},"vehicle_type_id":"4","last_reported":1731759408,"current_range_meters":38800,"station_id":"ce4bhgp2rcd13ifvqfd0","pricing_plan_id":"cebpf4jnsgd1na2vs0mg"},{"bike_id":"4aa9ae0f-3685-4f75-87da-1373c448baeb","system_id":"levelo_inurba_marseille","lat":43.26787,"lon":5.39418,"is_reserved":false,"is_disabled":false,"rental_uris":{"android":"levelo://app?vid=4aa9ae0f-3685-4f75-87da-1373c448baeb","ios":"levelo://app?vid=4aa9ae0f-3685-4f75-87da-1373c448baeb"},"vehicle_type_id":"4","last_reported":1731759408,"current_range_meters":32000,"station_id":"ce4bhh12rcd13ifvqfg0","pricing_plan_id":"cebpf4jnsgd1na2vs0mg"},{"bike_id":"e9f00305-d013-4bf7-a275-1c2350f8b797","system_id":"levelo_inurba_marseille","lat":43.24672,"lon":5.38166,"is_reserved":false,"is_disabled":false,"rental_uris":{"android":"levelo://app?vid=e9f00305-d013-4bf7-a275-1c2350f8b797","ios":"levelo://app?vid=e9f00305-d013-4bf7-a275-1c2350f8b797"},"vehicle_type_id":"4","last_reported":1731759408,"current_range_meters":6000,"station_id":"ce4bhih2rcd13ifvqfr0","pricing_plan_id":"cebpf4jnsgd1na2vs0mg"},{"bike_id":"59382dfe-cd3c-4c2a-8002-7a5b1433800a","system_id":"levelo_inurba_marseille","lat":43.29328,"lon":5.376505,"is_reserved":false,"is_disabled":false,"rental_uris":{"android":"levelo://app?vid=59382dfe-cd3c-4c2a-8002-7a5b1433800a","ios":"levelo://app?vid=59382dfe-cd3c-4c2a-8002-7a5b1433800a"},"vehicle_type_id":"4","last_reported":1731759408,"current_range_meters":37600,"station_id":"ce4bgi12rcd13ifvqb70","pricing_plan_id":"cebpf4jnsgd1na2vs0mg"},{"bike_id":"e05ed463-3534-4fec-bf69-3626d174144e","system_id":"levelo_inurba_marseille","lat":43.29899,"lon":5.43659,"is_reserved":false,"is_disabled":false,"rental_uris":{"android":"levelo://app?vid=e05ed463-3534-4fec-bf69-3626d174144e","ios":"levelo://app?vid=e05ed463-3534-4fec-bf69-3626d174144e"},"vehicle_type_id":"4","last_reported":1731759408,"current_range_meters":7200,"station_id":"ce4bhpp2rcd13ifvqhfg","pricing_plan_id":"cebpf4jnsgd1na2vs0mg"},{"bike_id":"c69f8b46-552e-4498-a642-0a3e2d54c51f","system_id":"levelo_inurba_marseille","lat":43.26207,"lon":5.37445,"is_reserved":false,"is_disabled":false,"rental_uris":{"android":"levelo://app?vid=c69f8b46-552e-4498-a642-0a3e2d54c51f","ios":"levelo://app?vid=c69f8b46-552e-4498-a642-0a3e2d54c51f"},"vehicle_type_id":"4","last_reported":1731759408,"current_range_meters":36400,"station_id":"ce4bhgp2rcd13ifvqfc0","pricing_plan_id":"cebpf4jnsgd1na2vs0mg"},{"bike_id":"237d47ac-0944-4d73-984f-6541e9deedf9","system_id":"levelo_inurba_marseille","lat":43.33787,"lon":5.37434,"is_reserved":false,"is_disabled":false,"rental_uris":{"android":"levelo://app?vid=237d47ac-0944-4d73-984f-6541e9deedf9","ios":"levelo://app?vid=237d47ac-0944-4d73-984f-6541e9deedf9"},"vehicle_type_id":"4","last_reported":1731759408,"current_range_meters":38400,"station_id":"","pricing_plan_id":"cebpf4jnsgd1na2vs0mg"},{"bike_id":"63dd98f0-3445-4413-8205-e1a14d13d086","system_id":"levelo_inurba_marseille","lat":43.25576,"lon":5.38231,"is_reserved":false,"is_disabled":false,"rental_uris":{"android":"levelo://app?vid=63dd98f0-3445-4413-8205-e1a14d13d086","ios":"levelo://app?vid=63dd98f0-3445-4413-8205-e1a14d13d086"},"vehicle_type_id":"4","last_reported":1731759408,"current_range_meters":36000,"station_id":"ce4bhih2rcd13ifvqfs0","pricing_plan_id":"cebpf4jnsgd1na2vs0mg"},{"bike_id":"16824378-6c41-4229-b0d7-4842860f3f8a","system_id":"levelo_inurba_marseille","lat":43.32479,"lon":5.36561,"is_reserved":false,"is_disabled":false,"rental_uris":{"android":"levelo://app?vid=16824378-6c41-4229-b0d7-4842860f3f8a","ios":"levelo://app?vid=16824378-6c41-4229-b0d7-4842860f3f8a"},"vehicle_type_id":"4","last_reported":1731759408,"current_range_meters":39200,"station_id":"ce4bhs12rcd13ifvqhvg","pricing_plan_id":"cebpf4jnsgd1na2vs0mg"},{"bike_id":"2d5c80bc-493a-4c8d-8a80-4e01a1d27959","system_id":"levelo_inurba_marseille","lat":43.28867,"lon":5.46145,"is_reserved":false,"is_disabled":false,"rental_uris":{"android":"levelo://app?vid=2d5c80bc-493a-4c8d-8a80-4e01a1d27959","ios":"levelo://app?vid=2d5c80bc-493a-4c8d-8a80-4e01a1d27959"},"vehicle_type_id":"4","last_reported":1731759408,"current_range_meters":5600,"station_id":"","pricing_plan_id":"cebpf4jnsgd1na2vs0mg"},{"bike_id":"eb0d1d6f-8d9f-4184-b9b7-bbe755470ca4","system_id":"levelo_inurba_marseille","lat":43.29847,"lon":5.36283,"is_reserved":false,"is_disabled":false,"rental_uris":{"android":"levelo://app?vid=eb0d1d6f-8d9f-4184-b9b7-bbe755470ca4","ios":"levelo://app?vid=eb0d1d6f-8d9f-4184-b9b7-bbe755470ca4"},"vehicle_type_id":"4","last_reported":1731759408,"current_range_meters":35600,"station_id":"ce4bgpp2rcd13ifvqc3g","pricing_plan_id":"cebpf4jnsgd1na2vs0mg"},{"bike_id":"fe34e79d-89a4-4c9d-9e26-e258e0391b41","system_id":"levelo_inurba_marseille","lat":43.23182,"lon":5.39988,"is_reserved":false,"is_disabled":false,"rental_uris":{"android":"levelo://app?vid=fe34e79d-89a4-4c9d-9e26-e258e0391b41","ios":"levelo://app?vid=fe34e79d-89a4-4c9d-9e26-e258e0391b41"},"vehicle_type_id":"4","last_reported":1731759408,"current_range_meters":35200,"station_id":"ce4bhn12rcd13ifvqgqg","pricing_plan_id":"cebpf4jnsgd1na2vs0mg"},