{"last_updated":1703786957,"ttl":30,"version":"2.2","data":{"bikes":[{"bike_id":"4a82b909-a462-4284-9d66-bd7c2b75e30b","system_id":"levelo_inurba_marseille","lat":43.312239,"lon":5.368562,"is_reserved":false,"is_disabled":false,"rental_uris":{"android":"levelo://app?vid=4a82b909-a462-4284-9d66-bd7c2b75e30b","ios":"levelo://app?vid=4a82b909-a462-4284-9d66-bd7c2b75e30b"},"vehicle_type_id":"4","last_reported":1703786958,"current_range_meters":15600,"station_id":"ce4bgl92rcd13ifvqbq0","pricing_plan_id":"free"},{"bike_id":"5b1e9883-c7c7-4ebd-bef6-fe753b723534","system_id":"levelo_inurba_marseille","lat":43.30898,"lon":5.37189,"is_reserved":false,"is_disabled":false,"rental_uris":{"android":"levelo://app?vid=5b1e9883-c7c7-4ebd-bef6-fe753b723534","ios":"levelo://app?vid=5b1e9883-c7c7-4ebd-bef6-fe753b723534"},"vehicle_type_id":"4","last_reported":1703786958,"current_range_meters":12800,"station_id":"ce4bguh2rcd13ifvqckg","pricing_plan_id":"free"},{"bike_id":"0501c5b4-cd76-48a6-90ee-ca6a51833e68","system_id":"levelo_inurba_marseille","lat":43.306783,"lon":5.36597,"is_reserved":false,"is_disabled":false,"rental_uris":{"android":"levelo://app?vid=0501c5b4-cd76-48a6-90ee-ca6a51833e68","ios":"levelo://app?vid=0501c5b4-cd76-48a6-90ee-ca6a51833e68"},"vehicle_type_id":"4","last_reported":1703786958,"current_range_meters":10400,"station_id":"","pricing_plan_id":"free"},{"bike_id":"e53a9163-4e5b-47fe-9556-01a0a159d6b4","system_id":"levelo_inurba_marseille","lat":43.318964,"lon":5.36877,"is_reserved":false,"is_disabled":false,"rental_uris":{"android":"levelo://app?vid=e53a9163-4e5b-47fe-9556-01a0a159d6b4","ios":"levelo://app?vid=e53a9163-4e5b-47fe-9556-01a0a159d6b4"},"vehicle_type_id":"4","last_reported":1703786958,"current_range_meters":3600,"station_id":"","pricing_plan_id":"free"},{"bike_id":"2bf1159c-4b34-4bc3-a8b5-156be571c011","system_id":"levelo_inurba_marseille","lat":43.307368,"lon":5.373898,"is_reserved":false,"is_disabled":false,"rental_uris":{"android":"levelo://app?vid=2bf1159c-4b34-4bc3-a8b5-156be571c011","ios":"levelo://app?vid=2bf1159c-4b34-4bc3-a8b5-156be571c011"},"vehicle_type_id":"4","last_reported":1703786958,"current_range_meters":30000,"station_id":"","pricing_plan_id":"free"},{"bike_id":"a5c0284e-69f4-40fa-81b1-8823e6b1b670","system_id":"levelo_inurba_marseille","lat":43.305706,"lon":5.365654,"is_reserved":false,"is_disabled":false,"rental_uris":{"android":"levelo://app?vid=a5c0284e-69f4-40fa-81b1-8823e6b1b670","ios":"levelo://app?vid=a5c0284e-69f4-40fa-81b1-8823e6b1b670"},"vehicle_type_id":"4","last_reported":1703786958,"current_range_meters":30000,"station_id":"ce4bgs12rcd13ifvqcag","pricing_plan_id":"free"},{"bike_id":"0779b298-b88a-4c4e-8ba7-9330f6af6f0d","system_id":"levelo_inurba_marseille","lat":43.307945,"lon":5.376487,"is_reserved":false,"is_disabled":false,"rental_uris":{"android":"levelo://app?vid=0779b298-b88a-4c4e-8ba7-9330f6af6f0d","ios":"levelo://app?vid=0779b298-b88a-4c4e-8ba7-9330f6af6f0d"},"vehicle_type_id":"4","last_reported":1703786958,"current_range_meters":28000,"station_id":"ce4bgv92rcd13ifvqcq0","pricing_plan_id":"free"},{"bike_id":"aa4796d7-3a4e-4cb7-8205-a4f17e9eeb58","system_id":"levelo_inurba_marseille","lat":43.317075,"lon":5.377367,"is_reserved":false,"is_disabled":false,"rental_uris":{"android":"levelo://app?vid=aa4796d7-3a4e-4cb7-8205-a4f17e9eeb58","ios":"levelo://app?vid=aa4796d7-3a4e-4cb7-8205-a4f17e9eeb58"},"vehicle_type_id":"4","last_reported":1703786958,"current_range_meters":28000,"station_id":"ce4bgth2rcd13ifvqch0","pricing_plan_id":"free"},{"bike_id":"ea348b71-31b7-4829-8cb8-a96f72bd492a","system_id":"levelo_inurba_marseille","lat":43.304606,"lon":5.379026,"is_reserved":false,"is_disabled":false,"rental_uris":{"android":"levelo://app?vid=ea348b71-31b7-4829-8cb8-a96f72bd492a","ios":"levelo://app?vid=ea348b71-31b7-4829-8cb8-a96f72bd492a"},"vehicle_type_id":"4","last_reported":1703786958,"current_range_meters":5200,"station_id":"ce4bgup2rcd13ifvqcn0","pricing_plan_id":"free"},{"bike_id":"9cc8a8b4-c4ae-4707-b9c7-5230b5976c1a","system_id":"levelo_inurba_marseille","lat":43.304606,"lon":5.379026,"is_reserved":false,"is_disabled":false,"rental_uris":{"android":"levelo://app?vid=9cc8a8b4-c4ae-4707-b9c7-5230b5976c1a","ios":"levelo://app?vid=9cc8a8b4-c4ae-4707-b9c7-5230b5976c1a"},"vehicle_type_id":"4","last_reported":1703786958,"current_range_meters":8000,"station_id":"ce4bgup2rcd13ifvqcn0","pricing_plan_id":"free"},{"bike_id":"e9194769-feea-40a4-986c-43d6af3d8cd4","system_id":"levelo_inurba_marseille","lat":43.304606,"lon":5.379026,"is_reserved":false,"is_disabled":false,"rental_uris":{"android":"levelo://app?vid=e9194769-feea-40a4-986c-43d6af3d8cd4","ios":"levelo://app?vid=e9194769-feea-40a4-986c-43d6af3d8cd4"},"vehicle_type_id":"4","last_reported":1703786958,"current_range_meters":24000,"station_id":"ce4bgup2rcd13ifvqcn0","pricing_plan_id":"free"},{"bike_id":"70abfa59-da22-4db4-b461-f3fbf3adbd95","system_id":"levelo_inurba_marseille","lat":43.324771,"lon":5.36557,"is_reserved":false,"is_disabled":false,"rental_uris":{"android":"levelo://app?vid=70abfa59-da22-4db4-b461-f3fbf3adbd95","ios":"levelo://app?vid=70abfa59-da22-4db4-b461-f3fbf3adbd95"},"vehicle_type_id":"4","last_reported":1703786958,"current_range_meters":19200,"station_id":"ce4bhs12rcd13ifvqhvg","pricing_plan_id":"free"},{"bike_id":"5c3a4ebb-70e1-49a8-a7de-be7621b58e9d","system_id":"levelo_inurba_marseille","lat":43.304606,"lon":5.379026,"is_reserved":false,"is_disabled":false,"rental_uris":{"android":"levelo://app?vid=5c3a4ebb-70e1-49a8-a7de-be7621b58e9d","ios":"levelo://app?vid=5c3a4ebb-70e1-49a8-a7de-be7621b58e9d"},"vehicle_type_id":"4","last_reported":1703786958,"current_range_meters":4800,"station_id":"ce4bgup2rcd13ifvqcn0","pricing_plan_id":"free"},{"bike_id":"65a5bc48-fdb7-4909-98ac-a83f0d971e40","system_id":"levelo_inurba_marseille","lat":43.324771,"lon":5.36557,"is_reserved":false,"is_disabled":false,"rental_uris":{"android":"levelo://app?vid=65a5bc48-fdb7-4909-98ac-a83f0d971e40","ios":"levelo://app?vid=65a5bc48-fdb7-4909-98ac-a83f0d971e40"},"vehicle_type_id":"4","last_reported":1703786958,"current_range_meters":14400,"station_id":"ce4bhs12rcd13ifvqhvg","pricing_plan_id":"free"},{"bike_id":"65a7d136-99e5-4eda-8dd9-8c128dc8f4fe","system_id":"levelo_inurba_marseille","lat":43.324771,"lon":5.36557,"is_reserved":false,"is_disabled":false,"rental_uris":{"android":"levelo://app?vid=65a7d136-99e5-4eda-8dd9-8c128dc8f4fe","ios":"levelo://app?vid=65a7d136-99e5-4eda-8dd9-8c128dc8f4fe"},"vehicle_type_id":"4","last_reported":1703786958,"current_range_meters":22400,"station_id":"ce4bhs12rcd13ifvqhvg","pricing_plan_id":"free"},{"bike_id":"5810a51d-900e-4f21-b011-504985336ccb","system_id":"levelo_inurba_marseille","lat":43.324771,"lon":5.36557,"is_reserved":false,"is_disabled":false,"rental_uris":{"android":"levelo://app?vid=5810a51d-900e-4f21-b011-504985336ccb","ios":"levelo://app?vid=5810a51d-900e-4f21-b011-504985336ccb"},"vehicle_type_id":"4","last_reported":1703786958,"current_range_meters":16800,"station_id":"ce4bhs12rcd13ifvqhvg","pricing_plan_id":"free"},{"bike_id":"44f5aa6f-153b-4bf7-a108-6634d1fab963","system_id":"levelo_inurba_marseille","lat":43.302784,"lon":5.377158,"is_reserved":false,"is_disabled":false,"rental_uris":{"android":"levelo://app?vid=44f5aa6f-153b-4bf7-a108-6634d1fab963","ios":"levelo://app?vid=44f5aa6f-153b-4bf7-a108-6634d1fab963"},"vehicle_type_id":"4","last_reported":1703786958,"current_range_meters":11200,"station_id":"ce4bguh2rcd13ifvqcj0","pricing_plan_id":"free"},{"bike_id":"eb75f652-373e-4726-9e33-c05a085e4a2d","system_id":"levelo_inurba_marseille","lat":43.301453,"lon":5.37416,"is_reserved":false,"is_disabled":false,"rental_uris":{"android":"levelo://app?vid=eb75f652-373e-4726-9e33-c05a085e4a2d","ios":"levelo://app?vid=eb75f652-373e-4726-9e33-c05a085e4a2d"},"vehicle_type_id":"4","last_reported":1703786958,"current_range_meters":4800,"station_id":"","pricing_plan_id":"free"},{"bike_id":"489efb97-6469-4c5c-b718-7660c1202bfd","system_id":"levelo_inurba_marseille","lat":43.319935,"lon":5.381699,"is_reserved":false,"is_disabled":false,"rental_uris":{"android":"levelo://app?vid=489efb97-6469-4c5c-b718-7660c1202bfd","ios":"levelo://app?vid=489efb97-6469-4c5c-b718-7660c1202bfd"},"vehicle_type_id":"4","last_reported":1703786958,"current_range_meters":11600,"station_id":"ce4bhr12rcd13ifvqhpg","pricing_plan_id":"free"},{"bike_id":"9f56e768-708e-4f3b-9665-77b378da46d8","system_id":"levelo_inurba_marseille","lat":43.319935,"lon":5.381699,"is_reserved":false,"is_disabled":false,"rental_uris":{"android":"levelo://app?vid=9f56e768-708e-4f3b-9665-77b378da46d8","ios":"levelo://app?vid=9f56e768-708e-4f3b-9665-77b378da46d8"},"vehicle_type_id":"4","last_reported":1703786958,"current_range_meters":16800,"station_id":"ce4bhr12rcd13ifvqhpg","pricing_plan_id":"free"},{"bike_id":"888a4ad6-7e75-40f0-add7-09f38a533c02","system_id":"levelo_inurba_marseille","lat":43.319935,"lon":5.381699,"is_reserved":false,"is_disabled":false,"rental_uris":{"android":"levelo://app?vid=888a4ad6-7e75-40f0-add7-09f38a533c02","ios":"levelo://app?vid=888a4ad6-7e75-40f0-add7-09f38a533c02"},"vehicle_type_id":"4","last_reported":1703786958,"current_range_meters":25200,"station_id":"ce4bhr12rcd13ifvqhpg","pricing_plan_id":"free"},{"bike_id":"5e56827d-c152-4ecd-a38a-84eba3dbf8c2","system_id":"levelo_inurba_marseille","lat":43.319935,"lon":5.381699,"is_reserved":false,"is_disabled":false,"rental_uris":{"android":"levelo://app?vid=5e56827d-c152-4ecd-a38a-84eba3dbf8c2","ios":"levelo://app?vid=5e56827d-c152-4ecd-a38a-84eba3dbf8c2"},"vehicle_type_id":"4","last_reported":1703786958,"current_range_meters":25200,"station_id":"ce4bhr12rcd13ifvqhpg","pricing_plan_id":"free"},{"bike_id":"990a5cce-64ae-4b14-b861-dfa123114d7c","system_id":"levelo_inurba_marseille","lat":43.319935,"lon":5.381699,"is_reserved":false,"is_disabled":false,"rental_uris":{"android":"levelo://app?vid=990a5cce-64ae-4b14-b861-dfa123114d7c","ios":"levelo://app?vid=990a5cce-64ae-4b14-b861-dfa123114d7c"},"vehicle_type_id":"4","last_reported":1703786958,"current_range_meters":0,"station_id":"ce4bhr12rcd13ifvqhpg","pricing_plan_id":"free"},{"bike_id":"d798eee3-c9cd-4e09-a137-162e27e1625e","system_id":"levelo_inurba_marseille","lat":43.319935,"lon":5.381699,"is_reserved":false,"is_disabled":false,"rental_uris":{"android":"levelo://app?vid=d798eee3-c9cd-4e09-a137-162e27e1625e","ios":"levelo://app?vid=d798eee3-c9cd-4e09-a137-162e27e1625e"},"vehicle_type_id":"4","last_reported":1703786958,"current_range_meters":25200,"station_id":"ce4bhr12rcd13ifvqhpg","pricing_plan_id":"free"},{"bike_id":"51ea5272-c5f1-4be1-a15c-df7b03fa2561","system_id":"levelo_inurba_marseille","lat":43.313571,"lon":5.384829,"is_reserved":false,"is_disabled":false,"rental_uris":{"android":"levelo://app?vid=51ea5272-c5f1-4be1-a15c-df7b03fa2561","ios":"levelo://app?vid=51ea5272-c5f1-4be1-a15c-df7b03fa2561"},"vehicle_type_id":"4","last_reported":1703786958,"current_range_meters":27600,"station_id":"ce4bgt92rcd13ifvqcf0","pricing_plan_id":"free"},{"bike_id":"ee9ed31b-9ceb-489b-8c56-c5b7dae92e95","system_id":"levelo_inurba_marseille","lat":43.299222,"lon":5.365554,"is_reserved":false,"is_disabled":false,"rental_uris":{"android":"levelo://app?vid=ee9ed31b-9ceb-489b-8c56-c5b7dae92e95","ios":"levelo://app?vid=ee9ed31b-9ceb-489b-8c56-c5b7dae92e95"},"vehicle_type_id":"4","last_reported":1703786958,"current_range_meters":10400,"station_id":"ce4bgm92rcd13ifvqbr0","pricing_plan_id":"free"},{"bike_id":"2bafabbe-ecb7-41e3-853f-f9a51c683dd3","system_id":"levelo_inurba_marseille","lat":43.32612,"lon":5.36113,"is_reserved":false,"is_disabled":false,"rental_uris":{"android":"levelo://app?vid=2bafabbe-ecb7-41e3-853f-f9a51c683dd3","ios":"levelo://app?vid=2bafabbe-ecb7-41e3-853f-f9a51c683dd3"},"vehicle_type_id":"4","last_reported":1703786958,"current_range_meters":18000,"station_id":"","pricing_plan_id":"free"},{"bike_id":"46dc423c-2f39-4aae-b79d-f3fe276cdb21","system_id":"levelo_inurba_marseille","lat":43.298433,"lon":5.362774,"is_reserved":false,"is_disabled":false,"rental_uris":{"android":"levelo://app?vid=46dc423c-2f39-4aae-b79d-f3fe276cdb21","ios":"levelo://app?vid=46dc423c-2f39-4aae-b79d-f3fe276cdb21"},"vehicle_type_id":"4","last_reported":1703786958,"current_range_meters":28400,"station_id":"ce4bgpp2rcd13ifvqc3g","pricing_plan_id":"free"},{"bike_id":"f6416786-c36f-4a33-8ada-0f24e356b50d","system_id":"levelo_inurba_marseille","lat":43.298433,"lon":5.362774,"is_reserved":false,"is_disabled":false,"rental_uris":{"android":"levelo://app?vid=f6416786-c36f-4a33-8ada-0f24e356b50d","ios":"levelo://app?vid=f6416786-c36f-4a33-8ada-0f24e356b50d"},"vehicle_type_id":"4","last_reported":1703786958,"current_range_meters":0,"station_id":"ce4bgpp2rcd13ifvqc3g","pricing_plan_id":"free"},{"bike_id":"593806d2-df9f-4948-882a-12f5cddb28fb","system_id":"levelo_inurba_marseille","lat":43.298433,"lon":5.362774,"is_reserved":false,"is_disabled":false,"rental_uris":{"android":"levelo://app?vid=593806d2-df9f-4948-882a-12f5cddb28fb","ios":"levelo://app?vid=593806d2-df9f-4948-882a-12f5cddb28fb"},"vehicle_type_id":"4","last_reported":1703786958,"current_range_meters":8400,"station_id":"ce4bgpp2rcd13ifvqc3g","pricing_plan_id":"free"},{"bike_id":"c29c2b43-76ea-4aa2-9abf-478ae1ca56ef","system_id":"levelo_inurba_marseille","lat":43.298433,"lon":5.362774,"is_reserved":false,"is_disabled":false,"rental_uris":{"android":"levelo://app?vid=c29c2b43-76ea-4aa2-9abf-478ae1ca56ef","ios":"levelo://app?vid=c29c2b43-76ea-4aa2-9abf-478ae1ca56ef"},"vehicle_type_id":"4","last_reported":1703786958,"current_range_meters":22800,"station_id":"ce4bgpp2rcd13ifvqc3g","pricing_plan_id":"free"},{"bike_id":"d58c0707-1282-49db-a90c-f77a2e7e3b2e","system_id":"levelo_inurba_marseille","lat":43.311722,"lon":5.387247,"is_reserved":false,"is_disabled":false,"rental_uris":{"android":"levelo://app?vid=d58c0707-1282-49db-a90c-f77a2e7e3b2e","ios":"levelo://app?vid=d58c0707-1282-49db-a90c-f77a2e7e3b2e"},"vehicle_type_id":"4","last_reported":1703786958,"current_range_meters":31600,"station_id":"ce4bgv12rcd13ifvqcp0","pricing_plan_id":"free"},{"bike_id":"c39fe576-53fd-4bb6-b3e5-b176bc89908c","system_id":"levelo_inurba_marseille","lat":43.311722,"lon":5.387247,"is_reserved":false,"is_disabled":false,"rental_uris":{"android":"levelo://app?vid=c39fe576-53fd-4bb6-b3e5-b176bc89908c","ios":"levelo://app?vid=c39fe576-53fd-4bb6-b3e5-b176bc89908c"},"vehicle_type_id":"4","last_reported":1703786958,"current_range_meters":29200,"station_id":"ce4bgv12rcd13ifvqcp0","pricing_plan_id":"free"},{"bike_id":"5d282ce3-b73d-4f35-b3e5-20a1da0ce631","system_id":"levelo_inurba_marseille","lat":43.311722,"lon":5.387247,"is_reserved":false,"is_disabled":false,"rental_uris":{"android":"levelo://app?vid=5d282ce3-b73d-4f35-b3e5-20a1da0ce631","ios":"levelo://app?vid=5d282ce3-b73d-4f35-b3e5-20a1da0ce631"},"vehicle_type_id":"4","last_reported":1703786958,"current_range_meters":8800,"station_id":"ce4bgv12rcd13ifvqcp0","pricing_plan_id":"free"},{"bike_id":"a2a03bde-8a7b-4170-a488-04211f67a331","system_id":"levelo_inurba_marseille","lat":43.299243,"lon":5.37481,"is_reserved":false,"is_disabled":false,"rental_uris":{"android":"levelo://app?vid=a2a03bde-8a7b-4170-a488-04211f67a331","ios":"levelo://app?vid=a2a03bde-8a7b-4170-a488-04211f67a331"},"vehicle_type_id":"4","last_reported":1703786958,"current_range_meters":8400,"station_id":"ce4bgjh2rcd13ifvqbg0","pricing_plan_id":"free"},{"bike_id":"3270f28d-7b09-46cb-ba43-f40752fc3385","system_id":"levelo_inurba_marseille","lat":43.322872,"lon":5.382756,"is_reserved":false,"is_disabled":false,"rental_uris":{"android":"levelo://app?vid=3270f28d-7b09-46cb-ba43-f40752fc3385","ios":"levelo://app?vid=3270f28d-7b09-46cb-ba43-f40752fc3385"},"vehicle_type_id":"4","last_reported":1703786958,"current_range_meters":31200,"station_id":"ce4bhr12rcd13ifvqhqg","pricing_plan_id":"free"},{"bike_id":"5c89eee7-6e83-42b4-bd81-efdcf68f6666","system_id":"levelo_inurba_marseille","lat":43.32824,"lon":5.36683,"is_reserved":false,"is_disabled":false,"rental_uris":{"android":"levelo://app?vid=5c89eee7-6e83-42b4-bd81-efdcf68f6666","ios":"levelo://app?vid=5c89eee7-6e83-42b4-bd81-efdcf68f6666"},"vehicle_type_id":"4","last_reported":1703786958,"current_range_meters":27200,"station_id":"ce4bhs92rcd13ifvqi0g","pricing_plan_id":"free"},{"bike_id":"77df569d-e68d-4b58-90b2-6ae6929560e4","system_id":"levelo_inurba_marseille","lat":43.32827,"lon":5.36679,"is_reserved":false,"is_disabled":false,"rental_uris":{"android":"levelo://app?vid=77df569d-e68d-4b58-90b2-6ae6929560e4","ios":"levelo://app?vid=77df569d-e68d-4b58-90b2-6ae6929560e4"},"vehicle_type_id":"4","last_reported":1703786958,"current_range_meters":23200,"station_id":"ce4bhs92rcd13ifvqi0g","pricing_plan_id":"free"},{"bike_id":"1ea82e61-37ea-4b15-a6ef-01d29683b9fd","system_id":"levelo_inurba_marseille","lat":43.32827,"lon":5.36674,"is_reserved":false,"is_disabled":false,"rental_uris":{"android":"levelo://app?vid=1ea82e61-37ea-4b15-a6ef-01d29683b9fd","ios":"levelo://app?vid=1ea82e61-37ea-4b15-a6ef-01d29683b9fd"},"vehicle_type_id":"4","last_reported":1703786958,"current_range_meters":20000,"station_id":"ce4bhs92rcd13ifvqi0g","pricing_plan_id":"free"},{"bike_id":"b30b3d1b-ef61-4776-bd7b-61c34fd8cc81","system_id":"levelo_inurba_marseille","lat":43.328275,"lon":5.366808,"is_reserved":false,"is_disabled":false,"rental_uris":{"android":"levelo://app?vid=b30b3d1b-ef61-4776-bd7b-61c34fd8cc81","ios":"levelo://app?vid=b30b3d1b-ef61-4776-bd7b-61c34fd8cc81"},"vehicle_type_id":"4","last_reported":1703786958,"current_range_meters":17600,"station_id":"ce4bhs92rcd13ifvqi0g","pricing_plan_id":"free"},{"bike_id":"89a5f3da-ff2f-4229-b32c-9515d143ecf1","system_id":"levelo_inurba_marseille","lat":43.32828,"lon":5.3669,"is_reserved":false,"is_disabled":false,"rental_uris":{"android":"levelo://app?vid=89a5f3da-ff2f-4229-b32c-9515d143ecf1","ios":"levelo://app?vid=89a5f3da-ff2f-4229-b32c-9515d143ecf1"},"vehicle_type_id":"4","last_reported":1703786958,"current_range_meters":6000,"station_id":"ce4bhs92rcd13ifvqi0g","pricing_plan_id":"free"},{"bike_id":"a677cd10-a09b-4b2e-bffd-45b05d2c9229","system_id":"levelo_inurba_marseille","lat":43.32828,"lon":5.36679,"is_reserved":false,"is_disabled":false,"rental_uris":{"android":"levelo://app?vid=a677cd10-a09b-4b2e-bffd-45b05d2c9229","ios":"levelo://app?vid=a677cd10-a09b-4b2e-bffd-45b05d2c9229"},"vehicle_type_id":"4","last_reported":1703786958,"current_range_meters":24800,"station_id":"ce4bhs92rcd13ifvqi0g","pricing_plan_id":"free"},{"bike_id":"51714c4a-3132-4951-88ec-80e85fa125e8","system_id":"levelo_inurba_marseille","lat":43.328287,"lon":5.366892,"is_reserved":false,"is_disabled":false,"rental_uris":{"android":"levelo://app?vid=51714c4a-3132-4951-88ec-80e85fa125e8","ios":"levelo://app?vid=51714c4a-3132-4951-88ec-80e85fa125e8"},"vehicle_type_id":"4","last_reported":1703786958,"current_range_meters":18400,"station_id":"ce4bhs92rcd13ifvqi0g","pricing_plan_id":"free"},{"bike_id":"9af4dca3-d129-4c6f-a8f1-0b83c93205fa","system_id":"levelo_inurba_marseille","lat":43.3283,"lon":5.3668,"is_reserved":false,"is_disabled":false,"rental_uris":{"android":"levelo://app?vid=9af4dca3-d129-4c6f-a8f1-0b83c93205fa","ios":"levelo://app?vid=9af4dca3-d129-4c6f-a8f1-0b83c93205fa"},"vehicle_type_id":"4","last_reported":1703786958,"current_range_meters":15200,"station_id":"ce4bhs92rcd13ifvqi0g","pricing_plan_id":"free"},{"bike_id":"de708f00-7118-4d7c-9021-d7dcbd798473","system_id":"levelo_inurba_marseille","lat":43.328371,"lon":5.366909,"is_reserved":false,"is_disabled":false,"rental_uris":{"android":"levelo://app?vid=de708f00-7118-4d7c-9021-d7dcbd798473","ios":"levelo://app?vid=de708f00-7118-4d7c-9021-d7dcbd798473"},"vehicle_type_id":"4","last_reported":1703786958,"current_range_meters":14400,"station_id":"ce4bhs92rcd13ifvqi0g","pricing_plan_id":"free"},{"bike_id":"a448ca86-2b35-41e1-89c4-32a99bab0563","system_id":"levelo_inurba_marseille","lat":43.328371,"lon":5.366912,"is_reserved":false,"is_disabled":false,"rental_uris":{"android":"levelo://app?vid=a448ca86-2b35-41e1-89c4-32a99bab0563","ios":"levelo://app?vid=a448ca86-2b35-41e1-89c4-32a99bab0563"},"vehicle_type_id":"4","last_reported":1703786958,"current_range_meters":22800,"station_id":"ce4bhs92rcd13ifvqi0g","pricing_plan_id":"free"},{"bike_id":"904f83aa-e9ab-401d-84c1-9edfed82b884","system_id":"levelo_inurba_marseille","lat":43.328371,"lon":5.366912,"is_reserved":false,"is_disabled":false,"rental_uris":{"android":"levelo://app?vid=904f83aa-e9ab-401d-84c1-9edfed82b884","ios":"levelo://app?vid=904f83aa-e9ab-401d-84c1-9edfed82b884"},"vehicle_type_id":"4","last_reported":1703786958,"current_range_meters":8800,"station_id":"ce4bhs92rcd13ifvqi0g","pricing_plan_id":"free"},{"bike_id":"ea7074d7-b7c9-4941-82c2-dff391bae9cb","system_id":"levelo_inurba_marseille","lat":43.32831,"lon":5.36675,"is_reserved":false,"is_disabled":false,"rental_uris":{"android":"levelo://app?vid=ea7074d7-b7c9-4941-82c2-dff391bae9cb","ios":"levelo://app?vid=ea7074d7-b7c9-4941-82c2-dff391bae9cb"},"vehicle_type_id":"4","last_reported":1703786958,"current_range_meters":14400,"station_id":"ce4bhs92rcd13ifvqi0g","pricing_plan_id":"free"},{"bike_id":"639980c6-9f73-401a-b944-961e7482aee9","system_id":"levelo_inurba_marseille","lat":43.32831,"lon":5.36672,"is_reserved":false,"is_disabled":false,"rental_uris":{"android":"levelo://app?vid=639980c6-9f73-401a-b944-961e7482aee9","ios":"levelo://app?vid=639980c6-9f73-401a-b944-961e7482aee9"},"vehicle_type_id":"4","last_reported":1703786958,"current_range_meters":6000,"station_id":"ce4bhs92rcd13ifvqi0g","pricing_plan_id":"free"},{"bike_id":"6f67326a-1664-406f-9978-902e013e2357","system_id":"levelo_inurba_marseille","lat":43.32832,"lon":5.36679,"is_reserved":false,"is_disabled":false,"rental_uris":{"android":"levelo://app?vid=6f67326a-1664-406f-9978-902e013e2357","ios":"levelo://app?vid=6f67326a-1664-406f-9978-902e013e2357"},"vehicle_type_id":"4","last_reported":1703786958,"current_range_meters":22400,"station_id":"ce4bhs92rcd13ifvqi0g","pricing_plan_id":"free"},{"bike_id":"ddee1e46-a8ad-4997-9dc5-136753741280","system_id":"levelo_inurba_marseille","lat":43.32832,"lon":5.36673,"is_reserved":false,"is_disabled":false,"rental_uris":{"android":"levelo://app?vid=ddee1e46-a8ad-4997-9dc5-136753741280","ios":"levelo://app?vid=ddee1e46-a8ad-4997-9dc5-136753741280"},"vehicle_type_id":"4","last_reported":1703786958,"current_range_meters":25200,"station_id":"ce4bhs92rcd13ifvqi0g","pricing_plan_id":"free"},{"bike_id":"370cccf7-c9ba-46c2-819b-c8e8cacc4c21","system_id":"levelo_inurba_marseille","lat":43.3277,"lon":5.37458,"is_reserved":false,"is_disabled":false,"rental_uris":{"android":"levelo://app?vid=370cccf7-c9ba-46c2-819b-c8e8cacc4c21","ios":"levelo://app?vid=370cccf7-c9ba-46c2-819b-c8e8cacc4c21"},"vehicle_type_id":"4","last_reported":1703786958,"current_range_meters":17600,"station_id":"","pricing_plan_id":"free"},{"bike_id":"921b424d-ad0d-4c7a-9d74-66e3a49bfa19","system_id":"levelo_inurba_marseille","lat":43.32934,"lon":5.36612,"is_reserved":false,"is_disabled":false,"rental_uris":{"android":"levelo://app?vid=921b424d-ad0d-4c7a-9d74-66e3a49bfa19","ios":"levelo://app?vid=921b424d-ad0d-4c7a-9d74-66e3a49bfa19"},"vehicle_type_id":"4","last_reported":1703786958,"current_range_meters":12800,"station_id":"","pricing_plan_id":"free"},{"bike_id":"aa03daeb-fa6a-4404-9d90-5b1bb2ebebd3","system_id":"levelo_inurba_marseille","lat":43.317557,"lon":5.390173,"is_reserved":false,"is_disabled":false,"rental_uris":{"android":"levelo://app?vid=aa03daeb-fa6a-4404-9d90-5b1bb2ebebd3","ios":"levelo://app?vid=aa03daeb-fa6a-4404-9d90-5b1bb2ebebd3"},"vehicle_type_id":"4","last_reported":1703786958,"current_range_meters":23200,"station_id":"ce4bhqp2rcd13ifvqhng","pricing_plan_id":"free"},{"bike_id":"3c4d8863-27f3-4d78-b7f5-3c2f01cff309","system_id":"levelo_inurba_marseille","lat":43.304274,"lon":5.388873,"is_reserved":false,"is_disabled":false,"rental_uris":{"android":"levelo://app?vid=3c4d8863-27f3-4d78-b7f5-3c2f01cff309","ios":"levelo://app?vid=3c4d8863-27f3-4d78-b7f5-3c2f01cff309"},"vehicle_type_id":"4","last_reported":1703786958,"current_range_meters":0,"station_id":"ce4bgk12rcd13ifvqbi0","pricing_plan_id":"free"},{"bike_id":"4a76d77f-4988-49b9-af28-9c38550e2086","system_id":"levelo_inurba_marseille","lat":43.296277,"lon":5.377108,"is_reserved":false,"is_disabled":false,"rental_uris":{"android":"levelo://app?vid=4a76d77f-4988-49b9-af28-9c38550e2086","ios":"levelo://app?vid=4a76d77f-4988-49b9-af28-9c38550e2086"},"vehicle_type_id":"4","last_reported":1703786958,"current_range_meters":18400,"station_id":"ce4bgi92rcd13ifvqb90","pricing_plan_id":"free"},{"bike_id":"2a924a7b-c189-425c-b1f2-894d55b23a1a","system_id":"levelo_inurba_marseille","lat":43.299707,"lon":5.384859,"is_reserved":false,"is_disabled":false,"rental_uris":{"android":"levelo://app?vid=2a924a7b-c189-425c-b1f2-894d55b23a1a","ios":"levelo://app?vid=2a924a7b-c189-425c-b1f2-894d55b23a1a"},"vehicle_type_id":"4","last_reported":1703786958,"current_range_meters":16800,"station_id":"ce4bgj92rcd13ifvqbd0","pricing_plan_id":"free"},{"bike_id":"7119845d-00aa-4d9f-be8c-fc97d41f1380","system_id":"levelo_inurba_marseille","lat":43.297594,"lon":5.381134,"is_reserved":false,"is_disabled":false,"rental_uris":{"android":"levelo://app?vid=7119845d-00aa-4d9f-be8c-fc97d41f1380","ios":"levelo://app?vid=7119845d-00aa-4d9f-be8c-fc97d41f1380"},"vehicle_type_id":"4","last_reported":1703786958,"current_range_meters":22400,"station_id":"ce4bgip2rcd13ifvqbb0","pricing_plan_id":"free"},{"bike_id":"8df3e63c-27f7-4f85-8efb-67932d4d8fd8","system_id":"levelo_inurba_marseille","lat":43.29526,"lon":5.37503,"is_reserved":false,"is_disabled":false,"rental_uris":{"android":"levelo://app?vid=8df3e63c-27f7-4f85-8efb-67932d4d8fd8","ios":"levelo://app?vid=8df3e63c-27f7-4f85-8efb-67932d4d8fd8"},"vehicle_type_id":"4","last_reported":1703786958,"current_range_meters":20800,"station_id":"ce4bgkp2rcd13ifvqbmg","pricing_plan_id":"free"},{"bike_id":"d293de55-58f6-4395-bd1f-42e03b344eec","system_id":"levelo_inurba_marseille","lat":43.299717,"lon":5.384845,"is_reserved":false,"is_disabled":false,"rental_uris":{"android":"levelo://app?vid=d293de55-58f6-4395-bd1f-42e03b344eec","ios":"levelo://app?vid=d293de55-58f6-4395-bd1f-42e03b344eec"},"vehicle_type_id":"4","last_reported":1703786958,"current_range_meters":19200,"station_id":"ce4bgj92rcd13ifvqbd0","pricing_plan_id":"free"},{"bike_id":"64e08778-3e7b-4c08-aaa7-765ecbf426e5","system_id":"levelo_inurba_marseille","lat":43.32367,"lon":5.388836,"is_reserved":false,"is_disabled":false,"rental_uris":{"android":"levelo://app?vid=64e08778-3e7b-4c08-aaa7-765ecbf426e5","ios":"levelo://app?vid=64e08778-3e7b-4c08-aaa7-765ecbf426e5"},"vehicle_type_id":"4","last_reported":1703786958,"current_range_meters":10400,"station_id":"ce4bhqp2rcd13ifvqhog","pricing_plan_id":"free"},{"bike_id":"412b0300-bca9-407f-8529-62d2e7880d74","system_id":"levelo_inurba_marseille","lat":43.32367,"lon":5.388836,"is_reserved":false,"is_disabled":false,"rental_uris":{"android":"levelo://app?vid=412b0300-bca9-407f-8529-62d2e7880d74","ios":"levelo://app?vid=412b0300-bca9-407f-8529-62d2e7880d74"},"vehicle_type_id":"4","last_reported":1703786958,"current_range_meters":3600,"station_id":"ce4bhqp2rcd13ifvqhog","pricing_plan_id":"free"},{"bike_id":"cbcfea1e-3b9d-4048-a9b4-2041e18c701c","system_id":"levelo_inurba_marseille","lat":43.29601,"lon":5.381084,"is_reserved":false,"is_disabled":false,"rental_uris":{"android":"levelo://app?vid=cbcfea1e-3b9d-4048-a9b4-2041e18c701c","ios":"levelo://app?vid=cbcfea1e-3b9d-4048-a9b4-2041e18c701c"},"vehicle_type_id":"4","last_reported":1703786958,"current_range_meters":28800,"station_id":"ce4bgl12rcd13ifvqbo0","pricing_plan_id":"free"},{"bike_id":"0151cf5f-0080-466d-92c3-8038b1fd6a85","system_id":"levelo_inurba_marseille","lat":43.29305,"lon":5.37168,"is_reserved":false,"is_disabled":false,"rental_uris":{"android":"levelo://app?vid=0151cf5f-0080-466d-92c3-8038b1fd6a85","ios":"levelo://app?vid=0151cf5f-0080-466d-92c3-8038b1fd6a85"},"vehicle_type_id":"4","last_reported":1703786958,"current_range_meters":22800,"station_id":"ce4bgh92rcd13ifvqb40","pricing_plan_id":"free"},{"bike_id":"f1d85343-e13f-428d-9d27-aa30b802ebfe","system_id":"levelo_inurba_marseille","lat":43.300852,"lon":5.390859,"is_reserved":false,"is_disabled":false,"rental_uris":{"android":"levelo://app?vid=f1d85343-e13f-428d-9d27-aa30b802ebfe","ios":"levelo://app?vid=f1d85343-e13f-428d-9d27-aa30b802ebfe"},"vehicle_type_id":"4","last_reported":1703786958,"current_range_meters":26000,"station_id":"ce4bh192rcd13ifvqdb0","pricing_plan_id":"free"},{"bike_id":"b2873774-7dd7-470a-ae93-07a4d51c90db","system_id":"levelo_inurba_marseille","lat":43.29873,"lon":5.38896,"is_reserved":false,"is_disabled":false,"rental_uris":{"android":"levelo://app?vid=b2873774-7dd7-470a-ae93-07a4d51c90db","ios":"levelo://app?vid=b2873774-7dd7-470a-ae93-07a4d51c90db"},"vehicle_type_id":"4","last_reported":1703786958,"current_range_meters":24000,"station_id":"","pricing_plan_id":"free"},{"bike_id":"b802e6e0-8476-4174-be2a-91c8c184bbd0","system_id":"levelo_inurba_marseille","lat":43.291675,"lon":5.371583,"is_reserved":false,"is_disabled":false,"rental_uris":{"android":"levelo://app?vid=b802e6e0-8476-4174-be2a-91c8c184bbd0","ios":"levelo://app?vid=b802e6e0-8476-4174-be2a-91c8c184bbd0"},"vehicle_type_id":"4","last_reported":1703786958,"current_range_meters":9200,"station_id":"ce4bha92rcd13ifvqeh0","pricing_plan_id":"free"},{"bike_id":"b5ab4d8f-4be5-49ad-9660-7666de367904","system_id":"levelo_inurba_marseille","lat":43.313291,"lon":5.396838,"is_reserved":false,"is_disabled":false,"rental_uris":{"android":"levelo://app?vid=b5ab4d8f-4be5-49ad-9660-7666de367904","ios":"levelo://app?vid=b5ab4d8f-4be5-49ad-9660-7666de367904"},"vehicle_type_id":"4","last_reported":1703786958,"current_range_meters":13200,"station_id":"ce4bgvp2rcd13ifvqcu0","pricing_plan_id":"free"},{"bike_id":"63dc56c1-e580-4d07-870a-c629bf52dd02","system_id":"levelo_inurba_marseille","lat":43.313291,"lon":5.396838,"is_reserved":false,"is_disabled":false,"rental_uris":{"android":"levelo://app?vid=63dc56c1-e580-4d07-870a-c629bf52dd02","ios":"levelo://app?vid=63dc56c1-e580-4d07-870a-c629bf52dd02"},"vehicle_type_id":"4","last_reported":1703786958,"current_range_meters":800,"station_id":"ce4bgvp2rcd13ifvqcu0","pricing_plan_id":"free"},{"bike_id":"b3fd0650-80b2-4765-8eb2-996b467ca631","system_id":"levelo_inurba_marseille","lat":43.313291,"lon":5.396838,"is_reserved":false,"is_disabled":false,"rental_uris":{"android":"levelo://app?vid=b3fd0650-80b2-4765-8eb2-996b467ca631","ios":"levelo://app?vid=b3fd0650-80b2-4765-8eb2-996b467ca631"},"vehicle_type_id":"4","last_reported":1703786958,"current_range_meters":20800,"station_id":"ce4bgvp2rcd13ifvqcu0","pricing_plan_id":"free"},{"bike_id":"c6712266-f422-4a48-baf1-2c0ea88edfb8","system_id":"levelo_inurba_marseille","lat":43.313291,"lon":5.396838,"is_reserved":false,"is_disabled":false,"rental_uris":{"android":"levelo://app?vid=c6712266-f422-4a48-baf1-2c0ea88edfb8","ios":"levelo://app?vid=c6712266-f422-4a48-baf1-2c0ea88edfb8"},"vehicle_type_id":"4","last_reported":1703786958,"current_range_meters":14400,"station_id":"ce4bgvp2rcd13ifvqcu0","pricing_plan_id":"free"},{"bike_id":"b8f99e3d-5e83-4005-8697-c8771bf0eee8","system_id":"levelo_inurba_marseille","lat":43.313291,"lon":5.396838,"is_reserved":false,"is_disabled":false,"rental_uris":{"android":"levelo://app?vid=b8f99e3d-5e83-4005-8697-c8771bf0eee8","ios":"levelo://app?vid=b8f99e3d-5e83-4005-8697-c8771bf0eee8"},"vehicle_type_id":"4","last_reported":1703786958,"current_range_meters":13600,"station_id":"ce4bgvp2rcd13ifvqcu0","pricing_plan_id":"free"},{"bike_id":"327342c8-6177-4c26-bbbe-ff79dd842fd6","system_id":"levelo_inurba_marseille","lat":43.29542,"lon":5.38547,"is_reserved":false,"is_disabled":false,"rental_uris":{"android":"levelo://app?vid=327342c8-6177-4c26-bbbe-ff79dd842fd6","ios":"levelo://app?vid=327342c8-6177-4c26-bbbe-ff79dd842fd6"},"vehicle_type_id":"4","last_reported":1703786958,"current_range_meters":23200,"station_id":"","pricing_plan_id":"free"},{"bike_id":"f0c7236b-42ac-448f-bc7d-815bfee217b9","system_id":"levelo_inurba_marseille","lat":43.29529,"lon":5.385581,"is_reserved":false,"is_disabled":false,"rental_uris":{"android":"levelo://app?vid=f0c7236b-42ac-448f-bc7d-815bfee217b9","ios":"levelo://app?vid=f0c7236b-42ac-448f-bc7d-815bfee217b9"},"vehicle_type_id":"4","last_reported":1703786958,"current_range_meters":10400,"station_id":"ce4bgih2rcd13ifvqba0","pricing_plan_id":"free"},{"bike_id":"b41e592b-3b9a-4122-ad31-5ddec218e7fe","system_id":"levelo_inurba_marseille","lat":43.29529,"lon":5.385581,"is_reserved":false,"is_disabled":false,"rental_uris":{"android":"levelo://app?vid=b41e592b-3b9a-4122-ad31-5ddec218e7fe","ios":"levelo://app?vid=b41e592b-3b9a-4122-ad31-5ddec218e7fe"},"vehicle_type_id":"4","last_reported":1703786958,"current_range_meters":19600,"station_id":"ce4bgih2rcd13ifvqba0","pricing_plan_id":"free"},{"bike_id":"c823f097-0b92-4353-81d0-b8611eb29a1c","system_id":"levelo_inurba_marseille","lat":43.290779,"lon":5.371482,"is_reserved":false,"is_disabled":false,"rental_uris":{"android":"levelo://app?vid=c823f097-0b92-4353-81d0-b8611eb29a1c","ios":"levelo://app?vid=c823f097-0b92-4353-81d0-b8611eb29a1c"},"vehicle_type_id":"4","last_reported":1703786958,"current_range_meters":29600,"station_id":"ce4bh5p2rcd13ifvqe4g","pricing_plan_id":"free"},{"bike_id":"5c401ebe-2ceb-42c3-89f6-a88c8b2d096b","system_id":"levelo_inurba_marseille","lat":43.290624,"lon":5.359245,"is_reserved":false,"is_disabled":false,"rental_uris":{"android":"levelo://app?vid=5c401ebe-2ceb-42c3-89f6-a88c8b2d096b","ios":"levelo://app?vid=5c401ebe-2ceb-42c3-89f6-a88c8b2d096b"},"vehicle_type_id":"4","last_reported":1703786958,"current_range_meters":27200,"station_id":"ce4bha92rcd13ifvqeg0","pricing_plan_id":"free"},{"bike_id":"cdb371b8-6cec-4031-8713-835dbee93fc7","system_id":"levelo_inurba_marseille","lat":43.294153,"lon":5.386305,"is_reserved":false,"is_disabled":false,"rental_uris":{"android":"levelo://app?vid=cdb371b8-6cec-4031-8713-835dbee93fc7","ios":"levelo://app?vid=cdb371b8-6cec-4031-8713-835dbee93fc7"},"vehicle_type_id":"4","last_reported":1703786958,"current_range_meters":800,"station_id":"ce4bh2h2rcd13ifvqdh0","pricing_plan_id":"free"},{"bike_id":"7a527c18-2fe3-4819-8d0b-6789694e3507","system_id":"levelo_inurba_marseille","lat":43.29414,"lon":5.38623,"is_reserved":false,"is_disabled":false,"rental_uris":{"android":"levelo://app?vid=7a527c18-2fe3-4819-8d0b-6789694e3507","ios":"levelo://app?vid=7a527c18-2fe3-4819-8d0b-6789694e3507"},"vehicle_type_id":"4","last_reported":1703786958,"current_range_meters":20000,"station_id":"ce4bh2h2rcd13ifvqdh0","pricing_plan_id":"free"},{"bike_id":"49a500ae-64ef-4eaa-bf32-51cc6f56081d","system_id":"levelo_inurba_marseille","lat":43.289184,"lon":5.366408,"is_reserved":false,"is_disabled":false,"rental_uris":{"android":"levelo://app?vid=49a500ae-64ef-4eaa-bf32-51cc6f56081d","ios":"levelo://app?vid=49a500ae-64ef-4eaa-bf32-51cc6f56081d"},"vehicle_type_id":"4","last_reported":1703786958,"current_range_meters":24000,"station_id":"ce4bhap2rcd13ifvqek0","pricing_plan_id":"free"},{"bike_id":"3611ed7a-2e7d-41e3-900e-e131889d0795","system_id":"levelo_inurba_marseille","lat":43.289184,"lon":5.366408,"is_reserved":false,"is_disabled":false,"rental_uris":{"android":"levelo://app?vid=3611ed7a-2e7d-41e3-900e-e131889d0795","ios":"levelo://app?vid=3611ed7a-2e7d-41e3-900e-e131889d0795"},"vehicle_type_id":"4","last_reported":1703786958,"current_range_meters":12800,"station_id":"ce4bhap2rcd13ifvqek0","pricing_plan_id":"free"},{"bike_id":"02d5f6f5-1b4c-4703-9170-5eec64004a79","system_id":"levelo_inurba_marseille","lat":43.289468,"lon":5.363719,"is_reserved":false,"is_disabled":false,"rental_uris":{"android":"levelo://app?vid=02d5f6f5-1b4c-4703-9170-5eec64004a79","ios":"levelo://app?vid=02d5f6f5-1b4c-4703-9170-5eec64004a79"},"vehicle_type_id":"4","last_reported":1703786958,"current_range_meters":21200,"station_id":"ce4bhc92rcd13ifvqetg","pricing_plan_id":"free"},{"bike_id":"9fd6ca4d-ae4c-4869-9fa0-7c51f4d700b0","system_id":"levelo_inurba_marseille","lat":43.289184,"lon":5.366408,"is_reserved":false,"is_disabled":false,"rental_uris":{"android":"levelo://app?vid=9fd6ca4d-ae4c-4869-9fa0-7c51f4d700b0","ios":"levelo://app?vid=9fd6ca4d-ae4c-4869-9fa0-7c51f4d700b0"},"vehicle_type_id":"4","last_reported":1703786958,"current_range_meters":6400,"station_id":"ce4bhap2rcd13ifvqek0","pricing_plan_id":"free"},{"bike_id":"b2427367-870c-4b17-84f3-6878c2ac8487","system_id":"levelo_inurba_marseille","lat":43.289184,"lon":5.366408,"is_reserved":false,"is_disabled":false,"rental_uris":{"android":"levelo://app?vid=b2427367-870c-4b17-84f3-6878c2ac8487","ios":"levelo://app?vid=b2427367-870c-4b17-84f3-6878c2ac8487"},"vehicle_type_id":"4","last_reported":1703786958,"current_range_meters":12400,"station_id":"ce4bhap2rcd13ifvqek0","pricing_plan_id":"free"},{"bike_id":"7e68eb3f-a5ca-47d7-ad81-a43785c4c719","system_id":"levelo_inurba_marseille","lat":43.292644,"lon":5.384257,"is_reserved":false,"is_disabled":false,"rental_uris":{"android":"levelo://app?vid=7e68eb3f-a5ca-47d7-ad81-a43785c4c719","ios":"levelo://app?vid=7e68eb3f-a5ca-47d7-ad81-a43785c4c719"},"vehicle_type_id":"4","last_reported":1703786958,"current_range_meters":28800,"station_id":"ce4bh692rcd13ifvqea0","pricing_plan_id":"free"},{"bike_id":"895e71b4-3965-4e20-8a2e-8a736b3c90bd","system_id":"levelo_inurba_marseille","lat":43.292642,"lon":5.384254,"is_reserved":false,"is_disabled":false,"rental_uris":{"android":"levelo://app?vid=895e71b4-3965-4e20-8a2e-8a736b3c90bd","ios":"levelo://app?vid=895e71b4-3965-4e20-8a2e-8a736b3c90bd"},"vehicle_type_id":"4","last_reported":1703786958,"current_range_meters":5200,"station_id":"ce4bh692rcd13ifvqea0","pricing_plan_id":"free"},{"bike_id":"9ce5acc2-d013-44c3-a118-340599abc1ed","system_id":"levelo_inurba_marseille","lat":43.292311,"lon":5.360731,"is_reserved":false,"is_disabled":false,"rental_uris":{"android":"levelo://app?vid=9ce5acc2-d013-44c3-a118-340599abc1ed","ios":"levelo://app?vid=9ce5acc2-d013-44c3-a118-340599abc1ed"},"vehicle_type_id":"4","last_reported":1703786958,"current_range_meters":18000,"station_id":"ce4bhbh2rcd13ifvqeqg","pricing_plan_id":"free"},{"bike_id":"e3ec72a5-3eab-4d50-aab0-e4d1835e29a4","system_id":"levelo_inurba_marseille","lat":43.292644,"lon":5.384257,"is_reserved":false,"is_disabled":false,"rental_uris":{"android":"levelo://app?vid=e3ec72a5-3eab-4d50-aab0-e4d1835e29a4","ios":"levelo://app?vid=e3ec72a5-3eab-4d50-aab0-e4d1835e29a4"},"vehicle_type_id":"4","last_reported":1703786958,"current_range_meters":30800,"station_id":"ce4bh692rcd13ifvqea0","pricing_plan_id":"free"},{"bike_id":"d20f4df9-e72e-4860-8e54-0bccf8ba0532","system_id":"levelo_inurba_marseille","lat":43.304274,"lon":5.397513,"is_reserved":false,"is_disabled":false,"rental_uris":{"android":"levelo://app?vid=d20f4df9-e72e-4860-8e54-0bccf8ba0532","ios":"levelo://app?vid=d20f4df9-e72e-4860-8e54-0bccf8ba0532"},"vehicle_type_id":"4","last_reported":1703786958,"current_range_meters":16000,"station_id":"ce4bh092rcd13ifvqd20","pricing_plan_id":"free"},{"bike_id":"72e93810-b800-4760-acb9-5f6d6bd6ce8d","system_id":"levelo_inurba_marseille","lat":43.292642,"lon":5.384254,"is_reserved":false,"is_disabled":false,"rental_uris":{"android":"levelo://app?vid=72e93810-b800-4760-acb9-5f6d6bd6ce8d","ios":"levelo://app?vid=72e93810-b800-4760-acb9-5f6d6bd6ce8d"},"vehicle_type_id":"4","last_reported":1703786958,"current_range_meters":19600,"station_id":"ce4bh692rcd13ifvqea0","pricing_plan_id":"free"},{"bike_id":"f6009c69-091a-48aa-aa47-d1364ef6ca04","system_id":"levelo_inurba_marseille","lat":43.290995,"lon":5.381361,"is_reserved":false,"is_disabled":false,"rental_uris":{"android":"levelo://app?vid=f6009c69-091a-48aa-aa47-d1364ef6ca04","ios":"levelo://app?vid=f6009c69-091a-48aa-aa47-d1364ef6ca04"},"vehicle_type_id":"4","last_reported":1703786958,"current_range_meters":9600,"station_id":"ce4bh512rcd13ifvqe2g","pricing_plan_id":"free"},{"bike_id":"35e640f8-db6c-4d40-a965-25ce848b5d31","system_id":"levelo_inurba_marseille","lat":43.28988,"lon":5.37818,"is_reserved":false,"is_disabled":false,"rental_uris":{"android":"levelo://app?vid=35e640f8-db6c-4d40-a965-25ce848b5d31","ios":"levelo://app?vid=35e640f8-db6c-4d40-a965-25ce848b5d31"},"vehicle_type_id":"4","last_reported":1703786958,"current_range_meters":30800,"station_id":"ce4bh9p2rcd13ifvqed0","pricing_plan_id":"free"},{"bike_id":"ff26189b-afcc-4891-a896-0d6528b2c8a7","system_id":"levelo_inurba_marseille","lat":43.297815,"lon":5.393548,"is_reserved":false,"is_disabled":false,"rental_uris":{"android":"levelo://app?vid=ff26189b-afcc-4891-a896-0d6528b2c8a7","ios":"levelo://app?vid=ff26189b-afcc-4891-a896-0d6528b2c8a7"},"vehicle_type_id":"4","last_reported":1703786958,"current_range_meters":2400,"station_id":"chh1huq6cuj3fo74tm60","pricing_plan_id":"free"},{"bike_id":"8db55a43-df83-4bca-ae04-c816c57df67a","system_id":"levelo_inurba_marseille","lat":43.297815,"lon":5.393548,"is_reserved":false,"is_disabled":false,"rental_uris":{"android":"levelo://app?vid=8db55a43-df83-4bca-ae04-c816c57df67a","ios":"levelo://app?vid=8db55a43-df83-4bca-ae04-c816c57df67a"},"vehicle_type_id":"4","last_reported":1703786958,"current_range_meters":29200,"station_id":"chh1huq6cuj3fo74tm60","pricing_plan_id":"free"},{"bike_id":"495faf64-a935-4c6e-b77f-2b296d14493a","system_id":"levelo_inurba_marseille","lat":43.331017,"lon":5.389194,"is_reserved":false,"is_disabled":false,"rental_uris":{"android":"levelo://app?vid=495faf64-a935-4c6e-b77f-2b296d14493a","ios":"levelo://app?vid=495faf64-a935-4c6e-b77f-2b296d14493a"},"vehicle_type_id":"4","last_reported":1703786958,"current_range_meters":10800,"station_id":"","pricing_plan_id":"free"},{"bike_id":"a21ed9ea-d972-4d76-a894-e150789f2a0c","system_id":"levelo_inurba_marseille","lat":43.295169,"lon":5.390426,"is_reserved":false,"is_disabled":false,"rental_uris":{"android":"levelo://app?vid=a21ed9ea-d972-4d76-a894-e150789f2a0c","ios":"levelo://app?vid=a21ed9ea-d972-4d76-a894-e150789f2a0c"},"vehicle_type_id":"4","last_reported":1703786958,"current_range_meters":31600,"station_id":"ce4bh3p2rcd13ifvqdp0","pricing_plan_id":"free"},{"bike_id":"0173613e-874b-4e4d-912a-6801bb4ab8de","system_id":"levelo_inurba_marseille","lat":43.295169,"lon":5.390426,"is_reserved":false,"is_disabled":false,"rental_uris":{"android":"levelo://app?vid=0173613e-874b-4e4d-912a-6801bb4ab8de","ios":"levelo://app?vid=0173613e-874b-4e4d-912a-6801bb4ab8de"},"vehicle_type_id":"4","last_reported":1703786958,"current_range_meters":5600,"station_id":"ce4bh3p2rcd13ifvqdp0","pricing_plan_id":"free"},{"bike_id":"f1d8d94b-ec70-4e6b-ad53-ff512f010dfa","system_id":"levelo_inurba_marseille","lat":43.295169,"lon":5.390426,"is_reserved":false,"is_disabled":false,"rental_uris":{"android":"levelo://app?vid=f1d8d94b-ec70-4e6b-ad53-ff512f010dfa","ios":"levelo://app?vid=f1d8d94b-ec70-4e6b-ad53-ff512f010dfa"},"vehicle_type_id":"4","last_reported":1703786958,"current_range_meters":19600,"station_id":"ce4bh3p2rcd13ifvqdp0","pricing_plan_id":"free"},{"bike_id":"a80418ca-1e8f-4b47-b2d9-5c9ec0f4b5cb","system_id":"levelo_inurba_marseille","lat":43.295169,"lon":5.390426,"is_reserved":false,"is_disabled":false,"rental_uris":{"android":"levelo://app?vid=a80418ca-1e8f-4b47-b2d9-5c9ec0f4b5cb","ios":"levelo://app?vid=a80418ca-1e8f-4b47-b2d9-5c9ec0f4b5cb"},"vehicle_type_id":"4","last_reported":1703786958,"current_range_meters":27200,"station_id":"ce4bh3p2rcd13ifvqdp0","pricing_plan_id":"free"},{"bike_id":"e7e5b367-b928-4b3e-b05f-87b6b3716e8c","system_id":"levelo_inurba_marseille","lat":43.330617,"lon":5.390292,"is_reserved":false,"is_disabled":false,"rental_uris":{"android":"levelo://app?vid=e7e5b367-b928-4b3e-b05f-87b6b3716e8c","ios":"levelo://app?vid=e7e5b367-b928-4b3e-b05f-87b6b3716e8c"},"vehicle_type_id":"4","last_reported":1703786958,"current_range_meters":27600,"station_id":"","pricing_plan_id":"free"},{"bike_id":"98edba17-c703-4c43-becd-8a800ec1e3e3","system_id":"levelo_inurba_marseille","lat":43.28856,"lon":5.358371,"is_reserved":false,"is_disabled":false,"rental_uris":{"android":"levelo://app?vid=98edba17-c703-4c43-becd-8a800ec1e3e3","ios":"levelo://app?vid=98edba17-c703-4c43-becd-8a800ec1e3e3"},"vehicle_type_id":"4","last_reported":1703786958,"current_range_meters":17200,"station_id":"ce4bhb12rcd13ifvqem0","pricing_plan_id":"free"},{"bike_id":"adf90235-57b3-4813-8b68-7f944dad32ab","system_id":"levelo_inurba_marseille","lat":43.309371,"lon":5.401449,"is_reserved":false,"is_disabled":false,"rental_uris":{"android":"levelo://app?vid=adf90235-57b3-4813-8b68-7f944dad32ab","ios":"levelo://app?vid=adf90235-57b3-4813-8b68-7f944dad32ab"},"vehicle_type_id":"4","last_reported":1703786958,"current_range_meters":0,"station_id":"ce4bgvp2rcd13ifvqct0","pricing_plan_id":"free"},{"bike_id":"bbe0b199-7a48-4d92-a300-53714b1b2054","system_id":"levelo_inurba_marseille","lat":43.3128,"lon":5.40168,"is_reserved":false,"is_disabled":false,"rental_uris":{"android":"levelo://app?vid=bbe0b199-7a48-4d92-a300-53714b1b2054","ios":"levelo://app?vid=bbe0b199-7a48-4d92-a300-53714b1b2054"},"vehicle_type_id":"4","last_reported":1703786958,"current_range_meters":6400,"station_id":"ce4bh092rcd13ifvqd30","pricing_plan_id":"free"},{"bike_id":"3714f51a-efb2-4988-a9b9-167c8d23b4d6","system_id":"levelo_inurba_marseille","lat":43.337444,"lon":5.374475,"is_reserved":false,"is_disabled":false,"rental_uris":{"android":"levelo://app?vid=3714f51a-efb2-4988-a9b9-167c8d23b4d6","ios":"levelo://app?vid=3714f51a-efb2-4988-a9b9-167c8d23b4d6"},"vehicle_type_id":"4","last_reported":1703786958,"current_range_meters":28000,"station_id":"","pricing_plan_id":"free"},{"bike_id":"7abcbf24-3a33-42f7-83ff-33b36936a38c","system_id":"levelo_inurba_marseille","lat":43.31275,"lon":5.40174,"is_reserved":false,"is_disabled":false,"rental_uris":{"android":"levelo://app?vid=7abcbf24-3a33-42f7-83ff-33b36936a38c","ios":"levelo://app?vid=7abcbf24-3a33-42f7-83ff-33b36936a38c"},"vehicle_type_id":"4","last_reported":1703786958,"current_range_meters":0,"station_id":"ce4bh092rcd13ifvqd30","pricing_plan_id":"free"},{"bike_id":"2d74b838-137f-41c5-9fa7-2a42034f0510","system_id":"levelo_inurba_marseille","lat":43.33754,"lon":5.3743,"is_reserved":false,"is_disabled":false,"rental_uris":{"android":"levelo://app?vid=2d74b838-137f-41c5-9fa7-2a42034f0510","ios":"levelo://app?vid=2d74b838-137f-41c5-9fa7-2a42034f0510"},"vehicle_type_id":"4","last_reported":1703786958,"current_range_meters":30400,"station_id":"","pricing_plan_id":"free"},{"bike_id":"6eb442ad-0b63-4ae4-9d63-3882104d3e25","system_id":"levelo_inurba_marseille","lat":43.33754,"lon":5.37441,"is_reserved":false,"is_disabled":false,"rental_uris":{"android":"levelo://app?vid=6eb442ad-0b63-4ae4-9d63-3882104d3e25","ios":"levelo://app?vid=6eb442ad-0b63-4ae4-9d63-3882104d3e25"},"vehicle_type_id":"4","last_reported":1703786958,"current_range_meters":22400,"station_id":"","pricing_plan_id":"free"},{"bike_id":"45e9d267-5c57-452e-993a-c6c7fa826b87","system_id":"levelo_inurba_marseille","lat":43.33753,"lon":5.37448,"is_reserved":false,"is_disabled":false,"rental_uris":{"android":"levelo://app?vid=45e9d267-5c57-452e-993a-c6c7fa826b87","ios":"levelo://app?vid=45e9d267-5c57-452e-993a-c6c7fa826b87"},"vehicle_type_id":"4","last_reported":1703786958,"current_range_meters":22800,"station_id":"","pricing_plan_id":"free"},{"bike_id":"38a8720a-3482-45e9-8b05-47a0bef75ca6","system_id":"levelo_inurba_marseille","lat":43.33757,"lon":5.374357,"is_reserved":false,"is_disabled":false,"rental_uris":{"android":"levelo://app?vid=38a8720a-3482-45e9-8b05-47a0bef75ca6","ios":"levelo://app?vid=38a8720a-3482-45e9-8b05-47a0bef75ca6"},"vehicle_type_id":"4","last_reported":1703786958,"current_range_meters":14400,"station_id":"","pricing_plan_id":"free"},{"bike_id":"084d984a-dec0-4f8c-ae91-b28a418ced30","system_id":"levelo_inurba_marseille","lat":43.306412,"lon":5.401035,"is_reserved":false,"is_disabled":false,"rental_uris":{"android":"levelo://app?vid=084d984a-dec0-4f8c-ae91-b28a418ced30","ios":"levelo://app?vid=084d984a-dec0-4f8c-ae91-b28a418ced30"},"vehicle_type_id":"4","last_reported":1703786958,"current_range_meters":28400,"station_id":"ce4bh112rcd13ifvqda0","pricing_plan_id":"free"},{"bike_id":"981f9dbf-5820-453e-beb6-8bbddd90c1d2","system_id":"levelo_inurba_marseille","lat":43.337715,"lon":5.374464,"is_reserved":false,"is_disabled":false,"rental_uris":{"android":"levelo://app?vid=981f9dbf-5820-453e-beb6-8bbddd90c1d2","ios":"levelo://app?vid=981f9dbf-5820-453e-beb6-8bbddd90c1d2"},"vehicle_type_id":"4","last_reported":1703786958,"current_range_meters":24400,"station_id":"","pricing_plan_id":"free"},{"bike_id":"2e6a6965-4f0b-4f68-8456-c2ef2a880ffb","system_id":"levelo_inurba_marseille","lat":43.286591,"lon":5.363346,"is_reserved":false,"is_disabled":false,"rental_uris":{"android":"levelo://app?vid=2e6a6965-4f0b-4f68-8456-c2ef2a880ffb","ios":"levelo://app?vid=2e6a6965-4f0b-4f68-8456-c2ef2a880ffb"},"vehicle_type_id":"4","last_reported":1703786958,"current_range_meters":25200,"station_id":"ce4bhah2rcd13ifvqej0","pricing_plan_id":"free"},{"bike_id":"7dbcaa06-c8f0-4427-8ef5-220851b832d9","system_id":"levelo_inurba_marseille","lat":43.302759,"lon":5.400793,"is_reserved":false,"is_disabled":false,"rental_uris":{"android":"levelo://app?vid=7dbcaa06-c8f0-4427-8ef5-220851b832d9","ios":"levelo://app?vid=7dbcaa06-c8f0-4427-8ef5-220851b832d9"},"vehicle_type_id":"4","last_reported":1703786958,"current_range_meters":0,"station_id":"ce4bgvh2rcd13ifvqcs0","pricing_plan_id":"free"},{"bike_id":"680920c7-3255-442f-a44e-649d048056ef","system_id":"levelo_inurba_marseille","lat":43.289307,"lon":5.38406,"is_reserved":false,"is_disabled":false,"rental_uris":{"android":"levelo://app?vid=680920c7-3255-442f-a44e-649d048056ef","ios":"levelo://app?vid=680920c7-3255-442f-a44e-649d048056ef"},"vehicle_type_id":"4","last_reported":1703786958,"current_range_meters":7200,"station_id":"ce4bh612rcd13ifvqe6g","pricing_plan_id":"free"},{"bike_id":"3495bc62-e87c-40b5-be35-8a4633f47136","system_id":"levelo_inurba_marseille","lat":43.290345,"lon":5.38646,"is_reserved":false,"is_disabled":false,"rental_uris":{"android":"levelo://app?vid=3495bc62-e87c-40b5-be35-8a4633f47136","ios":"levelo://app?vid=3495bc62-e87c-40b5-be35-8a4633f47136"},"vehicle_type_id":"4","last_reported":1703786958,"current_range_meters":14400,"station_id":"ce4bh4p2rcd13ifvqe0g","pricing_plan_id":"free"},{"bike_id":"f6e09705-0bf0-4207-bc39-007ebfcacba6","system_id":"levelo_inurba_marseille","lat":43.29025,"lon":5.38639,"is_reserved":false,"is_disabled":false,"rental_uris":{"android":"levelo://app?vid=f6e09705-0bf0-4207-bc39-007ebfcacba6","ios":"levelo://app?vid=f6e09705-0bf0-4207-bc39-007ebfcacba6"},"vehicle_type_id":"4","last_reported":1703786958,"current_range_meters":800,"station_id":"ce4bh4p2rcd13ifvqe0g","pricing_plan_id":"free"},{"bike_id":"bb21deba-1a54-4079-aaa2-f3d56c17f811","system_id":"levelo_inurba_marseille","lat":43.290345,"lon":5.38646,"is_reserved":false,"is_disabled":false,"rental_uris":{"android":"levelo://app?vid=bb21deba-1a54-4079-aaa2-f3d56c17f811","ios":"levelo://app?vid=bb21deba-1a54-4079-aaa2-f3d56c17f811"},"vehicle_type_id":"4","last_reported":1703786958,"current_range_meters":22800,"station_id":"ce4bh4p2rcd13ifvqe0g","pricing_plan_id":"free"},{"bike_id":"1c15a917-6ba9-4238-899b-8bd764ea4b24","system_id":"levelo_inurba_marseille","lat":43.29019,"lon":5.38636,"is_reserved":false,"is_disabled":false,"rental_uris":{"android":"levelo://app?vid=1c15a917-6ba9-4238-899b-8bd764ea4b24","ios":"levelo://app?vid=1c15a917-6ba9-4238-899b-8bd764ea4b24"},"vehicle_type_id":"4","last_reported":1703786958,"current_range_meters":15600,"station_id":"ce4bh4p2rcd13ifvqe0g","pricing_plan_id":"free"},{"bike_id":"aac00441-5e5c-4474-92e6-e699a3867bae","system_id":"levelo_inurba_marseille","lat":43.285754,"lon":5.360249,"is_reserved":false,"is_disabled":false,"rental_uris":{"android":"levelo://app?vid=aac00441-5e5c-4474-92e6-e699a3867bae","ios":"levelo://app?vid=aac00441-5e5c-4474-92e6-e699a3867bae"},"vehicle_type_id":"4","last_reported":1703786958,"current_range_meters":30000,"station_id":"","pricing_plan_id":"free"},{"bike_id":"d60802d6-4f47-444a-b234-883690eec05b","system_id":"levelo_inurba_marseille","lat":43.33212,"lon":5.39394,"is_reserved":false,"is_disabled":false,"rental_uris":{"android":"levelo://app?vid=d60802d6-4f47-444a-b234-883690eec05b","ios":"levelo://app?vid=d60802d6-4f47-444a-b234-883690eec05b"},"vehicle_type_id":"4","last_reported":1703786958,"current_range_meters":28800,"station_id":"","pricing_plan_id":"free"},{"bike_id":"d11c9166-0499-49b4-b475-e996778cc806","system_id":"levelo_inurba_marseille","lat":43.284538,"lon":5.358657,"is_reserved":false,"is_disabled":false,"rental_uris":{"android":"levelo://app?vid=d11c9166-0499-49b4-b475-e996778cc806","ios":"levelo://app?vid=d11c9166-0499-49b4-b475-e996778cc806"},"vehicle_type_id":"4","last_reported":1703786958,"current_range_meters":27600,"station_id":"ce4bhah2rcd13ifvqei0","pricing_plan_id":"free"},{"bike_id":"0e1a95bf-50a2-4134-8841-95e3d0038a02","system_id":"levelo_inurba_marseille","lat":43.284538,"lon":5.358657,"is_reserved":false,"is_disabled":false,"rental_uris":{"android":"levelo://app?vid=0e1a95bf-50a2-4134-8841-95e3d0038a02","ios":"levelo://app?vid=0e1a95bf-50a2-4134-8841-95e3d0038a02"},"vehicle_type_id":"4","last_reported":1703786958,"current_range_meters":18400,"station_id":"ce4bhah2rcd13ifvqei0","pricing_plan_id":"free"},{"bike_id":"ac3ef761-9554-4e52-bdc4-d26537d2ca4c","system_id":"levelo_inurba_marseille","lat":43.284534,"lon":5.358662,"is_reserved":false,"is_disabled":false,"rental_uris":{"android":"levelo://app?vid=ac3ef761-9554-4e52-bdc4-d26537d2ca4c","ios":"levelo://app?vid=ac3ef761-9554-4e52-bdc4-d26537d2ca4c"},"vehicle_type_id":"4","last_reported":1703786958,"current_range_meters":16800,"station_id":"ce4bhah2rcd13ifvqei0","pricing_plan_id":"free"},{"bike_id":"fb1fc38d-3c7e-4f68-a4f7-ab5da6bee151","system_id":"levelo_inurba_marseille","lat":43.285856,"lon":5.350771,"is_reserved":false,"is_disabled":false,"rental_uris":{"android":"levelo://app?vid=fb1fc38d-3c7e-4f68-a4f7-ab5da6bee151","ios":"levelo://app?vid=fb1fc38d-3c7e-4f68-a4f7-ab5da6bee151"},"vehicle_type_id":"4","last_reported":1703786958,"current_range_meters":16000,"station_id":"ce4bhch2rcd13ifvqeug","pricing_plan_id":"free"},{"bike_id":"eb0839c4-3270-42e2-bfb8-e0514473fdff","system_id":"levelo_inurba_marseille","lat":43.293693,"lon":5.398533,"is_reserved":false,"is_disabled":false,"rental_uris":{"android":"levelo://app?vid=eb0839c4-3270-42e2-bfb8-e0514473fdff","ios":"levelo://app?vid=eb0839c4-3270-42e2-bfb8-e0514473fdff"},"vehicle_type_id":"4","last_reported":1703786958,"current_range_meters":22800,"station_id":"","pricing_plan_id":"free"},{"bike_id":"7510080d-af49-4281-80b0-457720854c57","system_id":"levelo_inurba_marseille","lat":43.28741,"lon":5.38986,"is_reserved":false,"is_disabled":false,"rental_uris":{"android":"levelo://app?vid=7510080d-af49-4281-80b0-457720854c57","ios":"levelo://app?vid=7510080d-af49-4281-80b0-457720854c57"},"vehicle_type_id":"4","last_reported":1703786958,"current_range_meters":0,"station_id":"","pricing_plan_id":"free"},{"bike_id":"c511bcac-d82d-4718-857b-2ec986b952f8","system_id":"levelo_inurba_marseille","lat":43.337168,"lon":5.391825,"is_reserved":false,"is_disabled":false,"rental_uris":{"android":"levelo://app?vid=c511bcac-d82d-4718-857b-2ec986b952f8","ios":"levelo://app?vid=c511bcac-d82d-4718-857b-2ec986b952f8"},"vehicle_type_id":"4","last_reported":1703786958,"current_range_meters":20000,"station_id":"ce4bhr92rcd13ifvqhsg","pricing_plan_id":"free"},{"bike_id":"88a90eb6-df1d-4c20-8e42-f03f5a6f3a0d","system_id":"levelo_inurba_marseille","lat":43.337259,"lon":5.391823,"is_reserved":false,"is_disabled":false,"rental_uris":{"android":"levelo://app?vid=88a90eb6-df1d-4c20-8e42-f03f5a6f3a0d","ios":"levelo://app?vid=88a90eb6-df1d-4c20-8e42-f03f5a6f3a0d"},"vehicle_type_id":"4","last_reported":1703786958,"current_range_meters":10800,"station_id":"ce4bhr92rcd13ifvqhsg","pricing_plan_id":"free"},{"bike_id":"2475bb08-4505-40e4-a414-315baba61e6e","system_id":"levelo_inurba_marseille","lat":43.284793,"lon":5.384113,"is_reserved":false,"is_disabled":false,"rental_uris":{"android":"levelo://app?vid=2475bb08-4505-40e4-a414-315baba61e6e","ios":"levelo://app?vid=2475bb08-4505-40e4-a414-315baba61e6e"},"vehicle_type_id":"4","last_reported":1703786958,"current_range_meters":14000,"station_id":"ce4bh512rcd13ifvqe3g","pricing_plan_id":"free"},{"bike_id":"214c4d12-29af-4192-9e98-6ca2afded029","system_id":"levelo_inurba_marseille","lat":43.288501,"lon":5.393087,"is_reserved":false,"is_disabled":false,"rental_uris":{"android":"levelo://app?vid=214c4d12-29af-4192-9e98-6ca2afded029","ios":"levelo://app?vid=214c4d12-29af-4192-9e98-6ca2afded029"},"vehicle_type_id":"4","last_reported":1703786958,"current_range_meters":21600,"station_id":"ce4bh2p2rcd13ifvqdi0","pricing_plan_id":"free"},{"bike_id":"e485450b-2736-4f4c-b94b-0da5a69b88aa","system_id":"levelo_inurba_marseille","lat":43.33385,"lon":5.39822,"is_reserved":false,"is_disabled":false,"rental_uris":{"android":"levelo://app?vid=e485450b-2736-4f4c-b94b-0da5a69b88aa","ios":"levelo://app?vid=e485450b-2736-4f4c-b94b-0da5a69b88aa"},"vehicle_type_id":"4","last_reported":1703786958,"current_range_meters":14000,"station_id":"","pricing_plan_id":"free"},{"bike_id":"fd806734-020d-49ee-bc45-e6b7119917ff","system_id":"levelo_inurba_marseille","lat":43.28425,"lon":5.34981,"is_reserved":false,"is_disabled":false,"rental_uris":{"android":"levelo://app?vid=fd806734-020d-49ee-bc45-e6b7119917ff","ios":"levelo://app?vid=fd806734-020d-49ee-bc45-e6b7119917ff"},"vehicle_type_id":"4","last_reported":1703786958,"current_range_meters":28400,"station_id":"ce4bhbh2rcd13ifvqepg","pricing_plan_id":"free"},{"bike_id":"dca0fa18-7996-474e-bb6b-4a1cc91c2b11","system_id":"levelo_inurba_marseille","lat":43.284214,"lon":5.349706,"is_reserved":false,"is_disabled":false,"rental_uris":{"android":"levelo://app?vid=dca0fa18-7996-474e-bb6b-4a1cc91c2b11","ios":"levelo://app?vid=dca0fa18-7996-474e-bb6b-4a1cc91c2b11"},"vehicle_type_id":"4","last_reported":1703786958,"current_range_meters":30000,"station_id":"ce4bhbh2rcd13ifvqepg","pricing_plan_id":"free"},{"bike_id":"080a209c-9da8-43e5-92e5-c842fe99df5b","system_id":"levelo_inurba_marseille","lat":43.284217,"lon":5.349697,"is_reserved":false,"is_disabled":false,"rental_uris":{"android":"levelo://app?vid=080a209c-9da8-43e5-92e5-c842fe99df5b","ios":"levelo://app?vid=080a209c-9da8-43e5-92e5-c842fe99df5b"},"vehicle_type_id":"4","last_reported":1703786958,"current_range_meters":15200,"station_id":"ce4bhbh2rcd13ifvqepg","pricing_plan_id":"free"},{"bike_id":"1abe1bbe-7917-44dc-9da8-0af7a77c71b5","system_id":"levelo_inurba_marseille","lat":43.284214,"lon":5.349706,"is_reserved":false,"is_disabled":false,"rental_uris":{"android":"levelo://app?vid=1abe1bbe-7917-44dc-9da8-0af7a77c71b5","ios":"levelo://app?vid=1abe1bbe-7917-44dc-9da8-0af7a77c71b5"},"vehicle_type_id":"4","last_reported":1703786958,"current_range_meters":3600,"station_id":"ce4bhbh2rcd13ifvqepg","pricing_plan_id":"free"},{"bike_id":"66f529fe-225b-4518-a7d1-c1fcea12d649","system_id":"levelo_inurba_marseille","lat":43.282744,"lon":5.350734,"is_reserved":false,"is_disabled":false,"rental_uris":{"android":"levelo://app?vid=66f529fe-225b-4518-a7d1-c1fcea12d649","ios":"levelo://app?vid=66f529fe-225b-4518-a7d1-c1fcea12d649"},"vehicle_type_id":"4","last_reported":1703786958,"current_range_meters":30400,"station_id":"ce4bhbp2rcd13ifvqerg","pricing_plan_id":"free"},{"bike_id":"3a55048b-b221-4797-b2c4-03777f171bb4","system_id":"levelo_inurba_marseille","lat":43.28272,"lon":5.350798,"is_reserved":false,"is_disabled":false,"rental_uris":{"android":"levelo://app?vid=3a55048b-b221-4797-b2c4-03777f171bb4","ios":"levelo://app?vid=3a55048b-b221-4797-b2c4-03777f171bb4"},"vehicle_type_id":"4","last_reported":1703786958,"current_range_meters":31200,"station_id":"ce4bhbp2rcd13ifvqerg","pricing_plan_id":"free"},{"bike_id":"7da277c9-6e33-4f64-ab45-8f334901ba9e","system_id":"levelo_inurba_marseille","lat":43.282656,"lon":5.350722,"is_reserved":false,"is_disabled":false,"rental_uris":{"android":"levelo://app?vid=7da277c9-6e33-4f64-ab45-8f334901ba9e","ios":"levelo://app?vid=7da277c9-6e33-4f64-ab45-8f334901ba9e"},"vehicle_type_id":"4","last_reported":1703786958,"current_range_meters":30400,"station_id":"ce4bhbp2rcd13ifvqerg","pricing_plan_id":"free"},{"bike_id":"c7582433-1342-4871-bef4-6aad01e54ecf","system_id":"levelo_inurba_marseille","lat":43.282754,"lon":5.350519,"is_reserved":false,"is_disabled":false,"rental_uris":{"android":"levelo://app?vid=c7582433-1342-4871-bef4-6aad01e54ecf","ios":"levelo://app?vid=c7582433-1342-4871-bef4-6aad01e54ecf"},"vehicle_type_id":"4","last_reported":1703786958,"current_range_meters":19600,"station_id":"ce4bhbp2rcd13ifvqerg","pricing_plan_id":"free"},{"bike_id":"67051d57-9e3f-4564-b7fc-ddedb7cea4f8","system_id":"levelo_inurba_marseille","lat":43.28039,"lon":5.369297,"is_reserved":false,"is_disabled":false,"rental_uris":{"android":"levelo://app?vid=67051d57-9e3f-4564-b7fc-ddedb7cea4f8","ios":"levelo://app?vid=67051d57-9e3f-4564-b7fc-ddedb7cea4f8"},"vehicle_type_id":"4","last_reported":1703786958,"current_range_meters":11600,"station_id":"ce4bha12rcd13ifvqef0","pricing_plan_id":"free"},{"bike_id":"e09a479e-edcf-467a-8360-4151ca295bc8","system_id":"levelo_inurba_marseille","lat":43.28039,"lon":5.369297,"is_reserved":false,"is_disabled":false,"rental_uris":{"android":"levelo://app?vid=e09a479e-edcf-467a-8360-4151ca295bc8","ios":"levelo://app?vid=e09a479e-edcf-467a-8360-4151ca295bc8"},"vehicle_type_id":"4","last_reported":1703786958,"current_range_meters":16400,"station_id":"ce4bha12rcd13ifvqef0","pricing_plan_id":"free"},{"bike_id":"668df2cd-cd30-47ba-af77-84c9b6b7d26e","system_id":"levelo_inurba_marseille","lat":43.28039,"lon":5.369297,"is_reserved":false,"is_disabled":false,"rental_uris":{"android":"levelo://app?vid=668df2cd-cd30-47ba-af77-84c9b6b7d26e","ios":"levelo://app?vid=668df2cd-cd30-47ba-af77-84c9b6b7d26e"},"vehicle_type_id":"4","last_reported":1703786958,"current_range_meters":20400,"station_id":"ce4bha12rcd13ifvqef0","pricing_plan_id":"free"},{"bike_id":"f659a90d-fd05-44f4-af68-4d8fb512ea4d","system_id":"levelo_inurba_marseille","lat":43.29041,"lon":5.399634,"is_reserved":false,"is_disabled":false,"rental_uris":{"android":"levelo://app?vid=f659a90d-fd05-44f4-af68-4d8fb512ea4d","ios":"levelo://app?vid=f659a90d-fd05-44f4-af68-4d8fb512ea4d"},"vehicle_type_id":"4","last_reported":1703786958,"current_range_meters":15200,"station_id":"ce4bh392rcd13ifvqdm0","pricing_plan_id":"free"},{"bike_id":"cfb46733-39a5-4432-8c6f-5f67d7247f07","system_id":"levelo_inurba_marseille","lat":43.281044,"lon":5.378308,"is_reserved":false,"is_disabled":false,"rental_uris":{"android":"levelo://app?vid=cfb46733-39a5-4432-8c6f-5f67d7247f07","ios":"levelo://app?vid=cfb46733-39a5-4432-8c6f-5f67d7247f07"},"vehicle_type_id":"4","last_reported":1703786958,"current_range_meters":26000,"station_id":"ce4bha12rcd13ifvqee0","pricing_plan_id":"free"},{"bike_id":"ee21ad73-789c-4d74-89a5-3c8ebf07d520","system_id":"levelo_inurba_marseille","lat":43.281044,"lon":5.378308,"is_reserved":false,"is_disabled":false,"rental_uris":{"android":"levelo://app?vid=ee21ad73-789c-4d74-89a5-3c8ebf07d520","ios":"levelo://app?vid=ee21ad73-789c-4d74-89a5-3c8ebf07d520"},"vehicle_type_id":"4","last_reported":1703786958,"current_range_meters":31200,"station_id":"ce4bha12rcd13ifvqee0","pricing_plan_id":"free"},{"bike_id":"47a51011-9d01-430c-b707-f7db9078477b","system_id":"levelo_inurba_marseille","lat":43.281044,"lon":5.378308,"is_reserved":false,"is_disabled":false,"rental_uris":{"android":"levelo://app?vid=47a51011-9d01-430c-b707-f7db9078477b","ios":"levelo://app?vid=47a51011-9d01-430c-b707-f7db9078477b"},"vehicle_type_id":"4","last_reported":1703786958,"current_range_meters":31600,"station_id":"ce4bha12rcd13ifvqee0","pricing_plan_id":"free"},{"bike_id":"777836ce-9a56-4dd7-a8c1-66514411e254","system_id":"levelo_inurba_marseille","lat":43.285742,"lon":5.395004,"is_reserved":false,"is_disabled":false,"rental_uris":{"android":"levelo://app?vid=777836ce-9a56-4dd7-a8c1-66514411e254","ios":"levelo://app?vid=777836ce-9a56-4dd7-a8c1-66514411e254"},"vehicle_type_id":"4","last_reported":1703786958,"current_range_meters":23600,"station_id":"ce4bh292rcd13ifvqdg0","pricing_plan_id":"free"},{"bike_id":"c5393903-7b08-4535-9f39-cca6a1b32e3a","system_id":"levelo_inurba_marseille","lat":43.28573,"lon":5.394992,"is_reserved":false,"is_disabled":false,"rental_uris":{"android":"levelo://app?vid=c5393903-7b08-4535-9f39-cca6a1b32e3a","ios":"levelo://app?vid=c5393903-7b08-4535-9f39-cca6a1b32e3a"},"vehicle_type_id":"4","last_reported":1703786958,"current_range_meters":20800,"station_id":"ce4bh292rcd13ifvqdg0","pricing_plan_id":"free"},{"bike_id":"4ca2ba97-2d8b-4432-97ee-e39bda04cd5a","system_id":"levelo_inurba_marseille","lat":43.28573,"lon":5.394992,"is_reserved":false,"is_disabled":false,"rental_uris":{"android":"levelo://app?vid=4ca2ba97-2d8b-4432-97ee-e39bda04cd5a","ios":"levelo://app?vid=4ca2ba97-2d8b-4432-97ee-e39bda04cd5a"},"vehicle_type_id":"4","last_reported":1703786958,"current_range_meters":25200,"station_id":"ce4bh292rcd13ifvqdg0","pricing_plan_id":"free"},{"bike_id":"78b94c4e-d288-4098-8251-ef42bf4518b3","system_id":"levelo_inurba_marseille","lat":43.326605,"lon":5.409903,"is_reserved":false,"is_disabled":false,"rental_uris":{"android":"levelo://app?vid=78b94c4e-d288-4098-8251-ef42bf4518b3","ios":"levelo://app?vid=78b94c4e-d288-4098-8251-ef42bf4518b3"},"vehicle_type_id":"4","last_reported":1703786958,"current_range_meters":12800,"station_id":"ce4bhpp2rcd13ifvqhgg","pricing_plan_id":"free"},{"bike_id":"10ea83c9-03ed-46c6-846c-cacdc6b5941c","system_id":"levelo_inurba_marseille","lat":43.326605,"lon":5.409903,"is_reserved":false,"is_disabled":false,"rental_uris":{"android":"levelo://app?vid=10ea83c9-03ed-46c6-846c-cacdc6b5941c","ios":"levelo://app?vid=10ea83c9-03ed-46c6-846c-cacdc6b5941c"},"vehicle_type_id":"4","last_reported":1703786958,"current_range_meters":29600,"station_id":"ce4bhpp2rcd13ifvqhgg","pricing_plan_id":"free"},{"bike_id":"1c3044bb-08e0-4fea-b7be-9514d6994572","system_id":"levelo_inurba_marseille","lat":43.304188,"lon":5.412904,"is_reserved":false,"is_disabled":false,"rental_uris":{"android":"levelo://app?vid=1c3044bb-08e0-4fea-b7be-9514d6994572","ios":"levelo://app?vid=1c3044bb-08e0-4fea-b7be-9514d6994572"},"vehicle_type_id":"4","last_reported":1703786958,"current_range_meters":13200,"station_id":"ce4bhop2rcd13ifvqh8g","pricing_plan_id":"free"},{"bike_id":"73fa0cec-fa80-4b54-ae6c-f1dbc0956dda","system_id":"levelo_inurba_marseille","lat":43.304188,"lon":5.412904,"is_reserved":false,"is_disabled":false,"rental_uris":{"android":"levelo://app?vid=73fa0cec-fa80-4b54-ae6c-f1dbc0956dda","ios":"levelo://app?vid=73fa0cec-fa80-4b54-ae6c-f1dbc0956dda"},"vehicle_type_id":"4","last_reported":1703786958,"current_range_meters":2400,"station_id":"ce4bhop2rcd13ifvqh8g","pricing_plan_id":"free"},{"bike_id":"694ad407-7238-4062-89a8-4125ccd97cc0","system_id":"levelo_inurba_marseille","lat":43.304113,"lon":5.412825,"is_reserved":false,"is_disabled":false,"rental_uris":{"android":"levelo://app?vid=694ad407-7238-4062-89a8-4125ccd97cc0","ios":"levelo://app?vid=694ad407-7238-4062-89a8-4125ccd97cc0"},"vehicle_type_id":"4","last_reported":1703786958,"current_range_meters":29600,"station_id":"ce4bhop2rcd13ifvqh8g","pricing_plan_id":"free"},{"bike_id":"19035fd2-4552-46c6-b932-e107c071d9fb","system_id":"levelo_inurba_marseille","lat":43.304188,"lon":5.412904,"is_reserved":false,"is_disabled":false,"rental_uris":{"android":"levelo://app?vid=19035fd2-4552-46c6-b932-e107c071d9fb","ios":"levelo://app?vid=19035fd2-4552-46c6-b932-e107c071d9fb"},"vehicle_type_id":"4","last_reported":1703786958,"current_range_meters":31200,"station_id":"ce4bhop2rcd13ifvqh8g","pricing_plan_id":"free"},{"bike_id":"36717ee8-8302-458e-8d9b-f5c1f176c36c","system_id":"levelo_inurba_marseille","lat":43.27919,"lon":5.38002,"is_reserved":false,"is_disabled":false,"rental_uris":{"android":"levelo://app?vid=36717ee8-8302-458e-8d9b-f5c1f176c36c","ios":"levelo://app?vid=36717ee8-8302-458e-8d9b-f5c1f176c36c"},"vehicle_type_id":"4","last_reported":1703786958,"current_range_meters":9600,"station_id":"ce4bhf92rcd13ifvqf50","pricing_plan_id":"free"},{"bike_id":"9fef7efa-f348-49b2-bcc7-95da5dd62eb0","system_id":"levelo_inurba_marseille","lat":43.279087,"lon":5.380114,"is_reserved":false,"is_disabled":false,"rental_uris":{"android":"levelo://app?vid=9fef7efa-f348-49b2-bcc7-95da5dd62eb0","ios":"levelo://app?vid=9fef7efa-f348-49b2-bcc7-95da5dd62eb0"},"vehicle_type_id":"4","last_reported":1703786958,"current_range_meters":23600,"station_id":"ce4bhf92rcd13ifvqf50","pricing_plan_id":"free"},{"bike_id":"9df8bd2b-15b3-4221-899a-e948f01c1737","system_id":"levelo_inurba_marseille","lat":43.299579,"lon":5.413255,"is_reserved":false,"is_disabled":false,"rental_uris":{"android":"levelo://app?vid=9df8bd2b-15b3-4221-899a-e948f01c1737","ios":"levelo://app?vid=9df8bd2b-15b3-4221-899a-e948f01c1737"},"vehicle_type_id":"4","last_reported":1703786958,"current_range_meters":27600,"station_id":"ce4bhp12rcd13ifvqh9g","pricing_plan_id":"free"},{"bike_id":"1a7e565d-ff74-4306-ab0e-f244cbbe357c","system_id":"levelo_inurba_marseille","lat":43.27618,"lon":5.361009,"is_reserved":false,"is_disabled":false,"rental_uris":{"android":"levelo://app?vid=1a7e565d-ff74-4306-ab0e-f244cbbe357c","ios":"levelo://app?vid=1a7e565d-ff74-4306-ab0e-f244cbbe357c"},"vehicle_type_id":"4","last_reported":1703786958,"current_range_meters":11600,"station_id":"ce4bgj92rcd13ifvqbe0","pricing_plan_id":"free"},{"bike_id":"1cfa2c67-3cf0-434b-b356-1136962b5a22","system_id":"levelo_inurba_marseille","lat":43.280784,"lon":5.396622,"is_reserved":false,"is_disabled":false,"rental_uris":{"android":"levelo://app?vid=1cfa2c67-3cf0-434b-b356-1136962b5a22","ios":"levelo://app?vid=1cfa2c67-3cf0-434b-b356-1136962b5a22"},"vehicle_type_id":"4","last_reported":1703786958,"current_range_meters":28000,"station_id":"ce4bho12rcd13ifvqh2g","pricing_plan_id":"free"},{"bike_id":"2813dfea-f2c4-4f3a-936f-2ea55c78bfcc","system_id":"levelo_inurba_marseille","lat":43.280784,"lon":5.396622,"is_reserved":false,"is_disabled":false,"rental_uris":{"android":"levelo://app?vid=2813dfea-f2c4-4f3a-936f-2ea55c78bfcc","ios":"levelo://app?vid=2813dfea-f2c4-4f3a-936f-2ea55c78bfcc"},"vehicle_type_id":"4","last_reported":1703786958,"current_range_meters":19200,"station_id":"ce4bho12rcd13ifvqh2g","pricing_plan_id":"free"},{"bike_id":"db068c0d-86a2-4ca7-9355-41bcf8a48260","system_id":"levelo_inurba_marseille","lat":43.280784,"lon":5.396622,"is_reserved":false,"is_disabled":false,"rental_uris":{"android":"levelo://app?vid=db068c0d-86a2-4ca7-9355-41bcf8a48260","ios":"levelo://app?vid=db068c0d-86a2-4ca7-9355-41bcf8a48260"},"vehicle_type_id":"4","last_reported":1703786958,"current_range_meters":15600,"station_id":"ce4bho12rcd13ifvqh2g","pricing_plan_id":"free"},{"bike_id":"f877b7f9-dc20-4acb-ab4b-c31fc0a67220","system_id":"levelo_inurba_marseille","lat":43.280784,"lon":5.396622,"is_reserved":false,"is_disabled":false,"rental_uris":{"android":"levelo://app?vid=f877b7f9-dc20-4acb-ab4b-c31fc0a67220","ios":"levelo://app?vid=f877b7f9-dc20-4acb-ab4b-c31fc0a67220"},"vehicle_type_id":"4","last_reported":1703786958,"current_range_meters":16000,"station_id":"ce4bho12rcd13ifvqh2g","pricing_plan_id":"free"},{"bike_id":"6087bf8f-ee07-4886-8017-cbb6bc85f0fb","system_id":"levelo_inurba_marseille","lat":43.278401,"lon":5.392152,"is_reserved":false,"is_disabled":false,"rental_uris":{"android":"levelo://app?vid=6087bf8f-ee07-4886-8017-cbb6bc85f0fb","ios":"levelo://app?vid=6087bf8f-ee07-4886-8017-cbb6bc85f0fb"},"vehicle_type_id":"4","last_reported":1703786958,"current_range_meters":8400,"station_id":"ce4bhjp2rcd13ifvqga0","pricing_plan_id":"free"},{"bike_id":"18c4a7c2-a54d-419f-bae4-d661105294f9","system_id":"levelo_inurba_marseille","lat":43.278399,"lon":5.392139,"is_reserved":false,"is_disabled":false,"rental_uris":{"android":"levelo://app?vid=18c4a7c2-a54d-419f-bae4-d661105294f9","ios":"levelo://app?vid=18c4a7c2-a54d-419f-bae4-d661105294f9"},"vehicle_type_id":"4","last_reported":1703786958,"current_range_meters":28000,"station_id":"ce4bhjp2rcd13ifvqga0","pricing_plan_id":"free"},{"bike_id":"e8981072-2e0c-4128-bb98-80b9e893a717","system_id":"levelo_inurba_marseille","lat":43.278401,"lon":5.392152,"is_reserved":false,"is_disabled":false,"rental_uris":{"android":"levelo://app?vid=e8981072-2e0c-4128-bb98-80b9e893a717","ios":"levelo://app?vid=e8981072-2e0c-4128-bb98-80b9e893a717"},"vehicle_type_id":"4","last_reported":1703786958,"current_range_meters":23600,"station_id":"ce4bhjp2rcd13ifvqga0","pricing_plan_id":"free"},{"bike_id":"91729a13-adb0-4e97-8482-ab5f17e53f57","system_id":"levelo_inurba_marseille","lat":43.273613,"lon":5.362705,"is_reserved":false,"is_disabled":false,"rental_uris":{"android":"levelo://app?vid=91729a13-adb0-4e97-8482-ab5f17e53f57","ios":"levelo://app?vid=91729a13-adb0-4e97-8482-ab5f17e53f57"},"vehicle_type_id":"4","last_reported":1703786958,"current_range_meters":30400,"station_id":"ce4bhbh2rcd13ifvqeo0","pricing_plan_id":"free"},{"bike_id":"c36b16d5-1c97-45b8-a241-ff0c2c6ac51b","system_id":"levelo_inurba_marseille","lat":43.275625,"lon":5.384392,"is_reserved":false,"is_disabled":false,"rental_uris":{"android":"levelo://app?vid=c36b16d5-1c97-45b8-a241-ff0c2c6ac51b","ios":"levelo://app?vid=c36b16d5-1c97-45b8-a241-ff0c2c6ac51b"},"vehicle_type_id":"4","last_reported":1703786958,"current_range_meters":14800,"station_id":"ce4bhh92rcd13ifvqfi0","pricing_plan_id":"free"},{"bike_id":"c5097c6d-28e9-4b1f-a0ba-02096980ff87","system_id":"levelo_inurba_marseille","lat":43.275625,"lon":5.384392,"is_reserved":false,"is_disabled":false,"rental_uris":{"android":"levelo://app?vid=c5097c6d-28e9-4b1f-a0ba-02096980ff87","ios":"levelo://app?vid=c5097c6d-28e9-4b1f-a0ba-02096980ff87"},"vehicle_type_id":"4","last_reported":1703786958,"current_range_meters":28400,"station_id":"ce4bhh92rcd13ifvqfi0","pricing_plan_id":"free"},{"bike_id":"ff8716f1-4b0f-4ce9-bc59-96090ca00993","system_id":"levelo_inurba_marseille","lat":43.279975,"lon":5.40009,"is_reserved":false,"is_disabled":false,"rental_uris":{"android":"levelo://app?vid=ff8716f1-4b0f-4ce9-bc59-96090ca00993","ios":"levelo://app?vid=ff8716f1-4b0f-4ce9-bc59-96090ca00993"},"vehicle_type_id":"4","last_reported":1703786958,"current_range_meters":18000,"station_id":"ce4bho92rcd13ifvqh4g","pricing_plan_id":"free"},{"bike_id":"7c905b24-8df9-4fc0-ae8b-76c89f50fa23","system_id":"levelo_inurba_marseille","lat":43.279975,"lon":5.40009,"is_reserved":false,"is_disabled":false,"rental_uris":{"android":"levelo://app?vid=7c905b24-8df9-4fc0-ae8b-76c89f50fa23","ios":"levelo://app?vid=7c905b24-8df9-4fc0-ae8b-76c89f50fa23"},"vehicle_type_id":"4","last_reported":1703786958,"current_range_meters":2800,"station_id":"ce4bho92rcd13ifvqh4g","pricing_plan_id":"free"},{"bike_id":"98e75801-6872-4cca-809c-552e18c99a3c","system_id":"levelo_inurba_marseille","lat":43.317121,"lon":5.423936,"is_reserved":false,"is_disabled":false,"rental_uris":{"android":"levelo://app?vid=98e75801-6872-4cca-809c-552e18c99a3c","ios":"levelo://app?vid=98e75801-6872-4cca-809c-552e18c99a3c"},"vehicle_type_id":"4","last_reported":1703786958,"current_range_meters":11600,"station_id":"ce4bhp92rcd13ifvqhbg","pricing_plan_id":"free"},{"bike_id":"41908f97-b8b7-456c-b090-98c8215fb50a","system_id":"levelo_inurba_marseille","lat":43.310785,"lon":5.424305,"is_reserved":false,"is_disabled":false,"rental_uris":{"android":"levelo://app?vid=41908f97-b8b7-456c-b090-98c8215fb50a","ios":"levelo://app?vid=41908f97-b8b7-456c-b090-98c8215fb50a"},"vehicle_type_id":"4","last_reported":1703786958,"current_range_meters":18000,"station_id":"ce4bhp92rcd13ifvqhag","pricing_plan_id":"free"},{"bike_id":"73e9490c-78b3-4eab-afcd-25587fc1ed71","system_id":"levelo_inurba_marseille","lat":43.340804,"lon":5.410219,"is_reserved":false,"is_disabled":false,"rental_uris":{"android":"levelo://app?vid=73e9490c-78b3-4eab-afcd-25587fc1ed71","ios":"levelo://app?vid=73e9490c-78b3-4eab-afcd-25587fc1ed71"},"vehicle_type_id":"4","last_reported":1703786958,"current_range_meters":26400,"station_id":"ce4bhqh2rcd13ifvqhlg","pricing_plan_id":"free"},{"bike_id":"1a16c248-260d-4c68-b0d5-f07822219418","system_id":"levelo_inurba_marseille","lat":43.340804,"lon":5.410219,"is_reserved":false,"is_disabled":false,"rental_uris":{"android":"levelo://app?vid=1a16c248-260d-4c68-b0d5-f07822219418","ios":"levelo://app?vid=1a16c248-260d-4c68-b0d5-f07822219418"},"vehicle_type_id":"4","last_reported":1703786958,"current_range_meters":12000,"station_id":"ce4bhqh2rcd13ifvqhlg","pricing_plan_id":"free"},{"bike_id":"623e5527-a121-4ec1-8cc0-17b5fddea11b","system_id":"levelo_inurba_marseille","lat":43.295523,"lon":5.422926,"is_reserved":false,"is_disabled":false,"rental_uris":{"android":"levelo://app?vid=623e5527-a121-4ec1-8cc0-17b5fddea11b","ios":"levelo://app?vid=623e5527-a121-4ec1-8cc0-17b5fddea11b"},"vehicle_type_id":"4","last_reported":1703786958,"current_range_meters":26000,"station_id":"ce4bhph2rcd13ifvqhdg","pricing_plan_id":"free"},{"bike_id":"8349c2a1-78d0-466b-869c-362ffe0d0ccb","system_id":"levelo_inurba_marseille","lat":43.295511,"lon":5.422926,"is_reserved":false,"is_disabled":false,"rental_uris":{"android":"levelo://app?vid=8349c2a1-78d0-466b-869c-362ffe0d0ccb","ios":"levelo://app?vid=8349c2a1-78d0-466b-869c-362ffe0d0ccb"},"vehicle_type_id":"4","last_reported":1703786958,"current_range_meters":18400,"station_id":"ce4bhph2rcd13ifvqhdg","pricing_plan_id":"free"},{"bike_id":"acec87c8-498e-46a9-a572-8de891a24d3a","system_id":"levelo_inurba_marseille","lat":43.295523,"lon":5.422926,"is_reserved":false,"is_disabled":false,"rental_uris":{"android":"levelo://app?vid=acec87c8-498e-46a9-a572-8de891a24d3a","ios":"levelo://app?vid=acec87c8-498e-46a9-a572-8de891a24d3a"},"vehicle_type_id":"4","last_reported":1703786958,"current_range_meters":24000,"station_id":"ce4bhph2rcd13ifvqhdg","pricing_plan_id":"free"},{"bike_id":"6a48db3f-9fc3-4404-b973-f4cc675c01c7","system_id":"levelo_inurba_marseille","lat":43.295523,"lon":5.422926,"is_reserved":false,"is_disabled":false,"rental_uris":{"android":"levelo://app?vid=6a48db3f-9fc3-4404-b973-f4cc675c01c7","ios":"levelo://app?vid=6a48db3f-9fc3-4404-b973-f4cc675c01c7"},"vehicle_type_id":"4","last_reported":1703786958,"current_range_meters":28400,"station_id":"ce4bhph2rcd13ifvqhdg","pricing_plan_id":"free"},{"bike_id":"6d735bdc-6834-49ef-ad58-2a1b73a15a49","system_id":"levelo_inurba_marseille","lat":43.295523,"lon":5.422926,"is_reserved":false,"is_disabled":false,"rental_uris":{"android":"levelo://app?vid=6d735bdc-6834-49ef-ad58-2a1b73a15a49","ios":"levelo://app?vid=6d735bdc-6834-49ef-ad58-2a1b73a15a49"},"vehicle_type_id":"4","last_reported":1703786958,"current_range_meters":31200,"station_id":"ce4bhph2rcd13ifvqhdg","pricing_plan_id":"free"},{"bike_id":"bc660e5c-f7cd-4460-935e-226ad1eba4eb","system_id":"levelo_inurba_marseille","lat":43.295523,"lon":5.422926,"is_reserved":false,"is_disabled":false,"rental_uris":{"android":"levelo://app?vid=bc660e5c-f7cd-4460-935e-226ad1eba4eb","ios":"levelo://app?vid=bc660e5c-f7cd-4460-935e-226ad1eba4eb"},"vehicle_type_id":"4","last_reported":1703786958,"current_range_meters":29600,"station_id":"ce4bhph2rcd13ifvqhdg","pricing_plan_id":"free"},{"bike_id":"e192df68-2c2b-482d-b6fd-3b8920434290","system_id":"levelo_inurba_marseille","lat":43.29547,"lon":5.42285,"is_reserved":false,"is_disabled":false,"rental_uris":{"android":"levelo://app?vid=e192df68-2c2b-482d-b6fd-3b8920434290","ios":"levelo://app?vid=e192df68-2c2b-482d-b6fd-3b8920434290"},"vehicle_type_id":"4","last_reported":1703786958,"current_range_meters":22000,"station_id":"ce4bhph2rcd13ifvqhdg","pricing_plan_id":"free"},{"bike_id":"b142e925-c295-43ac-bd4d-906b4f93788a","system_id":"levelo_inurba_marseille","lat":43.272243,"lon":5.39186,"is_reserved":false,"is_disabled":false,"rental_uris":{"android":"levelo://app?vid=b142e925-c295-43ac-bd4d-906b4f93788a","ios":"levelo://app?vid=b142e925-c295-43ac-bd4d-906b4f93788a"},"vehicle_type_id":"4","last_reported":1703786958,"current_range_meters":29600,"station_id":"ce4bhhp2rcd13ifvqfm0","pricing_plan_id":"free"},{"bike_id":"e43782e5-9b2d-4e13-9246-2452f501c0ed","system_id":"levelo_inurba_marseille","lat":43.272167,"lon":5.39197,"is_reserved":false,"is_disabled":false,"rental_uris":{"android":"levelo://app?vid=e43782e5-9b2d-4e13-9246-2452f501c0ed","ios":"levelo://app?vid=e43782e5-9b2d-4e13-9246-2452f501c0ed"},"vehicle_type_id":"4","last_reported":1703786958,"current_range_meters":27200,"station_id":"ce4bhhp2rcd13ifvqfm0","pricing_plan_id":"free"},{"bike_id":"510b79b6-132f-48bf-b7f1-9703328cb4b6","system_id":"levelo_inurba_marseille","lat":43.272116,"lon":5.391763,"is_reserved":false,"is_disabled":false,"rental_uris":{"android":"levelo://app?vid=510b79b6-132f-48bf-b7f1-9703328cb4b6","ios":"levelo://app?vid=510b79b6-132f-48bf-b7f1-9703328cb4b6"},"vehicle_type_id":"4","last_reported":1703786958,"current_range_meters":24400,"station_id":"ce4bhhp2rcd13ifvqfm0","pricing_plan_id":"free"},{"bike_id":"dcb34f7e-4bb0-4f50-a0bd-5ae8e961c5f1","system_id":"levelo_inurba_marseille","lat":43.27212,"lon":5.3925,"is_reserved":false,"is_disabled":false,"rental_uris":{"android":"levelo://app?vid=dcb34f7e-4bb0-4f50-a0bd-5ae8e961c5f1","ios":"levelo://app?vid=dcb34f7e-4bb0-4f50-a0bd-5ae8e961c5f1"},"vehicle_type_id":"4","last_reported":1703786958,"current_range_meters":800,"station_id":"","pricing_plan_id":"free"},{"bike_id":"200c1e1e-0539-4d27-9497-94a998a6eb7e","system_id":"levelo_inurba_marseille","lat":43.269467,"lon":5.386439,"is_reserved":false,"is_disabled":false,"rental_uris":{"android":"levelo://app?vid=200c1e1e-0539-4d27-9497-94a998a6eb7e","ios":"levelo://app?vid=200c1e1e-0539-4d27-9497-94a998a6eb7e"},"vehicle_type_id":"4","last_reported":1703786958,"current_range_meters":17600,"station_id":"ce4bhh92rcd13ifvqfh0","pricing_plan_id":"free"},{"bike_id":"c9c6a293-886d-4ee5-b350-b04a862f6141","system_id":"levelo_inurba_marseille","lat":43.26958,"lon":5.38633,"is_reserved":false,"is_disabled":false,"rental_uris":{"android":"levelo://app?vid=c9c6a293-886d-4ee5-b350-b04a862f6141","ios":"levelo://app?vid=c9c6a293-886d-4ee5-b350-b04a862f6141"},"vehicle_type_id":"4","last_reported":1703786958,"current_range_meters":27200,"station_id":"ce4bhh92rcd13ifvqfh0","pricing_plan_id":"free"},{"bike_id":"d0c0220c-f119-45c5-9964-4ebfa425e174","system_id":"levelo_inurba_marseille","lat":43.269467,"lon":5.386439,"is_reserved":false,"is_disabled":false,"rental_uris":{"android":"levelo://app?vid=d0c0220c-f119-45c5-9964-4ebfa425e174","ios":"levelo://app?vid=d0c0220c-f119-45c5-9964-4ebfa425e174"},"vehicle_type_id":"4","last_reported":1703786958,"current_range_meters":30400,"station_id":"ce4bhh92rcd13ifvqfh0","pricing_plan_id":"free"},{"bike_id":"88f16620-5cc0-44a5-9f0b-4f40cad1b43b","system_id":"levelo_inurba_marseille","lat":43.270884,"lon":5.391488,"is_reserved":false,"is_disabled":false,"rental_uris":{"android":"levelo://app?vid=88f16620-5cc0-44a5-9f0b-4f40cad1b43b","ios":"levelo://app?vid=88f16620-5cc0-44a5-9f0b-4f40cad1b43b"},"vehicle_type_id":"4","last_reported":1703786958,"current_range_meters":28400,"station_id":"ce4bhe12rcd13ifvqf30","pricing_plan_id":"free"},{"bike_id":"53c5d7d1-4169-4079-bcf9-2053449b6441","system_id":"levelo_inurba_marseille","lat":43.279465,"lon":5.410561,"is_reserved":false,"is_disabled":false,"rental_uris":{"android":"levelo://app?vid=53c5d7d1-4169-4079-bcf9-2053449b6441","ios":"levelo://app?vid=53c5d7d1-4169-4079-bcf9-2053449b6441"},"vehicle_type_id":"4","last_reported":1703786958,"current_range_meters":26000,"station_id":"ce4bhnp2rcd13ifvqh0g","pricing_plan_id":"free"},{"bike_id":"954116fe-7ac7-41be-918d-ad50b537790a","system_id":"levelo_inurba_marseille","lat":43.269319,"lon":5.389397,"is_reserved":false,"is_disabled":false,"rental_uris":{"android":"levelo://app?vid=954116fe-7ac7-41be-918d-ad50b537790a","ios":"levelo://app?vid=954116fe-7ac7-41be-918d-ad50b537790a"},"vehicle_type_id":"4","last_reported":1703786958,"current_range_meters":23600,"station_id":"ce4bhhh2rcd13ifvqfl0","pricing_plan_id":"free"},{"bike_id":"cf9124ed-8714-436f-adc2-7958034bcd07","system_id":"levelo_inurba_marseille","lat":43.269319,"lon":5.389397,"is_reserved":false,"is_disabled":false,"rental_uris":{"android":"levelo://app?vid=cf9124ed-8714-436f-adc2-7958034bcd07","ios":"levelo://app?vid=cf9124ed-8714-436f-adc2-7958034bcd07"},"vehicle_type_id":"4","last_reported":1703786958,"current_range_meters":25200,"station_id":"ce4bhhh2rcd13ifvqfl0","pricing_plan_id":"free"},{"bike_id":"676e27a3-382a-4f40-b6b3-7c317b340ee7","system_id":"levelo_inurba_marseille","lat":43.26681,"lon":5.382694,"is_reserved":false,"is_disabled":false,"rental_uris":{"android":"levelo://app?vid=676e27a3-382a-4f40-b6b3-7c317b340ee7","ios":"levelo://app?vid=676e27a3-382a-4f40-b6b3-7c317b340ee7"},"vehicle_type_id":"4","last_reported":1703786958,"current_range_meters":22800,"station_id":"ce4bhg92rcd13ifvqf90","pricing_plan_id":"free"},{"bike_id":"64e44c37-02fa-410b-8031-3722018edfc4","system_id":"levelo_inurba_marseille","lat":43.26682,"lon":5.38282,"is_reserved":false,"is_disabled":false,"rental_uris":{"android":"levelo://app?vid=64e44c37-02fa-410b-8031-3722018edfc4","ios":"levelo://app?vid=64e44c37-02fa-410b-8031-3722018edfc4"},"vehicle_type_id":"4","last_reported":1703786958,"current_range_meters":22800,"station_id":"ce4bhg92rcd13ifvqf90","pricing_plan_id":"free"},{"bike_id":"b99eb268-8186-420c-81ac-a9cfe3af0e40","system_id":"levelo_inurba_marseille","lat":43.265714,"lon":5.372891,"is_reserved":false,"is_disabled":false,"rental_uris":{"android":"levelo://app?vid=b99eb268-8186-420c-81ac-a9cfe3af0e40","ios":"levelo://app?vid=b99eb268-8186-420c-81ac-a9cfe3af0e40"},"vehicle_type_id":"4","last_reported":1703786958,"current_range_meters":31200,"station_id":"ce4bhg12rcd13ifvqf70","pricing_plan_id":"free"},{"bike_id":"018c631a-ef8b-4991-b6ec-8caf23fbb333","system_id":"levelo_inurba_marseille","lat":43.2801,"lon":5.41665,"is_reserved":false,"is_disabled":false,"rental_uris":{"android":"levelo://app?vid=018c631a-ef8b-4991-b6ec-8caf23fbb333","ios":"levelo://app?vid=018c631a-ef8b-4991-b6ec-8caf23fbb333"},"vehicle_type_id":"4","last_reported":1703786958,"current_range_meters":14400,"station_id":"ce4bho12rcd13ifvqh1g","pricing_plan_id":"free"},{"bike_id":"9aa37cd5-a2fd-4cdd-8ee3-862e8fd3da54","system_id":"levelo_inurba_marseille","lat":43.28,"lon":5.41662,"is_reserved":false,"is_disabled":false,"rental_uris":{"android":"levelo://app?vid=9aa37cd5-a2fd-4cdd-8ee3-862e8fd3da54","ios":"levelo://app?vid=9aa37cd5-a2fd-4cdd-8ee3-862e8fd3da54"},"vehicle_type_id":"4","last_reported":1703786958,"current_range_meters":25600,"station_id":"ce4bho12rcd13ifvqh1g","pricing_plan_id":"free"},{"bike_id":"d00305ea-f5fa-40d5-8ff2-4783231e3da7","system_id":"levelo_inurba_marseille","lat":43.27996,"lon":5.416624,"is_reserved":false,"is_disabled":false,"rental_uris":{"android":"levelo://app?vid=d00305ea-f5fa-40d5-8ff2-4783231e3da7","ios":"levelo://app?vid=d00305ea-f5fa-40d5-8ff2-4783231e3da7"},"vehicle_type_id":"4","last_reported":1703786958,"current_range_meters":28000,"station_id":"ce4bho12rcd13ifvqh1g","pricing_plan_id":"free"},{"bike_id":"96f6342a-8a2b-4dc6-b13a-2131ead01e18","system_id":"levelo_inurba_marseille","lat":43.27996,"lon":5.416624,"is_reserved":false,"is_disabled":false,"rental_uris":{"android":"levelo://app?vid=96f6342a-8a2b-4dc6-b13a-2131ead01e18","ios":"levelo://app?vid=96f6342a-8a2b-4dc6-b13a-2131ead01e18"},"vehicle_type_id":"4","last_reported":1703786958,"current_range_meters":31600,"station_id":"ce4bho12rcd13ifvqh1g","pricing_plan_id":"free"},{"bike_id":"5ba2f9e4-fa9c-4656-abce-5f3004e68a0d","system_id":"levelo_inurba_marseille","lat":43.27996,"lon":5.41665,"is_reserved":false,"is_disabled":false,"rental_uris":{"android":"levelo://app?vid=5ba2f9e4-fa9c-4656-abce-5f3004e68a0d","ios":"levelo://app?vid=5ba2f9e4-fa9c-4656-abce-5f3004e68a0d"},"vehicle_type_id":"4","last_reported":1703786958,"current_range_meters":24400,"station_id":"ce4bho12rcd13ifvqh1g","pricing_plan_id":"free"},{"bike_id":"7e52f9fe-170c-460b-84a9-62969e911261","system_id":"levelo_inurba_marseille","lat":43.279916,"lon":5.416622,"is_reserved":false,"is_disabled":false,"rental_uris":{"android":"levelo://app?vid=7e52f9fe-170c-460b-84a9-62969e911261","ios":"levelo://app?vid=7e52f9fe-170c-460b-84a9-62969e911261"},"vehicle_type_id":"4","last_reported":1703786958,"current_range_meters":11600,"station_id":"ce4bho12rcd13ifvqh1g","pricing_plan_id":"free"},{"bike_id":"0321d225-6854-49c9-8cc9-c3be2f579098","system_id":"levelo_inurba_marseille","lat":43.27996,"lon":5.416624,"is_reserved":false,"is_disabled":false,"rental_uris":{"android":"levelo://app?vid=0321d225-6854-49c9-8cc9-c3be2f579098","ios":"levelo://app?vid=0321d225-6854-49c9-8cc9-c3be2f579098"},"vehicle_type_id":"4","last_reported":1703786958,"current_range_meters":31600,"station_id":"ce4bho12rcd13ifvqh1g","pricing_plan_id":"free"},{"bike_id":"0c42e786-e8bd-4caa-9265-8e63ddc2fe7d","system_id":"levelo_inurba_marseille","lat":43.27996,"lon":5.416624,"is_reserved":false,"is_disabled":false,"rental_uris":{"android":"levelo://app?vid=0c42e786-e8bd-4caa-9265-8e63ddc2fe7d","ios":"levelo://app?vid=0c42e786-e8bd-4caa-9265-8e63ddc2fe7d"},"vehicle_type_id":"4","last_reported":1703786958,"current_range_meters":30000,"station_id":"ce4bho12rcd13ifvqh1g","pricing_plan_id":"free"},{"bike_id":"b00bf69e-8be6-4868-92e2-74511fafb87e","system_id":"levelo_inurba_marseille","lat":43.27996,"lon":5.416624,"is_reserved":false,"is_disabled":false,"rental_uris":{"android":"levelo://app?vid=b00bf69e-8be6-4868-92e2-74511fafb87e","ios":"levelo://app?vid=b00bf69e-8be6-4868-92e2-74511fafb87e"},"vehicle_type_id":"4","last_reported":1703786958,"current_range_meters":4800,"station_id":"ce4bho12rcd13ifvqh1g","pricing_plan_id":"free"},{"bike_id":"5d1dc1ad-d930-446a-a5a8-6e33dc9986d2","system_id":"levelo_inurba_marseille","lat":43.265714,"lon":5.372891,"is_reserved":false,"is_disabled":false,"rental_uris":{"android":"levelo://app?vid=5d1dc1ad-d930-446a-a5a8-6e33dc9986d2","ios":"levelo://app?vid=5d1dc1ad-d930-446a-a5a8-6e33dc9986d2"},"vehicle_type_id":"4","last_reported":1703786958,"current_range_meters":23600,"station_id":"ce4bhg12rcd13ifvqf70","pricing_plan_id":"free"},{"bike_id":"29457898-ff7c-4cfd-847c-7a1086f014f9","system_id":"levelo_inurba_marseille","lat":43.267966,"lon":5.393976,"is_reserved":false,"is_disabled":false,"rental_uris":{"android":"levelo://app?vid=29457898-ff7c-4cfd-847c-7a1086f014f9","ios":"levelo://app?vid=29457898-ff7c-4cfd-847c-7a1086f014f9"},"vehicle_type_id":"4","last_reported":1703786958,"current_range_meters":26400,"station_id":"ce4bhh12rcd13ifvqfg0","pricing_plan_id":"free"},{"bike_id":"67e6249c-b189-4435-a670-e29b7a14b361","system_id":"levelo_inurba_marseille","lat":43.308051,"lon":5.43527,"is_reserved":false,"is_disabled":false,"rental_uris":{"android":"levelo://app?vid=67e6249c-b189-4435-a670-e29b7a14b361","ios":"levelo://app?vid=67e6249c-b189-4435-a670-e29b7a14b361"},"vehicle_type_id":"4","last_reported":1703786958,"current_range_meters":9200,"station_id":"ce4bhph2rcd13ifvqheg","pricing_plan_id":"free"},{"bike_id":"f6f1814e-713d-4223-871b-40ec66ec0d2d","system_id":"levelo_inurba_marseille","lat":43.265569,"lon":5.390047,"is_reserved":false,"is_disabled":false,"rental_uris":{"android":"levelo://app?vid=f6f1814e-713d-4223-871b-40ec66ec0d2d","ios":"levelo://app?vid=f6f1814e-713d-4223-871b-40ec66ec0d2d"},"vehicle_type_id":"4","last_reported":1703786958,"current_range_meters":12000,"station_id":"ce4bhe12rcd13ifvqf30","pricing_plan_id":"free"},{"bike_id":"5020d136-4dcb-45cd-955b-b84ceda2d154","system_id":"levelo_inurba_marseille","lat":43.26949,"lon":5.40262,"is_reserved":false,"is_disabled":false,"rental_uris":{"android":"levelo://app?vid=5020d136-4dcb-45cd-955b-b84ceda2d154","ios":"levelo://app?vid=5020d136-4dcb-45cd-955b-b84ceda2d154"},"vehicle_type_id":"4","last_reported":1703786958,"current_range_meters":16400,"station_id":"cjm6bp8fraef2m0cb0m0","pricing_plan_id":"free"},{"bike_id":"dac5ea74-92f7-462e-b536-31f322bb01c0","system_id":"levelo_inurba_marseille","lat":43.331893,"lon":5.431791,"is_reserved":false,"is_disabled":false,"rental_uris":{"android":"levelo://app?vid=dac5ea74-92f7-462e-b536-31f322bb01c0","ios":"levelo://app?vid=dac5ea74-92f7-462e-b536-31f322bb01c0"},"vehicle_type_id":"4","last_reported":1703786958,"current_range_meters":22000,"station_id":"","pricing_plan_id":"free"},{"bike_id":"b40b564e-ab5e-4ed2-82e4-384253b5874b","system_id":"levelo_inurba_marseille","lat":43.317104,"lon":5.436818,"is_reserved":false,"is_disabled":false,"rental_uris":{"android":"levelo://app?vid=b40b564e-ab5e-4ed2-82e4-384253b5874b","ios":"levelo://app?vid=b40b564e-ab5e-4ed2-82e4-384253b5874b"},"vehicle_type_id":"4","last_reported":1703786958,"current_range_meters":4800,"station_id":"ce4bhp92rcd13ifvqhcg","pricing_plan_id":"free"},{"bike_id":"4832d0cd-5261-4844-9bc3-3c9f2f089930","system_id":"levelo_inurba_marseille","lat":43.262012,"lon":5.379307,"is_reserved":false,"is_disabled":false,"rental_uris":{"android":"levelo://app?vid=4832d0cd-5261-4844-9bc3-3c9f2f089930","ios":"levelo://app?vid=4832d0cd-5261-4844-9bc3-3c9f2f089930"},"vehicle_type_id":"4","last_reported":1703786958,"current_range_meters":6400,"station_id":"ce4bhjp2rcd13ifvqg90","pricing_plan_id":"free"},{"bike_id":"36c31505-f916-495a-b61b-0ab5278e507c","system_id":"levelo_inurba_marseille","lat":43.26202,"lon":5.379299,"is_reserved":false,"is_disabled":false,"rental_uris":{"android":"levelo://app?vid=36c31505-f916-495a-b61b-0ab5278e507c","ios":"levelo://app?vid=36c31505-f916-495a-b61b-0ab5278e507c"},"vehicle_type_id":"4","last_reported":1703786958,"current_range_meters":28000,"station_id":"ce4bhjp2rcd13ifvqg90","pricing_plan_id":"free"},{"bike_id":"62c68b61-a6ff-4aec-a7f9-b04df0287591","system_id":"levelo_inurba_marseille","lat":43.271368,"lon":5.40928,"is_reserved":false,"is_disabled":false,"rental_uris":{"android":"levelo://app?vid=62c68b61-a6ff-4aec-a7f9-b04df0287591","ios":"levelo://app?vid=62c68b61-a6ff-4aec-a7f9-b04df0287591"},"vehicle_type_id":"4","last_reported":1703786958,"current_range_meters":20000,"station_id":"ce4bhl12rcd13ifvqgf0","pricing_plan_id":"free"},{"bike_id":"03e6f818-a529-490e-a692-9e7ee5358f78","system_id":"levelo_inurba_marseille","lat":43.271388,"lon":5.409269,"is_reserved":false,"is_disabled":false,"rental_uris":{"android":"levelo://app?vid=03e6f818-a529-490e-a692-9e7ee5358f78","ios":"levelo://app?vid=03e6f818-a529-490e-a692-9e7ee5358f78"},"vehicle_type_id":"4","last_reported":1703786958,"current_range_meters":13600,"station_id":"ce4bhl12rcd13ifvqgf0","pricing_plan_id":"free"},{"bike_id":"10ab399a-0b49-4da4-b4b0-5517a580ffd7","system_id":"levelo_inurba_marseille","lat":43.267959,"lon":5.402687,"is_reserved":false,"is_disabled":false,"rental_uris":{"android":"levelo://app?vid=10ab399a-0b49-4da4-b4b0-5517a580ffd7","ios":"levelo://app?vid=10ab399a-0b49-4da4-b4b0-5517a580ffd7"},"vehicle_type_id":"4","last_reported":1703786958,"current_range_meters":31200,"station_id":"ce501612rcd8frsf0b60","pricing_plan_id":"free"},{"bike_id":"f100295b-a74b-4e5a-a785-65e572c6b191","system_id":"levelo_inurba_marseille","lat":43.2651,"lon":5.39469,"is_reserved":false,"is_disabled":false,"rental_uris":{"android":"levelo://app?vid=f100295b-a74b-4e5a-a785-65e572c6b191","ios":"levelo://app?vid=f100295b-a74b-4e5a-a785-65e572c6b191"},"vehicle_type_id":"4","last_reported":1703786958,"current_range_meters":18400,"station_id":"ce4bhi12rcd13ifvqfq0","pricing_plan_id":"free"},{"bike_id":"0dd21d74-0d22-4d98-8c56-74b1731406e1","system_id":"levelo_inurba_marseille","lat":43.2651,"lon":5.39469,"is_reserved":false,"is_disabled":false,"rental_uris":{"android":"levelo://app?vid=0dd21d74-0d22-4d98-8c56-74b1731406e1","ios":"levelo://app?vid=0dd21d74-0d22-4d98-8c56-74b1731406e1"},"vehicle_type_id":"4","last_reported":1703786958,"current_range_meters":20400,"station_id":"ce4bhi12rcd13ifvqfq0","pricing_plan_id":"free"},{"bike_id":"b80e3160-06ea-44c6-8c3d-699e93d0b9d0","system_id":"levelo_inurba_marseille","lat":43.298768,"lon":5.43643,"is_reserved":false,"is_disabled":false,"rental_uris":{"android":"levelo://app?vid=b80e3160-06ea-44c6-8c3d-699e93d0b9d0","ios":"levelo://app?vid=b80e3160-06ea-44c6-8c3d-699e93d0b9d0"},"vehicle_type_id":"4","last_reported":1703786958,"current_range_meters":6400,"station_id":"ce4bhpp2rcd13ifvqhfg","pricing_plan_id":"free"},{"bike_id":"f4950428-ac59-4968-9116-c7d484154074","system_id":"levelo_inurba_marseille","lat":43.298768,"lon":5.43643,"is_reserved":false,"is_disabled":false,"rental_uris":{"android":"levelo://app?vid=f4950428-ac59-4968-9116-c7d484154074","ios":"levelo://app?vid=f4950428-ac59-4968-9116-c7d484154074"},"vehicle_type_id":"4","last_reported":1703786958,"current_range_meters":27200,"station_id":"ce4bhpp2rcd13ifvqhfg","pricing_plan_id":"free"},{"bike_id":"54d9622f-c013-4f1c-9476-30ef8b856de8","system_id":"levelo_inurba_marseille","lat":43.298768,"lon":5.43643,"is_reserved":false,"is_disabled":false,"rental_uris":{"android":"levelo://app?vid=54d9622f-c013-4f1c-9476-30ef8b856de8","ios":"levelo://app?vid=54d9622f-c013-4f1c-9476-30ef8b856de8"},"vehicle_type_id":"4","last_reported":1703786958,"current_range_meters":9600,"station_id":"ce4bhpp2rcd13ifvqhfg","pricing_plan_id":"free"},{"bike_id":"00588cb2-26a8-488f-b02c-b87fadd91fb1","system_id":"levelo_inurba_marseille","lat":43.298768,"lon":5.43643,"is_reserved":false,"is_disabled":false,"rental_uris":{"android":"levelo://app?vid=00588cb2-26a8-488f-b02c-b87fadd91fb1","ios":"levelo://app?vid=00588cb2-26a8-488f-b02c-b87fadd91fb1"},"vehicle_type_id":"4","last_reported":1703786958,"current_range_meters":19600,"station_id":"ce4bhpp2rcd13ifvqhfg","pricing_plan_id":"free"},{"bike_id":"21bd232e-6347-4296-9932-b1fa80407fc7","system_id":"levelo_inurba_marseille","lat":43.298768,"lon":5.43643,"is_reserved":false,"is_disabled":false,"rental_uris":{"android":"levelo://app?vid=21bd232e-6347-4296-9932-b1fa80407fc7","ios":"levelo://app?vid=21bd232e-6347-4296-9932-b1fa80407fc7"},"vehicle_type_id":"4","last_reported":1703786958,"current_range_meters":2800,"station_id":"ce4bhpp2rcd13ifvqhfg","pricing_plan_id":"free"},{"bike_id":"961681f1-e8b1-49cf-88b2-7921457fc8d7","system_id":"levelo_inurba_marseille","lat":43.260219,"lon":5.37546,"is_reserved":false,"is_disabled":false,"rental_uris":{"android":"levelo://app?vid=961681f1-e8b1-49cf-88b2-7921457fc8d7","ios":"levelo://app?vid=961681f1-e8b1-49cf-88b2-7921457fc8d7"},"vehicle_type_id":"4","last_reported":1703786958,"current_range_meters":26800,"station_id":"ce4bhgh2rcd13ifvqfa0","pricing_plan_id":"free"},{"bike_id":"174ffb7e-6ed2-46ad-a74e-4134a9f3426e","system_id":"levelo_inurba_marseille","lat":43.28155,"lon":5.42642,"is_reserved":false,"is_disabled":false,"rental_uris":{"android":"levelo://app?vid=174ffb7e-6ed2-46ad-a74e-4134a9f3426e","ios":"levelo://app?vid=174ffb7e-6ed2-46ad-a74e-4134a9f3426e"},"vehicle_type_id":"4","last_reported":1703786958,"current_range_meters":7600,"station_id":"ce4bhnh2rcd13ifvqgug","pricing_plan_id":"free"},{"bike_id":"f7a1977b-535c-4883-979c-c6f936322413","system_id":"levelo_inurba_marseille","lat":43.281548,"lon":5.42643,"is_reserved":false,"is_disabled":false,"rental_uris":{"android":"levelo://app?vid=f7a1977b-535c-4883-979c-c6f936322413","ios":"levelo://app?vid=f7a1977b-535c-4883-979c-c6f936322413"},"vehicle_type_id":"4","last_reported":1703786958,"current_range_meters":30400,"station_id":"ce4bhnh2rcd13ifvqgug","pricing_plan_id":"free"},