{"last_updated":1746637788,"ttl":60,"version":"2.2","data":{"bikes":[{"bike_id":"ba494a00-cfda-4106-9606-b4b8fa69314c","system_id":"levelo_inurba_marseille","lat":43.25827,"lon":5.39413,"is_reserved":false,"is_disabled":false,"rental_uris":{"android":"levelo://app?vid=ba494a00-cfda-4106-9606-b4b8fa69314c","ios":"levelo://app?vid=ba494a00-cfda-4106-9606-b4b8fa69314c"},"vehicle_type_id":"4","last_reported":1746637788,"current_range_meters":2800,"station_id":"ce4bhip2rcd13ifvqft0","pricing_plan_id":"cebpf4jnsgd1na2vs0mg"},{"bike_id":"c2a03870-e088-4c72-a865-5d144eac26fb","system_id":"levelo_inurba_marseille","lat":43.30682,"lon":5.37323,"is_reserved":false,"is_disabled":false,"rental_uris":{"android":"levelo://app?vid=c2a03870-e088-4c72-a865-5d144eac26fb","ios":"levelo://app?vid=c2a03870-e088-4c72-a865-5d144eac26fb"},"vehicle_type_id":"4","last_reported":1746637788,"current_range_meters":2800,"station_id":"","pricing_plan_id":"cebpf4jnsgd1na2vs0mg"},{"bike_id":"668c20c8-71e7-401f-bf1d-ccccf041a906","system_id":"levelo_inurba_marseille","lat":43.31014,"lon":5.37533,"is_reserved":false,"is_disabled":false,"rental_uris":{"android":"levelo://app?vid=668c20c8-71e7-401f-bf1d-ccccf041a906","ios":"levelo://app?vid=668c20c8-71e7-401f-bf1d-ccccf041a906"},"vehicle_type_id":"4","last_reported":1746637788,"current_range_meters":3200,"station_id":"","pricing_plan_id":"cebpf4jnsgd1na2vs0mg"},{"bike_id":"ff2f6436-6ca6-4349-bbb7-b32fd021e7e9","system_id":"levelo_inurba_marseille","lat":43.28403,"lon":5.37512,"is_reserved":false,"is_disabled":false,"rental_uris":{"android":"levelo://app?vid=ff2f6436-6ca6-4349-bbb7-b32fd021e7e9","ios":"levelo://app?vid=ff2f6436-6ca6-4349-bbb7-b32fd021e7e9"},"vehicle_type_id":"4","last_reported":1746637788,"current_range_meters":3200,"station_id":"ce4bh412rcd13ifvqds0","pricing_plan_id":"cebpf4jnsgd1na2vs0mg"},{"bike_id":"c1d60e39-bee4-4d0b-87ce-2a42256c59ef","system_id":"levelo_inurba_marseille","lat":43.32108,"lon":5.3678,"is_reserved":false,"is_disabled":false,"rental_uris":{"android":"levelo://app?vid=c1d60e39-bee4-4d0b-87ce-2a42256c59ef","ios":"levelo://app?vid=c1d60e39-bee4-4d0b-87ce-2a42256c59ef"},"vehicle_type_id":"4","last_reported":1746637788,"current_range_meters":3200,"station_id":"ce4bhrh2rcd13ifvqhug","pricing_plan_id":"cebpf4jnsgd1na2vs0mg"},{"bike_id":"eefe1645-277e-4026-8138-9a9fbf724125","system_id":"levelo_inurba_marseille","lat":43.29168,"lon":5.37157,"is_reserved":false,"is_disabled":false,"rental_uris":{"android":"levelo://app?vid=eefe1645-277e-4026-8138-9a9fbf724125","ios":"levelo://app?vid=eefe1645-277e-4026-8138-9a9fbf724125"},"vehicle_type_id":"4","last_reported":1746637788,"current_range_meters":3600,"station_id":"ce4bha92rcd13ifvqeh0","pricing_plan_id":"cebpf4jnsgd1na2vs0mg"},{"bike_id":"879af0e5-5368-4c8a-a113-a9d279bec406","system_id":"levelo_inurba_marseille","lat":43.307511,"lon":5.371011,"is_reserved":false,"is_disabled":false,"rental_uris":{"android":"levelo://app?vid=879af0e5-5368-4c8a-a113-a9d279bec406","ios":"levelo://app?vid=879af0e5-5368-4c8a-a113-a9d279bec406"},"vehicle_type_id":"4","last_reported":1746637788,"current_range_meters":3600,"station_id":"","pricing_plan_id":"cebpf4jnsgd1na2vs0mg"},{"bike_id":"23a5d4f9-52de-401f-95e0-b8f3a322d598","system_id":"levelo_inurba_marseille","lat":43.2908,"lon":5.37158,"is_reserved":false,"is_disabled":false,"rental_uris":{"android":"levelo://app?vid=23a5d4f9-52de-401f-95e0-b8f3a322d598","ios":"levelo://app?vid=23a5d4f9-52de-401f-95e0-b8f3a322d598"},"vehicle_type_id":"4","last_reported":1746637788,"current_range_meters":3600,"station_id":"ce4bh5p2rcd13ifvqe4g","pricing_plan_id":"cebpf4jnsgd1na2vs0mg"},{"bike_id":"cf942464-9c47-403f-a6fc-753dc192e361","system_id":"levelo_inurba_marseille","lat":43.31332,"lon":5.39696,"is_reserved":false,"is_disabled":false,"rental_uris":{"android":"levelo://app?vid=cf942464-9c47-403f-a6fc-753dc192e361","ios":"levelo://app?vid=cf942464-9c47-403f-a6fc-753dc192e361"},"vehicle_type_id":"4","last_reported":1746637788,"current_range_meters":3600,"station_id":"ce4bgvp2rcd13ifvqcu0","pricing_plan_id":"cebpf4jnsgd1na2vs0mg"},{"bike_id":"d309d842-88fa-4468-92c0-95c3817a3184","system_id":"levelo_inurba_marseille","lat":43.306467,"lon":5.400843,"is_reserved":false,"is_disabled":false,"rental_uris":{"android":"levelo://app?vid=d309d842-88fa-4468-92c0-95c3817a3184","ios":"levelo://app?vid=d309d842-88fa-4468-92c0-95c3817a3184"},"vehicle_type_id":"4","last_reported":1746637788,"current_range_meters":3600,"station_id":"ce4bh112rcd13ifvqda0","pricing_plan_id":"cebpf4jnsgd1na2vs0mg"},{"bike_id":"740b6923-4116-440c-a48e-494413667cfe","system_id":"levelo_inurba_marseille","lat":43.29969,"lon":5.38514,"is_reserved":false,"is_disabled":false,"rental_uris":{"android":"levelo://app?vid=740b6923-4116-440c-a48e-494413667cfe","ios":"levelo://app?vid=740b6923-4116-440c-a48e-494413667cfe"},"vehicle_type_id":"4","last_reported":1746637788,"current_range_meters":4000,"station_id":"ce4bgj92rcd13ifvqbd0","pricing_plan_id":"cebpf4jnsgd1na2vs0mg"},{"bike_id":"3c2d248b-a959-4061-b333-b650611e7777","system_id":"levelo_inurba_marseille","lat":43.29699,"lon":5.36601,"is_reserved":false,"is_disabled":false,"rental_uris":{"android":"levelo://app?vid=3c2d248b-a959-4061-b333-b650611e7777","ios":"levelo://app?vid=3c2d248b-a959-4061-b333-b650611e7777"},"vehicle_type_id":"4","last_reported":1746637788,"current_range_meters":4000,"station_id":"ce4bgn12rcd13ifvqbt0","pricing_plan_id":"cebpf4jnsgd1na2vs0mg"},{"bike_id":"d326a67e-2423-43ef-b12e-f6eb2f51a092","system_id":"levelo_inurba_marseille","lat":43.28413,"lon":5.34982,"is_reserved":false,"is_disabled":false,"rental_uris":{"android":"levelo://app?vid=d326a67e-2423-43ef-b12e-f6eb2f51a092","ios":"levelo://app?vid=d326a67e-2423-43ef-b12e-f6eb2f51a092"},"vehicle_type_id":"4","last_reported":1746637788,"current_range_meters":4000,"station_id":"ce4bhbh2rcd13ifvqepg","pricing_plan_id":"cebpf4jnsgd1na2vs0mg"},{"bike_id":"0183274b-0165-4be6-8323-d0cf7db8dc3a","system_id":"levelo_inurba_marseille","lat":43.24678,"lon":5.3814,"is_reserved":false,"is_disabled":false,"rental_uris":{"android":"levelo://app?vid=0183274b-0165-4be6-8323-d0cf7db8dc3a","ios":"levelo://app?vid=0183274b-0165-4be6-8323-d0cf7db8dc3a"},"vehicle_type_id":"4","last_reported":1746637788,"current_range_meters":4000,"station_id":"ce4bhih2rcd13ifvqfr0","pricing_plan_id":"cebpf4jnsgd1na2vs0mg"},{"bike_id":"c515518c-6ce4-4999-89b2-d6d017621072","system_id":"levelo_inurba_marseille","lat":43.29419,"lon":5.38626,"is_reserved":false,"is_disabled":false,"rental_uris":{"android":"levelo://app?vid=c515518c-6ce4-4999-89b2-d6d017621072","ios":"levelo://app?vid=c515518c-6ce4-4999-89b2-d6d017621072"},"vehicle_type_id":"4","last_reported":1746637788,"current_range_meters":4000,"station_id":"ce4bh2h2rcd13ifvqdh0","pricing_plan_id":"cebpf4jnsgd1na2vs0mg"},{"bike_id":"9748a0c4-d6b8-4d04-814d-c8cd66193aaf","system_id":"levelo_inurba_marseille","lat":43.25231,"lon":5.41057,"is_reserved":false,"is_disabled":false,"rental_uris":{"android":"levelo://app?vid=9748a0c4-d6b8-4d04-814d-c8cd66193aaf","ios":"levelo://app?vid=9748a0c4-d6b8-4d04-814d-c8cd66193aaf"},"vehicle_type_id":"4","last_reported":1746637788,"current_range_meters":4400,"station_id":"","pricing_plan_id":"cebpf4jnsgd1na2vs0mg"},{"bike_id":"1d12d546-7546-4627-a5cb-1c9e6ecf8075","system_id":"levelo_inurba_marseille","lat":43.30424,"lon":5.3889,"is_reserved":false,"is_disabled":false,"rental_uris":{"android":"levelo://app?vid=1d12d546-7546-4627-a5cb-1c9e6ecf8075","ios":"levelo://app?vid=1d12d546-7546-4627-a5cb-1c9e6ecf8075"},"vehicle_type_id":"4","last_reported":1746637788,"current_range_meters":4400,"station_id":"ce4bgk12rcd13ifvqbi0","pricing_plan_id":"cebpf4jnsgd1na2vs0mg"},{"bike_id":"c0faf23e-81a7-4ca3-895d-283152fd6265","system_id":"levelo_inurba_marseille","lat":43.29626,"lon":5.39644,"is_reserved":false,"is_disabled":false,"rental_uris":{"android":"levelo://app?vid=c0faf23e-81a7-4ca3-895d-283152fd6265","ios":"levelo://app?vid=c0faf23e-81a7-4ca3-895d-283152fd6265"},"vehicle_type_id":"4","last_reported":1746637788,"current_range_meters":4400,"station_id":"","pricing_plan_id":"cebpf4jnsgd1na2vs0mg"},{"bike_id":"6382c796-72b0-48e7-a045-cc7e484c9265","system_id":"levelo_inurba_marseille","lat":43.28854,"lon":5.35865,"is_reserved":false,"is_disabled":false,"rental_uris":{"android":"levelo://app?vid=6382c796-72b0-48e7-a045-cc7e484c9265","ios":"levelo://app?vid=6382c796-72b0-48e7-a045-cc7e484c9265"},"vehicle_type_id":"4","last_reported":1746637788,"current_range_meters":4400,"station_id":"ce4bhb12rcd13ifvqem0","pricing_plan_id":"cebpf4jnsgd1na2vs0mg"},{"bike_id":"f6d54d9a-db79-4418-96fb-b7a553b6fa10","system_id":"levelo_inurba_marseille","lat":43.27665,"lon":5.38888,"is_reserved":false,"is_disabled":false,"rental_uris":{"android":"levelo://app?vid=f6d54d9a-db79-4418-96fb-b7a553b6fa10","ios":"levelo://app?vid=f6d54d9a-db79-4418-96fb-b7a553b6fa10"},"vehicle_type_id":"4","last_reported":1746637788,"current_range_meters":4800,"station_id":"ce4bhi12rcd13ifvqfo0","pricing_plan_id":"cebpf4jnsgd1na2vs0mg"},{"bike_id":"eccba332-1be7-42d7-a3c4-90b0d1cb293e","system_id":"levelo_inurba_marseille","lat":43.27988,"lon":5.41658,"is_reserved":false,"is_disabled":false,"rental_uris":{"android":"levelo://app?vid=eccba332-1be7-42d7-a3c4-90b0d1cb293e","ios":"levelo://app?vid=eccba332-1be7-42d7-a3c4-90b0d1cb293e"},"vehicle_type_id":"4","last_reported":1746637788,"current_range_meters":4800,"station_id":"ce4bho12rcd13ifvqh1g","pricing_plan_id":"cebpf4jnsgd1na2vs0mg"},{"bike_id":"f46ae0d7-03f3-41e1-96db-970fe58465cc","system_id":"levelo_inurba_marseille","lat":43.33043,"lon":5.38172,"is_reserved":false,"is_disabled":false,"rental_uris":{"android":"levelo://app?vid=f46ae0d7-03f3-41e1-96db-970fe58465cc","ios":"levelo://app?vid=f46ae0d7-03f3-41e1-96db-970fe58465cc"},"vehicle_type_id":"4","last_reported":1746637788,"current_range_meters":4800,"station_id":"","pricing_plan_id":"cebpf4jnsgd1na2vs0mg"},{"bike_id":"2dbfaa55-053d-4ae4-8f8f-651392bc35bb","system_id":"levelo_inurba_marseille","lat":43.29002,"lon":5.35615,"is_reserved":false,"is_disabled":false,"rental_uris":{"android":"levelo://app?vid=2dbfaa55-053d-4ae4-8f8f-651392bc35bb","ios":"levelo://app?vid=2dbfaa55-053d-4ae4-8f8f-651392bc35bb"},"vehicle_type_id":"4","last_reported":1746637788,"current_range_meters":4800,"station_id":"ce4bhb92rcd13ifvqen0","pricing_plan_id":"cebpf4jnsgd1na2vs0mg"},{"bike_id":"5cf67a81-9823-49b8-80ec-87a296b26e5b","system_id":"levelo_inurba_marseille","lat":43.29193,"lon":5.35805,"is_reserved":false,"is_disabled":false,"rental_uris":{"android":"levelo://app?vid=5cf67a81-9823-49b8-80ec-87a296b26e5b","ios":"levelo://app?vid=5cf67a81-9823-49b8-80ec-87a296b26e5b"},"vehicle_type_id":"4","last_reported":1746637788,"current_range_meters":4400,"station_id":"ce4bhb12rcd13ifvqel0","pricing_plan_id":"cebpf4jnsgd1na2vs0mg"},{"bike_id":"90d3fc51-67b8-4457-8914-5f749f627e81","system_id":"levelo_inurba_marseille","lat":43.2959,"lon":5.38105,"is_reserved":false,"is_disabled":false,"rental_uris":{"android":"levelo://app?vid=90d3fc51-67b8-4457-8914-5f749f627e81","ios":"levelo://app?vid=90d3fc51-67b8-4457-8914-5f749f627e81"},"vehicle_type_id":"4","last_reported":1746637788,"current_range_meters":4800,"station_id":"ce4bgl12rcd13ifvqbo0","pricing_plan_id":"cebpf4jnsgd1na2vs0mg"},{"bike_id":"b9f2e248-ec6c-47ba-b7b8-57cd51f2f65d","system_id":"levelo_inurba_marseille","lat":43.24652,"lon":5.38161,"is_reserved":false,"is_disabled":false,"rental_uris":{"android":"levelo://app?vid=b9f2e248-ec6c-47ba-b7b8-57cd51f2f65d","ios":"levelo://app?vid=b9f2e248-ec6c-47ba-b7b8-57cd51f2f65d"},"vehicle_type_id":"4","last_reported":1746637788,"current_range_meters":5600,"station_id":"ce4bhih2rcd13ifvqfr0","pricing_plan_id":"cebpf4jnsgd1na2vs0mg"},{"bike_id":"6e627aa5-266b-4d0d-8e50-df8df40b3dc4","system_id":"levelo_inurba_marseille","lat":43.25578,"lon":5.38213,"is_reserved":false,"is_disabled":false,"rental_uris":{"android":"levelo://app?vid=6e627aa5-266b-4d0d-8e50-df8df40b3dc4","ios":"levelo://app?vid=6e627aa5-266b-4d0d-8e50-df8df40b3dc4"},"vehicle_type_id":"4","last_reported":1746637788,"current_range_meters":6000,"station_id":"ce4bhih2rcd13ifvqfs0","pricing_plan_id":"cebpf4jnsgd1na2vs0mg"},{"bike_id":"62cfe3fd-8fed-4080-91bc-ddc599335245","system_id":"levelo_inurba_marseille","lat":43.28611,"lon":5.35103,"is_reserved":false,"is_disabled":false,"rental_uris":{"android":"levelo://app?vid=62cfe3fd-8fed-4080-91bc-ddc599335245","ios":"levelo://app?vid=62cfe3fd-8fed-4080-91bc-ddc599335245"},"vehicle_type_id":"4","last_reported":1746637788,"current_range_meters":6000,"station_id":"ce4bhch2rcd13ifvqeug","pricing_plan_id":"cebpf4jnsgd1na2vs0mg"},{"bike_id":"08af9794-5296-4f46-8c3b-e44d0903f03c","system_id":"levelo_inurba_marseille","lat":43.29522,"lon":5.3751,"is_reserved":false,"is_disabled":false,"rental_uris":{"android":"levelo://app?vid=08af9794-5296-4f46-8c3b-e44d0903f03c","ios":"levelo://app?vid=08af9794-5296-4f46-8c3b-e44d0903f03c"},"vehicle_type_id":"4","last_reported":1746637788,"current_range_meters":5600,"station_id":"ce4bgkp2rcd13ifvqbmg","pricing_plan_id":"cebpf4jnsgd1na2vs0mg"},{"bike_id":"a74e0a50-c298-4191-a147-241e0db72830","system_id":"levelo_inurba_marseille","lat":43.29194,"lon":5.39323,"is_reserved":false,"is_disabled":false,"rental_uris":{"android":"levelo://app?vid=a74e0a50-c298-4191-a147-241e0db72830","ios":"levelo://app?vid=a74e0a50-c298-4191-a147-241e0db72830"},"vehicle_type_id":"4","last_reported":1746637788,"current_range_meters":5600,"station_id":"ce4bh192rcd13ifvqdd0","pricing_plan_id":"cebpf4jnsgd1na2vs0mg"},{"bike_id":"c9592205-9409-4f74-aed1-7c4141a58caa","system_id":"levelo_inurba_marseille","lat":43.27133,"lon":5.36365,"is_reserved":false,"is_disabled":false,"rental_uris":{"android":"levelo://app?vid=c9592205-9409-4f74-aed1-7c4141a58caa","ios":"levelo://app?vid=c9592205-9409-4f74-aed1-7c4141a58caa"},"vehicle_type_id":"4","last_reported":1746637788,"current_range_meters":6000,"station_id":"","pricing_plan_id":"cebpf4jnsgd1na2vs0mg"},{"bike_id":"63cb73aa-86fe-4599-9b76-3790ec130780","system_id":"levelo_inurba_marseille","lat":43.29588,"lon":5.37885,"is_reserved":false,"is_disabled":false,"rental_uris":{"android":"levelo://app?vid=63cb73aa-86fe-4599-9b76-3790ec130780","ios":"levelo://app?vid=63cb73aa-86fe-4599-9b76-3790ec130780"},"vehicle_type_id":"4","last_reported":1746637788,"current_range_meters":6000,"station_id":"","pricing_plan_id":"cebpf4jnsgd1na2vs0mg"},{"bike_id":"93020fff-a5b8-4cbe-8e44-94107947f9c0","system_id":"levelo_inurba_marseille","lat":43.28705,"lon":5.39978,"is_reserved":false,"is_disabled":false,"rental_uris":{"android":"levelo://app?vid=93020fff-a5b8-4cbe-8e44-94107947f9c0","ios":"levelo://app?vid=93020fff-a5b8-4cbe-8e44-94107947f9c0"},"vehicle_type_id":"4","last_reported":1746637788,"current_range_meters":6000,"station_id":"ce4bho92rcd13ifvqh3g","pricing_plan_id":"cebpf4jnsgd1na2vs0mg"},{"bike_id":"4ca93efb-be27-4193-b547-d0db2c07a3d8","system_id":"levelo_inurba_marseille","lat":43.28725,"lon":5.36086,"is_reserved":false,"is_disabled":false,"rental_uris":{"android":"levelo://app?vid=4ca93efb-be27-4193-b547-d0db2c07a3d8","ios":"levelo://app?vid=4ca93efb-be27-4193-b547-d0db2c07a3d8"},"vehicle_type_id":"4","last_reported":1746637788,"current_range_meters":6000,"station_id":"cki0cbj6b192h4jlfktg","pricing_plan_id":"cebpf4jnsgd1na2vs0mg"},{"bike_id":"e9801719-8fa8-41bc-bbac-1f9e126bd72a","system_id":"levelo_inurba_marseille","lat":43.30137,"lon":5.3879,"is_reserved":false,"is_disabled":false,"rental_uris":{"android":"levelo://app?vid=e9801719-8fa8-41bc-bbac-1f9e126bd72a","ios":"levelo://app?vid=e9801719-8fa8-41bc-bbac-1f9e126bd72a"},"vehicle_type_id":"4","last_reported":1746637788,"current_range_meters":6000,"station_id":"ce4bghh2rcd13ifvqb60","pricing_plan_id":"cebpf4jnsgd1na2vs0mg"},{"bike_id":"278d5f6a-9810-4c49-b830-1c12f2882c6b","system_id":"levelo_inurba_marseille","lat":43.33066,"lon":5.40603,"is_reserved":false,"is_disabled":false,"rental_uris":{"android":"levelo://app?vid=278d5f6a-9810-4c49-b830-1c12f2882c6b","ios":"levelo://app?vid=278d5f6a-9810-4c49-b830-1c12f2882c6b"},"vehicle_type_id":"4","last_reported":1746637788,"current_range_meters":6400,"station_id":"","pricing_plan_id":"cebpf4jnsgd1na2vs0mg"},{"bike_id":"ce40ea43-bacf-49f3-b5af-ffaf2a1f03b1","system_id":"levelo_inurba_marseille","lat":43.30488,"lon":5.36744,"is_reserved":false,"is_disabled":false,"rental_uris":{"android":"levelo://app?vid=ce40ea43-bacf-49f3-b5af-ffaf2a1f03b1","ios":"levelo://app?vid=ce40ea43-bacf-49f3-b5af-ffaf2a1f03b1"},"vehicle_type_id":"4","last_reported":1746637788,"current_range_meters":6400,"station_id":"","pricing_plan_id":"cebpf4jnsgd1na2vs0mg"},{"bike_id":"36d1fee8-0c4d-468d-a78a-5ea17a9e15d5","system_id":"levelo_inurba_marseille","lat":43.28618,"lon":5.35106,"is_reserved":false,"is_disabled":false,"rental_uris":{"android":"levelo://app?vid=36d1fee8-0c4d-468d-a78a-5ea17a9e15d5","ios":"levelo://app?vid=36d1fee8-0c4d-468d-a78a-5ea17a9e15d5"},"vehicle_type_id":"4","last_reported":1746637788,"current_range_meters":6400,"station_id":"ce4bhch2rcd13ifvqeug","pricing_plan_id":"cebpf4jnsgd1na2vs0mg"},{"bike_id":"3d17d911-9008-4e09-a9dc-050dc23bd781","system_id":"levelo_inurba_marseille","lat":43.25108,"lon":5.40323,"is_reserved":false,"is_disabled":false,"rental_uris":{"android":"levelo://app?vid=3d17d911-9008-4e09-a9dc-050dc23bd781","ios":"levelo://app?vid=3d17d911-9008-4e09-a9dc-050dc23bd781"},"vehicle_type_id":"4","last_reported":1746637788,"current_range_meters":6400,"station_id":"ce4bhlh2rcd13ifvqgig","pricing_plan_id":"cebpf4jnsgd1na2vs0mg"},{"bike_id":"a8f1176e-6703-4622-8d84-86e86934addd","system_id":"levelo_inurba_marseille","lat":43.24174,"lon":5.39728,"is_reserved":false,"is_disabled":false,"rental_uris":{"android":"levelo://app?vid=a8f1176e-6703-4622-8d84-86e86934addd","ios":"levelo://app?vid=a8f1176e-6703-4622-8d84-86e86934addd"},"vehicle_type_id":"4","last_reported":1746637788,"current_range_meters":6400,"station_id":"ce4bhn12rcd13ifvqgpg","pricing_plan_id":"cebpf4jnsgd1na2vs0mg"},{"bike_id":"c7d679aa-91f9-4749-b523-09fde14e0a69","system_id":"levelo_inurba_marseille","lat":43.30141,"lon":5.38768,"is_reserved":false,"is_disabled":false,"rental_uris":{"android":"levelo://app?vid=c7d679aa-91f9-4749-b523-09fde14e0a69","ios":"levelo://app?vid=c7d679aa-91f9-4749-b523-09fde14e0a69"},"vehicle_type_id":"4","last_reported":1746637788,"current_range_meters":6400,"station_id":"ce4bghh2rcd13ifvqb60","pricing_plan_id":"cebpf4jnsgd1na2vs0mg"},{"bike_id":"7e230462-5e55-420c-8d4e-5145b19abc83","system_id":"levelo_inurba_marseille","lat":43.23135,"lon":5.43688,"is_reserved":false,"is_disabled":false,"rental_uris":{"android":"levelo://app?vid=7e230462-5e55-420c-8d4e-5145b19abc83","ios":"levelo://app?vid=7e230462-5e55-420c-8d4e-5145b19abc83"},"vehicle_type_id":"4","last_reported":1746637788,"current_range_meters":6800,"station_id":"ce4bhmp2rcd13ifvqgog","pricing_plan_id":"cebpf4jnsgd1na2vs0mg"},{"bike_id":"db97f7d1-d35d-4dcd-976a-fbe1c8cbdd29","system_id":"levelo_inurba_marseille","lat":43.32606,"lon":5.42886,"is_reserved":false,"is_disabled":false,"rental_uris":{"android":"levelo://app?vid=db97f7d1-d35d-4dcd-976a-fbe1c8cbdd29","ios":"levelo://app?vid=db97f7d1-d35d-4dcd-976a-fbe1c8cbdd29"},"vehicle_type_id":"4","last_reported":1746637788,"current_range_meters":6800,"station_id":"","pricing_plan_id":"cebpf4jnsgd1na2vs0mg"},{"bike_id":"f16b79e6-bac0-47fc-895a-4d0be1bff861","system_id":"levelo_inurba_marseille","lat":43.30267,"lon":5.37715,"is_reserved":false,"is_disabled":false,"rental_uris":{"android":"levelo://app?vid=f16b79e6-bac0-47fc-895a-4d0be1bff861","ios":"levelo://app?vid=f16b79e6-bac0-47fc-895a-4d0be1bff861"},"vehicle_type_id":"4","last_reported":1746637788,"current_range_meters":6400,"station_id":"ce4bguh2rcd13ifvqcj0","pricing_plan_id":"cebpf4jnsgd1na2vs0mg"},{"bike_id":"eb00b5c5-7885-425c-8ea3-2c0ebc8dacfc","system_id":"levelo_inurba_marseille","lat":43.29414,"lon":5.3862,"is_reserved":false,"is_disabled":false,"rental_uris":{"android":"levelo://app?vid=eb00b5c5-7885-425c-8ea3-2c0ebc8dacfc","ios":"levelo://app?vid=eb00b5c5-7885-425c-8ea3-2c0ebc8dacfc"},"vehicle_type_id":"4","last_reported":1746637788,"current_range_meters":6800,"station_id":"ce4bh2h2rcd13ifvqdh0","pricing_plan_id":"cebpf4jnsgd1na2vs0mg"},{"bike_id":"705f1f6f-d92c-4df1-a512-943b0bf79900","system_id":"levelo_inurba_marseille","lat":43.22504,"lon":5.34777,"is_reserved":false,"is_disabled":false,"rental_uris":{"android":"levelo://app?vid=705f1f6f-d92c-4df1-a512-943b0bf79900","ios":"levelo://app?vid=705f1f6f-d92c-4df1-a512-943b0bf79900"},"vehicle_type_id":"4","last_reported":1746637788,"current_range_meters":6800,"station_id":"st_cvj5dfep6f1abm77gieg","pricing_plan_id":"cebpf4jnsgd1na2vs0mg"},{"bike_id":"058c04c0-a83a-4af5-a5f8-af2e07c7895c","system_id":"levelo_inurba_marseille","lat":43.33002,"lon":5.39335,"is_reserved":false,"is_disabled":false,"rental_uris":{"android":"levelo://app?vid=058c04c0-a83a-4af5-a5f8-af2e07c7895c","ios":"levelo://app?vid=058c04c0-a83a-4af5-a5f8-af2e07c7895c"},"vehicle_type_id":"4","last_reported":1746637788,"current_range_meters":7200,"station_id":"","pricing_plan_id":"cebpf4jnsgd1na2vs0mg"},{"bike_id":"c6739f6f-7088-4547-b92f-34c62f55baca","system_id":"levelo_inurba_marseille","lat":43.29045,"lon":5.35906,"is_reserved":false,"is_disabled":false,"rental_uris":{"android":"levelo://app?vid=c6739f6f-7088-4547-b92f-34c62f55baca","ios":"levelo://app?vid=c6739f6f-7088-4547-b92f-34c62f55baca"},"vehicle_type_id":"4","last_reported":1746637788,"current_range_meters":7200,"station_id":"ce4bha92rcd13ifvqeg0","pricing_plan_id":"cebpf4jnsgd1na2vs0mg"},{"bike_id":"94d9cac8-4656-4c27-8138-e79ee4345355","system_id":"levelo_inurba_marseille","lat":43.29417,"lon":5.38624,"is_reserved":false,"is_disabled":false,"rental_uris":{"android":"levelo://app?vid=94d9cac8-4656-4c27-8138-e79ee4345355","ios":"levelo://app?vid=94d9cac8-4656-4c27-8138-e79ee4345355"},"vehicle_type_id":"4","last_reported":1746637788,"current_range_meters":7200,"station_id":"ce4bh2h2rcd13ifvqdh0","pricing_plan_id":"cebpf4jnsgd1na2vs0mg"},{"bike_id":"9b14cb29-e1e9-4dcc-ae53-804f07a94bb0","system_id":"levelo_inurba_marseille","lat":43.27195,"lon":5.40982,"is_reserved":false,"is_disabled":false,"rental_uris":{"android":"levelo://app?vid=9b14cb29-e1e9-4dcc-ae53-804f07a94bb0","ios":"levelo://app?vid=9b14cb29-e1e9-4dcc-ae53-804f07a94bb0"},"vehicle_type_id":"4","last_reported":1746637788,"current_range_meters":7200,"station_id":"ce4bhl12rcd13ifvqgf0","pricing_plan_id":"cebpf4jnsgd1na2vs0mg"},{"bike_id":"3b79bbde-cd71-4358-992f-6e9e611db5e0","system_id":"levelo_inurba_marseille","lat":43.295654,"lon":5.399735,"is_reserved":false,"is_disabled":false,"rental_uris":{"android":"levelo://app?vid=3b79bbde-cd71-4358-992f-6e9e611db5e0","ios":"levelo://app?vid=3b79bbde-cd71-4358-992f-6e9e611db5e0"},"vehicle_type_id":"4","last_reported":1746637788,"current_range_meters":8000,"station_id":"ce4bh312rcd13ifvqdj0","pricing_plan_id":"cebpf4jnsgd1na2vs0mg"},{"bike_id":"a64321f0-7ee9-46e4-888d-8f6d64d9c3b7","system_id":"levelo_inurba_marseille","lat":43.24806,"lon":5.37454,"is_reserved":false,"is_disabled":false,"rental_uris":{"android":"levelo://app?vid=a64321f0-7ee9-46e4-888d-8f6d64d9c3b7","ios":"levelo://app?vid=a64321f0-7ee9-46e4-888d-8f6d64d9c3b7"},"vehicle_type_id":"4","last_reported":1746637788,"current_range_meters":8000,"station_id":"ce4bhgh2rcd13ifvqfb0","pricing_plan_id":"cebpf4jnsgd1na2vs0mg"},{"bike_id":"65e1084f-ebcf-4601-908e-c0c52240a2e5","system_id":"levelo_inurba_marseille","lat":43.262058,"lon":5.379274,"is_reserved":false,"is_disabled":true,"rental_uris":{"android":"levelo://app?vid=65e1084f-ebcf-4601-908e-c0c52240a2e5","ios":"levelo://app?vid=65e1084f-ebcf-4601-908e-c0c52240a2e5"},"vehicle_type_id":"4","last_reported":1746637788,"current_range_meters":8000,"station_id":"ce4bhjp2rcd13ifvqg90","pricing_plan_id":"cebpf4jnsgd1na2vs0mg"},{"bike_id":"de08f367-3ba8-4ab1-ad17-0f6a6563b4e5","system_id":"levelo_inurba_marseille","lat":43.28191,"lon":5.39897,"is_reserved":false,"is_disabled":true,"rental_uris":{"android":"levelo://app?vid=de08f367-3ba8-4ab1-ad17-0f6a6563b4e5","ios":"levelo://app?vid=de08f367-3ba8-4ab1-ad17-0f6a6563b4e5"},"vehicle_type_id":"4","last_reported":1746637788,"current_range_meters":8000,"station_id":"","pricing_plan_id":"cebpf4jnsgd1na2vs0mg"},{"bike_id":"dce814c0-4c4e-4a20-a33b-97af480f0bcb","system_id":"levelo_inurba_marseille","lat":43.29036,"lon":5.42643,"is_reserved":false,"is_disabled":false,"rental_uris":{"android":"levelo://app?vid=dce814c0-4c4e-4a20-a33b-97af480f0bcb","ios":"levelo://app?vid=dce814c0-4c4e-4a20-a33b-97af480f0bcb"},"vehicle_type_id":"4","last_reported":1746637788,"current_range_meters":8000,"station_id":"","pricing_plan_id":"cebpf4jnsgd1na2vs0mg"},{"bike_id":"9c0135b6-7e6c-45e0-b875-d2c3d4f07c94","system_id":"levelo_inurba_marseille","lat":43.28702,"lon":5.39984,"is_reserved":false,"is_disabled":false,"rental_uris":{"android":"levelo://app?vid=9c0135b6-7e6c-45e0-b875-d2c3d4f07c94","ios":"levelo://app?vid=9c0135b6-7e6c-45e0-b875-d2c3d4f07c94"},"vehicle_type_id":"4","last_reported":1746637788,"current_range_meters":8000,"station_id":"ce4bho92rcd13ifvqh3g","pricing_plan_id":"cebpf4jnsgd1na2vs0mg"},{"bike_id":"3e1ca513-aa1b-4a6f-a747-9f51804048af","system_id":"levelo_inurba_marseille","lat":43.276162,"lon":5.361201,"is_reserved":false,"is_disabled":false,"rental_uris":{"android":"levelo://app?vid=3e1ca513-aa1b-4a6f-a747-9f51804048af","ios":"levelo://app?vid=3e1ca513-aa1b-4a6f-a747-9f51804048af"},"vehicle_type_id":"4","last_reported":1746637788,"current_range_meters":8000,"station_id":"ce4bgj92rcd13ifvqbe0","pricing_plan_id":"cebpf4jnsgd1na2vs0mg"},{"bike_id":"a62bff84-a6ef-478c-9395-4da9633c1a2e","system_id":"levelo_inurba_marseille","lat":43.29592,"lon":5.3811,"is_reserved":false,"is_disabled":false,"rental_uris":{"android":"levelo://app?vid=a62bff84-a6ef-478c-9395-4da9633c1a2e","ios":"levelo://app?vid=a62bff84-a6ef-478c-9395-4da9633c1a2e"},"vehicle_type_id":"4","last_reported":1746637788,"current_range_meters":8400,"station_id":"ce4bgl12rcd13ifvqbo0","pricing_plan_id":"cebpf4jnsgd1na2vs0mg"},{"bike_id":"d3107ed7-afdb-43c3-bab5-1af258429e5d","system_id":"levelo_inurba_marseille","lat":43.27175,"lon":5.40993,"is_reserved":false,"is_disabled":false,"rental_uris":{"android":"levelo://app?vid=d3107ed7-afdb-43c3-bab5-1af258429e5d","ios":"levelo://app?vid=d3107ed7-afdb-43c3-bab5-1af258429e5d"},"vehicle_type_id":"4","last_reported":1746637788,"current_range_meters":8400,"station_id":"ce4bhl12rcd13ifvqgf0","pricing_plan_id":"cebpf4jnsgd1na2vs0mg"},{"bike_id":"005cf747-9e2e-4496-af8d-47730663fb17","system_id":"levelo_inurba_marseille","lat":43.289311,"lon":5.384081,"is_reserved":false,"is_disabled":false,"rental_uris":{"android":"levelo://app?vid=005cf747-9e2e-4496-af8d-47730663fb17","ios":"levelo://app?vid=005cf747-9e2e-4496-af8d-47730663fb17"},"vehicle_type_id":"4","last_reported":1746637788,"current_range_meters":8400,"station_id":"ce4bh612rcd13ifvqe6g","pricing_plan_id":"cebpf4jnsgd1na2vs0mg"},{"bike_id":"c7741849-e541-44df-8dea-1d3f1b8cc5f0","system_id":"levelo_inurba_marseille","lat":43.33042,"lon":5.39031,"is_reserved":false,"is_disabled":false,"rental_uris":{"android":"levelo://app?vid=c7741849-e541-44df-8dea-1d3f1b8cc5f0","ios":"levelo://app?vid=c7741849-e541-44df-8dea-1d3f1b8cc5f0"},"vehicle_type_id":"4","last_reported":1746637788,"current_range_meters":8400,"station_id":"ce4bhr92rcd13ifvqhrg","pricing_plan_id":"cebpf4jnsgd1na2vs0mg"},{"bike_id":"c94ab757-9977-405b-861a-9448a037775f","system_id":"levelo_inurba_marseille","lat":43.2846,"lon":5.35896,"is_reserved":false,"is_disabled":false,"rental_uris":{"android":"levelo://app?vid=c94ab757-9977-405b-861a-9448a037775f","ios":"levelo://app?vid=c94ab757-9977-405b-861a-9448a037775f"},"vehicle_type_id":"4","last_reported":1746637788,"current_range_meters":8400,"station_id":"ce4bhah2rcd13ifvqei0","pricing_plan_id":"cebpf4jnsgd1na2vs0mg"},{"bike_id":"da0440ad-37f0-4cf7-ad3e-ab9259227be9","system_id":"levelo_inurba_marseille","lat":43.31995,"lon":5.38154,"is_reserved":false,"is_disabled":false,"rental_uris":{"android":"levelo://app?vid=da0440ad-37f0-4cf7-ad3e-ab9259227be9","ios":"levelo://app?vid=da0440ad-37f0-4cf7-ad3e-ab9259227be9"},"vehicle_type_id":"4","last_reported":1746637788,"current_range_meters":8800,"station_id":"ce4bhr12rcd13ifvqhpg","pricing_plan_id":"cebpf4jnsgd1na2vs0mg"},{"bike_id":"7b1e7063-a368-44ab-b528-86183adfdc0e","system_id":"levelo_inurba_marseille","lat":43.25575,"lon":5.38234,"is_reserved":false,"is_disabled":false,"rental_uris":{"android":"levelo://app?vid=7b1e7063-a368-44ab-b528-86183adfdc0e","ios":"levelo://app?vid=7b1e7063-a368-44ab-b528-86183adfdc0e"},"vehicle_type_id":"4","last_reported":1746637788,"current_range_meters":8800,"station_id":"ce4bhih2rcd13ifvqfs0","pricing_plan_id":"cebpf4jnsgd1na2vs0mg"},{"bike_id":"58fd925f-ad3e-4a26-997c-fed962d6e683","system_id":"levelo_inurba_marseille","lat":43.30124,"lon":5.38792,"is_reserved":false,"is_disabled":true,"rental_uris":{"android":"levelo://app?vid=58fd925f-ad3e-4a26-997c-fed962d6e683","ios":"levelo://app?vid=58fd925f-ad3e-4a26-997c-fed962d6e683"},"vehicle_type_id":"4","last_reported":1746637788,"current_range_meters":8800,"station_id":"ce4bghh2rcd13ifvqb60","pricing_plan_id":"cebpf4jnsgd1na2vs0mg"},{"bike_id":"dfd27e22-9b34-42f8-9fdf-f3a07c5bdce7","system_id":"levelo_inurba_marseille","lat":43.2417,"lon":5.36398,"is_reserved":false,"is_disabled":false,"rental_uris":{"android":"levelo://app?vid=dfd27e22-9b34-42f8-9fdf-f3a07c5bdce7","ios":"levelo://app?vid=dfd27e22-9b34-42f8-9fdf-f3a07c5bdce7"},"vehicle_type_id":"4","last_reported":1746637788,"current_range_meters":8800,"station_id":"cpo36qri1sfpv3e86is0","pricing_plan_id":"cebpf4jnsgd1na2vs0mg"},{"bike_id":"1b617b33-4bbe-49ab-862d-58bf6223d8e9","system_id":"levelo_inurba_marseille","lat":43.32642,"lon":5.42888,"is_reserved":false,"is_disabled":false,"rental_uris":{"android":"levelo://app?vid=1b617b33-4bbe-49ab-862d-58bf6223d8e9","ios":"levelo://app?vid=1b617b33-4bbe-49ab-862d-58bf6223d8e9"},"vehicle_type_id":"4","last_reported":1746637788,"current_range_meters":8800,"station_id":"","pricing_plan_id":"cebpf4jnsgd1na2vs0mg"},{"bike_id":"fa63a7e4-e781-4293-89ae-80fbf3b33863","system_id":"levelo_inurba_marseille","lat":43.25449,"lon":5.41872,"is_reserved":false,"is_disabled":false,"rental_uris":{"android":"levelo://app?vid=fa63a7e4-e781-4293-89ae-80fbf3b33863","ios":"levelo://app?vid=fa63a7e4-e781-4293-89ae-80fbf3b33863"},"vehicle_type_id":"4","last_reported":1746637788,"current_range_meters":9200,"station_id":"","pricing_plan_id":"cebpf4jnsgd1na2vs0mg"},{"bike_id":"3e92292e-6ae2-4e4f-a59b-c372f87c98ec","system_id":"levelo_inurba_marseille","lat":43.29523,"lon":5.39396,"is_reserved":false,"is_disabled":false,"rental_uris":{"android":"levelo://app?vid=3e92292e-6ae2-4e4f-a59b-c372f87c98ec","ios":"levelo://app?vid=3e92292e-6ae2-4e4f-a59b-c372f87c98ec"},"vehicle_type_id":"4","last_reported":1746637788,"current_range_meters":8800,"station_id":"ce4bh292rcd13ifvqdf0","pricing_plan_id":"cebpf4jnsgd1na2vs0mg"},{"bike_id":"e5bad9a5-c505-40bb-93a5-61875c2dbf24","system_id":"levelo_inurba_marseille","lat":43.28923,"lon":5.36618,"is_reserved":false,"is_disabled":false,"rental_uris":{"android":"levelo://app?vid=e5bad9a5-c505-40bb-93a5-61875c2dbf24","ios":"levelo://app?vid=e5bad9a5-c505-40bb-93a5-61875c2dbf24"},"vehicle_type_id":"4","last_reported":1746637788,"current_range_meters":9200,"station_id":"ce4bhap2rcd13ifvqek0","pricing_plan_id":"cebpf4jnsgd1na2vs0mg"},{"bike_id":"11a2a871-426c-46f9-bbb1-be3eaf07713c","system_id":"levelo_inurba_marseille","lat":43.292305,"lon":5.36061,"is_reserved":false,"is_disabled":false,"rental_uris":{"android":"levelo://app?vid=11a2a871-426c-46f9-bbb1-be3eaf07713c","ios":"levelo://app?vid=11a2a871-426c-46f9-bbb1-be3eaf07713c"},"vehicle_type_id":"4","last_reported":1746637788,"current_range_meters":9200,"station_id":"ce4bhbh2rcd13ifvqeqg","pricing_plan_id":"cebpf4jnsgd1na2vs0mg"},{"bike_id":"004a5701-820c-4cc6-8af0-bcadb335b152","system_id":"levelo_inurba_marseille","lat":43.27593,"lon":5.36127,"is_reserved":false,"is_disabled":false,"rental_uris":{"android":"levelo://app?vid=004a5701-820c-4cc6-8af0-bcadb335b152","ios":"levelo://app?vid=004a5701-820c-4cc6-8af0-bcadb335b152"},"vehicle_type_id":"4","last_reported":1746637788,"current_range_meters":9200,"station_id":"ce4bgj92rcd13ifvqbe0","pricing_plan_id":"cebpf4jnsgd1na2vs0mg"},{"bike_id":"dbaa9e5c-22e2-4388-9f55-c535045564df","system_id":"levelo_inurba_marseille","lat":43.26956,"lon":5.38637,"is_reserved":false,"is_disabled":false,"rental_uris":{"android":"levelo://app?vid=dbaa9e5c-22e2-4388-9f55-c535045564df","ios":"levelo://app?vid=dbaa9e5c-22e2-4388-9f55-c535045564df"},"vehicle_type_id":"4","last_reported":1746637788,"current_range_meters":9200,"station_id":"ce4bhh92rcd13ifvqfh0","pricing_plan_id":"cebpf4jnsgd1na2vs0mg"},{"bike_id":"6bcf732e-22e5-46fc-be15-1c21f72fef21","system_id":"levelo_inurba_marseille","lat":43.28617,"lon":5.35104,"is_reserved":false,"is_disabled":false,"rental_uris":{"android":"levelo://app?vid=6bcf732e-22e5-46fc-be15-1c21f72fef21","ios":"levelo://app?vid=6bcf732e-22e5-46fc-be15-1c21f72fef21"},"vehicle_type_id":"4","last_reported":1746637788,"current_range_meters":9200,"station_id":"ce4bhch2rcd13ifvqeug","pricing_plan_id":"cebpf4jnsgd1na2vs0mg"},{"bike_id":"b7bdbe3a-b7ec-4256-908f-dfa71835a5d1","system_id":"levelo_inurba_marseille","lat":43.28882,"lon":5.37136,"is_reserved":false,"is_disabled":false,"rental_uris":{"android":"levelo://app?vid=b7bdbe3a-b7ec-4256-908f-dfa71835a5d1","ios":"levelo://app?vid=b7bdbe3a-b7ec-4256-908f-dfa71835a5d1"},"vehicle_type_id":"4","last_reported":1746637788,"current_range_meters":9200,"station_id":"","pricing_plan_id":"cebpf4jnsgd1na2vs0mg"},{"bike_id":"296a54dc-c6b0-426e-9de3-c0bef763e108","system_id":"levelo_inurba_marseille","lat":43.28,"lon":5.40017,"is_reserved":false,"is_disabled":false,"rental_uris":{"android":"levelo://app?vid=296a54dc-c6b0-426e-9de3-c0bef763e108","ios":"levelo://app?vid=296a54dc-c6b0-426e-9de3-c0bef763e108"},"vehicle_type_id":"4","last_reported":1746637788,"current_range_meters":9200,"station_id":"ce4bho92rcd13ifvqh4g","pricing_plan_id":"cebpf4jnsgd1na2vs0mg"},{"bike_id":"7e1342cb-4746-4a1c-ba04-1d943ef9154d","system_id":"levelo_inurba_marseille","lat":43.27175,"lon":5.409927,"is_reserved":false,"is_disabled":false,"rental_uris":{"android":"levelo://app?vid=7e1342cb-4746-4a1c-ba04-1d943ef9154d","ios":"levelo://app?vid=7e1342cb-4746-4a1c-ba04-1d943ef9154d"},"vehicle_type_id":"4","last_reported":1746637788,"current_range_meters":8800,"station_id":"ce4bhl12rcd13ifvqgf0","pricing_plan_id":"cebpf4jnsgd1na2vs0mg"},{"bike_id":"0e6cfa89-712f-4de2-9058-4738b639a29a","system_id":"levelo_inurba_marseille","lat":43.31167,"lon":5.38727,"is_reserved":false,"is_disabled":false,"rental_uris":{"android":"levelo://app?vid=0e6cfa89-712f-4de2-9058-4738b639a29a","ios":"levelo://app?vid=0e6cfa89-712f-4de2-9058-4738b639a29a"},"vehicle_type_id":"4","last_reported":1746637788,"current_range_meters":9200,"station_id":"ce4bgv12rcd13ifvqcp0","pricing_plan_id":"cebpf4jnsgd1na2vs0mg"},{"bike_id":"3177bf6a-7b66-477f-a215-f953612cb061","system_id":"levelo_inurba_marseille","lat":43.29793,"lon":5.38098,"is_reserved":false,"is_disabled":false,"rental_uris":{"android":"levelo://app?vid=3177bf6a-7b66-477f-a215-f953612cb061","ios":"levelo://app?vid=3177bf6a-7b66-477f-a215-f953612cb061"},"vehicle_type_id":"4","last_reported":1746637788,"current_range_meters":9600,"station_id":"ce4bgip2rcd13ifvqbb0","pricing_plan_id":"cebpf4jnsgd1na2vs0mg"},{"bike_id":"b46833da-1a6f-40e2-b243-fce3648f1355","system_id":"levelo_inurba_marseille","lat":43.28615,"lon":5.351,"is_reserved":false,"is_disabled":false,"rental_uris":{"android":"levelo://app?vid=b46833da-1a6f-40e2-b243-fce3648f1355","ios":"levelo://app?vid=b46833da-1a6f-40e2-b243-fce3648f1355"},"vehicle_type_id":"4","last_reported":1746637788,"current_range_meters":9600,"station_id":"ce4bhch2rcd13ifvqeug","pricing_plan_id":"cebpf4jnsgd1na2vs0mg"},{"bike_id":"44cbfb87-c061-475a-8611-cc58080a287d","system_id":"levelo_inurba_marseille","lat":43.3003,"lon":5.38064,"is_reserved":false,"is_disabled":false,"rental_uris":{"android":"levelo://app?vid=44cbfb87-c061-475a-8611-cc58080a287d","ios":"levelo://app?vid=44cbfb87-c061-475a-8611-cc58080a287d"},"vehicle_type_id":"4","last_reported":1746637788,"current_range_meters":9600,"station_id":"","pricing_plan_id":"cebpf4jnsgd1na2vs0mg"},{"bike_id":"028c3799-fdb4-49d4-90e9-300404e8fc36","system_id":"levelo_inurba_marseille","lat":43.32498,"lon":5.36576,"is_reserved":false,"is_disabled":true,"rental_uris":{"android":"levelo://app?vid=028c3799-fdb4-49d4-90e9-300404e8fc36","ios":"levelo://app?vid=028c3799-fdb4-49d4-90e9-300404e8fc36"},"vehicle_type_id":"4","last_reported":1746637788,"current_range_meters":9600,"station_id":"ce4bhs12rcd13ifvqhvg","pricing_plan_id":"cebpf4jnsgd1na2vs0mg"},{"bike_id":"cdf9cfa6-07d6-42f2-a296-03985362c0e4","system_id":"levelo_inurba_marseille","lat":43.24079,"lon":5.37754,"is_reserved":false,"is_disabled":false,"rental_uris":{"android":"levelo://app?vid=cdf9cfa6-07d6-42f2-a296-03985362c0e4","ios":"levelo://app?vid=cdf9cfa6-07d6-42f2-a296-03985362c0e4"},"vehicle_type_id":"4","last_reported":1746637788,"current_range_meters":10000,"station_id":"ce4bhnp2rcd13ifvqgvg","pricing_plan_id":"cebpf4jnsgd1na2vs0mg"},{"bike_id":"d5815ae8-cf06-44f8-92c0-5e52a2b7f3b5","system_id":"levelo_inurba_marseille","lat":43.29524,"lon":5.38542,"is_reserved":false,"is_disabled":false,"rental_uris":{"android":"levelo://app?vid=d5815ae8-cf06-44f8-92c0-5e52a2b7f3b5","ios":"levelo://app?vid=d5815ae8-cf06-44f8-92c0-5e52a2b7f3b5"},"vehicle_type_id":"4","last_reported":1746637788,"current_range_meters":9600,"station_id":"ce4bgih2rcd13ifvqba0","pricing_plan_id":"cebpf4jnsgd1na2vs0mg"},{"bike_id":"f5af581d-5f8a-44f4-8a42-533e29b9c521","system_id":"levelo_inurba_marseille","lat":43.3028,"lon":5.39175,"is_reserved":false,"is_disabled":true,"rental_uris":{"android":"levelo://app?vid=f5af581d-5f8a-44f4-8a42-533e29b9c521","ios":"levelo://app?vid=f5af581d-5f8a-44f4-8a42-533e29b9c521"},"vehicle_type_id":"4","last_reported":1746637788,"current_range_meters":10000,"station_id":"ce4bgkh2rcd13ifvqbk0","pricing_plan_id":"cebpf4jnsgd1na2vs0mg"},{"bike_id":"45082317-7477-4476-8774-36dc2a137585","system_id":"levelo_inurba_marseille","lat":43.331603,"lon":5.381803,"is_reserved":false,"is_disabled":false,"rental_uris":{"android":"levelo://app?vid=45082317-7477-4476-8774-36dc2a137585","ios":"levelo://app?vid=45082317-7477-4476-8774-36dc2a137585"},"vehicle_type_id":"4","last_reported":1746637788,"current_range_meters":10000,"station_id":"","pricing_plan_id":"cebpf4jnsgd1na2vs0mg"},{"bike_id":"59038081-8aa0-4096-9cbd-3be3cdff2250","system_id":"levelo_inurba_marseille","lat":43.29415,"lon":5.38625,"is_reserved":false,"is_disabled":false,"rental_uris":{"android":"levelo://app?vid=59038081-8aa0-4096-9cbd-3be3cdff2250","ios":"levelo://app?vid=59038081-8aa0-4096-9cbd-3be3cdff2250"},"vehicle_type_id":"4","last_reported":1746637788,"current_range_meters":10000,"station_id":"ce4bh2h2rcd13ifvqdh0","pricing_plan_id":"cebpf4jnsgd1na2vs0mg"},{"bike_id":"89420609-8590-4e4d-9042-8fb0e02b5686","system_id":"levelo_inurba_marseille","lat":43.24183,"lon":5.36389,"is_reserved":false,"is_disabled":false,"rental_uris":{"android":"levelo://app?vid=89420609-8590-4e4d-9042-8fb0e02b5686","ios":"levelo://app?vid=89420609-8590-4e4d-9042-8fb0e02b5686"},"vehicle_type_id":"4","last_reported":1746637788,"current_range_meters":10000,"station_id":"cpo36qri1sfpv3e86is0","pricing_plan_id":"cebpf4jnsgd1na2vs0mg"},{"bike_id":"c650db92-e467-494a-8ffb-fba552729a60","system_id":"levelo_inurba_marseille","lat":43.23964,"lon":5.36638,"is_reserved":false,"is_disabled":false,"rental_uris":{"android":"levelo://app?vid=c650db92-e467-494a-8ffb-fba552729a60","ios":"levelo://app?vid=c650db92-e467-494a-8ffb-fba552729a60"},"vehicle_type_id":"4","last_reported":1746637788,"current_range_meters":10000,"station_id":"ce4bhi12rcd13ifvqfp0","pricing_plan_id":"cebpf4jnsgd1na2vs0mg"},{"bike_id":"b9222b66-d16d-48b0-a050-e23ddbaec045","system_id":"levelo_inurba_marseille","lat":43.2846,"lon":5.35889,"is_reserved":false,"is_disabled":false,"rental_uris":{"android":"levelo://app?vid=b9222b66-d16d-48b0-a050-e23ddbaec045","ios":"levelo://app?vid=b9222b66-d16d-48b0-a050-e23ddbaec045"},"vehicle_type_id":"4","last_reported":1746637788,"current_range_meters":10000,"station_id":"ce4bhah2rcd13ifvqei0","pricing_plan_id":"cebpf4jnsgd1na2vs0mg"},{"bike_id":"4b5f7432-6c9b-46ca-b2a4-2dd672d9580a","system_id":"levelo_inurba_marseille","lat":43.28265,"lon":5.35057,"is_reserved":false,"is_disabled":false,"rental_uris":{"android":"levelo://app?vid=4b5f7432-6c9b-46ca-b2a4-2dd672d9580a","ios":"levelo://app?vid=4b5f7432-6c9b-46ca-b2a4-2dd672d9580a"},"vehicle_type_id":"4","last_reported":1746637788,"current_range_meters":10000,"station_id":"ce4bhbp2rcd13ifvqerg","pricing_plan_id":"cebpf4jnsgd1na2vs0mg"},{"bike_id":"9f03b73f-9129-4ead-acd8-4a12312a73ac","system_id":"levelo_inurba_marseille","lat":43.27375,"lon":5.36262,"is_reserved":false,"is_disabled":false,"rental_uris":{"android":"levelo://app?vid=9f03b73f-9129-4ead-acd8-4a12312a73ac","ios":"levelo://app?vid=9f03b73f-9129-4ead-acd8-4a12312a73ac"},"vehicle_type_id":"4","last_reported":1746637788,"current_range_meters":10800,"station_id":"ce4bhbh2rcd13ifvqeo0","pricing_plan_id":"cebpf4jnsgd1na2vs0mg"},{"bike_id":"6b584f7a-1ae6-4175-a2c7-478cd505c3b7","system_id":"levelo_inurba_marseille","lat":43.289344,"lon":5.36641,"is_reserved":false,"is_disabled":false,"rental_uris":{"android":"levelo://app?vid=6b584f7a-1ae6-4175-a2c7-478cd505c3b7","ios":"levelo://app?vid=6b584f7a-1ae6-4175-a2c7-478cd505c3b7"},"vehicle_type_id":"4","last_reported":1746637788,"current_range_meters":10800,"station_id":"ce4bhap2rcd13ifvqek0","pricing_plan_id":"cebpf4jnsgd1na2vs0mg"},{"bike_id":"be7dd09f-110e-4c39-bb73-760d76245a75","system_id":"levelo_inurba_marseille","lat":43.29221,"lon":5.36084,"is_reserved":false,"is_disabled":false,"rental_uris":{"android":"levelo://app?vid=be7dd09f-110e-4c39-bb73-760d76245a75","ios":"levelo://app?vid=be7dd09f-110e-4c39-bb73-760d76245a75"},"vehicle_type_id":"4","last_reported":1746637788,"current_range_meters":10800,"station_id":"ce4bhbh2rcd13ifvqeqg","pricing_plan_id":"cebpf4jnsgd1na2vs0mg"},{"bike_id":"5fc22da5-b43f-433a-abd4-67d687ec2619","system_id":"levelo_inurba_marseille","lat":43.307831,"lon":5.376546,"is_reserved":false,"is_disabled":false,"rental_uris":{"android":"levelo://app?vid=5fc22da5-b43f-433a-abd4-67d687ec2619","ios":"levelo://app?vid=5fc22da5-b43f-433a-abd4-67d687ec2619"},"vehicle_type_id":"4","last_reported":1746637788,"current_range_meters":10000,"station_id":"ce4bgv92rcd13ifvqcq0","pricing_plan_id":"cebpf4jnsgd1na2vs0mg"},{"bike_id":"54795a32-bf97-4a1e-bf93-8206d688a95e","system_id":"levelo_inurba_marseille","lat":43.231968,"lon":5.35552,"is_reserved":false,"is_disabled":false,"rental_uris":{"android":"levelo://app?vid=54795a32-bf97-4a1e-bf93-8206d688a95e","ios":"levelo://app?vid=54795a32-bf97-4a1e-bf93-8206d688a95e"},"vehicle_type_id":"4","last_reported":1746637788,"current_range_meters":11200,"station_id":"ce4bhu92rcd13ifvqi70","pricing_plan_id":"cebpf4jnsgd1na2vs0mg"},{"bike_id":"3fd09810-fd9d-4ab2-9f7a-be92f45fd2a3","system_id":"levelo_inurba_marseille","lat":43.25086,"lon":5.3951,"is_reserved":false,"is_disabled":false,"rental_uris":{"android":"levelo://app?vid=3fd09810-fd9d-4ab2-9f7a-be92f45fd2a3","ios":"levelo://app?vid=3fd09810-fd9d-4ab2-9f7a-be92f45fd2a3"},"vehicle_type_id":"4","last_reported":1746637788,"current_range_meters":11200,"station_id":"ce4bhm12rcd13ifvqgkg","pricing_plan_id":"cebpf4jnsgd1na2vs0mg"},{"bike_id":"2b58f3f1-57ee-4bac-bb56-e07a23a9ced0","system_id":"levelo_inurba_marseille","lat":43.2707,"lon":5.42278,"is_reserved":false,"is_disabled":false,"rental_uris":{"android":"levelo://app?vid=2b58f3f1-57ee-4bac-bb56-e07a23a9ced0","ios":"levelo://app?vid=2b58f3f1-57ee-4bac-bb56-e07a23a9ced0"},"vehicle_type_id":"4","last_reported":1746637788,"current_range_meters":11200,"station_id":"ce4bhk92rcd13ifvqgb0","pricing_plan_id":"cebpf4jnsgd1na2vs0mg"},{"bike_id":"ed8cb453-2652-4a9a-abf3-256e566d1e14","system_id":"levelo_inurba_marseille","lat":43.23159,"lon":5.43704,"is_reserved":false,"is_disabled":false,"rental_uris":{"android":"levelo://app?vid=ed8cb453-2652-4a9a-abf3-256e566d1e14","ios":"levelo://app?vid=ed8cb453-2652-4a9a-abf3-256e566d1e14"},"vehicle_type_id":"4","last_reported":1746637788,"current_range_meters":11600,"station_id":"ce4bhmp2rcd13ifvqgog","pricing_plan_id":"cebpf4jnsgd1na2vs0mg"},{"bike_id":"df8167ff-afde-499e-90c1-72bb5b841301","system_id":"levelo_inurba_marseille","lat":43.229313,"lon":5.353743,"is_reserved":false,"is_disabled":false,"rental_uris":{"android":"levelo://app?vid=df8167ff-afde-499e-90c1-72bb5b841301","ios":"levelo://app?vid=df8167ff-afde-499e-90c1-72bb5b841301"},"vehicle_type_id":"4","last_reported":1746637788,"current_range_meters":11600,"station_id":"cpo3532slgdg3j2ikp40","pricing_plan_id":"cebpf4jnsgd1na2vs0mg"},{"bike_id":"29ec9148-f307-491a-b767-1b3cb9fb2f68","system_id":"levelo_inurba_marseille","lat":43.29028,"lon":5.3864,"is_reserved":false,"is_disabled":false,"rental_uris":{"android":"levelo://app?vid=29ec9148-f307-491a-b767-1b3cb9fb2f68","ios":"levelo://app?vid=29ec9148-f307-491a-b767-1b3cb9fb2f68"},"vehicle_type_id":"4","last_reported":1746637788,"current_range_meters":11600,"station_id":"ce4bh4p2rcd13ifvqe0g","pricing_plan_id":"cebpf4jnsgd1na2vs0mg"},{"bike_id":"06c31a0e-577f-421f-b2f9-7e71b76c76ba","system_id":"levelo_inurba_marseille","lat":43.29004,"lon":5.35615,"is_reserved":false,"is_disabled":false,"rental_uris":{"android":"levelo://app?vid=06c31a0e-577f-421f-b2f9-7e71b76c76ba","ios":"levelo://app?vid=06c31a0e-577f-421f-b2f9-7e71b76c76ba"},"vehicle_type_id":"4","last_reported":1746637788,"current_range_meters":11600,"station_id":"ce4bhb92rcd13ifvqen0","pricing_plan_id":"cebpf4jnsgd1na2vs0mg"},{"bike_id":"a96833c3-7aad-4769-953e-d8192a324355","system_id":"levelo_inurba_marseille","lat":43.337444,"lon":5.374475,"is_reserved":false,"is_disabled":false,"rental_uris":{"android":"levelo://app?vid=a96833c3-7aad-4769-953e-d8192a324355","ios":"levelo://app?vid=a96833c3-7aad-4769-953e-d8192a324355"},"vehicle_type_id":"4","last_reported":1746637788,"current_range_meters":11600,"station_id":"","pricing_plan_id":"cebpf4jnsgd1na2vs0mg"},{"bike_id":"46b0e227-7674-412b-b774-9a3fb1cedbdc","system_id":"levelo_inurba_marseille","lat":43.23198,"lon":5.35564,"is_reserved":false,"is_disabled":false,"rental_uris":{"android":"levelo://app?vid=46b0e227-7674-412b-b774-9a3fb1cedbdc","ios":"levelo://app?vid=46b0e227-7674-412b-b774-9a3fb1cedbdc"},"vehicle_type_id":"4","last_reported":1746637788,"current_range_meters":11200,"station_id":"ce4bhu92rcd13ifvqi70","pricing_plan_id":"cebpf4jnsgd1na2vs0mg"},{"bike_id":"da969974-22aa-46db-8410-739525a3b9a9","system_id":"levelo_inurba_marseille","lat":43.22955,"lon":5.35396,"is_reserved":false,"is_disabled":false,"rental_uris":{"android":"levelo://app?vid=da969974-22aa-46db-8410-739525a3b9a9","ios":"levelo://app?vid=da969974-22aa-46db-8410-739525a3b9a9"},"vehicle_type_id":"4","last_reported":1746637788,"current_range_meters":12000,"station_id":"cpo3532slgdg3j2ikp40","pricing_plan_id":"cebpf4jnsgd1na2vs0mg"},{"bike_id":"b15fe93b-1059-4d75-abd3-040e349ce402","system_id":"levelo_inurba_marseille","lat":43.29878,"lon":5.37495,"is_reserved":false,"is_disabled":false,"rental_uris":{"android":"levelo://app?vid=b15fe93b-1059-4d75-abd3-040e349ce402","ios":"levelo://app?vid=b15fe93b-1059-4d75-abd3-040e349ce402"},"vehicle_type_id":"4","last_reported":1746637788,"current_range_meters":12800,"station_id":"","pricing_plan_id":"cebpf4jnsgd1na2vs0mg"},{"bike_id":"ae11847b-8f43-4a39-9a60-c0db80a6b5f8","system_id":"levelo_inurba_marseille","lat":43.30093,"lon":5.39077,"is_reserved":false,"is_disabled":false,"rental_uris":{"android":"levelo://app?vid=ae11847b-8f43-4a39-9a60-c0db80a6b5f8","ios":"levelo://app?vid=ae11847b-8f43-4a39-9a60-c0db80a6b5f8"},"vehicle_type_id":"4","last_reported":1746637788,"current_range_meters":12000,"station_id":"ce4bh192rcd13ifvqdb0","pricing_plan_id":"cebpf4jnsgd1na2vs0mg"},{"bike_id":"cb804ca6-4e74-4d08-aea7-2b4aae9112aa","system_id":"levelo_inurba_marseille","lat":43.29978,"lon":5.37911,"is_reserved":false,"is_disabled":false,"rental_uris":{"android":"levelo://app?vid=cb804ca6-4e74-4d08-aea7-2b4aae9112aa","ios":"levelo://app?vid=cb804ca6-4e74-4d08-aea7-2b4aae9112aa"},"vehicle_type_id":"4","last_reported":1746637788,"current_range_meters":12800,"station_id":"","pricing_plan_id":"cebpf4jnsgd1na2vs0mg"},{"bike_id":"119ac560-77ba-4514-86fd-529e3a0f5327","system_id":"levelo_inurba_marseille","lat":43.24077,"lon":5.37761,"is_reserved":false,"is_disabled":false,"rental_uris":{"android":"levelo://app?vid=119ac560-77ba-4514-86fd-529e3a0f5327","ios":"levelo://app?vid=119ac560-77ba-4514-86fd-529e3a0f5327"},"vehicle_type_id":"4","last_reported":1746637788,"current_range_meters":12400,"station_id":"ce4bhnp2rcd13ifvqgvg","pricing_plan_id":"cebpf4jnsgd1na2vs0mg"},{"bike_id":"236d6d49-8435-4c00-b9e9-f02729218eca","system_id":"levelo_inurba_marseille","lat":43.2903,"lon":5.35621,"is_reserved":false,"is_disabled":false,"rental_uris":{"android":"levelo://app?vid=236d6d49-8435-4c00-b9e9-f02729218eca","ios":"levelo://app?vid=236d6d49-8435-4c00-b9e9-f02729218eca"},"vehicle_type_id":"4","last_reported":1746637788,"current_range_meters":13600,"station_id":"ce4bhb92rcd13ifvqen0","pricing_plan_id":"cebpf4jnsgd1na2vs0mg"},{"bike_id":"7a1fffd9-a963-4de2-ae7f-7f1bedc6316c","system_id":"levelo_inurba_marseille","lat":43.23966,"lon":5.36638,"is_reserved":false,"is_disabled":false,"rental_uris":{"android":"levelo://app?vid=7a1fffd9-a963-4de2-ae7f-7f1bedc6316c","ios":"levelo://app?vid=7a1fffd9-a963-4de2-ae7f-7f1bedc6316c"},"vehicle_type_id":"4","last_reported":1746637788,"current_range_meters":12800,"station_id":"ce4bhi12rcd13ifvqfp0","pricing_plan_id":"cebpf4jnsgd1na2vs0mg"},{"bike_id":"6f83fe26-c06e-48ac-9dd9-381e671a59d6","system_id":"levelo_inurba_marseille","lat":43.29565,"lon":5.37533,"is_reserved":false,"is_disabled":false,"rental_uris":{"android":"levelo://app?vid=6f83fe26-c06e-48ac-9dd9-381e671a59d6","ios":"levelo://app?vid=6f83fe26-c06e-48ac-9dd9-381e671a59d6"},"vehicle_type_id":"4","last_reported":1746637788,"current_range_meters":13600,"station_id":"ce4bgh92rcd13ifvqb50","pricing_plan_id":"cebpf4jnsgd1na2vs0mg"},{"bike_id":"d3ec78e8-e42b-41a1-a395-1356ffb521f7","system_id":"levelo_inurba_marseille","lat":43.29034,"lon":5.37557,"is_reserved":false,"is_disabled":false,"rental_uris":{"android":"levelo://app?vid=d3ec78e8-e42b-41a1-a395-1356ffb521f7","ios":"levelo://app?vid=d3ec78e8-e42b-41a1-a395-1356ffb521f7"},"vehicle_type_id":"4","last_reported":1746637788,"current_range_meters":12800,"station_id":"ce4bh692rcd13ifvqe90","pricing_plan_id":"cebpf4jnsgd1na2vs0mg"},{"bike_id":"cb5561fb-3ed2-49bf-bd58-7c8862116c78","system_id":"levelo_inurba_marseille","lat":43.21218,"lon":5.35056,"is_reserved":false,"is_disabled":false,"rental_uris":{"android":"levelo://app?vid=cb5561fb-3ed2-49bf-bd58-7c8862116c78","ios":"levelo://app?vid=cb5561fb-3ed2-49bf-bd58-7c8862116c78"},"vehicle_type_id":"4","last_reported":1746637788,"current_range_meters":14000,"station_id":"st_cvj6sg6p6f1abm77japg","pricing_plan_id":"cebpf4jnsgd1na2vs0mg"},{"bike_id":"a1224fbb-0872-43a3-8287-6b3e071c799c","system_id":"levelo_inurba_marseille","lat":43.281582,"lon":5.426476,"is_reserved":false,"is_disabled":false,"rental_uris":{"android":"levelo://app?vid=a1224fbb-0872-43a3-8287-6b3e071c799c","ios":"levelo://app?vid=a1224fbb-0872-43a3-8287-6b3e071c799c"},"vehicle_type_id":"4","last_reported":1746637788,"current_range_meters":14000,"station_id":"ce4bh4p2rcd13ifvqe0g","pricing_plan_id":"cebpf4jnsgd1na2vs0mg"},{"bike_id":"0d431720-712c-4e27-b60d-0ecc7d393dcb","system_id":"levelo_inurba_marseille","lat":43.29524,"lon":5.39396,"is_reserved":false,"is_disabled":false,"rental_uris":{"android":"levelo://app?vid=0d431720-712c-4e27-b60d-0ecc7d393dcb","ios":"levelo://app?vid=0d431720-712c-4e27-b60d-0ecc7d393dcb"},"vehicle_type_id":"4","last_reported":1746637788,"current_range_meters":14000,"station_id":"ce4bh292rcd13ifvqdf0","pricing_plan_id":"cebpf4jnsgd1na2vs0mg"},{"bike_id":"4992687b-d79a-47a0-a81f-6f801e6380a7","system_id":"levelo_inurba_marseille","lat":43.28641,"lon":5.35138,"is_reserved":false,"is_disabled":false,"rental_uris":{"android":"levelo://app?vid=4992687b-d79a-47a0-a81f-6f801e6380a7","ios":"levelo://app?vid=4992687b-d79a-47a0-a81f-6f801e6380a7"},"vehicle_type_id":"4","last_reported":1746637788,"current_range_meters":14000,"station_id":"ce4bhch2rcd13ifvqeug","pricing_plan_id":"cebpf4jnsgd1na2vs0mg"},{"bike_id":"86b7687b-fa11-4efb-ab36-2da822ebed76","system_id":"levelo_inurba_marseille","lat":43.27915,"lon":5.39583,"is_reserved":false,"is_disabled":false,"rental_uris":{"android":"levelo://app?vid=86b7687b-fa11-4efb-ab36-2da822ebed76","ios":"levelo://app?vid=86b7687b-fa11-4efb-ab36-2da822ebed76"},"vehicle_type_id":"4","last_reported":1746637788,"current_range_meters":14400,"station_id":"ce4bhf92rcd13ifvqf40","pricing_plan_id":"cebpf4jnsgd1na2vs0mg"},{"bike_id":"b98ee3ad-1f6a-418f-9dc6-5bf95bdce8c5","system_id":"levelo_inurba_marseille","lat":43.30428,"lon":5.38884,"is_reserved":false,"is_disabled":false,"rental_uris":{"android":"levelo://app?vid=b98ee3ad-1f6a-418f-9dc6-5bf95bdce8c5","ios":"levelo://app?vid=b98ee3ad-1f6a-418f-9dc6-5bf95bdce8c5"},"vehicle_type_id":"4","last_reported":1746637788,"current_range_meters":14000,"station_id":"ce4bgk12rcd13ifvqbi0","pricing_plan_id":"cebpf4jnsgd1na2vs0mg"},{"bike_id":"10bcfbc1-98f5-4e67-8b89-bbac8c293ecc","system_id":"levelo_inurba_marseille","lat":43.28156,"lon":5.42648,"is_reserved":false,"is_disabled":false,"rental_uris":{"android":"levelo://app?vid=10bcfbc1-98f5-4e67-8b89-bbac8c293ecc","ios":"levelo://app?vid=10bcfbc1-98f5-4e67-8b89-bbac8c293ecc"},"vehicle_type_id":"4","last_reported":1746637788,"current_range_meters":14000,"station_id":"ce4bhnh2rcd13ifvqgug","pricing_plan_id":"cebpf4jnsgd1na2vs0mg"},{"bike_id":"d45a9ef8-2349-466a-a885-2a78b922b183","system_id":"levelo_inurba_marseille","lat":43.30603,"lon":5.37219,"is_reserved":false,"is_disabled":false,"rental_uris":{"android":"levelo://app?vid=d45a9ef8-2349-466a-a885-2a78b922b183","ios":"levelo://app?vid=d45a9ef8-2349-466a-a885-2a78b922b183"},"vehicle_type_id":"4","last_reported":1746637788,"current_range_meters":14400,"station_id":"ce4bgqh2rcd13ifvqc4g","pricing_plan_id":"cebpf4jnsgd1na2vs0mg"},{"bike_id":"08386171-e0bf-4ee3-9747-f0da25cc74ff","system_id":"levelo_inurba_marseille","lat":43.2862,"lon":5.351045,"is_reserved":false,"is_disabled":false,"rental_uris":{"android":"levelo://app?vid=08386171-e0bf-4ee3-9747-f0da25cc74ff","ios":"levelo://app?vid=08386171-e0bf-4ee3-9747-f0da25cc74ff"},"vehicle_type_id":"4","last_reported":1746637788,"current_range_meters":14800,"station_id":"ce4bhch2rcd13ifvqeug","pricing_plan_id":"cebpf4jnsgd1na2vs0mg"},{"bike_id":"5156ff8d-3add-45e1-bdad-b8da1ab2bcfe","system_id":"levelo_inurba_marseille","lat":43.29222,"lon":5.36074,"is_reserved":false,"is_disabled":false,"rental_uris":{"android":"levelo://app?vid=5156ff8d-3add-45e1-bdad-b8da1ab2bcfe","ios":"levelo://app?vid=5156ff8d-3add-45e1-bdad-b8da1ab2bcfe"},"vehicle_type_id":"4","last_reported":1746637788,"current_range_meters":14400,"station_id":"ce4bhbh2rcd13ifvqeqg","pricing_plan_id":"cebpf4jnsgd1na2vs0mg"},{"bike_id":"28e40160-5164-4101-aa01-12fd9937d12b","system_id":"levelo_inurba_marseille","lat":43.290135,"lon":5.356037,"is_reserved":false,"is_disabled":false,"rental_uris":{"android":"levelo://app?vid=28e40160-5164-4101-aa01-12fd9937d12b","ios":"levelo://app?vid=28e40160-5164-4101-aa01-12fd9937d12b"},"vehicle_type_id":"4","last_reported":1746637788,"current_range_meters":14800,"station_id":"ce4bhb92rcd13ifvqen0","pricing_plan_id":"cebpf4jnsgd1na2vs0mg"},{"bike_id":"77c2302c-cd55-4d63-af72-417634890e85","system_id":"levelo_inurba_marseille","lat":43.27976,"lon":5.41662,"is_reserved":false,"is_disabled":false,"rental_uris":{"android":"levelo://app?vid=77c2302c-cd55-4d63-af72-417634890e85","ios":"levelo://app?vid=77c2302c-cd55-4d63-af72-417634890e85"},"vehicle_type_id":"4","last_reported":1746637788,"current_range_meters":14800,"station_id":"ce4bho12rcd13ifvqh1g","pricing_plan_id":"cebpf4jnsgd1na2vs0mg"},{"bike_id":"f3bd8c89-d06e-46a8-bf7a-0a80cfbef98d","system_id":"levelo_inurba_marseille","lat":43.29534,"lon":5.38537,"is_reserved":false,"is_disabled":false,"rental_uris":{"android":"levelo://app?vid=f3bd8c89-d06e-46a8-bf7a-0a80cfbef98d","ios":"levelo://app?vid=f3bd8c89-d06e-46a8-bf7a-0a80cfbef98d"},"vehicle_type_id":"4","last_reported":1746637788,"current_range_meters":14800,"station_id":"ce4bgih2rcd13ifvqba0","pricing_plan_id":"cebpf4jnsgd1na2vs0mg"},{"bike_id":"5e95a364-55ed-422b-8f3e-f7d4f023c415","system_id":"levelo_inurba_marseille","lat":43.32366,"lon":5.38886,"is_reserved":false,"is_disabled":false,"rental_uris":{"android":"levelo://app?vid=5e95a364-55ed-422b-8f3e-f7d4f023c415","ios":"levelo://app?vid=5e95a364-55ed-422b-8f3e-f7d4f023c415"},"vehicle_type_id":"4","last_reported":1746637788,"current_range_meters":15200,"station_id":"ce4bhqp2rcd13ifvqhog","pricing_plan_id":"cebpf4jnsgd1na2vs0mg"},{"bike_id":"9003585f-b9ba-456d-9f07-979ed51b250e","system_id":"levelo_inurba_marseille","lat":43.24072,"lon":5.37767,"is_reserved":false,"is_disabled":false,"rental_uris":{"android":"levelo://app?vid=9003585f-b9ba-456d-9f07-979ed51b250e","ios":"levelo://app?vid=9003585f-b9ba-456d-9f07-979ed51b250e"},"vehicle_type_id":"4","last_reported":1746637788,"current_range_meters":15200,"station_id":"ce4bhnp2rcd13ifvqgvg","pricing_plan_id":"cebpf4jnsgd1na2vs0mg"},{"bike_id":"3924e02d-582a-4a38-842b-3a365d07d7b1","system_id":"levelo_inurba_marseille","lat":43.323247,"lon":5.385878,"is_reserved":false,"is_disabled":false,"rental_uris":{"android":"levelo://app?vid=3924e02d-582a-4a38-842b-3a365d07d7b1","ios":"levelo://app?vid=3924e02d-582a-4a38-842b-3a365d07d7b1"},"vehicle_type_id":"4","last_reported":1746637788,"current_range_meters":15200,"station_id":"ce4bhqp2rcd13ifvqhog","pricing_plan_id":"cebpf4jnsgd1na2vs0mg"},{"bike_id":"41e16666-db9d-4f86-9453-68112822f95c","system_id":"levelo_inurba_marseille","lat":43.31708,"lon":5.4371,"is_reserved":false,"is_disabled":false,"rental_uris":{"android":"levelo://app?vid=41e16666-db9d-4f86-9453-68112822f95c","ios":"levelo://app?vid=41e16666-db9d-4f86-9453-68112822f95c"},"vehicle_type_id":"4","last_reported":1746637788,"current_range_meters":15200,"station_id":"ce4bhp92rcd13ifvqhcg","pricing_plan_id":"cebpf4jnsgd1na2vs0mg"},{"bike_id":"c9dfd4e7-0c03-4b66-a6ac-2c8303a17277","system_id":"levelo_inurba_marseille","lat":43.28558,"lon":5.39501,"is_reserved":false,"is_disabled":false,"rental_uris":{"android":"levelo://app?vid=c9dfd4e7-0c03-4b66-a6ac-2c8303a17277","ios":"levelo://app?vid=c9dfd4e7-0c03-4b66-a6ac-2c8303a17277"},"vehicle_type_id":"4","last_reported":1746637788,"current_range_meters":15200,"station_id":"ce4bh292rcd13ifvqdg0","pricing_plan_id":"cebpf4jnsgd1na2vs0mg"},{"bike_id":"b58d57e4-67dc-4a99-bbee-f7f86d444b46","system_id":"levelo_inurba_marseille","lat":43.29558,"lon":5.39998,"is_reserved":false,"is_disabled":false,"rental_uris":{"android":"levelo://app?vid=b58d57e4-67dc-4a99-bbee-f7f86d444b46","ios":"levelo://app?vid=b58d57e4-67dc-4a99-bbee-f7f86d444b46"},"vehicle_type_id":"4","last_reported":1746637788,"current_range_meters":14800,"station_id":"ce4bh312rcd13ifvqdj0","pricing_plan_id":"cebpf4jnsgd1na2vs0mg"},{"bike_id":"10554388-48f4-48c1-937e-7829c87ea57d","system_id":"levelo_inurba_marseille","lat":43.28021,"lon":5.36957,"is_reserved":false,"is_disabled":false,"rental_uris":{"android":"levelo://app?vid=10554388-48f4-48c1-937e-7829c87ea57d","ios":"levelo://app?vid=10554388-48f4-48c1-937e-7829c87ea57d"},"vehicle_type_id":"4","last_reported":1746637788,"current_range_meters":15200,"station_id":"ce4bha12rcd13ifvqef0","pricing_plan_id":"cebpf4jnsgd1na2vs0mg"},{"bike_id":"56314909-87ea-442e-a1e3-1a8a8c678af4","system_id":"levelo_inurba_marseille","lat":43.31329,"lon":5.3969,"is_reserved":false,"is_disabled":true,"rental_uris":{"android":"levelo://app?vid=56314909-87ea-442e-a1e3-1a8a8c678af4","ios":"levelo://app?vid=56314909-87ea-442e-a1e3-1a8a8c678af4"},"vehicle_type_id":"4","last_reported":1746637788,"current_range_meters":16000,"station_id":"ce4bgvp2rcd13ifvqcu0","pricing_plan_id":"cebpf4jnsgd1na2vs0mg"},{"bike_id":"e6282093-23fb-41a9-859d-c0d9ad966535","system_id":"levelo_inurba_marseille","lat":43.31777,"lon":5.378613,"is_reserved":false,"is_disabled":false,"rental_uris":{"android":"levelo://app?vid=e6282093-23fb-41a9-859d-c0d9ad966535","ios":"levelo://app?vid=e6282093-23fb-41a9-859d-c0d9ad966535"},"vehicle_type_id":"4","last_reported":1746637788,"current_range_meters":16000,"station_id":"","pricing_plan_id":"cebpf4jnsgd1na2vs0mg"},{"bike_id":"f1638bd9-844b-49f6-bff2-39b5c469a82d","system_id":"levelo_inurba_marseille","lat":43.291438,"lon":5.399838,"is_reserved":false,"is_disabled":false,"rental_uris":{"android":"levelo://app?vid=f1638bd9-844b-49f6-bff2-39b5c469a82d","ios":"levelo://app?vid=f1638bd9-844b-49f6-bff2-39b5c469a82d"},"vehicle_type_id":"4","last_reported":1746637788,"current_range_meters":16000,"station_id":"ce4bh492rcd13ifvqdug","pricing_plan_id":"cebpf4jnsgd1na2vs0mg"},{"bike_id":"ea96f9dd-65bd-4fcc-a36b-4f54ca5cea80","system_id":"levelo_inurba_marseille","lat":43.27811,"lon":5.40713,"is_reserved":false,"is_disabled":false,"rental_uris":{"android":"levelo://app?vid=ea96f9dd-65bd-4fcc-a36b-4f54ca5cea80","ios":"levelo://app?vid=ea96f9dd-65bd-4fcc-a36b-4f54ca5cea80"},"vehicle_type_id":"4","last_reported":1746637788,"current_range_meters":16000,"station_id":"ce4bhnh2rcd13ifvqgtg","pricing_plan_id":"cebpf4jnsgd1na2vs0mg"},{"bike_id":"8c7a5d3c-aff7-4d19-b9a3-62792632ec80","system_id":"levelo_inurba_marseille","lat":43.29416,"lon":5.38626,"is_reserved":false,"is_disabled":false,"rental_uris":{"android":"levelo://app?vid=8c7a5d3c-aff7-4d19-b9a3-62792632ec80","ios":"levelo://app?vid=8c7a5d3c-aff7-4d19-b9a3-62792632ec80"},"vehicle_type_id":"4","last_reported":1746637788,"current_range_meters":16000,"station_id":"ce4bh2h2rcd13ifvqdh0","pricing_plan_id":"cebpf4jnsgd1na2vs0mg"},{"bike_id":"809c8673-c032-46b9-aa07-62c38e26d44e","system_id":"levelo_inurba_marseille","lat":43.24998,"lon":5.3877,"is_reserved":false,"is_disabled":false,"rental_uris":{"android":"levelo://app?vid=809c8673-c032-46b9-aa07-62c38e26d44e","ios":"levelo://app?vid=809c8673-c032-46b9-aa07-62c38e26d44e"},"vehicle_type_id":"4","last_reported":1746637788,"current_range_meters":16400,"station_id":"","pricing_plan_id":"cebpf4jnsgd1na2vs0mg"},{"bike_id":"91149443-e599-49d0-8e2b-34a031d50be5","system_id":"levelo_inurba_marseille","lat":43.33024,"lon":5.39037,"is_reserved":false,"is_disabled":false,"rental_uris":{"android":"levelo://app?vid=91149443-e599-49d0-8e2b-34a031d50be5","ios":"levelo://app?vid=91149443-e599-49d0-8e2b-34a031d50be5"},"vehicle_type_id":"4","last_reported":1746637788,"current_range_meters":16400,"station_id":"ce4bhr92rcd13ifvqhrg","pricing_plan_id":"cebpf4jnsgd1na2vs0mg"},{"bike_id":"4aae8f2e-5422-4b0e-be12-8def74dd8bcf","system_id":"levelo_inurba_marseille","lat":43.330256,"lon":5.390525,"is_reserved":false,"is_disabled":false,"rental_uris":{"android":"levelo://app?vid=4aae8f2e-5422-4b0e-be12-8def74dd8bcf","ios":"levelo://app?vid=4aae8f2e-5422-4b0e-be12-8def74dd8bcf"},"vehicle_type_id":"4","last_reported":1746637788,"current_range_meters":16400,"station_id":"ce4bhr92rcd13ifvqhrg","pricing_plan_id":"cebpf4jnsgd1na2vs0mg"},{"bike_id":"e945a495-d359-4bb7-bb94-1340aff95955","system_id":"levelo_inurba_marseille","lat":43.28103,"lon":5.40632,"is_reserved":false,"is_disabled":false,"rental_uris":{"android":"levelo://app?vid=e945a495-d359-4bb7-bb94-1340aff95955","ios":"levelo://app?vid=e945a495-d359-4bb7-bb94-1340aff95955"},"vehicle_type_id":"4","last_reported":1746637788,"current_range_meters":16400,"station_id":"","pricing_plan_id":"cebpf4jnsgd1na2vs0mg"},{"bike_id":"a03c317b-da49-4ed4-b7a2-b0a81f98cd25","system_id":"levelo_inurba_marseille","lat":43.29273,"lon":5.40115,"is_reserved":false,"is_disabled":false,"rental_uris":{"android":"levelo://app?vid=a03c317b-da49-4ed4-b7a2-b0a81f98cd25","ios":"levelo://app?vid=a03c317b-da49-4ed4-b7a2-b0a81f98cd25"},"vehicle_type_id":"4","last_reported":1746637788,"current_range_meters":16400,"station_id":"ce4bh312rcd13ifvqdk0","pricing_plan_id":"cebpf4jnsgd1na2vs0mg"},{"bike_id":"dd568fe3-b787-4845-a1e4-0ca3d718f6b7","system_id":"levelo_inurba_marseille","lat":43.23165,"lon":5.39978,"is_reserved":false,"is_disabled":false,"rental_uris":{"android":"levelo://app?vid=dd568fe3-b787-4845-a1e4-0ca3d718f6b7","ios":"levelo://app?vid=dd568fe3-b787-4845-a1e4-0ca3d718f6b7"},"vehicle_type_id":"4","last_reported":1746637788,"current_range_meters":16000,"station_id":"ce4bhn12rcd13ifvqgqg","pricing_plan_id":"cebpf4jnsgd1na2vs0mg"},{"bike_id":"47cf1de7-b7ca-47f5-bfab-8d7945ca83b0","system_id":"levelo_inurba_marseille","lat":43.29875,"lon":5.38906,"is_reserved":false,"is_disabled":false,"rental_uris":{"android":"levelo://app?vid=47cf1de7-b7ca-47f5-bfab-8d7945ca83b0","ios":"levelo://app?vid=47cf1de7-b7ca-47f5-bfab-8d7945ca83b0"},"vehicle_type_id":"4","last_reported":1746637788,"current_range_meters":16400,"station_id":"ce4bh392rcd13ifvqdl0","pricing_plan_id":"cebpf4jnsgd1na2vs0mg"},{"bike_id":"fab13133-fd4b-4b24-9f09-601bba2d5e3f","system_id":"levelo_inurba_marseille","lat":43.2512,"lon":5.40325,"is_reserved":false,"is_disabled":false,"rental_uris":{"android":"levelo://app?vid=fab13133-fd4b-4b24-9f09-601bba2d5e3f","ios":"levelo://app?vid=fab13133-fd4b-4b24-9f09-601bba2d5e3f"},"vehicle_type_id":"4","last_reported":1746637788,"current_range_meters":16400,"station_id":"ce4bhlh2rcd13ifvqgig","pricing_plan_id":"cebpf4jnsgd1na2vs0mg"},{"bike_id":"a3ccc0ec-a689-4bf9-8c42-1507e29f1ecd","system_id":"levelo_inurba_marseille","lat":43.29525,"lon":5.420462,"is_reserved":false,"is_disabled":false,"rental_uris":{"android":"levelo://app?vid=a3ccc0ec-a689-4bf9-8c42-1507e29f1ecd","ios":"levelo://app?vid=a3ccc0ec-a689-4bf9-8c42-1507e29f1ecd"},"vehicle_type_id":"4","last_reported":1746637788,"current_range_meters":16800,"station_id":"ce4bhpp2rcd13ifvqhfg","pricing_plan_id":"cebpf4jnsgd1na2vs0mg"},{"bike_id":"30a6b49a-531e-45e5-8542-6b8024d70ff0","system_id":"levelo_inurba_marseille","lat":43.27807,"lon":5.40714,"is_reserved":false,"is_disabled":false,"rental_uris":{"android":"levelo://app?vid=30a6b49a-531e-45e5-8542-6b8024d70ff0","ios":"levelo://app?vid=30a6b49a-531e-45e5-8542-6b8024d70ff0"},"vehicle_type_id":"4","last_reported":1746637788,"current_range_meters":16800,"station_id":"ce4bhnh2rcd13ifvqgtg","pricing_plan_id":"cebpf4jnsgd1na2vs0mg"},{"bike_id":"3cf2ec27-f7b8-4e23-8492-0e23be5e930a","system_id":"levelo_inurba_marseille","lat":43.289734,"lon":5.378394,"is_reserved":false,"is_disabled":true,"rental_uris":{"android":"levelo://app?vid=3cf2ec27-f7b8-4e23-8492-0e23be5e930a","ios":"levelo://app?vid=3cf2ec27-f7b8-4e23-8492-0e23be5e930a"},"vehicle_type_id":"4","last_reported":1746637788,"current_range_meters":16800,"station_id":"ce4bh9p2rcd13ifvqed0","pricing_plan_id":"cebpf4jnsgd1na2vs0mg"},{"bike_id":"2ba96f85-d3eb-471f-a3b8-d3bc545fbdef","system_id":"levelo_inurba_marseille","lat":43.28465,"lon":5.35891,"is_reserved":false,"is_disabled":false,"rental_uris":{"android":"levelo://app?vid=2ba96f85-d3eb-471f-a3b8-d3bc545fbdef","ios":"levelo://app?vid=2ba96f85-d3eb-471f-a3b8-d3bc545fbdef"},"vehicle_type_id":"4","last_reported":1746637788,"current_range_meters":16800,"station_id":"ce4bhah2rcd13ifvqei0","pricing_plan_id":"cebpf4jnsgd1na2vs0mg"},{"bike_id":"2ed327f6-8175-4783-a942-a15e7df3127f","system_id":"levelo_inurba_marseille","lat":43.31776,"lon":5.39026,"is_reserved":false,"is_disabled":true,"rental_uris":{"android":"levelo://app?vid=2ed327f6-8175-4783-a942-a15e7df3127f","ios":"levelo://app?vid=2ed327f6-8175-4783-a942-a15e7df3127f"},"vehicle_type_id":"4","last_reported":1746637788,"current_range_meters":16800,"station_id":"ce4bhqp2rcd13ifvqhng","pricing_plan_id":"cebpf4jnsgd1na2vs0mg"},{"bike_id":"7219a7ea-2f94-4bbc-9ad7-260d3fefe17a","system_id":"levelo_inurba_marseille","lat":43.27072,"lon":5.42276,"is_reserved":false,"is_disabled":false,"rental_uris":{"android":"levelo://app?vid=7219a7ea-2f94-4bbc-9ad7-260d3fefe17a","ios":"levelo://app?vid=7219a7ea-2f94-4bbc-9ad7-260d3fefe17a"},"vehicle_type_id":"4","last_reported":1746637788,"current_range_meters":17200,"station_id":"ce4bhk92rcd13ifvqgb0","pricing_plan_id":"cebpf4jnsgd1na2vs0mg"},{"bike_id":"824c36ac-0bbf-4636-926e-ecb42e7fc91b","system_id":"levelo_inurba_marseille","lat":43.29603,"lon":5.38098,"is_reserved":false,"is_disabled":false,"rental_uris":{"android":"levelo://app?vid=824c36ac-0bbf-4636-926e-ecb42e7fc91b","ios":"levelo://app?vid=824c36ac-0bbf-4636-926e-ecb42e7fc91b"},"vehicle_type_id":"4","last_reported":1746637788,"current_range_meters":17200,"station_id":"ce4bgl12rcd13ifvqbo0","pricing_plan_id":"cebpf4jnsgd1na2vs0mg"},{"bike_id":"afdf4485-9abb-4f08-ad66-4b0dcc7f2236","system_id":"levelo_inurba_marseille","lat":43.27842,"lon":5.39232,"is_reserved":false,"is_disabled":false,"rental_uris":{"android":"levelo://app?vid=afdf4485-9abb-4f08-ad66-4b0dcc7f2236","ios":"levelo://app?vid=afdf4485-9abb-4f08-ad66-4b0dcc7f2236"},"vehicle_type_id":"4","last_reported":1746637788,"current_range_meters":17200,"station_id":"ce4bhjp2rcd13ifvqga0","pricing_plan_id":"cebpf4jnsgd1na2vs0mg"},{"bike_id":"dc60a8e2-8f55-437f-b0c8-b427f1729ca7","system_id":"levelo_inurba_marseille","lat":43.3118,"lon":5.38711,"is_reserved":false,"is_disabled":false,"rental_uris":{"android":"levelo://app?vid=dc60a8e2-8f55-437f-b0c8-b427f1729ca7","ios":"levelo://app?vid=dc60a8e2-8f55-437f-b0c8-b427f1729ca7"},"vehicle_type_id":"4","last_reported":1746637788,"current_range_meters":17200,"station_id":"ce4bgv12rcd13ifvqcp0","pricing_plan_id":"cebpf4jnsgd1na2vs0mg"},{"bike_id":"179e39d6-f393-46e0-b36a-f5293148431d","system_id":"levelo_inurba_marseille","lat":43.32475,"lon":5.36587,"is_reserved":false,"is_disabled":true,"rental_uris":{"android":"levelo://app?vid=179e39d6-f393-46e0-b36a-f5293148431d","ios":"levelo://app?vid=179e39d6-f393-46e0-b36a-f5293148431d"},"vehicle_type_id":"4","last_reported":1746637788,"current_range_meters":17200,"station_id":"ce4bhs12rcd13ifvqhvg","pricing_plan_id":"cebpf4jnsgd1na2vs0mg"},{"bike_id":"901b2edb-75f6-44fa-bfb5-4b822fe629dd","system_id":"levelo_inurba_marseille","lat":43.29272,"lon":5.36849,"is_reserved":false,"is_disabled":false,"rental_uris":{"android":"levelo://app?vid=901b2edb-75f6-44fa-bfb5-4b822fe629dd","ios":"levelo://app?vid=901b2edb-75f6-44fa-bfb5-4b822fe629dd"},"vehicle_type_id":"4","last_reported":1746637788,"current_range_meters":17200,"station_id":"ce4bhbp2rcd13ifvqesg","pricing_plan_id":"cebpf4jnsgd1na2vs0mg"},{"bike_id":"05056ce4-893d-4969-8909-c8ebec9755ee","system_id":"levelo_inurba_marseille","lat":43.31181,"lon":5.38706,"is_reserved":false,"is_disabled":false,"rental_uris":{"android":"levelo://app?vid=05056ce4-893d-4969-8909-c8ebec9755ee","ios":"levelo://app?vid=05056ce4-893d-4969-8909-c8ebec9755ee"},"vehicle_type_id":"4","last_reported":1746637788,"current_range_meters":17600,"station_id":"ce4bgv12rcd13ifvqcp0","pricing_plan_id":"cebpf4jnsgd1na2vs0mg"},{"bike_id":"58d5d418-c37f-4e7d-9359-430e4be35953","system_id":"levelo_inurba_marseille","lat":43.27072,"lon":5.42281,"is_reserved":false,"is_disabled":false,"rental_uris":{"android":"levelo://app?vid=58d5d418-c37f-4e7d-9359-430e4be35953","ios":"levelo://app?vid=58d5d418-c37f-4e7d-9359-430e4be35953"},"vehicle_type_id":"4","last_reported":1746637788,"current_range_meters":17600,"station_id":"ce4bhk92rcd13ifvqgb0","pricing_plan_id":"cebpf4jnsgd1na2vs0mg"},{"bike_id":"3df13a3f-718e-4bed-bcd0-5470f434b3a6","system_id":"levelo_inurba_marseille","lat":43.28443,"lon":5.392,"is_reserved":false,"is_disabled":false,"rental_uris":{"android":"levelo://app?vid=3df13a3f-718e-4bed-bcd0-5470f434b3a6","ios":"levelo://app?vid=3df13a3f-718e-4bed-bcd0-5470f434b3a6"},"vehicle_type_id":"4","last_reported":1746637788,"current_range_meters":17600,"station_id":"ce4bhoh2rcd13ifvqh5g","pricing_plan_id":"cebpf4jnsgd1na2vs0mg"},{"bike_id":"2939e4aa-7148-4e7d-88e1-fa804b56dd45","system_id":"levelo_inurba_marseille","lat":43.28459,"lon":5.35888,"is_reserved":false,"is_disabled":false,"rental_uris":{"android":"levelo://app?vid=2939e4aa-7148-4e7d-88e1-fa804b56dd45","ios":"levelo://app?vid=2939e4aa-7148-4e7d-88e1-fa804b56dd45"},"vehicle_type_id":"4","last_reported":1746637788,"current_range_meters":17600,"station_id":"ce4bhah2rcd13ifvqei0","pricing_plan_id":"cebpf4jnsgd1na2vs0mg"},{"bike_id":"8bdf87bd-c91b-4644-9046-7072259f9131","system_id":"levelo_inurba_marseille","lat":43.31471,"lon":5.36704,"is_reserved":false,"is_disabled":false,"rental_uris":{"android":"levelo://app?vid=8bdf87bd-c91b-4644-9046-7072259f9131","ios":"levelo://app?vid=8bdf87bd-c91b-4644-9046-7072259f9131"},"vehicle_type_id":"4","last_reported":1746637788,"current_range_meters":17600,"station_id":"","pricing_plan_id":"cebpf4jnsgd1na2vs0mg"},{"bike_id":"1d9e979d-7de6-43df-a4e5-bc505b58b830","system_id":"levelo_inurba_marseille","lat":43.2918,"lon":5.37153,"is_reserved":false,"is_disabled":false,"rental_uris":{"android":"levelo://app?vid=1d9e979d-7de6-43df-a4e5-bc505b58b830","ios":"levelo://app?vid=1d9e979d-7de6-43df-a4e5-bc505b58b830"},"vehicle_type_id":"4","last_reported":1746637788,"current_range_meters":18000,"station_id":"ce4bha92rcd13ifvqeh0","pricing_plan_id":"cebpf4jnsgd1na2vs0mg"},{"bike_id":"3af58959-28e9-44a5-8926-24a7340afb03","system_id":"levelo_inurba_marseille","lat":43.29574,"lon":5.39965,"is_reserved":false,"is_disabled":false,"rental_uris":{"android":"levelo://app?vid=3af58959-28e9-44a5-8926-24a7340afb03","ios":"levelo://app?vid=3af58959-28e9-44a5-8926-24a7340afb03"},"vehicle_type_id":"4","last_reported":1746637788,"current_range_meters":18000,"station_id":"ce4bh312rcd13ifvqdj0","pricing_plan_id":"cebpf4jnsgd1na2vs0mg"},{"bike_id":"89f953df-2061-408d-8f0d-6a2938e5443a","system_id":"levelo_inurba_marseille","lat":43.23663,"lon":5.40331,"is_reserved":false,"is_disabled":false,"rental_uris":{"android":"levelo://app?vid=89f953df-2061-408d-8f0d-6a2938e5443a","ios":"levelo://app?vid=89f953df-2061-408d-8f0d-6a2938e5443a"},"vehicle_type_id":"4","last_reported":1746637788,"current_range_meters":18000,"station_id":"","pricing_plan_id":"cebpf4jnsgd1na2vs0mg"},{"bike_id":"9ccfce6f-5e22-46be-9b4a-17d6ea1a6ea2","system_id":"levelo_inurba_marseille","lat":43.26943,"lon":5.40252,"is_reserved":false,"is_disabled":false,"rental_uris":{"android":"levelo://app?vid=9ccfce6f-5e22-46be-9b4a-17d6ea1a6ea2","ios":"levelo://app?vid=9ccfce6f-5e22-46be-9b4a-17d6ea1a6ea2"},"vehicle_type_id":"4","last_reported":1746637788,"current_range_meters":18000,"station_id":"cjm6bp8fraef2m0cb0m0","pricing_plan_id":"cebpf4jnsgd1na2vs0mg"},{"bike_id":"392924fa-a65f-4257-af70-6eb851fc85f0","system_id":"levelo_inurba_marseille","lat":43.25125,"lon":5.40312,"is_reserved":false,"is_disabled":false,"rental_uris":{"android":"levelo://app?vid=392924fa-a65f-4257-af70-6eb851fc85f0","ios":"levelo://app?vid=392924fa-a65f-4257-af70-6eb851fc85f0"},"vehicle_type_id":"4","last_reported":1746637788,"current_range_meters":18000,"station_id":"ce4bhlh2rcd13ifvqgig","pricing_plan_id":"cebpf4jnsgd1na2vs0mg"},{"bike_id":"827bb395-ef38-48eb-82a6-82745a5b064c","system_id":"levelo_inurba_marseille","lat":43.31346,"lon":5.397198,"is_reserved":false,"is_disabled":true,"rental_uris":{"android":"levelo://app?vid=827bb395-ef38-48eb-82a6-82745a5b064c","ios":"levelo://app?vid=827bb395-ef38-48eb-82a6-82745a5b064c"},"vehicle_type_id":"4","last_reported":1746637788,"current_range_meters":18000,"station_id":"ce4bgvp2rcd13ifvqcu0","pricing_plan_id":"cebpf4jnsgd1na2vs0mg"},{"bike_id":"7cb8b133-ac0a-498e-99aa-4e792645ad68","system_id":"levelo_inurba_marseille","lat":43.27176,"lon":5.4099,"is_reserved":false,"is_disabled":false,"rental_uris":{"android":"levelo://app?vid=7cb8b133-ac0a-498e-99aa-4e792645ad68","ios":"levelo://app?vid=7cb8b133-ac0a-498e-99aa-4e792645ad68"},"vehicle_type_id":"4","last_reported":1746637788,"current_range_meters":18000,"station_id":"ce4bhl12rcd13ifvqgf0","pricing_plan_id":"cebpf4jnsgd1na2vs0mg"},{"bike_id":"f6ffea66-b50c-4e70-8ec4-56617b8d4fa3","system_id":"levelo_inurba_marseille","lat":43.24548,"lon":5.39514,"is_reserved":false,"is_disabled":false,"rental_uris":{"android":"levelo://app?vid=f6ffea66-b50c-4e70-8ec4-56617b8d4fa3","ios":"levelo://app?vid=f6ffea66-b50c-4e70-8ec4-56617b8d4fa3"},"vehicle_type_id":"4","last_reported":1746637788,"current_range_meters":18000,"station_id":"ce4bhlp2rcd13ifvqgjg","pricing_plan_id":"cebpf4jnsgd1na2vs0mg"},{"bike_id":"d97a7468-21ea-4f6d-a4ff-ac6517a9da33","system_id":"levelo_inurba_marseille","lat":43.286133,"lon":5.351078,"is_reserved":false,"is_disabled":false,"rental_uris":{"android":"levelo://app?vid=d97a7468-21ea-4f6d-a4ff-ac6517a9da33","ios":"levelo://app?vid=d97a7468-21ea-4f6d-a4ff-ac6517a9da33"},"vehicle_type_id":"4","last_reported":1746637788,"current_range_meters":18800,"station_id":"ce4bhch2rcd13ifvqeug","pricing_plan_id":"cebpf4jnsgd1na2vs0mg"},{"bike_id":"7cb84a55-eae0-4ff8-a8e8-801fd7179396","system_id":"levelo_inurba_marseille","lat":43.30632,"lon":5.37427,"is_reserved":false,"is_disabled":false,"rental_uris":{"android":"levelo://app?vid=7cb84a55-eae0-4ff8-a8e8-801fd7179396","ios":"levelo://app?vid=7cb84a55-eae0-4ff8-a8e8-801fd7179396"},"vehicle_type_id":"4","last_reported":1746637788,"current_range_meters":18800,"station_id":"","pricing_plan_id":"cebpf4jnsgd1na2vs0mg"},{"bike_id":"a0e5e89e-afa1-4028-8378-ea0a2bb3a388","system_id":"levelo_inurba_marseille","lat":43.26952,"lon":5.38639,"is_reserved":false,"is_disabled":false,"rental_uris":{"android":"levelo://app?vid=a0e5e89e-afa1-4028-8378-ea0a2bb3a388","ios":"levelo://app?vid=a0e5e89e-afa1-4028-8378-ea0a2bb3a388"},"vehicle_type_id":"4","last_reported":1746637788,"current_range_meters":18800,"station_id":"ce4bhh92rcd13ifvqfh0","pricing_plan_id":"cebpf4jnsgd1na2vs0mg"},{"bike_id":"b0f34954-8577-4934-b712-0dc4150fa997","system_id":"levelo_inurba_marseille","lat":43.289291,"lon":5.366483,"is_reserved":false,"is_disabled":false,"rental_uris":{"android":"levelo://app?vid=b0f34954-8577-4934-b712-0dc4150fa997","ios":"levelo://app?vid=b0f34954-8577-4934-b712-0dc4150fa997"},"vehicle_type_id":"4","last_reported":1746637788,"current_range_meters":18800,"station_id":"ce4bhap2rcd13ifvqek0","pricing_plan_id":"cebpf4jnsgd1na2vs0mg"},{"bike_id":"c21f4712-14bb-47ac-a3e2-4ef2579d640d","system_id":"levelo_inurba_marseille","lat":43.27802,"lon":5.40708,"is_reserved":false,"is_disabled":false,"rental_uris":{"android":"levelo://app?vid=c21f4712-14bb-47ac-a3e2-4ef2579d640d","ios":"levelo://app?vid=c21f4712-14bb-47ac-a3e2-4ef2579d640d"},"vehicle_type_id":"4","last_reported":1746637788,"current_range_meters":19200,"station_id":"ce4bhnh2rcd13ifvqgtg","pricing_plan_id":"cebpf4jnsgd1na2vs0mg"},{"bike_id":"6c990ab7-1787-46fb-bf99-030755abaccf","system_id":"levelo_inurba_marseille","lat":43.272039,"lon":5.392036,"is_reserved":false,"is_disabled":true,"rental_uris":{"android":"levelo://app?vid=6c990ab7-1787-46fb-bf99-030755abaccf","ios":"levelo://app?vid=6c990ab7-1787-46fb-bf99-030755abaccf"},"vehicle_type_id":"4","last_reported":1746637788,"current_range_meters":19200,"station_id":"ce4bhhp2rcd13ifvqfm0","pricing_plan_id":"cebpf4jnsgd1na2vs0mg"},{"bike_id":"e95640c4-ff4f-475e-aab2-427d89755469","system_id":"levelo_inurba_marseille","lat":43.30141,"lon":5.38769,"is_reserved":false,"is_disabled":false,"rental_uris":{"android":"levelo://app?vid=e95640c4-ff4f-475e-aab2-427d89755469","ios":"levelo://app?vid=e95640c4-ff4f-475e-aab2-427d89755469"},"vehicle_type_id":"4","last_reported":1746637788,"current_range_meters":19200,"station_id":"ce4bghh2rcd13ifvqb60","pricing_plan_id":"cebpf4jnsgd1na2vs0mg"},{"bike_id":"65eeecaf-e31c-4dcd-9e3b-c0cd03243e59","system_id":"levelo_inurba_marseille","lat":43.313612,"lon":5.384935,"is_reserved":false,"is_disabled":false,"rental_uris":{"android":"levelo://app?vid=65eeecaf-e31c-4dcd-9e3b-c0cd03243e59","ios":"levelo://app?vid=65eeecaf-e31c-4dcd-9e3b-c0cd03243e59"},"vehicle_type_id":"4","last_reported":1746637788,"current_range_meters":19200,"station_id":"ce4bgt92rcd13ifvqcf0","pricing_plan_id":"cebpf4jnsgd1na2vs0mg"},{"bike_id":"5685c192-af0e-432e-a78b-7859fcd0e0d6","system_id":"levelo_inurba_marseille","lat":43.30978,"lon":5.37934,"is_reserved":false,"is_disabled":false,"rental_uris":{"android":"levelo://app?vid=5685c192-af0e-432e-a78b-7859fcd0e0d6","ios":"levelo://app?vid=5685c192-af0e-432e-a78b-7859fcd0e0d6"},"vehicle_type_id":"4","last_reported":1746637788,"current_range_meters":19200,"station_id":"","pricing_plan_id":"cebpf4jnsgd1na2vs0mg"},{"bike_id":"dac692b1-d85e-44fc-af26-1cdd2d6eb4d0","system_id":"levelo_inurba_marseille","lat":43.29005,"lon":5.35609,"is_reserved":false,"is_disabled":false,"rental_uris":{"android":"levelo://app?vid=dac692b1-d85e-44fc-af26-1cdd2d6eb4d0","ios":"levelo://app?vid=dac692b1-d85e-44fc-af26-1cdd2d6eb4d0"},"vehicle_type_id":"4","last_reported":1746637788,"current_range_meters":18800,"station_id":"ce4bhb92rcd13ifvqen0","pricing_plan_id":"cebpf4jnsgd1na2vs0mg"},{"bike_id":"ababa2f4-6245-4d41-b409-deea33048877","system_id":"levelo_inurba_marseille","lat":43.29603,"lon":5.38095,"is_reserved":false,"is_disabled":false,"rental_uris":{"android":"levelo://app?vid=ababa2f4-6245-4d41-b409-deea33048877","ios":"levelo://app?vid=ababa2f4-6245-4d41-b409-deea33048877"},"vehicle_type_id":"4","last_reported":1746637788,"current_range_meters":18800,"station_id":"ce4bgl12rcd13ifvqbo0","pricing_plan_id":"cebpf4jnsgd1na2vs0mg"},{"bike_id":"51ecbaf3-16f1-4bdc-8511-224d12547ea7","system_id":"levelo_inurba_marseille","lat":43.30425,"lon":5.38889,"is_reserved":false,"is_disabled":false,"rental_uris":{"android":"levelo://app?vid=51ecbaf3-16f1-4bdc-8511-224d12547ea7","ios":"levelo://app?vid=51ecbaf3-16f1-4bdc-8511-224d12547ea7"},"vehicle_type_id":"4","last_reported":1746637788,"current_range_meters":20000,"station_id":"ce4bgk12rcd13ifvqbi0","pricing_plan_id":"cebpf4jnsgd1na2vs0mg"},{"bike_id":"70a29a45-574c-4ff1-aca3-740aa0e705be","system_id":"levelo_inurba_marseille","lat":43.2418,"lon":5.36433,"is_reserved":false,"is_disabled":false,"rental_uris":{"android":"levelo://app?vid=70a29a45-574c-4ff1-aca3-740aa0e705be","ios":"levelo://app?vid=70a29a45-574c-4ff1-aca3-740aa0e705be"},"vehicle_type_id":"4","last_reported":1746637788,"current_range_meters":19600,"station_id":"cpo36qri1sfpv3e86is0","pricing_plan_id":"cebpf4jnsgd1na2vs0mg"},{"bike_id":"5cb57b74-11af-4a53-b0fd-857cba2cc97a","system_id":"levelo_inurba_marseille","lat":43.28668,"lon":5.38667,"is_reserved":false,"is_disabled":false,"rental_uris":{"android":"levelo://app?vid=5cb57b74-11af-4a53-b0fd-857cba2cc97a","ios":"levelo://app?vid=5cb57b74-11af-4a53-b0fd-857cba2cc97a"},"vehicle_type_id":"4","last_reported":1746637788,"current_range_meters":19200,"station_id":"ce4bh492rcd13ifvqdug","pricing_plan_id":"cebpf4jnsgd1na2vs0mg"},{"bike_id":"12f6c70c-182c-4663-9437-d014813c6e60","system_id":"levelo_inurba_marseille","lat":43.32359,"lon":5.38889,"is_reserved":false,"is_disabled":false,"rental_uris":{"android":"levelo://app?vid=12f6c70c-182c-4663-9437-d014813c6e60","ios":"levelo://app?vid=12f6c70c-182c-4663-9437-d014813c6e60"},"vehicle_type_id":"4","last_reported":1746637788,"current_range_meters":19600,"station_id":"ce4bhqp2rcd13ifvqhog","pricing_plan_id":"cebpf4jnsgd1na2vs0mg"},{"bike_id":"24d23726-2e46-4420-9847-d4cacc896c6f","system_id":"levelo_inurba_marseille","lat":43.28156,"lon":5.42645,"is_reserved":false,"is_disabled":false,"rental_uris":{"android":"levelo://app?vid=24d23726-2e46-4420-9847-d4cacc896c6f","ios":"levelo://app?vid=24d23726-2e46-4420-9847-d4cacc896c6f"},"vehicle_type_id":"4","last_reported":1746637788,"current_range_meters":20000,"station_id":"ce4bhnh2rcd13ifvqgug","pricing_plan_id":"cebpf4jnsgd1na2vs0mg"},{"bike_id":"ad3912e1-02bc-450f-9f15-6e4766049115","system_id":"levelo_inurba_marseille","lat":43.29547,"lon":5.42259,"is_reserved":false,"is_disabled":false,"rental_uris":{"android":"levelo://app?vid=ad3912e1-02bc-450f-9f15-6e4766049115","ios":"levelo://app?vid=ad3912e1-02bc-450f-9f15-6e4766049115"},"vehicle_type_id":"4","last_reported":1746637788,"current_range_meters":20000,"station_id":"ce4bhph2rcd13ifvqhdg","pricing_plan_id":"cebpf4jnsgd1na2vs0mg"},{"bike_id":"ea829179-01c0-4082-b1e1-9ac87950d42b","system_id":"levelo_inurba_marseille","lat":43.2707,"lon":5.42275,"is_reserved":false,"is_disabled":false,"rental_uris":{"android":"levelo://app?vid=ea829179-01c0-4082-b1e1-9ac87950d42b","ios":"levelo://app?vid=ea829179-01c0-4082-b1e1-9ac87950d42b"},"vehicle_type_id":"4","last_reported":1746637788,"current_range_meters":19600,"station_id":"ce4bhk92rcd13ifvqgb0","pricing_plan_id":"cebpf4jnsgd1na2vs0mg"},{"bike_id":"3b98ca24-ac49-461d-b5cb-2296f75e1920","system_id":"levelo_inurba_marseille","lat":43.24179,"lon":5.39727,"is_reserved":false,"is_disabled":false,"rental_uris":{"android":"levelo://app?vid=3b98ca24-ac49-461d-b5cb-2296f75e1920","ios":"levelo://app?vid=3b98ca24-ac49-461d-b5cb-2296f75e1920"},"vehicle_type_id":"4","last_reported":1746637788,"current_range_meters":20000,"station_id":"ce4bhn12rcd13ifvqgpg","pricing_plan_id":"cebpf4jnsgd1na2vs0mg"},{"bike_id":"902cff75-f1e3-48cb-bf3f-ca9ceae9a82b","system_id":"levelo_inurba_marseille","lat":43.29711,"lon":5.37688,"is_reserved":false,"is_disabled":false,"rental_uris":{"android":"levelo://app?vid=902cff75-f1e3-48cb-bf3f-ca9ceae9a82b","ios":"levelo://app?vid=902cff75-f1e3-48cb-bf3f-ca9ceae9a82b"},"vehicle_type_id":"4","last_reported":1746637788,"current_range_meters":20400,"station_id":"ce4bgkh2rcd13ifvqbl0","pricing_plan_id":"cebpf4jnsgd1na2vs0mg"},{"bike_id":"6fb47eb6-478d-450a-b578-a04b0ec3876f","system_id":"levelo_inurba_marseille","lat":43.28444,"lon":5.39204,"is_reserved":false,"is_disabled":false,"rental_uris":{"android":"levelo://app?vid=6fb47eb6-478d-450a-b578-a04b0ec3876f","ios":"levelo://app?vid=6fb47eb6-478d-450a-b578-a04b0ec3876f"},"vehicle_type_id":"4","last_reported":1746637788,"current_range_meters":20400,"station_id":"ce4bhoh2rcd13ifvqh5g","pricing_plan_id":"cebpf4jnsgd1na2vs0mg"},{"bike_id":"a0a2843b-be96-49cb-885c-99518f637567","system_id":"levelo_inurba_marseille","lat":43.27176,"lon":5.40995,"is_reserved":false,"is_disabled":false,"rental_uris":{"android":"levelo://app?vid=a0a2843b-be96-49cb-885c-99518f637567","ios":"levelo://app?vid=a0a2843b-be96-49cb-885c-99518f637567"},"vehicle_type_id":"4","last_reported":1746637788,"current_range_meters":20000,"station_id":"ce4bhl12rcd13ifvqgf0","pricing_plan_id":"cebpf4jnsgd1na2vs0mg"},{"bike_id":"8c364055-1c8e-4dcd-b168-2ba2894b2e14","system_id":"levelo_inurba_marseille","lat":43.27071,"lon":5.42281,"is_reserved":false,"is_disabled":false,"rental_uris":{"android":"levelo://app?vid=8c364055-1c8e-4dcd-b168-2ba2894b2e14","ios":"levelo://app?vid=8c364055-1c8e-4dcd-b168-2ba2894b2e14"},"vehicle_type_id":"4","last_reported":1746637788,"current_range_meters":20000,"station_id":"ce4bhk92rcd13ifvqgb0","pricing_plan_id":"cebpf4jnsgd1na2vs0mg"},{"bike_id":"64770f15-0fcb-46b7-bbbf-ce2bf0424e14","system_id":"levelo_inurba_marseille","lat":43.26783,"lon":5.39413,"is_reserved":false,"is_disabled":false,"rental_uris":{"android":"levelo://app?vid=64770f15-0fcb-46b7-bbbf-ce2bf0424e14","ios":"levelo://app?vid=64770f15-0fcb-46b7-bbbf-ce2bf0424e14"},"vehicle_type_id":"4","last_reported":1746637788,"current_range_meters":20400,"station_id":"ce4bhh12rcd13ifvqfg0","pricing_plan_id":"cebpf4jnsgd1na2vs0mg"},{"bike_id":"86faaeb0-89f8-42b9-be93-a34d16b7bcf7","system_id":"levelo_inurba_marseille","lat":43.29867,"lon":5.37545,"is_reserved":false,"is_disabled":false,"rental_uris":{"android":"levelo://app?vid=86faaeb0-89f8-42b9-be93-a34d16b7bcf7","ios":"levelo://app?vid=86faaeb0-89f8-42b9-be93-a34d16b7bcf7"},"vehicle_type_id":"4","last_reported":1746637788,"current_range_meters":20800,"station_id":"","pricing_plan_id":"cebpf4jnsgd1na2vs0mg"},{"bike_id":"f539330a-fde4-4f22-8177-814407e2c6b4","system_id":"levelo_inurba_marseille","lat":43.307215,"lon":5.40148,"is_reserved":false,"is_disabled":false,"rental_uris":{"android":"levelo://app?vid=f539330a-fde4-4f22-8177-814407e2c6b4","ios":"levelo://app?vid=f539330a-fde4-4f22-8177-814407e2c6b4"},"vehicle_type_id":"4","last_reported":1746637788,"current_range_meters":20400,"station_id":"ce4bh312rcd13ifvqdk0","pricing_plan_id":"cebpf4jnsgd1na2vs0mg"},{"bike_id":"327cc39f-d91f-4b77-aab9-5dc3bf60ad82","system_id":"levelo_inurba_marseille","lat":43.25123,"lon":5.39505,"is_reserved":false,"is_disabled":false,"rental_uris":{"android":"levelo://app?vid=327cc39f-d91f-4b77-aab9-5dc3bf60ad82","ios":"levelo://app?vid=327cc39f-d91f-4b77-aab9-5dc3bf60ad82"},"vehicle_type_id":"4","last_reported":1746637788,"current_range_meters":20400,"station_id":"ce4bhm12rcd13ifvqgkg","pricing_plan_id":"cebpf4jnsgd1na2vs0mg"},{"bike_id":"7cbd38aa-c92c-4bae-8bbd-9db781429c8b","system_id":"levelo_inurba_marseille","lat":43.29781,"lon":5.3934,"is_reserved":false,"is_disabled":false,"rental_uris":{"android":"levelo://app?vid=7cbd38aa-c92c-4bae-8bbd-9db781429c8b","ios":"levelo://app?vid=7cbd38aa-c92c-4bae-8bbd-9db781429c8b"},"vehicle_type_id":"4","last_reported":1746637788,"current_range_meters":20400,"station_id":"chh1huq6cuj3fo74tm60","pricing_plan_id":"cebpf4jnsgd1na2vs0mg"},{"bike_id":"a7ef1b70-846f-4579-931b-939ca1e9d709","system_id":"levelo_inurba_marseille","lat":43.31689,"lon":5.3775,"is_reserved":false,"is_disabled":false,"rental_uris":{"android":"levelo://app?vid=a7ef1b70-846f-4579-931b-939ca1e9d709","ios":"levelo://app?vid=a7ef1b70-846f-4579-931b-939ca1e9d709"},"vehicle_type_id":"4","last_reported":1746637788,"current_range_meters":20800,"station_id":"ce4bgth2rcd13ifvqch0","pricing_plan_id":"cebpf4jnsgd1na2vs0mg"},{"bike_id":"963ddab4-8ea0-4fbc-8170-df26e587095c","system_id":"levelo_inurba_marseille","lat":43.31829,"lon":5.39011,"is_reserved":false,"is_disabled":true,"rental_uris":{"android":"levelo://app?vid=963ddab4-8ea0-4fbc-8170-df26e587095c","ios":"levelo://app?vid=963ddab4-8ea0-4fbc-8170-df26e587095c"},"vehicle_type_id":"4","last_reported":1746637788,"current_range_meters":20800,"station_id":"","pricing_plan_id":"cebpf4jnsgd1na2vs0mg"},{"bike_id":"89b5c51b-cd9c-475c-ba7a-726b12d22f75","system_id":"levelo_inurba_marseille","lat":43.21196,"lon":5.35078,"is_reserved":false,"is_disabled":false,"rental_uris":{"android":"levelo://app?vid=89b5c51b-cd9c-475c-ba7a-726b12d22f75","ios":"levelo://app?vid=89b5c51b-cd9c-475c-ba7a-726b12d22f75"},"vehicle_type_id":"4","last_reported":1746637788,"current_range_meters":20800,"station_id":"st_cvj6sg6p6f1abm77japg","pricing_plan_id":"cebpf4jnsgd1na2vs0mg"},{"bike_id":"16d82653-e2e5-4531-a384-7902e244f0cf","system_id":"levelo_inurba_marseille","lat":43.22511,"lon":5.3478,"is_reserved":false,"is_disabled":false,"rental_uris":{"android":"levelo://app?vid=16d82653-e2e5-4531-a384-7902e244f0cf","ios":"levelo://app?vid=16d82653-e2e5-4531-a384-7902e244f0cf"},"vehicle_type_id":"4","last_reported":1746637788,"current_range_meters":21600,"station_id":"st_cvj5dfep6f1abm77gieg","pricing_plan_id":"cebpf4jnsgd1na2vs0mg"},{"bike_id":"1a482194-40f4-4227-b7c5-429f951f7b39","system_id":"levelo_inurba_marseille","lat":43.27619,"lon":5.36109,"is_reserved":false,"is_disabled":false,"rental_uris":{"android":"levelo://app?vid=1a482194-40f4-4227-b7c5-429f951f7b39","ios":"levelo://app?vid=1a482194-40f4-4227-b7c5-429f951f7b39"},"vehicle_type_id":"4","last_reported":1746637788,"current_range_meters":21600,"station_id":"ce4bgj92rcd13ifvqbe0","pricing_plan_id":"cebpf4jnsgd1na2vs0mg"},{"bike_id":"d393b1b7-5f51-4c3f-a2c3-7da1ac7a2901","system_id":"levelo_inurba_marseille","lat":43.295745,"lon":5.394377,"is_reserved":false,"is_disabled":false,"rental_uris":{"android":"levelo://app?vid=d393b1b7-5f51-4c3f-a2c3-7da1ac7a2901","ios":"levelo://app?vid=d393b1b7-5f51-4c3f-a2c3-7da1ac7a2901"},"vehicle_type_id":"4","last_reported":1746637788,"current_range_meters":21600,"station_id":"","pricing_plan_id":"cebpf4jnsgd1na2vs0mg"},{"bike_id":"9f53d49b-cad9-45cc-a5c1-e239a46ffeb9","system_id":"levelo_inurba_marseille","lat":43.28616,"lon":5.35098,"is_reserved":false,"is_disabled":false,"rental_uris":{"android":"levelo://app?vid=9f53d49b-cad9-45cc-a5c1-e239a46ffeb9","ios":"levelo://app?vid=9f53d49b-cad9-45cc-a5c1-e239a46ffeb9"},"vehicle_type_id":"4","last_reported":1746637788,"current_range_meters":21600,"station_id":"ce4bhch2rcd13ifvqeug","pricing_plan_id":"cebpf4jnsgd1na2vs0mg"},{"bike_id":"792edf86-0548-46c8-b10b-64c5ce55dc91","system_id":"levelo_inurba_marseille","lat":43.28036,"lon":5.36944,"is_reserved":false,"is_disabled":false,"rental_uris":{"android":"levelo://app?vid=792edf86-0548-46c8-b10b-64c5ce55dc91","ios":"levelo://app?vid=792edf86-0548-46c8-b10b-64c5ce55dc91"},"vehicle_type_id":"4","last_reported":1746637788,"current_range_meters":20800,"station_id":"ce4bha12rcd13ifvqef0","pricing_plan_id":"cebpf4jnsgd1na2vs0mg"},{"bike_id":"bf2abfa0-eaf8-4b28-8dd4-e0f92cdff726","system_id":"levelo_inurba_marseille","lat":43.29789,"lon":5.39345,"is_reserved":false,"is_disabled":false,"rental_uris":{"android":"levelo://app?vid=bf2abfa0-eaf8-4b28-8dd4-e0f92cdff726","ios":"levelo://app?vid=bf2abfa0-eaf8-4b28-8dd4-e0f92cdff726"},"vehicle_type_id":"4","last_reported":1746637788,"current_range_meters":21600,"station_id":"chh1huq6cuj3fo74tm60","pricing_plan_id":"cebpf4jnsgd1na2vs0mg"},{"bike_id":"76dc8368-d4c1-4a94-98c9-d9ae084e50c7","system_id":"levelo_inurba_marseille","lat":43.30636,"lon":5.40098,"is_reserved":false,"is_disabled":false,"rental_uris":{"android":"levelo://app?vid=76dc8368-d4c1-4a94-98c9-d9ae084e50c7","ios":"levelo://app?vid=76dc8368-d4c1-4a94-98c9-d9ae084e50c7"},"vehicle_type_id":"4","last_reported":1746637788,"current_range_meters":20800,"station_id":"ce4bh112rcd13ifvqda0","pricing_plan_id":"cebpf4jnsgd1na2vs0mg"},{"bike_id":"ff807334-3ad3-4e40-bbde-648eb2b1c45b","system_id":"levelo_inurba_marseille","lat":43.21198,"lon":5.35076,"is_reserved":false,"is_disabled":false,"rental_uris":{"android":"levelo://app?vid=ff807334-3ad3-4e40-bbde-648eb2b1c45b","ios":"levelo://app?vid=ff807334-3ad3-4e40-bbde-648eb2b1c45b"},"vehicle_type_id":"4","last_reported":1746637788,"current_range_meters":21600,"station_id":"st_cvj6sg6p6f1abm77japg","pricing_plan_id":"cebpf4jnsgd1na2vs0mg"},{"bike_id":"ae0cee94-064a-47d7-89d3-0a1331b2b5db","system_id":"levelo_inurba_marseille","lat":43.27371,"lon":5.36257,"is_reserved":false,"is_disabled":false,"rental_uris":{"android":"levelo://app?vid=ae0cee94-064a-47d7-89d3-0a1331b2b5db","ios":"levelo://app?vid=ae0cee94-064a-47d7-89d3-0a1331b2b5db"},"vehicle_type_id":"4","last_reported":1746637788,"current_range_meters":21600,"station_id":"ce4bhbh2rcd13ifvqeo0","pricing_plan_id":"cebpf4jnsgd1na2vs0mg"},{"bike_id":"c9080df1-5740-4eae-8a90-508b19ecab04","system_id":"levelo_inurba_marseille","lat":43.28617,"lon":5.35105,"is_reserved":false,"is_disabled":false,"rental_uris":{"android":"levelo://app?vid=c9080df1-5740-4eae-8a90-508b19ecab04","ios":"levelo://app?vid=c9080df1-5740-4eae-8a90-508b19ecab04"},"vehicle_type_id":"4","last_reported":1746637788,"current_range_meters":22000,"station_id":"ce4bhch2rcd13ifvqeug","pricing_plan_id":"cebpf4jnsgd1na2vs0mg"},{"bike_id":"385efc73-c8f2-4acf-91a3-ae63842dcfc6","system_id":"levelo_inurba_marseille","lat":43.2863,"lon":5.37054,"is_reserved":false,"is_disabled":false,"rental_uris":{"android":"levelo://app?vid=385efc73-c8f2-4acf-91a3-ae63842dcfc6","ios":"levelo://app?vid=385efc73-c8f2-4acf-91a3-ae63842dcfc6"},"vehicle_type_id":"4","last_reported":1746637788,"current_range_meters":22000,"station_id":"ce4bht12rcd13ifvqi60","pricing_plan_id":"cebpf4jnsgd1na2vs0mg"},{"bike_id":"a38c5fcd-2a3e-4e2c-b5be-bfb908394086","system_id":"levelo_inurba_marseille","lat":43.32778,"lon":5.39121,"is_reserved":false,"is_disabled":false,"rental_uris":{"android":"levelo://app?vid=a38c5fcd-2a3e-4e2c-b5be-bfb908394086","ios":"levelo://app?vid=a38c5fcd-2a3e-4e2c-b5be-bfb908394086"},"vehicle_type_id":"4","last_reported":1746637788,"current_range_meters":22000,"station_id":"","pricing_plan_id":"cebpf4jnsgd1na2vs0mg"},{"bike_id":"631ea485-a183-466a-8c6e-b5d24d15744b","system_id":"levelo_inurba_marseille","lat":43.248016,"lon":5.374558,"is_reserved":false,"is_disabled":false,"rental_uris":{"android":"levelo://app?vid=631ea485-a183-466a-8c6e-b5d24d15744b","ios":"levelo://app?vid=631ea485-a183-466a-8c6e-b5d24d15744b"},"vehicle_type_id":"4","last_reported":1746637788,"current_range_meters":22000,"station_id":"ce4bhgh2rcd13ifvqfb0","pricing_plan_id":"cebpf4jnsgd1na2vs0mg"},{"bike_id":"0c36128c-1f50-4220-8c6b-abec6e8b9f0e","system_id":"levelo_inurba_marseille","lat":43.29634,"lon":5.40601,"is_reserved":false,"is_disabled":false,"rental_uris":{"android":"levelo://app?vid=0c36128c-1f50-4220-8c6b-abec6e8b9f0e","ios":"levelo://app?vid=0c36128c-1f50-4220-8c6b-abec6e8b9f0e"},"vehicle_type_id":"4","last_reported":1746637788,"current_range_meters":21600,"station_id":"ce4bh0h2rcd13ifvqd60","pricing_plan_id":"cebpf4jnsgd1na2vs0mg"},{"bike_id":"b64320a5-a111-40fd-b356-a2a338f8fe63","system_id":"levelo_inurba_marseille","lat":43.26928,"lon":5.38912,"is_reserved":false,"is_disabled":false,"rental_uris":{"android":"levelo://app?vid=b64320a5-a111-40fd-b356-a2a338f8fe63","ios":"levelo://app?vid=b64320a5-a111-40fd-b356-a2a338f8fe63"},"vehicle_type_id":"4","last_reported":1746637788,"current_range_meters":22000,"station_id":"ce4bhhh2rcd13ifvqfl0","pricing_plan_id":"cebpf4jnsgd1na2vs0mg"},{"bike_id":"b5375c3e-22cb-4635-a070-f5b0e2260cf5","system_id":"levelo_inurba_marseille","lat":43.29027,"lon":5.38648,"is_reserved":false,"is_disabled":false,"rental_uris":{"android":"levelo://app?vid=b5375c3e-22cb-4635-a070-f5b0e2260cf5","ios":"levelo://app?vid=b5375c3e-22cb-4635-a070-f5b0e2260cf5"},"vehicle_type_id":"4","last_reported":1746637788,"current_range_meters":22400,"station_id":"ce4bh4p2rcd13ifvqe0g","pricing_plan_id":"cebpf4jnsgd1na2vs0mg"},{"bike_id":"83a50b95-d68b-4f37-b42f-f4b6d18160f2","system_id":"levelo_inurba_marseille","lat":43.25937,"lon":5.40907,"is_reserved":false,"is_disabled":false,"rental_uris":{"android":"levelo://app?vid=83a50b95-d68b-4f37-b42f-f4b6d18160f2","ios":"levelo://app?vid=83a50b95-d68b-4f37-b42f-f4b6d18160f2"},"vehicle_type_id":"4","last_reported":1746637788,"current_range_meters":22400,"station_id":"ce4bhm92rcd13ifvqglg","pricing_plan_id":"cebpf4jnsgd1na2vs0mg"},{"bike_id":"fd80f292-dea7-49af-a49d-22d1ba8b8ce2","system_id":"levelo_inurba_marseille","lat":43.29006,"lon":5.35619,"is_reserved":false,"is_disabled":false,"rental_uris":{"android":"levelo://app?vid=fd80f292-dea7-49af-a49d-22d1ba8b8ce2","ios":"levelo://app?vid=fd80f292-dea7-49af-a49d-22d1ba8b8ce2"},"vehicle_type_id":"4","last_reported":1746637788,"current_range_meters":22400,"station_id":"ce4bhb92rcd13ifvqen0","pricing_plan_id":"cebpf4jnsgd1na2vs0mg"},{"bike_id":"e9ec931b-040e-4674-bcc5-1c9d5b1c0071","system_id":"levelo_inurba_marseille","lat":43.30193,"lon":5.36625,"is_reserved":false,"is_disabled":false,"rental_uris":{"android":"levelo://app?vid=e9ec931b-040e-4674-bcc5-1c9d5b1c0071","ios":"levelo://app?vid=e9ec931b-040e-4674-bcc5-1c9d5b1c0071"},"vehicle_type_id":"4","last_reported":1746637788,"current_range_meters":22000,"station_id":"ce4bgrh2rcd13ifvqc8g","pricing_plan_id":"cebpf4jnsgd1na2vs0mg"},