{"last_updated":1700370405,"ttl":30,"version":"2.2","data":{"bikes":[{"bike_id":"c0f0e78c-b702-40da-9b69-6e777ec58a20","system_id":"levelo_inurba_marseille","lat":43.314811,"lon":5.373103,"is_reserved":false,"is_disabled":false,"rental_uris":{"android":"levelo://app?vid=c0f0e78c-b702-40da-9b69-6e777ec58a20","ios":"levelo://app?vid=c0f0e78c-b702-40da-9b69-6e777ec58a20"},"vehicle_type_id":"4","last_reported":1700370405,"current_range_meters":4800,"station_id":"ce4bgt12rcd13ifvqcd0","pricing_plan_id":"free"},{"bike_id":"5b3a823e-3921-462c-9a97-da83141dd5d3","system_id":"levelo_inurba_marseille","lat":43.314811,"lon":5.373103,"is_reserved":false,"is_disabled":false,"rental_uris":{"android":"levelo://app?vid=5b3a823e-3921-462c-9a97-da83141dd5d3","ios":"levelo://app?vid=5b3a823e-3921-462c-9a97-da83141dd5d3"},"vehicle_type_id":"4","last_reported":1700370405,"current_range_meters":27600,"station_id":"ce4bgt12rcd13ifvqcd0","pricing_plan_id":"free"},{"bike_id":"9f180590-7e4c-4c78-8dd9-008b2abd3b81","system_id":"levelo_inurba_marseille","lat":43.309039,"lon":5.371797,"is_reserved":false,"is_disabled":false,"rental_uris":{"android":"levelo://app?vid=9f180590-7e4c-4c78-8dd9-008b2abd3b81","ios":"levelo://app?vid=9f180590-7e4c-4c78-8dd9-008b2abd3b81"},"vehicle_type_id":"4","last_reported":1700370405,"current_range_meters":27200,"station_id":"ce4bguh2rcd13ifvqckg","pricing_plan_id":"free"},{"bike_id":"a7f6df4c-102b-4fa2-ab34-732971f6d3d3","system_id":"levelo_inurba_marseille","lat":43.309039,"lon":5.371797,"is_reserved":false,"is_disabled":false,"rental_uris":{"android":"levelo://app?vid=a7f6df4c-102b-4fa2-ab34-732971f6d3d3","ios":"levelo://app?vid=a7f6df4c-102b-4fa2-ab34-732971f6d3d3"},"vehicle_type_id":"4","last_reported":1700370405,"current_range_meters":22400,"station_id":"ce4bguh2rcd13ifvqckg","pricing_plan_id":"free"},{"bike_id":"3475d204-43b6-43d9-b615-ca1d0d58200e","system_id":"levelo_inurba_marseille","lat":43.30679,"lon":5.3679,"is_reserved":false,"is_disabled":false,"rental_uris":{"android":"levelo://app?vid=3475d204-43b6-43d9-b615-ca1d0d58200e","ios":"levelo://app?vid=3475d204-43b6-43d9-b615-ca1d0d58200e"},"vehicle_type_id":"4","last_reported":1700370405,"current_range_meters":12000,"station_id":"","pricing_plan_id":"free"},{"bike_id":"607819cf-a4fa-4b55-885d-29b97af7d346","system_id":"levelo_inurba_marseille","lat":43.305479,"lon":5.367027,"is_reserved":false,"is_disabled":false,"rental_uris":{"android":"levelo://app?vid=607819cf-a4fa-4b55-885d-29b97af7d346","ios":"levelo://app?vid=607819cf-a4fa-4b55-885d-29b97af7d346"},"vehicle_type_id":"4","last_reported":1700370405,"current_range_meters":0,"station_id":"ce4bgrp2rcd13ifvqc9g","pricing_plan_id":"free"},{"bike_id":"09ccbac6-0f01-4cfb-8bb8-da5484277d5c","system_id":"levelo_inurba_marseille","lat":43.319521,"lon":5.371007,"is_reserved":false,"is_disabled":false,"rental_uris":{"android":"levelo://app?vid=09ccbac6-0f01-4cfb-8bb8-da5484277d5c","ios":"levelo://app?vid=09ccbac6-0f01-4cfb-8bb8-da5484277d5c"},"vehicle_type_id":"4","last_reported":1700370405,"current_range_meters":2000,"station_id":"","pricing_plan_id":"free"},{"bike_id":"bb470fd6-a73a-4ec9-bacf-ed403c683c67","system_id":"levelo_inurba_marseille","lat":43.305989,"lon":5.37225,"is_reserved":false,"is_disabled":false,"rental_uris":{"android":"levelo://app?vid=bb470fd6-a73a-4ec9-bacf-ed403c683c67","ios":"levelo://app?vid=bb470fd6-a73a-4ec9-bacf-ed403c683c67"},"vehicle_type_id":"4","last_reported":1700370405,"current_range_meters":3200,"station_id":"ce4bgqh2rcd13ifvqc4g","pricing_plan_id":"free"},{"bike_id":"3eb74c67-99eb-4ab3-bef1-4f9fbde77b5a","system_id":"levelo_inurba_marseille","lat":43.305989,"lon":5.37225,"is_reserved":false,"is_disabled":false,"rental_uris":{"android":"levelo://app?vid=3eb74c67-99eb-4ab3-bef1-4f9fbde77b5a","ios":"levelo://app?vid=3eb74c67-99eb-4ab3-bef1-4f9fbde77b5a"},"vehicle_type_id":"4","last_reported":1700370405,"current_range_meters":22800,"station_id":"ce4bgqh2rcd13ifvqc4g","pricing_plan_id":"free"},{"bike_id":"14cbc7f4-48b9-447b-916a-617e037a97d3","system_id":"levelo_inurba_marseille","lat":43.305989,"lon":5.37225,"is_reserved":false,"is_disabled":false,"rental_uris":{"android":"levelo://app?vid=14cbc7f4-48b9-447b-916a-617e037a97d3","ios":"levelo://app?vid=14cbc7f4-48b9-447b-916a-617e037a97d3"},"vehicle_type_id":"4","last_reported":1700370405,"current_range_meters":16800,"station_id":"ce4bgqh2rcd13ifvqc4g","pricing_plan_id":"free"},{"bike_id":"dbdd7d7b-0cc5-4c4c-90d5-b97db4cf57a4","system_id":"levelo_inurba_marseille","lat":43.305989,"lon":5.37225,"is_reserved":false,"is_disabled":false,"rental_uris":{"android":"levelo://app?vid=dbdd7d7b-0cc5-4c4c-90d5-b97db4cf57a4","ios":"levelo://app?vid=dbdd7d7b-0cc5-4c4c-90d5-b97db4cf57a4"},"vehicle_type_id":"4","last_reported":1700370405,"current_range_meters":0,"station_id":"ce4bgqh2rcd13ifvqc4g","pricing_plan_id":"free"},{"bike_id":"e62165d1-fc38-4629-817f-31b6020c0eed","system_id":"levelo_inurba_marseille","lat":43.305989,"lon":5.37225,"is_reserved":false,"is_disabled":false,"rental_uris":{"android":"levelo://app?vid=e62165d1-fc38-4629-817f-31b6020c0eed","ios":"levelo://app?vid=e62165d1-fc38-4629-817f-31b6020c0eed"},"vehicle_type_id":"4","last_reported":1700370405,"current_range_meters":29200,"station_id":"ce4bgqh2rcd13ifvqc4g","pricing_plan_id":"free"},{"bike_id":"6fadfa8b-7747-478c-9d5c-5a7c70656886","system_id":"levelo_inurba_marseille","lat":43.311131,"lon":5.377651,"is_reserved":false,"is_disabled":false,"rental_uris":{"android":"levelo://app?vid=6fadfa8b-7747-478c-9d5c-5a7c70656886","ios":"levelo://app?vid=6fadfa8b-7747-478c-9d5c-5a7c70656886"},"vehicle_type_id":"4","last_reported":1700370405,"current_range_meters":29600,"station_id":"ce4bgt92rcd13ifvqcg0","pricing_plan_id":"free"},{"bike_id":"4550b8a0-6956-48e2-a3a9-8c90d60165be","system_id":"levelo_inurba_marseille","lat":43.311247,"lon":5.377584,"is_reserved":false,"is_disabled":false,"rental_uris":{"android":"levelo://app?vid=4550b8a0-6956-48e2-a3a9-8c90d60165be","ios":"levelo://app?vid=4550b8a0-6956-48e2-a3a9-8c90d60165be"},"vehicle_type_id":"4","last_reported":1700370405,"current_range_meters":1200,"station_id":"ce4bgt92rcd13ifvqcg0","pricing_plan_id":"free"},{"bike_id":"dcbf9c93-0758-41cf-8699-4ede01d69428","system_id":"levelo_inurba_marseille","lat":43.308156,"lon":5.376487,"is_reserved":false,"is_disabled":false,"rental_uris":{"android":"levelo://app?vid=dcbf9c93-0758-41cf-8699-4ede01d69428","ios":"levelo://app?vid=dcbf9c93-0758-41cf-8699-4ede01d69428"},"vehicle_type_id":"4","last_reported":1700370405,"current_range_meters":12800,"station_id":"ce4bgv92rcd13ifvqcq0","pricing_plan_id":"free"},{"bike_id":"1bfeeb72-2456-4595-ac3c-f3f4f3b4e9d7","system_id":"levelo_inurba_marseille","lat":43.307945,"lon":5.376487,"is_reserved":false,"is_disabled":false,"rental_uris":{"android":"levelo://app?vid=1bfeeb72-2456-4595-ac3c-f3f4f3b4e9d7","ios":"levelo://app?vid=1bfeeb72-2456-4595-ac3c-f3f4f3b4e9d7"},"vehicle_type_id":"4","last_reported":1700370405,"current_range_meters":30800,"station_id":"ce4bgv92rcd13ifvqcq0","pricing_plan_id":"free"},{"bike_id":"184737ea-30ec-475d-964a-e94f53249e42","system_id":"levelo_inurba_marseille","lat":43.307945,"lon":5.376487,"is_reserved":false,"is_disabled":false,"rental_uris":{"android":"levelo://app?vid=184737ea-30ec-475d-964a-e94f53249e42","ios":"levelo://app?vid=184737ea-30ec-475d-964a-e94f53249e42"},"vehicle_type_id":"4","last_reported":1700370405,"current_range_meters":28800,"station_id":"ce4bgv92rcd13ifvqcq0","pricing_plan_id":"free"},{"bike_id":"1e04415b-3b52-4cfa-88c9-3795153e0d28","system_id":"levelo_inurba_marseille","lat":43.307945,"lon":5.376487,"is_reserved":false,"is_disabled":false,"rental_uris":{"android":"levelo://app?vid=1e04415b-3b52-4cfa-88c9-3795153e0d28","ios":"levelo://app?vid=1e04415b-3b52-4cfa-88c9-3795153e0d28"},"vehicle_type_id":"4","last_reported":1700370405,"current_range_meters":27600,"station_id":"ce4bgv92rcd13ifvqcq0","pricing_plan_id":"free"},{"bike_id":"68149713-0167-4f17-95ab-db14393f9d1a","system_id":"levelo_inurba_marseille","lat":43.307945,"lon":5.376487,"is_reserved":false,"is_disabled":false,"rental_uris":{"android":"levelo://app?vid=68149713-0167-4f17-95ab-db14393f9d1a","ios":"levelo://app?vid=68149713-0167-4f17-95ab-db14393f9d1a"},"vehicle_type_id":"4","last_reported":1700370405,"current_range_meters":31200,"station_id":"ce4bgv92rcd13ifvqcq0","pricing_plan_id":"free"},{"bike_id":"ddc5e23f-b688-498b-9249-a2725ade76a4","system_id":"levelo_inurba_marseille","lat":43.307945,"lon":5.376487,"is_reserved":false,"is_disabled":false,"rental_uris":{"android":"levelo://app?vid=ddc5e23f-b688-498b-9249-a2725ade76a4","ios":"levelo://app?vid=ddc5e23f-b688-498b-9249-a2725ade76a4"},"vehicle_type_id":"4","last_reported":1700370405,"current_range_meters":28400,"station_id":"ce4bgv92rcd13ifvqcq0","pricing_plan_id":"free"},{"bike_id":"44ffd2fe-8c40-4a32-9fbb-21ba366c522b","system_id":"levelo_inurba_marseille","lat":43.307945,"lon":5.376487,"is_reserved":false,"is_disabled":false,"rental_uris":{"android":"levelo://app?vid=44ffd2fe-8c40-4a32-9fbb-21ba366c522b","ios":"levelo://app?vid=44ffd2fe-8c40-4a32-9fbb-21ba366c522b"},"vehicle_type_id":"4","last_reported":1700370405,"current_range_meters":20400,"station_id":"ce4bgv92rcd13ifvqcq0","pricing_plan_id":"free"},{"bike_id":"621c6813-1569-4a9e-8f10-4a24632f0f5f","system_id":"levelo_inurba_marseille","lat":43.307945,"lon":5.376487,"is_reserved":false,"is_disabled":false,"rental_uris":{"android":"levelo://app?vid=621c6813-1569-4a9e-8f10-4a24632f0f5f","ios":"levelo://app?vid=621c6813-1569-4a9e-8f10-4a24632f0f5f"},"vehicle_type_id":"4","last_reported":1700370405,"current_range_meters":29600,"station_id":"ce4bgv92rcd13ifvqcq0","pricing_plan_id":"free"},{"bike_id":"dfd8689c-38ea-4d64-aede-1f2ca434c891","system_id":"levelo_inurba_marseille","lat":43.307945,"lon":5.376487,"is_reserved":false,"is_disabled":false,"rental_uris":{"android":"levelo://app?vid=dfd8689c-38ea-4d64-aede-1f2ca434c891","ios":"levelo://app?vid=dfd8689c-38ea-4d64-aede-1f2ca434c891"},"vehicle_type_id":"4","last_reported":1700370405,"current_range_meters":18800,"station_id":"ce4bgv92rcd13ifvqcq0","pricing_plan_id":"free"},{"bike_id":"54b29839-14db-4da8-80cb-74ee93185d65","system_id":"levelo_inurba_marseille","lat":43.307945,"lon":5.376487,"is_reserved":false,"is_disabled":false,"rental_uris":{"android":"levelo://app?vid=54b29839-14db-4da8-80cb-74ee93185d65","ios":"levelo://app?vid=54b29839-14db-4da8-80cb-74ee93185d65"},"vehicle_type_id":"4","last_reported":1700370405,"current_range_meters":31600,"station_id":"ce4bgv92rcd13ifvqcq0","pricing_plan_id":"free"},{"bike_id":"30ca23a9-6fa7-4b6e-95f6-5a2f7f6c9f05","system_id":"levelo_inurba_marseille","lat":43.307945,"lon":5.376487,"is_reserved":false,"is_disabled":false,"rental_uris":{"android":"levelo://app?vid=30ca23a9-6fa7-4b6e-95f6-5a2f7f6c9f05","ios":"levelo://app?vid=30ca23a9-6fa7-4b6e-95f6-5a2f7f6c9f05"},"vehicle_type_id":"4","last_reported":1700370405,"current_range_meters":25600,"station_id":"ce4bgv92rcd13ifvqcq0","pricing_plan_id":"free"},{"bike_id":"6b879805-5dbc-4714-807a-450e616bceb2","system_id":"levelo_inurba_marseille","lat":43.317075,"lon":5.377367,"is_reserved":false,"is_disabled":false,"rental_uris":{"android":"levelo://app?vid=6b879805-5dbc-4714-807a-450e616bceb2","ios":"levelo://app?vid=6b879805-5dbc-4714-807a-450e616bceb2"},"vehicle_type_id":"4","last_reported":1700370405,"current_range_meters":8000,"station_id":"ce4bgth2rcd13ifvqch0","pricing_plan_id":"free"},{"bike_id":"d6cccfa3-d2c2-4ba9-830b-fe64f36e0212","system_id":"levelo_inurba_marseille","lat":43.317075,"lon":5.377367,"is_reserved":false,"is_disabled":false,"rental_uris":{"android":"levelo://app?vid=d6cccfa3-d2c2-4ba9-830b-fe64f36e0212","ios":"levelo://app?vid=d6cccfa3-d2c2-4ba9-830b-fe64f36e0212"},"vehicle_type_id":"4","last_reported":1700370405,"current_range_meters":31600,"station_id":"ce4bgth2rcd13ifvqch0","pricing_plan_id":"free"},{"bike_id":"53d739ab-20e3-4b7c-9409-d8b179a11b94","system_id":"levelo_inurba_marseille","lat":43.315389,"lon":5.380375,"is_reserved":false,"is_disabled":false,"rental_uris":{"android":"levelo://app?vid=53d739ab-20e3-4b7c-9409-d8b179a11b94","ios":"levelo://app?vid=53d739ab-20e3-4b7c-9409-d8b179a11b94"},"vehicle_type_id":"4","last_reported":1700370405,"current_range_meters":30000,"station_id":"ce4bhsp2rcd13ifvqi50","pricing_plan_id":"free"},{"bike_id":"d5dc532c-175a-4512-a7cb-49f2945616fc","system_id":"levelo_inurba_marseille","lat":43.30808,"lon":5.38149,"is_reserved":false,"is_disabled":false,"rental_uris":{"android":"levelo://app?vid=d5dc532c-175a-4512-a7cb-49f2945616fc","ios":"levelo://app?vid=d5dc532c-175a-4512-a7cb-49f2945616fc"},"vehicle_type_id":"4","last_reported":1700370405,"current_range_meters":16800,"station_id":"ce4bgt12rcd13ifvqce0","pricing_plan_id":"free"},{"bike_id":"4f09f1e8-0181-4029-b584-3ce95114c834","system_id":"levelo_inurba_marseille","lat":43.308072,"lon":5.381493,"is_reserved":false,"is_disabled":false,"rental_uris":{"android":"levelo://app?vid=4f09f1e8-0181-4029-b584-3ce95114c834","ios":"levelo://app?vid=4f09f1e8-0181-4029-b584-3ce95114c834"},"vehicle_type_id":"4","last_reported":1700370405,"current_range_meters":0,"station_id":"ce4bgt12rcd13ifvqce0","pricing_plan_id":"free"},{"bike_id":"491dd9e9-80e3-414f-a30e-eb76e0b704c7","system_id":"levelo_inurba_marseille","lat":43.30807,"lon":5.3816,"is_reserved":false,"is_disabled":false,"rental_uris":{"android":"levelo://app?vid=491dd9e9-80e3-414f-a30e-eb76e0b704c7","ios":"levelo://app?vid=491dd9e9-80e3-414f-a30e-eb76e0b704c7"},"vehicle_type_id":"4","last_reported":1700370405,"current_range_meters":0,"station_id":"ce4bgt12rcd13ifvqce0","pricing_plan_id":"free"},{"bike_id":"22f30ccb-1773-4b68-9d34-5f3b0feb1aa8","system_id":"levelo_inurba_marseille","lat":43.30483,"lon":5.37894,"is_reserved":false,"is_disabled":false,"rental_uris":{"android":"levelo://app?vid=22f30ccb-1773-4b68-9d34-5f3b0feb1aa8","ios":"levelo://app?vid=22f30ccb-1773-4b68-9d34-5f3b0feb1aa8"},"vehicle_type_id":"4","last_reported":1700370405,"current_range_meters":29600,"station_id":"ce4bgup2rcd13ifvqcn0","pricing_plan_id":"free"},{"bike_id":"cc038ebd-e421-4aec-9968-1b924053831b","system_id":"levelo_inurba_marseille","lat":43.30474,"lon":5.37889,"is_reserved":false,"is_disabled":false,"rental_uris":{"android":"levelo://app?vid=cc038ebd-e421-4aec-9968-1b924053831b","ios":"levelo://app?vid=cc038ebd-e421-4aec-9968-1b924053831b"},"vehicle_type_id":"4","last_reported":1700370405,"current_range_meters":26800,"station_id":"ce4bgup2rcd13ifvqcn0","pricing_plan_id":"free"},{"bike_id":"0e1e11a1-bf62-446a-b589-b347992da176","system_id":"levelo_inurba_marseille","lat":43.304606,"lon":5.379026,"is_reserved":false,"is_disabled":false,"rental_uris":{"android":"levelo://app?vid=0e1e11a1-bf62-446a-b589-b347992da176","ios":"levelo://app?vid=0e1e11a1-bf62-446a-b589-b347992da176"},"vehicle_type_id":"4","last_reported":1700370405,"current_range_meters":28800,"station_id":"ce4bgup2rcd13ifvqcn0","pricing_plan_id":"free"},{"bike_id":"3fca04da-f4bc-4a31-afef-de29bdaf525b","system_id":"levelo_inurba_marseille","lat":43.30477,"lon":5.379053,"is_reserved":false,"is_disabled":false,"rental_uris":{"android":"levelo://app?vid=3fca04da-f4bc-4a31-afef-de29bdaf525b","ios":"levelo://app?vid=3fca04da-f4bc-4a31-afef-de29bdaf525b"},"vehicle_type_id":"4","last_reported":1700370405,"current_range_meters":28400,"station_id":"ce4bgup2rcd13ifvqcn0","pricing_plan_id":"free"},{"bike_id":"1602a82f-895f-4107-a118-dccfb9aab958","system_id":"levelo_inurba_marseille","lat":43.3047,"lon":5.37897,"is_reserved":false,"is_disabled":false,"rental_uris":{"android":"levelo://app?vid=1602a82f-895f-4107-a118-dccfb9aab958","ios":"levelo://app?vid=1602a82f-895f-4107-a118-dccfb9aab958"},"vehicle_type_id":"4","last_reported":1700370405,"current_range_meters":20400,"station_id":"ce4bgup2rcd13ifvqcn0","pricing_plan_id":"free"},{"bike_id":"4b958746-7ba6-433f-8dc0-44ca2244cf0d","system_id":"levelo_inurba_marseille","lat":43.30468,"lon":5.37895,"is_reserved":false,"is_disabled":false,"rental_uris":{"android":"levelo://app?vid=4b958746-7ba6-433f-8dc0-44ca2244cf0d","ios":"levelo://app?vid=4b958746-7ba6-433f-8dc0-44ca2244cf0d"},"vehicle_type_id":"4","last_reported":1700370405,"current_range_meters":26000,"station_id":"ce4bgup2rcd13ifvqcn0","pricing_plan_id":"free"},{"bike_id":"a378361e-91ae-4591-aeb4-2aa9e10695b9","system_id":"levelo_inurba_marseille","lat":43.304733,"lon":5.379033,"is_reserved":false,"is_disabled":false,"rental_uris":{"android":"levelo://app?vid=a378361e-91ae-4591-aeb4-2aa9e10695b9","ios":"levelo://app?vid=a378361e-91ae-4591-aeb4-2aa9e10695b9"},"vehicle_type_id":"4","last_reported":1700370405,"current_range_meters":27200,"station_id":"ce4bgup2rcd13ifvqcn0","pricing_plan_id":"free"},{"bike_id":"9aaa69a6-5c78-4738-906f-c643d77e4a17","system_id":"levelo_inurba_marseille","lat":43.304606,"lon":5.379026,"is_reserved":false,"is_disabled":false,"rental_uris":{"android":"levelo://app?vid=9aaa69a6-5c78-4738-906f-c643d77e4a17","ios":"levelo://app?vid=9aaa69a6-5c78-4738-906f-c643d77e4a17"},"vehicle_type_id":"4","last_reported":1700370405,"current_range_meters":30400,"station_id":"ce4bgup2rcd13ifvqcn0","pricing_plan_id":"free"},{"bike_id":"0feb477c-9ab0-4138-b193-e8ebd1c8aa73","system_id":"levelo_inurba_marseille","lat":43.30478,"lon":5.379107,"is_reserved":false,"is_disabled":false,"rental_uris":{"android":"levelo://app?vid=0feb477c-9ab0-4138-b193-e8ebd1c8aa73","ios":"levelo://app?vid=0feb477c-9ab0-4138-b193-e8ebd1c8aa73"},"vehicle_type_id":"4","last_reported":1700370405,"current_range_meters":30400,"station_id":"ce4bgup2rcd13ifvqcn0","pricing_plan_id":"free"},{"bike_id":"f1626208-0f67-41e4-ae71-3b8b7ec0136b","system_id":"levelo_inurba_marseille","lat":43.304698,"lon":5.379033,"is_reserved":false,"is_disabled":false,"rental_uris":{"android":"levelo://app?vid=f1626208-0f67-41e4-ae71-3b8b7ec0136b","ios":"levelo://app?vid=f1626208-0f67-41e4-ae71-3b8b7ec0136b"},"vehicle_type_id":"4","last_reported":1700370405,"current_range_meters":10400,"station_id":"ce4bgup2rcd13ifvqcn0","pricing_plan_id":"free"},{"bike_id":"2c4c28a3-9b65-4307-afaa-316795d2dc86","system_id":"levelo_inurba_marseille","lat":43.30468,"lon":5.37901,"is_reserved":false,"is_disabled":false,"rental_uris":{"android":"levelo://app?vid=2c4c28a3-9b65-4307-afaa-316795d2dc86","ios":"levelo://app?vid=2c4c28a3-9b65-4307-afaa-316795d2dc86"},"vehicle_type_id":"4","last_reported":1700370405,"current_range_meters":25200,"station_id":"ce4bgup2rcd13ifvqcn0","pricing_plan_id":"free"},{"bike_id":"e4aaf8cd-7065-4f66-8d7a-90ea4770189e","system_id":"levelo_inurba_marseille","lat":43.304664,"lon":5.37903,"is_reserved":false,"is_disabled":false,"rental_uris":{"android":"levelo://app?vid=e4aaf8cd-7065-4f66-8d7a-90ea4770189e","ios":"levelo://app?vid=e4aaf8cd-7065-4f66-8d7a-90ea4770189e"},"vehicle_type_id":"4","last_reported":1700370405,"current_range_meters":30400,"station_id":"ce4bgup2rcd13ifvqcn0","pricing_plan_id":"free"},{"bike_id":"330e873e-779f-4127-b4c4-68691c2ce1dd","system_id":"levelo_inurba_marseille","lat":43.304606,"lon":5.379026,"is_reserved":false,"is_disabled":false,"rental_uris":{"android":"levelo://app?vid=330e873e-779f-4127-b4c4-68691c2ce1dd","ios":"levelo://app?vid=330e873e-779f-4127-b4c4-68691c2ce1dd"},"vehicle_type_id":"4","last_reported":1700370405,"current_range_meters":9600,"station_id":"ce4bgup2rcd13ifvqcn0","pricing_plan_id":"free"},{"bike_id":"77c597bb-5d1d-4ea2-851a-1fefefef1707","system_id":"levelo_inurba_marseille","lat":43.304654,"lon":5.379072,"is_reserved":false,"is_disabled":false,"rental_uris":{"android":"levelo://app?vid=77c597bb-5d1d-4ea2-851a-1fefefef1707","ios":"levelo://app?vid=77c597bb-5d1d-4ea2-851a-1fefefef1707"},"vehicle_type_id":"4","last_reported":1700370405,"current_range_meters":30000,"station_id":"ce4bgup2rcd13ifvqcn0","pricing_plan_id":"free"},{"bike_id":"0f40eb85-975a-446c-85e4-3f94157372bc","system_id":"levelo_inurba_marseille","lat":43.324771,"lon":5.36557,"is_reserved":false,"is_disabled":false,"rental_uris":{"android":"levelo://app?vid=0f40eb85-975a-446c-85e4-3f94157372bc","ios":"levelo://app?vid=0f40eb85-975a-446c-85e4-3f94157372bc"},"vehicle_type_id":"4","last_reported":1700370405,"current_range_meters":0,"station_id":"ce4bhs12rcd13ifvqhvg","pricing_plan_id":"free"},{"bike_id":"793bd78b-5063-4793-9678-c60d77847e13","system_id":"levelo_inurba_marseille","lat":43.302784,"lon":5.377158,"is_reserved":false,"is_disabled":false,"rental_uris":{"android":"levelo://app?vid=793bd78b-5063-4793-9678-c60d77847e13","ios":"levelo://app?vid=793bd78b-5063-4793-9678-c60d77847e13"},"vehicle_type_id":"4","last_reported":1700370405,"current_range_meters":18400,"station_id":"ce4bguh2rcd13ifvqcj0","pricing_plan_id":"free"},{"bike_id":"abb5a752-dcd4-4467-a360-e886684f7426","system_id":"levelo_inurba_marseille","lat":43.32003,"lon":5.38156,"is_reserved":false,"is_disabled":false,"rental_uris":{"android":"levelo://app?vid=abb5a752-dcd4-4467-a360-e886684f7426","ios":"levelo://app?vid=abb5a752-dcd4-4467-a360-e886684f7426"},"vehicle_type_id":"4","last_reported":1700370405,"current_range_meters":26800,"station_id":"ce4bhr12rcd13ifvqhpg","pricing_plan_id":"free"},{"bike_id":"d39152dc-fb7a-4c2f-bc48-1d91712f2978","system_id":"levelo_inurba_marseille","lat":43.299803,"lon":5.371745,"is_reserved":false,"is_disabled":false,"rental_uris":{"android":"levelo://app?vid=d39152dc-fb7a-4c2f-bc48-1d91712f2978","ios":"levelo://app?vid=d39152dc-fb7a-4c2f-bc48-1d91712f2978"},"vehicle_type_id":"4","last_reported":1700370405,"current_range_meters":0,"station_id":"ce4bgr92rcd13ifvqc7g","pricing_plan_id":"free"},{"bike_id":"5e6e75b6-7e48-465e-9a25-74236abaa939","system_id":"levelo_inurba_marseille","lat":43.298433,"lon":5.362774,"is_reserved":false,"is_disabled":false,"rental_uris":{"android":"levelo://app?vid=5e6e75b6-7e48-465e-9a25-74236abaa939","ios":"levelo://app?vid=5e6e75b6-7e48-465e-9a25-74236abaa939"},"vehicle_type_id":"4","last_reported":1700370405,"current_range_meters":20000,"station_id":"ce4bgpp2rcd13ifvqc3g","pricing_plan_id":"free"},{"bike_id":"4bcd80df-5b7f-49ed-85ca-a07c465fac02","system_id":"levelo_inurba_marseille","lat":43.305364,"lon":5.384119,"is_reserved":false,"is_disabled":false,"rental_uris":{"android":"levelo://app?vid=4bcd80df-5b7f-49ed-85ca-a07c465fac02","ios":"levelo://app?vid=4bcd80df-5b7f-49ed-85ca-a07c465fac02"},"vehicle_type_id":"4","last_reported":1700370405,"current_range_meters":28400,"station_id":"ce4bgg92rcd13ifvqb30","pricing_plan_id":"free"},{"bike_id":"5da9dea2-bd9f-4746-b637-56e44ea9e587","system_id":"levelo_inurba_marseille","lat":43.298489,"lon":5.362942,"is_reserved":false,"is_disabled":false,"rental_uris":{"android":"levelo://app?vid=5da9dea2-bd9f-4746-b637-56e44ea9e587","ios":"levelo://app?vid=5da9dea2-bd9f-4746-b637-56e44ea9e587"},"vehicle_type_id":"4","last_reported":1700370405,"current_range_meters":0,"station_id":"","pricing_plan_id":"free"},{"bike_id":"a2e90176-5d0e-4866-b062-73d6defcaac4","system_id":"levelo_inurba_marseille","lat":43.311722,"lon":5.387247,"is_reserved":false,"is_disabled":false,"rental_uris":{"android":"levelo://app?vid=a2e90176-5d0e-4866-b062-73d6defcaac4","ios":"levelo://app?vid=a2e90176-5d0e-4866-b062-73d6defcaac4"},"vehicle_type_id":"4","last_reported":1700370405,"current_range_meters":29600,"station_id":"ce4bgv12rcd13ifvqcp0","pricing_plan_id":"free"},{"bike_id":"d4a04eba-f619-4284-b9a6-3973ace8ac8c","system_id":"levelo_inurba_marseille","lat":43.297794,"lon":5.370888,"is_reserved":false,"is_disabled":false,"rental_uris":{"android":"levelo://app?vid=d4a04eba-f619-4284-b9a6-3973ace8ac8c","ios":"levelo://app?vid=d4a04eba-f619-4284-b9a6-3973ace8ac8c"},"vehicle_type_id":"4","last_reported":1700370405,"current_range_meters":31600,"station_id":"ce4bgop2rcd13ifvqc1g","pricing_plan_id":"free"},{"bike_id":"bd8d30fe-2770-44bc-a84f-728bec9bbbd9","system_id":"levelo_inurba_marseille","lat":43.29794,"lon":5.37102,"is_reserved":false,"is_disabled":false,"rental_uris":{"android":"levelo://app?vid=bd8d30fe-2770-44bc-a84f-728bec9bbbd9","ios":"levelo://app?vid=bd8d30fe-2770-44bc-a84f-728bec9bbbd9"},"vehicle_type_id":"4","last_reported":1700370405,"current_range_meters":31200,"station_id":"ce4bgop2rcd13ifvqc1g","pricing_plan_id":"free"},{"bike_id":"a2fc4748-64a9-40b2-835c-f6ddeaf7b116","system_id":"levelo_inurba_marseille","lat":43.297946,"lon":5.371064,"is_reserved":false,"is_disabled":false,"rental_uris":{"android":"levelo://app?vid=a2fc4748-64a9-40b2-835c-f6ddeaf7b116","ios":"levelo://app?vid=a2fc4748-64a9-40b2-835c-f6ddeaf7b116"},"vehicle_type_id":"4","last_reported":1700370405,"current_range_meters":30400,"station_id":"ce4bgop2rcd13ifvqc1g","pricing_plan_id":"free"},{"bike_id":"72eeee1a-12b8-48e5-8464-bf2f5acd66c5","system_id":"levelo_inurba_marseille","lat":43.29776,"lon":5.37104,"is_reserved":false,"is_disabled":false,"rental_uris":{"android":"levelo://app?vid=72eeee1a-12b8-48e5-8464-bf2f5acd66c5","ios":"levelo://app?vid=72eeee1a-12b8-48e5-8464-bf2f5acd66c5"},"vehicle_type_id":"4","last_reported":1700370405,"current_range_meters":30400,"station_id":"ce4bgop2rcd13ifvqc1g","pricing_plan_id":"free"},{"bike_id":"e64c21ef-86f8-4f0a-a8d2-787579e4b5f7","system_id":"levelo_inurba_marseille","lat":43.2968,"lon":5.37291,"is_reserved":false,"is_disabled":false,"rental_uris":{"android":"levelo://app?vid=e64c21ef-86f8-4f0a-a8d2-787579e4b5f7","ios":"levelo://app?vid=e64c21ef-86f8-4f0a-a8d2-787579e4b5f7"},"vehicle_type_id":"4","last_reported":1700370405,"current_range_meters":30800,"station_id":"ce4bgk12rcd13ifvqbj0","pricing_plan_id":"free"},{"bike_id":"8a9cf4c5-6f16-4a1f-9ef7-a89e0f4573e3","system_id":"levelo_inurba_marseille","lat":43.2968,"lon":5.37291,"is_reserved":false,"is_disabled":false,"rental_uris":{"android":"levelo://app?vid=8a9cf4c5-6f16-4a1f-9ef7-a89e0f4573e3","ios":"levelo://app?vid=8a9cf4c5-6f16-4a1f-9ef7-a89e0f4573e3"},"vehicle_type_id":"4","last_reported":1700370405,"current_range_meters":26800,"station_id":"ce4bgk12rcd13ifvqbj0","pricing_plan_id":"free"},{"bike_id":"bab6e1e8-0726-4f51-8b18-d54941f080d7","system_id":"levelo_inurba_marseille","lat":43.297013,"lon":5.37394,"is_reserved":false,"is_disabled":false,"rental_uris":{"android":"levelo://app?vid=bab6e1e8-0726-4f51-8b18-d54941f080d7","ios":"levelo://app?vid=bab6e1e8-0726-4f51-8b18-d54941f080d7"},"vehicle_type_id":"4","last_reported":1700370405,"current_range_meters":0,"station_id":"","pricing_plan_id":"free"},{"bike_id":"99b6aab7-be3e-41b8-b806-8cf381908e49","system_id":"levelo_inurba_marseille","lat":43.296131,"lon":5.370791,"is_reserved":false,"is_disabled":false,"rental_uris":{"android":"levelo://app?vid=99b6aab7-be3e-41b8-b806-8cf381908e49","ios":"levelo://app?vid=99b6aab7-be3e-41b8-b806-8cf381908e49"},"vehicle_type_id":"4","last_reported":1700370405,"current_range_meters":17200,"station_id":"ce4bgnh2rcd13ifvqc0g","pricing_plan_id":"free"},{"bike_id":"b8d19ce1-ccac-403a-aad8-682f4a86e250","system_id":"levelo_inurba_marseille","lat":43.296935,"lon":5.376544,"is_reserved":false,"is_disabled":false,"rental_uris":{"android":"levelo://app?vid=b8d19ce1-ccac-403a-aad8-682f4a86e250","ios":"levelo://app?vid=b8d19ce1-ccac-403a-aad8-682f4a86e250"},"vehicle_type_id":"4","last_reported":1700370405,"current_range_meters":26800,"station_id":"ce4bgkh2rcd13ifvqbl0","pricing_plan_id":"free"},{"bike_id":"a0bec04b-021f-436d-b881-2c075cb314ca","system_id":"levelo_inurba_marseille","lat":43.296935,"lon":5.376544,"is_reserved":false,"is_disabled":false,"rental_uris":{"android":"levelo://app?vid=a0bec04b-021f-436d-b881-2c075cb314ca","ios":"levelo://app?vid=a0bec04b-021f-436d-b881-2c075cb314ca"},"vehicle_type_id":"4","last_reported":1700370405,"current_range_meters":28800,"station_id":"ce4bgkh2rcd13ifvqbl0","pricing_plan_id":"free"},{"bike_id":"f06be323-0942-4f03-a273-b34a925be7e7","system_id":"levelo_inurba_marseille","lat":43.317557,"lon":5.390173,"is_reserved":false,"is_disabled":false,"rental_uris":{"android":"levelo://app?vid=f06be323-0942-4f03-a273-b34a925be7e7","ios":"levelo://app?vid=f06be323-0942-4f03-a273-b34a925be7e7"},"vehicle_type_id":"4","last_reported":1700370405,"current_range_meters":27200,"station_id":"ce4bhqp2rcd13ifvqhng","pricing_plan_id":"free"},{"bike_id":"d2dced52-b7fb-4d11-ad33-56be009e3364","system_id":"levelo_inurba_marseille","lat":43.321847,"lon":5.388263,"is_reserved":false,"is_disabled":false,"rental_uris":{"android":"levelo://app?vid=d2dced52-b7fb-4d11-ad33-56be009e3364","ios":"levelo://app?vid=d2dced52-b7fb-4d11-ad33-56be009e3364"},"vehicle_type_id":"4","last_reported":1700370405,"current_range_meters":16400,"station_id":"","pricing_plan_id":"free"},{"bike_id":"189525e1-6d57-46b0-b41b-80d13d3fae28","system_id":"levelo_inurba_marseille","lat":43.304274,"lon":5.388873,"is_reserved":false,"is_disabled":false,"rental_uris":{"android":"levelo://app?vid=189525e1-6d57-46b0-b41b-80d13d3fae28","ios":"levelo://app?vid=189525e1-6d57-46b0-b41b-80d13d3fae28"},"vehicle_type_id":"4","last_reported":1700370405,"current_range_meters":24000,"station_id":"ce4bgk12rcd13ifvqbi0","pricing_plan_id":"free"},{"bike_id":"67ffd28a-0325-489b-a10f-d90500122751","system_id":"levelo_inurba_marseille","lat":43.295748,"lon":5.37522,"is_reserved":false,"is_disabled":false,"rental_uris":{"android":"levelo://app?vid=67ffd28a-0325-489b-a10f-d90500122751","ios":"levelo://app?vid=67ffd28a-0325-489b-a10f-d90500122751"},"vehicle_type_id":"4","last_reported":1700370405,"current_range_meters":30800,"station_id":"ce4bgh92rcd13ifvqb50","pricing_plan_id":"free"},{"bike_id":"3e3e92fe-39b7-4933-99ff-3747b28b5d69","system_id":"levelo_inurba_marseille","lat":43.328154,"lon":5.380034,"is_reserved":false,"is_disabled":false,"rental_uris":{"android":"levelo://app?vid=3e3e92fe-39b7-4933-99ff-3747b28b5d69","ios":"levelo://app?vid=3e3e92fe-39b7-4933-99ff-3747b28b5d69"},"vehicle_type_id":"4","last_reported":1700370405,"current_range_meters":7200,"station_id":"","pricing_plan_id":"free"},{"bike_id":"24f8204f-c8dd-4341-a28d-90952a34cc39","system_id":"levelo_inurba_marseille","lat":43.296164,"lon":5.377047,"is_reserved":false,"is_disabled":false,"rental_uris":{"android":"levelo://app?vid=24f8204f-c8dd-4341-a28d-90952a34cc39","ios":"levelo://app?vid=24f8204f-c8dd-4341-a28d-90952a34cc39"},"vehicle_type_id":"4","last_reported":1700370405,"current_range_meters":0,"station_id":"ce4bgi92rcd13ifvqb90","pricing_plan_id":"free"},{"bike_id":"7bdb09f4-a630-44aa-9014-7791ec54fa1b","system_id":"levelo_inurba_marseille","lat":43.299707,"lon":5.384859,"is_reserved":false,"is_disabled":false,"rental_uris":{"android":"levelo://app?vid=7bdb09f4-a630-44aa-9014-7791ec54fa1b","ios":"levelo://app?vid=7bdb09f4-a630-44aa-9014-7791ec54fa1b"},"vehicle_type_id":"4","last_reported":1700370405,"current_range_meters":8400,"station_id":"ce4bgj92rcd13ifvqbd0","pricing_plan_id":"free"},{"bike_id":"f0544550-75f3-4eb4-a283-1ed4a5e01749","system_id":"levelo_inurba_marseille","lat":43.2997,"lon":5.384843,"is_reserved":false,"is_disabled":false,"rental_uris":{"android":"levelo://app?vid=f0544550-75f3-4eb4-a283-1ed4a5e01749","ios":"levelo://app?vid=f0544550-75f3-4eb4-a283-1ed4a5e01749"},"vehicle_type_id":"4","last_reported":1700370405,"current_range_meters":5200,"station_id":"ce4bgj92rcd13ifvqbd0","pricing_plan_id":"free"},{"bike_id":"17b7c9d6-fa08-47b0-8033-5fdcc8a9907e","system_id":"levelo_inurba_marseille","lat":43.299717,"lon":5.384845,"is_reserved":false,"is_disabled":false,"rental_uris":{"android":"levelo://app?vid=17b7c9d6-fa08-47b0-8033-5fdcc8a9907e","ios":"levelo://app?vid=17b7c9d6-fa08-47b0-8033-5fdcc8a9907e"},"vehicle_type_id":"4","last_reported":1700370405,"current_range_meters":26400,"station_id":"ce4bgj92rcd13ifvqbd0","pricing_plan_id":"free"},{"bike_id":"d778b0b1-b6ed-4e66-9910-d5aca457a8bf","system_id":"levelo_inurba_marseille","lat":43.299724,"lon":5.384848,"is_reserved":false,"is_disabled":false,"rental_uris":{"android":"levelo://app?vid=d778b0b1-b6ed-4e66-9910-d5aca457a8bf","ios":"levelo://app?vid=d778b0b1-b6ed-4e66-9910-d5aca457a8bf"},"vehicle_type_id":"4","last_reported":1700370405,"current_range_meters":30000,"station_id":"ce4bgj92rcd13ifvqbd0","pricing_plan_id":"free"},{"bike_id":"1ba325a2-7bc5-40fa-88fa-20b6beff4e7c","system_id":"levelo_inurba_marseille","lat":43.299724,"lon":5.384848,"is_reserved":false,"is_disabled":false,"rental_uris":{"android":"levelo://app?vid=1ba325a2-7bc5-40fa-88fa-20b6beff4e7c","ios":"levelo://app?vid=1ba325a2-7bc5-40fa-88fa-20b6beff4e7c"},"vehicle_type_id":"4","last_reported":1700370405,"current_range_meters":29600,"station_id":"ce4bgj92rcd13ifvqbd0","pricing_plan_id":"free"},{"bike_id":"7578409b-067e-4709-96a4-43ed5a26cd3f","system_id":"levelo_inurba_marseille","lat":43.295279,"lon":5.375048,"is_reserved":false,"is_disabled":false,"rental_uris":{"android":"levelo://app?vid=7578409b-067e-4709-96a4-43ed5a26cd3f","ios":"levelo://app?vid=7578409b-067e-4709-96a4-43ed5a26cd3f"},"vehicle_type_id":"4","last_reported":1700370405,"current_range_meters":4800,"station_id":"ce4bgkp2rcd13ifvqbmg","pricing_plan_id":"free"},{"bike_id":"e145a3f7-00ac-4f8f-bfe5-435bc38ccaf7","system_id":"levelo_inurba_marseille","lat":43.293801,"lon":5.363066,"is_reserved":false,"is_disabled":false,"rental_uris":{"android":"levelo://app?vid=e145a3f7-00ac-4f8f-bfe5-435bc38ccaf7","ios":"levelo://app?vid=e145a3f7-00ac-4f8f-bfe5-435bc38ccaf7"},"vehicle_type_id":"4","last_reported":1700370405,"current_range_meters":25200,"station_id":"","pricing_plan_id":"free"},{"bike_id":"4eef38cc-64cf-4f4d-8d5b-99bd9d3b1b37","system_id":"levelo_inurba_marseille","lat":43.29315,"lon":5.37116,"is_reserved":false,"is_disabled":false,"rental_uris":{"android":"levelo://app?vid=4eef38cc-64cf-4f4d-8d5b-99bd9d3b1b37","ios":"levelo://app?vid=4eef38cc-64cf-4f4d-8d5b-99bd9d3b1b37"},"vehicle_type_id":"4","last_reported":1700370405,"current_range_meters":26000,"station_id":"","pricing_plan_id":"free"},{"bike_id":"b4328628-a93a-4fa7-a3df-bfadd02d72b2","system_id":"levelo_inurba_marseille","lat":43.305994,"lon":5.393687,"is_reserved":false,"is_disabled":false,"rental_uris":{"android":"levelo://app?vid=b4328628-a93a-4fa7-a3df-bfadd02d72b2","ios":"levelo://app?vid=b4328628-a93a-4fa7-a3df-bfadd02d72b2"},"vehicle_type_id":"4","last_reported":1700370405,"current_range_meters":19600,"station_id":"ce4bh0p2rcd13ifvqd80","pricing_plan_id":"free"},{"bike_id":"5803ef94-2ef4-45a8-945f-0b1899e0b936","system_id":"levelo_inurba_marseille","lat":43.302992,"lon":5.392136,"is_reserved":false,"is_disabled":false,"rental_uris":{"android":"levelo://app?vid=5803ef94-2ef4-45a8-945f-0b1899e0b936","ios":"levelo://app?vid=5803ef94-2ef4-45a8-945f-0b1899e0b936"},"vehicle_type_id":"4","last_reported":1700370405,"current_range_meters":24400,"station_id":"ce4bgkh2rcd13ifvqbk0","pricing_plan_id":"free"},{"bike_id":"2a896aa8-09a9-4ad1-a410-5e0c238e5192","system_id":"levelo_inurba_marseille","lat":43.30085,"lon":5.390856,"is_reserved":false,"is_disabled":false,"rental_uris":{"android":"levelo://app?vid=2a896aa8-09a9-4ad1-a410-5e0c238e5192","ios":"levelo://app?vid=2a896aa8-09a9-4ad1-a410-5e0c238e5192"},"vehicle_type_id":"4","last_reported":1700370405,"current_range_meters":5600,"station_id":"ce4bh192rcd13ifvqdb0","pricing_plan_id":"free"},{"bike_id":"e6fa3348-b79a-4d71-9485-3315a05e3a8a","system_id":"levelo_inurba_marseille","lat":43.298764,"lon":5.388973,"is_reserved":false,"is_disabled":false,"rental_uris":{"android":"levelo://app?vid=e6fa3348-b79a-4d71-9485-3315a05e3a8a","ios":"levelo://app?vid=e6fa3348-b79a-4d71-9485-3315a05e3a8a"},"vehicle_type_id":"4","last_reported":1700370405,"current_range_meters":28800,"station_id":"ce4bh392rcd13ifvqdl0","pricing_plan_id":"free"},{"bike_id":"fbf237e0-ebf4-48ee-9298-75de0ce05f0e","system_id":"levelo_inurba_marseille","lat":43.309038,"lon":5.396546,"is_reserved":false,"is_disabled":false,"rental_uris":{"android":"levelo://app?vid=fbf237e0-ebf4-48ee-9298-75de0ce05f0e","ios":"levelo://app?vid=fbf237e0-ebf4-48ee-9298-75de0ce05f0e"},"vehicle_type_id":"4","last_reported":1700370405,"current_range_meters":12000,"station_id":"ce4bh012rcd13ifvqcv0","pricing_plan_id":"free"},{"bike_id":"b8840de6-cc1a-4a7d-a10c-d9449ee5e75d","system_id":"levelo_inurba_marseille","lat":43.309038,"lon":5.396546,"is_reserved":false,"is_disabled":false,"rental_uris":{"android":"levelo://app?vid=b8840de6-cc1a-4a7d-a10c-d9449ee5e75d","ios":"levelo://app?vid=b8840de6-cc1a-4a7d-a10c-d9449ee5e75d"},"vehicle_type_id":"4","last_reported":1700370405,"current_range_meters":18000,"station_id":"ce4bh012rcd13ifvqcv0","pricing_plan_id":"free"},{"bike_id":"4a033192-1d0b-4496-989f-de9078ffaa36","system_id":"levelo_inurba_marseille","lat":43.309047,"lon":5.396551,"is_reserved":false,"is_disabled":false,"rental_uris":{"android":"levelo://app?vid=4a033192-1d0b-4496-989f-de9078ffaa36","ios":"levelo://app?vid=4a033192-1d0b-4496-989f-de9078ffaa36"},"vehicle_type_id":"4","last_reported":1700370405,"current_range_meters":25200,"station_id":"ce4bh012rcd13ifvqcv0","pricing_plan_id":"free"},{"bike_id":"75160227-c293-45c2-8c0f-b2e6a290f1e8","system_id":"levelo_inurba_marseille","lat":43.291994,"lon":5.357886,"is_reserved":false,"is_disabled":false,"rental_uris":{"android":"levelo://app?vid=75160227-c293-45c2-8c0f-b2e6a290f1e8","ios":"levelo://app?vid=75160227-c293-45c2-8c0f-b2e6a290f1e8"},"vehicle_type_id":"4","last_reported":1700370405,"current_range_meters":29600,"station_id":"ce4bhb12rcd13ifvqel0","pricing_plan_id":"free"},{"bike_id":"2958b1fb-4b1c-4e52-9a5b-2d20f8f9506e","system_id":"levelo_inurba_marseille","lat":43.309038,"lon":5.396546,"is_reserved":false,"is_disabled":false,"rental_uris":{"android":"levelo://app?vid=2958b1fb-4b1c-4e52-9a5b-2d20f8f9506e","ios":"levelo://app?vid=2958b1fb-4b1c-4e52-9a5b-2d20f8f9506e"},"vehicle_type_id":"4","last_reported":1700370405,"current_range_meters":31600,"station_id":"ce4bh012rcd13ifvqcv0","pricing_plan_id":"free"},{"bike_id":"48d841b4-e022-4f6d-bc96-280ae575b319","system_id":"levelo_inurba_marseille","lat":43.31331,"lon":5.39692,"is_reserved":false,"is_disabled":false,"rental_uris":{"android":"levelo://app?vid=48d841b4-e022-4f6d-bc96-280ae575b319","ios":"levelo://app?vid=48d841b4-e022-4f6d-bc96-280ae575b319"},"vehicle_type_id":"4","last_reported":1700370405,"current_range_meters":31200,"station_id":"ce4bgvp2rcd13ifvqcu0","pricing_plan_id":"free"},{"bike_id":"c3a00c42-0dda-47b3-9f09-0ce29375f46c","system_id":"levelo_inurba_marseille","lat":43.313291,"lon":5.396838,"is_reserved":false,"is_disabled":false,"rental_uris":{"android":"levelo://app?vid=c3a00c42-0dda-47b3-9f09-0ce29375f46c","ios":"levelo://app?vid=c3a00c42-0dda-47b3-9f09-0ce29375f46c"},"vehicle_type_id":"4","last_reported":1700370405,"current_range_meters":12000,"station_id":"ce4bgvp2rcd13ifvqcu0","pricing_plan_id":"free"},{"bike_id":"0de747ba-d827-4bc2-8d9f-f961b891b941","system_id":"levelo_inurba_marseille","lat":43.309038,"lon":5.396546,"is_reserved":false,"is_disabled":false,"rental_uris":{"android":"levelo://app?vid=0de747ba-d827-4bc2-8d9f-f961b891b941","ios":"levelo://app?vid=0de747ba-d827-4bc2-8d9f-f961b891b941"},"vehicle_type_id":"4","last_reported":1700370405,"current_range_meters":31200,"station_id":"ce4bh012rcd13ifvqcv0","pricing_plan_id":"free"},{"bike_id":"a40fd974-3afa-4abc-b303-85332b96188b","system_id":"levelo_inurba_marseille","lat":43.313291,"lon":5.396838,"is_reserved":false,"is_disabled":false,"rental_uris":{"android":"levelo://app?vid=a40fd974-3afa-4abc-b303-85332b96188b","ios":"levelo://app?vid=a40fd974-3afa-4abc-b303-85332b96188b"},"vehicle_type_id":"4","last_reported":1700370405,"current_range_meters":4400,"station_id":"ce4bgvp2rcd13ifvqcu0","pricing_plan_id":"free"},{"bike_id":"f80ff396-067b-4aff-84db-1a4288d6b7f3","system_id":"levelo_inurba_marseille","lat":43.313318,"lon":5.396948,"is_reserved":false,"is_disabled":false,"rental_uris":{"android":"levelo://app?vid=f80ff396-067b-4aff-84db-1a4288d6b7f3","ios":"levelo://app?vid=f80ff396-067b-4aff-84db-1a4288d6b7f3"},"vehicle_type_id":"4","last_reported":1700370405,"current_range_meters":31200,"station_id":"ce4bgvp2rcd13ifvqcu0","pricing_plan_id":"free"},{"bike_id":"22141bd5-4bb9-40e1-b9c7-031f3719ba37","system_id":"levelo_inurba_marseille","lat":43.313291,"lon":5.396838,"is_reserved":false,"is_disabled":false,"rental_uris":{"android":"levelo://app?vid=22141bd5-4bb9-40e1-b9c7-031f3719ba37","ios":"levelo://app?vid=22141bd5-4bb9-40e1-b9c7-031f3719ba37"},"vehicle_type_id":"4","last_reported":1700370405,"current_range_meters":29200,"station_id":"ce4bgvp2rcd13ifvqcu0","pricing_plan_id":"free"},{"bike_id":"9477565a-21f4-478c-96f6-57c129eb1e57","system_id":"levelo_inurba_marseille","lat":43.313291,"lon":5.396838,"is_reserved":false,"is_disabled":false,"rental_uris":{"android":"levelo://app?vid=9477565a-21f4-478c-96f6-57c129eb1e57","ios":"levelo://app?vid=9477565a-21f4-478c-96f6-57c129eb1e57"},"vehicle_type_id":"4","last_reported":1700370405,"current_range_meters":14800,"station_id":"ce4bgvp2rcd13ifvqcu0","pricing_plan_id":"free"},{"bike_id":"46429514-9d87-4911-8fbc-f0eb0137767d","system_id":"levelo_inurba_marseille","lat":43.309047,"lon":5.396551,"is_reserved":false,"is_disabled":false,"rental_uris":{"android":"levelo://app?vid=46429514-9d87-4911-8fbc-f0eb0137767d","ios":"levelo://app?vid=46429514-9d87-4911-8fbc-f0eb0137767d"},"vehicle_type_id":"4","last_reported":1700370405,"current_range_meters":30400,"station_id":"ce4bh012rcd13ifvqcv0","pricing_plan_id":"free"},{"bike_id":"3fdeda8b-81e4-449f-8880-52fb050994b9","system_id":"levelo_inurba_marseille","lat":43.309038,"lon":5.396546,"is_reserved":false,"is_disabled":false,"rental_uris":{"android":"levelo://app?vid=3fdeda8b-81e4-449f-8880-52fb050994b9","ios":"levelo://app?vid=3fdeda8b-81e4-449f-8880-52fb050994b9"},"vehicle_type_id":"4","last_reported":1700370405,"current_range_meters":29600,"station_id":"ce4bh012rcd13ifvqcv0","pricing_plan_id":"free"},{"bike_id":"d1b70635-0df1-4c98-90c4-fbb3ab46d803","system_id":"levelo_inurba_marseille","lat":43.31333,"lon":5.39697,"is_reserved":false,"is_disabled":false,"rental_uris":{"android":"levelo://app?vid=d1b70635-0df1-4c98-90c4-fbb3ab46d803","ios":"levelo://app?vid=d1b70635-0df1-4c98-90c4-fbb3ab46d803"},"vehicle_type_id":"4","last_reported":1700370405,"current_range_meters":25600,"station_id":"ce4bgvp2rcd13ifvqcu0","pricing_plan_id":"free"},{"bike_id":"b18d80e4-8a03-4f32-9edd-7584c5e7e8c6","system_id":"levelo_inurba_marseille","lat":43.31335,"lon":5.397,"is_reserved":false,"is_disabled":false,"rental_uris":{"android":"levelo://app?vid=b18d80e4-8a03-4f32-9edd-7584c5e7e8c6","ios":"levelo://app?vid=b18d80e4-8a03-4f32-9edd-7584c5e7e8c6"},"vehicle_type_id":"4","last_reported":1700370405,"current_range_meters":22000,"station_id":"ce4bgvp2rcd13ifvqcu0","pricing_plan_id":"free"},{"bike_id":"5736e517-13a3-440f-a8ee-4f24db41282e","system_id":"levelo_inurba_marseille","lat":43.294603,"lon":5.384867,"is_reserved":false,"is_disabled":false,"rental_uris":{"android":"levelo://app?vid=5736e517-13a3-440f-a8ee-4f24db41282e","ios":"levelo://app?vid=5736e517-13a3-440f-a8ee-4f24db41282e"},"vehicle_type_id":"4","last_reported":1700370405,"current_range_meters":6000,"station_id":"","pricing_plan_id":"free"},{"bike_id":"146e86b6-ed57-4d3c-8f69-a072d660fcd3","system_id":"levelo_inurba_marseille","lat":43.302008,"lon":5.394694,"is_reserved":false,"is_disabled":false,"rental_uris":{"android":"levelo://app?vid=146e86b6-ed57-4d3c-8f69-a072d660fcd3","ios":"levelo://app?vid=146e86b6-ed57-4d3c-8f69-a072d660fcd3"},"vehicle_type_id":"4","last_reported":1700370405,"current_range_meters":30400,"station_id":"ce4bh0p2rcd13ifvqd70","pricing_plan_id":"free"},{"bike_id":"55d5a668-7151-499c-86db-3186ab77df0d","system_id":"levelo_inurba_marseille","lat":43.302151,"lon":5.394683,"is_reserved":false,"is_disabled":false,"rental_uris":{"android":"levelo://app?vid=55d5a668-7151-499c-86db-3186ab77df0d","ios":"levelo://app?vid=55d5a668-7151-499c-86db-3186ab77df0d"},"vehicle_type_id":"4","last_reported":1700370405,"current_range_meters":12400,"station_id":"ce4bh0p2rcd13ifvqd70","pricing_plan_id":"free"},{"bike_id":"356661da-b0b8-4775-a050-f28a90160bec","system_id":"levelo_inurba_marseille","lat":43.290624,"lon":5.359245,"is_reserved":false,"is_disabled":false,"rental_uris":{"android":"levelo://app?vid=356661da-b0b8-4775-a050-f28a90160bec","ios":"levelo://app?vid=356661da-b0b8-4775-a050-f28a90160bec"},"vehicle_type_id":"4","last_reported":1700370405,"current_range_meters":29200,"station_id":"ce4bha92rcd13ifvqeg0","pricing_plan_id":"free"},{"bike_id":"b59fa648-a532-4e8b-89b9-f9c57314c2e0","system_id":"levelo_inurba_marseille","lat":43.290631,"lon":5.359244,"is_reserved":false,"is_disabled":false,"rental_uris":{"android":"levelo://app?vid=b59fa648-a532-4e8b-89b9-f9c57314c2e0","ios":"levelo://app?vid=b59fa648-a532-4e8b-89b9-f9c57314c2e0"},"vehicle_type_id":"4","last_reported":1700370405,"current_range_meters":27600,"station_id":"ce4bha92rcd13ifvqeg0","pricing_plan_id":"free"},{"bike_id":"aab8b3b6-261f-4fd6-81f1-205e122a8ca1","system_id":"levelo_inurba_marseille","lat":43.294153,"lon":5.386305,"is_reserved":false,"is_disabled":false,"rental_uris":{"android":"levelo://app?vid=aab8b3b6-261f-4fd6-81f1-205e122a8ca1","ios":"levelo://app?vid=aab8b3b6-261f-4fd6-81f1-205e122a8ca1"},"vehicle_type_id":"4","last_reported":1700370405,"current_range_meters":20400,"station_id":"ce4bh2h2rcd13ifvqdh0","pricing_plan_id":"free"},{"bike_id":"57391279-4065-4d04-8eb3-22580192316d","system_id":"levelo_inurba_marseille","lat":43.289411,"lon":5.36635,"is_reserved":false,"is_disabled":false,"rental_uris":{"android":"levelo://app?vid=57391279-4065-4d04-8eb3-22580192316d","ios":"levelo://app?vid=57391279-4065-4d04-8eb3-22580192316d"},"vehicle_type_id":"4","last_reported":1700370405,"current_range_meters":31200,"station_id":"ce4bhap2rcd13ifvqek0","pricing_plan_id":"free"},{"bike_id":"2f5c7951-a851-4ce4-b180-17f735769598","system_id":"levelo_inurba_marseille","lat":43.28941,"lon":5.36638,"is_reserved":false,"is_disabled":false,"rental_uris":{"android":"levelo://app?vid=2f5c7951-a851-4ce4-b180-17f735769598","ios":"levelo://app?vid=2f5c7951-a851-4ce4-b180-17f735769598"},"vehicle_type_id":"4","last_reported":1700370405,"current_range_meters":30800,"station_id":"ce4bhap2rcd13ifvqek0","pricing_plan_id":"free"},{"bike_id":"ae37edc8-c7d5-4f48-93c0-5d5a60d3e192","system_id":"levelo_inurba_marseille","lat":43.289468,"lon":5.363719,"is_reserved":false,"is_disabled":false,"rental_uris":{"android":"levelo://app?vid=ae37edc8-c7d5-4f48-93c0-5d5a60d3e192","ios":"levelo://app?vid=ae37edc8-c7d5-4f48-93c0-5d5a60d3e192"},"vehicle_type_id":"4","last_reported":1700370405,"current_range_meters":31600,"station_id":"ce4bhc92rcd13ifvqetg","pricing_plan_id":"free"},{"bike_id":"46509513-12f0-4bae-91ab-3b5bb7ed22cf","system_id":"levelo_inurba_marseille","lat":43.290104,"lon":5.356111,"is_reserved":false,"is_disabled":false,"rental_uris":{"android":"levelo://app?vid=46509513-12f0-4bae-91ab-3b5bb7ed22cf","ios":"levelo://app?vid=46509513-12f0-4bae-91ab-3b5bb7ed22cf"},"vehicle_type_id":"4","last_reported":1700370405,"current_range_meters":30400,"station_id":"ce4bhb92rcd13ifvqen0","pricing_plan_id":"free"},{"bike_id":"c053e55a-b36d-4c97-b222-c56232dfc123","system_id":"levelo_inurba_marseille","lat":43.29789,"lon":5.39345,"is_reserved":false,"is_disabled":false,"rental_uris":{"android":"levelo://app?vid=c053e55a-b36d-4c97-b222-c56232dfc123","ios":"levelo://app?vid=c053e55a-b36d-4c97-b222-c56232dfc123"},"vehicle_type_id":"4","last_reported":1700370405,"current_range_meters":25200,"station_id":"chh1huq6cuj3fo74tm60","pricing_plan_id":"free"},{"bike_id":"d412800c-179d-4cb1-9bfe-bc80837cda7c","system_id":"levelo_inurba_marseille","lat":43.29791,"lon":5.39355,"is_reserved":false,"is_disabled":false,"rental_uris":{"android":"levelo://app?vid=d412800c-179d-4cb1-9bfe-bc80837cda7c","ios":"levelo://app?vid=d412800c-179d-4cb1-9bfe-bc80837cda7c"},"vehicle_type_id":"4","last_reported":1700370405,"current_range_meters":26400,"station_id":"chh1huq6cuj3fo74tm60","pricing_plan_id":"free"},{"bike_id":"74e455c1-8cba-401a-96de-e1bc4366a69a","system_id":"levelo_inurba_marseille","lat":43.295169,"lon":5.390426,"is_reserved":false,"is_disabled":false,"rental_uris":{"android":"levelo://app?vid=74e455c1-8cba-401a-96de-e1bc4366a69a","ios":"levelo://app?vid=74e455c1-8cba-401a-96de-e1bc4366a69a"},"vehicle_type_id":"4","last_reported":1700370405,"current_range_meters":24400,"station_id":"ce4bh3p2rcd13ifvqdp0","pricing_plan_id":"free"},{"bike_id":"9994dde4-c2c3-4c48-8028-d08f023bb889","system_id":"levelo_inurba_marseille","lat":43.295169,"lon":5.390426,"is_reserved":false,"is_disabled":false,"rental_uris":{"android":"levelo://app?vid=9994dde4-c2c3-4c48-8028-d08f023bb889","ios":"levelo://app?vid=9994dde4-c2c3-4c48-8028-d08f023bb889"},"vehicle_type_id":"4","last_reported":1700370405,"current_range_meters":22400,"station_id":"ce4bh3p2rcd13ifvqdp0","pricing_plan_id":"free"},{"bike_id":"4b839fc0-878b-4eed-9fc2-f5225b4f213c","system_id":"levelo_inurba_marseille","lat":43.31282,"lon":5.40162,"is_reserved":false,"is_disabled":false,"rental_uris":{"android":"levelo://app?vid=4b839fc0-878b-4eed-9fc2-f5225b4f213c","ios":"levelo://app?vid=4b839fc0-878b-4eed-9fc2-f5225b4f213c"},"vehicle_type_id":"4","last_reported":1700370405,"current_range_meters":0,"station_id":"ce4bh092rcd13ifvqd30","pricing_plan_id":"free"},{"bike_id":"07202f70-50d7-46f0-a5bd-59712659d6a0","system_id":"levelo_inurba_marseille","lat":43.31251,"lon":5.40162,"is_reserved":false,"is_disabled":false,"rental_uris":{"android":"levelo://app?vid=07202f70-50d7-46f0-a5bd-59712659d6a0","ios":"levelo://app?vid=07202f70-50d7-46f0-a5bd-59712659d6a0"},"vehicle_type_id":"4","last_reported":1700370405,"current_range_meters":12400,"station_id":"","pricing_plan_id":"free"},{"bike_id":"f4f5557f-7c2e-4209-8343-e63626bdc963","system_id":"levelo_inurba_marseille","lat":43.312609,"lon":5.401662,"is_reserved":false,"is_disabled":false,"rental_uris":{"android":"levelo://app?vid=f4f5557f-7c2e-4209-8343-e63626bdc963","ios":"levelo://app?vid=f4f5557f-7c2e-4209-8343-e63626bdc963"},"vehicle_type_id":"4","last_reported":1700370405,"current_range_meters":0,"station_id":"ce4bh092rcd13ifvqd30","pricing_plan_id":"free"},{"bike_id":"4a1eeebc-381a-42de-a98e-f332397794af","system_id":"levelo_inurba_marseille","lat":43.3093,"lon":5.401343,"is_reserved":false,"is_disabled":false,"rental_uris":{"android":"levelo://app?vid=4a1eeebc-381a-42de-a98e-f332397794af","ios":"levelo://app?vid=4a1eeebc-381a-42de-a98e-f332397794af"},"vehicle_type_id":"4","last_reported":1700370405,"current_range_meters":31200,"station_id":"ce4bgvp2rcd13ifvqct0","pricing_plan_id":"free"},{"bike_id":"b7de220e-6ef0-47ba-aa78-16023a6f960b","system_id":"levelo_inurba_marseille","lat":43.312765,"lon":5.4017,"is_reserved":false,"is_disabled":false,"rental_uris":{"android":"levelo://app?vid=b7de220e-6ef0-47ba-aa78-16023a6f960b","ios":"levelo://app?vid=b7de220e-6ef0-47ba-aa78-16023a6f960b"},"vehicle_type_id":"4","last_reported":1700370405,"current_range_meters":19200,"station_id":"ce4bh092rcd13ifvqd30","pricing_plan_id":"free"},{"bike_id":"e7150089-9d6d-41fd-9e10-330e1e4530dc","system_id":"levelo_inurba_marseille","lat":43.309294,"lon":5.401378,"is_reserved":false,"is_disabled":false,"rental_uris":{"android":"levelo://app?vid=e7150089-9d6d-41fd-9e10-330e1e4530dc","ios":"levelo://app?vid=e7150089-9d6d-41fd-9e10-330e1e4530dc"},"vehicle_type_id":"4","last_reported":1700370405,"current_range_meters":12000,"station_id":"ce4bgvp2rcd13ifvqct0","pricing_plan_id":"free"},{"bike_id":"55e03788-2a8a-437b-b98d-eddedafa78d8","system_id":"levelo_inurba_marseille","lat":43.312766,"lon":5.401717,"is_reserved":false,"is_disabled":false,"rental_uris":{"android":"levelo://app?vid=55e03788-2a8a-437b-b98d-eddedafa78d8","ios":"levelo://app?vid=55e03788-2a8a-437b-b98d-eddedafa78d8"},"vehicle_type_id":"4","last_reported":1700370405,"current_range_meters":30800,"station_id":"ce4bh092rcd13ifvqd30","pricing_plan_id":"free"},{"bike_id":"e4a0f8e7-3f6a-4ebf-b368-7c180166208f","system_id":"levelo_inurba_marseille","lat":43.312609,"lon":5.401662,"is_reserved":false,"is_disabled":false,"rental_uris":{"android":"levelo://app?vid=e4a0f8e7-3f6a-4ebf-b368-7c180166208f","ios":"levelo://app?vid=e4a0f8e7-3f6a-4ebf-b368-7c180166208f"},"vehicle_type_id":"4","last_reported":1700370405,"current_range_meters":28400,"station_id":"ce4bh092rcd13ifvqd30","pricing_plan_id":"free"},{"bike_id":"1e6bc39f-70a0-4e65-902a-720fd9cb3bff","system_id":"levelo_inurba_marseille","lat":43.31287,"lon":5.40174,"is_reserved":false,"is_disabled":false,"rental_uris":{"android":"levelo://app?vid=1e6bc39f-70a0-4e65-902a-720fd9cb3bff","ios":"levelo://app?vid=1e6bc39f-70a0-4e65-902a-720fd9cb3bff"},"vehicle_type_id":"4","last_reported":1700370405,"current_range_meters":31200,"station_id":"ce4bh092rcd13ifvqd30","pricing_plan_id":"free"},{"bike_id":"cab89be7-ab55-4d57-ade5-a34f0df05730","system_id":"levelo_inurba_marseille","lat":43.30931,"lon":5.401421,"is_reserved":false,"is_disabled":false,"rental_uris":{"android":"levelo://app?vid=cab89be7-ab55-4d57-ade5-a34f0df05730","ios":"levelo://app?vid=cab89be7-ab55-4d57-ade5-a34f0df05730"},"vehicle_type_id":"4","last_reported":1700370405,"current_range_meters":31200,"station_id":"ce4bgvp2rcd13ifvqct0","pricing_plan_id":"free"},{"bike_id":"92c8cf7d-056f-4367-9077-8479d31824c1","system_id":"levelo_inurba_marseille","lat":43.30934,"lon":5.40144,"is_reserved":false,"is_disabled":false,"rental_uris":{"android":"levelo://app?vid=92c8cf7d-056f-4367-9077-8479d31824c1","ios":"levelo://app?vid=92c8cf7d-056f-4367-9077-8479d31824c1"},"vehicle_type_id":"4","last_reported":1700370405,"current_range_meters":31200,"station_id":"ce4bgvp2rcd13ifvqct0","pricing_plan_id":"free"},{"bike_id":"e7f2efae-311a-4fe0-878e-a473067364d2","system_id":"levelo_inurba_marseille","lat":43.3093,"lon":5.40148,"is_reserved":false,"is_disabled":false,"rental_uris":{"android":"levelo://app?vid=e7f2efae-311a-4fe0-878e-a473067364d2","ios":"levelo://app?vid=e7f2efae-311a-4fe0-878e-a473067364d2"},"vehicle_type_id":"4","last_reported":1700370405,"current_range_meters":31200,"station_id":"ce4bgvp2rcd13ifvqct0","pricing_plan_id":"free"},{"bike_id":"667ca90d-ec03-4885-8bad-4cdb726bdb71","system_id":"levelo_inurba_marseille","lat":43.308962,"lon":5.401508,"is_reserved":false,"is_disabled":false,"rental_uris":{"android":"levelo://app?vid=667ca90d-ec03-4885-8bad-4cdb726bdb71","ios":"levelo://app?vid=667ca90d-ec03-4885-8bad-4cdb726bdb71"},"vehicle_type_id":"4","last_reported":1700370405,"current_range_meters":30800,"station_id":"ce4bgvp2rcd13ifvqct0","pricing_plan_id":"free"},{"bike_id":"66814a50-7be1-4e56-83a2-972f681c0b6d","system_id":"levelo_inurba_marseille","lat":43.30642,"lon":5.401031,"is_reserved":false,"is_disabled":false,"rental_uris":{"android":"levelo://app?vid=66814a50-7be1-4e56-83a2-972f681c0b6d","ios":"levelo://app?vid=66814a50-7be1-4e56-83a2-972f681c0b6d"},"vehicle_type_id":"4","last_reported":1700370405,"current_range_meters":25600,"station_id":"ce4bh112rcd13ifvqda0","pricing_plan_id":"free"},{"bike_id":"70aa7f9c-9f54-4d73-baea-40672d909afe","system_id":"levelo_inurba_marseille","lat":43.28727,"lon":5.36078,"is_reserved":false,"is_disabled":false,"rental_uris":{"android":"levelo://app?vid=70aa7f9c-9f54-4d73-baea-40672d909afe","ios":"levelo://app?vid=70aa7f9c-9f54-4d73-baea-40672d909afe"},"vehicle_type_id":"4","last_reported":1700370405,"current_range_meters":29600,"station_id":"cki0cbj6b192h4jlfktg","pricing_plan_id":"free"},{"bike_id":"80f0407b-2cda-4fc5-8d4b-b0681a7c9611","system_id":"levelo_inurba_marseille","lat":43.28727,"lon":5.36078,"is_reserved":false,"is_disabled":false,"rental_uris":{"android":"levelo://app?vid=80f0407b-2cda-4fc5-8d4b-b0681a7c9611","ios":"levelo://app?vid=80f0407b-2cda-4fc5-8d4b-b0681a7c9611"},"vehicle_type_id":"4","last_reported":1700370405,"current_range_meters":32000,"station_id":"cki0cbj6b192h4jlfktg","pricing_plan_id":"free"},{"bike_id":"8e5cf5c8-1dc2-4e3c-a31e-02e895926b4b","system_id":"levelo_inurba_marseille","lat":43.28727,"lon":5.36078,"is_reserved":false,"is_disabled":false,"rental_uris":{"android":"levelo://app?vid=8e5cf5c8-1dc2-4e3c-a31e-02e895926b4b","ios":"levelo://app?vid=8e5cf5c8-1dc2-4e3c-a31e-02e895926b4b"},"vehicle_type_id":"4","last_reported":1700370405,"current_range_meters":14000,"station_id":"cki0cbj6b192h4jlfktg","pricing_plan_id":"free"},{"bike_id":"4cd639b0-092a-4370-9ad5-f9bd06344ddb","system_id":"levelo_inurba_marseille","lat":43.28727,"lon":5.36078,"is_reserved":false,"is_disabled":false,"rental_uris":{"android":"levelo://app?vid=4cd639b0-092a-4370-9ad5-f9bd06344ddb","ios":"levelo://app?vid=4cd639b0-092a-4370-9ad5-f9bd06344ddb"},"vehicle_type_id":"4","last_reported":1700370405,"current_range_meters":32000,"station_id":"cki0cbj6b192h4jlfktg","pricing_plan_id":"free"},{"bike_id":"8dd26faf-5e5e-49c9-a24a-3557661766d9","system_id":"levelo_inurba_marseille","lat":43.29519,"lon":5.39409,"is_reserved":false,"is_disabled":false,"rental_uris":{"android":"levelo://app?vid=8dd26faf-5e5e-49c9-a24a-3557661766d9","ios":"levelo://app?vid=8dd26faf-5e5e-49c9-a24a-3557661766d9"},"vehicle_type_id":"4","last_reported":1700370405,"current_range_meters":0,"station_id":"ce4bh292rcd13ifvqdf0","pricing_plan_id":"free"},{"bike_id":"6eae667f-7c4b-4408-83ce-34f59127f726","system_id":"levelo_inurba_marseille","lat":43.28927,"lon":5.384,"is_reserved":false,"is_disabled":false,"rental_uris":{"android":"levelo://app?vid=6eae667f-7c4b-4408-83ce-34f59127f726","ios":"levelo://app?vid=6eae667f-7c4b-4408-83ce-34f59127f726"},"vehicle_type_id":"4","last_reported":1700370405,"current_range_meters":27600,"station_id":"ce4bh612rcd13ifvqe6g","pricing_plan_id":"free"},{"bike_id":"9e497060-7a10-4509-8414-3f62eace5404","system_id":"levelo_inurba_marseille","lat":43.286039,"lon":5.370679,"is_reserved":false,"is_disabled":false,"rental_uris":{"android":"levelo://app?vid=9e497060-7a10-4509-8414-3f62eace5404","ios":"levelo://app?vid=9e497060-7a10-4509-8414-3f62eace5404"},"vehicle_type_id":"4","last_reported":1700370405,"current_range_meters":27200,"station_id":"ce4bht12rcd13ifvqi60","pricing_plan_id":"free"},{"bike_id":"7ee27ccf-4daf-4edb-a33b-e9b106f4f2f6","system_id":"levelo_inurba_marseille","lat":43.316517,"lon":5.404375,"is_reserved":false,"is_disabled":false,"rental_uris":{"android":"levelo://app?vid=7ee27ccf-4daf-4edb-a33b-e9b106f4f2f6","ios":"levelo://app?vid=7ee27ccf-4daf-4edb-a33b-e9b106f4f2f6"},"vehicle_type_id":"4","last_reported":1700370405,"current_range_meters":22000,"station_id":"ce4bh012rcd13ifvqd00","pricing_plan_id":"free"},{"bike_id":"88045c23-640f-4e0c-a343-9dc3f806bfdf","system_id":"levelo_inurba_marseille","lat":43.284534,"lon":5.358662,"is_reserved":false,"is_disabled":false,"rental_uris":{"android":"levelo://app?vid=88045c23-640f-4e0c-a343-9dc3f806bfdf","ios":"levelo://app?vid=88045c23-640f-4e0c-a343-9dc3f806bfdf"},"vehicle_type_id":"4","last_reported":1700370405,"current_range_meters":20800,"station_id":"ce4bhah2rcd13ifvqei0","pricing_plan_id":"free"},{"bike_id":"bff49b80-88e8-4f17-acee-aed693088ed4","system_id":"levelo_inurba_marseille","lat":43.284611,"lon":5.358969,"is_reserved":false,"is_disabled":false,"rental_uris":{"android":"levelo://app?vid=bff49b80-88e8-4f17-acee-aed693088ed4","ios":"levelo://app?vid=bff49b80-88e8-4f17-acee-aed693088ed4"},"vehicle_type_id":"4","last_reported":1700370405,"current_range_meters":28000,"station_id":"ce4bhah2rcd13ifvqei0","pricing_plan_id":"free"},{"bike_id":"99de5e8e-71b0-4ad2-b517-84e912871ac8","system_id":"levelo_inurba_marseille","lat":43.284538,"lon":5.358657,"is_reserved":false,"is_disabled":false,"rental_uris":{"android":"levelo://app?vid=99de5e8e-71b0-4ad2-b517-84e912871ac8","ios":"levelo://app?vid=99de5e8e-71b0-4ad2-b517-84e912871ac8"},"vehicle_type_id":"4","last_reported":1700370405,"current_range_meters":30400,"station_id":"ce4bhah2rcd13ifvqei0","pricing_plan_id":"free"},{"bike_id":"4a2c745f-5bab-4993-ad8f-d91bff5b4aeb","system_id":"levelo_inurba_marseille","lat":43.284534,"lon":5.358662,"is_reserved":false,"is_disabled":false,"rental_uris":{"android":"levelo://app?vid=4a2c745f-5bab-4993-ad8f-d91bff5b4aeb","ios":"levelo://app?vid=4a2c745f-5bab-4993-ad8f-d91bff5b4aeb"},"vehicle_type_id":"4","last_reported":1700370405,"current_range_meters":31600,"station_id":"ce4bhah2rcd13ifvqei0","pricing_plan_id":"free"},{"bike_id":"4a96ea9f-08d4-4c56-8260-57216b0fc889","system_id":"levelo_inurba_marseille","lat":43.284538,"lon":5.358657,"is_reserved":false,"is_disabled":false,"rental_uris":{"android":"levelo://app?vid=4a96ea9f-08d4-4c56-8260-57216b0fc889","ios":"levelo://app?vid=4a96ea9f-08d4-4c56-8260-57216b0fc889"},"vehicle_type_id":"4","last_reported":1700370405,"current_range_meters":24000,"station_id":"ce4bhah2rcd13ifvqei0","pricing_plan_id":"free"},{"bike_id":"ff93a1e4-e569-4e9b-a5f3-5b5f552fe74a","system_id":"levelo_inurba_marseille","lat":43.284534,"lon":5.358662,"is_reserved":false,"is_disabled":false,"rental_uris":{"android":"levelo://app?vid=ff93a1e4-e569-4e9b-a5f3-5b5f552fe74a","ios":"levelo://app?vid=ff93a1e4-e569-4e9b-a5f3-5b5f552fe74a"},"vehicle_type_id":"4","last_reported":1700370405,"current_range_meters":31600,"station_id":"ce4bhah2rcd13ifvqei0","pricing_plan_id":"free"},{"bike_id":"48c82686-5999-4e77-a74a-40833e7a58eb","system_id":"levelo_inurba_marseille","lat":43.284534,"lon":5.358662,"is_reserved":false,"is_disabled":false,"rental_uris":{"android":"levelo://app?vid=48c82686-5999-4e77-a74a-40833e7a58eb","ios":"levelo://app?vid=48c82686-5999-4e77-a74a-40833e7a58eb"},"vehicle_type_id":"4","last_reported":1700370405,"current_range_meters":30400,"station_id":"ce4bhah2rcd13ifvqei0","pricing_plan_id":"free"},{"bike_id":"5e652d9d-c310-4a42-9d7f-dd12383980c4","system_id":"levelo_inurba_marseille","lat":43.284538,"lon":5.358657,"is_reserved":false,"is_disabled":false,"rental_uris":{"android":"levelo://app?vid=5e652d9d-c310-4a42-9d7f-dd12383980c4","ios":"levelo://app?vid=5e652d9d-c310-4a42-9d7f-dd12383980c4"},"vehicle_type_id":"4","last_reported":1700370405,"current_range_meters":31600,"station_id":"ce4bhah2rcd13ifvqei0","pricing_plan_id":"free"},{"bike_id":"d52ead6f-d763-4ce5-8041-1785f1e29ef4","system_id":"levelo_inurba_marseille","lat":43.294314,"lon":5.397498,"is_reserved":false,"is_disabled":false,"rental_uris":{"android":"levelo://app?vid=d52ead6f-d763-4ce5-8041-1785f1e29ef4","ios":"levelo://app?vid=d52ead6f-d763-4ce5-8041-1785f1e29ef4"},"vehicle_type_id":"4","last_reported":1700370405,"current_range_meters":26000,"station_id":"ce4bh3h2rcd13ifvqdo0","pricing_plan_id":"free"},{"bike_id":"95876aef-c84c-47db-99f2-a3c4ba238a6f","system_id":"levelo_inurba_marseille","lat":43.284538,"lon":5.358657,"is_reserved":false,"is_disabled":false,"rental_uris":{"android":"levelo://app?vid=95876aef-c84c-47db-99f2-a3c4ba238a6f","ios":"levelo://app?vid=95876aef-c84c-47db-99f2-a3c4ba238a6f"},"vehicle_type_id":"4","last_reported":1700370405,"current_range_meters":30800,"station_id":"ce4bhah2rcd13ifvqei0","pricing_plan_id":"free"},{"bike_id":"d38ee61b-dcaf-4445-9f33-c4eb2bdf73d4","system_id":"levelo_inurba_marseille","lat":43.284538,"lon":5.358657,"is_reserved":false,"is_disabled":false,"rental_uris":{"android":"levelo://app?vid=d38ee61b-dcaf-4445-9f33-c4eb2bdf73d4","ios":"levelo://app?vid=d38ee61b-dcaf-4445-9f33-c4eb2bdf73d4"},"vehicle_type_id":"4","last_reported":1700370405,"current_range_meters":30000,"station_id":"ce4bhah2rcd13ifvqei0","pricing_plan_id":"free"},{"bike_id":"c5702630-2c8d-47e5-8918-d2cea553181f","system_id":"levelo_inurba_marseille","lat":43.28621,"lon":5.35101,"is_reserved":false,"is_disabled":false,"rental_uris":{"android":"levelo://app?vid=c5702630-2c8d-47e5-8918-d2cea553181f","ios":"levelo://app?vid=c5702630-2c8d-47e5-8918-d2cea553181f"},"vehicle_type_id":"4","last_reported":1700370405,"current_range_meters":31200,"station_id":"ce4bhch2rcd13ifvqeug","pricing_plan_id":"free"},{"bike_id":"b1ab8597-205d-47d1-877b-ac3c873d571e","system_id":"levelo_inurba_marseille","lat":43.286158,"lon":5.350991,"is_reserved":false,"is_disabled":false,"rental_uris":{"android":"levelo://app?vid=b1ab8597-205d-47d1-877b-ac3c873d571e","ios":"levelo://app?vid=b1ab8597-205d-47d1-877b-ac3c873d571e"},"vehicle_type_id":"4","last_reported":1700370405,"current_range_meters":30400,"station_id":"ce4bhch2rcd13ifvqeug","pricing_plan_id":"free"},{"bike_id":"28c3b8cf-817a-47f0-91e9-3d0ede8e9123","system_id":"levelo_inurba_marseille","lat":43.283998,"lon":5.375062,"is_reserved":false,"is_disabled":false,"rental_uris":{"android":"levelo://app?vid=28c3b8cf-817a-47f0-91e9-3d0ede8e9123","ios":"levelo://app?vid=28c3b8cf-817a-47f0-91e9-3d0ede8e9123"},"vehicle_type_id":"4","last_reported":1700370405,"current_range_meters":32000,"station_id":"ce4bh412rcd13ifvqds0","pricing_plan_id":"free"},{"bike_id":"8a6329af-f488-4217-b872-47e3ac29345c","system_id":"levelo_inurba_marseille","lat":43.283998,"lon":5.375062,"is_reserved":false,"is_disabled":false,"rental_uris":{"android":"levelo://app?vid=8a6329af-f488-4217-b872-47e3ac29345c","ios":"levelo://app?vid=8a6329af-f488-4217-b872-47e3ac29345c"},"vehicle_type_id":"4","last_reported":1700370405,"current_range_meters":31600,"station_id":"ce4bh412rcd13ifvqds0","pricing_plan_id":"free"},{"bike_id":"20a071b1-1755-47f8-91c1-fff4973bbaa9","system_id":"levelo_inurba_marseille","lat":43.295713,"lon":5.399639,"is_reserved":false,"is_disabled":false,"rental_uris":{"android":"levelo://app?vid=20a071b1-1755-47f8-91c1-fff4973bbaa9","ios":"levelo://app?vid=20a071b1-1755-47f8-91c1-fff4973bbaa9"},"vehicle_type_id":"4","last_reported":1700370405,"current_range_meters":26800,"station_id":"ce4bh312rcd13ifvqdj0","pricing_plan_id":"free"},{"bike_id":"d94dfb15-e572-4e59-af3c-ee7cbd62cef5","system_id":"levelo_inurba_marseille","lat":43.295717,"lon":5.399697,"is_reserved":false,"is_disabled":false,"rental_uris":{"android":"levelo://app?vid=d94dfb15-e572-4e59-af3c-ee7cbd62cef5","ios":"levelo://app?vid=d94dfb15-e572-4e59-af3c-ee7cbd62cef5"},"vehicle_type_id":"4","last_reported":1700370405,"current_range_meters":11200,"station_id":"","pricing_plan_id":"free"},{"bike_id":"7c7d30eb-a494-4deb-8864-e3c61d7653da","system_id":"levelo_inurba_marseille","lat":43.283998,"lon":5.375062,"is_reserved":false,"is_disabled":false,"rental_uris":{"android":"levelo://app?vid=7c7d30eb-a494-4deb-8864-e3c61d7653da","ios":"levelo://app?vid=7c7d30eb-a494-4deb-8864-e3c61d7653da"},"vehicle_type_id":"4","last_reported":1700370405,"current_range_meters":17600,"station_id":"ce4bh412rcd13ifvqds0","pricing_plan_id":"free"},{"bike_id":"d793e733-3184-402a-8220-a5e6c61f5fac","system_id":"levelo_inurba_marseille","lat":43.286788,"lon":5.3866,"is_reserved":false,"is_disabled":false,"rental_uris":{"android":"levelo://app?vid=d793e733-3184-402a-8220-a5e6c61f5fac","ios":"levelo://app?vid=d793e733-3184-402a-8220-a5e6c61f5fac"},"vehicle_type_id":"4","last_reported":1700370405,"current_range_meters":28800,"station_id":"ce4bh492rcd13ifvqdug","pricing_plan_id":"free"},{"bike_id":"c5a2d4b5-7c89-4c95-8e5d-a23ec5bc6147","system_id":"levelo_inurba_marseille","lat":43.286595,"lon":5.386795,"is_reserved":false,"is_disabled":false,"rental_uris":{"android":"levelo://app?vid=c5a2d4b5-7c89-4c95-8e5d-a23ec5bc6147","ios":"levelo://app?vid=c5a2d4b5-7c89-4c95-8e5d-a23ec5bc6147"},"vehicle_type_id":"4","last_reported":1700370405,"current_range_meters":21200,"station_id":"ce4bh492rcd13ifvqdug","pricing_plan_id":"free"},{"bike_id":"6ceb3cef-1d60-41ab-a3ae-5342da1ad23b","system_id":"levelo_inurba_marseille","lat":43.286595,"lon":5.386795,"is_reserved":false,"is_disabled":false,"rental_uris":{"android":"levelo://app?vid=6ceb3cef-1d60-41ab-a3ae-5342da1ad23b","ios":"levelo://app?vid=6ceb3cef-1d60-41ab-a3ae-5342da1ad23b"},"vehicle_type_id":"4","last_reported":1700370405,"current_range_meters":26000,"station_id":"ce4bh492rcd13ifvqdug","pricing_plan_id":"free"},{"bike_id":"8ea4d595-0e85-412a-a574-6a086b52c3f2","system_id":"levelo_inurba_marseille","lat":43.319179,"lon":5.407725,"is_reserved":false,"is_disabled":false,"rental_uris":{"android":"levelo://app?vid=8ea4d595-0e85-412a-a574-6a086b52c3f2","ios":"levelo://app?vid=8ea4d595-0e85-412a-a574-6a086b52c3f2"},"vehicle_type_id":"4","last_reported":1700370405,"current_range_meters":11200,"station_id":"ce4bhq12rcd13ifvqhig","pricing_plan_id":"free"},{"bike_id":"8a102211-eb74-4e67-a6e6-12746e21ef5e","system_id":"levelo_inurba_marseille","lat":43.319179,"lon":5.407725,"is_reserved":false,"is_disabled":false,"rental_uris":{"android":"levelo://app?vid=8a102211-eb74-4e67-a6e6-12746e21ef5e","ios":"levelo://app?vid=8a102211-eb74-4e67-a6e6-12746e21ef5e"},"vehicle_type_id":"4","last_reported":1700370405,"current_range_meters":32000,"station_id":"ce4bhq12rcd13ifvqhig","pricing_plan_id":"free"},{"bike_id":"8e8dadb8-56a7-4b9a-bb77-49107de74ef9","system_id":"levelo_inurba_marseille","lat":43.319179,"lon":5.407725,"is_reserved":false,"is_disabled":false,"rental_uris":{"android":"levelo://app?vid=8e8dadb8-56a7-4b9a-bb77-49107de74ef9","ios":"levelo://app?vid=8e8dadb8-56a7-4b9a-bb77-49107de74ef9"},"vehicle_type_id":"4","last_reported":1700370405,"current_range_meters":30000,"station_id":"ce4bhq12rcd13ifvqhig","pricing_plan_id":"free"},{"bike_id":"5974ad3b-da81-42ca-a08b-1b3632a47afa","system_id":"levelo_inurba_marseille","lat":43.33237,"lon":5.3985,"is_reserved":false,"is_disabled":false,"rental_uris":{"android":"levelo://app?vid=5974ad3b-da81-42ca-a08b-1b3632a47afa","ios":"levelo://app?vid=5974ad3b-da81-42ca-a08b-1b3632a47afa"},"vehicle_type_id":"4","last_reported":1700370405,"current_range_meters":2800,"station_id":"","pricing_plan_id":"free"},{"bike_id":"a08607c1-816a-491b-a085-3077fb7fb178","system_id":"levelo_inurba_marseille","lat":43.323464,"lon":5.406297,"is_reserved":false,"is_disabled":false,"rental_uris":{"android":"levelo://app?vid=a08607c1-816a-491b-a085-3077fb7fb178","ios":"levelo://app?vid=a08607c1-816a-491b-a085-3077fb7fb178"},"vehicle_type_id":"4","last_reported":1700370405,"current_range_meters":29200,"station_id":"ce4bhq92rcd13ifvqhjg","pricing_plan_id":"free"},{"bike_id":"da748bf9-faf2-4351-8674-5cb8aab6bd9a","system_id":"levelo_inurba_marseille","lat":43.284793,"lon":5.384113,"is_reserved":false,"is_disabled":false,"rental_uris":{"android":"levelo://app?vid=da748bf9-faf2-4351-8674-5cb8aab6bd9a","ios":"levelo://app?vid=da748bf9-faf2-4351-8674-5cb8aab6bd9a"},"vehicle_type_id":"4","last_reported":1700370405,"current_range_meters":20000,"station_id":"ce4bh512rcd13ifvqe3g","pricing_plan_id":"free"},{"bike_id":"a931e768-634f-44d2-92f1-de57a1af87bf","system_id":"levelo_inurba_marseille","lat":43.284787,"lon":5.384116,"is_reserved":false,"is_disabled":false,"rental_uris":{"android":"levelo://app?vid=a931e768-634f-44d2-92f1-de57a1af87bf","ios":"levelo://app?vid=a931e768-634f-44d2-92f1-de57a1af87bf"},"vehicle_type_id":"4","last_reported":1700370405,"current_range_meters":29600,"station_id":"ce4bh512rcd13ifvqe3g","pricing_plan_id":"free"},{"bike_id":"d3dd3e3d-57b0-4c9e-949f-fddd56c2349c","system_id":"levelo_inurba_marseille","lat":43.32521,"lon":5.40575,"is_reserved":false,"is_disabled":false,"rental_uris":{"android":"levelo://app?vid=d3dd3e3d-57b0-4c9e-949f-fddd56c2349c","ios":"levelo://app?vid=d3dd3e3d-57b0-4c9e-949f-fddd56c2349c"},"vehicle_type_id":"4","last_reported":1700370405,"current_range_meters":0,"station_id":"","pricing_plan_id":"free"},{"bike_id":"c6d486a9-02dc-4d81-a1da-09266b366f70","system_id":"levelo_inurba_marseille","lat":43.285997,"lon":5.388356,"is_reserved":false,"is_disabled":false,"rental_uris":{"android":"levelo://app?vid=c6d486a9-02dc-4d81-a1da-09266b366f70","ios":"levelo://app?vid=c6d486a9-02dc-4d81-a1da-09266b366f70"},"vehicle_type_id":"4","last_reported":1700370405,"current_range_meters":31200,"station_id":"ce4bh492rcd13ifvqdug","pricing_plan_id":"free"},{"bike_id":"db6c6c1b-cc54-4be6-8b0d-7997173745b5","system_id":"levelo_inurba_marseille","lat":43.283498,"lon":5.380948,"is_reserved":false,"is_disabled":false,"rental_uris":{"android":"levelo://app?vid=db6c6c1b-cc54-4be6-8b0d-7997173745b5","ios":"levelo://app?vid=db6c6c1b-cc54-4be6-8b0d-7997173745b5"},"vehicle_type_id":"4","last_reported":1700370405,"current_range_meters":0,"station_id":"ce4bh412rcd13ifvqdr0","pricing_plan_id":"free"},{"bike_id":"c80eeaf4-c639-4334-b2ea-70e06212530d","system_id":"levelo_inurba_marseille","lat":43.288497,"lon":5.393089,"is_reserved":false,"is_disabled":false,"rental_uris":{"android":"levelo://app?vid=c80eeaf4-c639-4334-b2ea-70e06212530d","ios":"levelo://app?vid=c80eeaf4-c639-4334-b2ea-70e06212530d"},"vehicle_type_id":"4","last_reported":1700370405,"current_range_meters":25600,"station_id":"ce4bh2p2rcd13ifvqdi0","pricing_plan_id":"free"},{"bike_id":"7a1b707c-0456-43af-a93b-6ba1c14178b9","system_id":"levelo_inurba_marseille","lat":43.282758,"lon":5.350687,"is_reserved":false,"is_disabled":false,"rental_uris":{"android":"levelo://app?vid=7a1b707c-0456-43af-a93b-6ba1c14178b9","ios":"levelo://app?vid=7a1b707c-0456-43af-a93b-6ba1c14178b9"},"vehicle_type_id":"4","last_reported":1700370405,"current_range_meters":24400,"station_id":"ce4bhbp2rcd13ifvqerg","pricing_plan_id":"free"},{"bike_id":"36c651bc-b323-4c84-8b87-431c8fea31a2","system_id":"levelo_inurba_marseille","lat":43.283632,"lon":5.386293,"is_reserved":false,"is_disabled":false,"rental_uris":{"android":"levelo://app?vid=36c651bc-b323-4c84-8b87-431c8fea31a2","ios":"levelo://app?vid=36c651bc-b323-4c84-8b87-431c8fea31a2"},"vehicle_type_id":"4","last_reported":1700370405,"current_range_meters":21600,"station_id":"ce4bh492rcd13ifvqdvg","pricing_plan_id":"free"},{"bike_id":"68825cec-1de1-4176-ac15-f0c3ac78406a","system_id":"levelo_inurba_marseille","lat":43.28039,"lon":5.369297,"is_reserved":false,"is_disabled":false,"rental_uris":{"android":"levelo://app?vid=68825cec-1de1-4176-ac15-f0c3ac78406a","ios":"levelo://app?vid=68825cec-1de1-4176-ac15-f0c3ac78406a"},"vehicle_type_id":"4","last_reported":1700370405,"current_range_meters":31200,"station_id":"ce4bha12rcd13ifvqef0","pricing_plan_id":"free"},{"bike_id":"df348ccf-7ffc-4253-95f7-bf3beb0b8892","system_id":"levelo_inurba_marseille","lat":43.280382,"lon":5.369291,"is_reserved":false,"is_disabled":false,"rental_uris":{"android":"levelo://app?vid=df348ccf-7ffc-4253-95f7-bf3beb0b8892","ios":"levelo://app?vid=df348ccf-7ffc-4253-95f7-bf3beb0b8892"},"vehicle_type_id":"4","last_reported":1700370405,"current_range_meters":28000,"station_id":"ce4bha12rcd13ifvqef0","pricing_plan_id":"free"},{"bike_id":"d283194f-f33c-4faa-8ab2-5a34201c86b8","system_id":"levelo_inurba_marseille","lat":43.29635,"lon":5.40584,"is_reserved":false,"is_disabled":false,"rental_uris":{"android":"levelo://app?vid=d283194f-f33c-4faa-8ab2-5a34201c86b8","ios":"levelo://app?vid=d283194f-f33c-4faa-8ab2-5a34201c86b8"},"vehicle_type_id":"4","last_reported":1700370405,"current_range_meters":12400,"station_id":"ce4bh0h2rcd13ifvqd60","pricing_plan_id":"free"},{"bike_id":"937e66a4-0cbe-4440-b785-2620a1904ade","system_id":"levelo_inurba_marseille","lat":43.29634,"lon":5.40593,"is_reserved":false,"is_disabled":false,"rental_uris":{"android":"levelo://app?vid=937e66a4-0cbe-4440-b785-2620a1904ade","ios":"levelo://app?vid=937e66a4-0cbe-4440-b785-2620a1904ade"},"vehicle_type_id":"4","last_reported":1700370405,"current_range_meters":24400,"station_id":"ce4bh0h2rcd13ifvqd60","pricing_plan_id":"free"},{"bike_id":"e721ec60-be20-45bb-bca1-ca442839e991","system_id":"levelo_inurba_marseille","lat":43.296263,"lon":5.40601,"is_reserved":false,"is_disabled":false,"rental_uris":{"android":"levelo://app?vid=e721ec60-be20-45bb-bca1-ca442839e991","ios":"levelo://app?vid=e721ec60-be20-45bb-bca1-ca442839e991"},"vehicle_type_id":"4","last_reported":1700370405,"current_range_meters":28400,"station_id":"ce4bh0h2rcd13ifvqd60","pricing_plan_id":"free"},{"bike_id":"8c031073-86bb-4f0d-833a-13c788c3fb64","system_id":"levelo_inurba_marseille","lat":43.296263,"lon":5.40601,"is_reserved":false,"is_disabled":false,"rental_uris":{"android":"levelo://app?vid=8c031073-86bb-4f0d-833a-13c788c3fb64","ios":"levelo://app?vid=8c031073-86bb-4f0d-833a-13c788c3fb64"},"vehicle_type_id":"4","last_reported":1700370405,"current_range_meters":24000,"station_id":"ce4bh0h2rcd13ifvqd60","pricing_plan_id":"free"},{"bike_id":"cea45467-b65f-4456-b1c2-7a2ff6c22702","system_id":"levelo_inurba_marseille","lat":43.28445,"lon":5.39177,"is_reserved":false,"is_disabled":false,"rental_uris":{"android":"levelo://app?vid=cea45467-b65f-4456-b1c2-7a2ff6c22702","ios":"levelo://app?vid=cea45467-b65f-4456-b1c2-7a2ff6c22702"},"vehicle_type_id":"4","last_reported":1700370405,"current_range_meters":31200,"station_id":"ce4bhoh2rcd13ifvqh5g","pricing_plan_id":"free"},{"bike_id":"4a2f5acd-50c3-47b4-a30c-85111b37a269","system_id":"levelo_inurba_marseille","lat":43.284442,"lon":5.3919,"is_reserved":false,"is_disabled":false,"rental_uris":{"android":"levelo://app?vid=4a2f5acd-50c3-47b4-a30c-85111b37a269","ios":"levelo://app?vid=4a2f5acd-50c3-47b4-a30c-85111b37a269"},"vehicle_type_id":"4","last_reported":1700370405,"current_range_meters":30800,"station_id":"ce4bhoh2rcd13ifvqh5g","pricing_plan_id":"free"},{"bike_id":"1c1a07e9-da1a-4e40-a4cd-fc32b460b434","system_id":"levelo_inurba_marseille","lat":43.284404,"lon":5.391926,"is_reserved":false,"is_disabled":false,"rental_uris":{"android":"levelo://app?vid=1c1a07e9-da1a-4e40-a4cd-fc32b460b434","ios":"levelo://app?vid=1c1a07e9-da1a-4e40-a4cd-fc32b460b434"},"vehicle_type_id":"4","last_reported":1700370405,"current_range_meters":31200,"station_id":"ce4bhoh2rcd13ifvqh5g","pricing_plan_id":"free"},{"bike_id":"ccf9b17e-2fb6-47d5-b5cb-73ea08fcb6e5","system_id":"levelo_inurba_marseille","lat":43.28575,"lon":5.39498,"is_reserved":false,"is_disabled":false,"rental_uris":{"android":"levelo://app?vid=ccf9b17e-2fb6-47d5-b5cb-73ea08fcb6e5","ios":"levelo://app?vid=ccf9b17e-2fb6-47d5-b5cb-73ea08fcb6e5"},"vehicle_type_id":"4","last_reported":1700370405,"current_range_meters":0,"station_id":"ce4bh292rcd13ifvqdg0","pricing_plan_id":"free"},{"bike_id":"e05860e3-01ce-4b1f-86c7-9f839ae165cc","system_id":"levelo_inurba_marseille","lat":43.304188,"lon":5.412904,"is_reserved":false,"is_disabled":false,"rental_uris":{"android":"levelo://app?vid=e05860e3-01ce-4b1f-86c7-9f839ae165cc","ios":"levelo://app?vid=e05860e3-01ce-4b1f-86c7-9f839ae165cc"},"vehicle_type_id":"4","last_reported":1700370405,"current_range_meters":24000,"station_id":"ce4bhop2rcd13ifvqh8g","pricing_plan_id":"free"},{"bike_id":"c0bd938d-657c-456a-b770-3aca346f0249","system_id":"levelo_inurba_marseille","lat":43.279087,"lon":5.380114,"is_reserved":false,"is_disabled":false,"rental_uris":{"android":"levelo://app?vid=c0bd938d-657c-456a-b770-3aca346f0249","ios":"levelo://app?vid=c0bd938d-657c-456a-b770-3aca346f0249"},"vehicle_type_id":"4","last_reported":1700370405,"current_range_meters":24800,"station_id":"ce4bhf92rcd13ifvqf50","pricing_plan_id":"free"},{"bike_id":"06f154da-4aae-4fe6-8d38-922fd2c19629","system_id":"levelo_inurba_marseille","lat":43.299579,"lon":5.413255,"is_reserved":false,"is_disabled":false,"rental_uris":{"android":"levelo://app?vid=06f154da-4aae-4fe6-8d38-922fd2c19629","ios":"levelo://app?vid=06f154da-4aae-4fe6-8d38-922fd2c19629"},"vehicle_type_id":"4","last_reported":1700370405,"current_range_meters":28800,"station_id":"ce4bhp12rcd13ifvqh9g","pricing_plan_id":"free"},{"bike_id":"322ea6e0-4df4-4470-8cc0-34b3516fee6b","system_id":"levelo_inurba_marseille","lat":43.27973,"lon":5.38736,"is_reserved":false,"is_disabled":false,"rental_uris":{"android":"levelo://app?vid=322ea6e0-4df4-4470-8cc0-34b3516fee6b","ios":"levelo://app?vid=322ea6e0-4df4-4470-8cc0-34b3516fee6b"},"vehicle_type_id":"4","last_reported":1700370405,"current_range_meters":31200,"station_id":"ce4bhg12rcd13ifvqf80","pricing_plan_id":"free"},{"bike_id":"5b90e681-d2f8-454c-906d-51609a7d7396","system_id":"levelo_inurba_marseille","lat":43.320045,"lon":5.415048,"is_reserved":false,"is_disabled":false,"rental_uris":{"android":"levelo://app?vid=5b90e681-d2f8-454c-906d-51609a7d7396","ios":"levelo://app?vid=5b90e681-d2f8-454c-906d-51609a7d7396"},"vehicle_type_id":"4","last_reported":1700370405,"current_range_meters":31200,"station_id":"ce4bhq92rcd13ifvqhkg","pricing_plan_id":"free"},{"bike_id":"846f348a-78f4-4443-ae3c-f8fa9e045253","system_id":"levelo_inurba_marseille","lat":43.279667,"lon":5.387243,"is_reserved":false,"is_disabled":false,"rental_uris":{"android":"levelo://app?vid=846f348a-78f4-4443-ae3c-f8fa9e045253","ios":"levelo://app?vid=846f348a-78f4-4443-ae3c-f8fa9e045253"},"vehicle_type_id":"4","last_reported":1700370405,"current_range_meters":31200,"station_id":"ce4bhg12rcd13ifvqf80","pricing_plan_id":"free"},{"bike_id":"b605a260-916b-460c-8e42-5da4328c4587","system_id":"levelo_inurba_marseille","lat":43.280784,"lon":5.396622,"is_reserved":false,"is_disabled":false,"rental_uris":{"android":"levelo://app?vid=b605a260-916b-460c-8e42-5da4328c4587","ios":"levelo://app?vid=b605a260-916b-460c-8e42-5da4328c4587"},"vehicle_type_id":"4","last_reported":1700370405,"current_range_meters":20800,"station_id":"ce4bho12rcd13ifvqh2g","pricing_plan_id":"free"},{"bike_id":"10606041-6d1f-4abe-8004-6325e0030224","system_id":"levelo_inurba_marseille","lat":43.280784,"lon":5.396622,"is_reserved":false,"is_disabled":false,"rental_uris":{"android":"levelo://app?vid=10606041-6d1f-4abe-8004-6325e0030224","ios":"levelo://app?vid=10606041-6d1f-4abe-8004-6325e0030224"},"vehicle_type_id":"4","last_reported":1700370405,"current_range_meters":31600,"station_id":"ce4bho12rcd13ifvqh2g","pricing_plan_id":"free"},{"bike_id":"d69994bb-c32a-48c3-9c4a-3b835490a2ba","system_id":"levelo_inurba_marseille","lat":43.279952,"lon":5.400085,"is_reserved":false,"is_disabled":false,"rental_uris":{"android":"levelo://app?vid=d69994bb-c32a-48c3-9c4a-3b835490a2ba","ios":"levelo://app?vid=d69994bb-c32a-48c3-9c4a-3b835490a2ba"},"vehicle_type_id":"4","last_reported":1700370405,"current_range_meters":28800,"station_id":"ce4bho92rcd13ifvqh4g","pricing_plan_id":"free"},{"bike_id":"1c489e8f-9c52-4563-a1a2-18535a1743aa","system_id":"levelo_inurba_marseille","lat":43.279899,"lon":5.400134,"is_reserved":false,"is_disabled":false,"rental_uris":{"android":"levelo://app?vid=1c489e8f-9c52-4563-a1a2-18535a1743aa","ios":"levelo://app?vid=1c489e8f-9c52-4563-a1a2-18535a1743aa"},"vehicle_type_id":"4","last_reported":1700370405,"current_range_meters":31600,"station_id":"ce4bho92rcd13ifvqh4g","pricing_plan_id":"free"},{"bike_id":"2b211598-c6f8-4e22-9ff6-5fa6873b8d02","system_id":"levelo_inurba_marseille","lat":43.317121,"lon":5.423936,"is_reserved":false,"is_disabled":false,"rental_uris":{"android":"levelo://app?vid=2b211598-c6f8-4e22-9ff6-5fa6873b8d02","ios":"levelo://app?vid=2b211598-c6f8-4e22-9ff6-5fa6873b8d02"},"vehicle_type_id":"4","last_reported":1700370405,"current_range_meters":28800,"station_id":"ce4bhp92rcd13ifvqhbg","pricing_plan_id":"free"},{"bike_id":"eafeb385-8734-4d6e-872f-817338dfdd8c","system_id":"levelo_inurba_marseille","lat":43.317121,"lon":5.423936,"is_reserved":false,"is_disabled":false,"rental_uris":{"android":"levelo://app?vid=eafeb385-8734-4d6e-872f-817338dfdd8c","ios":"levelo://app?vid=eafeb385-8734-4d6e-872f-817338dfdd8c"},"vehicle_type_id":"4","last_reported":1700370405,"current_range_meters":20000,"station_id":"ce4bhp92rcd13ifvqhbg","pricing_plan_id":"free"},{"bike_id":"0768cc37-b85a-442f-b2dc-d659e217881a","system_id":"levelo_inurba_marseille","lat":43.274099,"lon":5.394019,"is_reserved":false,"is_disabled":false,"rental_uris":{"android":"levelo://app?vid=0768cc37-b85a-442f-b2dc-d659e217881a","ios":"levelo://app?vid=0768cc37-b85a-442f-b2dc-d659e217881a"},"vehicle_type_id":"4","last_reported":1700370405,"current_range_meters":9200,"station_id":"ce4bhdp2rcd13ifvqf20","pricing_plan_id":"free"},{"bike_id":"ce542890-8717-4995-89d1-bfd21ca58cd1","system_id":"levelo_inurba_marseille","lat":43.304096,"lon":5.425385,"is_reserved":false,"is_disabled":false,"rental_uris":{"android":"levelo://app?vid=ce542890-8717-4995-89d1-bfd21ca58cd1","ios":"levelo://app?vid=ce542890-8717-4995-89d1-bfd21ca58cd1"},"vehicle_type_id":"4","last_reported":1700370405,"current_range_meters":12000,"station_id":"ce4bhoh2rcd13ifvqh6g","pricing_plan_id":"free"},{"bike_id":"f8f5619a-a183-461d-b100-453fb972fcd4","system_id":"levelo_inurba_marseille","lat":43.272118,"lon":5.391758,"is_reserved":false,"is_disabled":false,"rental_uris":{"android":"levelo://app?vid=f8f5619a-a183-461d-b100-453fb972fcd4","ios":"levelo://app?vid=f8f5619a-a183-461d-b100-453fb972fcd4"},"vehicle_type_id":"4","last_reported":1700370405,"current_range_meters":22400,"station_id":"ce4bhhp2rcd13ifvqfm0","pricing_plan_id":"free"},{"bike_id":"139753b1-0b83-4c3a-80f1-5052bac15461","system_id":"levelo_inurba_marseille","lat":43.272097,"lon":5.392658,"is_reserved":false,"is_disabled":false,"rental_uris":{"android":"levelo://app?vid=139753b1-0b83-4c3a-80f1-5052bac15461","ios":"levelo://app?vid=139753b1-0b83-4c3a-80f1-5052bac15461"},"vehicle_type_id":"4","last_reported":1700370405,"current_range_meters":9200,"station_id":"","pricing_plan_id":"free"},{"bike_id":"fe139271-7817-4645-9ec4-f7eee743e805","system_id":"levelo_inurba_marseille","lat":43.271896,"lon":5.392307,"is_reserved":false,"is_disabled":false,"rental_uris":{"android":"levelo://app?vid=fe139271-7817-4645-9ec4-f7eee743e805","ios":"levelo://app?vid=fe139271-7817-4645-9ec4-f7eee743e805"},"vehicle_type_id":"4","last_reported":1700370405,"current_range_meters":0,"station_id":"","pricing_plan_id":"free"},{"bike_id":"f0ed4531-078e-42fb-a007-3ed80505eb54","system_id":"levelo_inurba_marseille","lat":43.271891,"lon":5.392412,"is_reserved":false,"is_disabled":false,"rental_uris":{"android":"levelo://app?vid=f0ed4531-078e-42fb-a007-3ed80505eb54","ios":"levelo://app?vid=f0ed4531-078e-42fb-a007-3ed80505eb54"},"vehicle_type_id":"4","last_reported":1700370405,"current_range_meters":4400,"station_id":"","pricing_plan_id":"free"},{"bike_id":"1bb1f57b-0d10-41ae-a19e-26c65bf55841","system_id":"levelo_inurba_marseille","lat":43.27812,"lon":5.40708,"is_reserved":false,"is_disabled":false,"rental_uris":{"android":"levelo://app?vid=1bb1f57b-0d10-41ae-a19e-26c65bf55841","ios":"levelo://app?vid=1bb1f57b-0d10-41ae-a19e-26c65bf55841"},"vehicle_type_id":"4","last_reported":1700370405,"current_range_meters":23200,"station_id":"ce4bhnh2rcd13ifvqgtg","pricing_plan_id":"free"},{"bike_id":"f9aa93c7-ef9b-4c09-b88b-3c4a52c1051f","system_id":"levelo_inurba_marseille","lat":43.278128,"lon":5.407195,"is_reserved":false,"is_disabled":false,"rental_uris":{"android":"levelo://app?vid=f9aa93c7-ef9b-4c09-b88b-3c4a52c1051f","ios":"levelo://app?vid=f9aa93c7-ef9b-4c09-b88b-3c4a52c1051f"},"vehicle_type_id":"4","last_reported":1700370405,"current_range_meters":30400,"station_id":"ce4bhnh2rcd13ifvqgtg","pricing_plan_id":"free"},{"bike_id":"8896c5a0-7832-4d5f-b9a4-f75aa1a0ba71","system_id":"levelo_inurba_marseille","lat":43.279444,"lon":5.410431,"is_reserved":false,"is_disabled":false,"rental_uris":{"android":"levelo://app?vid=8896c5a0-7832-4d5f-b9a4-f75aa1a0ba71","ios":"levelo://app?vid=8896c5a0-7832-4d5f-b9a4-f75aa1a0ba71"},"vehicle_type_id":"4","last_reported":1700370405,"current_range_meters":18400,"station_id":"ce4bhnp2rcd13ifvqh0g","pricing_plan_id":"free"},{"bike_id":"64192382-f50f-4031-b49a-1f0862a4927e","system_id":"levelo_inurba_marseille","lat":43.269319,"lon":5.389397,"is_reserved":false,"is_disabled":false,"rental_uris":{"android":"levelo://app?vid=64192382-f50f-4031-b49a-1f0862a4927e","ios":"levelo://app?vid=64192382-f50f-4031-b49a-1f0862a4927e"},"vehicle_type_id":"4","last_reported":1700370405,"current_range_meters":20400,"station_id":"ce4bhhh2rcd13ifvqfl0","pricing_plan_id":"free"},{"bike_id":"c7758cb2-2a45-4f89-aa5c-0e391d845c76","system_id":"levelo_inurba_marseille","lat":43.326053,"lon":5.429943,"is_reserved":false,"is_disabled":false,"rental_uris":{"android":"levelo://app?vid=c7758cb2-2a45-4f89-aa5c-0e391d845c76","ios":"levelo://app?vid=c7758cb2-2a45-4f89-aa5c-0e391d845c76"},"vehicle_type_id":"4","last_reported":1700370405,"current_range_meters":1600,"station_id":"","pricing_plan_id":"free"},{"bike_id":"42871d3b-8c03-490f-baf1-f4b57c44a331","system_id":"levelo_inurba_marseille","lat":43.326569,"lon":5.430586,"is_reserved":false,"is_disabled":false,"rental_uris":{"android":"levelo://app?vid=42871d3b-8c03-490f-baf1-f4b57c44a331","ios":"levelo://app?vid=42871d3b-8c03-490f-baf1-f4b57c44a331"},"vehicle_type_id":"4","last_reported":1700370405,"current_range_meters":16800,"station_id":"","pricing_plan_id":"free"},{"bike_id":"b44740e6-f651-4e09-858a-4dbee4338b29","system_id":"levelo_inurba_marseille","lat":43.267966,"lon":5.393976,"is_reserved":false,"is_disabled":false,"rental_uris":{"android":"levelo://app?vid=b44740e6-f651-4e09-858a-4dbee4338b29","ios":"levelo://app?vid=b44740e6-f651-4e09-858a-4dbee4338b29"},"vehicle_type_id":"4","last_reported":1700370405,"current_range_meters":28800,"station_id":"ce4bhh12rcd13ifvqfg0","pricing_plan_id":"free"},{"bike_id":"2bba8091-b83c-431a-850a-bd280dacad58","system_id":"levelo_inurba_marseille","lat":43.26949,"lon":5.40262,"is_reserved":false,"is_disabled":false,"rental_uris":{"android":"levelo://app?vid=2bba8091-b83c-431a-850a-bd280dacad58","ios":"levelo://app?vid=2bba8091-b83c-431a-850a-bd280dacad58"},"vehicle_type_id":"4","last_reported":1700370405,"current_range_meters":29600,"station_id":"cjm6bp8fraef2m0cb0m0","pricing_plan_id":"free"},{"bike_id":"302a664a-5824-48d2-93ed-e11eedae665f","system_id":"levelo_inurba_marseille","lat":43.26944,"lon":5.40254,"is_reserved":false,"is_disabled":false,"rental_uris":{"android":"levelo://app?vid=302a664a-5824-48d2-93ed-e11eedae665f","ios":"levelo://app?vid=302a664a-5824-48d2-93ed-e11eedae665f"},"vehicle_type_id":"4","last_reported":1700370405,"current_range_meters":16800,"station_id":"cjm6bp8fraef2m0cb0m0","pricing_plan_id":"free"},{"bike_id":"a58e6a44-8b8f-4c19-b750-9c10770a89d5","system_id":"levelo_inurba_marseille","lat":43.2694,"lon":5.40247,"is_reserved":false,"is_disabled":false,"rental_uris":{"android":"levelo://app?vid=a58e6a44-8b8f-4c19-b750-9c10770a89d5","ios":"levelo://app?vid=a58e6a44-8b8f-4c19-b750-9c10770a89d5"},"vehicle_type_id":"4","last_reported":1700370405,"current_range_meters":12000,"station_id":"cjm6bp8fraef2m0cb0m0","pricing_plan_id":"free"},{"bike_id":"fceea0b4-dbf1-4ef6-9594-3d8e82d56d53","system_id":"levelo_inurba_marseille","lat":43.271368,"lon":5.40928,"is_reserved":false,"is_disabled":false,"rental_uris":{"android":"levelo://app?vid=fceea0b4-dbf1-4ef6-9594-3d8e82d56d53","ios":"levelo://app?vid=fceea0b4-dbf1-4ef6-9594-3d8e82d56d53"},"vehicle_type_id":"4","last_reported":1700370405,"current_range_meters":20000,"station_id":"ce4bhl12rcd13ifvqgf0","pricing_plan_id":"free"},{"bike_id":"d867213e-b31c-42d3-bfcf-daaa70cefd36","system_id":"levelo_inurba_marseille","lat":43.267959,"lon":5.402687,"is_reserved":false,"is_disabled":false,"rental_uris":{"android":"levelo://app?vid=d867213e-b31c-42d3-bfcf-daaa70cefd36","ios":"levelo://app?vid=d867213e-b31c-42d3-bfcf-daaa70cefd36"},"vehicle_type_id":"4","last_reported":1700370405,"current_range_meters":17200,"station_id":"ce501612rcd8frsf0b60","pricing_plan_id":"free"},{"bike_id":"74ce853b-0d8b-42c9-81c8-17a7564a4b34","system_id":"levelo_inurba_marseille","lat":43.31725,"lon":5.43786,"is_reserved":false,"is_disabled":false,"rental_uris":{"android":"levelo://app?vid=74ce853b-0d8b-42c9-81c8-17a7564a4b34","ios":"levelo://app?vid=74ce853b-0d8b-42c9-81c8-17a7564a4b34"},"vehicle_type_id":"4","last_reported":1700370405,"current_range_meters":16000,"station_id":"","pricing_plan_id":"free"},{"bike_id":"abadc828-69fe-497b-b711-e5360a68b2c4","system_id":"levelo_inurba_marseille","lat":43.298972,"lon":5.436612,"is_reserved":false,"is_disabled":false,"rental_uris":{"android":"levelo://app?vid=abadc828-69fe-497b-b711-e5360a68b2c4","ios":"levelo://app?vid=abadc828-69fe-497b-b711-e5360a68b2c4"},"vehicle_type_id":"4","last_reported":1700370405,"current_range_meters":22000,"station_id":"ce4bhpp2rcd13ifvqhfg","pricing_plan_id":"free"},{"bike_id":"9ae96c3a-bf60-4cff-88ed-d593e21791ef","system_id":"levelo_inurba_marseille","lat":43.298768,"lon":5.43643,"is_reserved":false,"is_disabled":false,"rental_uris":{"android":"levelo://app?vid=9ae96c3a-bf60-4cff-88ed-d593e21791ef","ios":"levelo://app?vid=9ae96c3a-bf60-4cff-88ed-d593e21791ef"},"vehicle_type_id":"4","last_reported":1700370405,"current_range_meters":28000,"station_id":"ce4bhpp2rcd13ifvqhfg","pricing_plan_id":"free"},{"bike_id":"eceaa0f3-52ef-4d0d-b422-04c8e585a271","system_id":"levelo_inurba_marseille","lat":43.2815,"lon":5.42644,"is_reserved":false,"is_disabled":false,"rental_uris":{"android":"levelo://app?vid=eceaa0f3-52ef-4d0d-b422-04c8e585a271","ios":"levelo://app?vid=eceaa0f3-52ef-4d0d-b422-04c8e585a271"},"vehicle_type_id":"4","last_reported":1700370405,"current_range_meters":0,"station_id":"ce4bhnh2rcd13ifvqgug","pricing_plan_id":"free"},{"bike_id":"e0b3ec2d-fda2-40ca-9072-03a4797bd40f","system_id":"levelo_inurba_marseille","lat":43.281548,"lon":5.42643,"is_reserved":false,"is_disabled":false,"rental_uris":{"android":"levelo://app?vid=e0b3ec2d-fda2-40ca-9072-03a4797bd40f","ios":"levelo://app?vid=e0b3ec2d-fda2-40ca-9072-03a4797bd40f"},"vehicle_type_id":"4","last_reported":1700370405,"current_range_meters":31200,"station_id":"ce4bhnh2rcd13ifvqgug","pricing_plan_id":"free"},{"bike_id":"4b05078a-8712-4997-a6f5-f5ba1ef519e4","system_id":"levelo_inurba_marseille","lat":43.26064,"lon":5.3939,"is_reserved":false,"is_disabled":false,"rental_uris":{"android":"levelo://app?vid=4b05078a-8712-4997-a6f5-f5ba1ef519e4","ios":"levelo://app?vid=4b05078a-8712-4997-a6f5-f5ba1ef519e4"},"vehicle_type_id":"4","last_reported":1700370405,"current_range_meters":27200,"station_id":"ce4bhh92rcd13ifvqfj0","pricing_plan_id":"free"},{"bike_id":"28d5df33-0a6f-4bf9-9f7a-c1bb2724b4b4","system_id":"levelo_inurba_marseille","lat":43.2607,"lon":5.393983,"is_reserved":false,"is_disabled":false,"rental_uris":{"android":"levelo://app?vid=28d5df33-0a6f-4bf9-9f7a-c1bb2724b4b4","ios":"levelo://app?vid=28d5df33-0a6f-4bf9-9f7a-c1bb2724b4b4"},"vehicle_type_id":"4","last_reported":1700370405,"current_range_meters":31600,"station_id":"ce4bhh92rcd13ifvqfj0","pricing_plan_id":"free"},{"bike_id":"c15cbfe4-6e79-4293-b2f2-eee731f9c6c2","system_id":"levelo_inurba_marseille","lat":43.2607,"lon":5.393983,"is_reserved":false,"is_disabled":false,"rental_uris":{"android":"levelo://app?vid=c15cbfe4-6e79-4293-b2f2-eee731f9c6c2","ios":"levelo://app?vid=c15cbfe4-6e79-4293-b2f2-eee731f9c6c2"},"vehicle_type_id":"4","last_reported":1700370405,"current_range_meters":31200,"station_id":"ce4bhh92rcd13ifvqfj0","pricing_plan_id":"free"},{"bike_id":"74c6e14c-1175-4e17-8f5f-d056513a9f89","system_id":"levelo_inurba_marseille","lat":43.2607,"lon":5.393983,"is_reserved":false,"is_disabled":false,"rental_uris":{"android":"levelo://app?vid=74c6e14c-1175-4e17-8f5f-d056513a9f89","ios":"levelo://app?vid=74c6e14c-1175-4e17-8f5f-d056513a9f89"},"vehicle_type_id":"4","last_reported":1700370405,"current_range_meters":31200,"station_id":"ce4bhh92rcd13ifvqfj0","pricing_plan_id":"free"},{"bike_id":"039398bb-8f48-4a09-90e4-c695a075e1b2","system_id":"levelo_inurba_marseille","lat":43.275028,"lon":5.424534,"is_reserved":false,"is_disabled":false,"rental_uris":{"android":"levelo://app?vid=039398bb-8f48-4a09-90e4-c695a075e1b2","ios":"levelo://app?vid=039398bb-8f48-4a09-90e4-c695a075e1b2"},"vehicle_type_id":"4","last_reported":1700370405,"current_range_meters":27200,"station_id":"ce4bhn92rcd13ifvqgrg","pricing_plan_id":"free"},{"bike_id":"91b3c4bf-7b19-45fb-b809-6f886f9aa480","system_id":"levelo_inurba_marseille","lat":43.275028,"lon":5.424534,"is_reserved":false,"is_disabled":false,"rental_uris":{"android":"levelo://app?vid=91b3c4bf-7b19-45fb-b809-6f886f9aa480","ios":"levelo://app?vid=91b3c4bf-7b19-45fb-b809-6f886f9aa480"},"vehicle_type_id":"4","last_reported":1700370405,"current_range_meters":29600,"station_id":"ce4bhn92rcd13ifvqgrg","pricing_plan_id":"free"},{"bike_id":"83adb50e-13ad-4a0a-b679-c8ddf78a1b0a","system_id":"levelo_inurba_marseille","lat":43.275028,"lon":5.424534,"is_reserved":false,"is_disabled":false,"rental_uris":{"android":"levelo://app?vid=83adb50e-13ad-4a0a-b679-c8ddf78a1b0a","ios":"levelo://app?vid=83adb50e-13ad-4a0a-b679-c8ddf78a1b0a"},"vehicle_type_id":"4","last_reported":1700370405,"current_range_meters":29600,"station_id":"ce4bhn92rcd13ifvqgrg","pricing_plan_id":"free"},{"bike_id":"59c9bb6b-f70f-4f77-b590-86bbfd0d854d","system_id":"levelo_inurba_marseille","lat":43.275028,"lon":5.424534,"is_reserved":false,"is_disabled":false,"rental_uris":{"android":"levelo://app?vid=59c9bb6b-f70f-4f77-b590-86bbfd0d854d","ios":"levelo://app?vid=59c9bb6b-f70f-4f77-b590-86bbfd0d854d"},"vehicle_type_id":"4","last_reported":1700370405,"current_range_meters":30400,"station_id":"ce4bhn92rcd13ifvqgrg","pricing_plan_id":"free"},{"bike_id":"b8207179-44e0-477d-8518-66b986062b00","system_id":"levelo_inurba_marseille","lat":43.26092,"lon":5.397648,"is_reserved":false,"is_disabled":false,"rental_uris":{"android":"levelo://app?vid=b8207179-44e0-477d-8518-66b986062b00","ios":"levelo://app?vid=b8207179-44e0-477d-8518-66b986062b00"},"vehicle_type_id":"4","last_reported":1700370405,"current_range_meters":31200,"station_id":"ce4bhi12rcd13ifvqfq0","pricing_plan_id":"free"},{"bike_id":"568d1d00-016b-48b6-964b-364bcd49ff03","system_id":"levelo_inurba_marseille","lat":43.26092,"lon":5.39767,"is_reserved":false,"is_disabled":false,"rental_uris":{"android":"levelo://app?vid=568d1d00-016b-48b6-964b-364bcd49ff03","ios":"levelo://app?vid=568d1d00-016b-48b6-964b-364bcd49ff03"},"vehicle_type_id":"4","last_reported":1700370405,"current_range_meters":31200,"station_id":"ce4bhi12rcd13ifvqfq0","pricing_plan_id":"free"},{"bike_id":"91966a88-f86a-4f21-b036-b50bf3816aaf","system_id":"levelo_inurba_marseille","lat":43.260851,"lon":5.397776,"is_reserved":false,"is_disabled":false,"rental_uris":{"android":"levelo://app?vid=91966a88-f86a-4f21-b036-b50bf3816aaf","ios":"levelo://app?vid=91966a88-f86a-4f21-b036-b50bf3816aaf"},"vehicle_type_id":"4","last_reported":1700370405,"current_range_meters":30000,"station_id":"ce4bhi12rcd13ifvqfq0","pricing_plan_id":"free"},{"bike_id":"1ab50149-ff99-4b20-b075-223607c99405","system_id":"levelo_inurba_marseille","lat":43.255804,"lon":5.382324,"is_reserved":false,"is_disabled":false,"rental_uris":{"android":"levelo://app?vid=1ab50149-ff99-4b20-b075-223607c99405","ios":"levelo://app?vid=1ab50149-ff99-4b20-b075-223607c99405"},"vehicle_type_id":"4","last_reported":1700370405,"current_range_meters":30400,"station_id":"ce4bhih2rcd13ifvqfs0","pricing_plan_id":"free"},{"bike_id":"6c9387e2-9fc2-4105-aa53-fb2852e84310","system_id":"levelo_inurba_marseille","lat":43.255807,"lon":5.382358,"is_reserved":false,"is_disabled":false,"rental_uris":{"android":"levelo://app?vid=6c9387e2-9fc2-4105-aa53-fb2852e84310","ios":"levelo://app?vid=6c9387e2-9fc2-4105-aa53-fb2852e84310"},"vehicle_type_id":"4","last_reported":1700370405,"current_range_meters":31200,"station_id":"ce4bhih2rcd13ifvqfs0","pricing_plan_id":"free"},{"bike_id":"b15cbbda-e2a5-469d-83c7-b37d8c5ea310","system_id":"levelo_inurba_marseille","lat":43.255776,"lon":5.38241,"is_reserved":false,"is_disabled":false,"rental_uris":{"android":"levelo://app?vid=b15cbbda-e2a5-469d-83c7-b37d8c5ea310","ios":"levelo://app?vid=b15cbbda-e2a5-469d-83c7-b37d8c5ea310"},"vehicle_type_id":"4","last_reported":1700370405,"current_range_meters":31200,"station_id":"ce4bhih2rcd13ifvqfs0","pricing_plan_id":"free"},{"bike_id":"6b132577-7645-42f4-bd5a-3fc773121bc3","system_id":"levelo_inurba_marseille","lat":43.25577,"lon":5.38242,"is_reserved":false,"is_disabled":false,"rental_uris":{"android":"levelo://app?vid=6b132577-7645-42f4-bd5a-3fc773121bc3","ios":"levelo://app?vid=6b132577-7645-42f4-bd5a-3fc773121bc3"},