{"last_updated":1729087714,"ttl":60,"version":"2.2","data":{"bikes":[{"bike_id":"62bf1a5e-4781-451a-897d-4ecd9373c644","system_id":"levelo_inurba_marseille","lat":43.25009,"lon":5.38911,"is_reserved":false,"is_disabled":false,"rental_uris":{"android":"levelo://app?vid=62bf1a5e-4781-451a-897d-4ecd9373c644","ios":"levelo://app?vid=62bf1a5e-4781-451a-897d-4ecd9373c644"},"vehicle_type_id":"4","last_reported":1729087714,"current_range_meters":18800,"station_id":"ce4bhgp2rcd13ifvqfd0","pricing_plan_id":"cebpf4jnsgd1na2vs0mg"},{"bike_id":"b4066a84-11e2-4186-8d3a-57c27e87db57","system_id":"levelo_inurba_marseille","lat":43.27813,"lon":5.40719,"is_reserved":false,"is_disabled":false,"rental_uris":{"android":"levelo://app?vid=b4066a84-11e2-4186-8d3a-57c27e87db57","ios":"levelo://app?vid=b4066a84-11e2-4186-8d3a-57c27e87db57"},"vehicle_type_id":"4","last_reported":1729087714,"current_range_meters":28000,"station_id":"ce4bhnh2rcd13ifvqgtg","pricing_plan_id":"cebpf4jnsgd1na2vs0mg"},{"bike_id":"5002f4ca-68aa-4a9a-bbfb-321dee34c575","system_id":"levelo_inurba_marseille","lat":43.25938,"lon":5.40903,"is_reserved":false,"is_disabled":false,"rental_uris":{"android":"levelo://app?vid=5002f4ca-68aa-4a9a-bbfb-321dee34c575","ios":"levelo://app?vid=5002f4ca-68aa-4a9a-bbfb-321dee34c575"},"vehicle_type_id":"4","last_reported":1729087714,"current_range_meters":24400,"station_id":"ce4bhm92rcd13ifvqglg","pricing_plan_id":"cebpf4jnsgd1na2vs0mg"},{"bike_id":"676ec6c4-6b42-43e0-81fe-327782965da5","system_id":"levelo_inurba_marseille","lat":43.337444,"lon":5.374475,"is_reserved":false,"is_disabled":false,"rental_uris":{"android":"levelo://app?vid=676ec6c4-6b42-43e0-81fe-327782965da5","ios":"levelo://app?vid=676ec6c4-6b42-43e0-81fe-327782965da5"},"vehicle_type_id":"4","last_reported":1729087714,"current_range_meters":20800,"station_id":"","pricing_plan_id":"cebpf4jnsgd1na2vs0mg"},{"bike_id":"4e3ae144-e388-4b4f-ac80-a31ee8ee9bdf","system_id":"levelo_inurba_marseille","lat":43.24654,"lon":5.38895,"is_reserved":false,"is_disabled":false,"rental_uris":{"android":"levelo://app?vid=4e3ae144-e388-4b4f-ac80-a31ee8ee9bdf","ios":"levelo://app?vid=4e3ae144-e388-4b4f-ac80-a31ee8ee9bdf"},"vehicle_type_id":"4","last_reported":1729087714,"current_range_meters":38400,"station_id":"ce4bhg12rcd13ifvqf60","pricing_plan_id":"cebpf4jnsgd1na2vs0mg"},{"bike_id":"979638f0-5c67-408f-bbfd-0de28da1b117","system_id":"levelo_inurba_marseille","lat":43.29729,"lon":5.37687,"is_reserved":false,"is_disabled":false,"rental_uris":{"android":"levelo://app?vid=979638f0-5c67-408f-bbfd-0de28da1b117","ios":"levelo://app?vid=979638f0-5c67-408f-bbfd-0de28da1b117"},"vehicle_type_id":"4","last_reported":1729087714,"current_range_meters":37600,"station_id":"ce4bgkh2rcd13ifvqbl0","pricing_plan_id":"cebpf4jnsgd1na2vs0mg"},{"bike_id":"64d9953f-af6f-4e08-9449-a621c2b0fda5","system_id":"levelo_inurba_marseille","lat":43.29979,"lon":5.3718,"is_reserved":false,"is_disabled":false,"rental_uris":{"android":"levelo://app?vid=64d9953f-af6f-4e08-9449-a621c2b0fda5","ios":"levelo://app?vid=64d9953f-af6f-4e08-9449-a621c2b0fda5"},"vehicle_type_id":"4","last_reported":1729087714,"current_range_meters":38800,"station_id":"ce4bgr92rcd13ifvqc7g","pricing_plan_id":"cebpf4jnsgd1na2vs0mg"},{"bike_id":"d1dda340-8f8d-4c14-a3dc-9558b8ec10f6","system_id":"levelo_inurba_marseille","lat":43.30344,"lon":5.39391,"is_reserved":false,"is_disabled":false,"rental_uris":{"android":"levelo://app?vid=d1dda340-8f8d-4c14-a3dc-9558b8ec10f6","ios":"levelo://app?vid=d1dda340-8f8d-4c14-a3dc-9558b8ec10f6"},"vehicle_type_id":"4","last_reported":1729087714,"current_range_meters":32400,"station_id":"ce4bh392rcd13ifvqdm0","pricing_plan_id":"cebpf4jnsgd1na2vs0mg"},{"bike_id":"32cea332-2ae5-4e93-98f0-14814547d1fe","system_id":"levelo_inurba_marseille","lat":43.28933,"lon":5.36637,"is_reserved":false,"is_disabled":false,"rental_uris":{"android":"levelo://app?vid=32cea332-2ae5-4e93-98f0-14814547d1fe","ios":"levelo://app?vid=32cea332-2ae5-4e93-98f0-14814547d1fe"},"vehicle_type_id":"4","last_reported":1729087714,"current_range_meters":20000,"station_id":"ce4bhap2rcd13ifvqek0","pricing_plan_id":"cebpf4jnsgd1na2vs0mg"},{"bike_id":"a317d19b-3e4c-466d-b1f0-ad5b7ee20519","system_id":"levelo_inurba_marseille","lat":43.25941,"lon":5.409,"is_reserved":false,"is_disabled":false,"rental_uris":{"android":"levelo://app?vid=a317d19b-3e4c-466d-b1f0-ad5b7ee20519","ios":"levelo://app?vid=a317d19b-3e4c-466d-b1f0-ad5b7ee20519"},"vehicle_type_id":"4","last_reported":1729087714,"current_range_meters":7200,"station_id":"ce4bhm92rcd13ifvqglg","pricing_plan_id":"cebpf4jnsgd1na2vs0mg"},{"bike_id":"07e3bf3e-b769-4fa0-8a9c-46b345a2e59d","system_id":"levelo_inurba_marseille","lat":43.28155,"lon":5.42644,"is_reserved":false,"is_disabled":false,"rental_uris":{"android":"levelo://app?vid=07e3bf3e-b769-4fa0-8a9c-46b345a2e59d","ios":"levelo://app?vid=07e3bf3e-b769-4fa0-8a9c-46b345a2e59d"},"vehicle_type_id":"4","last_reported":1729087714,"current_range_meters":7200,"station_id":"ce4bhnh2rcd13ifvqgug","pricing_plan_id":"cebpf4jnsgd1na2vs0mg"},{"bike_id":"612d8426-75a5-4dd2-90ba-61ef37c4ec45","system_id":"levelo_inurba_marseille","lat":43.29038,"lon":5.39966,"is_reserved":false,"is_disabled":false,"rental_uris":{"android":"levelo://app?vid=612d8426-75a5-4dd2-90ba-61ef37c4ec45","ios":"levelo://app?vid=612d8426-75a5-4dd2-90ba-61ef37c4ec45"},"vehicle_type_id":"4","last_reported":1729087714,"current_range_meters":21600,"station_id":"ce4bh392rcd13ifvqdm0","pricing_plan_id":"cebpf4jnsgd1na2vs0mg"},{"bike_id":"f753014a-e02a-4cf3-9817-33330c7ddf67","system_id":"levelo_inurba_marseille","lat":43.27813,"lon":5.40707,"is_reserved":false,"is_disabled":false,"rental_uris":{"android":"levelo://app?vid=f753014a-e02a-4cf3-9817-33330c7ddf67","ios":"levelo://app?vid=f753014a-e02a-4cf3-9817-33330c7ddf67"},"vehicle_type_id":"4","last_reported":1729087714,"current_range_meters":37600,"station_id":"ce4bhnh2rcd13ifvqgtg","pricing_plan_id":"cebpf4jnsgd1na2vs0mg"},{"bike_id":"a3bf0db3-424c-4789-8e48-513267a6bc7e","system_id":"levelo_inurba_marseille","lat":43.31223,"lon":5.36855,"is_reserved":false,"is_disabled":false,"rental_uris":{"android":"levelo://app?vid=a3bf0db3-424c-4789-8e48-513267a6bc7e","ios":"levelo://app?vid=a3bf0db3-424c-4789-8e48-513267a6bc7e"},"vehicle_type_id":"4","last_reported":1729087714,"current_range_meters":38800,"station_id":"ce4bgl92rcd13ifvqbq0","pricing_plan_id":"cebpf4jnsgd1na2vs0mg"},{"bike_id":"2c53bfa3-f1c5-45bf-b308-8e04dbc8ce81","system_id":"levelo_inurba_marseille","lat":43.30551,"lon":5.36712,"is_reserved":false,"is_disabled":false,"rental_uris":{"android":"levelo://app?vid=2c53bfa3-f1c5-45bf-b308-8e04dbc8ce81","ios":"levelo://app?vid=2c53bfa3-f1c5-45bf-b308-8e04dbc8ce81"},"vehicle_type_id":"4","last_reported":1729087714,"current_range_meters":38800,"station_id":"ce4bgrp2rcd13ifvqc9g","pricing_plan_id":"cebpf4jnsgd1na2vs0mg"},{"bike_id":"042e5b40-9e97-45f4-843e-ff54af18e3a3","system_id":"levelo_inurba_marseille","lat":43.337444,"lon":5.374475,"is_reserved":false,"is_disabled":false,"rental_uris":{"android":"levelo://app?vid=042e5b40-9e97-45f4-843e-ff54af18e3a3","ios":"levelo://app?vid=042e5b40-9e97-45f4-843e-ff54af18e3a3"},"vehicle_type_id":"4","last_reported":1729087714,"current_range_meters":36000,"station_id":"","pricing_plan_id":"cebpf4jnsgd1na2vs0mg"},{"bike_id":"e40ecf43-661b-4835-a1f9-79d981dcc8d2","system_id":"levelo_inurba_marseille","lat":43.23187,"lon":5.39982,"is_reserved":false,"is_disabled":false,"rental_uris":{"android":"levelo://app?vid=e40ecf43-661b-4835-a1f9-79d981dcc8d2","ios":"levelo://app?vid=e40ecf43-661b-4835-a1f9-79d981dcc8d2"},"vehicle_type_id":"4","last_reported":1729087714,"current_range_meters":7200,"station_id":"ce4bhn12rcd13ifvqgqg","pricing_plan_id":"cebpf4jnsgd1na2vs0mg"},{"bike_id":"8a9fff91-ce66-4215-8060-6c0411b4b1d5","system_id":"levelo_inurba_marseille","lat":43.33017,"lon":5.39039,"is_reserved":false,"is_disabled":false,"rental_uris":{"android":"levelo://app?vid=8a9fff91-ce66-4215-8060-6c0411b4b1d5","ios":"levelo://app?vid=8a9fff91-ce66-4215-8060-6c0411b4b1d5"},"vehicle_type_id":"4","last_reported":1729087714,"current_range_meters":38800,"station_id":"ce4bhr92rcd13ifvqhrg","pricing_plan_id":"cebpf4jnsgd1na2vs0mg"},{"bike_id":"5724e365-b52f-4566-b2e3-e374653b41d4","system_id":"levelo_inurba_marseille","lat":43.33024,"lon":5.39036,"is_reserved":false,"is_disabled":false,"rental_uris":{"android":"levelo://app?vid=5724e365-b52f-4566-b2e3-e374653b41d4","ios":"levelo://app?vid=5724e365-b52f-4566-b2e3-e374653b41d4"},"vehicle_type_id":"4","last_reported":1729087714,"current_range_meters":36000,"station_id":"ce4bhr92rcd13ifvqhrg","pricing_plan_id":"cebpf4jnsgd1na2vs0mg"},{"bike_id":"c393a662-ca3e-457b-b44f-6ef230f5f9c1","system_id":"levelo_inurba_marseille","lat":43.278023,"lon":5.406886,"is_reserved":false,"is_disabled":false,"rental_uris":{"android":"levelo://app?vid=c393a662-ca3e-457b-b44f-6ef230f5f9c1","ios":"levelo://app?vid=c393a662-ca3e-457b-b44f-6ef230f5f9c1"},"vehicle_type_id":"4","last_reported":1729087714,"current_range_meters":18800,"station_id":"ce4bhnh2rcd13ifvqgtg","pricing_plan_id":"cebpf4jnsgd1na2vs0mg"},{"bike_id":"09301024-5320-43e1-ad82-00b1ee755473","system_id":"levelo_inurba_marseille","lat":43.29637,"lon":5.40599,"is_reserved":false,"is_disabled":false,"rental_uris":{"android":"levelo://app?vid=09301024-5320-43e1-ad82-00b1ee755473","ios":"levelo://app?vid=09301024-5320-43e1-ad82-00b1ee755473"},"vehicle_type_id":"4","last_reported":1729087714,"current_range_meters":24800,"station_id":"ce4bh0h2rcd13ifvqd60","pricing_plan_id":"cebpf4jnsgd1na2vs0mg"},{"bike_id":"cc00c11f-4f03-4f3c-9348-41c2032015c8","system_id":"levelo_inurba_marseille","lat":43.2986,"lon":5.3629,"is_reserved":false,"is_disabled":false,"rental_uris":{"android":"levelo://app?vid=cc00c11f-4f03-4f3c-9348-41c2032015c8","ios":"levelo://app?vid=cc00c11f-4f03-4f3c-9348-41c2032015c8"},"vehicle_type_id":"4","last_reported":1729087714,"current_range_meters":38000,"station_id":"ce4bgpp2rcd13ifvqc3g","pricing_plan_id":"cebpf4jnsgd1na2vs0mg"},{"bike_id":"1c729c27-eac4-4e15-a4c1-807f0c9771bd","system_id":"levelo_inurba_marseille","lat":43.32005,"lon":5.37445,"is_reserved":false,"is_disabled":false,"rental_uris":{"android":"levelo://app?vid=1c729c27-eac4-4e15-a4c1-807f0c9771bd","ios":"levelo://app?vid=1c729c27-eac4-4e15-a4c1-807f0c9771bd"},"vehicle_type_id":"4","last_reported":1729087714,"current_range_meters":20000,"station_id":"","pricing_plan_id":"cebpf4jnsgd1na2vs0mg"},{"bike_id":"c8fdfee4-d3ac-4742-a5aa-435dec59b7fb","system_id":"levelo_inurba_marseille","lat":43.24515,"lon":5.42842,"is_reserved":false,"is_disabled":false,"rental_uris":{"android":"levelo://app?vid=c8fdfee4-d3ac-4742-a5aa-435dec59b7fb","ios":"levelo://app?vid=c8fdfee4-d3ac-4742-a5aa-435dec59b7fb"},"vehicle_type_id":"4","last_reported":1729087714,"current_range_meters":38800,"station_id":"","pricing_plan_id":"cebpf4jnsgd1na2vs0mg"},{"bike_id":"7841fea7-8392-4da0-ad8a-554a8cf7bb26","system_id":"levelo_inurba_marseille","lat":43.3054,"lon":5.36535,"is_reserved":false,"is_disabled":false,"rental_uris":{"android":"levelo://app?vid=7841fea7-8392-4da0-ad8a-554a8cf7bb26","ios":"levelo://app?vid=7841fea7-8392-4da0-ad8a-554a8cf7bb26"},"vehicle_type_id":"4","last_reported":1729087714,"current_range_meters":9600,"station_id":"ce4bgs12rcd13ifvqcag","pricing_plan_id":"cebpf4jnsgd1na2vs0mg"},{"bike_id":"e7e3c31c-1de7-4b0c-8c5c-ececc4e1c158","system_id":"levelo_inurba_marseille","lat":43.32371,"lon":5.3888,"is_reserved":false,"is_disabled":false,"rental_uris":{"android":"levelo://app?vid=e7e3c31c-1de7-4b0c-8c5c-ececc4e1c158","ios":"levelo://app?vid=e7e3c31c-1de7-4b0c-8c5c-ececc4e1c158"},"vehicle_type_id":"4","last_reported":1729087714,"current_range_meters":38000,"station_id":"ce4bhqp2rcd13ifvqhog","pricing_plan_id":"cebpf4jnsgd1na2vs0mg"},{"bike_id":"89f8225b-c5f3-4f4c-9fb4-00ba771c6c7d","system_id":"levelo_inurba_marseille","lat":43.28271,"lon":5.35075,"is_reserved":false,"is_disabled":false,"rental_uris":{"android":"levelo://app?vid=89f8225b-c5f3-4f4c-9fb4-00ba771c6c7d","ios":"levelo://app?vid=89f8225b-c5f3-4f4c-9fb4-00ba771c6c7d"},"vehicle_type_id":"4","last_reported":1729087714,"current_range_meters":38800,"station_id":"ce4bhbp2rcd13ifvqerg","pricing_plan_id":"cebpf4jnsgd1na2vs0mg"},{"bike_id":"c6eadb06-02e0-4dfe-a83e-14e4a9ed658b","system_id":"levelo_inurba_marseille","lat":43.28,"lon":5.40013,"is_reserved":false,"is_disabled":false,"rental_uris":{"android":"levelo://app?vid=c6eadb06-02e0-4dfe-a83e-14e4a9ed658b","ios":"levelo://app?vid=c6eadb06-02e0-4dfe-a83e-14e4a9ed658b"},"vehicle_type_id":"4","last_reported":1729087714,"current_range_meters":3600,"station_id":"ce4bho92rcd13ifvqh4g","pricing_plan_id":"cebpf4jnsgd1na2vs0mg"},{"bike_id":"879339b6-28dd-4416-8afe-c897c9e0fcd9","system_id":"levelo_inurba_marseille","lat":43.29711,"lon":5.36608,"is_reserved":false,"is_disabled":false,"rental_uris":{"android":"levelo://app?vid=879339b6-28dd-4416-8afe-c897c9e0fcd9","ios":"levelo://app?vid=879339b6-28dd-4416-8afe-c897c9e0fcd9"},"vehicle_type_id":"4","last_reported":1729087714,"current_range_meters":28800,"station_id":"ce4bgn12rcd13ifvqbt0","pricing_plan_id":"cebpf4jnsgd1na2vs0mg"},{"bike_id":"26c30df2-280a-4d1f-b48a-a319c8bfa9e9","system_id":"levelo_inurba_marseille","lat":43.29902,"lon":5.43671,"is_reserved":false,"is_disabled":false,"rental_uris":{"android":"levelo://app?vid=26c30df2-280a-4d1f-b48a-a319c8bfa9e9","ios":"levelo://app?vid=26c30df2-280a-4d1f-b48a-a319c8bfa9e9"},"vehicle_type_id":"4","last_reported":1729087714,"current_range_meters":3600,"station_id":"ce4bhpp2rcd13ifvqhfg","pricing_plan_id":"cebpf4jnsgd1na2vs0mg"},{"bike_id":"032c59d6-4269-4877-b72a-2be95bac0be8","system_id":"levelo_inurba_marseille","lat":43.29252,"lon":5.40913,"is_reserved":false,"is_disabled":false,"rental_uris":{"android":"levelo://app?vid=032c59d6-4269-4877-b72a-2be95bac0be8","ios":"levelo://app?vid=032c59d6-4269-4877-b72a-2be95bac0be8"},"vehicle_type_id":"4","last_reported":1729087714,"current_range_meters":10000,"station_id":"ce4bh192rcd13ifvqdc0","pricing_plan_id":"cebpf4jnsgd1na2vs0mg"},{"bike_id":"cd15ce54-fe66-4758-a1e7-9e748334388d","system_id":"levelo_inurba_marseille","lat":43.3149,"lon":5.37309,"is_reserved":false,"is_disabled":false,"rental_uris":{"android":"levelo://app?vid=cd15ce54-fe66-4758-a1e7-9e748334388d","ios":"levelo://app?vid=cd15ce54-fe66-4758-a1e7-9e748334388d"},"vehicle_type_id":"4","last_reported":1729087714,"current_range_meters":11200,"station_id":"ce4bgt12rcd13ifvqcd0","pricing_plan_id":"cebpf4jnsgd1na2vs0mg"},{"bike_id":"6dc5b725-0b8c-49b8-a19b-3f297b3f6f14","system_id":"levelo_inurba_marseille","lat":43.25928,"lon":5.40904,"is_reserved":false,"is_disabled":false,"rental_uris":{"android":"levelo://app?vid=6dc5b725-0b8c-49b8-a19b-3f297b3f6f14","ios":"levelo://app?vid=6dc5b725-0b8c-49b8-a19b-3f297b3f6f14"},"vehicle_type_id":"4","last_reported":1729087714,"current_range_meters":38000,"station_id":"ce4bhm92rcd13ifvqglg","pricing_plan_id":"cebpf4jnsgd1na2vs0mg"},{"bike_id":"fc81dab3-06a2-4f0f-8f95-4b17ae36078f","system_id":"levelo_inurba_marseille","lat":43.3122,"lon":5.36858,"is_reserved":false,"is_disabled":false,"rental_uris":{"android":"levelo://app?vid=fc81dab3-06a2-4f0f-8f95-4b17ae36078f","ios":"levelo://app?vid=fc81dab3-06a2-4f0f-8f95-4b17ae36078f"},"vehicle_type_id":"4","last_reported":1729087714,"current_range_meters":38800,"station_id":"ce4bgl92rcd13ifvqbq0","pricing_plan_id":"cebpf4jnsgd1na2vs0mg"},{"bike_id":"c9a76ef6-f819-4166-83ee-0a5f69f525d7","system_id":"levelo_inurba_marseille","lat":43.29979,"lon":5.37173,"is_reserved":false,"is_disabled":false,"rental_uris":{"android":"levelo://app?vid=c9a76ef6-f819-4166-83ee-0a5f69f525d7","ios":"levelo://app?vid=c9a76ef6-f819-4166-83ee-0a5f69f525d7"},"vehicle_type_id":"4","last_reported":1729087714,"current_range_meters":38800,"station_id":"ce4bgr92rcd13ifvqc7g","pricing_plan_id":"cebpf4jnsgd1na2vs0mg"},{"bike_id":"e81ec7ef-a75d-45a0-829e-099ccb37d0c9","system_id":"levelo_inurba_marseille","lat":43.2319,"lon":5.39986,"is_reserved":false,"is_disabled":false,"rental_uris":{"android":"levelo://app?vid=e81ec7ef-a75d-45a0-829e-099ccb37d0c9","ios":"levelo://app?vid=e81ec7ef-a75d-45a0-829e-099ccb37d0c9"},"vehicle_type_id":"4","last_reported":1729087714,"current_range_meters":36800,"station_id":"ce4bhn12rcd13ifvqgqg","pricing_plan_id":"cebpf4jnsgd1na2vs0mg"},{"bike_id":"689010ad-dec8-40ed-a3d3-d7c29d97f448","system_id":"levelo_inurba_marseille","lat":43.31706,"lon":5.37762,"is_reserved":false,"is_disabled":false,"rental_uris":{"android":"levelo://app?vid=689010ad-dec8-40ed-a3d3-d7c29d97f448","ios":"levelo://app?vid=689010ad-dec8-40ed-a3d3-d7c29d97f448"},"vehicle_type_id":"4","last_reported":1729087714,"current_range_meters":37600,"station_id":"ce4bgth2rcd13ifvqch0","pricing_plan_id":"cebpf4jnsgd1na2vs0mg"},{"bike_id":"b5260afa-fd9f-41d9-8705-6dfe5bf55b4d","system_id":"levelo_inurba_marseille","lat":43.292795,"lon":5.36842,"is_reserved":false,"is_disabled":false,"rental_uris":{"android":"levelo://app?vid=b5260afa-fd9f-41d9-8705-6dfe5bf55b4d","ios":"levelo://app?vid=b5260afa-fd9f-41d9-8705-6dfe5bf55b4d"},"vehicle_type_id":"4","last_reported":1729087714,"current_range_meters":18000,"station_id":"ce4bhbp2rcd13ifvqesg","pricing_plan_id":"cebpf4jnsgd1na2vs0mg"},{"bike_id":"cd74800c-e854-45ea-b04d-049e6ea0ef7b","system_id":"levelo_inurba_marseille","lat":43.23965,"lon":5.36637,"is_reserved":false,"is_disabled":false,"rental_uris":{"android":"levelo://app?vid=cd74800c-e854-45ea-b04d-049e6ea0ef7b","ios":"levelo://app?vid=cd74800c-e854-45ea-b04d-049e6ea0ef7b"},"vehicle_type_id":"4","last_reported":1729087714,"current_range_meters":26800,"station_id":"ce4bhi12rcd13ifvqfp0","pricing_plan_id":"cebpf4jnsgd1na2vs0mg"},{"bike_id":"72b45628-b38b-4079-a480-5d71829c0d9c","system_id":"levelo_inurba_marseille","lat":43.32368,"lon":5.38884,"is_reserved":false,"is_disabled":false,"rental_uris":{"android":"levelo://app?vid=72b45628-b38b-4079-a480-5d71829c0d9c","ios":"levelo://app?vid=72b45628-b38b-4079-a480-5d71829c0d9c"},"vehicle_type_id":"4","last_reported":1729087714,"current_range_meters":17200,"station_id":"ce4bhqp2rcd13ifvqhog","pricing_plan_id":"cebpf4jnsgd1na2vs0mg"},{"bike_id":"58e85406-69a5-47e3-ad74-50ebc3ebe13b","system_id":"levelo_inurba_marseille","lat":43.28276,"lon":5.35068,"is_reserved":false,"is_disabled":false,"rental_uris":{"android":"levelo://app?vid=58e85406-69a5-47e3-ad74-50ebc3ebe13b","ios":"levelo://app?vid=58e85406-69a5-47e3-ad74-50ebc3ebe13b"},"vehicle_type_id":"4","last_reported":1729087714,"current_range_meters":7200,"station_id":"ce4bhbp2rcd13ifvqerg","pricing_plan_id":"cebpf4jnsgd1na2vs0mg"},{"bike_id":"1cc8e26c-1521-4add-9e21-c7d509453e5c","system_id":"levelo_inurba_marseille","lat":43.28378,"lon":5.38645,"is_reserved":false,"is_disabled":false,"rental_uris":{"android":"levelo://app?vid=1cc8e26c-1521-4add-9e21-c7d509453e5c","ios":"levelo://app?vid=1cc8e26c-1521-4add-9e21-c7d509453e5c"},"vehicle_type_id":"4","last_reported":1729087714,"current_range_meters":30400,"station_id":"ce4bh492rcd13ifvqdvg","pricing_plan_id":"cebpf4jnsgd1na2vs0mg"},{"bike_id":"55890980-992c-439d-88ce-8b6016f7d107","system_id":"levelo_inurba_marseille","lat":43.25113,"lon":5.40323,"is_reserved":false,"is_disabled":false,"rental_uris":{"android":"levelo://app?vid=55890980-992c-439d-88ce-8b6016f7d107","ios":"levelo://app?vid=55890980-992c-439d-88ce-8b6016f7d107"},"vehicle_type_id":"4","last_reported":1729087714,"current_range_meters":36400,"station_id":"ce4bhlh2rcd13ifvqgig","pricing_plan_id":"cebpf4jnsgd1na2vs0mg"},{"bike_id":"3d345541-8cc4-4a78-8d79-d41d0d8fd35c","system_id":"levelo_inurba_marseille","lat":43.2594,"lon":5.40904,"is_reserved":false,"is_disabled":false,"rental_uris":{"android":"levelo://app?vid=3d345541-8cc4-4a78-8d79-d41d0d8fd35c","ios":"levelo://app?vid=3d345541-8cc4-4a78-8d79-d41d0d8fd35c"},"vehicle_type_id":"4","last_reported":1729087714,"current_range_meters":22400,"station_id":"ce4bhm92rcd13ifvqglg","pricing_plan_id":"cebpf4jnsgd1na2vs0mg"},{"bike_id":"8b37a4d0-f728-4c88-b904-d11378d562b8","system_id":"levelo_inurba_marseille","lat":43.29187,"lon":5.39328,"is_reserved":false,"is_disabled":false,"rental_uris":{"android":"levelo://app?vid=8b37a4d0-f728-4c88-b904-d11378d562b8","ios":"levelo://app?vid=8b37a4d0-f728-4c88-b904-d11378d562b8"},"vehicle_type_id":"4","last_reported":1729087714,"current_range_meters":37600,"station_id":"ce4bh192rcd13ifvqdd0","pricing_plan_id":"cebpf4jnsgd1na2vs0mg"},{"bike_id":"a42d5f35-6025-46f0-b77b-35ea92ec33c0","system_id":"levelo_inurba_marseille","lat":43.29706,"lon":5.37701,"is_reserved":false,"is_disabled":false,"rental_uris":{"android":"levelo://app?vid=a42d5f35-6025-46f0-b77b-35ea92ec33c0","ios":"levelo://app?vid=a42d5f35-6025-46f0-b77b-35ea92ec33c0"},"vehicle_type_id":"4","last_reported":1729087714,"current_range_meters":28000,"station_id":"ce4bgkh2rcd13ifvqbl0","pricing_plan_id":"cebpf4jnsgd1na2vs0mg"},{"bike_id":"957b50b2-7630-44f9-bbc3-7df9900ba1e4","system_id":"levelo_inurba_marseille","lat":43.26786,"lon":5.39418,"is_reserved":false,"is_disabled":false,"rental_uris":{"android":"levelo://app?vid=957b50b2-7630-44f9-bbc3-7df9900ba1e4","ios":"levelo://app?vid=957b50b2-7630-44f9-bbc3-7df9900ba1e4"},"vehicle_type_id":"4","last_reported":1729087714,"current_range_meters":11200,"station_id":"ce4bhh12rcd13ifvqfg0","pricing_plan_id":"cebpf4jnsgd1na2vs0mg"},{"bike_id":"84c65012-fffe-4e39-a56b-da39ec0342d9","system_id":"levelo_inurba_marseille","lat":43.30791,"lon":5.3765,"is_reserved":false,"is_disabled":false,"rental_uris":{"android":"levelo://app?vid=84c65012-fffe-4e39-a56b-da39ec0342d9","ios":"levelo://app?vid=84c65012-fffe-4e39-a56b-da39ec0342d9"},"vehicle_type_id":"4","last_reported":1729087714,"current_range_meters":14400,"station_id":"ce4bgv92rcd13ifvqcq0","pricing_plan_id":"cebpf4jnsgd1na2vs0mg"},{"bike_id":"51107d2a-44b7-42aa-8b79-455363225e07","system_id":"levelo_inurba_marseille","lat":43.306,"lon":5.37219,"is_reserved":false,"is_disabled":false,"rental_uris":{"android":"levelo://app?vid=51107d2a-44b7-42aa-8b79-455363225e07","ios":"levelo://app?vid=51107d2a-44b7-42aa-8b79-455363225e07"},"vehicle_type_id":"4","last_reported":1729087714,"current_range_meters":38800,"station_id":"ce4bgqh2rcd13ifvqc4g","pricing_plan_id":"cebpf4jnsgd1na2vs0mg"},{"bike_id":"b3414e9f-e991-44cb-8362-0a7d75f1ca79","system_id":"levelo_inurba_marseille","lat":43.30311,"lon":5.36903,"is_reserved":false,"is_disabled":false,"rental_uris":{"android":"levelo://app?vid=b3414e9f-e991-44cb-8362-0a7d75f1ca79","ios":"levelo://app?vid=b3414e9f-e991-44cb-8362-0a7d75f1ca79"},"vehicle_type_id":"4","last_reported":1729087714,"current_range_meters":38800,"station_id":"ce4bgqh2rcd13ifvqc5g","pricing_plan_id":"cebpf4jnsgd1na2vs0mg"},{"bike_id":"f41d520e-7e46-4521-8594-318e92815eba","system_id":"levelo_inurba_marseille","lat":43.25874,"lon":5.39895,"is_reserved":false,"is_disabled":false,"rental_uris":{"android":"levelo://app?vid=f41d520e-7e46-4521-8594-318e92815eba","ios":"levelo://app?vid=f41d520e-7e46-4521-8594-318e92815eba"},"vehicle_type_id":"4","last_reported":1729087714,"current_range_meters":35600,"station_id":"ce4bhl92rcd13ifvqghg","pricing_plan_id":"cebpf4jnsgd1na2vs0mg"},{"bike_id":"8a3f4ed7-7ab2-41b1-8d75-0742559afb1f","system_id":"levelo_inurba_marseille","lat":43.25109,"lon":5.40327,"is_reserved":false,"is_disabled":false,"rental_uris":{"android":"levelo://app?vid=8a3f4ed7-7ab2-41b1-8d75-0742559afb1f","ios":"levelo://app?vid=8a3f4ed7-7ab2-41b1-8d75-0742559afb1f"},"vehicle_type_id":"4","last_reported":1729087714,"current_range_meters":27600,"station_id":"ce4bhlh2rcd13ifvqgig","pricing_plan_id":"cebpf4jnsgd1na2vs0mg"},{"bike_id":"615fd9e8-07cb-4837-9eb1-74d79746a504","system_id":"levelo_inurba_marseille","lat":43.29697,"lon":5.36775,"is_reserved":false,"is_disabled":false,"rental_uris":{"android":"levelo://app?vid=615fd9e8-07cb-4837-9eb1-74d79746a504","ios":"levelo://app?vid=615fd9e8-07cb-4837-9eb1-74d79746a504"},"vehicle_type_id":"4","last_reported":1729087714,"current_range_meters":33600,"station_id":"ce4bgn12rcd13ifvqbt0","pricing_plan_id":"cebpf4jnsgd1na2vs0mg"},{"bike_id":"00300bff-de7c-4a96-ac4e-c40d4a4537c6","system_id":"levelo_inurba_marseille","lat":43.2904,"lon":5.38651,"is_reserved":false,"is_disabled":false,"rental_uris":{"android":"levelo://app?vid=00300bff-de7c-4a96-ac4e-c40d4a4537c6","ios":"levelo://app?vid=00300bff-de7c-4a96-ac4e-c40d4a4537c6"},"vehicle_type_id":"4","last_reported":1729087714,"current_range_meters":28400,"station_id":"ce4bh4p2rcd13ifvqe0g","pricing_plan_id":"cebpf4jnsgd1na2vs0mg"},{"bike_id":"de39ea47-821b-44c0-89c2-fa9f00b3d493","system_id":"levelo_inurba_marseille","lat":43.29783,"lon":5.37105,"is_reserved":false,"is_disabled":false,"rental_uris":{"android":"levelo://app?vid=de39ea47-821b-44c0-89c2-fa9f00b3d493","ios":"levelo://app?vid=de39ea47-821b-44c0-89c2-fa9f00b3d493"},"vehicle_type_id":"4","last_reported":1729087714,"current_range_meters":32400,"station_id":"ce4bgop2rcd13ifvqc1g","pricing_plan_id":"cebpf4jnsgd1na2vs0mg"},{"bike_id":"510e3023-d190-4812-8c4b-a068f7a1ffc5","system_id":"levelo_inurba_marseille","lat":43.27573,"lon":5.38411,"is_reserved":false,"is_disabled":false,"rental_uris":{"android":"levelo://app?vid=510e3023-d190-4812-8c4b-a068f7a1ffc5","ios":"levelo://app?vid=510e3023-d190-4812-8c4b-a068f7a1ffc5"},"vehicle_type_id":"4","last_reported":1729087714,"current_range_meters":10800,"station_id":"ce4bhh92rcd13ifvqfi0","pricing_plan_id":"cebpf4jnsgd1na2vs0mg"},{"bike_id":"b88f5b97-e1e8-498d-88ba-ce05d9d67cc6","system_id":"levelo_inurba_marseille","lat":43.25494,"lon":5.37645,"is_reserved":false,"is_disabled":false,"rental_uris":{"android":"levelo://app?vid=b88f5b97-e1e8-498d-88ba-ce05d9d67cc6","ios":"levelo://app?vid=b88f5b97-e1e8-498d-88ba-ce05d9d67cc6"},"vehicle_type_id":"4","last_reported":1729087714,"current_range_meters":10000,"station_id":"ce4bhh12rcd13ifvqff0","pricing_plan_id":"cebpf4jnsgd1na2vs0mg"},{"bike_id":"d434c69f-3574-471d-86d5-37aa3eaef0b7","system_id":"levelo_inurba_marseille","lat":43.30147,"lon":5.37417,"is_reserved":false,"is_disabled":false,"rental_uris":{"android":"levelo://app?vid=d434c69f-3574-471d-86d5-37aa3eaef0b7","ios":"levelo://app?vid=d434c69f-3574-471d-86d5-37aa3eaef0b7"},"vehicle_type_id":"4","last_reported":1729087714,"current_range_meters":23200,"station_id":"ce4bgs92rcd13ifvqcc0","pricing_plan_id":"cebpf4jnsgd1na2vs0mg"},{"bike_id":"4c62ecd8-659b-40b5-b3b1-059c4fb87513","system_id":"levelo_inurba_marseille","lat":43.280731,"lon":5.396633,"is_reserved":false,"is_disabled":false,"rental_uris":{"android":"levelo://app?vid=4c62ecd8-659b-40b5-b3b1-059c4fb87513","ios":"levelo://app?vid=4c62ecd8-659b-40b5-b3b1-059c4fb87513"},"vehicle_type_id":"4","last_reported":1729087714,"current_range_meters":3200,"station_id":"ce4bho12rcd13ifvqh2g","pricing_plan_id":"cebpf4jnsgd1na2vs0mg"},{"bike_id":"4bbd8b3f-4e6c-40f9-a93e-059251b96555","system_id":"levelo_inurba_marseille","lat":43.27212,"lon":5.39187,"is_reserved":false,"is_disabled":false,"rental_uris":{"android":"levelo://app?vid=4bbd8b3f-4e6c-40f9-a93e-059251b96555","ios":"levelo://app?vid=4bbd8b3f-4e6c-40f9-a93e-059251b96555"},"vehicle_type_id":"4","last_reported":1729087714,"current_range_meters":27200,"station_id":"ce4bhhp2rcd13ifvqfm0","pricing_plan_id":"cebpf4jnsgd1na2vs0mg"},{"bike_id":"fa7bbdc9-afbe-404d-8676-647037cc76a9","system_id":"levelo_inurba_marseille","lat":43.23187,"lon":5.3554,"is_reserved":false,"is_disabled":false,"rental_uris":{"android":"levelo://app?vid=fa7bbdc9-afbe-404d-8676-647037cc76a9","ios":"levelo://app?vid=fa7bbdc9-afbe-404d-8676-647037cc76a9"},"vehicle_type_id":"4","last_reported":1729087714,"current_range_meters":37600,"station_id":"ce4bhu92rcd13ifvqi70","pricing_plan_id":"cebpf4jnsgd1na2vs0mg"},{"bike_id":"931ad2f4-35ea-42b5-bc1a-1fdec477398a","system_id":"levelo_inurba_marseille","lat":43.337444,"lon":5.374475,"is_reserved":false,"is_disabled":false,"rental_uris":{"android":"levelo://app?vid=931ad2f4-35ea-42b5-bc1a-1fdec477398a","ios":"levelo://app?vid=931ad2f4-35ea-42b5-bc1a-1fdec477398a"},"vehicle_type_id":"4","last_reported":1729087714,"current_range_meters":38000,"station_id":"","pricing_plan_id":"cebpf4jnsgd1na2vs0mg"},{"bike_id":"ead989bf-bd8c-4aee-85d8-527278ae0cfb","system_id":"levelo_inurba_marseille","lat":43.29739,"lon":5.37689,"is_reserved":false,"is_disabled":false,"rental_uris":{"android":"levelo://app?vid=ead989bf-bd8c-4aee-85d8-527278ae0cfb","ios":"levelo://app?vid=ead989bf-bd8c-4aee-85d8-527278ae0cfb"},"vehicle_type_id":"4","last_reported":1729087714,"current_range_meters":38800,"station_id":"ce4bgkh2rcd13ifvqbl0","pricing_plan_id":"cebpf4jnsgd1na2vs0mg"},{"bike_id":"ac157592-a43b-44b1-b8e2-a4036e4350cd","system_id":"levelo_inurba_marseille","lat":43.25829,"lon":5.39442,"is_reserved":false,"is_disabled":false,"rental_uris":{"android":"levelo://app?vid=ac157592-a43b-44b1-b8e2-a4036e4350cd","ios":"levelo://app?vid=ac157592-a43b-44b1-b8e2-a4036e4350cd"},"vehicle_type_id":"4","last_reported":1729087714,"current_range_meters":32400,"station_id":"ce4bhip2rcd13ifvqft0","pricing_plan_id":"cebpf4jnsgd1na2vs0mg"},{"bike_id":"7f73d721-727c-4706-9a3c-291d763824dd","system_id":"levelo_inurba_marseille","lat":43.2922,"lon":5.36063,"is_reserved":false,"is_disabled":false,"rental_uris":{"android":"levelo://app?vid=7f73d721-727c-4706-9a3c-291d763824dd","ios":"levelo://app?vid=7f73d721-727c-4706-9a3c-291d763824dd"},"vehicle_type_id":"4","last_reported":1729087714,"current_range_meters":3200,"station_id":"ce4bhbh2rcd13ifvqeqg","pricing_plan_id":"cebpf4jnsgd1na2vs0mg"},{"bike_id":"2f8e6b4a-576e-4d4a-a3ff-38fb52b210a0","system_id":"levelo_inurba_marseille","lat":43.29962,"lon":5.41322,"is_reserved":false,"is_disabled":false,"rental_uris":{"android":"levelo://app?vid=2f8e6b4a-576e-4d4a-a3ff-38fb52b210a0","ios":"levelo://app?vid=2f8e6b4a-576e-4d4a-a3ff-38fb52b210a0"},"vehicle_type_id":"4","last_reported":1729087714,"current_range_meters":38800,"station_id":"ce4bhp12rcd13ifvqh9g","pricing_plan_id":"cebpf4jnsgd1na2vs0mg"},{"bike_id":"81e32d4e-df25-4349-90c7-1831752870c9","system_id":"levelo_inurba_marseille","lat":43.2794,"lon":5.4104,"is_reserved":false,"is_disabled":false,"rental_uris":{"android":"levelo://app?vid=81e32d4e-df25-4349-90c7-1831752870c9","ios":"levelo://app?vid=81e32d4e-df25-4349-90c7-1831752870c9"},"vehicle_type_id":"4","last_reported":1729087714,"current_range_meters":34800,"station_id":"ce4bhnp2rcd13ifvqh0g","pricing_plan_id":"cebpf4jnsgd1na2vs0mg"},{"bike_id":"7ab9767d-ae3f-4f7d-a28d-c480f7786dbf","system_id":"levelo_inurba_marseille","lat":43.29205,"lon":5.40877,"is_reserved":false,"is_disabled":false,"rental_uris":{"android":"levelo://app?vid=7ab9767d-ae3f-4f7d-a28d-c480f7786dbf","ios":"levelo://app?vid=7ab9767d-ae3f-4f7d-a28d-c480f7786dbf"},"vehicle_type_id":"4","last_reported":1729087714,"current_range_meters":22000,"station_id":"ce4bho92rcd13ifvqh4g","pricing_plan_id":"cebpf4jnsgd1na2vs0mg"},{"bike_id":"22e97e60-ef6f-46ef-94a1-311efe288064","system_id":"levelo_inurba_marseille","lat":43.29192,"lon":5.35808,"is_reserved":false,"is_disabled":false,"rental_uris":{"android":"levelo://app?vid=22e97e60-ef6f-46ef-94a1-311efe288064","ios":"levelo://app?vid=22e97e60-ef6f-46ef-94a1-311efe288064"},"vehicle_type_id":"4","last_reported":1729087714,"current_range_meters":22000,"station_id":"ce4bhb12rcd13ifvqel0","pricing_plan_id":"cebpf4jnsgd1na2vs0mg"},{"bike_id":"7574a901-0eed-4a28-a35d-9f7834b3975e","system_id":"levelo_inurba_marseille","lat":43.26101,"lon":5.39371,"is_reserved":false,"is_disabled":false,"rental_uris":{"android":"levelo://app?vid=7574a901-0eed-4a28-a35d-9f7834b3975e","ios":"levelo://app?vid=7574a901-0eed-4a28-a35d-9f7834b3975e"},"vehicle_type_id":"4","last_reported":1729087714,"current_range_meters":24000,"station_id":"ce4bhhh2rcd13ifvqfl0","pricing_plan_id":"cebpf4jnsgd1na2vs0mg"},{"bike_id":"5d4185c5-efd5-458a-89de-9f5bf51cb954","system_id":"levelo_inurba_marseille","lat":43.25935,"lon":5.40897,"is_reserved":false,"is_disabled":false,"rental_uris":{"android":"levelo://app?vid=5d4185c5-efd5-458a-89de-9f5bf51cb954","ios":"levelo://app?vid=5d4185c5-efd5-458a-89de-9f5bf51cb954"},"vehicle_type_id":"4","last_reported":1729087714,"current_range_meters":27600,"station_id":"ce4bhm92rcd13ifvqglg","pricing_plan_id":"cebpf4jnsgd1na2vs0mg"},{"bike_id":"c3a086f5-b393-4cf3-b498-198346227eeb","system_id":"levelo_inurba_marseille","lat":43.26208,"lon":5.37444,"is_reserved":false,"is_disabled":false,"rental_uris":{"android":"levelo://app?vid=c3a086f5-b393-4cf3-b498-198346227eeb","ios":"levelo://app?vid=c3a086f5-b393-4cf3-b498-198346227eeb"},"vehicle_type_id":"4","last_reported":1729087714,"current_range_meters":27200,"station_id":"ce4bhgp2rcd13ifvqfc0","pricing_plan_id":"cebpf4jnsgd1na2vs0mg"},{"bike_id":"03b52a53-4015-42f1-a46b-0d68e4ef1cf1","system_id":"levelo_inurba_marseille","lat":43.30539,"lon":5.36694,"is_reserved":false,"is_disabled":false,"rental_uris":{"android":"levelo://app?vid=03b52a53-4015-42f1-a46b-0d68e4ef1cf1","ios":"levelo://app?vid=03b52a53-4015-42f1-a46b-0d68e4ef1cf1"},"vehicle_type_id":"4","last_reported":1729087714,"current_range_meters":38800,"station_id":"ce4bgrp2rcd13ifvqc9g","pricing_plan_id":"cebpf4jnsgd1na2vs0mg"},{"bike_id":"230796ff-db1b-4afd-92a4-4f4a19b339f7","system_id":"levelo_inurba_marseille","lat":43.27997,"lon":5.40012,"is_reserved":false,"is_disabled":false,"rental_uris":{"android":"levelo://app?vid=230796ff-db1b-4afd-92a4-4f4a19b339f7","ios":"levelo://app?vid=230796ff-db1b-4afd-92a4-4f4a19b339f7"},"vehicle_type_id":"4","last_reported":1729087714,"current_range_meters":9200,"station_id":"ce4bho92rcd13ifvqh4g","pricing_plan_id":"cebpf4jnsgd1na2vs0mg"},{"bike_id":"85d70bc7-a693-4e9a-8b91-709d878d62cc","system_id":"levelo_inurba_marseille","lat":43.27812,"lon":5.40713,"is_reserved":false,"is_disabled":false,"rental_uris":{"android":"levelo://app?vid=85d70bc7-a693-4e9a-8b91-709d878d62cc","ios":"levelo://app?vid=85d70bc7-a693-4e9a-8b91-709d878d62cc"},"vehicle_type_id":"4","last_reported":1729087714,"current_range_meters":25600,"station_id":"ce4bhnh2rcd13ifvqgtg","pricing_plan_id":"cebpf4jnsgd1na2vs0mg"},{"bike_id":"e401da3a-dd25-4cbc-9a88-0df4ce84c535","system_id":"levelo_inurba_marseille","lat":43.30135,"lon":5.38795,"is_reserved":false,"is_disabled":false,"rental_uris":{"android":"levelo://app?vid=e401da3a-dd25-4cbc-9a88-0df4ce84c535","ios":"levelo://app?vid=e401da3a-dd25-4cbc-9a88-0df4ce84c535"},"vehicle_type_id":"4","last_reported":1729087714,"current_range_meters":6800,"station_id":"ce4bghh2rcd13ifvqb60","pricing_plan_id":"cebpf4jnsgd1na2vs0mg"},{"bike_id":"db0f7f46-40de-41ed-89c2-de13ac3f8d1f","system_id":"levelo_inurba_marseille","lat":43.29578,"lon":5.36733,"is_reserved":false,"is_disabled":false,"rental_uris":{"android":"levelo://app?vid=db0f7f46-40de-41ed-89c2-de13ac3f8d1f","ios":"levelo://app?vid=db0f7f46-40de-41ed-89c2-de13ac3f8d1f"},"vehicle_type_id":"4","last_reported":1729087714,"current_range_meters":30000,"station_id":"ce4bgph2rcd13ifvqc2g","pricing_plan_id":"cebpf4jnsgd1na2vs0mg"},{"bike_id":"d1e28850-a95a-474c-9131-2ed1a95493f4","system_id":"levelo_inurba_marseille","lat":43.28351,"lon":5.38098,"is_reserved":false,"is_disabled":false,"rental_uris":{"android":"levelo://app?vid=d1e28850-a95a-474c-9131-2ed1a95493f4","ios":"levelo://app?vid=d1e28850-a95a-474c-9131-2ed1a95493f4"},"vehicle_type_id":"4","last_reported":1729087714,"current_range_meters":9600,"station_id":"ce4bh412rcd13ifvqdr0","pricing_plan_id":"cebpf4jnsgd1na2vs0mg"},{"bike_id":"c8229813-5ea4-40de-a97b-4b0c94c3a861","system_id":"levelo_inurba_marseille","lat":43.29847,"lon":5.36278,"is_reserved":false,"is_disabled":false,"rental_uris":{"android":"levelo://app?vid=c8229813-5ea4-40de-a97b-4b0c94c3a861","ios":"levelo://app?vid=c8229813-5ea4-40de-a97b-4b0c94c3a861"},"vehicle_type_id":"4","last_reported":1729087714,"current_range_meters":22000,"station_id":"ce4bgpp2rcd13ifvqc3g","pricing_plan_id":"cebpf4jnsgd1na2vs0mg"},{"bike_id":"8d9b8ea5-c454-4261-93e1-49e91897a82d","system_id":"levelo_inurba_marseille","lat":43.28108,"lon":5.3783,"is_reserved":false,"is_disabled":false,"rental_uris":{"android":"levelo://app?vid=8d9b8ea5-c454-4261-93e1-49e91897a82d","ios":"levelo://app?vid=8d9b8ea5-c454-4261-93e1-49e91897a82d"},"vehicle_type_id":"4","last_reported":1729087714,"current_range_meters":7200,"station_id":"ce4bha12rcd13ifvqee0","pricing_plan_id":"cebpf4jnsgd1na2vs0mg"},{"bike_id":"90e46af3-a937-4ac5-93c1-aa3a1bbac151","system_id":"levelo_inurba_marseille","lat":43.27208,"lon":5.39187,"is_reserved":false,"is_disabled":false,"rental_uris":{"android":"levelo://app?vid=90e46af3-a937-4ac5-93c1-aa3a1bbac151","ios":"levelo://app?vid=90e46af3-a937-4ac5-93c1-aa3a1bbac151"},"vehicle_type_id":"4","last_reported":1729087714,"current_range_meters":14000,"station_id":"ce4bhhp2rcd13ifvqfm0","pricing_plan_id":"cebpf4jnsgd1na2vs0mg"},{"bike_id":"0994d7f0-fa2e-480f-b967-2b1e1b476b78","system_id":"levelo_inurba_marseille","lat":43.23189,"lon":5.35554,"is_reserved":false,"is_disabled":false,"rental_uris":{"android":"levelo://app?vid=0994d7f0-fa2e-480f-b967-2b1e1b476b78","ios":"levelo://app?vid=0994d7f0-fa2e-480f-b967-2b1e1b476b78"},"vehicle_type_id":"4","last_reported":1729087714,"current_range_meters":20400,"station_id":"ce4bhu92rcd13ifvqi70","pricing_plan_id":"cebpf4jnsgd1na2vs0mg"},{"bike_id":"fdd66ad6-eea7-4b20-b1db-8af521589101","system_id":"levelo_inurba_marseille","lat":43.308946,"lon":5.396545,"is_reserved":false,"is_disabled":false,"rental_uris":{"android":"levelo://app?vid=fdd66ad6-eea7-4b20-b1db-8af521589101","ios":"levelo://app?vid=fdd66ad6-eea7-4b20-b1db-8af521589101"},"vehicle_type_id":"4","last_reported":1729087714,"current_range_meters":18000,"station_id":"ce4bh012rcd13ifvqcv0","pricing_plan_id":"cebpf4jnsgd1na2vs0mg"},{"bike_id":"65a940c3-d54d-4c2e-a167-685c65e551d3","system_id":"levelo_inurba_marseille","lat":43.27945,"lon":5.41041,"is_reserved":false,"is_disabled":false,"rental_uris":{"android":"levelo://app?vid=65a940c3-d54d-4c2e-a167-685c65e551d3","ios":"levelo://app?vid=65a940c3-d54d-4c2e-a167-685c65e551d3"},"vehicle_type_id":"4","last_reported":1729087714,"current_range_meters":16000,"station_id":"ce4bhnp2rcd13ifvqh0g","pricing_plan_id":"cebpf4jnsgd1na2vs0mg"},{"bike_id":"66ccc46d-618e-4760-b09c-27382152bdab","system_id":"levelo_inurba_marseille","lat":43.23199,"lon":5.35544,"is_reserved":false,"is_disabled":false,"rental_uris":{"android":"levelo://app?vid=66ccc46d-618e-4760-b09c-27382152bdab","ios":"levelo://app?vid=66ccc46d-618e-4760-b09c-27382152bdab"},"vehicle_type_id":"4","last_reported":1729087714,"current_range_meters":37600,"station_id":"ce4bhu92rcd13ifvqi70","pricing_plan_id":"cebpf4jnsgd1na2vs0mg"},{"bike_id":"8a331acc-70d9-496a-b0bc-87f49792f9b4","system_id":"levelo_inurba_marseille","lat":43.24162,"lon":5.364,"is_reserved":false,"is_disabled":false,"rental_uris":{"android":"levelo://app?vid=8a331acc-70d9-496a-b0bc-87f49792f9b4","ios":"levelo://app?vid=8a331acc-70d9-496a-b0bc-87f49792f9b4"},"vehicle_type_id":"4","last_reported":1729087714,"current_range_meters":23200,"station_id":"cpo36qri1sfpv3e86is0","pricing_plan_id":"cebpf4jnsgd1na2vs0mg"},{"bike_id":"cea5e38a-415c-4509-a847-b86ebabe7733","system_id":"levelo_inurba_marseille","lat":43.28155,"lon":5.42637,"is_reserved":false,"is_disabled":false,"rental_uris":{"android":"levelo://app?vid=cea5e38a-415c-4509-a847-b86ebabe7733","ios":"levelo://app?vid=cea5e38a-415c-4509-a847-b86ebabe7733"},"vehicle_type_id":"4","last_reported":1729087714,"current_range_meters":27600,"station_id":"ce4bhnh2rcd13ifvqgug","pricing_plan_id":"cebpf4jnsgd1na2vs0mg"},{"bike_id":"ce0672c0-b389-46ca-9ed1-56c6721e359b","system_id":"levelo_inurba_marseille","lat":43.32297,"lon":5.3826,"is_reserved":false,"is_disabled":false,"rental_uris":{"android":"levelo://app?vid=ce0672c0-b389-46ca-9ed1-56c6721e359b","ios":"levelo://app?vid=ce0672c0-b389-46ca-9ed1-56c6721e359b"},"vehicle_type_id":"4","last_reported":1729087714,"current_range_meters":9200,"station_id":"ce4bhr12rcd13ifvqhqg","pricing_plan_id":"cebpf4jnsgd1na2vs0mg"},{"bike_id":"ba517d6d-9d33-4e29-b24b-ad14101777f7","system_id":"levelo_inurba_marseille","lat":43.25867,"lon":5.39892,"is_reserved":false,"is_disabled":false,"rental_uris":{"android":"levelo://app?vid=ba517d6d-9d33-4e29-b24b-ad14101777f7","ios":"levelo://app?vid=ba517d6d-9d33-4e29-b24b-ad14101777f7"},"vehicle_type_id":"4","last_reported":1729087714,"current_range_meters":39200,"station_id":"ce4bhl92rcd13ifvqghg","pricing_plan_id":"cebpf4jnsgd1na2vs0mg"},{"bike_id":"391c6b65-bf5e-4195-91e8-e8593c5c3236","system_id":"levelo_inurba_marseille","lat":43.292226,"lon":5.360327,"is_reserved":false,"is_disabled":false,"rental_uris":{"android":"levelo://app?vid=391c6b65-bf5e-4195-91e8-e8593c5c3236","ios":"levelo://app?vid=391c6b65-bf5e-4195-91e8-e8593c5c3236"},"vehicle_type_id":"4","last_reported":1729087714,"current_range_meters":33200,"station_id":"ce4bhbh2rcd13ifvqeqg","pricing_plan_id":"cebpf4jnsgd1na2vs0mg"},{"bike_id":"bfe72407-8d71-4f6f-b93a-750f9e91175a","system_id":"levelo_inurba_marseille","lat":43.300934,"lon":5.390772,"is_reserved":false,"is_disabled":false,"rental_uris":{"android":"levelo://app?vid=bfe72407-8d71-4f6f-b93a-750f9e91175a","ios":"levelo://app?vid=bfe72407-8d71-4f6f-b93a-750f9e91175a"},"vehicle_type_id":"4","last_reported":1729087714,"current_range_meters":16400,"station_id":"ce4bh192rcd13ifvqdb0","pricing_plan_id":"cebpf4jnsgd1na2vs0mg"},{"bike_id":"1e69292e-e3fe-4906-9ca6-103259c9e5f0","system_id":"levelo_inurba_marseille","lat":43.30548,"lon":5.36701,"is_reserved":false,"is_disabled":false,"rental_uris":{"android":"levelo://app?vid=1e69292e-e3fe-4906-9ca6-103259c9e5f0","ios":"levelo://app?vid=1e69292e-e3fe-4906-9ca6-103259c9e5f0"},"vehicle_type_id":"4","last_reported":1729087714,"current_range_meters":38800,"station_id":"ce4bgrp2rcd13ifvqc9g","pricing_plan_id":"cebpf4jnsgd1na2vs0mg"},{"bike_id":"6300df2c-b9fe-4275-916d-dd75e59140c9","system_id":"levelo_inurba_marseille","lat":43.23197,"lon":5.35548,"is_reserved":false,"is_disabled":false,"rental_uris":{"android":"levelo://app?vid=6300df2c-b9fe-4275-916d-dd75e59140c9","ios":"levelo://app?vid=6300df2c-b9fe-4275-916d-dd75e59140c9"},"vehicle_type_id":"4","last_reported":1729087714,"current_range_meters":37600,"station_id":"ce4bhu92rcd13ifvqi70","pricing_plan_id":"cebpf4jnsgd1na2vs0mg"},{"bike_id":"9e5b27c9-3509-48d2-8a05-9010e3bd11e1","system_id":"levelo_inurba_marseille","lat":43.33023,"lon":5.39044,"is_reserved":false,"is_disabled":false,"rental_uris":{"android":"levelo://app?vid=9e5b27c9-3509-48d2-8a05-9010e3bd11e1","ios":"levelo://app?vid=9e5b27c9-3509-48d2-8a05-9010e3bd11e1"},"vehicle_type_id":"4","last_reported":1729087714,"current_range_meters":38800,"station_id":"ce4bhr92rcd13ifvqhrg","pricing_plan_id":"cebpf4jnsgd1na2vs0mg"},{"bike_id":"5a4fd0d3-d886-42f8-8cda-a0778f6a6574","system_id":"levelo_inurba_marseille","lat":43.23968,"lon":5.3663,"is_reserved":false,"is_disabled":false,"rental_uris":{"android":"levelo://app?vid=5a4fd0d3-d886-42f8-8cda-a0778f6a6574","ios":"levelo://app?vid=5a4fd0d3-d886-42f8-8cda-a0778f6a6574"},"vehicle_type_id":"4","last_reported":1729087714,"current_range_meters":10800,"station_id":"ce4bhi12rcd13ifvqfp0","pricing_plan_id":"cebpf4jnsgd1na2vs0mg"},{"bike_id":"6d56330f-5e73-42d5-b4b2-2b0523e4e635","system_id":"levelo_inurba_marseille","lat":43.27945,"lon":5.41052,"is_reserved":false,"is_disabled":false,"rental_uris":{"android":"levelo://app?vid=6d56330f-5e73-42d5-b4b2-2b0523e4e635","ios":"levelo://app?vid=6d56330f-5e73-42d5-b4b2-2b0523e4e635"},"vehicle_type_id":"4","last_reported":1729087714,"current_range_meters":23200,"station_id":"ce4bhnp2rcd13ifvqh0g","pricing_plan_id":"cebpf4jnsgd1na2vs0mg"},{"bike_id":"faf9b073-eeb9-49f2-9e73-3f8a7f4f2502","system_id":"levelo_inurba_marseille","lat":43.26498,"lon":5.39542,"is_reserved":false,"is_disabled":false,"rental_uris":{"android":"levelo://app?vid=faf9b073-eeb9-49f2-9e73-3f8a7f4f2502","ios":"levelo://app?vid=faf9b073-eeb9-49f2-9e73-3f8a7f4f2502"},"vehicle_type_id":"4","last_reported":1729087714,"current_range_meters":25200,"station_id":"ce4bhi12rcd13ifvqfq0","pricing_plan_id":"cebpf4jnsgd1na2vs0mg"},{"bike_id":"ef2dcb06-86bc-44ad-8682-568d3cb4ff17","system_id":"levelo_inurba_marseille","lat":43.30649,"lon":5.40093,"is_reserved":false,"is_disabled":false,"rental_uris":{"android":"levelo://app?vid=ef2dcb06-86bc-44ad-8682-568d3cb4ff17","ios":"levelo://app?vid=ef2dcb06-86bc-44ad-8682-568d3cb4ff17"},"vehicle_type_id":"4","last_reported":1729087714,"current_range_meters":12800,"station_id":"ce4bh112rcd13ifvqda0","pricing_plan_id":"cebpf4jnsgd1na2vs0mg"},{"bike_id":"b4c939cd-1413-4fdd-8058-7b9ac03bdb58","system_id":"levelo_inurba_marseille","lat":43.30137,"lon":5.37429,"is_reserved":false,"is_disabled":false,"rental_uris":{"android":"levelo://app?vid=b4c939cd-1413-4fdd-8058-7b9ac03bdb58","ios":"levelo://app?vid=b4c939cd-1413-4fdd-8058-7b9ac03bdb58"},"vehicle_type_id":"4","last_reported":1729087714,"current_range_meters":8000,"station_id":"ce4bgs92rcd13ifvqcc0","pricing_plan_id":"cebpf4jnsgd1na2vs0mg"},{"bike_id":"fda33e13-de7f-4dd2-89af-74361db8066f","system_id":"levelo_inurba_marseille","lat":43.27992,"lon":5.40022,"is_reserved":false,"is_disabled":false,"rental_uris":{"android":"levelo://app?vid=fda33e13-de7f-4dd2-89af-74361db8066f","ios":"levelo://app?vid=fda33e13-de7f-4dd2-89af-74361db8066f"},"vehicle_type_id":"4","last_reported":1729087714,"current_range_meters":38800,"station_id":"ce4bho92rcd13ifvqh4g","pricing_plan_id":"cebpf4jnsgd1na2vs0mg"},{"bike_id":"ea4196b0-562d-40da-9d36-957a06e0f2f5","system_id":"levelo_inurba_marseille","lat":43.29961,"lon":5.41314,"is_reserved":false,"is_disabled":false,"rental_uris":{"android":"levelo://app?vid=ea4196b0-562d-40da-9d36-957a06e0f2f5","ios":"levelo://app?vid=ea4196b0-562d-40da-9d36-957a06e0f2f5"},"vehicle_type_id":"4","last_reported":1729087714,"current_range_meters":7200,"station_id":"ce4bhp12rcd13ifvqh9g","pricing_plan_id":"cebpf4jnsgd1na2vs0mg"},{"bike_id":"8cd9ab2c-db18-48d6-9ba9-f179eb726f3d","system_id":"levelo_inurba_marseille","lat":43.2481,"lon":5.37455,"is_reserved":false,"is_disabled":false,"rental_uris":{"android":"levelo://app?vid=8cd9ab2c-db18-48d6-9ba9-f179eb726f3d","ios":"levelo://app?vid=8cd9ab2c-db18-48d6-9ba9-f179eb726f3d"},"vehicle_type_id":"4","last_reported":1729087714,"current_range_meters":12000,"station_id":"ce4bhgh2rcd13ifvqfb0","pricing_plan_id":"cebpf4jnsgd1na2vs0mg"},{"bike_id":"daae1e24-a5b8-4bca-89c6-acfb53c99e97","system_id":"levelo_inurba_marseille","lat":43.272082,"lon":5.391809,"is_reserved":false,"is_disabled":false,"rental_uris":{"android":"levelo://app?vid=daae1e24-a5b8-4bca-89c6-acfb53c99e97","ios":"levelo://app?vid=daae1e24-a5b8-4bca-89c6-acfb53c99e97"},"vehicle_type_id":"4","last_reported":1729087714,"current_range_meters":26800,"station_id":"ce4bhhp2rcd13ifvqfm0","pricing_plan_id":"cebpf4jnsgd1na2vs0mg"},{"bike_id":"2140b6a3-5118-4150-823e-9225aeb56201","system_id":"levelo_inurba_marseille","lat":43.23187,"lon":5.35536,"is_reserved":false,"is_disabled":false,"rental_uris":{"android":"levelo://app?vid=2140b6a3-5118-4150-823e-9225aeb56201","ios":"levelo://app?vid=2140b6a3-5118-4150-823e-9225aeb56201"},"vehicle_type_id":"4","last_reported":1729087714,"current_range_meters":4000,"station_id":"ce4bhu92rcd13ifvqi70","pricing_plan_id":"cebpf4jnsgd1na2vs0mg"},{"bike_id":"c71256e3-f91a-415b-a206-25fe3e2d20b5","system_id":"levelo_inurba_marseille","lat":43.25008,"lon":5.3893,"is_reserved":false,"is_disabled":false,"rental_uris":{"android":"levelo://app?vid=c71256e3-f91a-415b-a206-25fe3e2d20b5","ios":"levelo://app?vid=c71256e3-f91a-415b-a206-25fe3e2d20b5"},"vehicle_type_id":"4","last_reported":1729087714,"current_range_meters":28400,"station_id":"ce4bhgp2rcd13ifvqfd0","pricing_plan_id":"cebpf4jnsgd1na2vs0mg"},{"bike_id":"95a87145-1060-4d0d-9b54-8134979e0bbb","system_id":"levelo_inurba_marseille","lat":43.31076,"lon":5.38354,"is_reserved":false,"is_disabled":false,"rental_uris":{"android":"levelo://app?vid=95a87145-1060-4d0d-9b54-8134979e0bbb","ios":"levelo://app?vid=95a87145-1060-4d0d-9b54-8134979e0bbb"},"vehicle_type_id":"4","last_reported":1729087714,"current_range_meters":8400,"station_id":"ce4bgv92rcd13ifvqcr0","pricing_plan_id":"cebpf4jnsgd1na2vs0mg"},{"bike_id":"ee81de78-eac7-4709-af30-874fee4a33ef","system_id":"levelo_inurba_marseille","lat":43.27073,"lon":5.42281,"is_reserved":false,"is_disabled":false,"rental_uris":{"android":"levelo://app?vid=ee81de78-eac7-4709-af30-874fee4a33ef","ios":"levelo://app?vid=ee81de78-eac7-4709-af30-874fee4a33ef"},"vehicle_type_id":"4","last_reported":1729087714,"current_range_meters":8400,"station_id":"ce4bhk92rcd13ifvqgb0","pricing_plan_id":"cebpf4jnsgd1na2vs0mg"},{"bike_id":"849a5291-48a8-4f41-9763-f208e0dc77ef","system_id":"levelo_inurba_marseille","lat":43.30317,"lon":5.36901,"is_reserved":false,"is_disabled":false,"rental_uris":{"android":"levelo://app?vid=849a5291-48a8-4f41-9763-f208e0dc77ef","ios":"levelo://app?vid=849a5291-48a8-4f41-9763-f208e0dc77ef"},"vehicle_type_id":"4","last_reported":1729087714,"current_range_meters":38800,"station_id":"ce4bgqh2rcd13ifvqc5g","pricing_plan_id":"cebpf4jnsgd1na2vs0mg"},{"bike_id":"b6a487f5-ade0-43d4-a813-091c063a0456","system_id":"levelo_inurba_marseille","lat":43.30547,"lon":5.36712,"is_reserved":false,"is_disabled":false,"rental_uris":{"android":"levelo://app?vid=b6a487f5-ade0-43d4-a813-091c063a0456","ios":"levelo://app?vid=b6a487f5-ade0-43d4-a813-091c063a0456"},"vehicle_type_id":"4","last_reported":1729087714,"current_range_meters":38400,"station_id":"ce4bgrp2rcd13ifvqc9g","pricing_plan_id":"cebpf4jnsgd1na2vs0mg"},{"bike_id":"37327713-143f-425a-acad-176a5ae5b3e4","system_id":"levelo_inurba_marseille","lat":43.30469,"lon":5.37896,"is_reserved":false,"is_disabled":false,"rental_uris":{"android":"levelo://app?vid=37327713-143f-425a-acad-176a5ae5b3e4","ios":"levelo://app?vid=37327713-143f-425a-acad-176a5ae5b3e4"},"vehicle_type_id":"4","last_reported":1729087714,"current_range_meters":38800,"station_id":"ce4bgup2rcd13ifvqcn0","pricing_plan_id":"cebpf4jnsgd1na2vs0mg"},{"bike_id":"8042209b-c93a-467f-8ca2-150578e8a3ee","system_id":"levelo_inurba_marseille","lat":43.28491,"lon":5.38579,"is_reserved":false,"is_disabled":false,"rental_uris":{"android":"levelo://app?vid=8042209b-c93a-467f-8ca2-150578e8a3ee","ios":"levelo://app?vid=8042209b-c93a-467f-8ca2-150578e8a3ee"},"vehicle_type_id":"4","last_reported":1729087714,"current_range_meters":19200,"station_id":"ce4bh8p2rcd13ifvqeb0","pricing_plan_id":"cebpf4jnsgd1na2vs0mg"},{"bike_id":"54db35a1-3d20-4fbc-9a37-926b2bb7cf5d","system_id":"levelo_inurba_marseille","lat":43.28107,"lon":5.37834,"is_reserved":false,"is_disabled":false,"rental_uris":{"android":"levelo://app?vid=54db35a1-3d20-4fbc-9a37-926b2bb7cf5d","ios":"levelo://app?vid=54db35a1-3d20-4fbc-9a37-926b2bb7cf5d"},"vehicle_type_id":"4","last_reported":1729087714,"current_range_meters":16400,"station_id":"ce4bha12rcd13ifvqee0","pricing_plan_id":"cebpf4jnsgd1na2vs0mg"},{"bike_id":"f7ffcf8a-4fe6-46ce-94e4-7246e5913b8f","system_id":"levelo_inurba_marseille","lat":43.290684,"lon":5.366493,"is_reserved":false,"is_disabled":false,"rental_uris":{"android":"levelo://app?vid=f7ffcf8a-4fe6-46ce-94e4-7246e5913b8f","ios":"levelo://app?vid=f7ffcf8a-4fe6-46ce-94e4-7246e5913b8f"},"vehicle_type_id":"4","last_reported":1729087714,"current_range_meters":26000,"station_id":"ce4bhap2rcd13ifvqek0","pricing_plan_id":"cebpf4jnsgd1na2vs0mg"},{"bike_id":"8c5f6cb2-2534-400b-9faa-95a35c4c59a7","system_id":"levelo_inurba_marseille","lat":43.25728,"lon":5.41111,"is_reserved":false,"is_disabled":false,"rental_uris":{"android":"levelo://app?vid=8c5f6cb2-2534-400b-9faa-95a35c4c59a7","ios":"levelo://app?vid=8c5f6cb2-2534-400b-9faa-95a35c4c59a7"},"vehicle_type_id":"4","last_reported":1729087714,"current_range_meters":33200,"station_id":"ce4bhkp2rcd13ifvqgd0","pricing_plan_id":"cebpf4jnsgd1na2vs0mg"},{"bike_id":"5dfe7755-754c-457f-a73c-306ca3abb171","system_id":"levelo_inurba_marseille","lat":43.30551,"lon":5.36718,"is_reserved":false,"is_disabled":false,"rental_uris":{"android":"levelo://app?vid=5dfe7755-754c-457f-a73c-306ca3abb171","ios":"levelo://app?vid=5dfe7755-754c-457f-a73c-306ca3abb171"},"vehicle_type_id":"4","last_reported":1729087714,"current_range_meters":34000,"station_id":"ce4bgrp2rcd13ifvqc9g","pricing_plan_id":"cebpf4jnsgd1na2vs0mg"},{"bike_id":"4d7fc1e4-345e-4af0-bd93-6ae93dc82f92","system_id":"levelo_inurba_marseille","lat":43.27434,"lon":5.39405,"is_reserved":false,"is_disabled":false,"rental_uris":{"android":"levelo://app?vid=4d7fc1e4-345e-4af0-bd93-6ae93dc82f92","ios":"levelo://app?vid=4d7fc1e4-345e-4af0-bd93-6ae93dc82f92"},"vehicle_type_id":"4","last_reported":1729087714,"current_range_meters":32000,"station_id":"ce4bhdp2rcd13ifvqf20","pricing_plan_id":"cebpf4jnsgd1na2vs0mg"},{"bike_id":"826a5e17-cd28-49ac-a394-4c709b81bec6","system_id":"levelo_inurba_marseille","lat":43.28042,"lon":5.36952,"is_reserved":false,"is_disabled":false,"rental_uris":{"android":"levelo://app?vid=826a5e17-cd28-49ac-a394-4c709b81bec6","ios":"levelo://app?vid=826a5e17-cd28-49ac-a394-4c709b81bec6"},"vehicle_type_id":"4","last_reported":1729087714,"current_range_meters":37600,"station_id":"ce4bha12rcd13ifvqef0","pricing_plan_id":"cebpf4jnsgd1na2vs0mg"},{"bike_id":"3213665e-989c-4d22-9f5a-31c8522597dd","system_id":"levelo_inurba_marseille","lat":43.296,"lon":5.36142,"is_reserved":false,"is_disabled":false,"rental_uris":{"android":"levelo://app?vid=3213665e-989c-4d22-9f5a-31c8522597dd","ios":"levelo://app?vid=3213665e-989c-4d22-9f5a-31c8522597dd"},"vehicle_type_id":"4","last_reported":1729087714,"current_range_meters":32800,"station_id":"","pricing_plan_id":"cebpf4jnsgd1na2vs0mg"},{"bike_id":"3c57b800-cd54-44a0-a28a-fefad4f3f767","system_id":"levelo_inurba_marseille","lat":43.304852,"lon":5.379003,"is_reserved":false,"is_disabled":false,"rental_uris":{"android":"levelo://app?vid=3c57b800-cd54-44a0-a28a-fefad4f3f767","ios":"levelo://app?vid=3c57b800-cd54-44a0-a28a-fefad4f3f767"},"vehicle_type_id":"4","last_reported":1729087714,"current_range_meters":33200,"station_id":"ce4bgip2rcd13ifvqbb0","pricing_plan_id":"cebpf4jnsgd1na2vs0mg"},{"bike_id":"47669048-a2b2-4b2d-a069-c2875c14e783","system_id":"levelo_inurba_marseille","lat":43.337444,"lon":5.374475,"is_reserved":false,"is_disabled":false,"rental_uris":{"android":"levelo://app?vid=47669048-a2b2-4b2d-a069-c2875c14e783","ios":"levelo://app?vid=47669048-a2b2-4b2d-a069-c2875c14e783"},"vehicle_type_id":"4","last_reported":1729087714,"current_range_meters":12800,"station_id":"","pricing_plan_id":"cebpf4jnsgd1na2vs0mg"},{"bike_id":"1641b826-604a-4181-8231-dca386f637a6","system_id":"levelo_inurba_marseille","lat":43.23195,"lon":5.35559,"is_reserved":false,"is_disabled":false,"rental_uris":{"android":"levelo://app?vid=1641b826-604a-4181-8231-dca386f637a6","ios":"levelo://app?vid=1641b826-604a-4181-8231-dca386f637a6"},"vehicle_type_id":"4","last_reported":1729087714,"current_range_meters":37600,"station_id":"ce4bhu92rcd13ifvqi70","pricing_plan_id":"cebpf4jnsgd1na2vs0mg"},{"bike_id":"89211ee2-076f-4df3-92bd-cd8885f2e76d","system_id":"levelo_inurba_marseille","lat":43.23193,"lon":5.35556,"is_reserved":false,"is_disabled":false,"rental_uris":{"android":"levelo://app?vid=89211ee2-076f-4df3-92bd-cd8885f2e76d","ios":"levelo://app?vid=89211ee2-076f-4df3-92bd-cd8885f2e76d"},"vehicle_type_id":"4","last_reported":1729087714,"current_range_meters":37600,"station_id":"ce4bhu92rcd13ifvqi70","pricing_plan_id":"cebpf4jnsgd1na2vs0mg"},{"bike_id":"daa976cb-551e-4996-a8a1-00e6817a6c60","system_id":"levelo_inurba_marseille","lat":43.27926,"lon":5.39571,"is_reserved":false,"is_disabled":false,"rental_uris":{"android":"levelo://app?vid=daa976cb-551e-4996-a8a1-00e6817a6c60","ios":"levelo://app?vid=daa976cb-551e-4996-a8a1-00e6817a6c60"},"vehicle_type_id":"4","last_reported":1729087714,"current_range_meters":9200,"station_id":"ce4bh192rcd13ifvqdc0","pricing_plan_id":"cebpf4jnsgd1na2vs0mg"},{"bike_id":"94dcac77-d102-4975-85a3-b972f19477a7","system_id":"levelo_inurba_marseille","lat":43.25492,"lon":5.37649,"is_reserved":false,"is_disabled":false,"rental_uris":{"android":"levelo://app?vid=94dcac77-d102-4975-85a3-b972f19477a7","ios":"levelo://app?vid=94dcac77-d102-4975-85a3-b972f19477a7"},"vehicle_type_id":"4","last_reported":1729087714,"current_range_meters":10000,"station_id":"ce4bhh12rcd13ifvqff0","pricing_plan_id":"cebpf4jnsgd1na2vs0mg"},{"bike_id":"975adece-daeb-433e-b5fe-8997a00f0604","system_id":"levelo_inurba_marseille","lat":43.33025,"lon":5.39039,"is_reserved":false,"is_disabled":false,"rental_uris":{"android":"levelo://app?vid=975adece-daeb-433e-b5fe-8997a00f0604","ios":"levelo://app?vid=975adece-daeb-433e-b5fe-8997a00f0604"},"vehicle_type_id":"4","last_reported":1729087714,"current_range_meters":30800,"station_id":"ce4bhr92rcd13ifvqhrg","pricing_plan_id":"cebpf4jnsgd1na2vs0mg"},{"bike_id":"7c5f840d-ee91-49f8-abf1-6481edcbe346","system_id":"levelo_inurba_marseille","lat":43.23155,"lon":5.437,"is_reserved":false,"is_disabled":false,"rental_uris":{"android":"levelo://app?vid=7c5f840d-ee91-49f8-abf1-6481edcbe346","ios":"levelo://app?vid=7c5f840d-ee91-49f8-abf1-6481edcbe346"},"vehicle_type_id":"4","last_reported":1729087714,"current_range_meters":27200,"station_id":"ce4bhmp2rcd13ifvqgog","pricing_plan_id":"cebpf4jnsgd1na2vs0mg"},{"bike_id":"02af67c6-7c68-4559-a056-7404a067af01","system_id":"levelo_inurba_marseille","lat":43.33023,"lon":5.39053,"is_reserved":false,"is_disabled":false,"rental_uris":{"android":"levelo://app?vid=02af67c6-7c68-4559-a056-7404a067af01","ios":"levelo://app?vid=02af67c6-7c68-4559-a056-7404a067af01"},"vehicle_type_id":"4","last_reported":1729087714,"current_range_meters":39200,"station_id":"ce4bhr92rcd13ifvqhrg","pricing_plan_id":"cebpf4jnsgd1na2vs0mg"},{"bike_id":"67ebccbb-c640-412c-a2a2-444acf27fa2a","system_id":"levelo_inurba_marseille","lat":43.2923,"lon":5.3608,"is_reserved":false,"is_disabled":false,"rental_uris":{"android":"levelo://app?vid=67ebccbb-c640-412c-a2a2-444acf27fa2a","ios":"levelo://app?vid=67ebccbb-c640-412c-a2a2-444acf27fa2a"},"vehicle_type_id":"4","last_reported":1729087714,"current_range_meters":16400,"station_id":"ce4bhbh2rcd13ifvqeqg","pricing_plan_id":"cebpf4jnsgd1na2vs0mg"},{"bike_id":"8e3963b6-8131-4c1e-b4d2-add46d4dfbf9","system_id":"levelo_inurba_marseille","lat":43.30308,"lon":5.36891,"is_reserved":false,"is_disabled":false,"rental_uris":{"android":"levelo://app?vid=8e3963b6-8131-4c1e-b4d2-add46d4dfbf9","ios":"levelo://app?vid=8e3963b6-8131-4c1e-b4d2-add46d4dfbf9"},"vehicle_type_id":"4","last_reported":1729087714,"current_range_meters":18800,"station_id":"ce4bgqh2rcd13ifvqc5g","pricing_plan_id":"cebpf4jnsgd1na2vs0mg"},{"bike_id":"2b0a7b83-91f5-40bf-a831-8680c1dcf19d","system_id":"levelo_inurba_marseille","lat":43.25726,"lon":5.41107,"is_reserved":false,"is_disabled":false,"rental_uris":{"android":"levelo://app?vid=2b0a7b83-91f5-40bf-a831-8680c1dcf19d","ios":"levelo://app?vid=2b0a7b83-91f5-40bf-a831-8680c1dcf19d"},"vehicle_type_id":"4","last_reported":1729087714,"current_range_meters":38000,"station_id":"ce4bhkp2rcd13ifvqgd0","pricing_plan_id":"cebpf4jnsgd1na2vs0mg"},{"bike_id":"24f85f72-dee6-41bb-bdb8-974ca7c83215","system_id":"levelo_inurba_marseille","lat":43.33025,"lon":5.39037,"is_reserved":false,"is_disabled":false,"rental_uris":{"android":"levelo://app?vid=24f85f72-dee6-41bb-bdb8-974ca7c83215","ios":"levelo://app?vid=24f85f72-dee6-41bb-bdb8-974ca7c83215"},"vehicle_type_id":"4","last_reported":1729087714,"current_range_meters":24000,"station_id":"ce4bhr92rcd13ifvqhrg","pricing_plan_id":"cebpf4jnsgd1na2vs0mg"},{"bike_id":"7f0b5597-f798-4e5a-9215-e10a252c4992","system_id":"levelo_inurba_marseille","lat":43.30186,"lon":5.36616,"is_reserved":false,"is_disabled":false,"rental_uris":{"android":"levelo://app?vid=7f0b5597-f798-4e5a-9215-e10a252c4992","ios":"levelo://app?vid=7f0b5597-f798-4e5a-9215-e10a252c4992"},"vehicle_type_id":"4","last_reported":1729087714,"current_range_meters":38800,"station_id":"ce4bgrh2rcd13ifvqc8g","pricing_plan_id":"cebpf4jnsgd1na2vs0mg"},{"bike_id":"85e916e7-10b2-4418-8ac7-43314165cabe","system_id":"levelo_inurba_marseille","lat":43.304714,"lon":5.379056,"is_reserved":false,"is_disabled":false,"rental_uris":{"android":"levelo://app?vid=85e916e7-10b2-4418-8ac7-43314165cabe","ios":"levelo://app?vid=85e916e7-10b2-4418-8ac7-43314165cabe"},"vehicle_type_id":"4","last_reported":1729087714,"current_range_meters":38800,"station_id":"ce4bgup2rcd13ifvqcn0","pricing_plan_id":"cebpf4jnsgd1na2vs0mg"},{"bike_id":"87440bd7-4730-412f-b52f-03b263c3d6ba","system_id":"levelo_inurba_marseille","lat":43.23193,"lon":5.35553,"is_reserved":false,"is_disabled":false,"rental_uris":{"android":"levelo://app?vid=87440bd7-4730-412f-b52f-03b263c3d6ba","ios":"levelo://app?vid=87440bd7-4730-412f-b52f-03b263c3d6ba"},"vehicle_type_id":"4","last_reported":1729087714,"current_range_meters":24400,"station_id":"ce4bhu92rcd13ifvqi70","pricing_plan_id":"cebpf4jnsgd1na2vs0mg"},{"bike_id":"eba3d84a-bd04-4713-9b7a-1d9eef4ec313","system_id":"levelo_inurba_marseille","lat":43.27206,"lon":5.39182,"is_reserved":false,"is_disabled":false,"rental_uris":{"android":"levelo://app?vid=eba3d84a-bd04-4713-9b7a-1d9eef4ec313","ios":"levelo://app?vid=eba3d84a-bd04-4713-9b7a-1d9eef4ec313"},"vehicle_type_id":"4","last_reported":1729087714,"current_range_meters":9600,"station_id":"ce4bhhp2rcd13ifvqfm0","pricing_plan_id":"cebpf4jnsgd1na2vs0mg"},{"bike_id":"cdae481f-9aa1-4014-97de-af082fcf5979","system_id":"levelo_inurba_marseille","lat":43.25866,"lon":5.39902,"is_reserved":false,"is_disabled":false,"rental_uris":{"android":"levelo://app?vid=cdae481f-9aa1-4014-97de-af082fcf5979","ios":"levelo://app?vid=cdae481f-9aa1-4014-97de-af082fcf5979"},"vehicle_type_id":"4","last_reported":1729087714,"current_range_meters":4400,"station_id":"ce4bhl92rcd13ifvqghg","pricing_plan_id":"cebpf4jnsgd1na2vs0mg"},{"bike_id":"a2742504-ff51-4197-bea8-4f3b5db3e3d5","system_id":"levelo_inurba_marseille","lat":43.26983,"lon":5.39112,"is_reserved":false,"is_disabled":false,"rental_uris":{"android":"levelo://app?vid=a2742504-ff51-4197-bea8-4f3b5db3e3d5","ios":"levelo://app?vid=a2742504-ff51-4197-bea8-4f3b5db3e3d5"},"vehicle_type_id":"4","last_reported":1729087714,"current_range_meters":24800,"station_id":"","pricing_plan_id":"cebpf4jnsgd1na2vs0mg"},{"bike_id":"48537196-131d-4584-9853-bb093edf9e1f","system_id":"levelo_inurba_marseille","lat":43.27563,"lon":5.38422,"is_reserved":false,"is_disabled":false,"rental_uris":{"android":"levelo://app?vid=48537196-131d-4584-9853-bb093edf9e1f","ios":"levelo://app?vid=48537196-131d-4584-9853-bb093edf9e1f"},"vehicle_type_id":"4","last_reported":1729087714,"current_range_meters":32400,"station_id":"ce4bhh92rcd13ifvqfi0","pricing_plan_id":"cebpf4jnsgd1na2vs0mg"},{"bike_id":"ff96eee3-1ac8-4888-9ae7-e4b6cc8154af","system_id":"levelo_inurba_marseille","lat":43.33739,"lon":5.3746,"is_reserved":false,"is_disabled":false,"rental_uris":{"android":"levelo://app?vid=ff96eee3-1ac8-4888-9ae7-e4b6cc8154af","ios":"levelo://app?vid=ff96eee3-1ac8-4888-9ae7-e4b6cc8154af"},"vehicle_type_id":"4","last_reported":1729087714,"current_range_meters":28800,"station_id":"","pricing_plan_id":"cebpf4jnsgd1na2vs0mg"},{"bike_id":"215bb2e8-246a-4881-b6f1-9d257ef5be32","system_id":"levelo_inurba_marseille","lat":43.29225,"lon":5.36069,"is_reserved":false,"is_disabled":false,"rental_uris":{"android":"levelo://app?vid=215bb2e8-246a-4881-b6f1-9d257ef5be32","ios":"levelo://app?vid=215bb2e8-246a-4881-b6f1-9d257ef5be32"},"vehicle_type_id":"4","last_reported":1729087714,"current_range_meters":5600,"station_id":"ce4bhbh2rcd13ifvqeqg","pricing_plan_id":"cebpf4jnsgd1na2vs0mg"},{"bike_id":"a5e830a7-d55c-4b5b-a69c-f7baf2235b26","system_id":"levelo_inurba_marseille","lat":43.30548,"lon":5.38426,"is_reserved":false,"is_disabled":false,"rental_uris":{"android":"levelo://app?vid=a5e830a7-d55c-4b5b-a69c-f7baf2235b26","ios":"levelo://app?vid=a5e830a7-d55c-4b5b-a69c-f7baf2235b26"},"vehicle_type_id":"4","last_reported":1729087714,"current_range_meters":24400,"station_id":"ce4bgg92rcd13ifvqb30","pricing_plan_id":"cebpf4jnsgd1na2vs0mg"},{"bike_id":"7cfd6e62-eade-4269-b4f0-f04db5d316ad","system_id":"levelo_inurba_marseille","lat":43.26951,"lon":5.38641,"is_reserved":false,"is_disabled":false,"rental_uris":{"android":"levelo://app?vid=7cfd6e62-eade-4269-b4f0-f04db5d316ad","ios":"levelo://app?vid=7cfd6e62-eade-4269-b4f0-f04db5d316ad"},"vehicle_type_id":"4","last_reported":1729087714,"current_range_meters":19200,"station_id":"ce4bhh92rcd13ifvqfh0","pricing_plan_id":"cebpf4jnsgd1na2vs0mg"},{"bike_id":"5636dd98-b568-4601-84bc-dd896db9d0bb","system_id":"levelo_inurba_marseille","lat":43.27568,"lon":5.38407,"is_reserved":false,"is_disabled":false,"rental_uris":{"android":"levelo://app?vid=5636dd98-b568-4601-84bc-dd896db9d0bb","ios":"levelo://app?vid=5636dd98-b568-4601-84bc-dd896db9d0bb"},"vehicle_type_id":"4","last_reported":1729087714,"current_range_meters":6000,"station_id":"ce4bhh92rcd13ifvqfi0","pricing_plan_id":"cebpf4jnsgd1na2vs0mg"},{"bike_id":"83042ac9-519c-420c-adf7-f7f1ca7582c7","system_id":"levelo_inurba_marseille","lat":43.33749,"lon":5.37473,"is_reserved":false,"is_disabled":false,"rental_uris":{"android":"levelo://app?vid=83042ac9-519c-420c-adf7-f7f1ca7582c7","ios":"levelo://app?vid=83042ac9-519c-420c-adf7-f7f1ca7582c7"},"vehicle_type_id":"4","last_reported":1729087714,"current_range_meters":24400,"station_id":"","pricing_plan_id":"cebpf4jnsgd1na2vs0mg"},{"bike_id":"58abbaf2-287a-4741-b1b6-1c93e38053a4","system_id":"levelo_inurba_marseille","lat":43.30194,"lon":5.36606,"is_reserved":false,"is_disabled":false,"rental_uris":{"android":"levelo://app?vid=58abbaf2-287a-4741-b1b6-1c93e38053a4","ios":"levelo://app?vid=58abbaf2-287a-4741-b1b6-1c93e38053a4"},"vehicle_type_id":"4","last_reported":1729087714,"current_range_meters":28400,"station_id":"ce4bgrh2rcd13ifvqc8g","pricing_plan_id":"cebpf4jnsgd1na2vs0mg"},{"bike_id":"d634982a-6b46-4c2b-8721-50c3be1f17a1","system_id":"levelo_inurba_marseille","lat":43.28723,"lon":5.36083,"is_reserved":false,"is_disabled":false,"rental_uris":{"android":"levelo://app?vid=d634982a-6b46-4c2b-8721-50c3be1f17a1","ios":"levelo://app?vid=d634982a-6b46-4c2b-8721-50c3be1f17a1"},"vehicle_type_id":"4","last_reported":1729087714,"current_range_meters":8400,"station_id":"cki0cbj6b192h4jlfktg","pricing_plan_id":"cebpf4jnsgd1na2vs0mg"},{"bike_id":"1f5d6817-da92-4702-9da2-1fc138e604d5","system_id":"levelo_inurba_marseille","lat":43.32115,"lon":5.36769,"is_reserved":false,"is_disabled":false,"rental_uris":{"android":"levelo://app?vid=1f5d6817-da92-4702-9da2-1fc138e604d5","ios":"levelo://app?vid=1f5d6817-da92-4702-9da2-1fc138e604d5"},"vehicle_type_id":"4","last_reported":1729087714,"current_range_meters":38800,"station_id":"ce4bhrh2rcd13ifvqhug","pricing_plan_id":"cebpf4jnsgd1na2vs0mg"},{"bike_id":"b811d36b-2d71-4027-a17b-13e6f8a5e160","system_id":"levelo_inurba_marseille","lat":43.29723,"lon":5.3769,"is_reserved":false,"is_disabled":false,"rental_uris":{"android":"levelo://app?vid=b811d36b-2d71-4027-a17b-13e6f8a5e160","ios":"levelo://app?vid=b811d36b-2d71-4027-a17b-13e6f8a5e160"},"vehicle_type_id":"4","last_reported":1729087714,"current_range_meters":38400,"station_id":"ce4bgkh2rcd13ifvqbl0","pricing_plan_id":"cebpf4jnsgd1na2vs0mg"},{"bike_id":"4b98d6ef-dd6e-4a38-b808-7348c8b03f20","system_id":"levelo_inurba_marseille","lat":43.285709,"lon":5.395028,"is_reserved":false,"is_disabled":false,"rental_uris":{"android":"levelo://app?vid=4b98d6ef-dd6e-4a38-b808-7348c8b03f20","ios":"levelo://app?vid=4b98d6ef-dd6e-4a38-b808-7348c8b03f20"},"vehicle_type_id":"4","last_reported":1729087714,"current_range_meters":30000,"station_id":"ce4bh292rcd13ifvqdg0","pricing_plan_id":"cebpf4jnsgd1na2vs0mg"},{"bike_id":"3877699e-e290-4c59-ab82-e45f6387768f","system_id":"levelo_inurba_marseille","lat":43.26945,"lon":5.38637,"is_reserved":false,"is_disabled":false,"rental_uris":{"android":"levelo://app?vid=3877699e-e290-4c59-ab82-e45f6387768f","ios":"levelo://app?vid=3877699e-e290-4c59-ab82-e45f6387768f"},"vehicle_type_id":"4","last_reported":1729087714,"current_range_meters":9600,"station_id":"ce4bhh92rcd13ifvqfh0","pricing_plan_id":"cebpf4jnsgd1na2vs0mg"},{"bike_id":"bbe4257d-25d8-4947-9412-6ea0cc442706","system_id":"levelo_inurba_marseille","lat":43.31763,"lon":5.39007,"is_reserved":false,"is_disabled":false,"rental_uris":{"android":"levelo://app?vid=bbe4257d-25d8-4947-9412-6ea0cc442706","ios":"levelo://app?vid=bbe4257d-25d8-4947-9412-6ea0cc442706"},"vehicle_type_id":"4","last_reported":1729087714,"current_range_meters":14000,"station_id":"ce4bhqp2rcd13ifvqhng","pricing_plan_id":"cebpf4jnsgd1na2vs0mg"},{"bike_id":"54ec76ce-958b-49bb-afd6-57f8466ee1ab","system_id":"levelo_inurba_marseille","lat":43.32483,"lon":5.36565,"is_reserved":false,"is_disabled":false,"rental_uris":{"android":"levelo://app?vid=54ec76ce-958b-49bb-afd6-57f8466ee1ab","ios":"levelo://app?vid=54ec76ce-958b-49bb-afd6-57f8466ee1ab"},"vehicle_type_id":"4","last_reported":1729087714,"current_range_meters":38800,"station_id":"ce4bhs12rcd13ifvqhvg","pricing_plan_id":"cebpf4jnsgd1na2vs0mg"},{"bike_id":"7586d438-499c-474e-acbc-cf36d2e67bac","system_id":"levelo_inurba_marseille","lat":43.31371,"lon":5.38487,"is_reserved":false,"is_disabled":false,"rental_uris":{"android":"levelo://app?vid=7586d438-499c-474e-acbc-cf36d2e67bac","ios":"levelo://app?vid=7586d438-499c-474e-acbc-cf36d2e67bac"},"vehicle_type_id":"4","last_reported":1729087714,"current_range_meters":24800,"station_id":"ce4bgt92rcd13ifvqcf0","pricing_plan_id":"cebpf4jnsgd1na2vs0mg"},{"bike_id":"309b1ebb-c8b1-4a8a-91ef-3f49e59ea95b","system_id":"levelo_inurba_marseille","lat":43.2972,"lon":5.37699,"is_reserved":false,"is_disabled":false,"rental_uris":{"android":"levelo://app?vid=309b1ebb-c8b1-4a8a-91ef-3f49e59ea95b","ios":"levelo://app?vid=309b1ebb-c8b1-4a8a-91ef-3f49e59ea95b"},"vehicle_type_id":"4","last_reported":1729087714,"current_range_meters":27200,"station_id":"ce4bgkh2rcd13ifvqbl0","pricing_plan_id":"cebpf4jnsgd1na2vs0mg"},{"bike_id":"292b9425-1372-40d4-bf0a-fe57aa779a41","system_id":"levelo_inurba_marseille","lat":43.23061,"lon":5.35499,"is_reserved":false,"is_disabled":false,"rental_uris":{"android":"levelo://app?vid=292b9425-1372-40d4-bf0a-fe57aa779a41","ios":"levelo://app?vid=292b9425-1372-40d4-bf0a-fe57aa779a41"},"vehicle_type_id":"4","last_reported":1729087714,"current_range_meters":28000,"station_id":"cpo3342slgdg3j2ifvpg","pricing_plan_id":"cebpf4jnsgd1na2vs0mg"},{"bike_id":"fb43d7ab-1536-452b-af85-fae8422a6f9a","system_id":"levelo_inurba_marseille","lat":43.29631,"lon":5.40595,"is_reserved":false,"is_disabled":false,"rental_uris":{"android":"levelo://app?vid=fb43d7ab-1536-452b-af85-fae8422a6f9a","ios":"levelo://app?vid=fb43d7ab-1536-452b-af85-fae8422a6f9a"},"vehicle_type_id":"4","last_reported":1729087714,"current_range_meters":38800,"station_id":"ce4bh0h2rcd13ifvqd60","pricing_plan_id":"cebpf4jnsgd1na2vs0mg"},{"bike_id":"f174c8e7-a131-419e-85d5-14f06d0e032d","system_id":"levelo_inurba_marseille","lat":43.305328,"lon":5.367172,"is_reserved":false,"is_disabled":false,"rental_uris":{"android":"levelo://app?vid=f174c8e7-a131-419e-85d5-14f06d0e032d","ios":"levelo://app?vid=f174c8e7-a131-419e-85d5-14f06d0e032d"},"vehicle_type_id":"4","last_reported":1729087714,"current_range_meters":38800,"station_id":"ce4bgrp2rcd13ifvqc9g","pricing_plan_id":"cebpf4jnsgd1na2vs0mg"},{"bike_id":"1e612426-8a79-4b29-a5ba-87857903262a","system_id":"levelo_inurba_marseille","lat":43.25124,"lon":5.40322,"is_reserved":false,"is_disabled":false,"rental_uris":{"android":"levelo://app?vid=1e612426-8a79-4b29-a5ba-87857903262a","ios":"levelo://app?vid=1e612426-8a79-4b29-a5ba-87857903262a"},"vehicle_type_id":"4","last_reported":1729087714,"current_range_meters":12800,"station_id":"ce4bhlh2rcd13ifvqgig","pricing_plan_id":"cebpf4jnsgd1na2vs0mg"},{"bike_id":"25f5545c-9111-48ad-a5b1-c959c4b477c9","system_id":"levelo_inurba_marseille","lat":43.29005,"lon":5.35605,"is_reserved":false,"is_disabled":false,"rental_uris":{"android":"levelo://app?vid=25f5545c-9111-48ad-a5b1-c959c4b477c9","ios":"levelo://app?vid=25f5545c-9111-48ad-a5b1-c959c4b477c9"},"vehicle_type_id":"4","last_reported":1729087714,"current_range_meters":22400,"station_id":"ce4bhb92rcd13ifvqen0","pricing_plan_id":"cebpf4jnsgd1na2vs0mg"},{"bike_id":"2647be70-4b3f-4439-a073-bd21c450429c","system_id":"levelo_inurba_marseille","lat":43.2681,"lon":5.40274,"is_reserved":false,"is_disabled":false,"rental_uris":{"android":"levelo://app?vid=2647be70-4b3f-4439-a073-bd21c450429c","ios":"levelo://app?vid=2647be70-4b3f-4439-a073-bd21c450429c"},"vehicle_type_id":"4","last_reported":1729087714,"current_range_meters":36400,"station_id":"ce501612rcd8frsf0b60","pricing_plan_id":"cebpf4jnsgd1na2vs0mg"},{"bike_id":"337af43d-41f7-4c2f-ae4f-bfe60ba78cc4","system_id":"levelo_inurba_marseille","lat":43.29025,"lon":5.38141,"is_reserved":false,"is_disabled":false,"rental_uris":{"android":"levelo://app?vid=337af43d-41f7-4c2f-ae4f-bfe60ba78cc4","ios":"levelo://app?vid=337af43d-41f7-4c2f-ae4f-bfe60ba78cc4"},"vehicle_type_id":"4","last_reported":1729087714,"current_range_meters":27600,"station_id":"ce4bh4p2rcd13ifvqe1g","pricing_plan_id":"cebpf4jnsgd1na2vs0mg"},{"bike_id":"e9360d80-eaa3-4643-970d-cfdfc6e0b77c","system_id":"levelo_inurba_marseille","lat":43.29039,"lon":5.39961,"is_reserved":false,"is_disabled":false,"rental_uris":{"android":"levelo://app?vid=e9360d80-eaa3-4643-970d-cfdfc6e0b77c","ios":"levelo://app?vid=e9360d80-eaa3-4643-970d-cfdfc6e0b77c"},"vehicle_type_id":"4","last_reported":1729087714,"current_range_meters":19200,"station_id":"ce4bh392rcd13ifvqdm0","pricing_plan_id":"cebpf4jnsgd1na2vs0mg"},{"bike_id":"8dde89da-592d-455d-8033-e31b57160b26","system_id":"levelo_inurba_marseille","lat":43.296202,"lon":5.377227,"is_reserved":false,"is_disabled":false,"rental_uris":{"android":"levelo://app?vid=8dde89da-592d-455d-8033-e31b57160b26","ios":"levelo://app?vid=8dde89da-592d-455d-8033-e31b57160b26"},"vehicle_type_id":"4","last_reported":1729087714,"current_range_meters":36400,"station_id":"ce4bgi92rcd13ifvqb90","pricing_plan_id":"cebpf4jnsgd1na2vs0mg"},{"bike_id":"65406e49-8594-4cfa-8223-dde29203d51c","system_id":"levelo_inurba_marseille","lat":43.27377,"lon":5.36244,"is_reserved":false,"is_disabled":false,"rental_uris":{"android":"levelo://app?vid=65406e49-8594-4cfa-8223-dde29203d51c","ios":"levelo://app?vid=65406e49-8594-4cfa-8223-dde29203d51c"},"vehicle_type_id":"4","last_reported":1729087714,"current_range_meters":8400,"station_id":"ce4bhbh2rcd13ifvqeo0","pricing_plan_id":"cebpf4jnsgd1na2vs0mg"},{"bike_id":"416a92b2-9817-4276-906a-dd9a4f951eb9","system_id":"levelo_inurba_marseille","lat":43.24808,"lon":5.37461,"is_reserved":false,"is_disabled":false,"rental_uris":{"android":"levelo://app?vid=416a92b2-9817-4276-906a-dd9a4f951eb9","ios":"levelo://app?vid=416a92b2-9817-4276-906a-dd9a4f951eb9"},"vehicle_type_id":"4","last_reported":1729087714,"current_range_meters":39200,"station_id":"ce4bhgh2rcd13ifvqfb0","pricing_plan_id":"cebpf4jnsgd1na2vs0mg"},{"bike_id":"4b39118f-bb62-406b-9203-0b8ddf9c99cc","system_id":"levelo_inurba_marseille","lat":43.22934,"lon":5.35378,"is_reserved":false,"is_disabled":false,"rental_uris":{"android":"levelo://app?vid=4b39118f-bb62-406b-9203-0b8ddf9c99cc","ios":"levelo://app?vid=4b39118f-bb62-406b-9203-0b8ddf9c99cc"},"vehicle_type_id":"4","last_reported":1729087714,"current_range_meters":17200,"station_id":"cpo3532slgdg3j2ikp40","pricing_plan_id":"cebpf4jnsgd1na2vs0mg"},{"bike_id":"b0661774-f1c0-448d-b5f0-db267dedb5a2","system_id":"levelo_inurba_marseille","lat":43.32292,"lon":5.38277,"is_reserved":false,"is_disabled":false,"rental_uris":{"android":"levelo://app?vid=b0661774-f1c0-448d-b5f0-db267dedb5a2","ios":"levelo://app?vid=b0661774-f1c0-448d-b5f0-db267dedb5a2"},"vehicle_type_id":"4","last_reported":1729087714,"current_range_meters":15200,"station_id":"ce4bhr12rcd13ifvqhqg","pricing_plan_id":"cebpf4jnsgd1na2vs0mg"},{"bike_id":"f848edd7-1180-40b6-b654-7d8a337722fd","system_id":"levelo_inurba_marseille","lat":43.3014,"lon":5.37424,"is_reserved":false,"is_disabled":false,"rental_uris":{"android":"levelo://app?vid=f848edd7-1180-40b6-b654-7d8a337722fd","ios":"levelo://app?vid=f848edd7-1180-40b6-b654-7d8a337722fd"},"vehicle_type_id":"4","last_reported":1729087714,"current_range_meters":37600,"station_id":"ce4bgs92rcd13ifvqcc0","pricing_plan_id":"cebpf4jnsgd1na2vs0mg"},{"bike_id":"a9d80141-cb04-4f88-bcc5-9763572e3517","system_id":"levelo_inurba_marseille","lat":43.23194,"lon":5.35546,"is_reserved":false,"is_disabled":false,"rental_uris":{"android":"levelo://app?vid=a9d80141-cb04-4f88-bcc5-9763572e3517","ios":"levelo://app?vid=a9d80141-cb04-4f88-bcc5-9763572e3517"},"vehicle_type_id":"4","last_reported":1729087714,"current_range_meters":37600,"station_id":"ce4bhu92rcd13ifvqi70","pricing_plan_id":"cebpf4jnsgd1na2vs0mg"},{"bike_id":"d06f24f3-1961-4c39-8b26-c72733863fe9","system_id":"levelo_inurba_marseille","lat":43.33749,"lon":5.37485,"is_reserved":false,"is_disabled":false,"rental_uris":{"android":"levelo://app?vid=d06f24f3-1961-4c39-8b26-c72733863fe9","ios":"levelo://app?vid=d06f24f3-1961-4c39-8b26-c72733863fe9"},"vehicle_type_id":"4","last_reported":1729087714,"current_range_meters":36400,"station_id":"","pricing_plan_id":"cebpf4jnsgd1na2vs0mg"},{"bike_id":"edb9b47c-88cc-4c8a-afa8-4daece8f9bd1","system_id":"levelo_inurba_marseille","lat":43.2991,"lon":5.37473,"is_reserved":false,"is_disabled":false,"rental_uris":{"android":"levelo://app?vid=edb9b47c-88cc-4c8a-afa8-4daece8f9bd1","ios":"levelo://app?vid=edb9b47c-88cc-4c8a-afa8-4daece8f9bd1"},"vehicle_type_id":"4","last_reported":1729087714,"current_range_meters":25600,"station_id":"ce4bgjh2rcd13ifvqbg0","pricing_plan_id":"cebpf4jnsgd1na2vs0mg"},{"bike_id":"530f8e1e-ee17-43cd-bb66-48cbe98d24a4","system_id":"levelo_inurba_marseille","lat":43.27564,"lon":5.3841,"is_reserved":false,"is_disabled":false,"rental_uris":{"android":"levelo://app?vid=530f8e1e-ee17-43cd-bb66-48cbe98d24a4","ios":"levelo://app?vid=530f8e1e-ee17-43cd-bb66-48cbe98d24a4"},"vehicle_type_id":"4","last_reported":1729087714,"current_range_meters":8800,"station_id":"ce4bhh92rcd13ifvqfi0","pricing_plan_id":"cebpf4jnsgd1na2vs0mg"},{"bike_id":"3811063d-c19f-4c2c-b6fc-1304ca52f8da","system_id":"levelo_inurba_marseille","lat":43.30477,"lon":5.37911,"is_reserved":false,"is_disabled":false,"rental_uris":{"android":"levelo://app?vid=3811063d-c19f-4c2c-b6fc-1304ca52f8da","ios":"levelo://app?vid=3811063d-c19f-4c2c-b6fc-1304ca52f8da"},"vehicle_type_id":"4","last_reported":1729087714,"current_range_meters":38000,"station_id":"ce4bgup2rcd13ifvqcn0","pricing_plan_id":"cebpf4jnsgd1na2vs0mg"},{"bike_id":"62bb6fbf-b4b8-407f-a530-c39eaa9d4120","system_id":"levelo_inurba_marseille","lat":43.293341,"lon":5.371553,"is_reserved":false,"is_disabled":false,"rental_uris":{"android":"levelo://app?vid=62bb6fbf-b4b8-407f-a530-c39eaa9d4120","ios":"levelo://app?vid=62bb6fbf-b4b8-407f-a530-c39eaa9d4120"},"vehicle_type_id":"4","last_reported":1729087714,"current_range_meters":30000,"station_id":"ce4bhb92rcd13ifvqen0","pricing_plan_id":"cebpf4jnsgd1na2vs0mg"},{"bike_id":"c8556234-a327-4571-a3b0-cad2786172ac","system_id":"levelo_inurba_marseille","lat":43.29843,"lon":5.36271,"is_reserved":false,"is_disabled":false,"rental_uris":{"android":"levelo://app?vid=c8556234-a327-4571-a3b0-cad2786172ac","ios":"levelo://app?vid=c8556234-a327-4571-a3b0-cad2786172ac"},"vehicle_type_id":"4","last_reported":1729087714,"current_range_meters":38800,"station_id":"ce4bgpp2rcd13ifvqc3g","pricing_plan_id":"cebpf4jnsgd1na2vs0mg"},{"bike_id":"d41309ab-1a1f-4395-acaa-455483c3f8e1","system_id":"levelo_inurba_marseille","lat":43.23193,"lon":5.3556,"is_reserved":false,"is_disabled":false,"rental_uris":{"android":"levelo://app?vid=d41309ab-1a1f-4395-acaa-455483c3f8e1","ios":"levelo://app?vid=d41309ab-1a1f-4395-acaa-455483c3f8e1"},"vehicle_type_id":"4","last_reported":1729087714,"current_range_meters":27600,"station_id":"ce4bhu92rcd13ifvqi70","pricing_plan_id":"cebpf4jnsgd1na2vs0mg"},{"bike_id":"68187667-f8d0-428e-8b2b-2af82fc1b640","system_id":"levelo_inurba_marseille","lat":43.29279,"lon":5.36843,"is_reserved":false,"is_disabled":false,"rental_uris":{"android":"levelo://app?vid=68187667-f8d0-428e-8b2b-2af82fc1b640","ios":"levelo://app?vid=68187667-f8d0-428e-8b2b-2af82fc1b640"},"vehicle_type_id":"4","last_reported":1729087714,"current_range_meters":3200,"station_id":"ce4bhbp2rcd13ifvqesg","pricing_plan_id":"cebpf4jnsgd1na2vs0mg"},{"bike_id":"0beee719-bd69-491d-ab4f-202b7c488cf5","system_id":"levelo_inurba_marseille","lat":43.305493,"lon":5.367027,"is_reserved":false,"is_disabled":false,"rental_uris":{"android":"levelo://app?vid=0beee719-bd69-491d-ab4f-202b7c488cf5","ios":"levelo://app?vid=0beee719-bd69-491d-ab4f-202b7c488cf5"},"vehicle_type_id":"4","last_reported":1729087714,"current_range_meters":38000,"station_id":"ce4bgrp2rcd13ifvqc9g","pricing_plan_id":"cebpf4jnsgd1na2vs0mg"},{"bike_id":"94902fb1-a766-4d90-8978-e732725ca583","system_id":"levelo_inurba_marseille","lat":43.23184,"lon":5.39984,"is_reserved":false,"is_disabled":false,"rental_uris":{"android":"levelo://app?vid=94902fb1-a766-4d90-8978-e732725ca583","ios":"levelo://app?vid=94902fb1-a766-4d90-8978-e732725ca583"},"vehicle_type_id":"4","last_reported":1729087714,"current_range_meters":39200,"station_id":"ce4bhn12rcd13ifvqgqg","pricing_plan_id":"cebpf4jnsgd1na2vs0mg"},{"bike_id":"b6ba18ac-f9f7-47ce-97ee-a57309932db4","system_id":"levelo_inurba_marseille","lat":43.2781,"lon":5.40709,"is_reserved":false,"is_disabled":false,"rental_uris":{"android":"levelo://app?vid=b6ba18ac-f9f7-47ce-97ee-a57309932db4","ios":"levelo://app?vid=b6ba18ac-f9f7-47ce-97ee-a57309932db4"},"vehicle_type_id":"4","last_reported":1729087714,"current_range_meters":38800,"station_id":"ce4bhnh2rcd13ifvqgtg","pricing_plan_id":"cebpf4jnsgd1na2vs0mg"},{"bike_id":"a65d6fd2-3c23-4923-876a-bfcd2a893779","system_id":"levelo_inurba_marseille","lat":43.29912,"lon":5.37474,"is_reserved":false,"is_disabled":false,"rental_uris":{"android":"levelo://app?vid=a65d6fd2-3c23-4923-876a-bfcd2a893779","ios":"levelo://app?vid=a65d6fd2-3c23-4923-876a-bfcd2a893779"},"vehicle_type_id":"4","last_reported":1729087714,"current_range_meters":38800,"station_id":"ce4bgjh2rcd13ifvqbg0","pricing_plan_id":"cebpf4jnsgd1na2vs0mg"},{"bike_id":"665c3f8e-8be5-4d80-a8dc-dbb11d59399c","system_id":"levelo_inurba_marseille","lat":43.33027,"lon":5.39035,"is_reserved":false,"is_disabled":false,"rental_uris":{"android":"levelo://app?vid=665c3f8e-8be5-4d80-a8dc-dbb11d59399c","ios":"levelo://app?vid=665c3f8e-8be5-4d80-a8dc-dbb11d59399c"},"vehicle_type_id":"4","last_reported":1729087714,"current_range_meters":38800,"station_id":"ce4bhr92rcd13ifvqhrg","pricing_plan_id":"cebpf4jnsgd1na2vs0mg"},{"bike_id":"76d7f065-5900-4fe2-9695-b29a0cd35827","system_id":"levelo_inurba_marseille","lat":43.30953,"lon":5.39047,"is_reserved":false,"is_disabled":false,"rental_uris":{"android":"levelo://app?vid=76d7f065-5900-4fe2-9695-b29a0cd35827","ios":"levelo://app?vid=76d7f065-5900-4fe2-9695-b29a0cd35827"},"vehicle_type_id":"4","last_reported":1729087714,"current_range_meters":28400,"station_id":"ce4bgup2rcd13ifvqco0","pricing_plan_id":"cebpf4jnsgd1na2vs0mg"},{"bike_id":"033a7f68-f273-426e-84a9-8a3b2c56f6f5","system_id":"levelo_inurba_marseille","lat":43.35096,"lon":5.36807,"is_reserved":false,"is_disabled":false,"rental_uris":{"android":"levelo://app?vid=033a7f68-f273-426e-84a9-8a3b2c56f6f5","ios":"levelo://app?vid=033a7f68-f273-426e-84a9-8a3b2c56f6f5"},"vehicle_type_id":"4","last_reported":1729087714,"current_range_meters":11200,"station_id":"","pricing_plan_id":"cebpf4jnsgd1na2vs0mg"},{"bike_id":"17072422-f58c-4351-9014-1cfded112dc3","system_id":"levelo_inurba_marseille","lat":43.28685,"lon":5.37377,"is_reserved":false,"is_disabled":false,"rental_uris":{"android":"levelo://app?vid=17072422-f58c-4351-9014-1cfded112dc3","ios":"levelo://app?vid=17072422-f58c-4351-9014-1cfded112dc3"},"vehicle_type_id":"4","last_reported":1729087714,"current_range_meters":18000,"station_id":"ce4bh3p2rcd13ifvqdq0","pricing_plan_id":"cebpf4jnsgd1na2vs0mg"},{"bike_id":"a0c51bc2-039e-4643-8c93-e66ceaf6e95f","system_id":"levelo_inurba_marseille","lat":43.27679,"lon":5.38899,"is_reserved":false,"is_disabled":false,"rental_uris":{"android":"levelo://app?vid=a0c51bc2-039e-4643-8c93-e66ceaf6e95f","ios":"levelo://app?vid=a0c51bc2-039e-4643-8c93-e66ceaf6e95f"},"vehicle_type_id":"4","last_reported":1729087714,"current_range_meters":26800,"station_id":"ce4bhi12rcd13ifvqfo0","pricing_plan_id":"cebpf4jnsgd1na2vs0mg"},{"bike_id":"0cac5042-2075-4b66-8658-3a0f53449b77","system_id":"levelo_inurba_marseille","lat":43.30144,"lon":5.37412,"is_reserved":false,"is_disabled":false,"rental_uris":{"android":"levelo://app?vid=0cac5042-2075-4b66-8658-3a0f53449b77","ios":"levelo://app?vid=0cac5042-2075-4b66-8658-3a0f53449b77"},"vehicle_type_id":"4","last_reported":1729087714,"current_range_meters":31200,"station_id":"ce4bgs92rcd13ifvqcc0","pricing_plan_id":"cebpf4jnsgd1na2vs0mg"},{"bike_id":"1af2813b-98a0-4b62-aaf8-89652b30f639","system_id":"levelo_inurba_marseille","lat":43.22934,"lon":5.35375,"is_reserved":false,"is_disabled":false,"rental_uris":{"android":"levelo://app?vid=1af2813b-98a0-4b62-aaf8-89652b30f639","ios":"levelo://app?vid=1af2813b-98a0-4b62-aaf8-89652b30f639"},"vehicle_type_id":"4","last_reported":1729087714,"current_range_meters":24800,"station_id":"cpo3532slgdg3j2ikp40","pricing_plan_id":"cebpf4jnsgd1na2vs0mg"},{"bike_id":"7ad89ee6-27de-4cb5-b122-b3180b680ab3","system_id":"levelo_inurba_marseille","lat":43.30555,"lon":5.36529,"is_reserved":false,"is_disabled":false,"rental_uris":{"android":"levelo://app?vid=7ad89ee6-27de-4cb5-b122-b3180b680ab3","ios":"levelo://app?vid=7ad89ee6-27de-4cb5-b122-b3180b680ab3"},"vehicle_type_id":"4","last_reported":1729087714,"current_range_meters":8400,"station_id":"ce4bgs12rcd13ifvqcag","pricing_plan_id":"cebpf4jnsgd1na2vs0mg"},{"bike_id":"c4b8d994-ee15-4839-affc-1e6e27226d94","system_id":"levelo_inurba_marseille","lat":43.29633,"lon":5.40596,"is_reserved":false,"is_disabled":false,"rental_uris":{"android":"levelo://app?vid=c4b8d994-ee15-4839-affc-1e6e27226d94","ios":"levelo://app?vid=c4b8d994-ee15-4839-affc-1e6e27226d94"},"vehicle_type_id":"4","last_reported":1729087714,"current_range_meters":11200,"station_id":"ce4bh0h2rcd13ifvqd60","pricing_plan_id":"cebpf4jnsgd1na2vs0mg"},{"bike_id":"ba97ccad-726b-4b34-b688-b2a5e30444dd","system_id":"levelo_inurba_marseille","lat":43.28665,"lon":5.36356,"is_reserved":false,"is_disabled":false,"rental_uris":{"android":"levelo://app?vid=ba97ccad-726b-4b34-b688-b2a5e30444dd","ios":"levelo://app?vid=ba97ccad-726b-4b34-b688-b2a5e30444dd"},"vehicle_type_id":"4","last_reported":1729087714,"current_range_meters":38000,"station_id":"ce4bhah2rcd13ifvqej0","pricing_plan_id":"cebpf4jnsgd1na2vs0mg"},{"bike_id":"f93454e1-a669-4c63-a4ca-b572042c7971","system_id":"levelo_inurba_marseille","lat":43.23195,"lon":5.35552,"is_reserved":false,"is_disabled":false,"rental_uris":{"android":"levelo://app?vid=f93454e1-a669-4c63-a4ca-b572042c7971","ios":"levelo://app?vid=f93454e1-a669-4c63-a4ca-b572042c7971"},"vehicle_type_id":"4","last_reported":1729087714,"current_range_meters":19600,"station_id":"ce4bhu92rcd13ifvqi70","pricing_plan_id":"cebpf4jnsgd1na2vs0mg"},{"bike_id":"c31052ed-b696-4a32-b7a8-f914bc14eb63","system_id":"levelo_inurba_marseille","lat":43.30795,"lon":5.43527,"is_reserved":false,"is_disabled":false,"rental_uris":{"android":"levelo://app?vid=c31052ed-b696-4a32-b7a8-f914bc14eb63","ios":"levelo://app?vid=c31052ed-b696-4a32-b7a8-f914bc14eb63"},"vehicle_type_id":"4","last_reported":1729087714,"current_range_meters":16800,"station_id":"ce4bhph2rcd13ifvqheg","pricing_plan_id":"cebpf4jnsgd1na2vs0mg"},{"bike_id":"2af5859f-047a-4381-aac2-e3bd49c33a20","system_id":"levelo_inurba_marseille","lat":43.25115,"lon":5.40315,"is_reserved":false,"is_disabled":false,"rental_uris":{"android":"levelo://app?vid=2af5859f-047a-4381-aac2-e3bd49c33a20","ios":"levelo://app?vid=2af5859f-047a-4381-aac2-e3bd49c33a20"},"vehicle_type_id":"4","last_reported":1729087714,"current_range_meters":14800,"station_id":"ce4bhlh2rcd13ifvqgig","pricing_plan_id":"cebpf4jnsgd1na2vs0mg"},{"bike_id":"6a864749-2fd2-4351-9925-aebd96b98ba5","system_id":"levelo_inurba_marseille","lat":43.30134,"lon":5.37412,"is_reserved":false,"is_disabled":false,"rental_uris":{"android":"levelo://app?vid=6a864749-2fd2-4351-9925-aebd96b98ba5","ios":"levelo://app?vid=6a864749-2fd2-4351-9925-aebd96b98ba5"},"vehicle_type_id":"4","last_reported":1729087714,"current_range_meters":38800,"station_id":"ce4bgs92rcd13ifvqcc0","pricing_plan_id":"cebpf4jnsgd1na2vs0mg"},{"bike_id":"754100a9-6b76-4392-86d8-2c5abf4a6a95","system_id":"levelo_inurba_marseille","lat":43.29228,"lon":5.36069,"is_reserved":false,"is_disabled":false,"rental_uris":{"android":"levelo://app?vid=754100a9-6b76-4392-86d8-2c5abf4a6a95","ios":"levelo://app?vid=754100a9-6b76-4392-86d8-2c5abf4a6a95"},"vehicle_type_id":"4","last_reported":1729087714,"current_range_meters":28000,"station_id":"ce4bhbh2rcd13ifvqeqg","pricing_plan_id":"cebpf4jnsgd1na2vs0mg"},{"bike_id":"2b43ba77-65a0-4518-8886-2e24500744f0","system_id":"levelo_inurba_marseille","lat":43.32368,"lon":5.38891,"is_reserved":false,"is_disabled":false,"rental_uris":{"android":"levelo://app?vid=2b43ba77-65a0-4518-8886-2e24500744f0","ios":"levelo://app?vid=2b43ba77-65a0-4518-8886-2e24500744f0"},"vehicle_type_id":"4","last_reported":1729087714,"current_range_meters":28800,"station_id":"ce4bhqp2rcd13ifvqhog","pricing_plan_id":"cebpf4jnsgd1na2vs0mg"},{"bike_id":"35e7b281-d52f-4de7-933c-d2b9bc62d3ed","system_id":"levelo_inurba_marseille","lat":43.23183,"lon":5.39977,"is_reserved":false,"is_disabled":false,"rental_uris":{"android":"levelo://app?vid=35e7b281-d52f-4de7-933c-d2b9bc62d3ed","ios":"levelo://app?vid=35e7b281-d52f-4de7-933c-d2b9bc62d3ed"},"vehicle_type_id":"4","last_reported":1729087714,"current_range_meters":14400,"station_id":"ce4bhn12rcd13ifvqgqg","pricing_plan_id":"cebpf4jnsgd1na2vs0mg"},{"bike_id":"f613c331-83c7-4c44-bbba-29db1fbabe28","system_id":"levelo_inurba_marseille","lat":43.25582,"lon":5.38228,"is_reserved":false,"is_disabled":false,"rental_uris":{"android":"levelo://app?vid=f613c331-83c7-4c44-bbba-29db1fbabe28","ios":"levelo://app?vid=f613c331-83c7-4c44-bbba-29db1fbabe28"},"vehicle_type_id":"4","last_reported":1729087714,"current_range_meters":20000,"station_id":"ce4bhih2rcd13ifvqfs0","pricing_plan_id":"cebpf4jnsgd1na2vs0mg"},{"bike_id":"ebe76b72-2cf3-4ca6-9cf9-d4fac3ac0995","system_id":"levelo_inurba_marseille","lat":43.25088,"lon":5.39514,"is_reserved":false,"is_disabled":false,"rental_uris":{"android":"levelo://app?vid=ebe76b72-2cf3-4ca6-9cf9-d4fac3ac0995","ios":"levelo://app?vid=ebe76b72-2cf3-4ca6-9cf9-d4fac3ac0995"},"vehicle_type_id":"4","last_reported":1729087714,"current_range_meters":32400,"station_id":"ce4bhm12rcd13ifvqgkg","pricing_plan_id":"cebpf4jnsgd1na2vs0mg"},{"bike_id":"7a52ba09-3b03-40e3-beaa-99c2255323da","system_id":"levelo_inurba_marseille","lat":43.23182,"lon":5.3999,"is_reserved":false,"is_disabled":false,"rental_uris":{"android":"levelo://app?vid=7a52ba09-3b03-40e3-beaa-99c2255323da","ios":"levelo://app?vid=7a52ba09-3b03-40e3-beaa-99c2255323da"},"vehicle_type_id":"4","last_reported":1729087714,"current_range_meters":22400,"station_id":"ce4bhn12rcd13ifvqgqg","pricing_plan_id":"cebpf4jnsgd1na2vs0mg"},{"bike_id":"299a0052-49f0-446a-933a-fb50ffa76840","system_id":"levelo_inurba_marseille","lat":43.26194,"lon":5.37451,"is_reserved":false,"is_disabled":false,"rental_uris":{"android":"levelo://app?vid=299a0052-49f0-446a-933a-fb50ffa76840","ios":"levelo://app?vid=299a0052-49f0-446a-933a-fb50ffa76840"},"vehicle_type_id":"4","last_reported":1729087714,"current_range_meters":31200,"station_id":"ce4bhgp2rcd13ifvqfc0","pricing_plan_id":"cebpf4jnsgd1na2vs0mg"},{"bike_id":"1e3f08a4-099c-4a6f-bf64-7f629976eb25","system_id":"levelo_inurba_marseille","lat":43.2573,"lon":5.41105,"is_reserved":false,"is_disabled":false,"rental_uris":{"android":"levelo://app?vid=1e3f08a4-099c-4a6f-bf64-7f629976eb25","ios":"levelo://app?vid=1e3f08a4-099c-4a6f-bf64-7f629976eb25"},"vehicle_type_id":"4","last_reported":1729087714,"current_range_meters":21600,"station_id":"ce4bhkp2rcd13ifvqgd0","pricing_plan_id":"cebpf4jnsgd1na2vs0mg"},{"bike_id":"3c4104b7-67f5-4e07-866d-b6f9395a3a4d","system_id":"levelo_inurba_marseille","lat":43.29886,"lon":5.37501,"is_reserved":false,"is_disabled":false,"rental_uris":{"android":"levelo://app?vid=3c4104b7-67f5-4e07-866d-b6f9395a3a4d","ios":"levelo://app?vid=3c4104b7-67f5-4e07-866d-b6f9395a3a4d"},"vehicle_type_id":"4","last_reported":1729087714,"current_range_meters":38800,"station_id":"ce4bgjh2rcd13ifvqbg0","pricing_plan_id":"cebpf4jnsgd1na2vs0mg"},{"bike_id":"1743ee9b-44d8-4d45-b016-55524a45421e","system_id":"levelo_inurba_marseille","lat":43.30312,"lon":5.36894,"is_reserved":false,"is_disabled":false,"rental_uris":{"android":"levelo://app?vid=1743ee9b-44d8-4d45-b016-55524a45421e","ios":"levelo://app?vid=1743ee9b-44d8-4d45-b016-55524a45421e"},"vehicle_type_id":"4","last_reported":1729087714,"current_range_meters":16400,"station_id":"ce4bgqh2rcd13ifvqc5g","pricing_plan_id":"cebpf4jnsgd1na2vs0mg"},{"bike_id":"d6ecb77b-96c3-4290-a213-73a19a7b2ed1","system_id":"levelo_inurba_marseille","lat":43.29583,"lon":5.39976,"is_reserved":false,"is_disabled":false,"rental_uris":{"android":"levelo://app?vid=d6ecb77b-96c3-4290-a213-73a19a7b2ed1","ios":"levelo://app?vid=d6ecb77b-96c3-4290-a213-73a19a7b2ed1"},"vehicle_type_id":"4","last_reported":1729087714,"current_range_meters":22800,"station_id":"ce4bh312rcd13ifvqdj0","pricing_plan_id":"cebpf4jnsgd1na2vs0mg"},{"bike_id":"c1d86f49-8774-4439-b5e2-0912985649d3","system_id":"levelo_inurba_marseille","lat":43.25008,"lon":5.38913,"is_reserved":false,"is_disabled":false,"rental_uris":{"android":"levelo://app?vid=c1d86f49-8774-4439-b5e2-0912985649d3","ios":"levelo://app?vid=c1d86f49-8774-4439-b5e2-0912985649d3"},"vehicle_type_id":"4","last_reported":1729087714,"current_range_meters":30400,"station_id":"ce4bhgp2rcd13ifvqfd0","pricing_plan_id":"cebpf4jnsgd1na2vs0mg"},{"bike_id":"9606a084-08b9-44be-b96e-dd63006bb009","system_id":"levelo_inurba_marseille","lat":43.284353,"lon":5.34969,"is_reserved":false,"is_disabled":false,"rental_uris":{"android":"levelo://app?vid=9606a084-08b9-44be-b96e-dd63006bb009","ios":"levelo://app?vid=9606a084-08b9-44be-b96e-dd63006bb009"},"vehicle_type_id":"4","last_reported":1729087714,"current_range_meters":37600,"station_id":"ce4bhbh2rcd13ifvqepg","pricing_plan_id":"cebpf4jnsgd1na2vs0mg"},{"bike_id":"696e9f2d-a37f-4876-8812-a7f74eb949d9","system_id":"levelo_inurba_marseille","lat":43.29636,"lon":5.40596,"is_reserved":false,"is_disabled":false,"rental_uris":{"android":"levelo://app?vid=696e9f2d-a37f-4876-8812-a7f74eb949d9","ios":"levelo://app?vid=696e9f2d-a37f-4876-8812-a7f74eb949d9"},"vehicle_type_id":"4","last_reported":1729087714,"current_range_meters":19600,"station_id":"ce4bh0h2rcd13ifvqd60","pricing_plan_id":"cebpf4jnsgd1na2vs0mg"},{"bike_id":"5e8adf94-b944-4773-9ae3-c8bb9c0ce131","system_id":"levelo_inurba_marseille","lat":43.31176,"lon":5.38718,"is_reserved":false,"is_disabled":false,"rental_uris":{"android":"levelo://app?vid=5e8adf94-b944-4773-9ae3-c8bb9c0ce131","ios":"levelo://app?vid=5e8adf94-b944-4773-9ae3-c8bb9c0ce131"},"vehicle_type_id":"4","last_reported":1729087714,"current_range_meters":38800,"station_id":"ce4bgv12rcd13ifvqcp0","pricing_plan_id":"cebpf4jnsgd1na2vs0mg"},{"bike_id":"e5c53085-18b0-4068-a705-5ab89baff5fa","system_id":"levelo_inurba_marseille","lat":43.30181,"lon":5.36607,"is_reserved":false,"is_disabled":false,"rental_uris":{"android":"levelo://app?vid=e5c53085-18b0-4068-a705-5ab89baff5fa","ios":"levelo://app?vid=e5c53085-18b0-4068-a705-5ab89baff5fa"},"vehicle_type_id":"4","last_reported":1729087714,"current_range_meters":38400,"station_id":"ce4bgrh2rcd13ifvqc8g","pricing_plan_id":"cebpf4jnsgd1na2vs0mg"},{"bike_id":"f94da947-b1a0-40ed-8143-ed5ebffc5c44","system_id":"levelo_inurba_marseille","lat":43.27962,"lon":5.41054,"is_reserved":false,"is_disabled":false,"rental_uris":{"android":"levelo://app?vid=f94da947-b1a0-40ed-8143-ed5ebffc5c44","ios":"levelo://app?vid=f94da947-b1a0-40ed-8143-ed5ebffc5c44"},"vehicle_type_id":"4","last_reported":1729087714,"current_range_meters":35600,"station_id":"ce4bhnp2rcd13ifvqh0g","pricing_plan_id":"cebpf4jnsgd1na2vs0mg"},{"bike_id":"fe827aa5-39b7-4313-af09-2e4668ae156f","system_id":"levelo_inurba_marseille","lat":43.313568,"lon":5.367117,"is_reserved":false,"is_disabled":false,"rental_uris":{"android":"levelo://app?vid=fe827aa5-39b7-4313-af09-2e4668ae156f","ios":"levelo://app?vid=fe827aa5-39b7-4313-af09-2e4668ae156f"},"vehicle_type_id":"4","last_reported":1729087714,"current_range_meters":36400,"station_id":"ce4bgr92rcd13ifvqc6g","pricing_plan_id":"cebpf4jnsgd1na2vs0mg"},{"bike_id":"f5829e40-b211-4dbc-9caa-24e03bb5a117","system_id":"levelo_inurba_marseille","lat":43.25126,"lon":5.40324,"is_reserved":false,"is_disabled":false,"rental_uris":{"android":"levelo://app?vid=f5829e40-b211-4dbc-9caa-24e03bb5a117","ios":"levelo://app?vid=f5829e40-b211-4dbc-9caa-24e03bb5a117"},"vehicle_type_id":"4","last_reported":1729087714,"current_range_meters":19600,"station_id":"ce4bhlh2rcd13ifvqgig","pricing_plan_id":"cebpf4jnsgd1na2vs0mg"},{"bike_id":"b703a914-598c-444d-8212-0dfdfa03cba3","system_id":"levelo_inurba_marseille","lat":43.31226,"lon":5.36863,"is_reserved":false,"is_disabled":false,"rental_uris":{"android":"levelo://app?vid=b703a914-598c-444d-8212-0dfdfa03cba3","ios":"levelo://app?vid=b703a914-598c-444d-8212-0dfdfa03cba3"},"vehicle_type_id":"4","last_reported":1729087714,"current_range_meters":34000,"station_id":"ce4bgl92rcd13ifvqbq0","pricing_plan_id":"cebpf4jnsgd1na2vs0mg"},{"bike_id":"a0219771-57d4-4f82-aabd-616fb6d46920","system_id":"levelo_inurba_marseille","lat":43.29218,"lon":5.36074,"is_reserved":false,"is_disabled":false,"rental_uris":{"android":"levelo://app?vid=a0219771-57d4-4f82-aabd-616fb6d46920","ios":"levelo://app?vid=a0219771-57d4-4f82-aabd-616fb6d46920"},"vehicle_type_id":"4","last_reported":1729087714,"current_range_meters":36800,"station_id":"ce4bhbh2rcd13ifvqeqg","pricing_plan_id":"cebpf4jnsgd1na2vs0mg"},{"bike_id":"9aee57aa-4a2c-4ba1-8b0b-3dbf10d502a0","system_id":"levelo_inurba_marseille","lat":43.24167,"lon":5.36393,"is_reserved":false,"is_disabled":false,"rental_uris":{"android":"levelo://app?vid=9aee57aa-4a2c-4ba1-8b0b-3dbf10d502a0","ios":"levelo://app?vid=9aee57aa-4a2c-4ba1-8b0b-3dbf10d502a0"},"vehicle_type_id":"4","last_reported":1729087714,"current_range_meters":2800,"station_id":"cpo36qri1sfpv3e86is0","pricing_plan_id":"cebpf4jnsgd1na2vs0mg"},{"bike_id":"6d1c13b5-425d-4bf2-bcaa-a778bd536a0b","system_id":"levelo_inurba_marseille","lat":43.28464,"lon":5.35887,"is_reserved":false,"is_disabled":false,"rental_uris":{"android":"levelo://app?vid=6d1c13b5-425d-4bf2-bcaa-a778bd536a0b","ios":"levelo://app?vid=6d1c13b5-425d-4bf2-bcaa-a778bd536a0b"},"vehicle_type_id":"4","last_reported":1729087714,"current_range_meters":14800,"station_id":"ce4bhah2rcd13ifvqei0","pricing_plan_id":"cebpf4jnsgd1na2vs0mg"},{"bike_id":"5bdebb0b-8603-4992-a28b-f7c936ff35dc","system_id":"levelo_inurba_marseille","lat":43.29719,"lon":5.37704,"is_reserved":false,"is_disabled":false,"rental_uris":{"android":"levelo://app?vid=5bdebb0b-8603-4992-a28b-f7c936ff35dc","ios":"levelo://app?vid=5bdebb0b-8603-4992-a28b-f7c936ff35dc"},"vehicle_type_id":"4","last_reported":1729087714,"current_range_meters":37600,"station_id":"ce4bgkh2rcd13ifvqbl0","pricing_plan_id":"cebpf4jnsgd1na2vs0mg"},