{"last_updated":1747239194,"ttl":60,"version":"2.2","data":{"bikes":[{"bike_id":"c0b9fd4f-e181-46ce-b0bf-f5119973334f","system_id":"levelo_inurba_marseille","lat":43.33771,"lon":5.37424,"is_reserved":false,"is_disabled":false,"rental_uris":{"android":"levelo://app?vid=c0b9fd4f-e181-46ce-b0bf-f5119973334f","ios":"levelo://app?vid=c0b9fd4f-e181-46ce-b0bf-f5119973334f"},"vehicle_type_id":"4","last_reported":1747239194,"current_range_meters":18800,"station_id":"","pricing_plan_id":"cebpf4jnsgd1na2vs0mg"},{"bike_id":"3fae8334-a9d0-4ed3-aa20-0276813b60f6","system_id":"levelo_inurba_marseille","lat":43.268353,"lon":5.384588,"is_reserved":false,"is_disabled":true,"rental_uris":{"android":"levelo://app?vid=3fae8334-a9d0-4ed3-aa20-0276813b60f6","ios":"levelo://app?vid=3fae8334-a9d0-4ed3-aa20-0276813b60f6"},"vehicle_type_id":"4","last_reported":1747239194,"current_range_meters":0,"station_id":"","pricing_plan_id":"cebpf4jnsgd1na2vs0mg"},{"bike_id":"173fb44d-9730-4a64-8c00-f4ad4ef399d3","system_id":"levelo_inurba_marseille","lat":43.31813,"lon":5.3856,"is_reserved":false,"is_disabled":true,"rental_uris":{"android":"levelo://app?vid=173fb44d-9730-4a64-8c00-f4ad4ef399d3","ios":"levelo://app?vid=173fb44d-9730-4a64-8c00-f4ad4ef399d3"},"vehicle_type_id":"4","last_reported":1747239194,"current_range_meters":0,"station_id":"","pricing_plan_id":"cebpf4jnsgd1na2vs0mg"},{"bike_id":"fc2577e7-1497-425b-9d4f-ab8d7dc843c6","system_id":"levelo_inurba_marseille","lat":43.33771,"lon":5.37485,"is_reserved":false,"is_disabled":true,"rental_uris":{"android":"levelo://app?vid=fc2577e7-1497-425b-9d4f-ab8d7dc843c6","ios":"levelo://app?vid=fc2577e7-1497-425b-9d4f-ab8d7dc843c6"},"vehicle_type_id":"4","last_reported":1747239194,"current_range_meters":0,"station_id":"","pricing_plan_id":"cebpf4jnsgd1na2vs0mg"},{"bike_id":"0fedde00-40eb-40d2-8fc2-e61ecce46b7b","system_id":"levelo_inurba_marseille","lat":43.2831,"lon":5.4329,"is_reserved":false,"is_disabled":true,"rental_uris":{"android":"levelo://app?vid=0fedde00-40eb-40d2-8fc2-e61ecce46b7b","ios":"levelo://app?vid=0fedde00-40eb-40d2-8fc2-e61ecce46b7b"},"vehicle_type_id":"4","last_reported":1747239194,"current_range_meters":0,"station_id":"","pricing_plan_id":"cebpf4jnsgd1na2vs0mg"},{"bike_id":"16e98c4e-da7f-4160-a41d-37f546e0efaa","system_id":"levelo_inurba_marseille","lat":43.29567,"lon":5.3621,"is_reserved":false,"is_disabled":true,"rental_uris":{"android":"levelo://app?vid=16e98c4e-da7f-4160-a41d-37f546e0efaa","ios":"levelo://app?vid=16e98c4e-da7f-4160-a41d-37f546e0efaa"},"vehicle_type_id":"4","last_reported":1747239194,"current_range_meters":0,"station_id":"","pricing_plan_id":"cebpf4jnsgd1na2vs0mg"},{"bike_id":"792567c6-0442-4011-aff0-9c05e25deb48","system_id":"levelo_inurba_marseille","lat":43.28071,"lon":5.44168,"is_reserved":false,"is_disabled":true,"rental_uris":{"android":"levelo://app?vid=792567c6-0442-4011-aff0-9c05e25deb48","ios":"levelo://app?vid=792567c6-0442-4011-aff0-9c05e25deb48"},"vehicle_type_id":"4","last_reported":1747239194,"current_range_meters":0,"station_id":"","pricing_plan_id":"cebpf4jnsgd1na2vs0mg"},{"bike_id":"67ab0a13-8911-4a64-8d2d-35b0ece799f5","system_id":"levelo_inurba_marseille","lat":43.2961,"lon":5.38106,"is_reserved":false,"is_disabled":true,"rental_uris":{"android":"levelo://app?vid=67ab0a13-8911-4a64-8d2d-35b0ece799f5","ios":"levelo://app?vid=67ab0a13-8911-4a64-8d2d-35b0ece799f5"},"vehicle_type_id":"4","last_reported":1747239194,"current_range_meters":0,"station_id":"ce4bgl12rcd13ifvqbo0","pricing_plan_id":"cebpf4jnsgd1na2vs0mg"},{"bike_id":"1b05a2d3-d31c-4466-952b-18372a6c98ac","system_id":"levelo_inurba_marseille","lat":43.31117,"lon":5.3778,"is_reserved":false,"is_disabled":true,"rental_uris":{"android":"levelo://app?vid=1b05a2d3-d31c-4466-952b-18372a6c98ac","ios":"levelo://app?vid=1b05a2d3-d31c-4466-952b-18372a6c98ac"},"vehicle_type_id":"4","last_reported":1747239194,"current_range_meters":0,"station_id":"ce4bgt92rcd13ifvqcg0","pricing_plan_id":"cebpf4jnsgd1na2vs0mg"},{"bike_id":"0837a0d4-40b0-446d-b79b-10c4174a1da4","system_id":"levelo_inurba_marseille","lat":43.30928,"lon":5.40147,"is_reserved":false,"is_disabled":true,"rental_uris":{"android":"levelo://app?vid=0837a0d4-40b0-446d-b79b-10c4174a1da4","ios":"levelo://app?vid=0837a0d4-40b0-446d-b79b-10c4174a1da4"},"vehicle_type_id":"4","last_reported":1747239194,"current_range_meters":0,"station_id":"ce4bgvp2rcd13ifvqct0","pricing_plan_id":"cebpf4jnsgd1na2vs0mg"},{"bike_id":"080ebec0-2f0f-4dcf-9469-1b5c4b5510d2","system_id":"levelo_inurba_marseille","lat":43.29576,"lon":5.39988,"is_reserved":false,"is_disabled":true,"rental_uris":{"android":"levelo://app?vid=080ebec0-2f0f-4dcf-9469-1b5c4b5510d2","ios":"levelo://app?vid=080ebec0-2f0f-4dcf-9469-1b5c4b5510d2"},"vehicle_type_id":"4","last_reported":1747239194,"current_range_meters":0,"station_id":"ce4bh312rcd13ifvqdj0","pricing_plan_id":"cebpf4jnsgd1na2vs0mg"},{"bike_id":"b87db2e5-2bb6-40fa-9316-4cb1c376ffba","system_id":"levelo_inurba_marseille","lat":43.2927,"lon":5.38433,"is_reserved":false,"is_disabled":true,"rental_uris":{"android":"levelo://app?vid=b87db2e5-2bb6-40fa-9316-4cb1c376ffba","ios":"levelo://app?vid=b87db2e5-2bb6-40fa-9316-4cb1c376ffba"},"vehicle_type_id":"4","last_reported":1747239194,"current_range_meters":0,"station_id":"ce4bh692rcd13ifvqea0","pricing_plan_id":"cebpf4jnsgd1na2vs0mg"},{"bike_id":"dd7f24e5-870b-4aa2-88a2-4dd542d482de","system_id":"levelo_inurba_marseille","lat":43.29278,"lon":5.36855,"is_reserved":false,"is_disabled":true,"rental_uris":{"android":"levelo://app?vid=dd7f24e5-870b-4aa2-88a2-4dd542d482de","ios":"levelo://app?vid=dd7f24e5-870b-4aa2-88a2-4dd542d482de"},"vehicle_type_id":"4","last_reported":1747239194,"current_range_meters":0,"station_id":"ce4bhbp2rcd13ifvqesg","pricing_plan_id":"cebpf4jnsgd1na2vs0mg"},{"bike_id":"f3fd69d4-efb4-47cf-98ad-2a450a9fc845","system_id":"levelo_inurba_marseille","lat":43.2798,"lon":5.38711,"is_reserved":false,"is_disabled":true,"rental_uris":{"android":"levelo://app?vid=f3fd69d4-efb4-47cf-98ad-2a450a9fc845","ios":"levelo://app?vid=f3fd69d4-efb4-47cf-98ad-2a450a9fc845"},"vehicle_type_id":"4","last_reported":1747239194,"current_range_meters":0,"station_id":"ce4bhg12rcd13ifvqf80","pricing_plan_id":"cebpf4jnsgd1na2vs0mg"},{"bike_id":"7d648bb7-ab7e-409a-add7-d4a17f03de12","system_id":"levelo_inurba_marseille","lat":43.231571,"lon":5.436993,"is_reserved":false,"is_disabled":true,"rental_uris":{"android":"levelo://app?vid=7d648bb7-ab7e-409a-add7-d4a17f03de12","ios":"levelo://app?vid=7d648bb7-ab7e-409a-add7-d4a17f03de12"},"vehicle_type_id":"4","last_reported":1747239194,"current_range_meters":0,"station_id":"ce4bhmp2rcd13ifvqgog","pricing_plan_id":"cebpf4jnsgd1na2vs0mg"},{"bike_id":"be2830b2-0b7c-4ef5-94d7-c1429c82b1ac","system_id":"levelo_inurba_marseille","lat":43.231477,"lon":5.43718,"is_reserved":false,"is_disabled":true,"rental_uris":{"android":"levelo://app?vid=be2830b2-0b7c-4ef5-94d7-c1429c82b1ac","ios":"levelo://app?vid=be2830b2-0b7c-4ef5-94d7-c1429c82b1ac"},"vehicle_type_id":"4","last_reported":1747239194,"current_range_meters":0,"station_id":"ce4bhmp2rcd13ifvqgog","pricing_plan_id":"cebpf4jnsgd1na2vs0mg"},{"bike_id":"76120ddc-6f12-48ab-890f-f1fd3c16a8d2","system_id":"levelo_inurba_marseille","lat":43.23181,"lon":5.40007,"is_reserved":false,"is_disabled":true,"rental_uris":{"android":"levelo://app?vid=76120ddc-6f12-48ab-890f-f1fd3c16a8d2","ios":"levelo://app?vid=76120ddc-6f12-48ab-890f-f1fd3c16a8d2"},"vehicle_type_id":"4","last_reported":1747239194,"current_range_meters":0,"station_id":"ce4bhn12rcd13ifvqgqg","pricing_plan_id":"cebpf4jnsgd1na2vs0mg"},{"bike_id":"7f155ed4-570c-410f-8a12-c2f4a48e12a6","system_id":"levelo_inurba_marseille","lat":43.29788,"lon":5.38087,"is_reserved":false,"is_disabled":true,"rental_uris":{"android":"levelo://app?vid=7f155ed4-570c-410f-8a12-c2f4a48e12a6","ios":"levelo://app?vid=7f155ed4-570c-410f-8a12-c2f4a48e12a6"},"vehicle_type_id":"4","last_reported":1747239194,"current_range_meters":400,"station_id":"ce4bgip2rcd13ifvqbb0","pricing_plan_id":"cebpf4jnsgd1na2vs0mg"},{"bike_id":"3db8cc36-eeaf-4e1b-a0e8-95637a653626","system_id":"levelo_inurba_marseille","lat":43.30321,"lon":5.40442,"is_reserved":false,"is_disabled":true,"rental_uris":{"android":"levelo://app?vid=3db8cc36-eeaf-4e1b-a0e8-95637a653626","ios":"levelo://app?vid=3db8cc36-eeaf-4e1b-a0e8-95637a653626"},"vehicle_type_id":"4","last_reported":1747239194,"current_range_meters":400,"station_id":"ce4bh012rcd13ifvqd10","pricing_plan_id":"cebpf4jnsgd1na2vs0mg"},{"bike_id":"d2677380-8cf0-4a07-9966-32aa7e77688f","system_id":"levelo_inurba_marseille","lat":43.25498,"lon":5.37654,"is_reserved":false,"is_disabled":true,"rental_uris":{"android":"levelo://app?vid=d2677380-8cf0-4a07-9966-32aa7e77688f","ios":"levelo://app?vid=d2677380-8cf0-4a07-9966-32aa7e77688f"},"vehicle_type_id":"4","last_reported":1747239194,"current_range_meters":400,"station_id":"ce4bhh12rcd13ifvqff0","pricing_plan_id":"cebpf4jnsgd1na2vs0mg"},{"bike_id":"0dce95d1-9b76-472a-817a-272592134c36","system_id":"levelo_inurba_marseille","lat":43.255867,"lon":5.38244,"is_reserved":false,"is_disabled":true,"rental_uris":{"android":"levelo://app?vid=0dce95d1-9b76-472a-817a-272592134c36","ios":"levelo://app?vid=0dce95d1-9b76-472a-817a-272592134c36"},"vehicle_type_id":"4","last_reported":1747239194,"current_range_meters":400,"station_id":"ce4bhih2rcd13ifvqfs0","pricing_plan_id":"cebpf4jnsgd1na2vs0mg"},{"bike_id":"ca2e9329-dad5-487f-a38b-55d1fd560adc","system_id":"levelo_inurba_marseille","lat":43.2962,"lon":5.37709,"is_reserved":false,"is_disabled":true,"rental_uris":{"android":"levelo://app?vid=ca2e9329-dad5-487f-a38b-55d1fd560adc","ios":"levelo://app?vid=ca2e9329-dad5-487f-a38b-55d1fd560adc"},"vehicle_type_id":"4","last_reported":1747239194,"current_range_meters":800,"station_id":"ce4bgi92rcd13ifvqb90","pricing_plan_id":"cebpf4jnsgd1na2vs0mg"},{"bike_id":"5796bcba-7cf1-4f8f-81f9-3b0b1fc23d3f","system_id":"levelo_inurba_marseille","lat":43.30936,"lon":5.40141,"is_reserved":false,"is_disabled":true,"rental_uris":{"android":"levelo://app?vid=5796bcba-7cf1-4f8f-81f9-3b0b1fc23d3f","ios":"levelo://app?vid=5796bcba-7cf1-4f8f-81f9-3b0b1fc23d3f"},"vehicle_type_id":"4","last_reported":1747239194,"current_range_meters":800,"station_id":"ce4bgvp2rcd13ifvqct0","pricing_plan_id":"cebpf4jnsgd1na2vs0mg"},{"bike_id":"80b1dc9d-83dc-4037-82e5-4f76644b0e5a","system_id":"levelo_inurba_marseille","lat":43.29017,"lon":5.38132,"is_reserved":false,"is_disabled":true,"rental_uris":{"android":"levelo://app?vid=80b1dc9d-83dc-4037-82e5-4f76644b0e5a","ios":"levelo://app?vid=80b1dc9d-83dc-4037-82e5-4f76644b0e5a"},"vehicle_type_id":"4","last_reported":1747239194,"current_range_meters":800,"station_id":"ce4bh4p2rcd13ifvqe1g","pricing_plan_id":"cebpf4jnsgd1na2vs0mg"},{"bike_id":"606f167b-98cb-4233-9878-7d7a9621b5a8","system_id":"levelo_inurba_marseille","lat":43.2319,"lon":5.39987,"is_reserved":false,"is_disabled":true,"rental_uris":{"android":"levelo://app?vid=606f167b-98cb-4233-9878-7d7a9621b5a8","ios":"levelo://app?vid=606f167b-98cb-4233-9878-7d7a9621b5a8"},"vehicle_type_id":"4","last_reported":1747239194,"current_range_meters":800,"station_id":"ce4bhn12rcd13ifvqgqg","pricing_plan_id":"cebpf4jnsgd1na2vs0mg"},{"bike_id":"f3f65448-5929-4580-98c1-29ebc5067466","system_id":"levelo_inurba_marseille","lat":43.28702,"lon":5.40003,"is_reserved":false,"is_disabled":true,"rental_uris":{"android":"levelo://app?vid=f3f65448-5929-4580-98c1-29ebc5067466","ios":"levelo://app?vid=f3f65448-5929-4580-98c1-29ebc5067466"},"vehicle_type_id":"4","last_reported":1747239194,"current_range_meters":800,"station_id":"ce4bho92rcd13ifvqh3g","pricing_plan_id":"cebpf4jnsgd1na2vs0mg"},{"bike_id":"4caff78d-9b50-4874-ba38-e96ee7a61e35","system_id":"levelo_inurba_marseille","lat":43.30445,"lon":5.38878,"is_reserved":false,"is_disabled":true,"rental_uris":{"android":"levelo://app?vid=4caff78d-9b50-4874-ba38-e96ee7a61e35","ios":"levelo://app?vid=4caff78d-9b50-4874-ba38-e96ee7a61e35"},"vehicle_type_id":"4","last_reported":1747239194,"current_range_meters":1200,"station_id":"ce4bgk12rcd13ifvqbi0","pricing_plan_id":"cebpf4jnsgd1na2vs0mg"},{"bike_id":"69505983-f55d-441b-b447-d72c43338c2e","system_id":"levelo_inurba_marseille","lat":43.31358,"lon":5.38483,"is_reserved":false,"is_disabled":true,"rental_uris":{"android":"levelo://app?vid=69505983-f55d-441b-b447-d72c43338c2e","ios":"levelo://app?vid=69505983-f55d-441b-b447-d72c43338c2e"},"vehicle_type_id":"4","last_reported":1747239194,"current_range_meters":1200,"station_id":"ce4bgt92rcd13ifvqcf0","pricing_plan_id":"cebpf4jnsgd1na2vs0mg"},{"bike_id":"094bb9a1-a9a1-4cc0-af3b-5810fef755fd","system_id":"levelo_inurba_marseille","lat":43.31078,"lon":5.38366,"is_reserved":false,"is_disabled":true,"rental_uris":{"android":"levelo://app?vid=094bb9a1-a9a1-4cc0-af3b-5810fef755fd","ios":"levelo://app?vid=094bb9a1-a9a1-4cc0-af3b-5810fef755fd"},"vehicle_type_id":"4","last_reported":1747239194,"current_range_meters":1200,"station_id":"ce4bgv92rcd13ifvqcr0","pricing_plan_id":"cebpf4jnsgd1na2vs0mg"},{"bike_id":"fd3b42af-b960-47a5-ac20-84dc7d50c802","system_id":"levelo_inurba_marseille","lat":43.30937,"lon":5.40153,"is_reserved":false,"is_disabled":true,"rental_uris":{"android":"levelo://app?vid=fd3b42af-b960-47a5-ac20-84dc7d50c802","ios":"levelo://app?vid=fd3b42af-b960-47a5-ac20-84dc7d50c802"},"vehicle_type_id":"4","last_reported":1747239194,"current_range_meters":1200,"station_id":"ce4bgvp2rcd13ifvqct0","pricing_plan_id":"cebpf4jnsgd1na2vs0mg"},{"bike_id":"ce53852f-0d60-4e3f-ba09-96400f919b2b","system_id":"levelo_inurba_marseille","lat":43.28469,"lon":5.38418,"is_reserved":false,"is_disabled":true,"rental_uris":{"android":"levelo://app?vid=ce53852f-0d60-4e3f-ba09-96400f919b2b","ios":"levelo://app?vid=ce53852f-0d60-4e3f-ba09-96400f919b2b"},"vehicle_type_id":"4","last_reported":1747239194,"current_range_meters":1200,"station_id":"ce4bh512rcd13ifvqe3g","pricing_plan_id":"cebpf4jnsgd1na2vs0mg"},{"bike_id":"8783bfc3-752c-4fa3-b70f-e77e723cb989","system_id":"levelo_inurba_marseille","lat":43.28462,"lon":5.359,"is_reserved":false,"is_disabled":false,"rental_uris":{"android":"levelo://app?vid=8783bfc3-752c-4fa3-b70f-e77e723cb989","ios":"levelo://app?vid=8783bfc3-752c-4fa3-b70f-e77e723cb989"},"vehicle_type_id":"4","last_reported":1747239194,"current_range_meters":1200,"station_id":"ce4bhah2rcd13ifvqei0","pricing_plan_id":"cebpf4jnsgd1na2vs0mg"},{"bike_id":"c29009af-9d35-4001-8b25-fb66507a9fd5","system_id":"levelo_inurba_marseille","lat":43.27385,"lon":5.36269,"is_reserved":false,"is_disabled":true,"rental_uris":{"android":"levelo://app?vid=c29009af-9d35-4001-8b25-fb66507a9fd5","ios":"levelo://app?vid=c29009af-9d35-4001-8b25-fb66507a9fd5"},"vehicle_type_id":"4","last_reported":1747239194,"current_range_meters":1200,"station_id":"ce4bhbh2rcd13ifvqeo0","pricing_plan_id":"cebpf4jnsgd1na2vs0mg"},{"bike_id":"c38002f3-fc50-47b4-98f2-8da5192aa749","system_id":"levelo_inurba_marseille","lat":43.250004,"lon":5.389274,"is_reserved":false,"is_disabled":false,"rental_uris":{"android":"levelo://app?vid=c38002f3-fc50-47b4-98f2-8da5192aa749","ios":"levelo://app?vid=c38002f3-fc50-47b4-98f2-8da5192aa749"},"vehicle_type_id":"4","last_reported":1747239194,"current_range_meters":1200,"station_id":"ce4bhgp2rcd13ifvqfd0","pricing_plan_id":"cebpf4jnsgd1na2vs0mg"},{"bike_id":"264479de-e908-4475-8a25-17523ec3b09b","system_id":"levelo_inurba_marseille","lat":43.284488,"lon":5.39211,"is_reserved":false,"is_disabled":true,"rental_uris":{"android":"levelo://app?vid=264479de-e908-4475-8a25-17523ec3b09b","ios":"levelo://app?vid=264479de-e908-4475-8a25-17523ec3b09b"},"vehicle_type_id":"4","last_reported":1747239194,"current_range_meters":1600,"station_id":"ce4bhoh2rcd13ifvqh5g","pricing_plan_id":"cebpf4jnsgd1na2vs0mg"},{"bike_id":"95b9651b-24ca-40ef-a319-3d06e507e536","system_id":"levelo_inurba_marseille","lat":43.31364,"lon":5.38494,"is_reserved":false,"is_disabled":true,"rental_uris":{"android":"levelo://app?vid=95b9651b-24ca-40ef-a319-3d06e507e536","ios":"levelo://app?vid=95b9651b-24ca-40ef-a319-3d06e507e536"},"vehicle_type_id":"4","last_reported":1747239194,"current_range_meters":2000,"station_id":"ce4bgt92rcd13ifvqcf0","pricing_plan_id":"cebpf4jnsgd1na2vs0mg"},{"bike_id":"38dc285e-e2a3-4fbd-a5e1-23e2a0b0f66e","system_id":"levelo_inurba_marseille","lat":43.27211,"lon":5.3918,"is_reserved":false,"is_disabled":true,"rental_uris":{"android":"levelo://app?vid=38dc285e-e2a3-4fbd-a5e1-23e2a0b0f66e","ios":"levelo://app?vid=38dc285e-e2a3-4fbd-a5e1-23e2a0b0f66e"},"vehicle_type_id":"4","last_reported":1747239194,"current_range_meters":2000,"station_id":"ce4bhhp2rcd13ifvqfm0","pricing_plan_id":"cebpf4jnsgd1na2vs0mg"},{"bike_id":"57ddeb2b-38aa-457b-9ea6-1c47cf7c50f9","system_id":"levelo_inurba_marseille","lat":43.28817,"lon":5.38251,"is_reserved":false,"is_disabled":false,"rental_uris":{"android":"levelo://app?vid=57ddeb2b-38aa-457b-9ea6-1c47cf7c50f9","ios":"levelo://app?vid=57ddeb2b-38aa-457b-9ea6-1c47cf7c50f9"},"vehicle_type_id":"4","last_reported":1747239194,"current_range_meters":2800,"station_id":"","pricing_plan_id":"cebpf4jnsgd1na2vs0mg"},{"bike_id":"04b54eac-f451-4319-9d08-5324c32c945b","system_id":"levelo_inurba_marseille","lat":43.30427,"lon":5.3888,"is_reserved":false,"is_disabled":false,"rental_uris":{"android":"levelo://app?vid=04b54eac-f451-4319-9d08-5324c32c945b","ios":"levelo://app?vid=04b54eac-f451-4319-9d08-5324c32c945b"},"vehicle_type_id":"4","last_reported":1747239194,"current_range_meters":2800,"station_id":"ce4bgk12rcd13ifvqbi0","pricing_plan_id":"cebpf4jnsgd1na2vs0mg"},{"bike_id":"71a6c337-59e1-4f71-a5a3-9a028ec2c367","system_id":"levelo_inurba_marseille","lat":43.3055,"lon":5.36559,"is_reserved":false,"is_disabled":false,"rental_uris":{"android":"levelo://app?vid=71a6c337-59e1-4f71-a5a3-9a028ec2c367","ios":"levelo://app?vid=71a6c337-59e1-4f71-a5a3-9a028ec2c367"},"vehicle_type_id":"4","last_reported":1747239194,"current_range_meters":2800,"station_id":"ce4bgs12rcd13ifvqcag","pricing_plan_id":"cebpf4jnsgd1na2vs0mg"},{"bike_id":"7154f837-ecd8-497a-a04a-7825a3ed2b89","system_id":"levelo_inurba_marseille","lat":43.27373,"lon":5.36251,"is_reserved":false,"is_disabled":false,"rental_uris":{"android":"levelo://app?vid=7154f837-ecd8-497a-a04a-7825a3ed2b89","ios":"levelo://app?vid=7154f837-ecd8-497a-a04a-7825a3ed2b89"},"vehicle_type_id":"4","last_reported":1747239194,"current_range_meters":2800,"station_id":"ce4bhbh2rcd13ifvqeo0","pricing_plan_id":"cebpf4jnsgd1na2vs0mg"},{"bike_id":"afe2bcad-2b7b-4fec-a280-1aa7989c34b6","system_id":"levelo_inurba_marseille","lat":43.26949,"lon":5.38644,"is_reserved":false,"is_disabled":false,"rental_uris":{"android":"levelo://app?vid=afe2bcad-2b7b-4fec-a280-1aa7989c34b6","ios":"levelo://app?vid=afe2bcad-2b7b-4fec-a280-1aa7989c34b6"},"vehicle_type_id":"4","last_reported":1747239194,"current_range_meters":2800,"station_id":"ce4bhh92rcd13ifvqfh0","pricing_plan_id":"cebpf4jnsgd1na2vs0mg"},{"bike_id":"348e2f83-45be-417c-8308-145aa7ed0d14","system_id":"levelo_inurba_marseille","lat":43.27672,"lon":5.38882,"is_reserved":false,"is_disabled":false,"rental_uris":{"android":"levelo://app?vid=348e2f83-45be-417c-8308-145aa7ed0d14","ios":"levelo://app?vid=348e2f83-45be-417c-8308-145aa7ed0d14"},"vehicle_type_id":"4","last_reported":1747239194,"current_range_meters":2800,"station_id":"ce4bhi12rcd13ifvqfo0","pricing_plan_id":"cebpf4jnsgd1na2vs0mg"},{"bike_id":"1c628321-87a6-47b9-b36a-bff37672272f","system_id":"levelo_inurba_marseille","lat":43.2465,"lon":5.3815,"is_reserved":false,"is_disabled":false,"rental_uris":{"android":"levelo://app?vid=1c628321-87a6-47b9-b36a-bff37672272f","ios":"levelo://app?vid=1c628321-87a6-47b9-b36a-bff37672272f"},"vehicle_type_id":"4","last_reported":1747239194,"current_range_meters":2800,"station_id":"ce4bhih2rcd13ifvqfr0","pricing_plan_id":"cebpf4jnsgd1na2vs0mg"},{"bike_id":"baaea78c-e762-489f-987d-93d7f022a09c","system_id":"levelo_inurba_marseille","lat":43.25089,"lon":5.39527,"is_reserved":false,"is_disabled":false,"rental_uris":{"android":"levelo://app?vid=baaea78c-e762-489f-987d-93d7f022a09c","ios":"levelo://app?vid=baaea78c-e762-489f-987d-93d7f022a09c"},"vehicle_type_id":"4","last_reported":1747239194,"current_range_meters":2800,"station_id":"ce4bhm12rcd13ifvqgkg","pricing_plan_id":"cebpf4jnsgd1na2vs0mg"},{"bike_id":"7cfed6ba-e87f-41a7-9222-b34745403b0b","system_id":"levelo_inurba_marseille","lat":43.302485,"lon":5.400752,"is_reserved":false,"is_disabled":false,"rental_uris":{"android":"levelo://app?vid=7cfed6ba-e87f-41a7-9222-b34745403b0b","ios":"levelo://app?vid=7cfed6ba-e87f-41a7-9222-b34745403b0b"},"vehicle_type_id":"4","last_reported":1747239194,"current_range_meters":3200,"station_id":"ce4bgvh2rcd13ifvqcs0","pricing_plan_id":"cebpf4jnsgd1na2vs0mg"},{"bike_id":"63a9345a-f623-45d5-8ebb-5fadd933e197","system_id":"levelo_inurba_marseille","lat":43.28671,"lon":5.38654,"is_reserved":false,"is_disabled":false,"rental_uris":{"android":"levelo://app?vid=63a9345a-f623-45d5-8ebb-5fadd933e197","ios":"levelo://app?vid=63a9345a-f623-45d5-8ebb-5fadd933e197"},"vehicle_type_id":"4","last_reported":1747239194,"current_range_meters":3200,"station_id":"ce4bh492rcd13ifvqdug","pricing_plan_id":"cebpf4jnsgd1na2vs0mg"},{"bike_id":"34be46ec-2d95-430b-89f1-17e08076639d","system_id":"levelo_inurba_marseille","lat":43.29029,"lon":5.3866,"is_reserved":false,"is_disabled":false,"rental_uris":{"android":"levelo://app?vid=34be46ec-2d95-430b-89f1-17e08076639d","ios":"levelo://app?vid=34be46ec-2d95-430b-89f1-17e08076639d"},"vehicle_type_id":"4","last_reported":1747239194,"current_range_meters":3200,"station_id":"ce4bh4p2rcd13ifvqe0g","pricing_plan_id":"cebpf4jnsgd1na2vs0mg"},{"bike_id":"1a872701-3fe2-42b1-9316-81c856175186","system_id":"levelo_inurba_marseille","lat":43.29416,"lon":5.38629,"is_reserved":false,"is_disabled":false,"rental_uris":{"android":"levelo://app?vid=1a872701-3fe2-42b1-9316-81c856175186","ios":"levelo://app?vid=1a872701-3fe2-42b1-9316-81c856175186"},"vehicle_type_id":"4","last_reported":1747239194,"current_range_meters":3600,"station_id":"ce4bh2h2rcd13ifvqdh0","pricing_plan_id":"cebpf4jnsgd1na2vs0mg"},{"bike_id":"4ecb8b8a-4ea4-47a1-b829-b823b653feda","system_id":"levelo_inurba_marseille","lat":43.29223,"lon":5.36074,"is_reserved":false,"is_disabled":false,"rental_uris":{"android":"levelo://app?vid=4ecb8b8a-4ea4-47a1-b829-b823b653feda","ios":"levelo://app?vid=4ecb8b8a-4ea4-47a1-b829-b823b653feda"},"vehicle_type_id":"4","last_reported":1747239194,"current_range_meters":3600,"station_id":"ce4bhbh2rcd13ifvqeqg","pricing_plan_id":"cebpf4jnsgd1na2vs0mg"},{"bike_id":"8f83f254-465f-41be-8d72-5ea9b546a7e5","system_id":"levelo_inurba_marseille","lat":43.313393,"lon":5.385667,"is_reserved":false,"is_disabled":false,"rental_uris":{"android":"levelo://app?vid=8f83f254-465f-41be-8d72-5ea9b546a7e5","ios":"levelo://app?vid=8f83f254-465f-41be-8d72-5ea9b546a7e5"},"vehicle_type_id":"4","last_reported":1747239194,"current_range_meters":4000,"station_id":"","pricing_plan_id":"cebpf4jnsgd1na2vs0mg"},{"bike_id":"b438f308-4aeb-43f4-b303-dc135c1f4258","system_id":"levelo_inurba_marseille","lat":43.297977,"lon":5.403864,"is_reserved":false,"is_disabled":false,"rental_uris":{"android":"levelo://app?vid=b438f308-4aeb-43f4-b303-dc135c1f4258","ios":"levelo://app?vid=b438f308-4aeb-43f4-b303-dc135c1f4258"},"vehicle_type_id":"4","last_reported":1747239194,"current_range_meters":4000,"station_id":"ce4bh112rcd13ifvqd90","pricing_plan_id":"cebpf4jnsgd1na2vs0mg"},{"bike_id":"2b14b66f-fa5c-456b-ab59-343a2c153f75","system_id":"levelo_inurba_marseille","lat":43.24647,"lon":5.38896,"is_reserved":false,"is_disabled":false,"rental_uris":{"android":"levelo://app?vid=2b14b66f-fa5c-456b-ab59-343a2c153f75","ios":"levelo://app?vid=2b14b66f-fa5c-456b-ab59-343a2c153f75"},"vehicle_type_id":"4","last_reported":1747239194,"current_range_meters":4000,"station_id":"ce4bhg12rcd13ifvqf60","pricing_plan_id":"cebpf4jnsgd1na2vs0mg"},{"bike_id":"2832ceea-8a43-49be-9673-4da8a0b7bff4","system_id":"levelo_inurba_marseille","lat":43.29076,"lon":5.37168,"is_reserved":false,"is_disabled":false,"rental_uris":{"android":"levelo://app?vid=2832ceea-8a43-49be-9673-4da8a0b7bff4","ios":"levelo://app?vid=2832ceea-8a43-49be-9673-4da8a0b7bff4"},"vehicle_type_id":"4","last_reported":1747239194,"current_range_meters":4400,"station_id":"ce4bh5p2rcd13ifvqe4g","pricing_plan_id":"cebpf4jnsgd1na2vs0mg"},{"bike_id":"2135a5a6-07d0-4eb7-a82e-cbd6425da8e4","system_id":"levelo_inurba_marseille","lat":43.2512,"lon":5.40321,"is_reserved":false,"is_disabled":false,"rental_uris":{"android":"levelo://app?vid=2135a5a6-07d0-4eb7-a82e-cbd6425da8e4","ios":"levelo://app?vid=2135a5a6-07d0-4eb7-a82e-cbd6425da8e4"},"vehicle_type_id":"4","last_reported":1747239194,"current_range_meters":4400,"station_id":"ce4bhlh2rcd13ifvqgig","pricing_plan_id":"cebpf4jnsgd1na2vs0mg"},{"bike_id":"0610464c-49c7-40cb-bef1-fba945891629","system_id":"levelo_inurba_marseille","lat":43.24544,"lon":5.39528,"is_reserved":false,"is_disabled":false,"rental_uris":{"android":"levelo://app?vid=0610464c-49c7-40cb-bef1-fba945891629","ios":"levelo://app?vid=0610464c-49c7-40cb-bef1-fba945891629"},"vehicle_type_id":"4","last_reported":1747239194,"current_range_meters":4400,"station_id":"ce4bhlp2rcd13ifvqgjg","pricing_plan_id":"cebpf4jnsgd1na2vs0mg"},{"bike_id":"f7b8260c-d643-4291-9548-f96dd0a53dbb","system_id":"levelo_inurba_marseille","lat":43.2418,"lon":5.39738,"is_reserved":false,"is_disabled":false,"rental_uris":{"android":"levelo://app?vid=f7b8260c-d643-4291-9548-f96dd0a53dbb","ios":"levelo://app?vid=f7b8260c-d643-4291-9548-f96dd0a53dbb"},"vehicle_type_id":"4","last_reported":1747239194,"current_range_meters":4400,"station_id":"ce4bhn12rcd13ifvqgpg","pricing_plan_id":"cebpf4jnsgd1na2vs0mg"},{"bike_id":"1e617839-1167-4a92-9580-b1d84de92983","system_id":"levelo_inurba_marseille","lat":43.28001,"lon":5.41662,"is_reserved":false,"is_disabled":false,"rental_uris":{"android":"levelo://app?vid=1e617839-1167-4a92-9580-b1d84de92983","ios":"levelo://app?vid=1e617839-1167-4a92-9580-b1d84de92983"},"vehicle_type_id":"4","last_reported":1747239194,"current_range_meters":4400,"station_id":"ce4bho12rcd13ifvqh1g","pricing_plan_id":"cebpf4jnsgd1na2vs0mg"},{"bike_id":"9242c71c-c776-4ce5-b907-ac8f23266d48","system_id":"levelo_inurba_marseille","lat":43.31723,"lon":5.43712,"is_reserved":false,"is_disabled":false,"rental_uris":{"android":"levelo://app?vid=9242c71c-c776-4ce5-b907-ac8f23266d48","ios":"levelo://app?vid=9242c71c-c776-4ce5-b907-ac8f23266d48"},"vehicle_type_id":"4","last_reported":1747239194,"current_range_meters":4400,"station_id":"ce4bhp92rcd13ifvqhcg","pricing_plan_id":"cebpf4jnsgd1na2vs0mg"},{"bike_id":"32e6fc30-8370-44b0-b98b-24d300165f12","system_id":"levelo_inurba_marseille","lat":43.29632,"lon":5.40604,"is_reserved":false,"is_disabled":false,"rental_uris":{"android":"levelo://app?vid=32e6fc30-8370-44b0-b98b-24d300165f12","ios":"levelo://app?vid=32e6fc30-8370-44b0-b98b-24d300165f12"},"vehicle_type_id":"4","last_reported":1747239194,"current_range_meters":4800,"station_id":"ce4bh0h2rcd13ifvqd60","pricing_plan_id":"cebpf4jnsgd1na2vs0mg"},{"bike_id":"41081213-1af9-45a0-b5fe-38b9da683b9c","system_id":"levelo_inurba_marseille","lat":43.28717,"lon":5.37423,"is_reserved":false,"is_disabled":false,"rental_uris":{"android":"levelo://app?vid=41081213-1af9-45a0-b5fe-38b9da683b9c","ios":"levelo://app?vid=41081213-1af9-45a0-b5fe-38b9da683b9c"},"vehicle_type_id":"4","last_reported":1747239194,"current_range_meters":4800,"station_id":"ce4bh3p2rcd13ifvqdq0","pricing_plan_id":"cebpf4jnsgd1na2vs0mg"},{"bike_id":"6111fa35-5666-4f6c-b1e9-256880cf5b1c","system_id":"levelo_inurba_marseille","lat":43.23953,"lon":5.36646,"is_reserved":false,"is_disabled":false,"rental_uris":{"android":"levelo://app?vid=6111fa35-5666-4f6c-b1e9-256880cf5b1c","ios":"levelo://app?vid=6111fa35-5666-4f6c-b1e9-256880cf5b1c"},"vehicle_type_id":"4","last_reported":1747239194,"current_range_meters":4800,"station_id":"ce4bhi12rcd13ifvqfp0","pricing_plan_id":"cebpf4jnsgd1na2vs0mg"},{"bike_id":"5054799c-0618-4e10-ab84-f7bc347d7c1c","system_id":"levelo_inurba_marseille","lat":43.302514,"lon":5.400776,"is_reserved":false,"is_disabled":false,"rental_uris":{"android":"levelo://app?vid=5054799c-0618-4e10-ab84-f7bc347d7c1c","ios":"levelo://app?vid=5054799c-0618-4e10-ab84-f7bc347d7c1c"},"vehicle_type_id":"4","last_reported":1747239194,"current_range_meters":5600,"station_id":"ce4bgvh2rcd13ifvqcs0","pricing_plan_id":"cebpf4jnsgd1na2vs0mg"},{"bike_id":"ee50ae80-3fb6-4ed6-a31f-e24b53c606a1","system_id":"levelo_inurba_marseille","lat":43.29281,"lon":5.40121,"is_reserved":false,"is_disabled":false,"rental_uris":{"android":"levelo://app?vid=ee50ae80-3fb6-4ed6-a31f-e24b53c606a1","ios":"levelo://app?vid=ee50ae80-3fb6-4ed6-a31f-e24b53c606a1"},"vehicle_type_id":"4","last_reported":1747239194,"current_range_meters":5600,"station_id":"ce4bh312rcd13ifvqdk0","pricing_plan_id":"cebpf4jnsgd1na2vs0mg"},{"bike_id":"9c7398cf-b628-46b4-a820-01318c7edf63","system_id":"levelo_inurba_marseille","lat":43.28463,"lon":5.35891,"is_reserved":false,"is_disabled":false,"rental_uris":{"android":"levelo://app?vid=9c7398cf-b628-46b4-a820-01318c7edf63","ios":"levelo://app?vid=9c7398cf-b628-46b4-a820-01318c7edf63"},"vehicle_type_id":"4","last_reported":1747239194,"current_range_meters":5600,"station_id":"ce4bhah2rcd13ifvqei0","pricing_plan_id":"cebpf4jnsgd1na2vs0mg"},{"bike_id":"7a455c98-b60b-4774-af92-269085be2e06","system_id":"levelo_inurba_marseille","lat":43.29281,"lon":5.36838,"is_reserved":false,"is_disabled":false,"rental_uris":{"android":"levelo://app?vid=7a455c98-b60b-4774-af92-269085be2e06","ios":"levelo://app?vid=7a455c98-b60b-4774-af92-269085be2e06"},"vehicle_type_id":"4","last_reported":1747239194,"current_range_meters":5600,"station_id":"ce4bhbp2rcd13ifvqesg","pricing_plan_id":"cebpf4jnsgd1na2vs0mg"},{"bike_id":"bd70810b-1f72-4f23-87e4-72e7eb46f934","system_id":"levelo_inurba_marseille","lat":43.24184,"lon":5.39725,"is_reserved":false,"is_disabled":false,"rental_uris":{"android":"levelo://app?vid=bd70810b-1f72-4f23-87e4-72e7eb46f934","ios":"levelo://app?vid=bd70810b-1f72-4f23-87e4-72e7eb46f934"},"vehicle_type_id":"4","last_reported":1747239194,"current_range_meters":5600,"station_id":"ce4bhn12rcd13ifvqgpg","pricing_plan_id":"cebpf4jnsgd1na2vs0mg"},{"bike_id":"ce4325af-2448-4172-bdec-81d552ee0b62","system_id":"levelo_inurba_marseille","lat":43.261779,"lon":5.42026,"is_reserved":false,"is_disabled":false,"rental_uris":{"android":"levelo://app?vid=ce4325af-2448-4172-bdec-81d552ee0b62","ios":"levelo://app?vid=ce4325af-2448-4172-bdec-81d552ee0b62"},"vehicle_type_id":"4","last_reported":1747239194,"current_range_meters":6000,"station_id":"","pricing_plan_id":"cebpf4jnsgd1na2vs0mg"},{"bike_id":"1c882c3e-d761-4e20-976a-356e37ce8890","system_id":"levelo_inurba_marseille","lat":43.273094,"lon":5.390884,"is_reserved":false,"is_disabled":false,"rental_uris":{"android":"levelo://app?vid=1c882c3e-d761-4e20-976a-356e37ce8890","ios":"levelo://app?vid=1c882c3e-d761-4e20-976a-356e37ce8890"},"vehicle_type_id":"4","last_reported":1747239194,"current_range_meters":6000,"station_id":"ce4bhgp2rcd13ifvqfe0","pricing_plan_id":"cebpf4jnsgd1na2vs0mg"},{"bike_id":"f4156d32-2fa8-437b-b084-87a37bf3ae55","system_id":"levelo_inurba_marseille","lat":43.25084,"lon":5.39531,"is_reserved":false,"is_disabled":false,"rental_uris":{"android":"levelo://app?vid=f4156d32-2fa8-437b-b084-87a37bf3ae55","ios":"levelo://app?vid=f4156d32-2fa8-437b-b084-87a37bf3ae55"},"vehicle_type_id":"4","last_reported":1747239194,"current_range_meters":6000,"station_id":"ce4bhm12rcd13ifvqgkg","pricing_plan_id":"cebpf4jnsgd1na2vs0mg"},{"bike_id":"76b7f658-34fe-4dad-af36-ef9ac290eb51","system_id":"levelo_inurba_marseille","lat":43.29973,"lon":5.384912,"is_reserved":false,"is_disabled":false,"rental_uris":{"android":"levelo://app?vid=76b7f658-34fe-4dad-af36-ef9ac290eb51","ios":"levelo://app?vid=76b7f658-34fe-4dad-af36-ef9ac290eb51"},"vehicle_type_id":"4","last_reported":1747239194,"current_range_meters":6400,"station_id":"ce4bgj92rcd13ifvqbd0","pricing_plan_id":"cebpf4jnsgd1na2vs0mg"},{"bike_id":"44b706c8-22d6-48b2-a8ea-5fa7b6478c06","system_id":"levelo_inurba_marseille","lat":43.25109,"lon":5.4033,"is_reserved":false,"is_disabled":false,"rental_uris":{"android":"levelo://app?vid=44b706c8-22d6-48b2-a8ea-5fa7b6478c06","ios":"levelo://app?vid=44b706c8-22d6-48b2-a8ea-5fa7b6478c06"},"vehicle_type_id":"4","last_reported":1747239194,"current_range_meters":6400,"station_id":"ce4bhlh2rcd13ifvqgig","pricing_plan_id":"cebpf4jnsgd1na2vs0mg"},{"bike_id":"6953ca09-b1d0-473e-8b94-d568eb1a7f43","system_id":"levelo_inurba_marseille","lat":43.28608,"lon":5.37062,"is_reserved":false,"is_disabled":false,"rental_uris":{"android":"levelo://app?vid=6953ca09-b1d0-473e-8b94-d568eb1a7f43","ios":"levelo://app?vid=6953ca09-b1d0-473e-8b94-d568eb1a7f43"},"vehicle_type_id":"4","last_reported":1747239194,"current_range_meters":6400,"station_id":"ce4bht12rcd13ifvqi60","pricing_plan_id":"cebpf4jnsgd1na2vs0mg"},{"bike_id":"b04d5080-e458-4c75-a596-e51f48a9e47b","system_id":"levelo_inurba_marseille","lat":43.23187,"lon":5.3557,"is_reserved":false,"is_disabled":false,"rental_uris":{"android":"levelo://app?vid=b04d5080-e458-4c75-a596-e51f48a9e47b","ios":"levelo://app?vid=b04d5080-e458-4c75-a596-e51f48a9e47b"},"vehicle_type_id":"4","last_reported":1747239194,"current_range_meters":6400,"station_id":"ce4bhu92rcd13ifvqi70","pricing_plan_id":"cebpf4jnsgd1na2vs0mg"},{"bike_id":"39f40186-b53a-4a97-a3fc-e431cc41b89e","system_id":"levelo_inurba_marseille","lat":43.2417,"lon":5.36414,"is_reserved":false,"is_disabled":false,"rental_uris":{"android":"levelo://app?vid=39f40186-b53a-4a97-a3fc-e431cc41b89e","ios":"levelo://app?vid=39f40186-b53a-4a97-a3fc-e431cc41b89e"},"vehicle_type_id":"4","last_reported":1747239194,"current_range_meters":6400,"station_id":"cpo36qri1sfpv3e86is0","pricing_plan_id":"cebpf4jnsgd1na2vs0mg"},{"bike_id":"38c58fdc-0752-4504-bcc1-4174bb46b154","system_id":"levelo_inurba_marseille","lat":43.2743,"lon":5.36295,"is_reserved":false,"is_disabled":false,"rental_uris":{"android":"levelo://app?vid=38c58fdc-0752-4504-bcc1-4174bb46b154","ios":"levelo://app?vid=38c58fdc-0752-4504-bcc1-4174bb46b154"},"vehicle_type_id":"4","last_reported":1747239194,"current_range_meters":6800,"station_id":"","pricing_plan_id":"cebpf4jnsgd1na2vs0mg"},{"bike_id":"5de1e8df-cec1-47cf-b554-41f6e726d337","system_id":"levelo_inurba_marseille","lat":43.27444,"lon":5.40647,"is_reserved":false,"is_disabled":false,"rental_uris":{"android":"levelo://app?vid=5de1e8df-cec1-47cf-b554-41f6e726d337","ios":"levelo://app?vid=5de1e8df-cec1-47cf-b554-41f6e726d337"},"vehicle_type_id":"4","last_reported":1747239194,"current_range_meters":6800,"station_id":"","pricing_plan_id":"cebpf4jnsgd1na2vs0mg"},{"bike_id":"885bf14e-e4f6-4e21-8eb0-9484b382137c","system_id":"levelo_inurba_marseille","lat":43.30887,"lon":5.371916,"is_reserved":false,"is_disabled":false,"rental_uris":{"android":"levelo://app?vid=885bf14e-e4f6-4e21-8eb0-9484b382137c","ios":"levelo://app?vid=885bf14e-e4f6-4e21-8eb0-9484b382137c"},"vehicle_type_id":"4","last_reported":1747239194,"current_range_meters":6800,"station_id":"ce4bguh2rcd13ifvqckg","pricing_plan_id":"cebpf4jnsgd1na2vs0mg"},{"bike_id":"9e06e947-4456-4b06-8d88-d37206bef104","system_id":"levelo_inurba_marseille","lat":43.311663,"lon":5.38727,"is_reserved":false,"is_disabled":false,"rental_uris":{"android":"levelo://app?vid=9e06e947-4456-4b06-8d88-d37206bef104","ios":"levelo://app?vid=9e06e947-4456-4b06-8d88-d37206bef104"},"vehicle_type_id":"4","last_reported":1747239194,"current_range_meters":6800,"station_id":"ce4bgv12rcd13ifvqcp0","pricing_plan_id":"cebpf4jnsgd1na2vs0mg"},{"bike_id":"018f5281-105b-49c6-b60a-27cbe815f5f0","system_id":"levelo_inurba_marseille","lat":43.30262,"lon":5.40079,"is_reserved":false,"is_disabled":false,"rental_uris":{"android":"levelo://app?vid=018f5281-105b-49c6-b60a-27cbe815f5f0","ios":"levelo://app?vid=018f5281-105b-49c6-b60a-27cbe815f5f0"},"vehicle_type_id":"4","last_reported":1747239194,"current_range_meters":6800,"station_id":"ce4bgvh2rcd13ifvqcs0","pricing_plan_id":"cebpf4jnsgd1na2vs0mg"},{"bike_id":"182e6f67-0175-495c-ad15-9b83fee32c2f","system_id":"levelo_inurba_marseille","lat":43.2826,"lon":5.35073,"is_reserved":false,"is_disabled":false,"rental_uris":{"android":"levelo://app?vid=182e6f67-0175-495c-ad15-9b83fee32c2f","ios":"levelo://app?vid=182e6f67-0175-495c-ad15-9b83fee32c2f"},"vehicle_type_id":"4","last_reported":1747239194,"current_range_meters":6800,"station_id":"ce4bhbp2rcd13ifvqerg","pricing_plan_id":"cebpf4jnsgd1na2vs0mg"},{"bike_id":"41e08282-4ea9-471f-8e7d-98830f2e2cf4","system_id":"levelo_inurba_marseille","lat":43.26034,"lon":5.37552,"is_reserved":false,"is_disabled":false,"rental_uris":{"android":"levelo://app?vid=41e08282-4ea9-471f-8e7d-98830f2e2cf4","ios":"levelo://app?vid=41e08282-4ea9-471f-8e7d-98830f2e2cf4"},"vehicle_type_id":"4","last_reported":1747239194,"current_range_meters":6800,"station_id":"ce4bhgh2rcd13ifvqfa0","pricing_plan_id":"cebpf4jnsgd1na2vs0mg"},{"bike_id":"9faa7ac9-1b23-4a74-86b0-58ea72c035b1","system_id":"levelo_inurba_marseille","lat":43.27664,"lon":5.38902,"is_reserved":false,"is_disabled":false,"rental_uris":{"android":"levelo://app?vid=9faa7ac9-1b23-4a74-86b0-58ea72c035b1","ios":"levelo://app?vid=9faa7ac9-1b23-4a74-86b0-58ea72c035b1"},"vehicle_type_id":"4","last_reported":1747239194,"current_range_meters":6800,"station_id":"ce4bhi12rcd13ifvqfo0","pricing_plan_id":"cebpf4jnsgd1na2vs0mg"},{"bike_id":"f37b7848-b34f-4203-8cd6-ee4ac88ff930","system_id":"levelo_inurba_marseille","lat":43.23957,"lon":5.36648,"is_reserved":false,"is_disabled":false,"rental_uris":{"android":"levelo://app?vid=f37b7848-b34f-4203-8cd6-ee4ac88ff930","ios":"levelo://app?vid=f37b7848-b34f-4203-8cd6-ee4ac88ff930"},"vehicle_type_id":"4","last_reported":1747239194,"current_range_meters":6800,"station_id":"ce4bhi12rcd13ifvqfp0","pricing_plan_id":"cebpf4jnsgd1na2vs0mg"},{"bike_id":"f7e13854-d8b5-4665-88d4-a6202cc87022","system_id":"levelo_inurba_marseille","lat":43.27614,"lon":5.36116,"is_reserved":false,"is_disabled":false,"rental_uris":{"android":"levelo://app?vid=f7e13854-d8b5-4665-88d4-a6202cc87022","ios":"levelo://app?vid=f7e13854-d8b5-4665-88d4-a6202cc87022"},"vehicle_type_id":"4","last_reported":1747239194,"current_range_meters":7200,"station_id":"ce4bgj92rcd13ifvqbe0","pricing_plan_id":"cebpf4jnsgd1na2vs0mg"},{"bike_id":"33f01a41-c0f3-4939-8b49-9832aa9133eb","system_id":"levelo_inurba_marseille","lat":43.31488,"lon":5.37316,"is_reserved":false,"is_disabled":false,"rental_uris":{"android":"levelo://app?vid=33f01a41-c0f3-4939-8b49-9832aa9133eb","ios":"levelo://app?vid=33f01a41-c0f3-4939-8b49-9832aa9133eb"},"vehicle_type_id":"4","last_reported":1747239194,"current_range_meters":7200,"station_id":"ce4bgt12rcd13ifvqcd0","pricing_plan_id":"cebpf4jnsgd1na2vs0mg"},{"bike_id":"75576a8f-9d63-4bf9-830f-2391eba1c9d2","system_id":"levelo_inurba_marseille","lat":43.311213,"lon":5.377777,"is_reserved":false,"is_disabled":false,"rental_uris":{"android":"levelo://app?vid=75576a8f-9d63-4bf9-830f-2391eba1c9d2","ios":"levelo://app?vid=75576a8f-9d63-4bf9-830f-2391eba1c9d2"},"vehicle_type_id":"4","last_reported":1747239194,"current_range_meters":7200,"station_id":"ce4bgt92rcd13ifvqcg0","pricing_plan_id":"cebpf4jnsgd1na2vs0mg"},{"bike_id":"49513294-ccea-499d-b001-7df97fc96be7","system_id":"levelo_inurba_marseille","lat":43.27371,"lon":5.36265,"is_reserved":false,"is_disabled":false,"rental_uris":{"android":"levelo://app?vid=49513294-ccea-499d-b001-7df97fc96be7","ios":"levelo://app?vid=49513294-ccea-499d-b001-7df97fc96be7"},"vehicle_type_id":"4","last_reported":1747239194,"current_range_meters":7200,"station_id":"ce4bhbh2rcd13ifvqeo0","pricing_plan_id":"cebpf4jnsgd1na2vs0mg"},{"bike_id":"51bf434a-d823-48ba-b480-e6ed0ac698f4","system_id":"levelo_inurba_marseille","lat":43.2923,"lon":5.36075,"is_reserved":false,"is_disabled":false,"rental_uris":{"android":"levelo://app?vid=51bf434a-d823-48ba-b480-e6ed0ac698f4","ios":"levelo://app?vid=51bf434a-d823-48ba-b480-e6ed0ac698f4"},"vehicle_type_id":"4","last_reported":1747239194,"current_range_meters":7200,"station_id":"ce4bhbh2rcd13ifvqeqg","pricing_plan_id":"cebpf4jnsgd1na2vs0mg"},{"bike_id":"c450bb40-2f26-4998-9745-85a4dcf1178f","system_id":"levelo_inurba_marseille","lat":43.30359,"lon":5.41873,"is_reserved":false,"is_disabled":false,"rental_uris":{"android":"levelo://app?vid=c450bb40-2f26-4998-9745-85a4dcf1178f","ios":"levelo://app?vid=c450bb40-2f26-4998-9745-85a4dcf1178f"},"vehicle_type_id":"4","last_reported":1747239194,"current_range_meters":7200,"station_id":"ce4bhop2rcd13ifvqh7g","pricing_plan_id":"cebpf4jnsgd1na2vs0mg"},{"bike_id":"d1adc932-bdf5-462d-a07e-72752a814dcd","system_id":"levelo_inurba_marseille","lat":43.31754,"lon":5.39021,"is_reserved":false,"is_disabled":false,"rental_uris":{"android":"levelo://app?vid=d1adc932-bdf5-462d-a07e-72752a814dcd","ios":"levelo://app?vid=d1adc932-bdf5-462d-a07e-72752a814dcd"},"vehicle_type_id":"4","last_reported":1747239194,"current_range_meters":7200,"station_id":"ce4bhqp2rcd13ifvqhng","pricing_plan_id":"cebpf4jnsgd1na2vs0mg"},{"bike_id":"6cc683a0-df3c-4d1c-8028-3de091d87964","system_id":"levelo_inurba_marseille","lat":43.29687,"lon":5.37312,"is_reserved":false,"is_disabled":false,"rental_uris":{"android":"levelo://app?vid=6cc683a0-df3c-4d1c-8028-3de091d87964","ios":"levelo://app?vid=6cc683a0-df3c-4d1c-8028-3de091d87964"},"vehicle_type_id":"4","last_reported":1747239194,"current_range_meters":8000,"station_id":"","pricing_plan_id":"cebpf4jnsgd1na2vs0mg"},{"bike_id":"2de118d4-469e-4086-a5fc-e2f9314b03a8","system_id":"levelo_inurba_marseille","lat":43.27393,"lon":5.36275,"is_reserved":false,"is_disabled":false,"rental_uris":{"android":"levelo://app?vid=2de118d4-469e-4086-a5fc-e2f9314b03a8","ios":"levelo://app?vid=2de118d4-469e-4086-a5fc-e2f9314b03a8"},"vehicle_type_id":"4","last_reported":1747239194,"current_range_meters":8000,"station_id":"ce4bhbh2rcd13ifvqeo0","pricing_plan_id":"cebpf4jnsgd1na2vs0mg"},{"bike_id":"7b3c9673-b34a-43cb-bf63-351d87d2dd7b","system_id":"levelo_inurba_marseille","lat":43.27971,"lon":5.38735,"is_reserved":false,"is_disabled":false,"rental_uris":{"android":"levelo://app?vid=7b3c9673-b34a-43cb-bf63-351d87d2dd7b","ios":"levelo://app?vid=7b3c9673-b34a-43cb-bf63-351d87d2dd7b"},"vehicle_type_id":"4","last_reported":1747239194,"current_range_meters":8000,"station_id":"ce4bhg12rcd13ifvqf80","pricing_plan_id":"cebpf4jnsgd1na2vs0mg"},{"bike_id":"6bf71914-b72a-4f24-9227-5c4507d3f357","system_id":"levelo_inurba_marseille","lat":43.28154,"lon":5.4265,"is_reserved":false,"is_disabled":false,"rental_uris":{"android":"levelo://app?vid=6bf71914-b72a-4f24-9227-5c4507d3f357","ios":"levelo://app?vid=6bf71914-b72a-4f24-9227-5c4507d3f357"},"vehicle_type_id":"4","last_reported":1747239194,"current_range_meters":8000,"station_id":"ce4bhnh2rcd13ifvqgug","pricing_plan_id":"cebpf4jnsgd1na2vs0mg"},{"bike_id":"bdd92068-ecff-4e9c-ad2f-4559fc607cac","system_id":"levelo_inurba_marseille","lat":43.29069,"lon":5.37172,"is_reserved":false,"is_disabled":false,"rental_uris":{"android":"levelo://app?vid=bdd92068-ecff-4e9c-ad2f-4559fc607cac","ios":"levelo://app?vid=bdd92068-ecff-4e9c-ad2f-4559fc607cac"},"vehicle_type_id":"4","last_reported":1747239194,"current_range_meters":8400,"station_id":"ce4bh5p2rcd13ifvqe4g","pricing_plan_id":"cebpf4jnsgd1na2vs0mg"},{"bike_id":"be1af17b-4ad3-4f1e-a56d-99661b9c5761","system_id":"levelo_inurba_marseille","lat":43.29215,"lon":5.36067,"is_reserved":false,"is_disabled":false,"rental_uris":{"android":"levelo://app?vid=be1af17b-4ad3-4f1e-a56d-99661b9c5761","ios":"levelo://app?vid=be1af17b-4ad3-4f1e-a56d-99661b9c5761"},"vehicle_type_id":"4","last_reported":1747239194,"current_range_meters":8400,"station_id":"ce4bhbh2rcd13ifvqeqg","pricing_plan_id":"cebpf4jnsgd1na2vs0mg"},{"bike_id":"8e5d8a18-5603-4628-925e-44f9a2e1063b","system_id":"levelo_inurba_marseille","lat":43.27206,"lon":5.39208,"is_reserved":false,"is_disabled":false,"rental_uris":{"android":"levelo://app?vid=8e5d8a18-5603-4628-925e-44f9a2e1063b","ios":"levelo://app?vid=8e5d8a18-5603-4628-925e-44f9a2e1063b"},"vehicle_type_id":"4","last_reported":1747239194,"current_range_meters":8400,"station_id":"ce4bhhp2rcd13ifvqfm0","pricing_plan_id":"cebpf4jnsgd1na2vs0mg"},{"bike_id":"63ce18dc-a0c4-41dd-8f3d-62a5a8442890","system_id":"levelo_inurba_marseille","lat":43.322969,"lon":5.38271,"is_reserved":false,"is_disabled":false,"rental_uris":{"android":"levelo://app?vid=63ce18dc-a0c4-41dd-8f3d-62a5a8442890","ios":"levelo://app?vid=63ce18dc-a0c4-41dd-8f3d-62a5a8442890"},"vehicle_type_id":"4","last_reported":1747239194,"current_range_meters":8400,"station_id":"ce4bhr12rcd13ifvqhqg","pricing_plan_id":"cebpf4jnsgd1na2vs0mg"},{"bike_id":"6c5e2750-bf55-4812-bb81-a9df60873a61","system_id":"levelo_inurba_marseille","lat":43.29639,"lon":5.36185,"is_reserved":false,"is_disabled":false,"rental_uris":{"android":"levelo://app?vid=6c5e2750-bf55-4812-bb81-a9df60873a61","ios":"levelo://app?vid=6c5e2750-bf55-4812-bb81-a9df60873a61"},"vehicle_type_id":"4","last_reported":1747239194,"current_range_meters":8800,"station_id":"","pricing_plan_id":"cebpf4jnsgd1na2vs0mg"},{"bike_id":"c59983a6-f245-4456-bcc3-ec665dad0397","system_id":"levelo_inurba_marseille","lat":43.29786,"lon":5.37101,"is_reserved":false,"is_disabled":false,"rental_uris":{"android":"levelo://app?vid=c59983a6-f245-4456-bcc3-ec665dad0397","ios":"levelo://app?vid=c59983a6-f245-4456-bcc3-ec665dad0397"},"vehicle_type_id":"4","last_reported":1747239194,"current_range_meters":8800,"station_id":"ce4bgop2rcd13ifvqc1g","pricing_plan_id":"cebpf4jnsgd1na2vs0mg"},{"bike_id":"6106380d-85ab-4ae2-937e-e36186efb63f","system_id":"levelo_inurba_marseille","lat":43.289978,"lon":5.356238,"is_reserved":false,"is_disabled":false,"rental_uris":{"android":"levelo://app?vid=6106380d-85ab-4ae2-937e-e36186efb63f","ios":"levelo://app?vid=6106380d-85ab-4ae2-937e-e36186efb63f"},"vehicle_type_id":"4","last_reported":1747239194,"current_range_meters":8800,"station_id":"ce4bhb92rcd13ifvqen0","pricing_plan_id":"cebpf4jnsgd1na2vs0mg"},{"bike_id":"fd238668-9f0d-4a05-999b-5604498fddce","system_id":"levelo_inurba_marseille","lat":43.31884,"lon":5.40751,"is_reserved":false,"is_disabled":false,"rental_uris":{"android":"levelo://app?vid=fd238668-9f0d-4a05-999b-5604498fddce","ios":"levelo://app?vid=fd238668-9f0d-4a05-999b-5604498fddce"},"vehicle_type_id":"4","last_reported":1747239194,"current_range_meters":8800,"station_id":"ce4bhq12rcd13ifvqhig","pricing_plan_id":"cebpf4jnsgd1na2vs0mg"},{"bike_id":"f516bdec-657c-46f1-abec-ebfac75025ea","system_id":"levelo_inurba_marseille","lat":43.22936,"lon":5.35379,"is_reserved":false,"is_disabled":false,"rental_uris":{"android":"levelo://app?vid=f516bdec-657c-46f1-abec-ebfac75025ea","ios":"levelo://app?vid=f516bdec-657c-46f1-abec-ebfac75025ea"},"vehicle_type_id":"4","last_reported":1747239194,"current_range_meters":8800,"station_id":"cpo3532slgdg3j2ikp40","pricing_plan_id":"cebpf4jnsgd1na2vs0mg"},{"bike_id":"06e38efe-acf2-4f47-8519-c199dc8637e7","system_id":"levelo_inurba_marseille","lat":43.28668,"lon":5.36353,"is_reserved":false,"is_disabled":false,"rental_uris":{"android":"levelo://app?vid=06e38efe-acf2-4f47-8519-c199dc8637e7","ios":"levelo://app?vid=06e38efe-acf2-4f47-8519-c199dc8637e7"},"vehicle_type_id":"4","last_reported":1747239194,"current_range_meters":9200,"station_id":"ce4bhah2rcd13ifvqej0","pricing_plan_id":"cebpf4jnsgd1na2vs0mg"},{"bike_id":"930fe77e-7292-45b9-8071-dbb8730eaa55","system_id":"levelo_inurba_marseille","lat":43.27381,"lon":5.36248,"is_reserved":false,"is_disabled":false,"rental_uris":{"android":"levelo://app?vid=930fe77e-7292-45b9-8071-dbb8730eaa55","ios":"levelo://app?vid=930fe77e-7292-45b9-8071-dbb8730eaa55"},"vehicle_type_id":"4","last_reported":1747239194,"current_range_meters":9200,"station_id":"ce4bhbh2rcd13ifvqeo0","pricing_plan_id":"cebpf4jnsgd1na2vs0mg"},{"bike_id":"f7fc1f84-f9d3-4df0-9774-4ef9819400e3","system_id":"levelo_inurba_marseille","lat":43.2549,"lon":5.37651,"is_reserved":false,"is_disabled":false,"rental_uris":{"android":"levelo://app?vid=f7fc1f84-f9d3-4df0-9774-4ef9819400e3","ios":"levelo://app?vid=f7fc1f84-f9d3-4df0-9774-4ef9819400e3"},"vehicle_type_id":"4","last_reported":1747239194,"current_range_meters":9200,"station_id":"ce4bhh12rcd13ifvqff0","pricing_plan_id":"cebpf4jnsgd1na2vs0mg"},{"bike_id":"1561d8ea-8f1d-45d2-9de4-6d62bad9fd10","system_id":"levelo_inurba_marseille","lat":43.295758,"lon":5.375177,"is_reserved":false,"is_disabled":false,"rental_uris":{"android":"levelo://app?vid=1561d8ea-8f1d-45d2-9de4-6d62bad9fd10","ios":"levelo://app?vid=1561d8ea-8f1d-45d2-9de4-6d62bad9fd10"},"vehicle_type_id":"4","last_reported":1747239194,"current_range_meters":9600,"station_id":"ce4bgh92rcd13ifvqb50","pricing_plan_id":"cebpf4jnsgd1na2vs0mg"},{"bike_id":"00b1ba59-3f17-4d3b-9dfc-4430a5414ab3","system_id":"levelo_inurba_marseille","lat":43.30929,"lon":5.40148,"is_reserved":false,"is_disabled":false,"rental_uris":{"android":"levelo://app?vid=00b1ba59-3f17-4d3b-9dfc-4430a5414ab3","ios":"levelo://app?vid=00b1ba59-3f17-4d3b-9dfc-4430a5414ab3"},"vehicle_type_id":"4","last_reported":1747239194,"current_range_meters":9600,"station_id":"ce4bgvp2rcd13ifvqct0","pricing_plan_id":"cebpf4jnsgd1na2vs0mg"},{"bike_id":"f4f2764c-9286-4c08-9286-4de704f917c9","system_id":"levelo_inurba_marseille","lat":43.32657,"lon":5.40983,"is_reserved":false,"is_disabled":false,"rental_uris":{"android":"levelo://app?vid=f4f2764c-9286-4c08-9286-4de704f917c9","ios":"levelo://app?vid=f4f2764c-9286-4c08-9286-4de704f917c9"},"vehicle_type_id":"4","last_reported":1747239194,"current_range_meters":9600,"station_id":"ce4bhpp2rcd13ifvqhgg","pricing_plan_id":"cebpf4jnsgd1na2vs0mg"},{"bike_id":"22df9d24-71cd-493b-bd1b-3e49a1287f80","system_id":"levelo_inurba_marseille","lat":43.28613,"lon":5.35082,"is_reserved":false,"is_disabled":false,"rental_uris":{"android":"levelo://app?vid=22df9d24-71cd-493b-bd1b-3e49a1287f80","ios":"levelo://app?vid=22df9d24-71cd-493b-bd1b-3e49a1287f80"},"vehicle_type_id":"4","last_reported":1747239194,"current_range_meters":10000,"station_id":"ce4bhch2rcd13ifvqeug","pricing_plan_id":"cebpf4jnsgd1na2vs0mg"},{"bike_id":"bb287a8d-89c1-4a44-a97f-e8d5f4f78927","system_id":"levelo_inurba_marseille","lat":43.27997,"lon":5.41689,"is_reserved":false,"is_disabled":false,"rental_uris":{"android":"levelo://app?vid=bb287a8d-89c1-4a44-a97f-e8d5f4f78927","ios":"levelo://app?vid=bb287a8d-89c1-4a44-a97f-e8d5f4f78927"},"vehicle_type_id":"4","last_reported":1747239194,"current_range_meters":10000,"station_id":"ce4bho12rcd13ifvqh1g","pricing_plan_id":"cebpf4jnsgd1na2vs0mg"},{"bike_id":"3faf053c-e846-4d83-83ee-8fd51efc38bb","system_id":"levelo_inurba_marseille","lat":43.321056,"lon":5.367908,"is_reserved":false,"is_disabled":false,"rental_uris":{"android":"levelo://app?vid=3faf053c-e846-4d83-83ee-8fd51efc38bb","ios":"levelo://app?vid=3faf053c-e846-4d83-83ee-8fd51efc38bb"},"vehicle_type_id":"4","last_reported":1747239194,"current_range_meters":10000,"station_id":"ce4bhrh2rcd13ifvqhug","pricing_plan_id":"cebpf4jnsgd1na2vs0mg"},{"bike_id":"f740f5ab-58a5-40a3-9ed6-922b7bf10ef9","system_id":"levelo_inurba_marseille","lat":43.27619,"lon":5.36107,"is_reserved":false,"is_disabled":false,"rental_uris":{"android":"levelo://app?vid=f740f5ab-58a5-40a3-9ed6-922b7bf10ef9","ios":"levelo://app?vid=f740f5ab-58a5-40a3-9ed6-922b7bf10ef9"},"vehicle_type_id":"4","last_reported":1747239194,"current_range_meters":10800,"station_id":"ce4bgj92rcd13ifvqbe0","pricing_plan_id":"cebpf4jnsgd1na2vs0mg"},{"bike_id":"c879e740-96aa-4b52-aa92-9329d7c53f5c","system_id":"levelo_inurba_marseille","lat":43.28351,"lon":5.38108,"is_reserved":false,"is_disabled":false,"rental_uris":{"android":"levelo://app?vid=c879e740-96aa-4b52-aa92-9329d7c53f5c","ios":"levelo://app?vid=c879e740-96aa-4b52-aa92-9329d7c53f5c"},"vehicle_type_id":"4","last_reported":1747239194,"current_range_meters":10800,"station_id":"ce4bh412rcd13ifvqdr0","pricing_plan_id":"cebpf4jnsgd1na2vs0mg"},{"bike_id":"f97c1d73-3292-4c23-8dd9-67703dd18af1","system_id":"levelo_inurba_marseille","lat":43.29029,"lon":5.35914,"is_reserved":false,"is_disabled":false,"rental_uris":{"android":"levelo://app?vid=f97c1d73-3292-4c23-8dd9-67703dd18af1","ios":"levelo://app?vid=f97c1d73-3292-4c23-8dd9-67703dd18af1"},"vehicle_type_id":"4","last_reported":1747239194,"current_range_meters":10800,"station_id":"ce4bha92rcd13ifvqeg0","pricing_plan_id":"cebpf4jnsgd1na2vs0mg"},{"bike_id":"ebfedfe6-dee9-4129-9a75-1c0038169595","system_id":"levelo_inurba_marseille","lat":43.2862,"lon":5.35107,"is_reserved":false,"is_disabled":false,"rental_uris":{"android":"levelo://app?vid=ebfedfe6-dee9-4129-9a75-1c0038169595","ios":"levelo://app?vid=ebfedfe6-dee9-4129-9a75-1c0038169595"},"vehicle_type_id":"4","last_reported":1747239194,"current_range_meters":10800,"station_id":"ce4bhch2rcd13ifvqeug","pricing_plan_id":"cebpf4jnsgd1na2vs0mg"},{"bike_id":"40428877-2fab-46a8-bc09-4bf3ec86df78","system_id":"levelo_inurba_marseille","lat":43.27179,"lon":5.40993,"is_reserved":false,"is_disabled":false,"rental_uris":{"android":"levelo://app?vid=40428877-2fab-46a8-bc09-4bf3ec86df78","ios":"levelo://app?vid=40428877-2fab-46a8-bc09-4bf3ec86df78"},"vehicle_type_id":"4","last_reported":1747239194,"current_range_meters":10800,"station_id":"ce4bhl12rcd13ifvqgf0","pricing_plan_id":"cebpf4jnsgd1na2vs0mg"},{"bike_id":"e3faef6f-635a-4b6b-b2b3-c0b918604df6","system_id":"levelo_inurba_marseille","lat":43.29902,"lon":5.43671,"is_reserved":false,"is_disabled":false,"rental_uris":{"android":"levelo://app?vid=e3faef6f-635a-4b6b-b2b3-c0b918604df6","ios":"levelo://app?vid=e3faef6f-635a-4b6b-b2b3-c0b918604df6"},"vehicle_type_id":"4","last_reported":1747239194,"current_range_meters":10800,"station_id":"ce4bhpp2rcd13ifvqhfg","pricing_plan_id":"cebpf4jnsgd1na2vs0mg"},{"bike_id":"b66b454e-94a3-4ad2-8cbe-795ac765acdd","system_id":"levelo_inurba_marseille","lat":43.32369,"lon":5.38896,"is_reserved":false,"is_disabled":false,"rental_uris":{"android":"levelo://app?vid=b66b454e-94a3-4ad2-8cbe-795ac765acdd","ios":"levelo://app?vid=b66b454e-94a3-4ad2-8cbe-795ac765acdd"},"vehicle_type_id":"4","last_reported":1747239194,"current_range_meters":10800,"station_id":"ce4bhqp2rcd13ifvqhog","pricing_plan_id":"cebpf4jnsgd1na2vs0mg"},{"bike_id":"39aa1628-822e-4ce2-a2a5-c0f8adefac2f","system_id":"levelo_inurba_marseille","lat":43.337199,"lon":5.391898,"is_reserved":false,"is_disabled":false,"rental_uris":{"android":"levelo://app?vid=39aa1628-822e-4ce2-a2a5-c0f8adefac2f","ios":"levelo://app?vid=39aa1628-822e-4ce2-a2a5-c0f8adefac2f"},"vehicle_type_id":"4","last_reported":1747239194,"current_range_meters":10800,"station_id":"ce4bhr92rcd13ifvqhsg","pricing_plan_id":"cebpf4jnsgd1na2vs0mg"},{"bike_id":"369b510a-87a5-433d-9122-9a2b9a4305ea","system_id":"levelo_inurba_marseille","lat":43.28269,"lon":5.35066,"is_reserved":false,"is_disabled":false,"rental_uris":{"android":"levelo://app?vid=369b510a-87a5-433d-9122-9a2b9a4305ea","ios":"levelo://app?vid=369b510a-87a5-433d-9122-9a2b9a4305ea"},"vehicle_type_id":"4","last_reported":1747239194,"current_range_meters":11200,"station_id":"ce4bhbp2rcd13ifvqerg","pricing_plan_id":"cebpf4jnsgd1na2vs0mg"},{"bike_id":"5d1e3926-8c1a-433d-889d-05140e632d11","system_id":"levelo_inurba_marseille","lat":43.308243,"lon":5.372323,"is_reserved":false,"is_disabled":false,"rental_uris":{"android":"levelo://app?vid=5d1e3926-8c1a-433d-889d-05140e632d11","ios":"levelo://app?vid=5d1e3926-8c1a-433d-889d-05140e632d11"},"vehicle_type_id":"4","last_reported":1747239194,"current_range_meters":11600,"station_id":"","pricing_plan_id":"cebpf4jnsgd1na2vs0mg"},{"bike_id":"c0952769-6991-4bba-809e-7701e6b87fd7","system_id":"levelo_inurba_marseille","lat":43.29192,"lon":5.35804,"is_reserved":false,"is_disabled":false,"rental_uris":{"android":"levelo://app?vid=c0952769-6991-4bba-809e-7701e6b87fd7","ios":"levelo://app?vid=c0952769-6991-4bba-809e-7701e6b87fd7"},"vehicle_type_id":"4","last_reported":1747239194,"current_range_meters":11600,"station_id":"ce4bhb12rcd13ifvqel0","pricing_plan_id":"cebpf4jnsgd1na2vs0mg"},{"bike_id":"8c30d365-d33a-4d42-b0b0-99a0e36a9537","system_id":"levelo_inurba_marseille","lat":43.28615,"lon":5.35106,"is_reserved":false,"is_disabled":false,"rental_uris":{"android":"levelo://app?vid=8c30d365-d33a-4d42-b0b0-99a0e36a9537","ios":"levelo://app?vid=8c30d365-d33a-4d42-b0b0-99a0e36a9537"},"vehicle_type_id":"4","last_reported":1747239194,"current_range_meters":11600,"station_id":"ce4bhch2rcd13ifvqeug","pricing_plan_id":"cebpf4jnsgd1na2vs0mg"},{"bike_id":"519e2294-3210-4c8b-98d9-84b110fc5dd9","system_id":"levelo_inurba_marseille","lat":43.27562,"lon":5.38428,"is_reserved":false,"is_disabled":false,"rental_uris":{"android":"levelo://app?vid=519e2294-3210-4c8b-98d9-84b110fc5dd9","ios":"levelo://app?vid=519e2294-3210-4c8b-98d9-84b110fc5dd9"},"vehicle_type_id":"4","last_reported":1747239194,"current_range_meters":11600,"station_id":"ce4bhh92rcd13ifvqfi0","pricing_plan_id":"cebpf4jnsgd1na2vs0mg"},{"bike_id":"f8cc617f-9e99-4d3e-b1e2-4519a7fafa2c","system_id":"levelo_inurba_marseille","lat":43.30434,"lon":5.3975,"is_reserved":false,"is_disabled":false,"rental_uris":{"android":"levelo://app?vid=f8cc617f-9e99-4d3e-b1e2-4519a7fafa2c","ios":"levelo://app?vid=f8cc617f-9e99-4d3e-b1e2-4519a7fafa2c"},"vehicle_type_id":"4","last_reported":1747239194,"current_range_meters":12000,"station_id":"ce4bh092rcd13ifvqd20","pricing_plan_id":"cebpf4jnsgd1na2vs0mg"},{"bike_id":"8b9170e1-174e-4f33-a022-ac87a0b76c2f","system_id":"levelo_inurba_marseille","lat":43.30085,"lon":5.39065,"is_reserved":false,"is_disabled":false,"rental_uris":{"android":"levelo://app?vid=8b9170e1-174e-4f33-a022-ac87a0b76c2f","ios":"levelo://app?vid=8b9170e1-174e-4f33-a022-ac87a0b76c2f"},"vehicle_type_id":"4","last_reported":1747239194,"current_range_meters":12000,"station_id":"ce4bh192rcd13ifvqdb0","pricing_plan_id":"cebpf4jnsgd1na2vs0mg"},{"bike_id":"c7363163-1793-4711-ab50-434037ac4b94","system_id":"levelo_inurba_marseille","lat":43.28261,"lon":5.3508,"is_reserved":false,"is_disabled":false,"rental_uris":{"android":"levelo://app?vid=c7363163-1793-4711-ab50-434037ac4b94","ios":"levelo://app?vid=c7363163-1793-4711-ab50-434037ac4b94"},"vehicle_type_id":"4","last_reported":1747239194,"current_range_meters":12000,"station_id":"ce4bhbp2rcd13ifvqerg","pricing_plan_id":"cebpf4jnsgd1na2vs0mg"},{"bike_id":"426600be-a9e4-4cbb-9eab-70190416ddd6","system_id":"levelo_inurba_marseille","lat":43.24661,"lon":5.38167,"is_reserved":false,"is_disabled":false,"rental_uris":{"android":"levelo://app?vid=426600be-a9e4-4cbb-9eab-70190416ddd6","ios":"levelo://app?vid=426600be-a9e4-4cbb-9eab-70190416ddd6"},"vehicle_type_id":"4","last_reported":1747239194,"current_range_meters":12000,"station_id":"ce4bhih2rcd13ifvqfr0","pricing_plan_id":"cebpf4jnsgd1na2vs0mg"},{"bike_id":"edddf9e4-5a75-4365-ba3b-e2c36c99ffe8","system_id":"levelo_inurba_marseille","lat":43.231871,"lon":5.39992,"is_reserved":false,"is_disabled":false,"rental_uris":{"android":"levelo://app?vid=edddf9e4-5a75-4365-ba3b-e2c36c99ffe8","ios":"levelo://app?vid=edddf9e4-5a75-4365-ba3b-e2c36c99ffe8"},"vehicle_type_id":"4","last_reported":1747239194,"current_range_meters":12000,"station_id":"ce4bhn12rcd13ifvqgqg","pricing_plan_id":"cebpf4jnsgd1na2vs0mg"},{"bike_id":"8627ad2c-18c3-4371-b797-50bdcc08edbf","system_id":"levelo_inurba_marseille","lat":43.215393,"lon":5.34768,"is_reserved":false,"is_disabled":false,"rental_uris":{"android":"levelo://app?vid=8627ad2c-18c3-4371-b797-50bdcc08edbf","ios":"levelo://app?vid=8627ad2c-18c3-4371-b797-50bdcc08edbf"},"vehicle_type_id":"4","last_reported":1747239194,"current_range_meters":12400,"station_id":"","pricing_plan_id":"cebpf4jnsgd1na2vs0mg"},{"bike_id":"5d59e912-457b-4bb9-96fc-6e3a170035e6","system_id":"levelo_inurba_marseille","lat":43.2941,"lon":5.38635,"is_reserved":false,"is_disabled":false,"rental_uris":{"android":"levelo://app?vid=5d59e912-457b-4bb9-96fc-6e3a170035e6","ios":"levelo://app?vid=5d59e912-457b-4bb9-96fc-6e3a170035e6"},"vehicle_type_id":"4","last_reported":1747239194,"current_range_meters":12800,"station_id":"ce4bh2h2rcd13ifvqdh0","pricing_plan_id":"cebpf4jnsgd1na2vs0mg"},{"bike_id":"fb3d1a18-2076-45b4-80b7-13ad412be39c","system_id":"levelo_inurba_marseille","lat":43.2905,"lon":5.35929,"is_reserved":false,"is_disabled":false,"rental_uris":{"android":"levelo://app?vid=fb3d1a18-2076-45b4-80b7-13ad412be39c","ios":"levelo://app?vid=fb3d1a18-2076-45b4-80b7-13ad412be39c"},"vehicle_type_id":"4","last_reported":1747239194,"current_range_meters":12800,"station_id":"ce4bha92rcd13ifvqeg0","pricing_plan_id":"cebpf4jnsgd1na2vs0mg"},{"bike_id":"949fb2dd-8e2e-4bff-850b-9fe758c85b4e","system_id":"levelo_inurba_marseille","lat":43.29196,"lon":5.35817,"is_reserved":false,"is_disabled":false,"rental_uris":{"android":"levelo://app?vid=949fb2dd-8e2e-4bff-850b-9fe758c85b4e","ios":"levelo://app?vid=949fb2dd-8e2e-4bff-850b-9fe758c85b4e"},"vehicle_type_id":"4","last_reported":1747239194,"current_range_meters":12800,"station_id":"ce4bhb12rcd13ifvqel0","pricing_plan_id":"cebpf4jnsgd1na2vs0mg"},{"bike_id":"6d3d057f-0097-47c9-82e2-e6bc47202d9e","system_id":"levelo_inurba_marseille","lat":43.29227,"lon":5.36081,"is_reserved":false,"is_disabled":false,"rental_uris":{"android":"levelo://app?vid=6d3d057f-0097-47c9-82e2-e6bc47202d9e","ios":"levelo://app?vid=6d3d057f-0097-47c9-82e2-e6bc47202d9e"},"vehicle_type_id":"4","last_reported":1747239194,"current_range_meters":12800,"station_id":"ce4bhbh2rcd13ifvqeqg","pricing_plan_id":"cebpf4jnsgd1na2vs0mg"},{"bike_id":"f56d45ba-7adf-43a9-9c46-9a29fee49dea","system_id":"levelo_inurba_marseille","lat":43.254947,"lon":5.37645,"is_reserved":false,"is_disabled":false,"rental_uris":{"android":"levelo://app?vid=f56d45ba-7adf-43a9-9c46-9a29fee49dea","ios":"levelo://app?vid=f56d45ba-7adf-43a9-9c46-9a29fee49dea"},"vehicle_type_id":"4","last_reported":1747239194,"current_range_meters":12800,"station_id":"ce4bhh12rcd13ifvqff0","pricing_plan_id":"cebpf4jnsgd1na2vs0mg"},{"bike_id":"6aa4be40-b608-4433-8c62-9c53506ed878","system_id":"levelo_inurba_marseille","lat":43.30545,"lon":5.38451,"is_reserved":false,"is_disabled":false,"rental_uris":{"android":"levelo://app?vid=6aa4be40-b608-4433-8c62-9c53506ed878","ios":"levelo://app?vid=6aa4be40-b608-4433-8c62-9c53506ed878"},"vehicle_type_id":"4","last_reported":1747239194,"current_range_meters":13600,"station_id":"ce4bgg92rcd13ifvqb30","pricing_plan_id":"cebpf4jnsgd1na2vs0mg"},{"bike_id":"326c4ec4-5808-4326-8974-787ce32371b1","system_id":"levelo_inurba_marseille","lat":43.31883,"lon":5.4075,"is_reserved":false,"is_disabled":false,"rental_uris":{"android":"levelo://app?vid=326c4ec4-5808-4326-8974-787ce32371b1","ios":"levelo://app?vid=326c4ec4-5808-4326-8974-787ce32371b1"},"vehicle_type_id":"4","last_reported":1747239194,"current_range_meters":13600,"station_id":"ce4bhq12rcd13ifvqhig","pricing_plan_id":"cebpf4jnsgd1na2vs0mg"},{"bike_id":"1650302b-497b-4bbd-8c2a-9edef6b2a9c9","system_id":"levelo_inurba_marseille","lat":43.2843,"lon":5.35013,"is_reserved":false,"is_disabled":false,"rental_uris":{"android":"levelo://app?vid=1650302b-497b-4bbd-8c2a-9edef6b2a9c9","ios":"levelo://app?vid=1650302b-497b-4bbd-8c2a-9edef6b2a9c9"},"vehicle_type_id":"4","last_reported":1747239194,"current_range_meters":14000,"station_id":"ce4bhbh2rcd13ifvqepg","pricing_plan_id":"cebpf4jnsgd1na2vs0mg"},{"bike_id":"17d57f58-ffb0-4d77-bbe5-7f462887ac74","system_id":"levelo_inurba_marseille","lat":43.24193,"lon":5.39717,"is_reserved":false,"is_disabled":false,"rental_uris":{"android":"levelo://app?vid=17d57f58-ffb0-4d77-bbe5-7f462887ac74","ios":"levelo://app?vid=17d57f58-ffb0-4d77-bbe5-7f462887ac74"},"vehicle_type_id":"4","last_reported":1747239194,"current_range_meters":14000,"station_id":"ce4bhn12rcd13ifvqgpg","pricing_plan_id":"cebpf4jnsgd1na2vs0mg"},{"bike_id":"f06040fa-bc2c-4ac7-a868-973c074f8750","system_id":"levelo_inurba_marseille","lat":43.29872,"lon":5.39727,"is_reserved":false,"is_disabled":false,"rental_uris":{"android":"levelo://app?vid=f06040fa-bc2c-4ac7-a868-973c074f8750","ios":"levelo://app?vid=f06040fa-bc2c-4ac7-a868-973c074f8750"},"vehicle_type_id":"4","last_reported":1747239194,"current_range_meters":14400,"station_id":"ce4bh0h2rcd13ifvqd50","pricing_plan_id":"cebpf4jnsgd1na2vs0mg"},{"bike_id":"77cbceda-beb7-48b1-8301-432d24b9f4d5","system_id":"levelo_inurba_marseille","lat":43.29022,"lon":5.35613,"is_reserved":false,"is_disabled":false,"rental_uris":{"android":"levelo://app?vid=77cbceda-beb7-48b1-8301-432d24b9f4d5","ios":"levelo://app?vid=77cbceda-beb7-48b1-8301-432d24b9f4d5"},"vehicle_type_id":"4","last_reported":1747239194,"current_range_meters":14400,"station_id":"ce4bhb92rcd13ifvqen0","pricing_plan_id":"cebpf4jnsgd1na2vs0mg"},{"bike_id":"cb449aeb-63bf-4e11-a01d-928c7eea1054","system_id":"levelo_inurba_marseille","lat":43.28648,"lon":5.35113,"is_reserved":false,"is_disabled":false,"rental_uris":{"android":"levelo://app?vid=cb449aeb-63bf-4e11-a01d-928c7eea1054","ios":"levelo://app?vid=cb449aeb-63bf-4e11-a01d-928c7eea1054"},"vehicle_type_id":"4","last_reported":1747239194,"current_range_meters":14400,"station_id":"ce4bhch2rcd13ifvqeug","pricing_plan_id":"cebpf4jnsgd1na2vs0mg"},{"bike_id":"2cd3ad1a-4476-4a3a-8f8a-5468139c3f96","system_id":"levelo_inurba_marseille","lat":43.31529,"lon":5.38041,"is_reserved":false,"is_disabled":false,"rental_uris":{"android":"levelo://app?vid=2cd3ad1a-4476-4a3a-8f8a-5468139c3f96","ios":"levelo://app?vid=2cd3ad1a-4476-4a3a-8f8a-5468139c3f96"},"vehicle_type_id":"4","last_reported":1747239194,"current_range_meters":14400,"station_id":"ce4bhsp2rcd13ifvqi50","pricing_plan_id":"cebpf4jnsgd1na2vs0mg"},{"bike_id":"d968945f-c457-44d1-bcca-f8b9b084af51","system_id":"levelo_inurba_marseille","lat":43.30864,"lon":5.37782,"is_reserved":false,"is_disabled":false,"rental_uris":{"android":"levelo://app?vid=d968945f-c457-44d1-bcca-f8b9b084af51","ios":"levelo://app?vid=d968945f-c457-44d1-bcca-f8b9b084af51"},"vehicle_type_id":"4","last_reported":1747239194,"current_range_meters":14800,"station_id":"ce4bgv92rcd13ifvqcq0","pricing_plan_id":"cebpf4jnsgd1na2vs0mg"},{"bike_id":"2c94990d-f152-479e-a6cf-4c3271666a5a","system_id":"levelo_inurba_marseille","lat":43.29629,"lon":5.40601,"is_reserved":false,"is_disabled":false,"rental_uris":{"android":"levelo://app?vid=2c94990d-f152-479e-a6cf-4c3271666a5a","ios":"levelo://app?vid=2c94990d-f152-479e-a6cf-4c3271666a5a"},"vehicle_type_id":"4","last_reported":1747239194,"current_range_meters":14800,"station_id":"ce4bh0h2rcd13ifvqd60","pricing_plan_id":"cebpf4jnsgd1na2vs0mg"},{"bike_id":"c8508823-fb91-4d24-bb46-07a5f7956d9c","system_id":"levelo_inurba_marseille","lat":43.2952,"lon":5.39028,"is_reserved":false,"is_disabled":false,"rental_uris":{"android":"levelo://app?vid=c8508823-fb91-4d24-bb46-07a5f7956d9c","ios":"levelo://app?vid=c8508823-fb91-4d24-bb46-07a5f7956d9c"},"vehicle_type_id":"4","last_reported":1747239194,"current_range_meters":14800,"station_id":"ce4bh3p2rcd13ifvqdp0","pricing_plan_id":"cebpf4jnsgd1na2vs0mg"},{"bike_id":"005e9a83-3207-43fd-831a-00b882ab36af","system_id":"levelo_inurba_marseille","lat":43.28701,"lon":5.37398,"is_reserved":false,"is_disabled":false,"rental_uris":{"android":"levelo://app?vid=005e9a83-3207-43fd-831a-00b882ab36af","ios":"levelo://app?vid=005e9a83-3207-43fd-831a-00b882ab36af"},"vehicle_type_id":"4","last_reported":1747239194,"current_range_meters":14800,"station_id":"ce4bh3p2rcd13ifvqdq0","pricing_plan_id":"cebpf4jnsgd1na2vs0mg"},{"bike_id":"706eec2d-24c0-4b9e-a231-07cdff1c7b05","system_id":"levelo_inurba_marseille","lat":43.27919,"lon":5.39579,"is_reserved":false,"is_disabled":false,"rental_uris":{"android":"levelo://app?vid=706eec2d-24c0-4b9e-a231-07cdff1c7b05","ios":"levelo://app?vid=706eec2d-24c0-4b9e-a231-07cdff1c7b05"},"vehicle_type_id":"4","last_reported":1747239194,"current_range_meters":14800,"station_id":"ce4bhf92rcd13ifvqf40","pricing_plan_id":"cebpf4jnsgd1na2vs0mg"},{"bike_id":"d20a7143-ef1d-4be0-8383-4c46e883551c","system_id":"levelo_inurba_marseille","lat":43.25504,"lon":5.37653,"is_reserved":false,"is_disabled":false,"rental_uris":{"android":"levelo://app?vid=d20a7143-ef1d-4be0-8383-4c46e883551c","ios":"levelo://app?vid=d20a7143-ef1d-4be0-8383-4c46e883551c"},"vehicle_type_id":"4","last_reported":1747239194,"current_range_meters":14800,"station_id":"ce4bhh12rcd13ifvqff0","pricing_plan_id":"cebpf4jnsgd1na2vs0mg"},{"bike_id":"af76b2e8-67fd-4ab4-84f2-6336f643664b","system_id":"levelo_inurba_marseille","lat":43.2799,"lon":5.40016,"is_reserved":false,"is_disabled":false,"rental_uris":{"android":"levelo://app?vid=af76b2e8-67fd-4ab4-84f2-6336f643664b","ios":"levelo://app?vid=af76b2e8-67fd-4ab4-84f2-6336f643664b"},"vehicle_type_id":"4","last_reported":1747239194,"current_range_meters":14800,"station_id":"ce4bho92rcd13ifvqh4g","pricing_plan_id":"cebpf4jnsgd1na2vs0mg"},{"bike_id":"a0bd6972-19b0-45d9-9c3f-09c584d67568","system_id":"levelo_inurba_marseille","lat":43.33614,"lon":5.41034,"is_reserved":false,"is_disabled":false,"rental_uris":{"android":"levelo://app?vid=a0bd6972-19b0-45d9-9c3f-09c584d67568","ios":"levelo://app?vid=a0bd6972-19b0-45d9-9c3f-09c584d67568"},"vehicle_type_id":"4","last_reported":1747239194,"current_range_meters":14800,"station_id":"ce4bhqh2rcd13ifvqhmg","pricing_plan_id":"cebpf4jnsgd1na2vs0mg"},{"bike_id":"615832e7-9efd-477a-baa7-39edf34f85aa","system_id":"levelo_inurba_marseille","lat":43.30794,"lon":5.37655,"is_reserved":false,"is_disabled":false,"rental_uris":{"android":"levelo://app?vid=615832e7-9efd-477a-baa7-39edf34f85aa","ios":"levelo://app?vid=615832e7-9efd-477a-baa7-39edf34f85aa"},"vehicle_type_id":"4","last_reported":1747239194,"current_range_meters":15200,"station_id":"ce4bgv92rcd13ifvqcq0","pricing_plan_id":"cebpf4jnsgd1na2vs0mg"},{"bike_id":"1c27bca1-7bde-4b5b-b62b-298f7a6b7506","system_id":"levelo_inurba_marseille","lat":43.24179,"lon":5.39732,"is_reserved":false,"is_disabled":false,"rental_uris":{"android":"levelo://app?vid=1c27bca1-7bde-4b5b-b62b-298f7a6b7506","ios":"levelo://app?vid=1c27bca1-7bde-4b5b-b62b-298f7a6b7506"},"vehicle_type_id":"4","last_reported":1747239194,"current_range_meters":15200,"station_id":"ce4bhn12rcd13ifvqgpg","pricing_plan_id":"cebpf4jnsgd1na2vs0mg"},{"bike_id":"5c9a28ee-6d64-4825-abdd-8f633c300e6c","system_id":"levelo_inurba_marseille","lat":43.31489,"lon":5.37313,"is_reserved":false,"is_disabled":false,"rental_uris":{"android":"levelo://app?vid=5c9a28ee-6d64-4825-abdd-8f633c300e6c","ios":"levelo://app?vid=5c9a28ee-6d64-4825-abdd-8f633c300e6c"},"vehicle_type_id":"4","last_reported":1747239194,"current_range_meters":16000,"station_id":"ce4bgt12rcd13ifvqcd0","pricing_plan_id":"cebpf4jnsgd1na2vs0mg"},{"bike_id":"01aa3f3d-f0fc-4f2c-88d1-77b2b29ec708","system_id":"levelo_inurba_marseille","lat":43.28696,"lon":5.37409,"is_reserved":false,"is_disabled":false,"rental_uris":{"android":"levelo://app?vid=01aa3f3d-f0fc-4f2c-88d1-77b2b29ec708","ios":"levelo://app?vid=01aa3f3d-f0fc-4f2c-88d1-77b2b29ec708"},"vehicle_type_id":"4","last_reported":1747239194,"current_range_meters":16000,"station_id":"ce4bh3p2rcd13ifvqdq0","pricing_plan_id":"cebpf4jnsgd1na2vs0mg"},{"bike_id":"9d5afb3c-f65b-448d-87c7-27ca74bb18df","system_id":"levelo_inurba_marseille","lat":43.28996,"lon":5.35622,"is_reserved":false,"is_disabled":false,"rental_uris":{"android":"levelo://app?vid=9d5afb3c-f65b-448d-87c7-27ca74bb18df","ios":"levelo://app?vid=9d5afb3c-f65b-448d-87c7-27ca74bb18df"},"vehicle_type_id":"4","last_reported":1747239194,"current_range_meters":16000,"station_id":"ce4bhb92rcd13ifvqen0","pricing_plan_id":"cebpf4jnsgd1na2vs0mg"},{"bike_id":"47a56423-c948-4d57-bf17-03fa22401ac6","system_id":"levelo_inurba_marseille","lat":43.24659,"lon":5.38169,"is_reserved":false,"is_disabled":false,"rental_uris":{"android":"levelo://app?vid=47a56423-c948-4d57-bf17-03fa22401ac6","ios":"levelo://app?vid=47a56423-c948-4d57-bf17-03fa22401ac6"},"vehicle_type_id":"4","last_reported":1747239194,"current_range_meters":16400,"station_id":"ce4bhih2rcd13ifvqfr0","pricing_plan_id":"cebpf4jnsgd1na2vs0mg"},{"bike_id":"5b2bf2cc-e79c-4a99-a91f-20d49657d90b","system_id":"levelo_inurba_marseille","lat":43.24172,"lon":5.39765,"is_reserved":false,"is_disabled":false,"rental_uris":{"android":"levelo://app?vid=5b2bf2cc-e79c-4a99-a91f-20d49657d90b","ios":"levelo://app?vid=5b2bf2cc-e79c-4a99-a91f-20d49657d90b"},"vehicle_type_id":"4","last_reported":1747239194,"current_range_meters":16400,"station_id":"ce4bhn12rcd13ifvqgpg","pricing_plan_id":"cebpf4jnsgd1na2vs0mg"},{"bike_id":"94425245-09df-4108-9a30-610dbcaf2585","system_id":"levelo_inurba_marseille","lat":43.31713,"lon":5.42426,"is_reserved":false,"is_disabled":false,"rental_uris":{"android":"levelo://app?vid=94425245-09df-4108-9a30-610dbcaf2585","ios":"levelo://app?vid=94425245-09df-4108-9a30-610dbcaf2585"},"vehicle_type_id":"4","last_reported":1747239194,"current_range_meters":16400,"station_id":"ce4bhp92rcd13ifvqhbg","pricing_plan_id":"cebpf4jnsgd1na2vs0mg"},{"bike_id":"50230c81-6a7b-42c5-bc4f-474db07bba27","system_id":"levelo_inurba_marseille","lat":43.31758,"lon":5.39011,"is_reserved":false,"is_disabled":false,"rental_uris":{"android":"levelo://app?vid=50230c81-6a7b-42c5-bc4f-474db07bba27","ios":"levelo://app?vid=50230c81-6a7b-42c5-bc4f-474db07bba27"},"vehicle_type_id":"4","last_reported":1747239194,"current_range_meters":16400,"station_id":"ce4bhqp2rcd13ifvqhng","pricing_plan_id":"cebpf4jnsgd1na2vs0mg"},{"bike_id":"cec32bab-5894-4ac2-97eb-b76126dea5dd","system_id":"levelo_inurba_marseille","lat":43.32288,"lon":5.38274,"is_reserved":false,"is_disabled":false,"rental_uris":{"android":"levelo://app?vid=cec32bab-5894-4ac2-97eb-b76126dea5dd","ios":"levelo://app?vid=cec32bab-5894-4ac2-97eb-b76126dea5dd"},"vehicle_type_id":"4","last_reported":1747239194,"current_range_meters":16400,"station_id":"ce4bhr12rcd13ifvqhqg","pricing_plan_id":"cebpf4jnsgd1na2vs0mg"},{"bike_id":"a0fd54c0-4c17-41ee-9f2f-af0a81d9b4a1","system_id":"levelo_inurba_marseille","lat":43.33745,"lon":5.39194,"is_reserved":false,"is_disabled":false,"rental_uris":{"android":"levelo://app?vid=a0fd54c0-4c17-41ee-9f2f-af0a81d9b4a1","ios":"levelo://app?vid=a0fd54c0-4c17-41ee-9f2f-af0a81d9b4a1"},"vehicle_type_id":"4","last_reported":1747239194,"current_range_meters":16400,"station_id":"ce4bhr92rcd13ifvqhsg","pricing_plan_id":"cebpf4jnsgd1na2vs0mg"},{"bike_id":"ae236008-c91c-41b1-a45c-d8d61680b83e","system_id":"levelo_inurba_marseille","lat":43.27572,"lon":5.384543,"is_reserved":false,"is_disabled":false,"rental_uris":{"android":"levelo://app?vid=ae236008-c91c-41b1-a45c-d8d61680b83e","ios":"levelo://app?vid=ae236008-c91c-41b1-a45c-d8d61680b83e"},"vehicle_type_id":"4","last_reported":1747239194,"current_range_meters":16800,"station_id":"ce4bhh92rcd13ifvqfi0","pricing_plan_id":"cebpf4jnsgd1na2vs0mg"},{"bike_id":"2c935335-dc00-4631-9a88-e70f9ad95064","system_id":"levelo_inurba_marseille","lat":43.29621,"lon":5.37165,"is_reserved":false,"is_disabled":false,"rental_uris":{"android":"levelo://app?vid=2c935335-dc00-4631-9a88-e70f9ad95064","ios":"levelo://app?vid=2c935335-dc00-4631-9a88-e70f9ad95064"},"vehicle_type_id":"4","last_reported":1747239194,"current_range_meters":17200,"station_id":"ce4bgnh2rcd13ifvqc0g","pricing_plan_id":"cebpf4jnsgd1na2vs0mg"},{"bike_id":"cbe5e974-f845-4177-a84d-1994a3bfad18","system_id":"levelo_inurba_marseille","lat":43.29517,"lon":5.39412,"is_reserved":false,"is_disabled":false,"rental_uris":{"android":"levelo://app?vid=cbe5e974-f845-4177-a84d-1994a3bfad18","ios":"levelo://app?vid=cbe5e974-f845-4177-a84d-1994a3bfad18"},"vehicle_type_id":"4","last_reported":1747239194,"current_range_meters":17200,"station_id":"ce4bh292rcd13ifvqdf0","pricing_plan_id":"cebpf4jnsgd1na2vs0mg"},{"bike_id":"4810f7bc-d24f-441b-8f93-109abc282ac8","system_id":"levelo_inurba_marseille","lat":43.27374,"lon":5.36266,"is_reserved":false,"is_disabled":false,"rental_uris":{"android":"levelo://app?vid=4810f7bc-d24f-441b-8f93-109abc282ac8","ios":"levelo://app?vid=4810f7bc-d24f-441b-8f93-109abc282ac8"},"vehicle_type_id":"4","last_reported":1747239194,"current_range_meters":17200,"station_id":"ce4bhbh2rcd13ifvqeo0","pricing_plan_id":"cebpf4jnsgd1na2vs0mg"},{"bike_id":"60af0a7f-4cfd-4f77-8f2f-31f09c58ccf0","system_id":"levelo_inurba_marseille","lat":43.21757,"lon":5.34621,"is_reserved":false,"is_disabled":true,"rental_uris":{"android":"levelo://app?vid=60af0a7f-4cfd-4f77-8f2f-31f09c58ccf0","ios":"levelo://app?vid=60af0a7f-4cfd-4f77-8f2f-31f09c58ccf0"},"vehicle_type_id":"4","last_reported":1747239194,"current_range_meters":17200,"station_id":"st_cvj6r9ubvosntc0bgbag","pricing_plan_id":"cebpf4jnsgd1na2vs0mg"},{"bike_id":"d74dda0c-2ae8-4a20-aee3-80ba3b692d64","system_id":"levelo_inurba_marseille","lat":43.30481,"lon":5.37205,"is_reserved":false,"is_disabled":false,"rental_uris":{"android":"levelo://app?vid=d74dda0c-2ae8-4a20-aee3-80ba3b692d64","ios":"levelo://app?vid=d74dda0c-2ae8-4a20-aee3-80ba3b692d64"},"vehicle_type_id":"4","last_reported":1747239194,"current_range_meters":17600,"station_id":"","pricing_plan_id":"cebpf4jnsgd1na2vs0mg"},{"bike_id":"eab6abd2-7961-4f9c-8ced-6ad5a2718d62","system_id":"levelo_inurba_marseille","lat":43.26955,"lon":5.3864,"is_reserved":false,"is_disabled":false,"rental_uris":{"android":"levelo://app?vid=eab6abd2-7961-4f9c-8ced-6ad5a2718d62","ios":"levelo://app?vid=eab6abd2-7961-4f9c-8ced-6ad5a2718d62"},"vehicle_type_id":"4","last_reported":1747239194,"current_range_meters":17600,"station_id":"ce4bhh92rcd13ifvqfh0","pricing_plan_id":"cebpf4jnsgd1na2vs0mg"},{"bike_id":"21f5a1a4-43c5-4049-8a8d-3146c5c35157","system_id":"levelo_inurba_marseille","lat":43.22932,"lon":5.35383,"is_reserved":false,"is_disabled":false,"rental_uris":{"android":"levelo://app?vid=21f5a1a4-43c5-4049-8a8d-3146c5c35157","ios":"levelo://app?vid=21f5a1a4-43c5-4049-8a8d-3146c5c35157"},"vehicle_type_id":"4","last_reported":1747239194,"current_range_meters":17600,"station_id":"cpo3532slgdg3j2ikp40","pricing_plan_id":"cebpf4jnsgd1na2vs0mg"},{"bike_id":"374cedd1-9171-4d9b-800e-4619ab5f6be9","system_id":"levelo_inurba_marseille","lat":43.29045,"lon":5.35928,"is_reserved":false,"is_disabled":false,"rental_uris":{"android":"levelo://app?vid=374cedd1-9171-4d9b-800e-4619ab5f6be9","ios":"levelo://app?vid=374cedd1-9171-4d9b-800e-4619ab5f6be9"},"vehicle_type_id":"4","last_reported":1747239194,"current_range_meters":18000,"station_id":"ce4bha92rcd13ifvqeg0","pricing_plan_id":"cebpf4jnsgd1na2vs0mg"},{"bike_id":"1b8cb79e-5647-4fa4-810c-710c7a644ed1","system_id":"levelo_inurba_marseille","lat":43.26212,"lon":5.37445,"is_reserved":false,"is_disabled":false,"rental_uris":{"android":"levelo://app?vid=1b8cb79e-5647-4fa4-810c-710c7a644ed1","ios":"levelo://app?vid=1b8cb79e-5647-4fa4-810c-710c7a644ed1"},"vehicle_type_id":"4","last_reported":1747239194,"current_range_meters":18000,"station_id":"ce4bhgp2rcd13ifvqfc0","pricing_plan_id":"cebpf4jnsgd1na2vs0mg"},{"bike_id":"2327d0fb-2f37-464d-97d4-8dbd4a6cea60","system_id":"levelo_inurba_marseille","lat":43.27383,"lon":5.362572,"is_reserved":false,"is_disabled":false,"rental_uris":{"android":"levelo://app?vid=2327d0fb-2f37-464d-97d4-8dbd4a6cea60","ios":"levelo://app?vid=2327d0fb-2f37-464d-97d4-8dbd4a6cea60"},"vehicle_type_id":"4","last_reported":1747239194,"current_range_meters":18800,"station_id":"ce4bhbh2rcd13ifvqeo0","pricing_plan_id":"cebpf4jnsgd1na2vs0mg"},{"bike_id":"c8a41c94-e2b0-4958-85c4-f8d81a837534","system_id":"levelo_inurba_marseille","lat":43.24562,"lon":5.39544,"is_reserved":false,"is_disabled":false,"rental_uris":{"android":"levelo://app?vid=c8a41c94-e2b0-4958-85c4-f8d81a837534","ios":"levelo://app?vid=c8a41c94-e2b0-4958-85c4-f8d81a837534"},"vehicle_type_id":"4","last_reported":1747239194,"current_range_meters":18800,"station_id":"ce4bhlp2rcd13ifvqgjg","pricing_plan_id":"cebpf4jnsgd1na2vs0mg"},{"bike_id":"c682a571-1b8e-42c7-82ff-72c8d128bd01","system_id":"levelo_inurba_marseille","lat":43.298374,"lon":5.382873,"is_reserved":false,"is_disabled":false,"rental_uris":{"android":"levelo://app?vid=c682a571-1b8e-42c7-82ff-72c8d128bd01","ios":"levelo://app?vid=c682a571-1b8e-42c7-82ff-72c8d128bd01"},"vehicle_type_id":"4","last_reported":1747239194,"current_range_meters":19200,"station_id":"","pricing_plan_id":"cebpf4jnsgd1na2vs0mg"},{"bike_id":"1def4d9e-ba54-4554-8279-72b57c0de750","system_id":"levelo_inurba_marseille","lat":43.337444,"lon":5.374475,"is_reserved":false,"is_disabled":false,"rental_uris":{"android":"levelo://app?vid=1def4d9e-ba54-4554-8279-72b57c0de750","ios":"levelo://app?vid=1def4d9e-ba54-4554-8279-72b57c0de750"},"vehicle_type_id":"4","last_reported":1747239194,"current_range_meters":19200,"station_id":"","pricing_plan_id":"cebpf4jnsgd1na2vs0mg"},{"bike_id":"80952e19-cb40-413d-aac1-47a8bb730d5a","system_id":"levelo_inurba_marseille","lat":43.29197,"lon":5.35804,"is_reserved":false,"is_disabled":false,"rental_uris":{"android":"levelo://app?vid=80952e19-cb40-413d-aac1-47a8bb730d5a","ios":"levelo://app?vid=80952e19-cb40-413d-aac1-47a8bb730d5a"},"vehicle_type_id":"4","last_reported":1747239194,"current_range_meters":19200,"station_id":"ce4bhb12rcd13ifvqel0","pricing_plan_id":"cebpf4jnsgd1na2vs0mg"},{"bike_id":"5c390c97-2fa0-4c18-a738-a2ff7e753b20","system_id":"levelo_inurba_marseille","lat":43.24082,"lon":5.37757,"is_reserved":false,"is_disabled":false,"rental_uris":{"android":"levelo://app?vid=5c390c97-2fa0-4c18-a738-a2ff7e753b20","ios":"levelo://app?vid=5c390c97-2fa0-4c18-a738-a2ff7e753b20"},"vehicle_type_id":"4","last_reported":1747239194,"current_range_meters":19200,"station_id":"ce4bhnp2rcd13ifvqgvg","pricing_plan_id":"cebpf4jnsgd1na2vs0mg"},{"bike_id":"1a0f08df-ff70-4227-82bc-f8cdb4a6d5a6","system_id":"levelo_inurba_marseille","lat":43.24069,"lon":5.37765,"is_reserved":false,"is_disabled":false,"rental_uris":{"android":"levelo://app?vid=1a0f08df-ff70-4227-82bc-f8cdb4a6d5a6","ios":"levelo://app?vid=1a0f08df-ff70-4227-82bc-f8cdb4a6d5a6"},"vehicle_type_id":"4","last_reported":1747239194,"current_range_meters":19200,"station_id":"ce4bhnp2rcd13ifvqgvg","pricing_plan_id":"cebpf4jnsgd1na2vs0mg"},{"bike_id":"236fe8a1-bb49-4378-9a13-707d1ea97db2","system_id":"levelo_inurba_marseille","lat":43.32112,"lon":5.36715,"is_reserved":false,"is_disabled":false,"rental_uris":{"android":"levelo://app?vid=236fe8a1-bb49-4378-9a13-707d1ea97db2","ios":"levelo://app?vid=236fe8a1-bb49-4378-9a13-707d1ea97db2"},"vehicle_type_id":"4","last_reported":1747239194,"current_range_meters":19200,"station_id":"ce4bhrh2rcd13ifvqhug","pricing_plan_id":"cebpf4jnsgd1na2vs0mg"},{"bike_id":"3510939f-7cd9-4aa4-b8cb-9520e70f17e7","system_id":"levelo_inurba_marseille","lat":43.28434,"lon":5.35031,"is_reserved":false,"is_disabled":false,"rental_uris":{"android":"levelo://app?vid=3510939f-7cd9-4aa4-b8cb-9520e70f17e7","ios":"levelo://app?vid=3510939f-7cd9-4aa4-b8cb-9520e70f17e7"},"vehicle_type_id":"4","last_reported":1747239194,"current_range_meters":19600,"station_id":"ce4bhbh2rcd13ifvqepg","pricing_plan_id":"cebpf4jnsgd1na2vs0mg"},{"bike_id":"747eb4c8-90cf-4425-ae17-0c6fb433c4ca","system_id":"levelo_inurba_marseille","lat":43.26194,"lon":5.37449,"is_reserved":false,"is_disabled":false,"rental_uris":{"android":"levelo://app?vid=747eb4c8-90cf-4425-ae17-0c6fb433c4ca","ios":"levelo://app?vid=747eb4c8-90cf-4425-ae17-0c6fb433c4ca"},"vehicle_type_id":"4","last_reported":1747239194,"current_range_meters":19600,"station_id":"ce4bhgp2rcd13ifvqfc0","pricing_plan_id":"cebpf4jnsgd1na2vs0mg"},{"bike_id":"b5dcfe0e-8818-407a-900e-96868b98b060","system_id":"levelo_inurba_marseille","lat":43.27189,"lon":5.40993,"is_reserved":false,"is_disabled":false,"rental_uris":{"android":"levelo://app?vid=b5dcfe0e-8818-407a-900e-96868b98b060","ios":"levelo://app?vid=b5dcfe0e-8818-407a-900e-96868b98b060"},"vehicle_type_id":"4","last_reported":1747239194,"current_range_meters":19600,"station_id":"ce4bhl12rcd13ifvqgf0","pricing_plan_id":"cebpf4jnsgd1na2vs0mg"},{"bike_id":"fb095b63-af3a-4a4c-81f4-9a12a0e1e39c","system_id":"levelo_inurba_marseille","lat":43.24545,"lon":5.39528,"is_reserved":false,"is_disabled":false,"rental_uris":{"android":"levelo://app?vid=fb095b63-af3a-4a4c-81f4-9a12a0e1e39c","ios":"levelo://app?vid=fb095b63-af3a-4a4c-81f4-9a12a0e1e39c"},"vehicle_type_id":"4","last_reported":1747239194,"current_range_meters":19600,"station_id":"ce4bhlp2rcd13ifvqgjg","pricing_plan_id":"cebpf4jnsgd1na2vs0mg"},{"bike_id":"a97e7f2f-a4bd-43dc-a4a3-f47c4b150cbd","system_id":"levelo_inurba_marseille","lat":43.24176,"lon":5.39735,"is_reserved":false,"is_disabled":false,"rental_uris":{"android":"levelo://app?vid=a97e7f2f-a4bd-43dc-a4a3-f47c4b150cbd","ios":"levelo://app?vid=a97e7f2f-a4bd-43dc-a4a3-f47c4b150cbd"},"vehicle_type_id":"4","last_reported":1747239194,"current_range_meters":19600,"station_id":"ce4bhn12rcd13ifvqgpg","pricing_plan_id":"cebpf4jnsgd1na2vs0mg"},{"bike_id":"e36cb4f9-9987-4796-8959-26d9f18410e3","system_id":"levelo_inurba_marseille","lat":43.28733,"lon":5.3611,"is_reserved":false,"is_disabled":false,"rental_uris":{"android":"levelo://app?vid=e36cb4f9-9987-4796-8959-26d9f18410e3","ios":"levelo://app?vid=e36cb4f9-9987-4796-8959-26d9f18410e3"},"vehicle_type_id":"4","last_reported":1747239194,"current_range_meters":19600,"station_id":"cki0cbj6b192h4jlfktg","pricing_plan_id":"cebpf4jnsgd1na2vs0mg"},{"bike_id":"1ae0b734-22b3-4b50-80d3-c63698279b7b","system_id":"levelo_inurba_marseille","lat":43.305917,"lon":5.371073,"is_reserved":false,"is_disabled":false,"rental_uris":{"android":"levelo://app?vid=1ae0b734-22b3-4b50-80d3-c63698279b7b","ios":"levelo://app?vid=1ae0b734-22b3-4b50-80d3-c63698279b7b"},"vehicle_type_id":"4","last_reported":1747239194,"current_range_meters":20000,"station_id":"","pricing_plan_id":"cebpf4jnsgd1na2vs0mg"},{"bike_id":"e637d02c-90e3-4ea2-bb17-14217846982e","system_id":"levelo_inurba_marseille","lat":43.27612,"lon":5.36114,"is_reserved":false,"is_disabled":false,"rental_uris":{"android":"levelo://app?vid=e637d02c-90e3-4ea2-bb17-14217846982e","ios":"levelo://app?vid=e637d02c-90e3-4ea2-bb17-14217846982e"},"vehicle_type_id":"4","last_reported":1747239194,"current_range_meters":20000,"station_id":"ce4bgj92rcd13ifvqbe0","pricing_plan_id":"cebpf4jnsgd1na2vs0mg"},{"bike_id":"53d043f3-5469-4bca-a5ee-f0aa87c73eb1","system_id":"levelo_inurba_marseille","lat":43.31346,"lon":5.39723,"is_reserved":false,"is_disabled":false,"rental_uris":{"android":"levelo://app?vid=53d043f3-5469-4bca-a5ee-f0aa87c73eb1","ios":"levelo://app?vid=53d043f3-5469-4bca-a5ee-f0aa87c73eb1"},"vehicle_type_id":"4","last_reported":1747239194,"current_range_meters":20000,"station_id":"ce4bgvp2rcd13ifvqcu0","pricing_plan_id":"cebpf4jnsgd1na2vs0mg"},{"bike_id":"ee5e64a6-f4df-40e7-94e6-a590e46b1eb4","system_id":"levelo_inurba_marseille","lat":43.26027,"lon":5.37552,"is_reserved":false,"is_disabled":false,"rental_uris":{"android":"levelo://app?vid=ee5e64a6-f4df-40e7-94e6-a590e46b1eb4","ios":"levelo://app?vid=ee5e64a6-f4df-40e7-94e6-a590e46b1eb4"},"vehicle_type_id":"4","last_reported":1747239194,"current_range_meters":20000,"station_id":"ce4bhgh2rcd13ifvqfa0","pricing_plan_id":"cebpf4jnsgd1na2vs0mg"},{"bike_id":"b8b568c0-1c4d-4a39-9b19-bf02384d8ca0","system_id":"levelo_inurba_marseille","lat":43.25111,"lon":5.40324,"is_reserved":false,"is_disabled":false,"rental_uris":{"android":"levelo://app?vid=b8b568c0-1c4d-4a39-9b19-bf02384d8ca0","ios":"levelo://app?vid=b8b568c0-1c4d-4a39-9b19-bf02384d8ca0"},"vehicle_type_id":"4","last_reported":1747239194,"current_range_meters":20000,"station_id":"ce4bhlh2rcd13ifvqgig","pricing_plan_id":"cebpf4jnsgd1na2vs0mg"},{"bike_id":"9fe8a4bc-04bc-49f5-af53-7ef48e8c0ddf","system_id":"levelo_inurba_marseille","lat":43.23182,"lon":5.40027,"is_reserved":false,"is_disabled":false,"rental_uris":{"android":"levelo://app?vid=9fe8a4bc-04bc-49f5-af53-7ef48e8c0ddf","ios":"levelo://app?vid=9fe8a4bc-04bc-49f5-af53-7ef48e8c0ddf"},"vehicle_type_id":"4","last_reported":1747239194,"current_range_meters":20000,"station_id":"ce4bhn12rcd13ifvqgqg","pricing_plan_id":"cebpf4jnsgd1na2vs0mg"},{"bike_id":"7922656e-2239-47c0-af52-f0f323542cc6","system_id":"levelo_inurba_marseille","lat":43.241725,"lon":5.364071,"is_reserved":false,"is_disabled":false,"rental_uris":{"android":"levelo://app?vid=7922656e-2239-47c0-af52-f0f323542cc6","ios":"levelo://app?vid=7922656e-2239-47c0-af52-f0f323542cc6"},"vehicle_type_id":"4","last_reported":1747239194,"current_range_meters":20000,"station_id":"cpo36qri1sfpv3e86is0","pricing_plan_id":"cebpf4jnsgd1na2vs0mg"},{"bike_id":"9a402898-f116-408b-8709-c62dd77d2b5d","system_id":"levelo_inurba_marseille","lat":43.29352,"lon":5.42827,"is_reserved":false,"is_disabled":false,"rental_uris":{"android":"levelo://app?vid=9a402898-f116-408b-8709-c62dd77d2b5d","ios":"levelo://app?vid=9a402898-f116-408b-8709-c62dd77d2b5d"},"vehicle_type_id":"4","last_reported":1747239194,"current_range_meters":20400,"station_id":"","pricing_plan_id":"cebpf4jnsgd1na2vs0mg"},{"bike_id":"a9d31fe0-2508-42cc-8e0b-6f6a14799b08","system_id":"levelo_inurba_marseille","lat":43.30128,"lon":5.3723,"is_reserved":false,"is_disabled":false,"rental_uris":{"android":"levelo://app?vid=a9d31fe0-2508-42cc-8e0b-6f6a14799b08","ios":"levelo://app?vid=a9d31fe0-2508-42cc-8e0b-6f6a14799b08"},"vehicle_type_id":"4","last_reported":1747239194,"current_range_meters":20400,"station_id":"","pricing_plan_id":"cebpf4jnsgd1na2vs0mg"},{"bike_id":"c46a7a9a-87dc-4e5f-b875-f27570c9179f","system_id":"levelo_inurba_marseille","lat":43.29792,"lon":5.40413,"is_reserved":false,"is_disabled":false,"rental_uris":{"android":"levelo://app?vid=c46a7a9a-87dc-4e5f-b875-f27570c9179f","ios":"levelo://app?vid=c46a7a9a-87dc-4e5f-b875-f27570c9179f"},"vehicle_type_id":"4","last_reported":1747239194,"current_range_meters":20400,"station_id":"ce4bh112rcd13ifvqd90","pricing_plan_id":"cebpf4jnsgd1na2vs0mg"},{"bike_id":"c5af1732-9123-4e79-a0e4-367edde14d3c","system_id":"levelo_inurba_marseille","lat":43.29414,"lon":5.38634,"is_reserved":false,"is_disabled":false,"rental_uris":{"android":"levelo://app?vid=c5af1732-9123-4e79-a0e4-367edde14d3c","ios":"levelo://app?vid=c5af1732-9123-4e79-a0e4-367edde14d3c"},"vehicle_type_id":"4","last_reported":1747239194,"current_range_meters":20400,"station_id":"ce4bh2h2rcd13ifvqdh0","pricing_plan_id":"cebpf4jnsgd1na2vs0mg"},{"bike_id":"562c1911-bc79-43ef-b7e3-0fe35f87cda6","system_id":"levelo_inurba_marseille","lat":43.28673,"lon":5.3866,"is_reserved":false,"is_disabled":false,"rental_uris":{"android":"levelo://app?vid=562c1911-bc79-43ef-b7e3-0fe35f87cda6","ios":"levelo://app?vid=562c1911-bc79-43ef-b7e3-0fe35f87cda6"},"vehicle_type_id":"4","last_reported":1747239194,"current_range_meters":20400,"station_id":"ce4bh492rcd13ifvqdug","pricing_plan_id":"cebpf4jnsgd1na2vs0mg"},{"bike_id":"53dc0df7-20f1-4484-9600-09516aa1fdb7","system_id":"levelo_inurba_marseille","lat":43.28935,"lon":5.3839,"is_reserved":false,"is_disabled":false,"rental_uris":{"android":"levelo://app?vid=53dc0df7-20f1-4484-9600-09516aa1fdb7","ios":"levelo://app?vid=53dc0df7-20f1-4484-9600-09516aa1fdb7"},"vehicle_type_id":"4","last_reported":1747239194,"current_range_meters":20400,"station_id":"ce4bh612rcd13ifvqe6g","pricing_plan_id":"cebpf4jnsgd1na2vs0mg"},{"bike_id":"e218a08a-e3ff-41b6-8126-417c85f6d670","system_id":"levelo_inurba_marseille","lat":43.23134,"lon":5.43712,"is_reserved":false,"is_disabled":false,"rental_uris":{"android":"levelo://app?vid=e218a08a-e3ff-41b6-8126-417c85f6d670","ios":"levelo://app?vid=e218a08a-e3ff-41b6-8126-417c85f6d670"},"vehicle_type_id":"4","last_reported":1747239194,"current_range_meters":20400,"station_id":"ce4bhmp2rcd13ifvqgog","pricing_plan_id":"cebpf4jnsgd1na2vs0mg"},{"bike_id":"c98ac5c6-2f0f-43be-9df0-0cfd3987d191","system_id":"levelo_inurba_marseille","lat":43.23064,"lon":5.35499,"is_reserved":false,"is_disabled":false,"rental_uris":{"android":"levelo://app?vid=c98ac5c6-2f0f-43be-9df0-0cfd3987d191","ios":"levelo://app?vid=c98ac5c6-2f0f-43be-9df0-0cfd3987d191"},"vehicle_type_id":"4","last_reported":1747239194,"current_range_meters":20400,"station_id":"cpo3342slgdg3j2ifvpg","pricing_plan_id":"cebpf4jnsgd1na2vs0mg"},{"bike_id":"8228d73b-8462-4808-8d29-7a658c23d4c1","system_id":"levelo_inurba_marseille","lat":43.29053,"lon":5.35916,"is_reserved":false,"is_disabled":false,"rental_uris":{"android":"levelo://app?vid=8228d73b-8462-4808-8d29-7a658c23d4c1","ios":"levelo://app?vid=8228d73b-8462-4808-8d29-7a658c23d4c1"},"vehicle_type_id":"4","last_reported":1747239194,"current_range_meters":20800,"station_id":"ce4bha92rcd13ifvqeg0","pricing_plan_id":"cebpf4jnsgd1na2vs0mg"},{"bike_id":"d33cb45c-0e72-4d92-880a-e317b780e3ea","system_id":"levelo_inurba_marseille","lat":43.26193,"lon":5.37454,"is_reserved":false,"is_disabled":false,"rental_uris":{"android":"levelo://app?vid=d33cb45c-0e72-4d92-880a-e317b780e3ea","ios":"levelo://app?vid=d33cb45c-0e72-4d92-880a-e317b780e3ea"},"vehicle_type_id":"4","last_reported":1747239194,"current_range_meters":20800,"station_id":"ce4bhgp2rcd13ifvqfc0","pricing_plan_id":"cebpf4jnsgd1na2vs0mg"},{"bike_id":"6bba6b06-f4a4-461c-a264-06b4db723daf","system_id":"levelo_inurba_marseille","lat":43.24208,"lon":5.39754,"is_reserved":false,"is_disabled":false,"rental_uris":{"android":"levelo://app?vid=6bba6b06-f4a4-461c-a264-06b4db723daf","ios":"levelo://app?vid=6bba6b06-f4a4-461c-a264-06b4db723daf"},"vehicle_type_id":"4","last_reported":1747239194,"current_range_meters":20800,"station_id":"ce4bhn12rcd13ifvqgpg","pricing_plan_id":"cebpf4jnsgd1na2vs0mg"},{"bike_id":"12cefd0f-20e8-4475-bc36-510c30f94276","system_id":"levelo_inurba_marseille","lat":43.2861,"lon":5.3707,"is_reserved":false,"is_disabled":false,"rental_uris":{"android":"levelo://app?vid=12cefd0f-20e8-4475-bc36-510c30f94276","ios":"levelo://app?vid=12cefd0f-20e8-4475-bc36-510c30f94276"},"vehicle_type_id":"4","last_reported":1747239194,"current_range_meters":20800,"station_id":"ce4bht12rcd13ifvqi60","pricing_plan_id":"cebpf4jnsgd1na2vs0mg"},{"bike_id":"f26cf614-427b-4f32-bc08-8ff0167abe68","system_id":"levelo_inurba_marseille","lat":43.28842,"lon":5.36233,"is_reserved":false,"is_disabled":false,"rental_uris":{"android":"levelo://app?vid=f26cf614-427b-4f32-bc08-8ff0167abe68","ios":"levelo://app?vid=f26cf614-427b-4f32-bc08-8ff0167abe68"},"vehicle_type_id":"4","last_reported":1747239194,"current_range_meters":20800,"station_id":"cki0cbj6b192h4jlfktg","pricing_plan_id":"cebpf4jnsgd1na2vs0mg"},{"bike_id":"817842b4-cb45-4c65-9684-9fb3ea028291","system_id":"levelo_inurba_marseille","lat":43.2176,"lon":5.34617,"is_reserved":false,"is_disabled":false,"rental_uris":{"android":"levelo://app?vid=817842b4-cb45-4c65-9684-9fb3ea028291","ios":"levelo://app?vid=817842b4-cb45-4c65-9684-9fb3ea028291"},"vehicle_type_id":"4","last_reported":1747239194,"current_range_meters":20800,"station_id":"st_cvj6r9ubvosntc0bgbag","pricing_plan_id":"cebpf4jnsgd1na2vs0mg"},{"bike_id":"5e123eee-254f-4580-b5c5-733150f2fa86","system_id":"levelo_inurba_marseille","lat":43.30932,"lon":5.40145,"is_reserved":false,"is_disabled":false,"rental_uris":{"android":"levelo://app?vid=5e123eee-254f-4580-b5c5-733150f2fa86","ios":"levelo://app?vid=5e123eee-254f-4580-b5c5-733150f2fa86"},"vehicle_type_id":"4","last_reported":1747239194,"current_range_meters":21600,"station_id":"ce4bgvp2rcd13ifvqct0","pricing_plan_id":"cebpf4jnsgd1na2vs0mg"},{"bike_id":"11cb5e27-4cc1-4622-b93f-511ea6695526","system_id":"levelo_inurba_marseille","lat":43.29193,"lon":5.3581,"is_reserved":false,"is_disabled":false,"rental_uris":{"android":"levelo://app?vid=11cb5e27-4cc1-4622-b93f-511ea6695526","ios":"levelo://app?vid=11cb5e27-4cc1-4622-b93f-511ea6695526"},"vehicle_type_id":"4","last_reported":1747239194,"current_range_meters":21600,"station_id":"ce4bhb12rcd13ifvqel0","pricing_plan_id":"cebpf4jnsgd1na2vs0mg"},{"bike_id":"0ce6466f-872c-4f1a-a0f8-e41aa916edbb","system_id":"levelo_inurba_marseille","lat":43.309665,"lon":5.407092,"is_reserved":false,"is_disabled":false,"rental_uris":{"android":"levelo://app?vid=0ce6466f-872c-4f1a-a0f8-e41aa916edbb","ios":"levelo://app?vid=0ce6466f-872c-4f1a-a0f8-e41aa916edbb"},"vehicle_type_id":"4","last_reported":1747239194,"current_range_meters":21600,"station_id":"ce4bhp92rcd13ifvqhbg","pricing_plan_id":"cebpf4jnsgd1na2vs0mg"},{"bike_id":"c375e3f2-758e-4176-b2de-a958bf4219b8","system_id":"levelo_inurba_marseille","lat":43.317144,"lon":5.437112,"is_reserved":false,"is_disabled":false,"rental_uris":{"android":"levelo://app?vid=c375e3f2-758e-4176-b2de-a958bf4219b8","ios":"levelo://app?vid=c375e3f2-758e-4176-b2de-a958bf4219b8"},"vehicle_type_id":"4","last_reported":1747239194,"current_range_meters":21600,"station_id":"ce4bhp92rcd13ifvqhcg","pricing_plan_id":"cebpf4jnsgd1na2vs0mg"},{"bike_id":"e77547c4-18c3-446b-b372-8823e2b940de","system_id":"levelo_inurba_marseille","lat":43.3014,"lon":5.37428,"is_reserved":false,"is_disabled":false,"rental_uris":{"android":"levelo://app?vid=e77547c4-18c3-446b-b372-8823e2b940de","ios":"levelo://app?vid=e77547c4-18c3-446b-b372-8823e2b940de"},"vehicle_type_id":"4","last_reported":1747239194,"current_range_meters":22000,"station_id":"ce4bgs92rcd13ifvqcc0","pricing_plan_id":"cebpf4jnsgd1na2vs0mg"},{"bike_id":"b1f69594-4db0-40ac-883b-9aa3e658e499","system_id":"levelo_inurba_marseille","lat":43.29416,"lon":5.3864,"is_reserved":false,"is_disabled":false,"rental_uris":{"android":"levelo://app?vid=b1f69594-4db0-40ac-883b-9aa3e658e499","ios":"levelo://app?vid=b1f69594-4db0-40ac-883b-9aa3e658e499"},"vehicle_type_id":"4","last_reported":1747239194,"current_range_meters":22000,"station_id":"ce4bh2h2rcd13ifvqdh0","pricing_plan_id":"cebpf4jnsgd1na2vs0mg"},{"bike_id":"c0f0b15b-98a2-44a9-b068-26183287b944","system_id":"levelo_inurba_marseille","lat":43.291958,"lon":5.358056,"is_reserved":false,"is_disabled":false,"rental_uris":{"android":"levelo://app?vid=c0f0b15b-98a2-44a9-b068-26183287b944","ios":"levelo://app?vid=c0f0b15b-98a2-44a9-b068-26183287b944"},"vehicle_type_id":"4","last_reported":1747239194,"current_range_meters":22000,"station_id":"ce4bhb12rcd13ifvqel0","pricing_plan_id":"cebpf4jnsgd1na2vs0mg"},{"bike_id":"518afb21-c0e0-4dbc-a735-b7863185b1f9","system_id":"levelo_inurba_marseille","lat":43.284167,"lon":5.349874,"is_reserved":false,"is_disabled":false,"rental_uris":{"android":"levelo://app?vid=518afb21-c0e0-4dbc-a735-b7863185b1f9","ios":"levelo://app?vid=518afb21-c0e0-4dbc-a735-b7863185b1f9"},"vehicle_type_id":"4","last_reported":1747239194,"current_range_meters":22000,"station_id":"ce4bhbh2rcd13ifvqepg","pricing_plan_id":"cebpf4jnsgd1na2vs0mg"},{"bike_id":"c2cb0db7-6890-4572-8441-65dab95e60a3","system_id":"levelo_inurba_marseille","lat":43.31714,"lon":5.4371,"is_reserved":false,"is_disabled":false,"rental_uris":{"android":"levelo://app?vid=c2cb0db7-6890-4572-8441-65dab95e60a3","ios":"levelo://app?vid=c2cb0db7-6890-4572-8441-65dab95e60a3"},"vehicle_type_id":"4","last_reported":1747239194,"current_range_meters":22000,"station_id":"ce4bhp92rcd13ifvqhcg","pricing_plan_id":"cebpf4jnsgd1na2vs0mg"},{"bike_id":"9a00279a-97a9-47f4-9357-f12ef78cadf7","system_id":"levelo_inurba_marseille","lat":43.30806,"lon":5.43528,"is_reserved":false,"is_disabled":false,"rental_uris":{"android":"levelo://app?vid=9a00279a-97a9-47f4-9357-f12ef78cadf7","ios":"levelo://app?vid=9a00279a-97a9-47f4-9357-f12ef78cadf7"},"vehicle_type_id":"4","last_reported":1747239194,"current_range_meters":22000,"station_id":"ce4bhph2rcd13ifvqheg","pricing_plan_id":"cebpf4jnsgd1na2vs0mg"},{"bike_id":"222fde1c-1746-41f9-b7c0-550e0b3297b3","system_id":"levelo_inurba_marseille","lat":43.281093,"lon":5.442262,"is_reserved":false,"is_disabled":false,"rental_uris":{"android":"levelo://app?vid=222fde1c-1746-41f9-b7c0-550e0b3297b3","ios":"levelo://app?vid=222fde1c-1746-41f9-b7c0-550e0b3297b3"},"vehicle_type_id":"4","last_reported":1747239194,"current_range_meters":22800,"station_id":"","pricing_plan_id":"cebpf4jnsgd1na2vs0mg"},