{"last_updated":1683986732,"ttl":30,"version":"2.2","data":{"bikes":[{"bike_id":"ff6ba3de-d35a-4631-9486-6646fc26fcea","system_id":"levelo_inurba_marseille","lat":43.313391,"lon":5.36706,"is_reserved":false,"is_disabled":false,"rental_uris":{"android":"levelo://app?vid=ff6ba3de-d35a-4631-9486-6646fc26fcea","ios":"levelo://app?vid=ff6ba3de-d35a-4631-9486-6646fc26fcea"},"vehicle_type_id":"4","last_reported":1683986733,"current_range_meters":30000,"station_id":"ce4bgr92rcd13ifvqc6g","pricing_plan_id":"free"},{"bike_id":"8cf4ac11-0eff-4d5d-b712-eb33d21f8850","system_id":"levelo_inurba_marseille","lat":43.313391,"lon":5.36706,"is_reserved":false,"is_disabled":false,"rental_uris":{"android":"levelo://app?vid=8cf4ac11-0eff-4d5d-b712-eb33d21f8850","ios":"levelo://app?vid=8cf4ac11-0eff-4d5d-b712-eb33d21f8850"},"vehicle_type_id":"4","last_reported":1683986733,"current_range_meters":29600,"station_id":"ce4bgr92rcd13ifvqc6g","pricing_plan_id":"free"},{"bike_id":"8b4bef82-2e91-4f9b-905e-ed985d7c0408","system_id":"levelo_inurba_marseille","lat":43.312239,"lon":5.368562,"is_reserved":false,"is_disabled":false,"rental_uris":{"android":"levelo://app?vid=8b4bef82-2e91-4f9b-905e-ed985d7c0408","ios":"levelo://app?vid=8b4bef82-2e91-4f9b-905e-ed985d7c0408"},"vehicle_type_id":"4","last_reported":1683986733,"current_range_meters":0,"station_id":"ce4bgl92rcd13ifvqbq0","pricing_plan_id":"free"},{"bike_id":"9ba65080-5b89-4691-a966-c5d60d8fb200","system_id":"levelo_inurba_marseille","lat":43.312239,"lon":5.368562,"is_reserved":false,"is_disabled":false,"rental_uris":{"android":"levelo://app?vid=9ba65080-5b89-4691-a966-c5d60d8fb200","ios":"levelo://app?vid=9ba65080-5b89-4691-a966-c5d60d8fb200"},"vehicle_type_id":"4","last_reported":1683986733,"current_range_meters":0,"station_id":"ce4bgl92rcd13ifvqbq0","pricing_plan_id":"free"},{"bike_id":"236c7117-0423-4673-bd21-105819686532","system_id":"levelo_inurba_marseille","lat":43.312239,"lon":5.368562,"is_reserved":false,"is_disabled":false,"rental_uris":{"android":"levelo://app?vid=236c7117-0423-4673-bd21-105819686532","ios":"levelo://app?vid=236c7117-0423-4673-bd21-105819686532"},"vehicle_type_id":"4","last_reported":1683986733,"current_range_meters":17600,"station_id":"ce4bgl92rcd13ifvqbq0","pricing_plan_id":"free"},{"bike_id":"c3af82b5-ddfd-40ff-bef7-81fe9d3a0702","system_id":"levelo_inurba_marseille","lat":43.312239,"lon":5.368562,"is_reserved":false,"is_disabled":false,"rental_uris":{"android":"levelo://app?vid=c3af82b5-ddfd-40ff-bef7-81fe9d3a0702","ios":"levelo://app?vid=c3af82b5-ddfd-40ff-bef7-81fe9d3a0702"},"vehicle_type_id":"4","last_reported":1683986733,"current_range_meters":25200,"station_id":"ce4bgl92rcd13ifvqbq0","pricing_plan_id":"free"},{"bike_id":"c8dccc27-2756-4ca0-91a1-98d30b0399d4","system_id":"levelo_inurba_marseille","lat":43.309076,"lon":5.368465,"is_reserved":false,"is_disabled":false,"rental_uris":{"android":"levelo://app?vid=c8dccc27-2756-4ca0-91a1-98d30b0399d4","ios":"levelo://app?vid=c8dccc27-2756-4ca0-91a1-98d30b0399d4"},"vehicle_type_id":"4","last_reported":1683986733,"current_range_meters":26400,"station_id":"ce4bgn92rcd13ifvqbvg","pricing_plan_id":"free"},{"bike_id":"d00c7e18-bf35-4029-ba5e-9451e04b394a","system_id":"levelo_inurba_marseille","lat":43.308614,"lon":5.372098,"is_reserved":false,"is_disabled":false,"rental_uris":{"android":"levelo://app?vid=d00c7e18-bf35-4029-ba5e-9451e04b394a","ios":"levelo://app?vid=d00c7e18-bf35-4029-ba5e-9451e04b394a"},"vehicle_type_id":"4","last_reported":1683986733,"current_range_meters":26800,"station_id":"ce4bguh2rcd13ifvqckg","pricing_plan_id":"free"},{"bike_id":"af1532be-f2e6-43fa-ac0c-1624ac98b164","system_id":"levelo_inurba_marseille","lat":43.305706,"lon":5.365654,"is_reserved":false,"is_disabled":false,"rental_uris":{"android":"levelo://app?vid=af1532be-f2e6-43fa-ac0c-1624ac98b164","ios":"levelo://app?vid=af1532be-f2e6-43fa-ac0c-1624ac98b164"},"vehicle_type_id":"4","last_reported":1683986733,"current_range_meters":23600,"station_id":"ce4bgs12rcd13ifvqcag","pricing_plan_id":"free"},{"bike_id":"d7cb6346-df91-4443-89cc-c2e853950fe9","system_id":"levelo_inurba_marseille","lat":43.30551,"lon":5.36545,"is_reserved":false,"is_disabled":false,"rental_uris":{"android":"levelo://app?vid=d7cb6346-df91-4443-89cc-c2e853950fe9","ios":"levelo://app?vid=d7cb6346-df91-4443-89cc-c2e853950fe9"},"vehicle_type_id":"4","last_reported":1683986733,"current_range_meters":22800,"station_id":"","pricing_plan_id":"free"},{"bike_id":"49ce9b9b-432e-4f1f-a388-7e777658a67c","system_id":"levelo_inurba_marseille","lat":43.305706,"lon":5.365654,"is_reserved":false,"is_disabled":false,"rental_uris":{"android":"levelo://app?vid=49ce9b9b-432e-4f1f-a388-7e777658a67c","ios":"levelo://app?vid=49ce9b9b-432e-4f1f-a388-7e777658a67c"},"vehicle_type_id":"4","last_reported":1683986733,"current_range_meters":27600,"station_id":"ce4bgs12rcd13ifvqcag","pricing_plan_id":"free"},{"bike_id":"0182db3a-4d2a-4606-b90f-236a46f40bd9","system_id":"levelo_inurba_marseille","lat":43.305706,"lon":5.365654,"is_reserved":false,"is_disabled":false,"rental_uris":{"android":"levelo://app?vid=0182db3a-4d2a-4606-b90f-236a46f40bd9","ios":"levelo://app?vid=0182db3a-4d2a-4606-b90f-236a46f40bd9"},"vehicle_type_id":"4","last_reported":1683986733,"current_range_meters":19600,"station_id":"ce4bgs12rcd13ifvqcag","pricing_plan_id":"free"},{"bike_id":"36d607ac-84ad-4b6a-9238-1b6c67915a43","system_id":"levelo_inurba_marseille","lat":43.305714,"lon":5.365633,"is_reserved":false,"is_disabled":false,"rental_uris":{"android":"levelo://app?vid=36d607ac-84ad-4b6a-9238-1b6c67915a43","ios":"levelo://app?vid=36d607ac-84ad-4b6a-9238-1b6c67915a43"},"vehicle_type_id":"4","last_reported":1683986733,"current_range_meters":15600,"station_id":"ce4bgs12rcd13ifvqcag","pricing_plan_id":"free"},{"bike_id":"ba66a040-77a3-45cd-aa97-015a350c1088","system_id":"levelo_inurba_marseille","lat":43.30532,"lon":5.3671,"is_reserved":false,"is_disabled":false,"rental_uris":{"android":"levelo://app?vid=ba66a040-77a3-45cd-aa97-015a350c1088","ios":"levelo://app?vid=ba66a040-77a3-45cd-aa97-015a350c1088"},"vehicle_type_id":"4","last_reported":1683986733,"current_range_meters":23600,"station_id":"","pricing_plan_id":"free"},{"bike_id":"aab7094f-9299-47f3-a498-193b5ec16f9d","system_id":"levelo_inurba_marseille","lat":43.305714,"lon":5.365633,"is_reserved":false,"is_disabled":false,"rental_uris":{"android":"levelo://app?vid=aab7094f-9299-47f3-a498-193b5ec16f9d","ios":"levelo://app?vid=aab7094f-9299-47f3-a498-193b5ec16f9d"},"vehicle_type_id":"4","last_reported":1683986733,"current_range_meters":25200,"station_id":"ce4bgs12rcd13ifvqcag","pricing_plan_id":"free"},{"bike_id":"634df45b-1e80-4952-a616-624a4d052a71","system_id":"levelo_inurba_marseille","lat":43.305714,"lon":5.365633,"is_reserved":false,"is_disabled":false,"rental_uris":{"android":"levelo://app?vid=634df45b-1e80-4952-a616-624a4d052a71","ios":"levelo://app?vid=634df45b-1e80-4952-a616-624a4d052a71"},"vehicle_type_id":"4","last_reported":1683986733,"current_range_meters":12000,"station_id":"ce4bgs12rcd13ifvqcag","pricing_plan_id":"free"},{"bike_id":"fcd33d36-78bb-4680-b8bc-dcfe1d96c073","system_id":"levelo_inurba_marseille","lat":43.30531,"lon":5.36538,"is_reserved":false,"is_disabled":false,"rental_uris":{"android":"levelo://app?vid=fcd33d36-78bb-4680-b8bc-dcfe1d96c073","ios":"levelo://app?vid=fcd33d36-78bb-4680-b8bc-dcfe1d96c073"},"vehicle_type_id":"4","last_reported":1683986733,"current_range_meters":2800,"station_id":"","pricing_plan_id":"free"},{"bike_id":"151d50bc-3aee-48d5-9527-783274464e00","system_id":"levelo_inurba_marseille","lat":43.31187,"lon":5.37747,"is_reserved":false,"is_disabled":false,"rental_uris":{"android":"levelo://app?vid=151d50bc-3aee-48d5-9527-783274464e00","ios":"levelo://app?vid=151d50bc-3aee-48d5-9527-783274464e00"},"vehicle_type_id":"4","last_reported":1683986733,"current_range_meters":12800,"station_id":"","pricing_plan_id":"free"},{"bike_id":"9d10e8c0-17f7-4951-80d4-a90c9c86e6ea","system_id":"levelo_inurba_marseille","lat":43.3113,"lon":5.3775,"is_reserved":false,"is_disabled":false,"rental_uris":{"android":"levelo://app?vid=9d10e8c0-17f7-4951-80d4-a90c9c86e6ea","ios":"levelo://app?vid=9d10e8c0-17f7-4951-80d4-a90c9c86e6ea"},"vehicle_type_id":"4","last_reported":1683986733,"current_range_meters":22400,"station_id":"ce4bgt92rcd13ifvqcg0","pricing_plan_id":"free"},{"bike_id":"a8785c5d-9335-43f6-90d1-7b4f8268ec71","system_id":"levelo_inurba_marseille","lat":43.30598,"lon":5.37237,"is_reserved":false,"is_disabled":false,"rental_uris":{"android":"levelo://app?vid=a8785c5d-9335-43f6-90d1-7b4f8268ec71","ios":"levelo://app?vid=a8785c5d-9335-43f6-90d1-7b4f8268ec71"},"vehicle_type_id":"4","last_reported":1683986733,"current_range_meters":23600,"station_id":"ce4bgqh2rcd13ifvqc4g","pricing_plan_id":"free"},{"bike_id":"56410d2d-2c4a-4fa8-be68-aaccbe6e6a23","system_id":"levelo_inurba_marseille","lat":43.311125,"lon":5.377624,"is_reserved":false,"is_disabled":false,"rental_uris":{"android":"levelo://app?vid=56410d2d-2c4a-4fa8-be68-aaccbe6e6a23","ios":"levelo://app?vid=56410d2d-2c4a-4fa8-be68-aaccbe6e6a23"},"vehicle_type_id":"4","last_reported":1683986733,"current_range_meters":20400,"station_id":"ce4bgt92rcd13ifvqcg0","pricing_plan_id":"free"},{"bike_id":"bc36e10a-a9d1-4a89-b8ba-a386b3def7fb","system_id":"levelo_inurba_marseille","lat":43.303046,"lon":5.368981,"is_reserved":false,"is_disabled":false,"rental_uris":{"android":"levelo://app?vid=bc36e10a-a9d1-4a89-b8ba-a386b3def7fb","ios":"levelo://app?vid=bc36e10a-a9d1-4a89-b8ba-a386b3def7fb"},"vehicle_type_id":"4","last_reported":1683986733,"current_range_meters":30400,"station_id":"ce4bgqh2rcd13ifvqc5g","pricing_plan_id":"free"},{"bike_id":"6f441400-efbc-4f5c-b70a-33b68bfeabb0","system_id":"levelo_inurba_marseille","lat":43.303046,"lon":5.368981,"is_reserved":false,"is_disabled":false,"rental_uris":{"android":"levelo://app?vid=6f441400-efbc-4f5c-b70a-33b68bfeabb0","ios":"levelo://app?vid=6f441400-efbc-4f5c-b70a-33b68bfeabb0"},"vehicle_type_id":"4","last_reported":1683986733,"current_range_meters":27200,"station_id":"ce4bgqh2rcd13ifvqc5g","pricing_plan_id":"free"},{"bike_id":"94acd7b5-c017-47a3-88ed-959df9043477","system_id":"levelo_inurba_marseille","lat":43.301939,"lon":5.366286,"is_reserved":false,"is_disabled":false,"rental_uris":{"android":"levelo://app?vid=94acd7b5-c017-47a3-88ed-959df9043477","ios":"levelo://app?vid=94acd7b5-c017-47a3-88ed-959df9043477"},"vehicle_type_id":"4","last_reported":1683986733,"current_range_meters":12800,"station_id":"ce4bgrh2rcd13ifvqc8g","pricing_plan_id":"free"},{"bike_id":"756e4878-eb74-4c83-a6ba-062ca58a2dd0","system_id":"levelo_inurba_marseille","lat":43.301939,"lon":5.366286,"is_reserved":false,"is_disabled":false,"rental_uris":{"android":"levelo://app?vid=756e4878-eb74-4c83-a6ba-062ca58a2dd0","ios":"levelo://app?vid=756e4878-eb74-4c83-a6ba-062ca58a2dd0"},"vehicle_type_id":"4","last_reported":1683986733,"current_range_meters":17200,"station_id":"ce4bgrh2rcd13ifvqc8g","pricing_plan_id":"free"},{"bike_id":"114058a7-e256-4eb7-92c4-7a177f66811c","system_id":"levelo_inurba_marseille","lat":43.30643,"lon":5.38007,"is_reserved":false,"is_disabled":false,"rental_uris":{"android":"levelo://app?vid=114058a7-e256-4eb7-92c4-7a177f66811c","ios":"levelo://app?vid=114058a7-e256-4eb7-92c4-7a177f66811c"},"vehicle_type_id":"4","last_reported":1683986733,"current_range_meters":11600,"station_id":"","pricing_plan_id":"free"},{"bike_id":"46e3edfd-21df-46d9-8f41-966a97dbc39e","system_id":"levelo_inurba_marseille","lat":43.30805,"lon":5.38152,"is_reserved":false,"is_disabled":false,"rental_uris":{"android":"levelo://app?vid=46e3edfd-21df-46d9-8f41-966a97dbc39e","ios":"levelo://app?vid=46e3edfd-21df-46d9-8f41-966a97dbc39e"},"vehicle_type_id":"4","last_reported":1683986733,"current_range_meters":3200,"station_id":"ce4bgt12rcd13ifvqce0","pricing_plan_id":"free"},{"bike_id":"d9cbe38d-4078-4e19-bd60-92cb185a8102","system_id":"levelo_inurba_marseille","lat":43.30799,"lon":5.38149,"is_reserved":false,"is_disabled":false,"rental_uris":{"android":"levelo://app?vid=d9cbe38d-4078-4e19-bd60-92cb185a8102","ios":"levelo://app?vid=d9cbe38d-4078-4e19-bd60-92cb185a8102"},"vehicle_type_id":"4","last_reported":1683986733,"current_range_meters":12400,"station_id":"ce4bgt12rcd13ifvqce0","pricing_plan_id":"free"},{"bike_id":"00e3d6bb-1af8-4d2f-af96-2111508a1e70","system_id":"levelo_inurba_marseille","lat":43.308012,"lon":5.381511,"is_reserved":false,"is_disabled":false,"rental_uris":{"android":"levelo://app?vid=00e3d6bb-1af8-4d2f-af96-2111508a1e70","ios":"levelo://app?vid=00e3d6bb-1af8-4d2f-af96-2111508a1e70"},"vehicle_type_id":"4","last_reported":1683986733,"current_range_meters":22000,"station_id":"ce4bgt12rcd13ifvqce0","pricing_plan_id":"free"},{"bike_id":"3801afcf-6b9e-43f8-8e5b-cf24aa6b3177","system_id":"levelo_inurba_marseille","lat":43.30799,"lon":5.38155,"is_reserved":false,"is_disabled":false,"rental_uris":{"android":"levelo://app?vid=3801afcf-6b9e-43f8-8e5b-cf24aa6b3177","ios":"levelo://app?vid=3801afcf-6b9e-43f8-8e5b-cf24aa6b3177"},"vehicle_type_id":"4","last_reported":1683986733,"current_range_meters":22000,"station_id":"ce4bgt12rcd13ifvqce0","pricing_plan_id":"free"},{"bike_id":"c9506ea9-9fc7-4140-835f-ae50c6be81af","system_id":"levelo_inurba_marseille","lat":43.308012,"lon":5.381511,"is_reserved":false,"is_disabled":false,"rental_uris":{"android":"levelo://app?vid=c9506ea9-9fc7-4140-835f-ae50c6be81af","ios":"levelo://app?vid=c9506ea9-9fc7-4140-835f-ae50c6be81af"},"vehicle_type_id":"4","last_reported":1683986733,"current_range_meters":31600,"station_id":"ce4bgt12rcd13ifvqce0","pricing_plan_id":"free"},{"bike_id":"53040035-ce3c-46e0-8324-7f69cf5b72fa","system_id":"levelo_inurba_marseille","lat":43.308012,"lon":5.381511,"is_reserved":false,"is_disabled":false,"rental_uris":{"android":"levelo://app?vid=53040035-ce3c-46e0-8324-7f69cf5b72fa","ios":"levelo://app?vid=53040035-ce3c-46e0-8324-7f69cf5b72fa"},"vehicle_type_id":"4","last_reported":1683986733,"current_range_meters":26000,"station_id":"ce4bgt12rcd13ifvqce0","pricing_plan_id":"free"},{"bike_id":"003d582e-7e5f-4a87-a622-32e3086b14b0","system_id":"levelo_inurba_marseille","lat":43.304606,"lon":5.379026,"is_reserved":false,"is_disabled":false,"rental_uris":{"android":"levelo://app?vid=003d582e-7e5f-4a87-a622-32e3086b14b0","ios":"levelo://app?vid=003d582e-7e5f-4a87-a622-32e3086b14b0"},"vehicle_type_id":"4","last_reported":1683986733,"current_range_meters":31200,"station_id":"ce4bgup2rcd13ifvqcn0","pricing_plan_id":"free"},{"bike_id":"8b47ea53-5d97-44ee-9714-7e51bb264dac","system_id":"levelo_inurba_marseille","lat":43.304606,"lon":5.379026,"is_reserved":false,"is_disabled":false,"rental_uris":{"android":"levelo://app?vid=8b47ea53-5d97-44ee-9714-7e51bb264dac","ios":"levelo://app?vid=8b47ea53-5d97-44ee-9714-7e51bb264dac"},"vehicle_type_id":"4","last_reported":1683986733,"current_range_meters":31200,"station_id":"ce4bgup2rcd13ifvqcn0","pricing_plan_id":"free"},{"bike_id":"60680915-fb24-4b19-bfde-912f36d2d614","system_id":"levelo_inurba_marseille","lat":43.304606,"lon":5.379026,"is_reserved":false,"is_disabled":false,"rental_uris":{"android":"levelo://app?vid=60680915-fb24-4b19-bfde-912f36d2d614","ios":"levelo://app?vid=60680915-fb24-4b19-bfde-912f36d2d614"},"vehicle_type_id":"4","last_reported":1683986733,"current_range_meters":31600,"station_id":"ce4bgup2rcd13ifvqcn0","pricing_plan_id":"free"},{"bike_id":"8936ef60-3d28-446a-b9ba-fe8500de57c4","system_id":"levelo_inurba_marseille","lat":43.304606,"lon":5.379026,"is_reserved":false,"is_disabled":false,"rental_uris":{"android":"levelo://app?vid=8936ef60-3d28-446a-b9ba-fe8500de57c4","ios":"levelo://app?vid=8936ef60-3d28-446a-b9ba-fe8500de57c4"},"vehicle_type_id":"4","last_reported":1683986733,"current_range_meters":25600,"station_id":"ce4bgup2rcd13ifvqcn0","pricing_plan_id":"free"},{"bike_id":"4d9b61f6-6e86-46e1-ab70-646a1e0d60f5","system_id":"levelo_inurba_marseille","lat":43.30459,"lon":5.37901,"is_reserved":false,"is_disabled":false,"rental_uris":{"android":"levelo://app?vid=4d9b61f6-6e86-46e1-ab70-646a1e0d60f5","ios":"levelo://app?vid=4d9b61f6-6e86-46e1-ab70-646a1e0d60f5"},"vehicle_type_id":"4","last_reported":1683986733,"current_range_meters":22800,"station_id":"ce4bgup2rcd13ifvqcn0","pricing_plan_id":"free"},{"bike_id":"ce510c63-1846-4673-b307-9cf32b9d17d6","system_id":"levelo_inurba_marseille","lat":43.304606,"lon":5.379026,"is_reserved":false,"is_disabled":false,"rental_uris":{"android":"levelo://app?vid=ce510c63-1846-4673-b307-9cf32b9d17d6","ios":"levelo://app?vid=ce510c63-1846-4673-b307-9cf32b9d17d6"},"vehicle_type_id":"4","last_reported":1683986733,"current_range_meters":4000,"station_id":"ce4bgup2rcd13ifvqcn0","pricing_plan_id":"free"},{"bike_id":"e5817123-3e1d-4a68-9e77-52d4575f18a9","system_id":"levelo_inurba_marseille","lat":43.304606,"lon":5.379026,"is_reserved":false,"is_disabled":false,"rental_uris":{"android":"levelo://app?vid=e5817123-3e1d-4a68-9e77-52d4575f18a9","ios":"levelo://app?vid=e5817123-3e1d-4a68-9e77-52d4575f18a9"},"vehicle_type_id":"4","last_reported":1683986733,"current_range_meters":28800,"station_id":"ce4bgup2rcd13ifvqcn0","pricing_plan_id":"free"},{"bike_id":"0246c9e0-a5f7-4bf1-ad09-f5c085bc7755","system_id":"levelo_inurba_marseille","lat":43.304606,"lon":5.379026,"is_reserved":false,"is_disabled":false,"rental_uris":{"android":"levelo://app?vid=0246c9e0-a5f7-4bf1-ad09-f5c085bc7755","ios":"levelo://app?vid=0246c9e0-a5f7-4bf1-ad09-f5c085bc7755"},"vehicle_type_id":"4","last_reported":1683986733,"current_range_meters":19600,"station_id":"ce4bgup2rcd13ifvqcn0","pricing_plan_id":"free"},{"bike_id":"a6d1fc11-433f-4480-b505-c7aecdcc72fd","system_id":"levelo_inurba_marseille","lat":43.313571,"lon":5.384829,"is_reserved":false,"is_disabled":false,"rental_uris":{"android":"levelo://app?vid=a6d1fc11-433f-4480-b505-c7aecdcc72fd","ios":"levelo://app?vid=a6d1fc11-433f-4480-b505-c7aecdcc72fd"},"vehicle_type_id":"4","last_reported":1683986733,"current_range_meters":26400,"station_id":"ce4bgt92rcd13ifvqcf0","pricing_plan_id":"free"},{"bike_id":"3735650b-d2b3-481f-854f-3ef245907625","system_id":"levelo_inurba_marseille","lat":43.313571,"lon":5.384829,"is_reserved":false,"is_disabled":false,"rental_uris":{"android":"levelo://app?vid=3735650b-d2b3-481f-854f-3ef245907625","ios":"levelo://app?vid=3735650b-d2b3-481f-854f-3ef245907625"},"vehicle_type_id":"4","last_reported":1683986733,"current_range_meters":21200,"station_id":"ce4bgt92rcd13ifvqcf0","pricing_plan_id":"free"},{"bike_id":"7112e130-2186-45c6-8d47-46f0e634f00a","system_id":"levelo_inurba_marseille","lat":43.299222,"lon":5.365554,"is_reserved":false,"is_disabled":false,"rental_uris":{"android":"levelo://app?vid=7112e130-2186-45c6-8d47-46f0e634f00a","ios":"levelo://app?vid=7112e130-2186-45c6-8d47-46f0e634f00a"},"vehicle_type_id":"4","last_reported":1683986733,"current_range_meters":24800,"station_id":"ce4bgm92rcd13ifvqbr0","pricing_plan_id":"free"},{"bike_id":"09b041e6-6074-4df7-a048-f6981c376cfd","system_id":"levelo_inurba_marseille","lat":43.31357,"lon":5.38525,"is_reserved":false,"is_disabled":false,"rental_uris":{"android":"levelo://app?vid=09b041e6-6074-4df7-a048-f6981c376cfd","ios":"levelo://app?vid=09b041e6-6074-4df7-a048-f6981c376cfd"},"vehicle_type_id":"4","last_reported":1683986733,"current_range_meters":17200,"station_id":"","pricing_plan_id":"free"},{"bike_id":"1c3ba0fc-c6c7-431b-adcf-b724472c5073","system_id":"levelo_inurba_marseille","lat":43.299222,"lon":5.365554,"is_reserved":false,"is_disabled":false,"rental_uris":{"android":"levelo://app?vid=1c3ba0fc-c6c7-431b-adcf-b724472c5073","ios":"levelo://app?vid=1c3ba0fc-c6c7-431b-adcf-b724472c5073"},"vehicle_type_id":"4","last_reported":1683986733,"current_range_meters":24000,"station_id":"ce4bgm92rcd13ifvqbr0","pricing_plan_id":"free"},{"bike_id":"54db8822-be42-4881-bcd0-63cbd0cff61b","system_id":"levelo_inurba_marseille","lat":43.299222,"lon":5.365554,"is_reserved":false,"is_disabled":false,"rental_uris":{"android":"levelo://app?vid=54db8822-be42-4881-bcd0-63cbd0cff61b","ios":"levelo://app?vid=54db8822-be42-4881-bcd0-63cbd0cff61b"},"vehicle_type_id":"4","last_reported":1683986733,"current_range_meters":12800,"station_id":"ce4bgm92rcd13ifvqbr0","pricing_plan_id":"free"},{"bike_id":"acea4c0f-0651-4630-93f6-49741cbebbb0","system_id":"levelo_inurba_marseille","lat":43.299222,"lon":5.365554,"is_reserved":false,"is_disabled":false,"rental_uris":{"android":"levelo://app?vid=acea4c0f-0651-4630-93f6-49741cbebbb0","ios":"levelo://app?vid=acea4c0f-0651-4630-93f6-49741cbebbb0"},"vehicle_type_id":"4","last_reported":1683986733,"current_range_meters":14400,"station_id":"ce4bgm92rcd13ifvqbr0","pricing_plan_id":"free"},{"bike_id":"6e4cd609-93c3-4ec7-b5bc-b80aaa1080f6","system_id":"levelo_inurba_marseille","lat":43.298433,"lon":5.362774,"is_reserved":false,"is_disabled":false,"rental_uris":{"android":"levelo://app?vid=6e4cd609-93c3-4ec7-b5bc-b80aaa1080f6","ios":"levelo://app?vid=6e4cd609-93c3-4ec7-b5bc-b80aaa1080f6"},"vehicle_type_id":"4","last_reported":1683986733,"current_range_meters":21600,"station_id":"ce4bgpp2rcd13ifvqc3g","pricing_plan_id":"free"},{"bike_id":"634f1ba4-8ace-4e46-b150-a0ce61540ebf","system_id":"levelo_inurba_marseille","lat":43.298433,"lon":5.362774,"is_reserved":false,"is_disabled":false,"rental_uris":{"android":"levelo://app?vid=634f1ba4-8ace-4e46-b150-a0ce61540ebf","ios":"levelo://app?vid=634f1ba4-8ace-4e46-b150-a0ce61540ebf"},"vehicle_type_id":"4","last_reported":1683986733,"current_range_meters":31200,"station_id":"ce4bgpp2rcd13ifvqc3g","pricing_plan_id":"free"},{"bike_id":"06987ba5-e9a7-44c4-853c-457b614dfbaf","system_id":"levelo_inurba_marseille","lat":43.298433,"lon":5.362774,"is_reserved":false,"is_disabled":false,"rental_uris":{"android":"levelo://app?vid=06987ba5-e9a7-44c4-853c-457b614dfbaf","ios":"levelo://app?vid=06987ba5-e9a7-44c4-853c-457b614dfbaf"},"vehicle_type_id":"4","last_reported":1683986733,"current_range_meters":21600,"station_id":"ce4bgpp2rcd13ifvqc3g","pricing_plan_id":"free"},{"bike_id":"75ff5a5b-29ad-47ad-9958-a3d56d5b4426","system_id":"levelo_inurba_marseille","lat":43.298433,"lon":5.362774,"is_reserved":false,"is_disabled":false,"rental_uris":{"android":"levelo://app?vid=75ff5a5b-29ad-47ad-9958-a3d56d5b4426","ios":"levelo://app?vid=75ff5a5b-29ad-47ad-9958-a3d56d5b4426"},"vehicle_type_id":"4","last_reported":1683986733,"current_range_meters":24000,"station_id":"ce4bgpp2rcd13ifvqc3g","pricing_plan_id":"free"},{"bike_id":"5432ee53-7666-48b3-9770-67586b914c8a","system_id":"levelo_inurba_marseille","lat":43.298433,"lon":5.362774,"is_reserved":false,"is_disabled":false,"rental_uris":{"android":"levelo://app?vid=5432ee53-7666-48b3-9770-67586b914c8a","ios":"levelo://app?vid=5432ee53-7666-48b3-9770-67586b914c8a"},"vehicle_type_id":"4","last_reported":1683986733,"current_range_meters":18800,"station_id":"ce4bgpp2rcd13ifvqc3g","pricing_plan_id":"free"},{"bike_id":"5275351a-5157-4055-b546-7c109259fdf7","system_id":"levelo_inurba_marseille","lat":43.298433,"lon":5.362774,"is_reserved":false,"is_disabled":false,"rental_uris":{"android":"levelo://app?vid=5275351a-5157-4055-b546-7c109259fdf7","ios":"levelo://app?vid=5275351a-5157-4055-b546-7c109259fdf7"},"vehicle_type_id":"4","last_reported":1683986733,"current_range_meters":7600,"station_id":"ce4bgpp2rcd13ifvqc3g","pricing_plan_id":"free"},{"bike_id":"a94587fb-c12a-46f1-a5fc-34f6dba3c1ff","system_id":"levelo_inurba_marseille","lat":43.298433,"lon":5.362774,"is_reserved":false,"is_disabled":false,"rental_uris":{"android":"levelo://app?vid=a94587fb-c12a-46f1-a5fc-34f6dba3c1ff","ios":"levelo://app?vid=a94587fb-c12a-46f1-a5fc-34f6dba3c1ff"},"vehicle_type_id":"4","last_reported":1683986733,"current_range_meters":4400,"station_id":"ce4bgpp2rcd13ifvqc3g","pricing_plan_id":"free"},{"bike_id":"8a045a03-ffde-4c85-a76d-ca90164a0aad","system_id":"levelo_inurba_marseille","lat":43.298433,"lon":5.362774,"is_reserved":false,"is_disabled":false,"rental_uris":{"android":"levelo://app?vid=8a045a03-ffde-4c85-a76d-ca90164a0aad","ios":"levelo://app?vid=8a045a03-ffde-4c85-a76d-ca90164a0aad"},"vehicle_type_id":"4","last_reported":1683986733,"current_range_meters":31200,"station_id":"ce4bgpp2rcd13ifvqc3g","pricing_plan_id":"free"},{"bike_id":"09e9ee45-6249-482b-8ae6-e16dc0b6eb76","system_id":"levelo_inurba_marseille","lat":43.298433,"lon":5.362774,"is_reserved":false,"is_disabled":false,"rental_uris":{"android":"levelo://app?vid=09e9ee45-6249-482b-8ae6-e16dc0b6eb76","ios":"levelo://app?vid=09e9ee45-6249-482b-8ae6-e16dc0b6eb76"},"vehicle_type_id":"4","last_reported":1683986733,"current_range_meters":31200,"station_id":"ce4bgpp2rcd13ifvqc3g","pricing_plan_id":"free"},{"bike_id":"3aa1428d-6732-4fde-bb68-f77d1adb447f","system_id":"levelo_inurba_marseille","lat":43.299243,"lon":5.374807,"is_reserved":false,"is_disabled":false,"rental_uris":{"android":"levelo://app?vid=3aa1428d-6732-4fde-bb68-f77d1adb447f","ios":"levelo://app?vid=3aa1428d-6732-4fde-bb68-f77d1adb447f"},"vehicle_type_id":"4","last_reported":1683986733,"current_range_meters":19600,"station_id":"ce4bgjh2rcd13ifvqbg0","pricing_plan_id":"free"},{"bike_id":"89023bbe-2daa-49ee-84fa-85cf631fd92e","system_id":"levelo_inurba_marseille","lat":43.298433,"lon":5.362774,"is_reserved":false,"is_disabled":false,"rental_uris":{"android":"levelo://app?vid=89023bbe-2daa-49ee-84fa-85cf631fd92e","ios":"levelo://app?vid=89023bbe-2daa-49ee-84fa-85cf631fd92e"},"vehicle_type_id":"4","last_reported":1683986733,"current_range_meters":31200,"station_id":"ce4bgpp2rcd13ifvqc3g","pricing_plan_id":"free"},{"bike_id":"868c18a7-1b45-4329-b5af-1fb35a84865f","system_id":"levelo_inurba_marseille","lat":43.298433,"lon":5.362774,"is_reserved":false,"is_disabled":false,"rental_uris":{"android":"levelo://app?vid=868c18a7-1b45-4329-b5af-1fb35a84865f","ios":"levelo://app?vid=868c18a7-1b45-4329-b5af-1fb35a84865f"},"vehicle_type_id":"4","last_reported":1683986733,"current_range_meters":15600,"station_id":"ce4bgpp2rcd13ifvqc3g","pricing_plan_id":"free"},{"bike_id":"79f91ac4-3fcd-4ea7-8f97-0c780355fec2","system_id":"levelo_inurba_marseille","lat":43.29926,"lon":5.37485,"is_reserved":false,"is_disabled":false,"rental_uris":{"android":"levelo://app?vid=79f91ac4-3fcd-4ea7-8f97-0c780355fec2","ios":"levelo://app?vid=79f91ac4-3fcd-4ea7-8f97-0c780355fec2"},"vehicle_type_id":"4","last_reported":1683986733,"current_range_meters":29600,"station_id":"ce4bgjh2rcd13ifvqbg0","pricing_plan_id":"free"},{"bike_id":"2b17702e-cb48-4950-8b56-3d8733d3c13c","system_id":"levelo_inurba_marseille","lat":43.29918,"lon":5.37472,"is_reserved":false,"is_disabled":false,"rental_uris":{"android":"levelo://app?vid=2b17702e-cb48-4950-8b56-3d8733d3c13c","ios":"levelo://app?vid=2b17702e-cb48-4950-8b56-3d8733d3c13c"},"vehicle_type_id":"4","last_reported":1683986733,"current_range_meters":28400,"station_id":"ce4bgjh2rcd13ifvqbg0","pricing_plan_id":"free"},{"bike_id":"60affe37-72af-4d93-8bda-72bdee9b1f31","system_id":"levelo_inurba_marseille","lat":43.2991,"lon":5.37453,"is_reserved":false,"is_disabled":false,"rental_uris":{"android":"levelo://app?vid=60affe37-72af-4d93-8bda-72bdee9b1f31","ios":"levelo://app?vid=60affe37-72af-4d93-8bda-72bdee9b1f31"},"vehicle_type_id":"4","last_reported":1683986733,"current_range_meters":26800,"station_id":"ce4bgjh2rcd13ifvqbg0","pricing_plan_id":"free"},{"bike_id":"cfd56c3a-ee5c-4b09-9ae6-11a8a5183b39","system_id":"levelo_inurba_marseille","lat":43.311722,"lon":5.387247,"is_reserved":false,"is_disabled":false,"rental_uris":{"android":"levelo://app?vid=cfd56c3a-ee5c-4b09-9ae6-11a8a5183b39","ios":"levelo://app?vid=cfd56c3a-ee5c-4b09-9ae6-11a8a5183b39"},"vehicle_type_id":"4","last_reported":1683986733,"current_range_meters":30000,"station_id":"ce4bgv12rcd13ifvqcp0","pricing_plan_id":"free"},{"bike_id":"819dd1d1-04a4-4ce0-a2b4-a1e273012fec","system_id":"levelo_inurba_marseille","lat":43.299243,"lon":5.374807,"is_reserved":false,"is_disabled":false,"rental_uris":{"android":"levelo://app?vid=819dd1d1-04a4-4ce0-a2b4-a1e273012fec","ios":"levelo://app?vid=819dd1d1-04a4-4ce0-a2b4-a1e273012fec"},"vehicle_type_id":"4","last_reported":1683986733,"current_range_meters":22400,"station_id":"ce4bgjh2rcd13ifvqbg0","pricing_plan_id":"free"},{"bike_id":"84901802-7e48-447a-9460-3b627d489764","system_id":"levelo_inurba_marseille","lat":43.299243,"lon":5.374807,"is_reserved":false,"is_disabled":false,"rental_uris":{"android":"levelo://app?vid=84901802-7e48-447a-9460-3b627d489764","ios":"levelo://app?vid=84901802-7e48-447a-9460-3b627d489764"},"vehicle_type_id":"4","last_reported":1683986733,"current_range_meters":17200,"station_id":"ce4bgjh2rcd13ifvqbg0","pricing_plan_id":"free"},{"bike_id":"6aa6c4a0-7abf-4d24-9589-1191d731644a","system_id":"levelo_inurba_marseille","lat":43.311722,"lon":5.387247,"is_reserved":false,"is_disabled":false,"rental_uris":{"android":"levelo://app?vid=6aa6c4a0-7abf-4d24-9589-1191d731644a","ios":"levelo://app?vid=6aa6c4a0-7abf-4d24-9589-1191d731644a"},"vehicle_type_id":"4","last_reported":1683986733,"current_range_meters":28800,"station_id":"ce4bgv12rcd13ifvqcp0","pricing_plan_id":"free"},{"bike_id":"9a2d2a4c-a129-4ad0-923c-115139dc4071","system_id":"levelo_inurba_marseille","lat":43.311722,"lon":5.387247,"is_reserved":false,"is_disabled":false,"rental_uris":{"android":"levelo://app?vid=9a2d2a4c-a129-4ad0-923c-115139dc4071","ios":"levelo://app?vid=9a2d2a4c-a129-4ad0-923c-115139dc4071"},"vehicle_type_id":"4","last_reported":1683986733,"current_range_meters":29600,"station_id":"ce4bgv12rcd13ifvqcp0","pricing_plan_id":"free"},{"bike_id":"32c4974b-2fd2-45a3-8d76-a8f0a12f92a4","system_id":"levelo_inurba_marseille","lat":43.311722,"lon":5.387247,"is_reserved":false,"is_disabled":false,"rental_uris":{"android":"levelo://app?vid=32c4974b-2fd2-45a3-8d76-a8f0a12f92a4","ios":"levelo://app?vid=32c4974b-2fd2-45a3-8d76-a8f0a12f92a4"},"vehicle_type_id":"4","last_reported":1683986733,"current_range_meters":6000,"station_id":"ce4bgv12rcd13ifvqcp0","pricing_plan_id":"free"},{"bike_id":"2f96f4b7-d3f1-4b87-b98f-caf50ba6d13d","system_id":"levelo_inurba_marseille","lat":43.32772,"lon":5.367,"is_reserved":false,"is_disabled":false,"rental_uris":{"android":"levelo://app?vid=2f96f4b7-d3f1-4b87-b98f-caf50ba6d13d","ios":"levelo://app?vid=2f96f4b7-d3f1-4b87-b98f-caf50ba6d13d"},"vehicle_type_id":"4","last_reported":1683986733,"current_range_meters":12000,"station_id":"","pricing_plan_id":"free"},{"bike_id":"ad50fbdc-6818-49a3-976a-84468e8cc53b","system_id":"levelo_inurba_marseille","lat":43.328371,"lon":5.366912,"is_reserved":false,"is_disabled":false,"rental_uris":{"android":"levelo://app?vid=ad50fbdc-6818-49a3-976a-84468e8cc53b","ios":"levelo://app?vid=ad50fbdc-6818-49a3-976a-84468e8cc53b"},"vehicle_type_id":"4","last_reported":1683986733,"current_range_meters":6800,"station_id":"ce4bhs92rcd13ifvqi0g","pricing_plan_id":"free"},{"bike_id":"173c35b5-642e-4cd5-9a42-cf3fc117f00c","system_id":"levelo_inurba_marseille","lat":43.328371,"lon":5.366912,"is_reserved":false,"is_disabled":false,"rental_uris":{"android":"levelo://app?vid=173c35b5-642e-4cd5-9a42-cf3fc117f00c","ios":"levelo://app?vid=173c35b5-642e-4cd5-9a42-cf3fc117f00c"},"vehicle_type_id":"4","last_reported":1683986733,"current_range_meters":18400,"station_id":"ce4bhs92rcd13ifvqi0g","pricing_plan_id":"free"},{"bike_id":"86719306-0ddc-4576-a656-570a4d550f46","system_id":"levelo_inurba_marseille","lat":43.328371,"lon":5.366912,"is_reserved":false,"is_disabled":false,"rental_uris":{"android":"levelo://app?vid=86719306-0ddc-4576-a656-570a4d550f46","ios":"levelo://app?vid=86719306-0ddc-4576-a656-570a4d550f46"},"vehicle_type_id":"4","last_reported":1683986733,"current_range_meters":29600,"station_id":"ce4bhs92rcd13ifvqi0g","pricing_plan_id":"free"},{"bike_id":"05dd3660-fb8d-4649-b95f-77a48f876534","system_id":"levelo_inurba_marseille","lat":43.32831,"lon":5.36686,"is_reserved":false,"is_disabled":false,"rental_uris":{"android":"levelo://app?vid=05dd3660-fb8d-4649-b95f-77a48f876534","ios":"levelo://app?vid=05dd3660-fb8d-4649-b95f-77a48f876534"},"vehicle_type_id":"4","last_reported":1683986733,"current_range_meters":2400,"station_id":"ce4bhs92rcd13ifvqi0g","pricing_plan_id":"free"},{"bike_id":"e1b7270c-c690-4136-acf1-04f06180c8d3","system_id":"levelo_inurba_marseille","lat":43.32831,"lon":5.36684,"is_reserved":false,"is_disabled":false,"rental_uris":{"android":"levelo://app?vid=e1b7270c-c690-4136-acf1-04f06180c8d3","ios":"levelo://app?vid=e1b7270c-c690-4136-acf1-04f06180c8d3"},"vehicle_type_id":"4","last_reported":1683986733,"current_range_meters":14800,"station_id":"ce4bhs92rcd13ifvqi0g","pricing_plan_id":"free"},{"bike_id":"35c64b45-67cb-4db8-8dde-84eb3cae14a9","system_id":"levelo_inurba_marseille","lat":43.328371,"lon":5.366912,"is_reserved":false,"is_disabled":false,"rental_uris":{"android":"levelo://app?vid=35c64b45-67cb-4db8-8dde-84eb3cae14a9","ios":"levelo://app?vid=35c64b45-67cb-4db8-8dde-84eb3cae14a9"},"vehicle_type_id":"4","last_reported":1683986733,"current_range_meters":28800,"station_id":"ce4bhs92rcd13ifvqi0g","pricing_plan_id":"free"},{"bike_id":"053fa0fe-d0b8-4b77-9e9a-95a5b916daf2","system_id":"levelo_inurba_marseille","lat":43.328371,"lon":5.366912,"is_reserved":false,"is_disabled":false,"rental_uris":{"android":"levelo://app?vid=053fa0fe-d0b8-4b77-9e9a-95a5b916daf2","ios":"levelo://app?vid=053fa0fe-d0b8-4b77-9e9a-95a5b916daf2"},"vehicle_type_id":"4","last_reported":1683986733,"current_range_meters":400,"station_id":"ce4bhs92rcd13ifvqi0g","pricing_plan_id":"free"},{"bike_id":"2f534b25-3d76-4ad4-bcb9-91101064834c","system_id":"levelo_inurba_marseille","lat":43.328371,"lon":5.366912,"is_reserved":false,"is_disabled":false,"rental_uris":{"android":"levelo://app?vid=2f534b25-3d76-4ad4-bcb9-91101064834c","ios":"levelo://app?vid=2f534b25-3d76-4ad4-bcb9-91101064834c"},"vehicle_type_id":"4","last_reported":1683986733,"current_range_meters":18400,"station_id":"ce4bhs92rcd13ifvqi0g","pricing_plan_id":"free"},{"bike_id":"2ede4aa6-cb68-4708-8adb-810b72dccf8e","system_id":"levelo_inurba_marseille","lat":43.328371,"lon":5.366912,"is_reserved":false,"is_disabled":false,"rental_uris":{"android":"levelo://app?vid=2ede4aa6-cb68-4708-8adb-810b72dccf8e","ios":"levelo://app?vid=2ede4aa6-cb68-4708-8adb-810b72dccf8e"},"vehicle_type_id":"4","last_reported":1683986733,"current_range_meters":4800,"station_id":"ce4bhs92rcd13ifvqi0g","pricing_plan_id":"free"},{"bike_id":"0a5c6e50-cd6f-4800-a0e5-993347926bc8","system_id":"levelo_inurba_marseille","lat":43.328371,"lon":5.366912,"is_reserved":false,"is_disabled":false,"rental_uris":{"android":"levelo://app?vid=0a5c6e50-cd6f-4800-a0e5-993347926bc8","ios":"levelo://app?vid=0a5c6e50-cd6f-4800-a0e5-993347926bc8"},"vehicle_type_id":"4","last_reported":1683986733,"current_range_meters":12000,"station_id":"ce4bhs92rcd13ifvqi0g","pricing_plan_id":"free"},{"bike_id":"233fb492-2f64-4989-b328-27ff7ec644ca","system_id":"levelo_inurba_marseille","lat":43.297156,"lon":5.365975,"is_reserved":false,"is_disabled":false,"rental_uris":{"android":"levelo://app?vid=233fb492-2f64-4989-b328-27ff7ec644ca","ios":"levelo://app?vid=233fb492-2f64-4989-b328-27ff7ec644ca"},"vehicle_type_id":"4","last_reported":1683986733,"current_range_meters":29600,"station_id":"","pricing_plan_id":"free"},{"bike_id":"d2fd4a69-1781-4d10-b230-5796d7806c38","system_id":"levelo_inurba_marseille","lat":43.328371,"lon":5.366912,"is_reserved":false,"is_disabled":false,"rental_uris":{"android":"levelo://app?vid=d2fd4a69-1781-4d10-b230-5796d7806c38","ios":"levelo://app?vid=d2fd4a69-1781-4d10-b230-5796d7806c38"},"vehicle_type_id":"4","last_reported":1683986733,"current_range_meters":2000,"station_id":"ce4bhs92rcd13ifvqi0g","pricing_plan_id":"free"},{"bike_id":"8ea15e6b-0302-4f6b-a369-2130aebae5f9","system_id":"levelo_inurba_marseille","lat":43.328371,"lon":5.366912,"is_reserved":false,"is_disabled":false,"rental_uris":{"android":"levelo://app?vid=8ea15e6b-0302-4f6b-a369-2130aebae5f9","ios":"levelo://app?vid=8ea15e6b-0302-4f6b-a369-2130aebae5f9"},"vehicle_type_id":"4","last_reported":1683986733,"current_range_meters":12800,"station_id":"ce4bhs92rcd13ifvqi0g","pricing_plan_id":"free"},{"bike_id":"9138a0fa-fcdc-4a5a-8829-d9a64104a1e4","system_id":"levelo_inurba_marseille","lat":43.2971,"lon":5.36606,"is_reserved":false,"is_disabled":false,"rental_uris":{"android":"levelo://app?vid=9138a0fa-fcdc-4a5a-8829-d9a64104a1e4","ios":"levelo://app?vid=9138a0fa-fcdc-4a5a-8829-d9a64104a1e4"},"vehicle_type_id":"4","last_reported":1683986733,"current_range_meters":25600,"station_id":"","pricing_plan_id":"free"},{"bike_id":"7ced84aa-2f17-4e67-a003-aed81c99ff00","system_id":"levelo_inurba_marseille","lat":43.296131,"lon":5.370791,"is_reserved":false,"is_disabled":false,"rental_uris":{"android":"levelo://app?vid=7ced84aa-2f17-4e67-a003-aed81c99ff00","ios":"levelo://app?vid=7ced84aa-2f17-4e67-a003-aed81c99ff00"},"vehicle_type_id":"4","last_reported":1683986733,"current_range_meters":31200,"station_id":"ce4bgnh2rcd13ifvqc0g","pricing_plan_id":"free"},{"bike_id":"c1ca7173-7f99-40ec-a106-54eeeedacb28","system_id":"levelo_inurba_marseille","lat":43.29628,"lon":5.37155,"is_reserved":false,"is_disabled":false,"rental_uris":{"android":"levelo://app?vid=c1ca7173-7f99-40ec-a106-54eeeedacb28","ios":"levelo://app?vid=c1ca7173-7f99-40ec-a106-54eeeedacb28"},"vehicle_type_id":"4","last_reported":1683986733,"current_range_meters":27200,"station_id":"ce4bgk12rcd13ifvqbj0","pricing_plan_id":"free"},{"bike_id":"822f0c0a-ff17-421a-80a1-6d7c62d6210d","system_id":"levelo_inurba_marseille","lat":43.296129,"lon":5.370777,"is_reserved":false,"is_disabled":false,"rental_uris":{"android":"levelo://app?vid=822f0c0a-ff17-421a-80a1-6d7c62d6210d","ios":"levelo://app?vid=822f0c0a-ff17-421a-80a1-6d7c62d6210d"},"vehicle_type_id":"4","last_reported":1683986733,"current_range_meters":31200,"station_id":"ce4bgnh2rcd13ifvqc0g","pricing_plan_id":"free"},{"bike_id":"9d3c21c5-31c3-4d87-a99b-82531594bcbc","system_id":"levelo_inurba_marseille","lat":43.296129,"lon":5.370777,"is_reserved":false,"is_disabled":false,"rental_uris":{"android":"levelo://app?vid=9d3c21c5-31c3-4d87-a99b-82531594bcbc","ios":"levelo://app?vid=9d3c21c5-31c3-4d87-a99b-82531594bcbc"},"vehicle_type_id":"4","last_reported":1683986733,"current_range_meters":31200,"station_id":"ce4bgnh2rcd13ifvqc0g","pricing_plan_id":"free"},{"bike_id":"f98ab39a-3438-4668-8cea-b03e7bbad998","system_id":"levelo_inurba_marseille","lat":43.29573,"lon":5.367355,"is_reserved":false,"is_disabled":false,"rental_uris":{"android":"levelo://app?vid=f98ab39a-3438-4668-8cea-b03e7bbad998","ios":"levelo://app?vid=f98ab39a-3438-4668-8cea-b03e7bbad998"},"vehicle_type_id":"4","last_reported":1683986733,"current_range_meters":16000,"station_id":"ce4bgph2rcd13ifvqc2g","pricing_plan_id":"free"},{"bike_id":"e62a4019-15e5-4aa8-ac87-39c5d1aaa8ba","system_id":"levelo_inurba_marseille","lat":43.30011,"lon":5.3828,"is_reserved":false,"is_disabled":false,"rental_uris":{"android":"levelo://app?vid=e62a4019-15e5-4aa8-ac87-39c5d1aaa8ba","ios":"levelo://app?vid=e62a4019-15e5-4aa8-ac87-39c5d1aaa8ba"},"vehicle_type_id":"4","last_reported":1683986733,"current_range_meters":0,"station_id":"","pricing_plan_id":"free"},{"bike_id":"5de27c68-2cf9-4007-9eef-a9b8910a65e6","system_id":"levelo_inurba_marseille","lat":43.296921,"lon":5.376579,"is_reserved":false,"is_disabled":false,"rental_uris":{"android":"levelo://app?vid=5de27c68-2cf9-4007-9eef-a9b8910a65e6","ios":"levelo://app?vid=5de27c68-2cf9-4007-9eef-a9b8910a65e6"},"vehicle_type_id":"4","last_reported":1683986733,"current_range_meters":23600,"station_id":"ce4bgkh2rcd13ifvqbl0","pricing_plan_id":"free"},{"bike_id":"5499a5e3-f422-4564-8e4e-22bbd2393994","system_id":"levelo_inurba_marseille","lat":43.299189,"lon":5.381575,"is_reserved":false,"is_disabled":false,"rental_uris":{"android":"levelo://app?vid=5499a5e3-f422-4564-8e4e-22bbd2393994","ios":"levelo://app?vid=5499a5e3-f422-4564-8e4e-22bbd2393994"},"vehicle_type_id":"4","last_reported":1683986733,"current_range_meters":20400,"station_id":"","pricing_plan_id":"free"},{"bike_id":"f17d7b65-671b-49fe-aedd-546550e50894","system_id":"levelo_inurba_marseille","lat":43.299028,"lon":5.381509,"is_reserved":false,"is_disabled":false,"rental_uris":{"android":"levelo://app?vid=f17d7b65-671b-49fe-aedd-546550e50894","ios":"levelo://app?vid=f17d7b65-671b-49fe-aedd-546550e50894"},"vehicle_type_id":"4","last_reported":1683986733,"current_range_meters":31200,"station_id":"ce4bgj12rcd13ifvqbc0","pricing_plan_id":"free"},{"bike_id":"8fe54a4e-0f26-4b51-899f-8ffc86240c56","system_id":"levelo_inurba_marseille","lat":43.296921,"lon":5.376579,"is_reserved":false,"is_disabled":false,"rental_uris":{"android":"levelo://app?vid=8fe54a4e-0f26-4b51-899f-8ffc86240c56","ios":"levelo://app?vid=8fe54a4e-0f26-4b51-899f-8ffc86240c56"},"vehicle_type_id":"4","last_reported":1683986733,"current_range_meters":22000,"station_id":"ce4bgkh2rcd13ifvqbl0","pricing_plan_id":"free"},{"bike_id":"a75671ae-e88f-4b08-9dde-690e42719927","system_id":"levelo_inurba_marseille","lat":43.309589,"lon":5.390258,"is_reserved":false,"is_disabled":false,"rental_uris":{"android":"levelo://app?vid=a75671ae-e88f-4b08-9dde-690e42719927","ios":"levelo://app?vid=a75671ae-e88f-4b08-9dde-690e42719927"},"vehicle_type_id":"4","last_reported":1683986733,"current_range_meters":21600,"station_id":"ce4bgup2rcd13ifvqco0","pricing_plan_id":"free"},{"bike_id":"07283d07-54e4-44c5-9ee8-9601455fe435","system_id":"levelo_inurba_marseille","lat":43.296921,"lon":5.376579,"is_reserved":false,"is_disabled":false,"rental_uris":{"android":"levelo://app?vid=07283d07-54e4-44c5-9ee8-9601455fe435","ios":"levelo://app?vid=07283d07-54e4-44c5-9ee8-9601455fe435"},"vehicle_type_id":"4","last_reported":1683986733,"current_range_meters":22400,"station_id":"ce4bgkh2rcd13ifvqbl0","pricing_plan_id":"free"},{"bike_id":"6fdda906-61a6-499b-bb5f-b54874585ce2","system_id":"levelo_inurba_marseille","lat":43.309589,"lon":5.390258,"is_reserved":false,"is_disabled":false,"rental_uris":{"android":"levelo://app?vid=6fdda906-61a6-499b-bb5f-b54874585ce2","ios":"levelo://app?vid=6fdda906-61a6-499b-bb5f-b54874585ce2"},"vehicle_type_id":"4","last_reported":1683986733,"current_range_meters":28000,"station_id":"ce4bgup2rcd13ifvqco0","pricing_plan_id":"free"},{"bike_id":"a74e48b7-a2aa-4ecf-b2e3-eedff3020e42","system_id":"levelo_inurba_marseille","lat":43.309589,"lon":5.390258,"is_reserved":false,"is_disabled":false,"rental_uris":{"android":"levelo://app?vid=a74e48b7-a2aa-4ecf-b2e3-eedff3020e42","ios":"levelo://app?vid=a74e48b7-a2aa-4ecf-b2e3-eedff3020e42"},"vehicle_type_id":"4","last_reported":1683986733,"current_range_meters":30400,"station_id":"ce4bgup2rcd13ifvqco0","pricing_plan_id":"free"},{"bike_id":"67ee8f55-42c6-4507-b8a6-12f16a7ba879","system_id":"levelo_inurba_marseille","lat":43.309589,"lon":5.390258,"is_reserved":false,"is_disabled":false,"rental_uris":{"android":"levelo://app?vid=67ee8f55-42c6-4507-b8a6-12f16a7ba879","ios":"levelo://app?vid=67ee8f55-42c6-4507-b8a6-12f16a7ba879"},"vehicle_type_id":"4","last_reported":1683986733,"current_range_meters":28800,"station_id":"ce4bgup2rcd13ifvqco0","pricing_plan_id":"free"},{"bike_id":"fe3f7f9f-a051-4228-a983-dee8d150376c","system_id":"levelo_inurba_marseille","lat":43.309589,"lon":5.390258,"is_reserved":false,"is_disabled":false,"rental_uris":{"android":"levelo://app?vid=fe3f7f9f-a051-4228-a983-dee8d150376c","ios":"levelo://app?vid=fe3f7f9f-a051-4228-a983-dee8d150376c"},"vehicle_type_id":"4","last_reported":1683986733,"current_range_meters":31200,"station_id":"ce4bgup2rcd13ifvqco0","pricing_plan_id":"free"},{"bike_id":"1b8e8455-d974-44bb-9a4e-7e7867c76231","system_id":"levelo_inurba_marseille","lat":43.3176,"lon":5.39014,"is_reserved":false,"is_disabled":false,"rental_uris":{"android":"levelo://app?vid=1b8e8455-d974-44bb-9a4e-7e7867c76231","ios":"levelo://app?vid=1b8e8455-d974-44bb-9a4e-7e7867c76231"},"vehicle_type_id":"4","last_reported":1683986733,"current_range_meters":17600,"station_id":"ce4bhqp2rcd13ifvqhng","pricing_plan_id":"free"},{"bike_id":"eb214527-8203-4410-a520-f2f2d1c67bb7","system_id":"levelo_inurba_marseille","lat":43.317557,"lon":5.390173,"is_reserved":false,"is_disabled":false,"rental_uris":{"android":"levelo://app?vid=eb214527-8203-4410-a520-f2f2d1c67bb7","ios":"levelo://app?vid=eb214527-8203-4410-a520-f2f2d1c67bb7"},"vehicle_type_id":"4","last_reported":1683986733,"current_range_meters":12000,"station_id":"ce4bhqp2rcd13ifvqhng","pricing_plan_id":"free"},{"bike_id":"8d249c4e-5841-43df-a8c1-1ee71a14ff90","system_id":"levelo_inurba_marseille","lat":43.3176,"lon":5.39017,"is_reserved":false,"is_disabled":false,"rental_uris":{"android":"levelo://app?vid=8d249c4e-5841-43df-a8c1-1ee71a14ff90","ios":"levelo://app?vid=8d249c4e-5841-43df-a8c1-1ee71a14ff90"},"vehicle_type_id":"4","last_reported":1683986733,"current_range_meters":29200,"station_id":"ce4bhqp2rcd13ifvqhng","pricing_plan_id":"free"},{"bike_id":"e82a5193-596f-4e0a-8060-27fe19032a4a","system_id":"levelo_inurba_marseille","lat":43.317557,"lon":5.390173,"is_reserved":false,"is_disabled":false,"rental_uris":{"android":"levelo://app?vid=e82a5193-596f-4e0a-8060-27fe19032a4a","ios":"levelo://app?vid=e82a5193-596f-4e0a-8060-27fe19032a4a"},"vehicle_type_id":"4","last_reported":1683986733,"current_range_meters":24800,"station_id":"ce4bhqp2rcd13ifvqhng","pricing_plan_id":"free"},{"bike_id":"2e4072c4-97ae-412f-891d-364f103e5e6c","system_id":"levelo_inurba_marseille","lat":43.31764,"lon":5.39017,"is_reserved":false,"is_disabled":false,"rental_uris":{"android":"levelo://app?vid=2e4072c4-97ae-412f-891d-364f103e5e6c","ios":"levelo://app?vid=2e4072c4-97ae-412f-891d-364f103e5e6c"},"vehicle_type_id":"4","last_reported":1683986733,"current_range_meters":18400,"station_id":"ce4bhqp2rcd13ifvqhng","pricing_plan_id":"free"},{"bike_id":"7e101d88-7926-4513-a08a-b2a6fdb92c65","system_id":"levelo_inurba_marseille","lat":43.31756,"lon":5.39021,"is_reserved":false,"is_disabled":false,"rental_uris":{"android":"levelo://app?vid=7e101d88-7926-4513-a08a-b2a6fdb92c65","ios":"levelo://app?vid=7e101d88-7926-4513-a08a-b2a6fdb92c65"},"vehicle_type_id":"4","last_reported":1683986733,"current_range_meters":29200,"station_id":"ce4bhqp2rcd13ifvqhng","pricing_plan_id":"free"},{"bike_id":"01208a13-824a-4a94-be8d-2a48a5b6b683","system_id":"levelo_inurba_marseille","lat":43.3176,"lon":5.3902,"is_reserved":false,"is_disabled":false,"rental_uris":{"android":"levelo://app?vid=01208a13-824a-4a94-be8d-2a48a5b6b683","ios":"levelo://app?vid=01208a13-824a-4a94-be8d-2a48a5b6b683"},"vehicle_type_id":"4","last_reported":1683986733,"current_range_meters":30400,"station_id":"ce4bhqp2rcd13ifvqhng","pricing_plan_id":"free"},{"bike_id":"80b60f6f-28ee-4635-a30c-377c46bb9c86","system_id":"levelo_inurba_marseille","lat":43.317557,"lon":5.390173,"is_reserved":false,"is_disabled":false,"rental_uris":{"android":"levelo://app?vid=80b60f6f-28ee-4635-a30c-377c46bb9c86","ios":"levelo://app?vid=80b60f6f-28ee-4635-a30c-377c46bb9c86"},"vehicle_type_id":"4","last_reported":1683986733,"current_range_meters":16800,"station_id":"ce4bhqp2rcd13ifvqhng","pricing_plan_id":"free"},{"bike_id":"a1c564bc-7833-41f9-a7ef-52015e433698","system_id":"levelo_inurba_marseille","lat":43.31745,"lon":5.39029,"is_reserved":false,"is_disabled":false,"rental_uris":{"android":"levelo://app?vid=a1c564bc-7833-41f9-a7ef-52015e433698","ios":"levelo://app?vid=a1c564bc-7833-41f9-a7ef-52015e433698"},"vehicle_type_id":"4","last_reported":1683986733,"current_range_meters":31200,"station_id":"ce4bhqp2rcd13ifvqhng","pricing_plan_id":"free"},{"bike_id":"bdc17ff2-edc3-49c0-8a4d-1ed309e7ace3","system_id":"levelo_inurba_marseille","lat":43.298037,"lon":5.381066,"is_reserved":false,"is_disabled":false,"rental_uris":{"android":"levelo://app?vid=bdc17ff2-edc3-49c0-8a4d-1ed309e7ace3","ios":"levelo://app?vid=bdc17ff2-edc3-49c0-8a4d-1ed309e7ace3"},"vehicle_type_id":"4","last_reported":1683986733,"current_range_meters":31200,"station_id":"ce4bgip2rcd13ifvqbb0","pricing_plan_id":"free"},{"bike_id":"5a03781e-dd26-4b23-9e10-3dc759474f15","system_id":"levelo_inurba_marseille","lat":43.298037,"lon":5.381066,"is_reserved":false,"is_disabled":false,"rental_uris":{"android":"levelo://app?vid=5a03781e-dd26-4b23-9e10-3dc759474f15","ios":"levelo://app?vid=5a03781e-dd26-4b23-9e10-3dc759474f15"},"vehicle_type_id":"4","last_reported":1683986733,"current_range_meters":22000,"station_id":"ce4bgip2rcd13ifvqbb0","pricing_plan_id":"free"},{"bike_id":"630bf584-a05b-48d8-9e17-1a319793fcf8","system_id":"levelo_inurba_marseille","lat":43.29577,"lon":5.37502,"is_reserved":false,"is_disabled":false,"rental_uris":{"android":"levelo://app?vid=630bf584-a05b-48d8-9e17-1a319793fcf8","ios":"levelo://app?vid=630bf584-a05b-48d8-9e17-1a319793fcf8"},"vehicle_type_id":"4","last_reported":1683986733,"current_range_meters":4400,"station_id":"ce4bgh92rcd13ifvqb50","pricing_plan_id":"free"},{"bike_id":"4cce1842-cba9-46c9-9cab-38d1516fa543","system_id":"levelo_inurba_marseille","lat":43.304274,"lon":5.388873,"is_reserved":false,"is_disabled":false,"rental_uris":{"android":"levelo://app?vid=4cce1842-cba9-46c9-9cab-38d1516fa543","ios":"levelo://app?vid=4cce1842-cba9-46c9-9cab-38d1516fa543"},"vehicle_type_id":"4","last_reported":1683986733,"current_range_meters":13200,"station_id":"ce4bgk12rcd13ifvqbi0","pricing_plan_id":"free"},{"bike_id":"7e438a4c-bcb8-4396-9779-ce99870755b6","system_id":"levelo_inurba_marseille","lat":43.295748,"lon":5.37522,"is_reserved":false,"is_disabled":false,"rental_uris":{"android":"levelo://app?vid=7e438a4c-bcb8-4396-9779-ce99870755b6","ios":"levelo://app?vid=7e438a4c-bcb8-4396-9779-ce99870755b6"},"vehicle_type_id":"4","last_reported":1683986733,"current_range_meters":29200,"station_id":"ce4bgh92rcd13ifvqb50","pricing_plan_id":"free"},{"bike_id":"1edc5063-7ced-4ebf-9873-e4bb59b35f16","system_id":"levelo_inurba_marseille","lat":43.29577,"lon":5.37515,"is_reserved":false,"is_disabled":false,"rental_uris":{"android":"levelo://app?vid=1edc5063-7ced-4ebf-9873-e4bb59b35f16","ios":"levelo://app?vid=1edc5063-7ced-4ebf-9873-e4bb59b35f16"},"vehicle_type_id":"4","last_reported":1683986733,"current_range_meters":19200,"station_id":"ce4bgh92rcd13ifvqb50","pricing_plan_id":"free"},{"bike_id":"266b4a35-c061-49fc-b87b-793fc6d1bca2","system_id":"levelo_inurba_marseille","lat":43.29574,"lon":5.37506,"is_reserved":false,"is_disabled":false,"rental_uris":{"android":"levelo://app?vid=266b4a35-c061-49fc-b87b-793fc6d1bca2","ios":"levelo://app?vid=266b4a35-c061-49fc-b87b-793fc6d1bca2"},"vehicle_type_id":"4","last_reported":1683986733,"current_range_meters":3600,"station_id":"ce4bgh92rcd13ifvqb50","pricing_plan_id":"free"},{"bike_id":"23fa89ad-89be-4f91-a8e3-81141e839892","system_id":"levelo_inurba_marseille","lat":43.304274,"lon":5.388873,"is_reserved":false,"is_disabled":false,"rental_uris":{"android":"levelo://app?vid=23fa89ad-89be-4f91-a8e3-81141e839892","ios":"levelo://app?vid=23fa89ad-89be-4f91-a8e3-81141e839892"},"vehicle_type_id":"4","last_reported":1683986733,"current_range_meters":21200,"station_id":"ce4bgk12rcd13ifvqbi0","pricing_plan_id":"free"},{"bike_id":"291aa194-49a8-4465-809a-3d7a84efde78","system_id":"levelo_inurba_marseille","lat":43.295748,"lon":5.37522,"is_reserved":false,"is_disabled":false,"rental_uris":{"android":"levelo://app?vid=291aa194-49a8-4465-809a-3d7a84efde78","ios":"levelo://app?vid=291aa194-49a8-4465-809a-3d7a84efde78"},"vehicle_type_id":"4","last_reported":1683986733,"current_range_meters":31200,"station_id":"ce4bgh92rcd13ifvqb50","pricing_plan_id":"free"},{"bike_id":"7e0c7a5c-0c07-4d93-bbed-dfc49dd25cc0","system_id":"levelo_inurba_marseille","lat":43.295748,"lon":5.37522,"is_reserved":false,"is_disabled":false,"rental_uris":{"android":"levelo://app?vid=7e0c7a5c-0c07-4d93-bbed-dfc49dd25cc0","ios":"levelo://app?vid=7e0c7a5c-0c07-4d93-bbed-dfc49dd25cc0"},"vehicle_type_id":"4","last_reported":1683986733,"current_range_meters":31200,"station_id":"ce4bgh92rcd13ifvqb50","pricing_plan_id":"free"},{"bike_id":"32bfb1c2-5e7d-417e-af87-ed0d0eaea8a0","system_id":"levelo_inurba_marseille","lat":43.29577,"lon":5.37532,"is_reserved":false,"is_disabled":false,"rental_uris":{"android":"levelo://app?vid=32bfb1c2-5e7d-417e-af87-ed0d0eaea8a0","ios":"levelo://app?vid=32bfb1c2-5e7d-417e-af87-ed0d0eaea8a0"},"vehicle_type_id":"4","last_reported":1683986733,"current_range_meters":29200,"station_id":"ce4bgh92rcd13ifvqb50","pricing_plan_id":"free"},{"bike_id":"bb1cc77b-c185-4fa9-815a-23750afc1b1e","system_id":"levelo_inurba_marseille","lat":43.295748,"lon":5.37522,"is_reserved":false,"is_disabled":false,"rental_uris":{"android":"levelo://app?vid=bb1cc77b-c185-4fa9-815a-23750afc1b1e","ios":"levelo://app?vid=bb1cc77b-c185-4fa9-815a-23750afc1b1e"},"vehicle_type_id":"4","last_reported":1683986733,"current_range_meters":11600,"station_id":"ce4bgh92rcd13ifvqb50","pricing_plan_id":"free"},{"bike_id":"bf0ce62a-95b1-43f0-86a1-d1f6f901cad2","system_id":"levelo_inurba_marseille","lat":43.295748,"lon":5.37522,"is_reserved":false,"is_disabled":false,"rental_uris":{"android":"levelo://app?vid=bf0ce62a-95b1-43f0-86a1-d1f6f901cad2","ios":"levelo://app?vid=bf0ce62a-95b1-43f0-86a1-d1f6f901cad2"},"vehicle_type_id":"4","last_reported":1683986733,"current_range_meters":23200,"station_id":"ce4bgh92rcd13ifvqb50","pricing_plan_id":"free"},{"bike_id":"ecec310a-dda5-4c66-8193-23b078b1d690","system_id":"levelo_inurba_marseille","lat":43.304274,"lon":5.388873,"is_reserved":false,"is_disabled":false,"rental_uris":{"android":"levelo://app?vid=ecec310a-dda5-4c66-8193-23b078b1d690","ios":"levelo://app?vid=ecec310a-dda5-4c66-8193-23b078b1d690"},"vehicle_type_id":"4","last_reported":1683986733,"current_range_meters":24800,"station_id":"ce4bgk12rcd13ifvqbi0","pricing_plan_id":"free"},{"bike_id":"90bd77cb-9ed7-4d69-b485-8be78ccd61b6","system_id":"levelo_inurba_marseille","lat":43.295952,"lon":5.3761,"is_reserved":false,"is_disabled":false,"rental_uris":{"android":"levelo://app?vid=90bd77cb-9ed7-4d69-b485-8be78ccd61b6","ios":"levelo://app?vid=90bd77cb-9ed7-4d69-b485-8be78ccd61b6"},"vehicle_type_id":"4","last_reported":1683986733,"current_range_meters":19200,"station_id":"ce4bgh92rcd13ifvqb50","pricing_plan_id":"free"},{"bike_id":"c1ed41e5-2002-404f-825c-386954150120","system_id":"levelo_inurba_marseille","lat":43.296263,"lon":5.377094,"is_reserved":false,"is_disabled":false,"rental_uris":{"android":"levelo://app?vid=c1ed41e5-2002-404f-825c-386954150120","ios":"levelo://app?vid=c1ed41e5-2002-404f-825c-386954150120"},"vehicle_type_id":"4","last_reported":1683986733,"current_range_meters":28000,"station_id":"ce4bgi92rcd13ifvqb90","pricing_plan_id":"free"},{"bike_id":"3d5dad08-6e99-4e18-a147-f9b29cd1625a","system_id":"levelo_inurba_marseille","lat":43.295748,"lon":5.37522,"is_reserved":false,"is_disabled":false,"rental_uris":{"android":"levelo://app?vid=3d5dad08-6e99-4e18-a147-f9b29cd1625a","ios":"levelo://app?vid=3d5dad08-6e99-4e18-a147-f9b29cd1625a"},"vehicle_type_id":"4","last_reported":1683986733,"current_range_meters":28000,"station_id":"ce4bgh92rcd13ifvqb50","pricing_plan_id":"free"},{"bike_id":"a5b1bdd9-dd6e-4158-aea7-5a66d2e4a970","system_id":"levelo_inurba_marseille","lat":43.295748,"lon":5.37522,"is_reserved":false,"is_disabled":false,"rental_uris":{"android":"levelo://app?vid=a5b1bdd9-dd6e-4158-aea7-5a66d2e4a970","ios":"levelo://app?vid=a5b1bdd9-dd6e-4158-aea7-5a66d2e4a970"},"vehicle_type_id":"4","last_reported":1683986733,"current_range_meters":28800,"station_id":"ce4bgh92rcd13ifvqb50","pricing_plan_id":"free"},{"bike_id":"1c240e61-f1a3-4506-bc21-40b526d12ba8","system_id":"levelo_inurba_marseille","lat":43.304278,"lon":5.388868,"is_reserved":false,"is_disabled":false,"rental_uris":{"android":"levelo://app?vid=1c240e61-f1a3-4506-bc21-40b526d12ba8","ios":"levelo://app?vid=1c240e61-f1a3-4506-bc21-40b526d12ba8"},"vehicle_type_id":"4","last_reported":1683986733,"current_range_meters":23600,"station_id":"ce4bgk12rcd13ifvqbi0","pricing_plan_id":"free"},{"bike_id":"15519804-dd93-498a-888d-c3987b145781","system_id":"levelo_inurba_marseille","lat":43.296263,"lon":5.377094,"is_reserved":false,"is_disabled":false,"rental_uris":{"android":"levelo://app?vid=15519804-dd93-498a-888d-c3987b145781","ios":"levelo://app?vid=15519804-dd93-498a-888d-c3987b145781"},"vehicle_type_id":"4","last_reported":1683986733,"current_range_meters":23600,"station_id":"ce4bgi92rcd13ifvqb90","pricing_plan_id":"free"},{"bike_id":"9ff7ca81-6e77-4585-b23b-36c06d90fa12","system_id":"levelo_inurba_marseille","lat":43.29619,"lon":5.37712,"is_reserved":false,"is_disabled":false,"rental_uris":{"android":"levelo://app?vid=9ff7ca81-6e77-4585-b23b-36c06d90fa12","ios":"levelo://app?vid=9ff7ca81-6e77-4585-b23b-36c06d90fa12"},"vehicle_type_id":"4","last_reported":1683986733,"current_range_meters":29600,"station_id":"ce4bgi92rcd13ifvqb90","pricing_plan_id":"free"},{"bike_id":"2abf43cd-cf6e-43a8-a699-92badcea8054","system_id":"levelo_inurba_marseille","lat":43.295748,"lon":5.37522,"is_reserved":false,"is_disabled":false,"rental_uris":{"android":"levelo://app?vid=2abf43cd-cf6e-43a8-a699-92badcea8054","ios":"levelo://app?vid=2abf43cd-cf6e-43a8-a699-92badcea8054"},"vehicle_type_id":"4","last_reported":1683986733,"current_range_meters":26000,"station_id":"ce4bgh92rcd13ifvqb50","pricing_plan_id":"free"},{"bike_id":"0b408e04-a630-47ff-aa64-6b7ed98fb833","system_id":"levelo_inurba_marseille","lat":43.295748,"lon":5.37522,"is_reserved":false,"is_disabled":false,"rental_uris":{"android":"levelo://app?vid=0b408e04-a630-47ff-aa64-6b7ed98fb833","ios":"levelo://app?vid=0b408e04-a630-47ff-aa64-6b7ed98fb833"},"vehicle_type_id":"4","last_reported":1683986733,"current_range_meters":12000,"station_id":"ce4bgh92rcd13ifvqb50","pricing_plan_id":"free"},{"bike_id":"b020241b-e3a0-4985-97b6-2e97a9a941bc","system_id":"levelo_inurba_marseille","lat":43.296277,"lon":5.377108,"is_reserved":false,"is_disabled":false,"rental_uris":{"android":"levelo://app?vid=b020241b-e3a0-4985-97b6-2e97a9a941bc","ios":"levelo://app?vid=b020241b-e3a0-4985-97b6-2e97a9a941bc"},"vehicle_type_id":"4","last_reported":1683986733,"current_range_meters":24800,"station_id":"ce4bgi92rcd13ifvqb90","pricing_plan_id":"free"},{"bike_id":"78d75469-e5f9-4bfc-8ac6-0ff229825aff","system_id":"levelo_inurba_marseille","lat":43.231791,"lon":5.399926,"is_reserved":false,"is_disabled":false,"rental_uris":{"android":"levelo://app?vid=78d75469-e5f9-4bfc-8ac6-0ff229825aff","ios":"levelo://app?vid=78d75469-e5f9-4bfc-8ac6-0ff229825aff"},"vehicle_type_id":"4","last_reported":1683986733,"current_range_meters":29600,"station_id":"ce4bhn12rcd13ifvqgqg","pricing_plan_id":"free"},{"bike_id":"376b56c9-6d86-4464-9a2f-d91fcd2fbec5","system_id":"levelo_inurba_marseille","lat":43.2977,"lon":5.38101,"is_reserved":false,"is_disabled":false,"rental_uris":{"android":"levelo://app?vid=376b56c9-6d86-4464-9a2f-d91fcd2fbec5","ios":"levelo://app?vid=376b56c9-6d86-4464-9a2f-d91fcd2fbec5"},"vehicle_type_id":"4","last_reported":1683986733,"current_range_meters":25200,"station_id":"","pricing_plan_id":"free"},{"bike_id":"1bce21f8-512e-417d-82e8-4edf1a0f5c6c","system_id":"levelo_inurba_marseille","lat":43.298037,"lon":5.381066,"is_reserved":false,"is_disabled":false,"rental_uris":{"android":"levelo://app?vid=1bce21f8-512e-417d-82e8-4edf1a0f5c6c","ios":"levelo://app?vid=1bce21f8-512e-417d-82e8-4edf1a0f5c6c"},"vehicle_type_id":"4","last_reported":1683986733,"current_range_meters":18000,"station_id":"ce4bgip2rcd13ifvqbb0","pricing_plan_id":"free"},{"bike_id":"dbd2ed2a-f522-4411-85c8-0ac997eceafb","system_id":"levelo_inurba_marseille","lat":43.296277,"lon":5.377108,"is_reserved":false,"is_disabled":false,"rental_uris":{"android":"levelo://app?vid=dbd2ed2a-f522-4411-85c8-0ac997eceafb","ios":"levelo://app?vid=dbd2ed2a-f522-4411-85c8-0ac997eceafb"},"vehicle_type_id":"4","last_reported":1683986733,"current_range_meters":15600,"station_id":"ce4bgi92rcd13ifvqb90","pricing_plan_id":"free"},{"bike_id":"42a6ac25-e73e-40dd-b800-f48e490febed","system_id":"levelo_inurba_marseille","lat":43.299707,"lon":5.384859,"is_reserved":false,"is_disabled":false,"rental_uris":{"android":"levelo://app?vid=42a6ac25-e73e-40dd-b800-f48e490febed","ios":"levelo://app?vid=42a6ac25-e73e-40dd-b800-f48e490febed"},"vehicle_type_id":"4","last_reported":1683986733,"current_range_meters":31200,"station_id":"ce4bgj92rcd13ifvqbd0","pricing_plan_id":"free"},{"bike_id":"cc50c958-ba33-4085-9de8-8ab1c1eb820c","system_id":"levelo_inurba_marseille","lat":43.295279,"lon":5.375048,"is_reserved":false,"is_disabled":false,"rental_uris":{"android":"levelo://app?vid=cc50c958-ba33-4085-9de8-8ab1c1eb820c","ios":"levelo://app?vid=cc50c958-ba33-4085-9de8-8ab1c1eb820c"},"vehicle_type_id":"4","last_reported":1683986733,"current_range_meters":31200,"station_id":"ce4bgkp2rcd13ifvqbmg","pricing_plan_id":"free"},{"bike_id":"9391ada2-1924-4a6b-bfe9-3099f3121b22","system_id":"levelo_inurba_marseille","lat":43.299707,"lon":5.384859,"is_reserved":false,"is_disabled":false,"rental_uris":{"android":"levelo://app?vid=9391ada2-1924-4a6b-bfe9-3099f3121b22","ios":"levelo://app?vid=9391ada2-1924-4a6b-bfe9-3099f3121b22"},"vehicle_type_id":"4","last_reported":1683986733,"current_range_meters":31200,"station_id":"ce4bgj92rcd13ifvqbd0","pricing_plan_id":"free"},{"bike_id":"f1ae935e-55cf-41a1-87be-7fbb2b56f834","system_id":"levelo_inurba_marseille","lat":43.299707,"lon":5.384859,"is_reserved":false,"is_disabled":false,"rental_uris":{"android":"levelo://app?vid=f1ae935e-55cf-41a1-87be-7fbb2b56f834","ios":"levelo://app?vid=f1ae935e-55cf-41a1-87be-7fbb2b56f834"},"vehicle_type_id":"4","last_reported":1683986733,"current_range_meters":28800,"station_id":"ce4bgj92rcd13ifvqbd0","pricing_plan_id":"free"},{"bike_id":"39d2eff7-82e2-4d80-a2cc-2c65fd56a839","system_id":"levelo_inurba_marseille","lat":43.295279,"lon":5.375048,"is_reserved":false,"is_disabled":false,"rental_uris":{"android":"levelo://app?vid=39d2eff7-82e2-4d80-a2cc-2c65fd56a839","ios":"levelo://app?vid=39d2eff7-82e2-4d80-a2cc-2c65fd56a839"},"vehicle_type_id":"4","last_reported":1683986733,"current_range_meters":21600,"station_id":"ce4bgkp2rcd13ifvqbmg","pricing_plan_id":"free"},{"bike_id":"269c3e81-9abe-42ae-91be-299ae3974219","system_id":"levelo_inurba_marseille","lat":43.295279,"lon":5.375048,"is_reserved":false,"is_disabled":false,"rental_uris":{"android":"levelo://app?vid=269c3e81-9abe-42ae-91be-299ae3974219","ios":"levelo://app?vid=269c3e81-9abe-42ae-91be-299ae3974219"},"vehicle_type_id":"4","last_reported":1683986733,"current_range_meters":31200,"station_id":"ce4bgkp2rcd13ifvqbmg","pricing_plan_id":"free"},{"bike_id":"f67e485d-f8b2-44a7-8c8b-4f53a7ffc871","system_id":"levelo_inurba_marseille","lat":43.295279,"lon":5.375048,"is_reserved":false,"is_disabled":false,"rental_uris":{"android":"levelo://app?vid=f67e485d-f8b2-44a7-8c8b-4f53a7ffc871","ios":"levelo://app?vid=f67e485d-f8b2-44a7-8c8b-4f53a7ffc871"},"vehicle_type_id":"4","last_reported":1683986733,"current_range_meters":31200,"station_id":"ce4bgkp2rcd13ifvqbmg","pricing_plan_id":"free"},{"bike_id":"e5cf1103-d9ef-4a82-83da-03921209dde5","system_id":"levelo_inurba_marseille","lat":43.295279,"lon":5.375048,"is_reserved":false,"is_disabled":false,"rental_uris":{"android":"levelo://app?vid=e5cf1103-d9ef-4a82-83da-03921209dde5","ios":"levelo://app?vid=e5cf1103-d9ef-4a82-83da-03921209dde5"},"vehicle_type_id":"4","last_reported":1683986733,"current_range_meters":29600,"station_id":"ce4bgkp2rcd13ifvqbmg","pricing_plan_id":"free"},{"bike_id":"e0cf1ce4-6302-4bdb-9821-19c9101dc9a5","system_id":"levelo_inurba_marseille","lat":43.295279,"lon":5.375048,"is_reserved":false,"is_disabled":false,"rental_uris":{"android":"levelo://app?vid=e0cf1ce4-6302-4bdb-9821-19c9101dc9a5","ios":"levelo://app?vid=e0cf1ce4-6302-4bdb-9821-19c9101dc9a5"},"vehicle_type_id":"4","last_reported":1683986733,"current_range_meters":23600,"station_id":"ce4bgkp2rcd13ifvqbmg","pricing_plan_id":"free"},{"bike_id":"d5ca1229-e224-48d4-a09a-822036e7f494","system_id":"levelo_inurba_marseille","lat":43.295279,"lon":5.375048,"is_reserved":false,"is_disabled":false,"rental_uris":{"android":"levelo://app?vid=d5ca1229-e224-48d4-a09a-822036e7f494","ios":"levelo://app?vid=d5ca1229-e224-48d4-a09a-822036e7f494"},"vehicle_type_id":"4","last_reported":1683986733,"current_range_meters":31200,"station_id":"ce4bgkp2rcd13ifvqbmg","pricing_plan_id":"free"},{"bike_id":"e22206c4-7176-4a74-9cd4-d89c51a5365a","system_id":"levelo_inurba_marseille","lat":43.295279,"lon":5.375048,"is_reserved":false,"is_disabled":false,"rental_uris":{"android":"levelo://app?vid=e22206c4-7176-4a74-9cd4-d89c51a5365a","ios":"levelo://app?vid=e22206c4-7176-4a74-9cd4-d89c51a5365a"},"vehicle_type_id":"4","last_reported":1683986733,"current_range_meters":2800,"station_id":"ce4bgkp2rcd13ifvqbmg","pricing_plan_id":"free"},{"bike_id":"aabe07d9-e3c7-49a7-a597-a6f2b15a603a","system_id":"levelo_inurba_marseille","lat":43.299717,"lon":5.384845,"is_reserved":false,"is_disabled":false,"rental_uris":{"android":"levelo://app?vid=aabe07d9-e3c7-49a7-a597-a6f2b15a603a","ios":"levelo://app?vid=aabe07d9-e3c7-49a7-a597-a6f2b15a603a"},"vehicle_type_id":"4","last_reported":1683986733,"current_range_meters":22800,"station_id":"ce4bgj92rcd13ifvqbd0","pricing_plan_id":"free"},{"bike_id":"8b13e629-ef87-45a5-b57d-ba17f36b14d9","system_id":"levelo_inurba_marseille","lat":43.299717,"lon":5.384845,"is_reserved":false,"is_disabled":false,"rental_uris":{"android":"levelo://app?vid=8b13e629-ef87-45a5-b57d-ba17f36b14d9","ios":"levelo://app?vid=8b13e629-ef87-45a5-b57d-ba17f36b14d9"},"vehicle_type_id":"4","last_reported":1683986733,"current_range_meters":31600,"station_id":"ce4bgj92rcd13ifvqbd0","pricing_plan_id":"free"},{"bike_id":"b1df7b7d-d06d-4cfe-acb6-c2ce0bfbd32d","system_id":"levelo_inurba_marseille","lat":43.295279,"lon":5.375048,"is_reserved":false,"is_disabled":false,"rental_uris":{"android":"levelo://app?vid=b1df7b7d-d06d-4cfe-acb6-c2ce0bfbd32d","ios":"levelo://app?vid=b1df7b7d-d06d-4cfe-acb6-c2ce0bfbd32d"},"vehicle_type_id":"4","last_reported":1683986733,"current_range_meters":28000,"station_id":"ce4bgkp2rcd13ifvqbmg","pricing_plan_id":"free"},{"bike_id":"1d69d817-840a-4115-944d-ebe8c7e5881d","system_id":"levelo_inurba_marseille","lat":43.299724,"lon":5.384848,"is_reserved":false,"is_disabled":false,"rental_uris":{"android":"levelo://app?vid=1d69d817-840a-4115-944d-ebe8c7e5881d","ios":"levelo://app?vid=1d69d817-840a-4115-944d-ebe8c7e5881d"},"vehicle_type_id":"4","last_reported":1683986733,"current_range_meters":31200,"station_id":"ce4bgj92rcd13ifvqbd0","pricing_plan_id":"free"},{"bike_id":"9ad05568-0d45-4d7b-a1ec-5b3e35ace752","system_id":"levelo_inurba_marseille","lat":43.299717,"lon":5.384845,"is_reserved":false,"is_disabled":false,"rental_uris":{"android":"levelo://app?vid=9ad05568-0d45-4d7b-a1ec-5b3e35ace752","ios":"levelo://app?vid=9ad05568-0d45-4d7b-a1ec-5b3e35ace752"},"vehicle_type_id":"4","last_reported":1683986733,"current_range_meters":24800,"station_id":"ce4bgj92rcd13ifvqbd0","pricing_plan_id":"free"},{"bike_id":"7a529c66-c97f-4d77-93c8-72d10d1fb089","system_id":"levelo_inurba_marseille","lat":43.295279,"lon":5.375048,"is_reserved":false,"is_disabled":false,"rental_uris":{"android":"levelo://app?vid=7a529c66-c97f-4d77-93c8-72d10d1fb089","ios":"levelo://app?vid=7a529c66-c97f-4d77-93c8-72d10d1fb089"},"vehicle_type_id":"4","last_reported":1683986733,"current_range_meters":26400,"station_id":"ce4bgkp2rcd13ifvqbmg","pricing_plan_id":"free"},{"bike_id":"72c5c490-100c-4eba-80a7-d2504d382563","system_id":"levelo_inurba_marseille","lat":43.295279,"lon":5.375048,"is_reserved":false,"is_disabled":false,"rental_uris":{"android":"levelo://app?vid=72c5c490-100c-4eba-80a7-d2504d382563","ios":"levelo://app?vid=72c5c490-100c-4eba-80a7-d2504d382563"},"vehicle_type_id":"4","last_reported":1683986733,"current_range_meters":30000,"station_id":"ce4bgkp2rcd13ifvqbmg","pricing_plan_id":"free"},{"bike_id":"8fa86d51-1324-4b61-9a31-d89dbe1dcd3a","system_id":"levelo_inurba_marseille","lat":43.299717,"lon":5.384845,"is_reserved":false,"is_disabled":false,"rental_uris":{"android":"levelo://app?vid=8fa86d51-1324-4b61-9a31-d89dbe1dcd3a","ios":"levelo://app?vid=8fa86d51-1324-4b61-9a31-d89dbe1dcd3a"},"vehicle_type_id":"4","last_reported":1683986733,"current_range_meters":30400,"station_id":"ce4bgj92rcd13ifvqbd0","pricing_plan_id":"free"},{"bike_id":"773e813f-a004-44c0-87b7-b0e9f9496ac5","system_id":"levelo_inurba_marseille","lat":43.295279,"lon":5.375048,"is_reserved":false,"is_disabled":false,"rental_uris":{"android":"levelo://app?vid=773e813f-a004-44c0-87b7-b0e9f9496ac5","ios":"levelo://app?vid=773e813f-a004-44c0-87b7-b0e9f9496ac5"},"vehicle_type_id":"4","last_reported":1683986733,"current_range_meters":28400,"station_id":"ce4bgkp2rcd13ifvqbmg","pricing_plan_id":"free"},{"bike_id":"d72c55ca-9f53-48b5-ab8c-b907d0e58f3a","system_id":"levelo_inurba_marseille","lat":43.295279,"lon":5.375048,"is_reserved":false,"is_disabled":false,"rental_uris":{"android":"levelo://app?vid=d72c55ca-9f53-48b5-ab8c-b907d0e58f3a","ios":"levelo://app?vid=d72c55ca-9f53-48b5-ab8c-b907d0e58f3a"},"vehicle_type_id":"4","last_reported":1683986733,"current_range_meters":29600,"station_id":"ce4bgkp2rcd13ifvqbmg","pricing_plan_id":"free"},{"bike_id":"f2330877-63c7-48bb-8a1b-e08d95387d08","system_id":"levelo_inurba_marseille","lat":43.295279,"lon":5.375048,"is_reserved":false,"is_disabled":false,"rental_uris":{"android":"levelo://app?vid=f2330877-63c7-48bb-8a1b-e08d95387d08","ios":"levelo://app?vid=f2330877-63c7-48bb-8a1b-e08d95387d08"},"vehicle_type_id":"4","last_reported":1683986733,"current_range_meters":28000,"station_id":"ce4bgkp2rcd13ifvqbmg","pricing_plan_id":"free"},{"bike_id":"98d43089-ff1e-40ee-a123-f18e174ce1c4","system_id":"levelo_inurba_marseille","lat":43.31446,"lon":5.39273,"is_reserved":false,"is_disabled":false,"rental_uris":{"android":"levelo://app?vid=98d43089-ff1e-40ee-a123-f18e174ce1c4","ios":"levelo://app?vid=98d43089-ff1e-40ee-a123-f18e174ce1c4"},"vehicle_type_id":"4","last_reported":1683986733,"current_range_meters":3600,"station_id":"","pricing_plan_id":"free"},{"bike_id":"6f6b02ce-a50b-443a-a31d-aed834771e7b","system_id":"levelo_inurba_marseille","lat":43.31442,"lon":5.39285,"is_reserved":false,"is_disabled":false,"rental_uris":{"android":"levelo://app?vid=6f6b02ce-a50b-443a-a31d-aed834771e7b","ios":"levelo://app?vid=6f6b02ce-a50b-443a-a31d-aed834771e7b"},"vehicle_type_id":"4","last_reported":1683986733,"current_range_meters":6000,"station_id":"","pricing_plan_id":"free"},{"bike_id":"e2d46b50-ac7f-417b-80f4-d250f865ab52","system_id":"levelo_inurba_marseille","lat":43.29602,"lon":5.381084,"is_reserved":false,"is_disabled":false,"rental_uris":{"android":"levelo://app?vid=e2d46b50-ac7f-417b-80f4-d250f865ab52","ios":"levelo://app?vid=e2d46b50-ac7f-417b-80f4-d250f865ab52"},"vehicle_type_id":"4","last_reported":1683986733,"current_range_meters":11600,"station_id":"ce4bgl12rcd13ifvqbo0","pricing_plan_id":"free"},{"bike_id":"255d23e2-6607-47f9-ae02-1fececf67c6c","system_id":"levelo_inurba_marseille","lat":43.32909,"lon":5.38178,"is_reserved":false,"is_disabled":false,"rental_uris":{"android":"levelo://app?vid=255d23e2-6607-47f9-ae02-1fececf67c6c","ios":"levelo://app?vid=255d23e2-6607-47f9-ae02-1fececf67c6c"},"vehicle_type_id":"4","last_reported":1683986733,"current_range_meters":12800,"station_id":"","pricing_plan_id":"free"},{"bike_id":"bb7805e5-ac91-4f1a-8493-5accad0e6a62","system_id":"levelo_inurba_marseille","lat":43.29602,"lon":5.381084,"is_reserved":false,"is_disabled":false,"rental_uris":{"android":"levelo://app?vid=bb7805e5-ac91-4f1a-8493-5accad0e6a62","ios":"levelo://app?vid=bb7805e5-ac91-4f1a-8493-5accad0e6a62"},"vehicle_type_id":"4","last_reported":1683986733,"current_range_meters":27200,"station_id":"ce4bgl12rcd13ifvqbo0","pricing_plan_id":"free"},{"bike_id":"df7647b1-99a9-4742-b9f2-9d2bc408c020","system_id":"levelo_inurba_marseille","lat":43.29483,"lon":5.37865,"is_reserved":false,"is_disabled":false,"rental_uris":{"android":"levelo://app?vid=df7647b1-99a9-4742-b9f2-9d2bc408c020","ios":"levelo://app?vid=df7647b1-99a9-4742-b9f2-9d2bc408c020"},"vehicle_type_id":"4","last_reported":1683986733,"current_range_meters":24800,"station_id":"","pricing_plan_id":"free"},{"bike_id":"eb66249a-94b6-4d78-bceb-037f1454f25a","system_id":"levelo_inurba_marseille","lat":43.293249,"lon":5.371578,"is_reserved":false,"is_disabled":false,"rental_uris":{"android":"levelo://app?vid=eb66249a-94b6-4d78-bceb-037f1454f25a","ios":"levelo://app?vid=eb66249a-94b6-4d78-bceb-037f1454f25a"},"vehicle_type_id":"4","last_reported":1683986733,"current_range_meters":29600,"station_id":"ce4bgh92rcd13ifvqb40","pricing_plan_id":"free"},{"bike_id":"0c93e39b-16e0-499f-bf1b-2662473877ae","system_id":"levelo_inurba_marseille","lat":43.293249,"lon":5.371578,"is_reserved":false,"is_disabled":false,"rental_uris":{"android":"levelo://app?vid=0c93e39b-16e0-499f-bf1b-2662473877ae","ios":"levelo://app?vid=0c93e39b-16e0-499f-bf1b-2662473877ae"},"vehicle_type_id":"4","last_reported":1683986733,"current_range_meters":22400,"station_id":"ce4bgh92rcd13ifvqb40","pricing_plan_id":"free"},{"bike_id":"09cdfe02-1ecb-4310-89b0-0cbf0ac1c158","system_id":"levelo_inurba_marseille","lat":43.293249,"lon":5.371578,"is_reserved":false,"is_disabled":false,"rental_uris":{"android":"levelo://app?vid=09cdfe02-1ecb-4310-89b0-0cbf0ac1c158","ios":"levelo://app?vid=09cdfe02-1ecb-4310-89b0-0cbf0ac1c158"},"vehicle_type_id":"4","last_reported":1683986733,"current_range_meters":28400,"station_id":"ce4bgh92rcd13ifvqb40","pricing_plan_id":"free"},{"bike_id":"ec2dee07-d8a9-48d2-99b1-304e5f1d704a","system_id":"levelo_inurba_marseille","lat":43.293249,"lon":5.371578,"is_reserved":false,"is_disabled":false,"rental_uris":{"android":"levelo://app?vid=ec2dee07-d8a9-48d2-99b1-304e5f1d704a","ios":"levelo://app?vid=ec2dee07-d8a9-48d2-99b1-304e5f1d704a"},"vehicle_type_id":"4","last_reported":1683986733,"current_range_meters":28400,"station_id":"ce4bgh92rcd13ifvqb40","pricing_plan_id":"free"},{"bike_id":"2627662c-ba0e-46c2-9c4d-a7e0305650bc","system_id":"levelo_inurba_marseille","lat":43.29305,"lon":5.37171,"is_reserved":false,"is_disabled":false,"rental_uris":{"android":"levelo://app?vid=2627662c-ba0e-46c2-9c4d-a7e0305650bc","ios":"levelo://app?vid=2627662c-ba0e-46c2-9c4d-a7e0305650bc"},"vehicle_type_id":"4","last_reported":1683986733,"current_range_meters":0,"station_id":"ce4bgh92rcd13ifvqb40","pricing_plan_id":"free"},{"bike_id":"c47a437d-32e6-4893-9f68-39958eadb49a","system_id":"levelo_inurba_marseille","lat":43.29307,"lon":5.37187,"is_reserved":false,"is_disabled":false,"rental_uris":{"android":"levelo://app?vid=c47a437d-32e6-4893-9f68-39958eadb49a","ios":"levelo://app?vid=c47a437d-32e6-4893-9f68-39958eadb49a"},"vehicle_type_id":"4","last_reported":1683986733,"current_range_meters":27600,"station_id":"ce4bgh92rcd13ifvqb40","pricing_plan_id":"free"},{"bike_id":"88593624-c250-4a46-8a73-077423d799d6","system_id":"levelo_inurba_marseille","lat":43.29304,"lon":5.37177,"is_reserved":false,"is_disabled":false,"rental_uris":{"android":"levelo://app?vid=88593624-c250-4a46-8a73-077423d799d6","ios":"levelo://app?vid=88593624-c250-4a46-8a73-077423d799d6"},"vehicle_type_id":"4","last_reported":1683986733,"current_range_meters":2000,"station_id":"","pricing_plan_id":"free"},{"bike_id":"4e8a6f62-e4a3-4ac2-9eaf-a1b589c3a0a7","system_id":"levelo_inurba_marseille","lat":43.29304,"lon":5.37178,"is_reserved":false,"is_disabled":false,"rental_uris":{"android":"levelo://app?vid=4e8a6f62-e4a3-4ac2-9eaf-a1b589c3a0a7","ios":"levelo://app?vid=4e8a6f62-e4a3-4ac2-9eaf-a1b589c3a0a7"},"vehicle_type_id":"4","last_reported":1683986733,"current_range_meters":21200,"station_id":"ce4bgh92rcd13ifvqb40","pricing_plan_id":"free"},{"bike_id":"377b99e1-deb3-41f2-9bd0-b1fc990c553b","system_id":"levelo_inurba_marseille","lat":43.292749,"lon":5.368398,"is_reserved":false,"is_disabled":false,"rental_uris":{"android":"levelo://app?vid=377b99e1-deb3-41f2-9bd0-b1fc990c553b","ios":"levelo://app?vid=377b99e1-deb3-41f2-9bd0-b1fc990c553b"},"vehicle_type_id":"4","last_reported":1683986733,"current_range_meters":12800,"station_id":"ce4bhbp2rcd13ifvqesg","pricing_plan_id":"free"},{"bike_id":"7c4a727e-d4b4-497b-a5ee-73dae1f87a43","system_id":"levelo_inurba_marseille","lat":43.292749,"lon":5.368402,"is_reserved":false,"is_disabled":false,"rental_uris":{"android":"levelo://app?vid=7c4a727e-d4b4-497b-a5ee-73dae1f87a43","ios":"levelo://app?vid=7c4a727e-d4b4-497b-a5ee-73dae1f87a43"},"vehicle_type_id":"4","last_reported":1683986733,"current_range_meters":22800,"station_id":"ce4bhbp2rcd13ifvqesg","pricing_plan_id":"free"},{"bike_id":"2ebe678c-168d-4665-98e7-8c98208037b7","system_id":"levelo_inurba_marseille","lat":43.292749,"lon":5.368402,"is_reserved":false,"is_disabled":false,"rental_uris":{"android":"levelo://app?vid=2ebe678c-168d-4665-98e7-8c98208037b7","ios":"levelo://app?vid=2ebe678c-168d-4665-98e7-8c98208037b7"},"vehicle_type_id":"4","last_reported":1683986733,"current_range_meters":9600,"station_id":"ce4bhbp2rcd13ifvqesg","pricing_plan_id":"free"},{"bike_id":"051617ec-75ef-475a-934f-11ba36f1a4b4","system_id":"levelo_inurba_marseille","lat":43.292749,"lon":5.368398,"is_reserved":false,"is_disabled":false,"rental_uris":{"android":"levelo://app?vid=051617ec-75ef-475a-934f-11ba36f1a4b4","ios":"levelo://app?vid=051617ec-75ef-475a-934f-11ba36f1a4b4"},"vehicle_type_id":"4","last_reported":1683986733,"current_range_meters":26400,"station_id":"ce4bhbp2rcd13ifvqesg","pricing_plan_id":"free"},{"bike_id":"bf99dbbb-35c2-4075-8a58-433b5f7a9a4e","system_id":"levelo_inurba_marseille","lat":43.30589,"lon":5.39357,"is_reserved":false,"is_disabled":false,"rental_uris":{"android":"levelo://app?vid=bf99dbbb-35c2-4075-8a58-433b5f7a9a4e","ios":"levelo://app?vid=bf99dbbb-35c2-4075-8a58-433b5f7a9a4e"},"vehicle_type_id":"4","last_reported":1683986733,"current_range_meters":18000,"station_id":"ce4bh0p2rcd13ifvqd80","pricing_plan_id":"free"},{"bike_id":"274efcf8-07b1-4062-af16-c240ecca6b3c","system_id":"levelo_inurba_marseille","lat":43.305994,"lon":5.393687,"is_reserved":false,"is_disabled":false,"rental_uris":{"android":"levelo://app?vid=274efcf8-07b1-4062-af16-c240ecca6b3c","ios":"levelo://app?vid=274efcf8-07b1-4062-af16-c240ecca6b3c"},"vehicle_type_id":"4","last_reported":1683986733,"current_range_meters":16400,"station_id":"ce4bh0p2rcd13ifvqd80","pricing_plan_id":"free"},{"bike_id":"1a286139-68b9-4d04-8513-b1f47318545b","system_id":"levelo_inurba_marseille","lat":43.303002,"lon":5.392142,"is_reserved":false,"is_disabled":false,"rental_uris":{"android":"levelo://app?vid=1a286139-68b9-4d04-8513-b1f47318545b","ios":"levelo://app?vid=1a286139-68b9-4d04-8513-b1f47318545b"},"vehicle_type_id":"4","last_reported":1683986733,"current_range_meters":15600,"station_id":"ce4bgkh2rcd13ifvqbk0","pricing_plan_id":"free"},{"bike_id":"d50e6223-23d7-4c8b-b070-23cfcaf5a0a0","system_id":"levelo_inurba_marseille","lat":43.303002,"lon":5.392142,"is_reserved":false,"is_disabled":false,"rental_uris":{"android":"levelo://app?vid=d50e6223-23d7-4c8b-b070-23cfcaf5a0a0","ios":"levelo://app?vid=d50e6223-23d7-4c8b-b070-23cfcaf5a0a0"},"vehicle_type_id":"4","last_reported":1683986733,"current_range_meters":6400,"station_id":"ce4bgkh2rcd13ifvqbk0","pricing_plan_id":"free"},{"bike_id":"0c566e8f-3ea4-4c7d-b9af-32de4e5669fb","system_id":"levelo_inurba_marseille","lat":43.302992,"lon":5.392136,"is_reserved":false,"is_disabled":false,"rental_uris":{"android":"levelo://app?vid=0c566e8f-3ea4-4c7d-b9af-32de4e5669fb","ios":"levelo://app?vid=0c566e8f-3ea4-4c7d-b9af-32de4e5669fb"},"vehicle_type_id":"4","last_reported":1683986733,"current_range_meters":22400,"station_id":"ce4bgkh2rcd13ifvqbk0","pricing_plan_id":"free"},{"bike_id":"8b8b285e-43e7-4093-b23b-2ed682889e33","system_id":"levelo_inurba_marseille","lat":43.303002,"lon":5.392142,"is_reserved":false,"is_disabled":false,"rental_uris":{"android":"levelo://app?vid=8b8b285e-43e7-4093-b23b-2ed682889e33","ios":"levelo://app?vid=8b8b285e-43e7-4093-b23b-2ed682889e33"},"vehicle_type_id":"4","last_reported":1683986733,"current_range_meters":18400,"station_id":"ce4bgkh2rcd13ifvqbk0","pricing_plan_id":"free"},{"bike_id":"4c3f07f7-4024-483f-87cf-161ab2ed2686","system_id":"levelo_inurba_marseille","lat":43.303002,"lon":5.392142,"is_reserved":false,"is_disabled":false,"rental_uris":{"android":"levelo://app?vid=4c3f07f7-4024-483f-87cf-161ab2ed2686","ios":"levelo://app?vid=4c3f07f7-4024-483f-87cf-161ab2ed2686"},"vehicle_type_id":"4","last_reported":1683986733,"current_range_meters":20000,"station_id":"ce4bgkh2rcd13ifvqbk0","pricing_plan_id":"free"},{"bike_id":"0717b0be-37ac-4516-b17d-1375cd488ec4","system_id":"levelo_inurba_marseille","lat":43.303002,"lon":5.392142,"is_reserved":false,"is_disabled":false,"rental_uris":{"android":"levelo://app?vid=0717b0be-37ac-4516-b17d-1375cd488ec4","ios":"levelo://app?vid=0717b0be-37ac-4516-b17d-1375cd488ec4"},"vehicle_type_id":"4","last_reported":1683986733,"current_range_meters":18000,"station_id":"ce4bgkh2rcd13ifvqbk0","pricing_plan_id":"free"},{"bike_id":"da978e03-2e54-4441-a5e0-e26c09e0a63a","system_id":"levelo_inurba_marseille","lat":43.303002,"lon":5.392142,"is_reserved":false,"is_disabled":false,"rental_uris":{"android":"levelo://app?vid=da978e03-2e54-4441-a5e0-e26c09e0a63a","ios":"levelo://app?vid=da978e03-2e54-4441-a5e0-e26c09e0a63a"},"vehicle_type_id":"4","last_reported":1683986733,"current_range_meters":6000,"station_id":"ce4bgkh2rcd13ifvqbk0","pricing_plan_id":"free"},{"bike_id":"65c1dc16-0a2f-43db-b14a-8320c6def01d","system_id":"levelo_inurba_marseille","lat":43.2936,"lon":5.37835,"is_reserved":false,"is_disabled":false,"rental_uris":{"android":"levelo://app?vid=65c1dc16-0a2f-43db-b14a-8320c6def01d","ios":"levelo://app?vid=65c1dc16-0a2f-43db-b14a-8320c6def01d"},"vehicle_type_id":"4","last_reported":1683986733,"current_range_meters":25200,"station_id":"ce4bgjh2rcd13ifvqbf0","pricing_plan_id":"free"},{"bike_id":"9c593c90-f288-4004-a816-34b29d7afd9d","system_id":"levelo_inurba_marseille","lat":43.302992,"lon":5.392136,"is_reserved":false,"is_disabled":false,"rental_uris":{"android":"levelo://app?vid=9c593c90-f288-4004-a816-34b29d7afd9d","ios":"levelo://app?vid=9c593c90-f288-4004-a816-34b29d7afd9d"},"vehicle_type_id":"4","last_reported":1683986733,"current_range_meters":25200,"station_id":"ce4bgkh2rcd13ifvqbk0","pricing_plan_id":"free"},{"bike_id":"59337ca2-2483-46d3-99b0-b002d1b1f57b","system_id":"levelo_inurba_marseille","lat":43.30085,"lon":5.390856,"is_reserved":false,"is_disabled":false,"rental_uris":{"android":"levelo://app?vid=59337ca2-2483-46d3-99b0-b002d1b1f57b","ios":"levelo://app?vid=59337ca2-2483-46d3-99b0-b002d1b1f57b"},"vehicle_type_id":"4","last_reported":1683986733,"current_range_meters":16400,"station_id":"ce4bh192rcd13ifvqdb0","pricing_plan_id":"free"},{"bike_id":"b113d410-ce1e-4712-a67d-e59e3710578d","system_id":"levelo_inurba_marseille","lat":43.298764,"lon":5.388973,"is_reserved":false,"is_disabled":false,"rental_uris":{"android":"levelo://app?vid=b113d410-ce1e-4712-a67d-e59e3710578d","ios":"levelo://app?vid=b113d410-ce1e-4712-a67d-e59e3710578d"},"vehicle_type_id":"4","last_reported":1683986733,"current_range_meters":18400,"station_id":"ce4bh392rcd13ifvqdl0","pricing_plan_id":"free"},{"bike_id":"1b75c185-1fca-4327-8039-7d51aafce14c","system_id":"levelo_inurba_marseille","lat":43.291671,"lon":5.371575,"is_reserved":false,"is_disabled":false,"rental_uris":{"android":"levelo://app?vid=1b75c185-1fca-4327-8039-7d51aafce14c","ios":"levelo://app?vid=1b75c185-1fca-4327-8039-7d51aafce14c"},"vehicle_type_id":"4","last_reported":1683986733,"current_range_meters":31200,"station_id":"ce4bha92rcd13ifvqeh0","pricing_plan_id":"free"},{"bike_id":"2c296290-47fb-4b74-ba94-629c555c51d1","system_id":"levelo_inurba_marseille","lat":43.292663,"lon":5.376394,"is_reserved":false,"is_disabled":false,"rental_uris":{"android":"levelo://app?vid=2c296290-47fb-4b74-ba94-629c555c51d1","ios":"levelo://app?vid=2c296290-47fb-4b74-ba94-629c555c51d1"},"vehicle_type_id":"4","last_reported":1683986733,"current_range_meters":28000,"station_id":"ce4bgi12rcd13ifvqb80","pricing_plan_id":"free"},{"bike_id":"fafba2bb-97a6-47c7-a095-6422d46f7295","system_id":"levelo_inurba_marseille","lat":43.291671,"lon":5.371575,"is_reserved":false,"is_disabled":false,"rental_uris":{"android":"levelo://app?vid=fafba2bb-97a6-47c7-a095-6422d46f7295","ios":"levelo://app?vid=fafba2bb-97a6-47c7-a095-6422d46f7295"},"vehicle_type_id":"4","last_reported":1683986733,"current_range_meters":29200,"station_id":"ce4bha92rcd13ifvqeh0","pricing_plan_id":"free"},{"bike_id":"cfe25f2a-bd45-4068-9299-a858eafee205","system_id":"levelo_inurba_marseille","lat":43.29173,"lon":5.37164,"is_reserved":false,"is_disabled":false,"rental_uris":{"android":"levelo://app?vid=cfe25f2a-bd45-4068-9299-a858eafee205","ios":"levelo://app?vid=cfe25f2a-bd45-4068-9299-a858eafee205"},"vehicle_type_id":"4","last_reported":1683986733,"current_range_meters":28000,"station_id":"ce4bha92rcd13ifvqeh0","pricing_plan_id":"free"},{"bike_id":"0d17488f-4cc0-4c1b-a45d-b7eabcae8585","system_id":"levelo_inurba_marseille","lat":43.29202,"lon":5.358,"is_reserved":false,"is_disabled":false,"rental_uris":{"android":"levelo://app?vid=0d17488f-4cc0-4c1b-a45d-b7eabcae8585","ios":"levelo://app?vid=0d17488f-4cc0-4c1b-a45d-b7eabcae8585"},"vehicle_type_id":"4","last_reported":1683986733,"current_range_meters":29200,"station_id":"","pricing_plan_id":"free"},{"bike_id":"198148e2-b201-4ba2-8318-b2210ea323a4","system_id":"levelo_inurba_marseille","lat":43.292,"lon":5.358,"is_reserved":false,"is_disabled":false,"rental_uris":{"android":"levelo://app?vid=198148e2-b201-4ba2-8318-b2210ea323a4","ios":"levelo://app?vid=198148e2-b201-4ba2-8318-b2210ea323a4"},"vehicle_type_id":"4","last_reported":1683986733,"current_range_meters":24800,"station_id":"","pricing_plan_id":"free"},{"bike_id":"83d8e765-fa2c-482d-a11d-b148b2753996","system_id":"levelo_inurba_marseille","lat":43.29198,"lon":5.35805,"is_reserved":false,"is_disabled":false,"rental_uris":{"android":"levelo://app?vid=83d8e765-fa2c-482d-a11d-b148b2753996","ios":"levelo://app?vid=83d8e765-fa2c-482d-a11d-b148b2753996"},"vehicle_type_id":"4","last_reported":1683986733,"current_range_meters":16000,"station_id":"","pricing_plan_id":"free"},{"bike_id":"660b98cf-d40a-47c9-80e8-296c05c898f9","system_id":"levelo_inurba_marseille","lat":43.309038,"lon":5.396546,"is_reserved":false,"is_disabled":false,"rental_uris":{"android":"levelo://app?vid=660b98cf-d40a-47c9-80e8-296c05c898f9","ios":"levelo://app?vid=660b98cf-d40a-47c9-80e8-296c05c898f9"},"vehicle_type_id":"4","last_reported":1683986733,"current_range_meters":20800,"station_id":"ce4bh012rcd13ifvqcv0","pricing_plan_id":"free"},{"bike_id":"dc05e584-f68d-43c2-9988-7cdf12369f30","system_id":"levelo_inurba_marseille","lat":43.309038,"lon":5.396546,"is_reserved":false,"is_disabled":false,"rental_uris":{"android":"levelo://app?vid=dc05e584-f68d-43c2-9988-7cdf12369f30","ios":"levelo://app?vid=dc05e584-f68d-43c2-9988-7cdf12369f30"},"vehicle_type_id":"4","last_reported":1683986733,"current_range_meters":22800,"station_id":"ce4bh012rcd13ifvqcv0","pricing_plan_id":"free"},{"bike_id":"63f2f5d4-89af-4b65-8d4f-c643623a1d0b","system_id":"levelo_inurba_marseille","lat":43.29194,"lon":5.358,"is_reserved":false,"is_disabled":false,"rental_uris":{"android":"levelo://app?vid=63f2f5d4-89af-4b65-8d4f-c643623a1d0b","ios":"levelo://app?vid=63f2f5d4-89af-4b65-8d4f-c643623a1d0b"},"vehicle_type_id":"4","last_reported":1683986733,"current_range_meters":18800,"station_id":"","pricing_plan_id":"free"},{"bike_id":"9eaf9e9c-c5d9-4bc0-93b0-d9afdb0afe79","system_id":"levelo_inurba_marseille","lat":43.29192,"lon":5.358,"is_reserved":false,"is_disabled":false,"rental_uris":{"android":"levelo://app?vid=9eaf9e9c-c5d9-4bc0-93b0-d9afdb0afe79","ios":"levelo://app?vid=9eaf9e9c-c5d9-4bc0-93b0-d9afdb0afe79"},"vehicle_type_id":"4","last_reported":1683986733,"current_range_meters":17200,"station_id":"","pricing_plan_id":"free"},{"bike_id":"c20bc477-dd5c-49da-87ed-cfec2b85dc57","system_id":"levelo_inurba_marseille","lat":43.29185,"lon":5.3581,"is_reserved":false,"is_disabled":false,"rental_uris":{"android":"levelo://app?vid=c20bc477-dd5c-49da-87ed-cfec2b85dc57","ios":"levelo://app?vid=c20bc477-dd5c-49da-87ed-cfec2b85dc57"},"vehicle_type_id":"4","last_reported":1683986733,"current_range_meters":30400,"station_id":"","pricing_plan_id":"free"},{"bike_id":"1b4dc9f0-c01f-4537-a3cf-19135a5f610b","system_id":"levelo_inurba_marseille","lat":43.29064,"lon":5.37162,"is_reserved":false,"is_disabled":false,"rental_uris":{"android":"levelo://app?vid=1b4dc9f0-c01f-4537-a3cf-19135a5f610b","ios":"levelo://app?vid=1b4dc9f0-c01f-4537-a3cf-19135a5f610b"},"vehicle_type_id":"4","last_reported":1683986733,"current_range_meters":29200,"station_id":"ce4bh5p2rcd13ifvqe4g","pricing_plan_id":"free"},{"bike_id":"63e6bb79-5495-45b9-bbab-6397e7834c6d","system_id":"levelo_inurba_marseille","lat":43.30214,"lon":5.39465,"is_reserved":false,"is_disabled":false,"rental_uris":{"android":"levelo://app?vid=63e6bb79-5495-45b9-bbab-6397e7834c6d","ios":"levelo://app?vid=63e6bb79-5495-45b9-bbab-6397e7834c6d"},"vehicle_type_id":"4","last_reported":1683986733,"current_range_meters":30000,"station_id":"ce4bh0p2rcd13ifvqd70","pricing_plan_id":"free"},{"bike_id":"ec54e954-ee73-4236-bbf7-54fa608ee796","system_id":"levelo_inurba_marseille","lat":43.290631,"lon":5.359244,"is_reserved":false,"is_disabled":false,"rental_uris":{"android":"levelo://app?vid=ec54e954-ee73-4236-bbf7-54fa608ee796","ios":"levelo://app?vid=ec54e954-ee73-4236-bbf7-54fa608ee796"},"vehicle_type_id":"4","last_reported":1683986733,"current_range_meters":16800,"station_id":"ce4bha92rcd13ifvqeg0","pricing_plan_id":"free"},{"bike_id":"790a8e6d-c32f-4879-9dca-9633a2002f5b","system_id":"levelo_inurba_marseille","lat":43.290631,"lon":5.359244,"is_reserved":false,"is_disabled":false,"rental_uris":{"android":"levelo://app?vid=790a8e6d-c32f-4879-9dca-9633a2002f5b","ios":"levelo://app?vid=790a8e6d-c32f-4879-9dca-9633a2002f5b"},"vehicle_type_id":"4","last_reported":1683986733,"current_range_meters":26000,"station_id":"ce4bha92rcd13ifvqeg0","pricing_plan_id":"free"},{"bike_id":"bedee10e-5dfc-450e-8b51-ca83bf1109a6","system_id":"levelo_inurba_marseille","lat":43.30496,"lon":5.39706,"is_reserved":false,"is_disabled":false,"rental_uris":{"android":"levelo://app?vid=bedee10e-5dfc-450e-8b51-ca83bf1109a6","ios":"levelo://app?vid=bedee10e-5dfc-450e-8b51-ca83bf1109a6"},"vehicle_type_id":"4","last_reported":1683986733,"current_range_meters":3600,"station_id":"","pricing_plan_id":"free"},{"bike_id":"a9238440-f725-4774-9748-b4f00271c1c4","system_id":"levelo_inurba_marseille","lat":43.289468,"lon":5.363719,"is_reserved":false,"is_disabled":false,"rental_uris":{"android":"levelo://app?vid=a9238440-f725-4774-9748-b4f00271c1c4","ios":"levelo://app?vid=a9238440-f725-4774-9748-b4f00271c1c4"},"vehicle_type_id":"4","last_reported":1683986733,"current_range_meters":15600,"station_id":"ce4bhc92rcd13ifvqetg","pricing_plan_id":"free"},{"bike_id":"9f129774-36e1-42f1-8229-a7c2be11d89e","system_id":"levelo_inurba_marseille","lat":43.30484,"lon":5.39706,"is_reserved":false,"is_disabled":false,"rental_uris":{"android":"levelo://app?vid=9f129774-36e1-42f1-8229-a7c2be11d89e","ios":"levelo://app?vid=9f129774-36e1-42f1-8229-a7c2be11d89e"},"vehicle_type_id":"4","last_reported":1683986733,"current_range_meters":19600,"station_id":"","pricing_plan_id":"free"},{"bike_id":"f6c03c2f-427f-4f58-b267-d447c926be22","system_id":"levelo_inurba_marseille","lat":43.28941,"lon":5.36631,"is_reserved":false,"is_disabled":false,"rental_uris":{"android":"levelo://app?vid=f6c03c2f-427f-4f58-b267-d447c926be22","ios":"levelo://app?vid=f6c03c2f-427f-4f58-b267-d447c926be22"},"vehicle_type_id":"4","last_reported":1683986733,"current_range_meters":12000,"station_id":"ce4bhap2rcd13ifvqek0","pricing_plan_id":"free"},{"bike_id":"9746b312-732f-4de5-b0b0-c4d89c2b6499","system_id":"levelo_inurba_marseille","lat":43.289468,"lon":5.363719,"is_reserved":false,"is_disabled":false,"rental_uris":{"android":"levelo://app?vid=9746b312-732f-4de5-b0b0-c4d89c2b6499","ios":"levelo://app?vid=9746b312-732f-4de5-b0b0-c4d89c2b6499"},"vehicle_type_id":"4","last_reported":1683986733,"current_range_meters":28400,"station_id":"ce4bhc92rcd13ifvqetg","pricing_plan_id":"free"},{"bike_id":"eb565c67-feeb-4aa4-87f1-d698259747ca","system_id":"levelo_inurba_marseille","lat":43.289468,"lon":5.363719,"is_reserved":false,"is_disabled":false,"rental_uris":{"android":"levelo://app?vid=eb565c67-feeb-4aa4-87f1-d698259747ca","ios":"levelo://app?vid=eb565c67-feeb-4aa4-87f1-d698259747ca"},"vehicle_type_id":"4","last_reported":1683986733,"current_range_meters":14000,"station_id":"ce4bhc92rcd13ifvqetg","pricing_plan_id":"free"},{"bike_id":"1ecef7fd-a9ce-47a0-ad7d-b5a31d11dfbd","system_id":"levelo_inurba_marseille","lat":43.292644,"lon":5.384257,"is_reserved":false,"is_disabled":false,"rental_uris":{"android":"levelo://app?vid=1ecef7fd-a9ce-47a0-ad7d-b5a31d11dfbd","ios":"levelo://app?vid=1ecef7fd-a9ce-47a0-ad7d-b5a31d11dfbd"},"vehicle_type_id":"4","last_reported":1683986733,"current_range_meters":23200,"station_id":"ce4bh692rcd13ifvqea0","pricing_plan_id":"free"},{"bike_id":"39b0d4e9-2ee0-41ed-a685-88fd09c997f1","system_id":"levelo_inurba_marseille","lat":43.292642,"lon":5.384254,"is_reserved":false,"is_disabled":false,"rental_uris":{"android":"levelo://app?vid=39b0d4e9-2ee0-41ed-a685-88fd09c997f1","ios":"levelo://app?vid=39b0d4e9-2ee0-41ed-a685-88fd09c997f1"},"vehicle_type_id":"4","last_reported":1683986733,"current_range_meters":8400,"station_id":"ce4bh692rcd13ifvqea0","pricing_plan_id":"free"},{"bike_id":"e1b3c912-2e63-45db-ad1d-a31a2801878a","system_id":"levelo_inurba_marseille","lat":43.29011,"lon":5.35618,"is_reserved":false,"is_disabled":false,"rental_uris":{"android":"levelo://app?vid=e1b3c912-2e63-45db-ad1d-a31a2801878a","ios":"levelo://app?vid=e1b3c912-2e63-45db-ad1d-a31a2801878a"},"vehicle_type_id":"4","last_reported":1683986733,"current_range_meters":26400,"station_id":"ce4bhb92rcd13ifvqen0","pricing_plan_id":"free"},{"bike_id":"b53dcb65-5fe0-4135-bada-b5edd98bc874","system_id":"levelo_inurba_marseille","lat":43.290104,"lon":5.356111,"is_reserved":false,"is_disabled":false,"rental_uris":{"android":"levelo://app?vid=b53dcb65-5fe0-4135-bada-b5edd98bc874","ios":"levelo://app?vid=b53dcb65-5fe0-4135-bada-b5edd98bc874"},"vehicle_type_id":"4","last_reported":1683986733,"current_range_meters":31200,"station_id":"ce4bhb92rcd13ifvqen0","pricing_plan_id":"free"},{"bike_id":"b96fdfac-6713-45a3-862b-1b0dc87517dc","system_id":"levelo_inurba_marseille","lat":43.290104,"lon":5.356111,"is_reserved":false,"is_disabled":false,"rental_uris":{"android":"levelo://app?vid=b96fdfac-6713-45a3-862b-1b0dc87517dc","ios":"levelo://app?vid=b96fdfac-6713-45a3-862b-1b0dc87517dc"},"vehicle_type_id":"4","last_reported":1683986733,"current_range_meters":6400,"station_id":"ce4bhb92rcd13ifvqen0","pricing_plan_id":"free"},{"bike_id":"898546ec-7039-4d29-a81a-00bcdfd9887a","system_id":"levelo_inurba_marseille","lat":43.290104,"lon":5.356111,"is_reserved":false,"is_disabled":false,"rental_uris":{"android":"levelo://app?vid=898546ec-7039-4d29-a81a-00bcdfd9887a","ios":"levelo://app?vid=898546ec-7039-4d29-a81a-00bcdfd9887a"},"vehicle_type_id":"4","last_reported":1683986733,"current_range_meters":30800,"station_id":"ce4bhb92rcd13ifvqen0","pricing_plan_id":"free"},{"bike_id":"99d11ff8-cd4f-4243-907c-822c17bc769b","system_id":"levelo_inurba_marseille","lat":43.33043,"lon":5.38917,"is_reserved":false,"is_disabled":false,"rental_uris":{"android":"levelo://app?vid=99d11ff8-cd4f-4243-907c-822c17bc769b","ios":"levelo://app?vid=99d11ff8-cd4f-4243-907c-822c17bc769b"},"vehicle_type_id":"4","last_reported":1683986733,"current_range_meters":20400,"station_id":"ce4bhr92rcd13ifvqhrg","pricing_plan_id":"free"},{"bike_id":"b8d0a2d7-4443-405c-9e1e-71d351b2ac12","system_id":"levelo_inurba_marseille","lat":43.33039,"lon":5.38923,"is_reserved":false,"is_disabled":false,"rental_uris":{"android":"levelo://app?vid=b8d0a2d7-4443-405c-9e1e-71d351b2ac12","ios":"levelo://app?vid=b8d0a2d7-4443-405c-9e1e-71d351b2ac12"},"vehicle_type_id":"4","last_reported":1683986733,"current_range_meters":21600,"station_id":"ce4bhr92rcd13ifvqhrg","pricing_plan_id":"free"},{"bike_id":"dc44ed10-49bb-4d64-9178-bc7b6334c2fc","system_id":"levelo_inurba_marseille","lat":43.290104,"lon":5.356111,"is_reserved":false,"is_disabled":false,"rental_uris":{"android":"levelo://app?vid=dc44ed10-49bb-4d64-9178-bc7b6334c2fc","ios":"levelo://app?vid=dc44ed10-49bb-4d64-9178-bc7b6334c2fc"},"vehicle_type_id":"4","last_reported":1683986733,"current_range_meters":28800,"station_id":"ce4bhb92rcd13ifvqen0","pricing_plan_id":"free"},{"bike_id":"754ef565-0150-4f0d-8c0d-a8a5d6927613","system_id":"levelo_inurba_marseille","lat":43.3304,"lon":5.38923,"is_reserved":false,"is_disabled":false,"rental_uris":{"android":"levelo://app?vid=754ef565-0150-4f0d-8c0d-a8a5d6927613","ios":"levelo://app?vid=754ef565-0150-4f0d-8c0d-a8a5d6927613"},"vehicle_type_id":"4","last_reported":1683986733,"current_range_meters":19200,"station_id":"ce4bhr92rcd13ifvqhrg","pricing_plan_id":"free"},{"bike_id":"777bb844-8490-4977-9c30-492a297bcf42","system_id":"levelo_inurba_marseille","lat":43.290103,"lon":5.356114,"is_reserved":false,"is_disabled":false,"rental_uris":{"android":"levelo://app?vid=777bb844-8490-4977-9c30-492a297bcf42","ios":"levelo://app?vid=777bb844-8490-4977-9c30-492a297bcf42"},"vehicle_type_id":"4","last_reported":1683986733,"current_range_meters":29200,"station_id":"ce4bhb92rcd13ifvqen0","pricing_plan_id":"free"},{"bike_id":"41d9ce0c-7e10-4ba0-9763-c1f91de5887e","system_id":"levelo_inurba_marseille","lat":43.290104,"lon":5.356111,"is_reserved":false,"is_disabled":false,"rental_uris":{"android":"levelo://app?vid=41d9ce0c-7e10-4ba0-9763-c1f91de5887e","ios":"levelo://app?vid=41d9ce0c-7e10-4ba0-9763-c1f91de5887e"},"vehicle_type_id":"4","last_reported":1683986733,"current_range_meters":26000,"station_id":"ce4bhb92rcd13ifvqen0","pricing_plan_id":"free"},{"bike_id":"d9c65fb5-b538-43a6-8b06-cce8ee9f5b2a","system_id":"levelo_inurba_marseille","lat":43.3304,"lon":5.38924,"is_reserved":false,"is_disabled":false,"rental_uris":{"android":"levelo://app?vid=d9c65fb5-b538-43a6-8b06-cce8ee9f5b2a","ios":"levelo://app?vid=d9c65fb5-b538-43a6-8b06-cce8ee9f5b2a"},"vehicle_type_id":"4","last_reported":1683986733,"current_range_meters":29200,"station_id":"ce4bhr92rcd13ifvqhrg","pricing_plan_id":"free"},{"bike_id":"12b28d0e-e3b4-44fd-9fd0-39d971f07d14","system_id":"levelo_inurba_marseille","lat":43.290104,"lon":5.356111,"is_reserved":false,"is_disabled":false,"rental_uris":{"android":"levelo://app?vid=12b28d0e-e3b4-44fd-9fd0-39d971f07d14","ios":"levelo://app?vid=12b28d0e-e3b4-44fd-9fd0-39d971f07d14"},"vehicle_type_id":"4","last_reported":1683986733,"current_range_meters":30400,"station_id":"ce4bhb92rcd13ifvqen0","pricing_plan_id":"free"},{"bike_id":"c60a28d2-88b3-4aa2-8b09-3d9b687815e4","system_id":"levelo_inurba_marseille","lat":43.33042,"lon":5.38922,"is_reserved":false,"is_disabled":false,"rental_uris":{"android":"levelo://app?vid=c60a28d2-88b3-4aa2-8b09-3d9b687815e4","ios":"levelo://app?vid=c60a28d2-88b3-4aa2-8b09-3d9b687815e4"},"vehicle_type_id":"4","last_reported":1683986733,"current_range_meters":22000,"station_id":"ce4bhr92rcd13ifvqhrg","pricing_plan_id":"free"},{"bike_id":"3b4bc1f4-88cb-41cb-8bd2-ee85353f0b7c","system_id":"levelo_inurba_marseille","lat":43.33044,"lon":5.38919,"is_reserved":false,"is_disabled":false,"rental_uris":{"android":"levelo://app?vid=3b4bc1f4-88cb-41cb-8bd2-ee85353f0b7c","ios":"levelo://app?vid=3b4bc1f4-88cb-41cb-8bd2-ee85353f0b7c"},"vehicle_type_id":"4","last_reported":1683986733,"current_range_meters":5600,"station_id":"ce4bhr92rcd13ifvqhrg","pricing_plan_id":"free"},