{"last_updated":1731593355,"ttl":60,"version":"2.2","data":{"bikes":[{"bike_id":"f7077078-441d-479e-868a-c1909effda71","system_id":"levelo_inurba_marseille","lat":43.29621,"lon":5.37173,"is_reserved":false,"is_disabled":false,"rental_uris":{"android":"levelo://app?vid=f7077078-441d-479e-868a-c1909effda71","ios":"levelo://app?vid=f7077078-441d-479e-868a-c1909effda71"},"vehicle_type_id":"4","last_reported":1731593355,"current_range_meters":30400,"station_id":"ce4bgnh2rcd13ifvqc0g","pricing_plan_id":"cebpf4jnsgd1na2vs0mg"},{"bike_id":"f4b7a327-6099-49e8-8857-6321edfc38b9","system_id":"levelo_inurba_marseille","lat":43.303207,"lon":5.368994,"is_reserved":false,"is_disabled":false,"rental_uris":{"android":"levelo://app?vid=f4b7a327-6099-49e8-8857-6321edfc38b9","ios":"levelo://app?vid=f4b7a327-6099-49e8-8857-6321edfc38b9"},"vehicle_type_id":"4","last_reported":1731593355,"current_range_meters":27600,"station_id":"ce4bgg92rcd13ifvqb30","pricing_plan_id":"cebpf4jnsgd1na2vs0mg"},{"bike_id":"d72e41e0-b2be-44d4-9a5d-48e19d343592","system_id":"levelo_inurba_marseille","lat":43.31338,"lon":5.36744,"is_reserved":false,"is_disabled":false,"rental_uris":{"android":"levelo://app?vid=d72e41e0-b2be-44d4-9a5d-48e19d343592","ios":"levelo://app?vid=d72e41e0-b2be-44d4-9a5d-48e19d343592"},"vehicle_type_id":"4","last_reported":1731593355,"current_range_meters":31200,"station_id":"ce4bgr92rcd13ifvqc6g","pricing_plan_id":"cebpf4jnsgd1na2vs0mg"},{"bike_id":"c1b5b73b-c3d3-4a6e-b7dd-f8fac71d1718","system_id":"levelo_inurba_marseille","lat":43.30526,"lon":5.3846,"is_reserved":false,"is_disabled":false,"rental_uris":{"android":"levelo://app?vid=c1b5b73b-c3d3-4a6e-b7dd-f8fac71d1718","ios":"levelo://app?vid=c1b5b73b-c3d3-4a6e-b7dd-f8fac71d1718"},"vehicle_type_id":"4","last_reported":1731593355,"current_range_meters":27600,"station_id":"ce4bgg92rcd13ifvqb30","pricing_plan_id":"cebpf4jnsgd1na2vs0mg"},{"bike_id":"cca1b7af-78a9-48d1-9c7e-ca785c3adb09","system_id":"levelo_inurba_marseille","lat":43.28706,"lon":5.39996,"is_reserved":false,"is_disabled":false,"rental_uris":{"android":"levelo://app?vid=cca1b7af-78a9-48d1-9c7e-ca785c3adb09","ios":"levelo://app?vid=cca1b7af-78a9-48d1-9c7e-ca785c3adb09"},"vehicle_type_id":"4","last_reported":1731593355,"current_range_meters":38800,"station_id":"ce4bho92rcd13ifvqh3g","pricing_plan_id":"cebpf4jnsgd1na2vs0mg"},{"bike_id":"984ad295-3d7a-43cc-aee3-5237eaeebccd","system_id":"levelo_inurba_marseille","lat":43.29711,"lon":5.37696,"is_reserved":false,"is_disabled":false,"rental_uris":{"android":"levelo://app?vid=984ad295-3d7a-43cc-aee3-5237eaeebccd","ios":"levelo://app?vid=984ad295-3d7a-43cc-aee3-5237eaeebccd"},"vehicle_type_id":"4","last_reported":1731593355,"current_range_meters":37600,"station_id":"ce4bgkh2rcd13ifvqbl0","pricing_plan_id":"cebpf4jnsgd1na2vs0mg"},{"bike_id":"82f1aa9a-ca13-4506-adbb-99ccd1f3d43e","system_id":"levelo_inurba_marseille","lat":43.31754,"lon":5.39012,"is_reserved":false,"is_disabled":false,"rental_uris":{"android":"levelo://app?vid=82f1aa9a-ca13-4506-adbb-99ccd1f3d43e","ios":"levelo://app?vid=82f1aa9a-ca13-4506-adbb-99ccd1f3d43e"},"vehicle_type_id":"4","last_reported":1731593355,"current_range_meters":12000,"station_id":"ce4bhqp2rcd13ifvqhng","pricing_plan_id":"cebpf4jnsgd1na2vs0mg"},{"bike_id":"991b96a6-4e44-41fa-ad72-b8d69ddc5e98","system_id":"levelo_inurba_marseille","lat":43.30275,"lon":5.37709,"is_reserved":false,"is_disabled":false,"rental_uris":{"android":"levelo://app?vid=991b96a6-4e44-41fa-ad72-b8d69ddc5e98","ios":"levelo://app?vid=991b96a6-4e44-41fa-ad72-b8d69ddc5e98"},"vehicle_type_id":"4","last_reported":1731593355,"current_range_meters":25600,"station_id":"ce4bguh2rcd13ifvqcj0","pricing_plan_id":"cebpf4jnsgd1na2vs0mg"},{"bike_id":"7d67614c-9467-4cfd-b4f5-83472fe15856","system_id":"levelo_inurba_marseille","lat":43.3111,"lon":5.37774,"is_reserved":false,"is_disabled":false,"rental_uris":{"android":"levelo://app?vid=7d67614c-9467-4cfd-b4f5-83472fe15856","ios":"levelo://app?vid=7d67614c-9467-4cfd-b4f5-83472fe15856"},"vehicle_type_id":"4","last_reported":1731593355,"current_range_meters":9200,"station_id":"ce4bgt92rcd13ifvqcg0","pricing_plan_id":"cebpf4jnsgd1na2vs0mg"},{"bike_id":"77b060ce-9068-49ee-af94-75c872e69481","system_id":"levelo_inurba_marseille","lat":43.32362,"lon":5.38885,"is_reserved":false,"is_disabled":false,"rental_uris":{"android":"levelo://app?vid=77b060ce-9068-49ee-af94-75c872e69481","ios":"levelo://app?vid=77b060ce-9068-49ee-af94-75c872e69481"},"vehicle_type_id":"4","last_reported":1731593355,"current_range_meters":38800,"station_id":"ce4bhqp2rcd13ifvqhog","pricing_plan_id":"cebpf4jnsgd1na2vs0mg"},{"bike_id":"6754df0b-0982-4e89-9afc-140b59ee3d94","system_id":"levelo_inurba_marseille","lat":43.3254,"lon":5.41433,"is_reserved":false,"is_disabled":false,"rental_uris":{"android":"levelo://app?vid=6754df0b-0982-4e89-9afc-140b59ee3d94","ios":"levelo://app?vid=6754df0b-0982-4e89-9afc-140b59ee3d94"},"vehicle_type_id":"4","last_reported":1731593355,"current_range_meters":37600,"station_id":"ce4bhq12rcd13ifvqhhg","pricing_plan_id":"cebpf4jnsgd1na2vs0mg"},{"bike_id":"fce08d4d-140b-4d5a-8f2f-2e2ffdee9457","system_id":"levelo_inurba_marseille","lat":43.29597,"lon":5.38104,"is_reserved":false,"is_disabled":false,"rental_uris":{"android":"levelo://app?vid=fce08d4d-140b-4d5a-8f2f-2e2ffdee9457","ios":"levelo://app?vid=fce08d4d-140b-4d5a-8f2f-2e2ffdee9457"},"vehicle_type_id":"4","last_reported":1731593355,"current_range_meters":28400,"station_id":"ce4bgl12rcd13ifvqbo0","pricing_plan_id":"cebpf4jnsgd1na2vs0mg"},{"bike_id":"91fe36a8-bc4f-4b08-8287-b0444a16f338","system_id":"levelo_inurba_marseille","lat":43.23141,"lon":5.43718,"is_reserved":false,"is_disabled":false,"rental_uris":{"android":"levelo://app?vid=91fe36a8-bc4f-4b08-8287-b0444a16f338","ios":"levelo://app?vid=91fe36a8-bc4f-4b08-8287-b0444a16f338"},"vehicle_type_id":"4","last_reported":1731593355,"current_range_meters":38400,"station_id":"ce4bhmp2rcd13ifvqgog","pricing_plan_id":"cebpf4jnsgd1na2vs0mg"},{"bike_id":"8472a442-1b27-4429-9cbb-acb2837e6d0f","system_id":"levelo_inurba_marseille","lat":43.24081,"lon":5.37737,"is_reserved":false,"is_disabled":false,"rental_uris":{"android":"levelo://app?vid=8472a442-1b27-4429-9cbb-acb2837e6d0f","ios":"levelo://app?vid=8472a442-1b27-4429-9cbb-acb2837e6d0f"},"vehicle_type_id":"4","last_reported":1731593355,"current_range_meters":24400,"station_id":"ce4bhnp2rcd13ifvqgvg","pricing_plan_id":"cebpf4jnsgd1na2vs0mg"},{"bike_id":"cc792d10-5e3a-4b03-849b-38a1e4ffc260","system_id":"levelo_inurba_marseille","lat":43.337444,"lon":5.374475,"is_reserved":false,"is_disabled":false,"rental_uris":{"android":"levelo://app?vid=cc792d10-5e3a-4b03-849b-38a1e4ffc260","ios":"levelo://app?vid=cc792d10-5e3a-4b03-849b-38a1e4ffc260"},"vehicle_type_id":"4","last_reported":1731593355,"current_range_meters":34800,"station_id":"","pricing_plan_id":"cebpf4jnsgd1na2vs0mg"},{"bike_id":"87c53cb9-72b3-4c11-8146-fab6f7f7afed","system_id":"levelo_inurba_marseille","lat":43.28268,"lon":5.35065,"is_reserved":false,"is_disabled":false,"rental_uris":{"android":"levelo://app?vid=87c53cb9-72b3-4c11-8146-fab6f7f7afed","ios":"levelo://app?vid=87c53cb9-72b3-4c11-8146-fab6f7f7afed"},"vehicle_type_id":"4","last_reported":1731593355,"current_range_meters":26800,"station_id":"ce4bhbp2rcd13ifvqerg","pricing_plan_id":"cebpf4jnsgd1na2vs0mg"},{"bike_id":"e9c08c1d-93d7-4a99-8ed0-bfc08fe8d790","system_id":"levelo_inurba_marseille","lat":43.250763,"lon":5.395148,"is_reserved":false,"is_disabled":false,"rental_uris":{"android":"levelo://app?vid=e9c08c1d-93d7-4a99-8ed0-bfc08fe8d790","ios":"levelo://app?vid=e9c08c1d-93d7-4a99-8ed0-bfc08fe8d790"},"vehicle_type_id":"4","last_reported":1731593355,"current_range_meters":38800,"station_id":"ce4bhm12rcd13ifvqgkg","pricing_plan_id":"cebpf4jnsgd1na2vs0mg"},{"bike_id":"9d3d8f04-350a-47f9-a91d-71c04ea9de18","system_id":"levelo_inurba_marseille","lat":43.23152,"lon":5.43708,"is_reserved":false,"is_disabled":false,"rental_uris":{"android":"levelo://app?vid=9d3d8f04-350a-47f9-a91d-71c04ea9de18","ios":"levelo://app?vid=9d3d8f04-350a-47f9-a91d-71c04ea9de18"},"vehicle_type_id":"4","last_reported":1731593355,"current_range_meters":39200,"station_id":"ce4bhmp2rcd13ifvqgog","pricing_plan_id":"cebpf4jnsgd1na2vs0mg"},{"bike_id":"20d7642b-dfe1-47e7-a4f8-972333c7822c","system_id":"levelo_inurba_marseille","lat":43.23963,"lon":5.36631,"is_reserved":false,"is_disabled":false,"rental_uris":{"android":"levelo://app?vid=20d7642b-dfe1-47e7-a4f8-972333c7822c","ios":"levelo://app?vid=20d7642b-dfe1-47e7-a4f8-972333c7822c"},"vehicle_type_id":"4","last_reported":1731593355,"current_range_meters":19200,"station_id":"ce4bhi12rcd13ifvqfp0","pricing_plan_id":"cebpf4jnsgd1na2vs0mg"},{"bike_id":"576bbe35-a13d-4850-83ae-ae567703d7ea","system_id":"levelo_inurba_marseille","lat":43.299237,"lon":5.37473,"is_reserved":false,"is_disabled":false,"rental_uris":{"android":"levelo://app?vid=576bbe35-a13d-4850-83ae-ae567703d7ea","ios":"levelo://app?vid=576bbe35-a13d-4850-83ae-ae567703d7ea"},"vehicle_type_id":"4","last_reported":1731593355,"current_range_meters":20800,"station_id":"ce4bgjh2rcd13ifvqbg0","pricing_plan_id":"cebpf4jnsgd1na2vs0mg"},{"bike_id":"93d97bb2-ca55-4538-bd22-ddf9889aa609","system_id":"levelo_inurba_marseille","lat":43.29265,"lon":5.38444,"is_reserved":false,"is_disabled":false,"rental_uris":{"android":"levelo://app?vid=93d97bb2-ca55-4538-bd22-ddf9889aa609","ios":"levelo://app?vid=93d97bb2-ca55-4538-bd22-ddf9889aa609"},"vehicle_type_id":"4","last_reported":1731593355,"current_range_meters":22800,"station_id":"ce4bh692rcd13ifvqea0","pricing_plan_id":"cebpf4jnsgd1na2vs0mg"},{"bike_id":"7e465898-a890-47d7-a27e-266939b652fb","system_id":"levelo_inurba_marseille","lat":43.24999,"lon":5.38934,"is_reserved":false,"is_disabled":false,"rental_uris":{"android":"levelo://app?vid=7e465898-a890-47d7-a27e-266939b652fb","ios":"levelo://app?vid=7e465898-a890-47d7-a27e-266939b652fb"},"vehicle_type_id":"4","last_reported":1731593355,"current_range_meters":36800,"station_id":"ce4bhgp2rcd13ifvqfd0","pricing_plan_id":"cebpf4jnsgd1na2vs0mg"},{"bike_id":"f3448d52-89fe-4d9f-b89c-4e885c988277","system_id":"levelo_inurba_marseille","lat":43.24386,"lon":5.3706,"is_reserved":false,"is_disabled":false,"rental_uris":{"android":"levelo://app?vid=f3448d52-89fe-4d9f-b89c-4e885c988277","ios":"levelo://app?vid=f3448d52-89fe-4d9f-b89c-4e885c988277"},"vehicle_type_id":"4","last_reported":1731593355,"current_range_meters":36000,"station_id":"ce4bhhh2rcd13ifvqfk0","pricing_plan_id":"cebpf4jnsgd1na2vs0mg"},{"bike_id":"92bb36ab-121a-49fc-a4ed-f87fe677d4fe","system_id":"levelo_inurba_marseille","lat":43.29292,"lon":5.37452,"is_reserved":false,"is_disabled":false,"rental_uris":{"android":"levelo://app?vid=92bb36ab-121a-49fc-a4ed-f87fe677d4fe","ios":"levelo://app?vid=92bb36ab-121a-49fc-a4ed-f87fe677d4fe"},"vehicle_type_id":"4","last_reported":1731593355,"current_range_meters":38800,"station_id":"ce4bgi12rcd13ifvqb70","pricing_plan_id":"cebpf4jnsgd1na2vs0mg"},{"bike_id":"93f6e0a3-b901-4cdc-a44d-96f4e8453cd4","system_id":"levelo_inurba_marseille","lat":43.33771,"lon":5.3743,"is_reserved":false,"is_disabled":false,"rental_uris":{"android":"levelo://app?vid=93f6e0a3-b901-4cdc-a44d-96f4e8453cd4","ios":"levelo://app?vid=93f6e0a3-b901-4cdc-a44d-96f4e8453cd4"},"vehicle_type_id":"4","last_reported":1731593355,"current_range_meters":33200,"station_id":"","pricing_plan_id":"cebpf4jnsgd1na2vs0mg"},{"bike_id":"ee90ef69-b67c-4689-a1ec-1d3891d0b11d","system_id":"levelo_inurba_marseille","lat":43.26204,"lon":5.3794,"is_reserved":false,"is_disabled":false,"rental_uris":{"android":"levelo://app?vid=ee90ef69-b67c-4689-a1ec-1d3891d0b11d","ios":"levelo://app?vid=ee90ef69-b67c-4689-a1ec-1d3891d0b11d"},"vehicle_type_id":"4","last_reported":1731593355,"current_range_meters":32000,"station_id":"ce4bhjp2rcd13ifvqg90","pricing_plan_id":"cebpf4jnsgd1na2vs0mg"},{"bike_id":"1622353b-6708-48bc-85a0-98f1e9da5565","system_id":"levelo_inurba_marseille","lat":43.28001,"lon":5.41647,"is_reserved":false,"is_disabled":false,"rental_uris":{"android":"levelo://app?vid=1622353b-6708-48bc-85a0-98f1e9da5565","ios":"levelo://app?vid=1622353b-6708-48bc-85a0-98f1e9da5565"},"vehicle_type_id":"4","last_reported":1731593355,"current_range_meters":20400,"station_id":"ce4bho12rcd13ifvqh1g","pricing_plan_id":"cebpf4jnsgd1na2vs0mg"},{"bike_id":"573499d1-0cb4-4690-bede-d5ca1c06b37f","system_id":"levelo_inurba_marseille","lat":43.295751,"lon":5.399791,"is_reserved":false,"is_disabled":false,"rental_uris":{"android":"levelo://app?vid=573499d1-0cb4-4690-bede-d5ca1c06b37f","ios":"levelo://app?vid=573499d1-0cb4-4690-bede-d5ca1c06b37f"},"vehicle_type_id":"4","last_reported":1731593355,"current_range_meters":22800,"station_id":"","pricing_plan_id":"cebpf4jnsgd1na2vs0mg"},{"bike_id":"69daa5eb-5a54-41c1-841e-b0d404ffc277","system_id":"levelo_inurba_marseille","lat":43.30322,"lon":5.40442,"is_reserved":false,"is_disabled":false,"rental_uris":{"android":"levelo://app?vid=69daa5eb-5a54-41c1-841e-b0d404ffc277","ios":"levelo://app?vid=69daa5eb-5a54-41c1-841e-b0d404ffc277"},"vehicle_type_id":"4","last_reported":1731593355,"current_range_meters":24400,"station_id":"ce4bh012rcd13ifvqd10","pricing_plan_id":"cebpf4jnsgd1na2vs0mg"},{"bike_id":"4a74f469-1d99-48ee-a8ca-9199898c00a4","system_id":"levelo_inurba_marseille","lat":43.23199,"lon":5.35547,"is_reserved":false,"is_disabled":false,"rental_uris":{"android":"levelo://app?vid=4a74f469-1d99-48ee-a8ca-9199898c00a4","ios":"levelo://app?vid=4a74f469-1d99-48ee-a8ca-9199898c00a4"},"vehicle_type_id":"4","last_reported":1731593355,"current_range_meters":20400,"station_id":"ce4bhu92rcd13ifvqi70","pricing_plan_id":"cebpf4jnsgd1na2vs0mg"},{"bike_id":"c4b2bafb-ae76-412e-a120-055cc31bbdd6","system_id":"levelo_inurba_marseille","lat":43.2501,"lon":5.38923,"is_reserved":false,"is_disabled":false,"rental_uris":{"android":"levelo://app?vid=c4b2bafb-ae76-412e-a120-055cc31bbdd6","ios":"levelo://app?vid=c4b2bafb-ae76-412e-a120-055cc31bbdd6"},"vehicle_type_id":"4","last_reported":1731593355,"current_range_meters":22000,"station_id":"ce4bhgp2rcd13ifvqfd0","pricing_plan_id":"cebpf4jnsgd1na2vs0mg"},{"bike_id":"4a30e148-c111-4771-a898-d2dc7d15d192","system_id":"levelo_inurba_marseille","lat":43.29716,"lon":5.37697,"is_reserved":false,"is_disabled":false,"rental_uris":{"android":"levelo://app?vid=4a30e148-c111-4771-a898-d2dc7d15d192","ios":"levelo://app?vid=4a30e148-c111-4771-a898-d2dc7d15d192"},"vehicle_type_id":"4","last_reported":1731593355,"current_range_meters":38800,"station_id":"ce4bgkh2rcd13ifvqbl0","pricing_plan_id":"cebpf4jnsgd1na2vs0mg"},{"bike_id":"8d695cfe-8f72-41cd-9f4d-3ac1c7aec85c","system_id":"levelo_inurba_marseille","lat":43.29555,"lon":5.42295,"is_reserved":false,"is_disabled":false,"rental_uris":{"android":"levelo://app?vid=8d695cfe-8f72-41cd-9f4d-3ac1c7aec85c","ios":"levelo://app?vid=8d695cfe-8f72-41cd-9f4d-3ac1c7aec85c"},"vehicle_type_id":"4","last_reported":1731593355,"current_range_meters":31200,"station_id":"ce4bhph2rcd13ifvqhdg","pricing_plan_id":"cebpf4jnsgd1na2vs0mg"},{"bike_id":"5c36c5dc-10d4-4a6f-8cac-3a9d3dcb2cd2","system_id":"levelo_inurba_marseille","lat":43.2961,"lon":5.37722,"is_reserved":false,"is_disabled":false,"rental_uris":{"android":"levelo://app?vid=5c36c5dc-10d4-4a6f-8cac-3a9d3dcb2cd2","ios":"levelo://app?vid=5c36c5dc-10d4-4a6f-8cac-3a9d3dcb2cd2"},"vehicle_type_id":"4","last_reported":1731593355,"current_range_meters":38800,"station_id":"ce4bgi92rcd13ifvqb90","pricing_plan_id":"cebpf4jnsgd1na2vs0mg"},{"bike_id":"47c967a5-3c8a-4d73-a522-90111361a0a0","system_id":"levelo_inurba_marseille","lat":43.32475,"lon":5.36574,"is_reserved":false,"is_disabled":false,"rental_uris":{"android":"levelo://app?vid=47c967a5-3c8a-4d73-a522-90111361a0a0","ios":"levelo://app?vid=47c967a5-3c8a-4d73-a522-90111361a0a0"},"vehicle_type_id":"4","last_reported":1731593355,"current_range_meters":38800,"station_id":"ce4bhs12rcd13ifvqhvg","pricing_plan_id":"cebpf4jnsgd1na2vs0mg"},{"bike_id":"b401526e-9797-412b-a024-2aeff2654ce6","system_id":"levelo_inurba_marseille","lat":43.2793,"lon":5.35508,"is_reserved":false,"is_disabled":false,"rental_uris":{"android":"levelo://app?vid=b401526e-9797-412b-a024-2aeff2654ce6","ios":"levelo://app?vid=b401526e-9797-412b-a024-2aeff2654ce6"},"vehicle_type_id":"4","last_reported":1731593355,"current_range_meters":4800,"station_id":"","pricing_plan_id":"cebpf4jnsgd1na2vs0mg"},{"bike_id":"a32d9d84-8ed2-4c72-bc8c-a8b1f9fbf83a","system_id":"levelo_inurba_marseille","lat":43.3053,"lon":5.36546,"is_reserved":false,"is_disabled":false,"rental_uris":{"android":"levelo://app?vid=a32d9d84-8ed2-4c72-bc8c-a8b1f9fbf83a","ios":"levelo://app?vid=a32d9d84-8ed2-4c72-bc8c-a8b1f9fbf83a"},"vehicle_type_id":"4","last_reported":1731593355,"current_range_meters":6400,"station_id":"ce4bgs12rcd13ifvqcag","pricing_plan_id":"cebpf4jnsgd1na2vs0mg"},{"bike_id":"4a06006d-6c0d-4453-846e-eca266cb000d","system_id":"levelo_inurba_marseille","lat":43.29711,"lon":5.36606,"is_reserved":false,"is_disabled":false,"rental_uris":{"android":"levelo://app?vid=4a06006d-6c0d-4453-846e-eca266cb000d","ios":"levelo://app?vid=4a06006d-6c0d-4453-846e-eca266cb000d"},"vehicle_type_id":"4","last_reported":1731593355,"current_range_meters":33600,"station_id":"ce4bgn12rcd13ifvqbt0","pricing_plan_id":"cebpf4jnsgd1na2vs0mg"},{"bike_id":"954e1f05-0fe1-4f1b-a5e0-84b144d5d7b0","system_id":"levelo_inurba_marseille","lat":43.31518,"lon":5.3873,"is_reserved":false,"is_disabled":false,"rental_uris":{"android":"levelo://app?vid=954e1f05-0fe1-4f1b-a5e0-84b144d5d7b0","ios":"levelo://app?vid=954e1f05-0fe1-4f1b-a5e0-84b144d5d7b0"},"vehicle_type_id":"4","last_reported":1731593355,"current_range_meters":24400,"station_id":"ce4bgt12rcd13ifvqcd0","pricing_plan_id":"cebpf4jnsgd1na2vs0mg"},{"bike_id":"03829838-9104-4fc2-a922-3274a797c9f7","system_id":"levelo_inurba_marseille","lat":43.28073,"lon":5.39657,"is_reserved":false,"is_disabled":false,"rental_uris":{"android":"levelo://app?vid=03829838-9104-4fc2-a922-3274a797c9f7","ios":"levelo://app?vid=03829838-9104-4fc2-a922-3274a797c9f7"},"vehicle_type_id":"4","last_reported":1731593355,"current_range_meters":39200,"station_id":"ce4bho12rcd13ifvqh2g","pricing_plan_id":"cebpf4jnsgd1na2vs0mg"},{"bike_id":"afdbfb6e-fc2c-4852-9e70-1a085553c5b2","system_id":"levelo_inurba_marseille","lat":43.23191,"lon":5.35551,"is_reserved":false,"is_disabled":false,"rental_uris":{"android":"levelo://app?vid=afdbfb6e-fc2c-4852-9e70-1a085553c5b2","ios":"levelo://app?vid=afdbfb6e-fc2c-4852-9e70-1a085553c5b2"},"vehicle_type_id":"4","last_reported":1731593355,"current_range_meters":21600,"station_id":"ce4bhu92rcd13ifvqi70","pricing_plan_id":"cebpf4jnsgd1na2vs0mg"},{"bike_id":"4ade8667-98a9-491e-ba2f-486e944e88f7","system_id":"levelo_inurba_marseille","lat":43.29224,"lon":5.36054,"is_reserved":false,"is_disabled":false,"rental_uris":{"android":"levelo://app?vid=4ade8667-98a9-491e-ba2f-486e944e88f7","ios":"levelo://app?vid=4ade8667-98a9-491e-ba2f-486e944e88f7"},"vehicle_type_id":"4","last_reported":1731593355,"current_range_meters":6000,"station_id":"ce4bhbh2rcd13ifvqeqg","pricing_plan_id":"cebpf4jnsgd1na2vs0mg"},{"bike_id":"2d988347-9c45-4c49-a1fc-7c2979a31818","system_id":"levelo_inurba_marseille","lat":43.28258,"lon":5.35072,"is_reserved":false,"is_disabled":false,"rental_uris":{"android":"levelo://app?vid=2d988347-9c45-4c49-a1fc-7c2979a31818","ios":"levelo://app?vid=2d988347-9c45-4c49-a1fc-7c2979a31818"},"vehicle_type_id":"4","last_reported":1731593355,"current_range_meters":38400,"station_id":"ce4bhbp2rcd13ifvqerg","pricing_plan_id":"cebpf4jnsgd1na2vs0mg"},{"bike_id":"7427f906-074e-419b-9913-72e531b99e24","system_id":"levelo_inurba_marseille","lat":43.26062,"lon":5.39399,"is_reserved":false,"is_disabled":false,"rental_uris":{"android":"levelo://app?vid=7427f906-074e-419b-9913-72e531b99e24","ios":"levelo://app?vid=7427f906-074e-419b-9913-72e531b99e24"},"vehicle_type_id":"4","last_reported":1731593355,"current_range_meters":12000,"station_id":"ce4bhh92rcd13ifvqfj0","pricing_plan_id":"cebpf4jnsgd1na2vs0mg"},{"bike_id":"481bfc19-2c1a-4390-aad8-0869310d51b6","system_id":"levelo_inurba_marseille","lat":43.23154,"lon":5.43703,"is_reserved":false,"is_disabled":false,"rental_uris":{"android":"levelo://app?vid=481bfc19-2c1a-4390-aad8-0869310d51b6","ios":"levelo://app?vid=481bfc19-2c1a-4390-aad8-0869310d51b6"},"vehicle_type_id":"4","last_reported":1731593355,"current_range_meters":18000,"station_id":"ce4bhmp2rcd13ifvqgog","pricing_plan_id":"cebpf4jnsgd1na2vs0mg"},{"bike_id":"785a4434-c998-4c07-9e49-6240ac8eab46","system_id":"levelo_inurba_marseille","lat":43.33023,"lon":5.39041,"is_reserved":false,"is_disabled":false,"rental_uris":{"android":"levelo://app?vid=785a4434-c998-4c07-9e49-6240ac8eab46","ios":"levelo://app?vid=785a4434-c998-4c07-9e49-6240ac8eab46"},"vehicle_type_id":"4","last_reported":1731593355,"current_range_meters":37600,"station_id":"ce4bhr92rcd13ifvqhrg","pricing_plan_id":"cebpf4jnsgd1na2vs0mg"},{"bike_id":"87fa306c-1629-4fae-8400-089be70f13a3","system_id":"levelo_inurba_marseille","lat":43.26565,"lon":5.39004,"is_reserved":false,"is_disabled":false,"rental_uris":{"android":"levelo://app?vid=87fa306c-1629-4fae-8400-089be70f13a3","ios":"levelo://app?vid=87fa306c-1629-4fae-8400-089be70f13a3"},"vehicle_type_id":"4","last_reported":1731593355,"current_range_meters":8800,"station_id":"ce4bhe12rcd13ifvqf30","pricing_plan_id":"cebpf4jnsgd1na2vs0mg"},{"bike_id":"fbba0614-e375-49e7-94e8-de49b528b3ef","system_id":"levelo_inurba_marseille","lat":43.2834,"lon":5.38101,"is_reserved":false,"is_disabled":false,"rental_uris":{"android":"levelo://app?vid=fbba0614-e375-49e7-94e8-de49b528b3ef","ios":"levelo://app?vid=fbba0614-e375-49e7-94e8-de49b528b3ef"},"vehicle_type_id":"4","last_reported":1731593355,"current_range_meters":38000,"station_id":"ce4bh412rcd13ifvqdr0","pricing_plan_id":"cebpf4jnsgd1na2vs0mg"},{"bike_id":"75801e28-b69b-4a5e-945c-714926c1ddf7","system_id":"levelo_inurba_marseille","lat":43.337444,"lon":5.374475,"is_reserved":false,"is_disabled":false,"rental_uris":{"android":"levelo://app?vid=75801e28-b69b-4a5e-945c-714926c1ddf7","ios":"levelo://app?vid=75801e28-b69b-4a5e-945c-714926c1ddf7"},"vehicle_type_id":"4","last_reported":1731593355,"current_range_meters":35200,"station_id":"","pricing_plan_id":"cebpf4jnsgd1na2vs0mg"},{"bike_id":"cce1bed1-7b28-40b1-af27-bd2142f2ded6","system_id":"levelo_inurba_marseille","lat":43.29253,"lon":5.36852,"is_reserved":false,"is_disabled":false,"rental_uris":{"android":"levelo://app?vid=cce1bed1-7b28-40b1-af27-bd2142f2ded6","ios":"levelo://app?vid=cce1bed1-7b28-40b1-af27-bd2142f2ded6"},"vehicle_type_id":"4","last_reported":1731593355,"current_range_meters":28400,"station_id":"ce4bhbp2rcd13ifvqesg","pricing_plan_id":"cebpf4jnsgd1na2vs0mg"},{"bike_id":"b55257a8-3caf-4eda-8ea3-bd3196d77158","system_id":"levelo_inurba_marseille","lat":43.30869,"lon":5.37186,"is_reserved":false,"is_disabled":false,"rental_uris":{"android":"levelo://app?vid=b55257a8-3caf-4eda-8ea3-bd3196d77158","ios":"levelo://app?vid=b55257a8-3caf-4eda-8ea3-bd3196d77158"},"vehicle_type_id":"4","last_reported":1731593355,"current_range_meters":38400,"station_id":"ce4bguh2rcd13ifvqckg","pricing_plan_id":"cebpf4jnsgd1na2vs0mg"},{"bike_id":"1fe395a2-697b-4dbd-915f-7cd3940edb4b","system_id":"levelo_inurba_marseille","lat":43.29791,"lon":5.381033,"is_reserved":false,"is_disabled":false,"rental_uris":{"android":"levelo://app?vid=1fe395a2-697b-4dbd-915f-7cd3940edb4b","ios":"levelo://app?vid=1fe395a2-697b-4dbd-915f-7cd3940edb4b"},"vehicle_type_id":"4","last_reported":1731593355,"current_range_meters":29600,"station_id":"ce4bgip2rcd13ifvqbb0","pricing_plan_id":"cebpf4jnsgd1na2vs0mg"},{"bike_id":"e1a6970f-d408-49cf-a4fe-ef82d2512acf","system_id":"levelo_inurba_marseille","lat":43.32478,"lon":5.36569,"is_reserved":false,"is_disabled":false,"rental_uris":{"android":"levelo://app?vid=e1a6970f-d408-49cf-a4fe-ef82d2512acf","ios":"levelo://app?vid=e1a6970f-d408-49cf-a4fe-ef82d2512acf"},"vehicle_type_id":"4","last_reported":1731593355,"current_range_meters":13600,"station_id":"ce4bhs12rcd13ifvqhvg","pricing_plan_id":"cebpf4jnsgd1na2vs0mg"},{"bike_id":"0a435324-a4bc-487a-8979-3b2dbe37224b","system_id":"levelo_inurba_marseille","lat":43.31223,"lon":5.36865,"is_reserved":false,"is_disabled":false,"rental_uris":{"android":"levelo://app?vid=0a435324-a4bc-487a-8979-3b2dbe37224b","ios":"levelo://app?vid=0a435324-a4bc-487a-8979-3b2dbe37224b"},"vehicle_type_id":"4","last_reported":1731593355,"current_range_meters":22400,"station_id":"ce4bgl92rcd13ifvqbq0","pricing_plan_id":"cebpf4jnsgd1na2vs0mg"},{"bike_id":"7f809dc5-a18f-4d72-9c79-8fd4ba8383ba","system_id":"levelo_inurba_marseille","lat":43.295968,"lon":5.405978,"is_reserved":false,"is_disabled":false,"rental_uris":{"android":"levelo://app?vid=7f809dc5-a18f-4d72-9c79-8fd4ba8383ba","ios":"levelo://app?vid=7f809dc5-a18f-4d72-9c79-8fd4ba8383ba"},"vehicle_type_id":"4","last_reported":1731593355,"current_range_meters":36000,"station_id":"","pricing_plan_id":"cebpf4jnsgd1na2vs0mg"},{"bike_id":"66960c14-6c49-443a-9968-baf1d9cfc69d","system_id":"levelo_inurba_marseille","lat":43.29412,"lon":5.38637,"is_reserved":false,"is_disabled":false,"rental_uris":{"android":"levelo://app?vid=66960c14-6c49-443a-9968-baf1d9cfc69d","ios":"levelo://app?vid=66960c14-6c49-443a-9968-baf1d9cfc69d"},"vehicle_type_id":"4","last_reported":1731593355,"current_range_meters":28000,"station_id":"ce4bh2h2rcd13ifvqdh0","pricing_plan_id":"cebpf4jnsgd1na2vs0mg"},{"bike_id":"fc12c689-c0e4-4076-93be-7cefd00e842a","system_id":"levelo_inurba_marseille","lat":43.2906,"lon":5.38756,"is_reserved":false,"is_disabled":false,"rental_uris":{"android":"levelo://app?vid=fc12c689-c0e4-4076-93be-7cefd00e842a","ios":"levelo://app?vid=fc12c689-c0e4-4076-93be-7cefd00e842a"},"vehicle_type_id":"4","last_reported":1731593355,"current_range_meters":17200,"station_id":"ce4bh2p2rcd13ifvqdi0","pricing_plan_id":"cebpf4jnsgd1na2vs0mg"},{"bike_id":"7006e856-2ce9-4055-a812-5cb80a2d0764","system_id":"levelo_inurba_marseille","lat":43.28617,"lon":5.35113,"is_reserved":false,"is_disabled":false,"rental_uris":{"android":"levelo://app?vid=7006e856-2ce9-4055-a812-5cb80a2d0764","ios":"levelo://app?vid=7006e856-2ce9-4055-a812-5cb80a2d0764"},"vehicle_type_id":"4","last_reported":1731593355,"current_range_meters":21600,"station_id":"ce4bhch2rcd13ifvqeug","pricing_plan_id":"cebpf4jnsgd1na2vs0mg"},{"bike_id":"9ce7735e-136c-491d-a0f2-abfb9c571a33","system_id":"levelo_inurba_marseille","lat":43.31344,"lon":5.36727,"is_reserved":false,"is_disabled":false,"rental_uris":{"android":"levelo://app?vid=9ce7735e-136c-491d-a0f2-abfb9c571a33","ios":"levelo://app?vid=9ce7735e-136c-491d-a0f2-abfb9c571a33"},"vehicle_type_id":"4","last_reported":1731593355,"current_range_meters":29600,"station_id":"ce4bgr92rcd13ifvqc6g","pricing_plan_id":"cebpf4jnsgd1na2vs0mg"},{"bike_id":"a583d3ea-648d-4ca4-ab6d-7c3a4f13bd72","system_id":"levelo_inurba_marseille","lat":43.23967,"lon":5.36632,"is_reserved":false,"is_disabled":false,"rental_uris":{"android":"levelo://app?vid=a583d3ea-648d-4ca4-ab6d-7c3a4f13bd72","ios":"levelo://app?vid=a583d3ea-648d-4ca4-ab6d-7c3a4f13bd72"},"vehicle_type_id":"4","last_reported":1731593355,"current_range_meters":23200,"station_id":"ce4bhi12rcd13ifvqfp0","pricing_plan_id":"cebpf4jnsgd1na2vs0mg"},{"bike_id":"6a71652b-ce40-4188-b97e-0fbddb668e32","system_id":"levelo_inurba_marseille","lat":43.29802,"lon":5.381,"is_reserved":false,"is_disabled":false,"rental_uris":{"android":"levelo://app?vid=6a71652b-ce40-4188-b97e-0fbddb668e32","ios":"levelo://app?vid=6a71652b-ce40-4188-b97e-0fbddb668e32"},"vehicle_type_id":"4","last_reported":1731593355,"current_range_meters":15200,"station_id":"ce4bgip2rcd13ifvqbb0","pricing_plan_id":"cebpf4jnsgd1na2vs0mg"},{"bike_id":"817849d8-25eb-48a4-b155-e11b87f519ff","system_id":"levelo_inurba_marseille","lat":43.30529,"lon":5.36537,"is_reserved":false,"is_disabled":false,"rental_uris":{"android":"levelo://app?vid=817849d8-25eb-48a4-b155-e11b87f519ff","ios":"levelo://app?vid=817849d8-25eb-48a4-b155-e11b87f519ff"},"vehicle_type_id":"4","last_reported":1731593355,"current_range_meters":38800,"station_id":"ce4bgs12rcd13ifvqcag","pricing_plan_id":"cebpf4jnsgd1na2vs0mg"},{"bike_id":"19403e5b-9388-47f8-803d-8d1235a538c6","system_id":"levelo_inurba_marseille","lat":43.23193,"lon":5.35555,"is_reserved":false,"is_disabled":false,"rental_uris":{"android":"levelo://app?vid=19403e5b-9388-47f8-803d-8d1235a538c6","ios":"levelo://app?vid=19403e5b-9388-47f8-803d-8d1235a538c6"},"vehicle_type_id":"4","last_reported":1731593355,"current_range_meters":24400,"station_id":"ce4bhu92rcd13ifvqi70","pricing_plan_id":"cebpf4jnsgd1na2vs0mg"},{"bike_id":"75b99c30-b29f-427f-a2e5-1f3169e45369","system_id":"levelo_inurba_marseille","lat":43.28267,"lon":5.35062,"is_reserved":false,"is_disabled":false,"rental_uris":{"android":"levelo://app?vid=75b99c30-b29f-427f-a2e5-1f3169e45369","ios":"levelo://app?vid=75b99c30-b29f-427f-a2e5-1f3169e45369"},"vehicle_type_id":"4","last_reported":1731593355,"current_range_meters":19200,"station_id":"ce4bhbp2rcd13ifvqerg","pricing_plan_id":"cebpf4jnsgd1na2vs0mg"},{"bike_id":"eca12abc-63f4-4905-a469-a9c625924656","system_id":"levelo_inurba_marseille","lat":43.26562,"lon":5.39,"is_reserved":false,"is_disabled":false,"rental_uris":{"android":"levelo://app?vid=eca12abc-63f4-4905-a469-a9c625924656","ios":"levelo://app?vid=eca12abc-63f4-4905-a469-a9c625924656"},"vehicle_type_id":"4","last_reported":1731593355,"current_range_meters":29600,"station_id":"ce4bhe12rcd13ifvqf30","pricing_plan_id":"cebpf4jnsgd1na2vs0mg"},{"bike_id":"91158999-1dc9-4b4e-87a3-c66eff7611e3","system_id":"levelo_inurba_marseille","lat":43.26785,"lon":5.3941,"is_reserved":false,"is_disabled":false,"rental_uris":{"android":"levelo://app?vid=91158999-1dc9-4b4e-87a3-c66eff7611e3","ios":"levelo://app?vid=91158999-1dc9-4b4e-87a3-c66eff7611e3"},"vehicle_type_id":"4","last_reported":1731593355,"current_range_meters":9600,"station_id":"ce4bhh12rcd13ifvqfg0","pricing_plan_id":"cebpf4jnsgd1na2vs0mg"},{"bike_id":"d99bff46-e3e0-4c25-9719-3fa3dd9a1a6e","system_id":"levelo_inurba_marseille","lat":43.31569,"lon":5.37278,"is_reserved":false,"is_disabled":false,"rental_uris":{"android":"levelo://app?vid=d99bff46-e3e0-4c25-9719-3fa3dd9a1a6e","ios":"levelo://app?vid=d99bff46-e3e0-4c25-9719-3fa3dd9a1a6e"},"vehicle_type_id":"4","last_reported":1731593355,"current_range_meters":20400,"station_id":"ce4bgt12rcd13ifvqcd0","pricing_plan_id":"cebpf4jnsgd1na2vs0mg"},{"bike_id":"4dd2cafd-994e-4a6b-9ee8-cb8ccf464a3e","system_id":"levelo_inurba_marseille","lat":43.25107,"lon":5.40324,"is_reserved":false,"is_disabled":false,"rental_uris":{"android":"levelo://app?vid=4dd2cafd-994e-4a6b-9ee8-cb8ccf464a3e","ios":"levelo://app?vid=4dd2cafd-994e-4a6b-9ee8-cb8ccf464a3e"},"vehicle_type_id":"4","last_reported":1731593355,"current_range_meters":38400,"station_id":"ce4bhlh2rcd13ifvqgig","pricing_plan_id":"cebpf4jnsgd1na2vs0mg"},{"bike_id":"444a50ed-96d4-4f65-83c1-9d4be8c967ab","system_id":"levelo_inurba_marseille","lat":43.28706,"lon":5.3795,"is_reserved":false,"is_disabled":false,"rental_uris":{"android":"levelo://app?vid=444a50ed-96d4-4f65-83c1-9d4be8c967ab","ios":"levelo://app?vid=444a50ed-96d4-4f65-83c1-9d4be8c967ab"},"vehicle_type_id":"4","last_reported":1731593355,"current_range_meters":39200,"station_id":"ce4bgi92rcd13ifvqb90","pricing_plan_id":"cebpf4jnsgd1na2vs0mg"},{"bike_id":"f634ac1e-8c25-48d7-ad26-70f58943d71b","system_id":"levelo_inurba_marseille","lat":43.30294,"lon":5.36888,"is_reserved":false,"is_disabled":false,"rental_uris":{"android":"levelo://app?vid=f634ac1e-8c25-48d7-ad26-70f58943d71b","ios":"levelo://app?vid=f634ac1e-8c25-48d7-ad26-70f58943d71b"},"vehicle_type_id":"4","last_reported":1731593355,"current_range_meters":19200,"station_id":"ce4bgqh2rcd13ifvqc5g","pricing_plan_id":"cebpf4jnsgd1na2vs0mg"},{"bike_id":"c43dced0-7e60-4265-8cd8-c883a11a7632","system_id":"levelo_inurba_marseille","lat":43.29927,"lon":5.3655,"is_reserved":false,"is_disabled":false,"rental_uris":{"android":"levelo://app?vid=c43dced0-7e60-4265-8cd8-c883a11a7632","ios":"levelo://app?vid=c43dced0-7e60-4265-8cd8-c883a11a7632"},"vehicle_type_id":"4","last_reported":1731593355,"current_range_meters":16800,"station_id":"ce4bgm92rcd13ifvqbr0","pricing_plan_id":"cebpf4jnsgd1na2vs0mg"},{"bike_id":"1bd91954-6c74-4da0-81cd-1005fdf9850d","system_id":"levelo_inurba_marseille","lat":43.34143,"lon":5.40907,"is_reserved":false,"is_disabled":false,"rental_uris":{"android":"levelo://app?vid=1bd91954-6c74-4da0-81cd-1005fdf9850d","ios":"levelo://app?vid=1bd91954-6c74-4da0-81cd-1005fdf9850d"},"vehicle_type_id":"4","last_reported":1731593355,"current_range_meters":38800,"station_id":"ce4bhqh2rcd13ifvqhlg","pricing_plan_id":"cebpf4jnsgd1na2vs0mg"},{"bike_id":"63bd93d5-63dd-4683-a5d8-4a155823bc4a","system_id":"levelo_inurba_marseille","lat":43.25083,"lon":5.39514,"is_reserved":false,"is_disabled":false,"rental_uris":{"android":"levelo://app?vid=63bd93d5-63dd-4683-a5d8-4a155823bc4a","ios":"levelo://app?vid=63bd93d5-63dd-4683-a5d8-4a155823bc4a"},"vehicle_type_id":"4","last_reported":1731593355,"current_range_meters":39200,"station_id":"ce4bhm12rcd13ifvqgkg","pricing_plan_id":"cebpf4jnsgd1na2vs0mg"},{"bike_id":"21c3f886-bafe-4236-aa7c-30af499af7f0","system_id":"levelo_inurba_marseille","lat":43.32477,"lon":5.3657,"is_reserved":false,"is_disabled":false,"rental_uris":{"android":"levelo://app?vid=21c3f886-bafe-4236-aa7c-30af499af7f0","ios":"levelo://app?vid=21c3f886-bafe-4236-aa7c-30af499af7f0"},"vehicle_type_id":"4","last_reported":1731593355,"current_range_meters":16400,"station_id":"ce4bhs12rcd13ifvqhvg","pricing_plan_id":"cebpf4jnsgd1na2vs0mg"},{"bike_id":"7e68d8eb-008a-41fa-8d76-b35dd2ccf3ff","system_id":"levelo_inurba_marseille","lat":43.25002,"lon":5.38924,"is_reserved":false,"is_disabled":false,"rental_uris":{"android":"levelo://app?vid=7e68d8eb-008a-41fa-8d76-b35dd2ccf3ff","ios":"levelo://app?vid=7e68d8eb-008a-41fa-8d76-b35dd2ccf3ff"},"vehicle_type_id":"4","last_reported":1731593355,"current_range_meters":25600,"station_id":"ce4bhgp2rcd13ifvqfd0","pricing_plan_id":"cebpf4jnsgd1na2vs0mg"},{"bike_id":"04e253a9-6894-41b4-87c2-2534d6c729a6","system_id":"levelo_inurba_marseille","lat":43.32027,"lon":5.41569,"is_reserved":false,"is_disabled":false,"rental_uris":{"android":"levelo://app?vid=04e253a9-6894-41b4-87c2-2534d6c729a6","ios":"levelo://app?vid=04e253a9-6894-41b4-87c2-2534d6c729a6"},"vehicle_type_id":"4","last_reported":1731593355,"current_range_meters":38400,"station_id":"ce4bhq92rcd13ifvqhkg","pricing_plan_id":"cebpf4jnsgd1na2vs0mg"},{"bike_id":"f15f84e3-6119-4797-bcba-f763c86025cb","system_id":"levelo_inurba_marseille","lat":43.337444,"lon":5.374475,"is_reserved":false,"is_disabled":false,"rental_uris":{"android":"levelo://app?vid=f15f84e3-6119-4797-bcba-f763c86025cb","ios":"levelo://app?vid=f15f84e3-6119-4797-bcba-f763c86025cb"},"vehicle_type_id":"4","last_reported":1731593355,"current_range_meters":35200,"station_id":"","pricing_plan_id":"cebpf4jnsgd1na2vs0mg"},{"bike_id":"a74bc046-fe2d-4282-b46c-db9ff6dd05b0","system_id":"levelo_inurba_marseille","lat":43.32369,"lon":5.38887,"is_reserved":false,"is_disabled":false,"rental_uris":{"android":"levelo://app?vid=a74bc046-fe2d-4282-b46c-db9ff6dd05b0","ios":"levelo://app?vid=a74bc046-fe2d-4282-b46c-db9ff6dd05b0"},"vehicle_type_id":"4","last_reported":1731593355,"current_range_meters":9200,"station_id":"ce4bhqp2rcd13ifvqhog","pricing_plan_id":"cebpf4jnsgd1na2vs0mg"},{"bike_id":"376412d3-b3b7-45b4-944b-2cddc52d9673","system_id":"levelo_inurba_marseille","lat":43.28934,"lon":5.36627,"is_reserved":false,"is_disabled":false,"rental_uris":{"android":"levelo://app?vid=376412d3-b3b7-45b4-944b-2cddc52d9673","ios":"levelo://app?vid=376412d3-b3b7-45b4-944b-2cddc52d9673"},"vehicle_type_id":"4","last_reported":1731593355,"current_range_meters":27600,"station_id":"ce4bhap2rcd13ifvqek0","pricing_plan_id":"cebpf4jnsgd1na2vs0mg"},{"bike_id":"ba295aa4-e303-4da2-9863-82d8a34fc59c","system_id":"levelo_inurba_marseille","lat":43.23967,"lon":5.36618,"is_reserved":false,"is_disabled":false,"rental_uris":{"android":"levelo://app?vid=ba295aa4-e303-4da2-9863-82d8a34fc59c","ios":"levelo://app?vid=ba295aa4-e303-4da2-9863-82d8a34fc59c"},"vehicle_type_id":"4","last_reported":1731593355,"current_range_meters":22000,"station_id":"ce4bhi12rcd13ifvqfp0","pricing_plan_id":"cebpf4jnsgd1na2vs0mg"},{"bike_id":"f0f5c311-eccb-4b46-8e6f-37005aa162a9","system_id":"levelo_inurba_marseille","lat":43.30635,"lon":5.40119,"is_reserved":false,"is_disabled":false,"rental_uris":{"android":"levelo://app?vid=f0f5c311-eccb-4b46-8e6f-37005aa162a9","ios":"levelo://app?vid=f0f5c311-eccb-4b46-8e6f-37005aa162a9"},"vehicle_type_id":"4","last_reported":1731593355,"current_range_meters":35600,"station_id":"ce4bh112rcd13ifvqda0","pricing_plan_id":"cebpf4jnsgd1na2vs0mg"},{"bike_id":"2cdb055a-001e-4662-bd5b-c22f42b108ff","system_id":"levelo_inurba_marseille","lat":43.25582,"lon":5.38235,"is_reserved":false,"is_disabled":false,"rental_uris":{"android":"levelo://app?vid=2cdb055a-001e-4662-bd5b-c22f42b108ff","ios":"levelo://app?vid=2cdb055a-001e-4662-bd5b-c22f42b108ff"},"vehicle_type_id":"4","last_reported":1731593355,"current_range_meters":38400,"station_id":"ce4bhih2rcd13ifvqfs0","pricing_plan_id":"cebpf4jnsgd1na2vs0mg"},{"bike_id":"aa8707f6-5b26-4050-a3bd-75b37190d270","system_id":"levelo_inurba_marseille","lat":43.31354,"lon":5.36723,"is_reserved":false,"is_disabled":false,"rental_uris":{"android":"levelo://app?vid=aa8707f6-5b26-4050-a3bd-75b37190d270","ios":"levelo://app?vid=aa8707f6-5b26-4050-a3bd-75b37190d270"},"vehicle_type_id":"4","last_reported":1731593355,"current_range_meters":22800,"station_id":"ce4bgr92rcd13ifvqc6g","pricing_plan_id":"cebpf4jnsgd1na2vs0mg"},{"bike_id":"8963f262-bdcb-43f5-9e37-237198779ba8","system_id":"levelo_inurba_marseille","lat":43.33773,"lon":5.37442,"is_reserved":false,"is_disabled":false,"rental_uris":{"android":"levelo://app?vid=8963f262-bdcb-43f5-9e37-237198779ba8","ios":"levelo://app?vid=8963f262-bdcb-43f5-9e37-237198779ba8"},"vehicle_type_id":"4","last_reported":1731593355,"current_range_meters":33200,"station_id":"","pricing_plan_id":"cebpf4jnsgd1na2vs0mg"},{"bike_id":"398b47b3-a042-4cec-b1dd-254773a78263","system_id":"levelo_inurba_marseille","lat":43.27403,"lon":5.38949,"is_reserved":false,"is_disabled":false,"rental_uris":{"android":"levelo://app?vid=398b47b3-a042-4cec-b1dd-254773a78263","ios":"levelo://app?vid=398b47b3-a042-4cec-b1dd-254773a78263"},"vehicle_type_id":"4","last_reported":1731593355,"current_range_meters":4000,"station_id":"","pricing_plan_id":"cebpf4jnsgd1na2vs0mg"},{"bike_id":"c43ecc75-3dbf-4da6-97bd-45bc7513e11b","system_id":"levelo_inurba_marseille","lat":43.2871,"lon":5.37938,"is_reserved":false,"is_disabled":false,"rental_uris":{"android":"levelo://app?vid=c43ecc75-3dbf-4da6-97bd-45bc7513e11b","ios":"levelo://app?vid=c43ecc75-3dbf-4da6-97bd-45bc7513e11b"},"vehicle_type_id":"4","last_reported":1731593355,"current_range_meters":28400,"station_id":"ce4bh9p2rcd13ifvqec0","pricing_plan_id":"cebpf4jnsgd1na2vs0mg"},{"bike_id":"bbffda28-211e-42cd-ac34-9ed9db5f6da1","system_id":"levelo_inurba_marseille","lat":43.27062,"lon":5.42274,"is_reserved":false,"is_disabled":false,"rental_uris":{"android":"levelo://app?vid=bbffda28-211e-42cd-ac34-9ed9db5f6da1","ios":"levelo://app?vid=bbffda28-211e-42cd-ac34-9ed9db5f6da1"},"vehicle_type_id":"4","last_reported":1731593355,"current_range_meters":32400,"station_id":"ce4bhk92rcd13ifvqgb0","pricing_plan_id":"cebpf4jnsgd1na2vs0mg"},{"bike_id":"9ef346ad-46e7-4fe6-811f-aa50d1b8d189","system_id":"levelo_inurba_marseille","lat":43.28712,"lon":5.379382,"is_reserved":false,"is_disabled":false,"rental_uris":{"android":"levelo://app?vid=9ef346ad-46e7-4fe6-811f-aa50d1b8d189","ios":"levelo://app?vid=9ef346ad-46e7-4fe6-811f-aa50d1b8d189"},"vehicle_type_id":"4","last_reported":1731593355,"current_range_meters":38800,"station_id":"ce4bh9p2rcd13ifvqec0","pricing_plan_id":"cebpf4jnsgd1na2vs0mg"},{"bike_id":"ac1081cc-aff5-436e-a11b-24d06190a755","system_id":"levelo_inurba_marseille","lat":43.337444,"lon":5.374475,"is_reserved":false,"is_disabled":false,"rental_uris":{"android":"levelo://app?vid=ac1081cc-aff5-436e-a11b-24d06190a755","ios":"levelo://app?vid=ac1081cc-aff5-436e-a11b-24d06190a755"},"vehicle_type_id":"4","last_reported":1731593355,"current_range_meters":34000,"station_id":"","pricing_plan_id":"cebpf4jnsgd1na2vs0mg"},{"bike_id":"e4886a66-463a-4bc9-bb9e-1756c5af239b","system_id":"levelo_inurba_marseille","lat":43.26801,"lon":5.40276,"is_reserved":false,"is_disabled":false,"rental_uris":{"android":"levelo://app?vid=e4886a66-463a-4bc9-bb9e-1756c5af239b","ios":"levelo://app?vid=e4886a66-463a-4bc9-bb9e-1756c5af239b"},"vehicle_type_id":"4","last_reported":1731593355,"current_range_meters":37600,"station_id":"ce501612rcd8frsf0b60","pricing_plan_id":"cebpf4jnsgd1na2vs0mg"},{"bike_id":"92e3ad17-17c9-4714-a148-ef9436ad6113","system_id":"levelo_inurba_marseille","lat":43.22935,"lon":5.3538,"is_reserved":false,"is_disabled":false,"rental_uris":{"android":"levelo://app?vid=92e3ad17-17c9-4714-a148-ef9436ad6113","ios":"levelo://app?vid=92e3ad17-17c9-4714-a148-ef9436ad6113"},"vehicle_type_id":"4","last_reported":1731593355,"current_range_meters":38800,"station_id":"cpo3532slgdg3j2ikp40","pricing_plan_id":"cebpf4jnsgd1na2vs0mg"},{"bike_id":"3959eab5-15c5-4ed6-a889-9acfe67f1614","system_id":"levelo_inurba_marseille","lat":43.31331,"lon":5.39702,"is_reserved":false,"is_disabled":false,"rental_uris":{"android":"levelo://app?vid=3959eab5-15c5-4ed6-a889-9acfe67f1614","ios":"levelo://app?vid=3959eab5-15c5-4ed6-a889-9acfe67f1614"},"vehicle_type_id":"4","last_reported":1731593355,"current_range_meters":38400,"station_id":"ce4bgvp2rcd13ifvqcu0","pricing_plan_id":"cebpf4jnsgd1na2vs0mg"},{"bike_id":"187a7fa8-9afd-4d26-b5e7-6a10712e67a7","system_id":"levelo_inurba_marseille","lat":43.23152,"lon":5.43714,"is_reserved":false,"is_disabled":false,"rental_uris":{"android":"levelo://app?vid=187a7fa8-9afd-4d26-b5e7-6a10712e67a7","ios":"levelo://app?vid=187a7fa8-9afd-4d26-b5e7-6a10712e67a7"},"vehicle_type_id":"4","last_reported":1731593355,"current_range_meters":39200,"station_id":"ce4bhmp2rcd13ifvqgog","pricing_plan_id":"cebpf4jnsgd1na2vs0mg"},{"bike_id":"b57a5365-00b1-42ab-a3f6-488c665039da","system_id":"levelo_inurba_marseille","lat":43.26687,"lon":5.38272,"is_reserved":false,"is_disabled":false,"rental_uris":{"android":"levelo://app?vid=b57a5365-00b1-42ab-a3f6-488c665039da","ios":"levelo://app?vid=b57a5365-00b1-42ab-a3f6-488c665039da"},"vehicle_type_id":"4","last_reported":1731593355,"current_range_meters":36400,"station_id":"ce4bhg92rcd13ifvqf90","pricing_plan_id":"cebpf4jnsgd1na2vs0mg"},{"bike_id":"82f309e6-c4ae-421f-89cb-1d64a8e0ef10","system_id":"levelo_inurba_marseille","lat":43.337444,"lon":5.374475,"is_reserved":false,"is_disabled":false,"rental_uris":{"android":"levelo://app?vid=82f309e6-c4ae-421f-89cb-1d64a8e0ef10","ios":"levelo://app?vid=82f309e6-c4ae-421f-89cb-1d64a8e0ef10"},"vehicle_type_id":"4","last_reported":1731593355,"current_range_meters":32400,"station_id":"","pricing_plan_id":"cebpf4jnsgd1na2vs0mg"},{"bike_id":"5419d154-3ce9-4c40-9294-d16b9d2b3431","system_id":"levelo_inurba_marseille","lat":43.337444,"lon":5.374475,"is_reserved":false,"is_disabled":false,"rental_uris":{"android":"levelo://app?vid=5419d154-3ce9-4c40-9294-d16b9d2b3431","ios":"levelo://app?vid=5419d154-3ce9-4c40-9294-d16b9d2b3431"},"vehicle_type_id":"4","last_reported":1731593355,"current_range_meters":32400,"station_id":"","pricing_plan_id":"cebpf4jnsgd1na2vs0mg"},{"bike_id":"1d7ed258-ac0f-499e-94e3-30158698c091","system_id":"levelo_inurba_marseille","lat":43.28253,"lon":5.35066,"is_reserved":false,"is_disabled":false,"rental_uris":{"android":"levelo://app?vid=1d7ed258-ac0f-499e-94e3-30158698c091","ios":"levelo://app?vid=1d7ed258-ac0f-499e-94e3-30158698c091"},"vehicle_type_id":"4","last_reported":1731593355,"current_range_meters":36800,"station_id":"ce4bhbp2rcd13ifvqerg","pricing_plan_id":"cebpf4jnsgd1na2vs0mg"},{"bike_id":"afc61e25-18ff-4bc6-8d00-74d7214f4489","system_id":"levelo_inurba_marseille","lat":43.26563,"lon":5.39007,"is_reserved":false,"is_disabled":false,"rental_uris":{"android":"levelo://app?vid=afc61e25-18ff-4bc6-8d00-74d7214f4489","ios":"levelo://app?vid=afc61e25-18ff-4bc6-8d00-74d7214f4489"},"vehicle_type_id":"4","last_reported":1731593355,"current_range_meters":16800,"station_id":"ce4bhe12rcd13ifvqf30","pricing_plan_id":"cebpf4jnsgd1na2vs0mg"},{"bike_id":"6e4ab7d2-c1df-4ea4-bb4b-2f5c43ed5717","system_id":"levelo_inurba_marseille","lat":43.33768,"lon":5.37439,"is_reserved":false,"is_disabled":false,"rental_uris":{"android":"levelo://app?vid=6e4ab7d2-c1df-4ea4-bb4b-2f5c43ed5717","ios":"levelo://app?vid=6e4ab7d2-c1df-4ea4-bb4b-2f5c43ed5717"},"vehicle_type_id":"4","last_reported":1731593355,"current_range_meters":32400,"station_id":"","pricing_plan_id":"cebpf4jnsgd1na2vs0mg"},{"bike_id":"bd465249-964f-4479-968e-5f6e32af60f1","system_id":"levelo_inurba_marseille","lat":43.337444,"lon":5.374475,"is_reserved":false,"is_disabled":false,"rental_uris":{"android":"levelo://app?vid=bd465249-964f-4479-968e-5f6e32af60f1","ios":"levelo://app?vid=bd465249-964f-4479-968e-5f6e32af60f1"},"vehicle_type_id":"4","last_reported":1731593355,"current_range_meters":34800,"station_id":"","pricing_plan_id":"cebpf4jnsgd1na2vs0mg"},{"bike_id":"d1bb9a1d-6278-4858-9d21-6a0f2130261f","system_id":"levelo_inurba_marseille","lat":43.24804,"lon":5.37451,"is_reserved":false,"is_disabled":false,"rental_uris":{"android":"levelo://app?vid=d1bb9a1d-6278-4858-9d21-6a0f2130261f","ios":"levelo://app?vid=d1bb9a1d-6278-4858-9d21-6a0f2130261f"},"vehicle_type_id":"4","last_reported":1731593355,"current_range_meters":39200,"station_id":"ce4bhgh2rcd13ifvqfb0","pricing_plan_id":"cebpf4jnsgd1na2vs0mg"},{"bike_id":"a7ba5254-b565-43bc-a120-0a150acf5c72","system_id":"levelo_inurba_marseille","lat":43.27073,"lon":5.42276,"is_reserved":false,"is_disabled":false,"rental_uris":{"android":"levelo://app?vid=a7ba5254-b565-43bc-a120-0a150acf5c72","ios":"levelo://app?vid=a7ba5254-b565-43bc-a120-0a150acf5c72"},"vehicle_type_id":"4","last_reported":1731593355,"current_range_meters":38800,"station_id":"ce4bhk92rcd13ifvqgb0","pricing_plan_id":"cebpf4jnsgd1na2vs0mg"},{"bike_id":"1f30daa8-f2e5-4994-afbc-c4792d181c2a","system_id":"levelo_inurba_marseille","lat":43.31171,"lon":5.38725,"is_reserved":false,"is_disabled":false,"rental_uris":{"android":"levelo://app?vid=1f30daa8-f2e5-4994-afbc-c4792d181c2a","ios":"levelo://app?vid=1f30daa8-f2e5-4994-afbc-c4792d181c2a"},"vehicle_type_id":"4","last_reported":1731593355,"current_range_meters":38800,"station_id":"ce4bgv12rcd13ifvqcp0","pricing_plan_id":"cebpf4jnsgd1na2vs0mg"},{"bike_id":"9642bbe5-2842-44bd-a31a-4bd479bc421b","system_id":"levelo_inurba_marseille","lat":43.31162,"lon":5.38716,"is_reserved":false,"is_disabled":false,"rental_uris":{"android":"levelo://app?vid=9642bbe5-2842-44bd-a31a-4bd479bc421b","ios":"levelo://app?vid=9642bbe5-2842-44bd-a31a-4bd479bc421b"},"vehicle_type_id":"4","last_reported":1731593355,"current_range_meters":30000,"station_id":"ce4bgv12rcd13ifvqcp0","pricing_plan_id":"cebpf4jnsgd1na2vs0mg"},{"bike_id":"e38f4998-dadf-4784-a2d5-5ac343291d07","system_id":"levelo_inurba_marseille","lat":43.28687,"lon":5.37385,"is_reserved":false,"is_disabled":false,"rental_uris":{"android":"levelo://app?vid=e38f4998-dadf-4784-a2d5-5ac343291d07","ios":"levelo://app?vid=e38f4998-dadf-4784-a2d5-5ac343291d07"},"vehicle_type_id":"4","last_reported":1731593355,"current_range_meters":14400,"station_id":"ce4bh3p2rcd13ifvqdq0","pricing_plan_id":"cebpf4jnsgd1na2vs0mg"},{"bike_id":"6406f7b0-e2d9-446f-b79f-4b7dff955240","system_id":"levelo_inurba_marseille","lat":43.28416,"lon":5.34989,"is_reserved":false,"is_disabled":false,"rental_uris":{"android":"levelo://app?vid=6406f7b0-e2d9-446f-b79f-4b7dff955240","ios":"levelo://app?vid=6406f7b0-e2d9-446f-b79f-4b7dff955240"},"vehicle_type_id":"4","last_reported":1731593355,"current_range_meters":38000,"station_id":"ce4bhbh2rcd13ifvqepg","pricing_plan_id":"cebpf4jnsgd1na2vs0mg"},{"bike_id":"c9d041c0-acec-4cf4-bba2-e01a92441368","system_id":"levelo_inurba_marseille","lat":43.337444,"lon":5.374475,"is_reserved":false,"is_disabled":false,"rental_uris":{"android":"levelo://app?vid=c9d041c0-acec-4cf4-bba2-e01a92441368","ios":"levelo://app?vid=c9d041c0-acec-4cf4-bba2-e01a92441368"},"vehicle_type_id":"4","last_reported":1731593355,"current_range_meters":34000,"station_id":"","pricing_plan_id":"cebpf4jnsgd1na2vs0mg"},{"bike_id":"a98b3826-ee66-4002-b80b-c2241038197c","system_id":"levelo_inurba_marseille","lat":43.31358,"lon":5.38491,"is_reserved":false,"is_disabled":false,"rental_uris":{"android":"levelo://app?vid=a98b3826-ee66-4002-b80b-c2241038197c","ios":"levelo://app?vid=a98b3826-ee66-4002-b80b-c2241038197c"},"vehicle_type_id":"4","last_reported":1731593355,"current_range_meters":16400,"station_id":"ce4bgt92rcd13ifvqcf0","pricing_plan_id":"cebpf4jnsgd1na2vs0mg"},{"bike_id":"1a3f88a7-ba66-47f0-b62b-2014c1df80d9","system_id":"levelo_inurba_marseille","lat":43.23152,"lon":5.43707,"is_reserved":false,"is_disabled":false,"rental_uris":{"android":"levelo://app?vid=1a3f88a7-ba66-47f0-b62b-2014c1df80d9","ios":"levelo://app?vid=1a3f88a7-ba66-47f0-b62b-2014c1df80d9"},"vehicle_type_id":"4","last_reported":1731593355,"current_range_meters":40000,"station_id":"ce4bhmp2rcd13ifvqgog","pricing_plan_id":"cebpf4jnsgd1na2vs0mg"},{"bike_id":"df66abf0-5814-42dd-b2a3-5842fb95e6fb","system_id":"levelo_inurba_marseille","lat":43.34136,"lon":5.40906,"is_reserved":false,"is_disabled":false,"rental_uris":{"android":"levelo://app?vid=df66abf0-5814-42dd-b2a3-5842fb95e6fb","ios":"levelo://app?vid=df66abf0-5814-42dd-b2a3-5842fb95e6fb"},"vehicle_type_id":"4","last_reported":1731593355,"current_range_meters":33200,"station_id":"ce4bhqh2rcd13ifvqhlg","pricing_plan_id":"cebpf4jnsgd1na2vs0mg"},{"bike_id":"f12e1f87-1de9-4996-8865-21cd01996320","system_id":"levelo_inurba_marseille","lat":43.28841,"lon":5.35851,"is_reserved":false,"is_disabled":false,"rental_uris":{"android":"levelo://app?vid=f12e1f87-1de9-4996-8865-21cd01996320","ios":"levelo://app?vid=f12e1f87-1de9-4996-8865-21cd01996320"},"vehicle_type_id":"4","last_reported":1731593355,"current_range_meters":22000,"station_id":"ce4bhb12rcd13ifvqem0","pricing_plan_id":"cebpf4jnsgd1na2vs0mg"},{"bike_id":"eda92247-7aa4-40fb-841f-e0cabd70ba3d","system_id":"levelo_inurba_marseille","lat":43.30548,"lon":5.36535,"is_reserved":false,"is_disabled":false,"rental_uris":{"android":"levelo://app?vid=eda92247-7aa4-40fb-841f-e0cabd70ba3d","ios":"levelo://app?vid=eda92247-7aa4-40fb-841f-e0cabd70ba3d"},"vehicle_type_id":"4","last_reported":1731593355,"current_range_meters":20400,"station_id":"ce4bgs12rcd13ifvqcag","pricing_plan_id":"cebpf4jnsgd1na2vs0mg"},{"bike_id":"92eef5a4-7413-4712-aa62-eb761eb3479d","system_id":"levelo_inurba_marseille","lat":43.28121,"lon":5.37852,"is_reserved":false,"is_disabled":false,"rental_uris":{"android":"levelo://app?vid=92eef5a4-7413-4712-aa62-eb761eb3479d","ios":"levelo://app?vid=92eef5a4-7413-4712-aa62-eb761eb3479d"},"vehicle_type_id":"4","last_reported":1731593355,"current_range_meters":36800,"station_id":"ce4bha12rcd13ifvqee0","pricing_plan_id":"cebpf4jnsgd1na2vs0mg"},{"bike_id":"c4172982-430f-4871-b934-5f935d1d1681","system_id":"levelo_inurba_marseille","lat":43.29564,"lon":5.37507,"is_reserved":false,"is_disabled":false,"rental_uris":{"android":"levelo://app?vid=c4172982-430f-4871-b934-5f935d1d1681","ios":"levelo://app?vid=c4172982-430f-4871-b934-5f935d1d1681"},"vehicle_type_id":"4","last_reported":1731593355,"current_range_meters":36400,"station_id":"ce4bgh92rcd13ifvqb50","pricing_plan_id":"cebpf4jnsgd1na2vs0mg"},{"bike_id":"e13c0abe-bc7e-4f8b-8533-cdfc8ea132c8","system_id":"levelo_inurba_marseille","lat":43.27936,"lon":5.41043,"is_reserved":false,"is_disabled":false,"rental_uris":{"android":"levelo://app?vid=e13c0abe-bc7e-4f8b-8533-cdfc8ea132c8","ios":"levelo://app?vid=e13c0abe-bc7e-4f8b-8533-cdfc8ea132c8"},"vehicle_type_id":"4","last_reported":1731593355,"current_range_meters":6400,"station_id":"ce4bhnp2rcd13ifvqh0g","pricing_plan_id":"cebpf4jnsgd1na2vs0mg"},{"bike_id":"ed3fcb44-1e80-4e92-a73f-79b02c809e89","system_id":"levelo_inurba_marseille","lat":43.284668,"lon":5.384328,"is_reserved":false,"is_disabled":false,"rental_uris":{"android":"levelo://app?vid=ed3fcb44-1e80-4e92-a73f-79b02c809e89","ios":"levelo://app?vid=ed3fcb44-1e80-4e92-a73f-79b02c809e89"},"vehicle_type_id":"4","last_reported":1731593355,"current_range_meters":19200,"station_id":"ce4bho12rcd13ifvqh1g","pricing_plan_id":"cebpf4jnsgd1na2vs0mg"},{"bike_id":"f6a5ea7d-0dbb-4c6f-a255-689791e79f68","system_id":"levelo_inurba_marseille","lat":43.2837,"lon":5.38645,"is_reserved":false,"is_disabled":false,"rental_uris":{"android":"levelo://app?vid=f6a5ea7d-0dbb-4c6f-a255-689791e79f68","ios":"levelo://app?vid=f6a5ea7d-0dbb-4c6f-a255-689791e79f68"},"vehicle_type_id":"4","last_reported":1731593355,"current_range_meters":37600,"station_id":"ce4bh492rcd13ifvqdvg","pricing_plan_id":"cebpf4jnsgd1na2vs0mg"},{"bike_id":"5e5384b9-4782-4d50-806a-78ab6db97745","system_id":"levelo_inurba_marseille","lat":43.27986,"lon":5.41663,"is_reserved":false,"is_disabled":false,"rental_uris":{"android":"levelo://app?vid=5e5384b9-4782-4d50-806a-78ab6db97745","ios":"levelo://app?vid=5e5384b9-4782-4d50-806a-78ab6db97745"},"vehicle_type_id":"4","last_reported":1731593355,"current_range_meters":35600,"station_id":"ce4bho12rcd13ifvqh1g","pricing_plan_id":"cebpf4jnsgd1na2vs0mg"},{"bike_id":"7993481c-6af9-41f2-9bac-c327a53be150","system_id":"levelo_inurba_marseille","lat":43.23155,"lon":5.43702,"is_reserved":false,"is_disabled":false,"rental_uris":{"android":"levelo://app?vid=7993481c-6af9-41f2-9bac-c327a53be150","ios":"levelo://app?vid=7993481c-6af9-41f2-9bac-c327a53be150"},"vehicle_type_id":"4","last_reported":1731593355,"current_range_meters":37600,"station_id":"ce4bhmp2rcd13ifvqgog","pricing_plan_id":"cebpf4jnsgd1na2vs0mg"},{"bike_id":"8ae00de8-481b-4530-8e1a-5e15183aebfd","system_id":"levelo_inurba_marseille","lat":43.28527,"lon":5.38415,"is_reserved":false,"is_disabled":false,"rental_uris":{"android":"levelo://app?vid=8ae00de8-481b-4530-8e1a-5e15183aebfd","ios":"levelo://app?vid=8ae00de8-481b-4530-8e1a-5e15183aebfd"},"vehicle_type_id":"4","last_reported":1731593355,"current_range_meters":32400,"station_id":"","pricing_plan_id":"cebpf4jnsgd1na2vs0mg"},{"bike_id":"d523880d-65c6-4526-b6fe-cd64e6cd69a8","system_id":"levelo_inurba_marseille","lat":43.30937,"lon":5.40148,"is_reserved":false,"is_disabled":false,"rental_uris":{"android":"levelo://app?vid=d523880d-65c6-4526-b6fe-cd64e6cd69a8","ios":"levelo://app?vid=d523880d-65c6-4526-b6fe-cd64e6cd69a8"},"vehicle_type_id":"4","last_reported":1731593355,"current_range_meters":38400,"station_id":"ce4bgvp2rcd13ifvqct0","pricing_plan_id":"cebpf4jnsgd1na2vs0mg"},{"bike_id":"4f403e37-a8c3-4d70-a9e9-789f448b0b15","system_id":"levelo_inurba_marseille","lat":43.31993,"lon":5.38139,"is_reserved":false,"is_disabled":false,"rental_uris":{"android":"levelo://app?vid=4f403e37-a8c3-4d70-a9e9-789f448b0b15","ios":"levelo://app?vid=4f403e37-a8c3-4d70-a9e9-789f448b0b15"},"vehicle_type_id":"4","last_reported":1731593355,"current_range_meters":24000,"station_id":"ce4bhr12rcd13ifvqhpg","pricing_plan_id":"cebpf4jnsgd1na2vs0mg"},{"bike_id":"9349eebe-93fd-472c-91d4-00e053b1829b","system_id":"levelo_inurba_marseille","lat":43.24388,"lon":5.37064,"is_reserved":false,"is_disabled":false,"rental_uris":{"android":"levelo://app?vid=9349eebe-93fd-472c-91d4-00e053b1829b","ios":"levelo://app?vid=9349eebe-93fd-472c-91d4-00e053b1829b"},"vehicle_type_id":"4","last_reported":1731593355,"current_range_meters":32800,"station_id":"ce4bhhh2rcd13ifvqfk0","pricing_plan_id":"cebpf4jnsgd1na2vs0mg"},{"bike_id":"e7e74eed-7741-4f64-82f9-cccc9201f66b","system_id":"levelo_inurba_marseille","lat":43.302739,"lon":5.396627,"is_reserved":false,"is_disabled":false,"rental_uris":{"android":"levelo://app?vid=e7e74eed-7741-4f64-82f9-cccc9201f66b","ios":"levelo://app?vid=e7e74eed-7741-4f64-82f9-cccc9201f66b"},"vehicle_type_id":"4","last_reported":1731593355,"current_range_meters":25600,"station_id":"ce4bh0h2rcd13ifvqd50","pricing_plan_id":"cebpf4jnsgd1na2vs0mg"},{"bike_id":"bef30feb-cc3e-413b-a285-e3755e78a5a5","system_id":"levelo_inurba_marseille","lat":43.2913,"lon":5.38748,"is_reserved":false,"is_disabled":false,"rental_uris":{"android":"levelo://app?vid=bef30feb-cc3e-413b-a285-e3755e78a5a5","ios":"levelo://app?vid=bef30feb-cc3e-413b-a285-e3755e78a5a5"},"vehicle_type_id":"4","last_reported":1731593355,"current_range_meters":32400,"station_id":"","pricing_plan_id":"cebpf4jnsgd1na2vs0mg"},{"bike_id":"96352786-b953-4b6d-96b3-5df619023394","system_id":"levelo_inurba_marseille","lat":43.31347,"lon":5.36733,"is_reserved":false,"is_disabled":false,"rental_uris":{"android":"levelo://app?vid=96352786-b953-4b6d-96b3-5df619023394","ios":"levelo://app?vid=96352786-b953-4b6d-96b3-5df619023394"},"vehicle_type_id":"4","last_reported":1731593355,"current_range_meters":38800,"station_id":"ce4bgr92rcd13ifvqc6g","pricing_plan_id":"cebpf4jnsgd1na2vs0mg"},{"bike_id":"a0515321-2d78-445a-ba14-b4c7838bec0b","system_id":"levelo_inurba_marseille","lat":43.29663,"lon":5.373,"is_reserved":false,"is_disabled":false,"rental_uris":{"android":"levelo://app?vid=a0515321-2d78-445a-ba14-b4c7838bec0b","ios":"levelo://app?vid=a0515321-2d78-445a-ba14-b4c7838bec0b"},"vehicle_type_id":"4","last_reported":1731593355,"current_range_meters":38800,"station_id":"ce4bgk12rcd13ifvqbj0","pricing_plan_id":"cebpf4jnsgd1na2vs0mg"},{"bike_id":"96982182-a7c7-450e-8433-0ac9d985aed2","system_id":"levelo_inurba_marseille","lat":43.3371,"lon":5.39187,"is_reserved":false,"is_disabled":false,"rental_uris":{"android":"levelo://app?vid=96982182-a7c7-450e-8433-0ac9d985aed2","ios":"levelo://app?vid=96982182-a7c7-450e-8433-0ac9d985aed2"},"vehicle_type_id":"4","last_reported":1731593355,"current_range_meters":37600,"station_id":"ce4bhr92rcd13ifvqhsg","pricing_plan_id":"cebpf4jnsgd1na2vs0mg"},{"bike_id":"37212eb8-cfa6-47ba-9ed7-bfed51287466","system_id":"levelo_inurba_marseille","lat":43.31448,"lon":5.37405,"is_reserved":false,"is_disabled":false,"rental_uris":{"android":"levelo://app?vid=37212eb8-cfa6-47ba-9ed7-bfed51287466","ios":"levelo://app?vid=37212eb8-cfa6-47ba-9ed7-bfed51287466"},"vehicle_type_id":"4","last_reported":1731593355,"current_range_meters":38000,"station_id":"","pricing_plan_id":"cebpf4jnsgd1na2vs0mg"},{"bike_id":"0a7a7ac5-f54c-44af-a6b9-bff324764339","system_id":"levelo_inurba_marseille","lat":43.230917,"lon":5.354811,"is_reserved":false,"is_disabled":false,"rental_uris":{"android":"levelo://app?vid=0a7a7ac5-f54c-44af-a6b9-bff324764339","ios":"levelo://app?vid=0a7a7ac5-f54c-44af-a6b9-bff324764339"},"vehicle_type_id":"4","last_reported":1731593355,"current_range_meters":19200,"station_id":"cpo3342slgdg3j2ifvpg","pricing_plan_id":"cebpf4jnsgd1na2vs0mg"},{"bike_id":"c7f984cf-e1fa-4383-ab1b-5be19e090e1b","system_id":"levelo_inurba_marseille","lat":43.3375,"lon":5.37422,"is_reserved":false,"is_disabled":false,"rental_uris":{"android":"levelo://app?vid=c7f984cf-e1fa-4383-ab1b-5be19e090e1b","ios":"levelo://app?vid=c7f984cf-e1fa-4383-ab1b-5be19e090e1b"},"vehicle_type_id":"4","last_reported":1731593355,"current_range_meters":34000,"station_id":"","pricing_plan_id":"cebpf4jnsgd1na2vs0mg"},{"bike_id":"a13c7708-d87b-4218-8927-329742d4f8b9","system_id":"levelo_inurba_marseille","lat":43.31996,"lon":5.38149,"is_reserved":false,"is_disabled":false,"rental_uris":{"android":"levelo://app?vid=a13c7708-d87b-4218-8927-329742d4f8b9","ios":"levelo://app?vid=a13c7708-d87b-4218-8927-329742d4f8b9"},"vehicle_type_id":"4","last_reported":1731593355,"current_range_meters":38800,"station_id":"ce4bhr12rcd13ifvqhpg","pricing_plan_id":"cebpf4jnsgd1na2vs0mg"},{"bike_id":"bef7ca68-0ccd-456c-a245-4471193ed987","system_id":"levelo_inurba_marseille","lat":43.26058,"lon":5.39404,"is_reserved":false,"is_disabled":false,"rental_uris":{"android":"levelo://app?vid=bef7ca68-0ccd-456c-a245-4471193ed987","ios":"levelo://app?vid=bef7ca68-0ccd-456c-a245-4471193ed987"},"vehicle_type_id":"4","last_reported":1731593355,"current_range_meters":27600,"station_id":"ce4bhh92rcd13ifvqfj0","pricing_plan_id":"cebpf4jnsgd1na2vs0mg"},{"bike_id":"1f3fe32e-9f52-41e0-ac0b-f75f3d0dc946","system_id":"levelo_inurba_marseille","lat":43.32658,"lon":5.40991,"is_reserved":false,"is_disabled":false,"rental_uris":{"android":"levelo://app?vid=1f3fe32e-9f52-41e0-ac0b-f75f3d0dc946","ios":"levelo://app?vid=1f3fe32e-9f52-41e0-ac0b-f75f3d0dc946"},"vehicle_type_id":"4","last_reported":1731593355,"current_range_meters":4000,"station_id":"ce4bhpp2rcd13ifvqhgg","pricing_plan_id":"cebpf4jnsgd1na2vs0mg"},{"bike_id":"f833861e-92da-4d9e-8a95-ef01e773ecaa","system_id":"levelo_inurba_marseille","lat":43.28255,"lon":5.35064,"is_reserved":false,"is_disabled":false,"rental_uris":{"android":"levelo://app?vid=f833861e-92da-4d9e-8a95-ef01e773ecaa","ios":"levelo://app?vid=f833861e-92da-4d9e-8a95-ef01e773ecaa"},"vehicle_type_id":"4","last_reported":1731593355,"current_range_meters":22800,"station_id":"ce4bhbp2rcd13ifvqerg","pricing_plan_id":"cebpf4jnsgd1na2vs0mg"},{"bike_id":"af79f849-a358-42b9-b75e-08fc8e145409","system_id":"levelo_inurba_marseille","lat":43.28709,"lon":5.37937,"is_reserved":false,"is_disabled":false,"rental_uris":{"android":"levelo://app?vid=af79f849-a358-42b9-b75e-08fc8e145409","ios":"levelo://app?vid=af79f849-a358-42b9-b75e-08fc8e145409"},"vehicle_type_id":"4","last_reported":1731593355,"current_range_meters":29600,"station_id":"ce4bh9p2rcd13ifvqec0","pricing_plan_id":"cebpf4jnsgd1na2vs0mg"},{"bike_id":"d2c2a177-46cf-4481-8b4e-ceb6b0e7fa75","system_id":"levelo_inurba_marseille","lat":43.27061,"lon":5.40269,"is_reserved":false,"is_disabled":false,"rental_uris":{"android":"levelo://app?vid=d2c2a177-46cf-4481-8b4e-ceb6b0e7fa75","ios":"levelo://app?vid=d2c2a177-46cf-4481-8b4e-ceb6b0e7fa75"},"vehicle_type_id":"4","last_reported":1731593355,"current_range_meters":37600,"station_id":"ce4bhk92rcd13ifvqgc0","pricing_plan_id":"cebpf4jnsgd1na2vs0mg"},{"bike_id":"9476fb8b-79a8-457d-a54e-716d33a41d88","system_id":"levelo_inurba_marseille","lat":43.3018,"lon":5.36631,"is_reserved":false,"is_disabled":false,"rental_uris":{"android":"levelo://app?vid=9476fb8b-79a8-457d-a54e-716d33a41d88","ios":"levelo://app?vid=9476fb8b-79a8-457d-a54e-716d33a41d88"},"vehicle_type_id":"4","last_reported":1731593355,"current_range_meters":6800,"station_id":"ce4bgrh2rcd13ifvqc8g","pricing_plan_id":"cebpf4jnsgd1na2vs0mg"},{"bike_id":"6cd6cd57-0685-4d87-903a-571cb9380930","system_id":"levelo_inurba_marseille","lat":43.23185,"lon":5.39981,"is_reserved":false,"is_disabled":false,"rental_uris":{"android":"levelo://app?vid=6cd6cd57-0685-4d87-903a-571cb9380930","ios":"levelo://app?vid=6cd6cd57-0685-4d87-903a-571cb9380930"},"vehicle_type_id":"4","last_reported":1731593355,"current_range_meters":36400,"station_id":"ce4bhn12rcd13ifvqgqg","pricing_plan_id":"cebpf4jnsgd1na2vs0mg"},{"bike_id":"7c9b8995-ac96-4708-b4eb-b4b17631b9d8","system_id":"levelo_inurba_marseille","lat":43.30638,"lon":5.40111,"is_reserved":false,"is_disabled":false,"rental_uris":{"android":"levelo://app?vid=7c9b8995-ac96-4708-b4eb-b4b17631b9d8","ios":"levelo://app?vid=7c9b8995-ac96-4708-b4eb-b4b17631b9d8"},"vehicle_type_id":"4","last_reported":1731593355,"current_range_meters":37600,"station_id":"ce4bh112rcd13ifvqda0","pricing_plan_id":"cebpf4jnsgd1na2vs0mg"},{"bike_id":"71ae68da-e36e-4e27-836d-32e8199181c7","system_id":"levelo_inurba_marseille","lat":43.28339,"lon":5.38097,"is_reserved":false,"is_disabled":false,"rental_uris":{"android":"levelo://app?vid=71ae68da-e36e-4e27-836d-32e8199181c7","ios":"levelo://app?vid=71ae68da-e36e-4e27-836d-32e8199181c7"},"vehicle_type_id":"4","last_reported":1731593355,"current_range_meters":38800,"station_id":"ce4bh412rcd13ifvqdr0","pricing_plan_id":"cebpf4jnsgd1na2vs0mg"},{"bike_id":"9571fd97-c0fe-4a0a-a188-293db4f2b9c7","system_id":"levelo_inurba_marseille","lat":43.23154,"lon":5.43704,"is_reserved":false,"is_disabled":false,"rental_uris":{"android":"levelo://app?vid=9571fd97-c0fe-4a0a-a188-293db4f2b9c7","ios":"levelo://app?vid=9571fd97-c0fe-4a0a-a188-293db4f2b9c7"},"vehicle_type_id":"4","last_reported":1731593355,"current_range_meters":38400,"station_id":"ce4bhmp2rcd13ifvqgog","pricing_plan_id":"cebpf4jnsgd1na2vs0mg"},{"bike_id":"6d757fef-4f26-43f9-ac2c-ffab39bf7dae","system_id":"levelo_inurba_marseille","lat":43.32249,"lon":5.36901,"is_reserved":false,"is_disabled":false,"rental_uris":{"android":"levelo://app?vid=6d757fef-4f26-43f9-ac2c-ffab39bf7dae","ios":"levelo://app?vid=6d757fef-4f26-43f9-ac2c-ffab39bf7dae"},"vehicle_type_id":"4","last_reported":1731593355,"current_range_meters":28400,"station_id":"","pricing_plan_id":"cebpf4jnsgd1na2vs0mg"},{"bike_id":"e216e8fa-6a96-4bd4-ac43-a50c02110f51","system_id":"levelo_inurba_marseille","lat":43.31324,"lon":5.39698,"is_reserved":false,"is_disabled":false,"rental_uris":{"android":"levelo://app?vid=e216e8fa-6a96-4bd4-ac43-a50c02110f51","ios":"levelo://app?vid=e216e8fa-6a96-4bd4-ac43-a50c02110f51"},"vehicle_type_id":"4","last_reported":1731593355,"current_range_meters":37600,"station_id":"ce4bgvp2rcd13ifvqcu0","pricing_plan_id":"cebpf4jnsgd1na2vs0mg"},{"bike_id":"8d06e41d-acbb-422d-9c3f-49462f4119df","system_id":"levelo_inurba_marseille","lat":43.33753,"lon":5.3746,"is_reserved":false,"is_disabled":false,"rental_uris":{"android":"levelo://app?vid=8d06e41d-acbb-422d-9c3f-49462f4119df","ios":"levelo://app?vid=8d06e41d-acbb-422d-9c3f-49462f4119df"},"vehicle_type_id":"4","last_reported":1731593355,"current_range_meters":22000,"station_id":"","pricing_plan_id":"cebpf4jnsgd1na2vs0mg"},{"bike_id":"17780240-ee37-4e0b-ac8f-8f342e39cfbc","system_id":"levelo_inurba_marseille","lat":43.27317,"lon":5.39076,"is_reserved":false,"is_disabled":false,"rental_uris":{"android":"levelo://app?vid=17780240-ee37-4e0b-ac8f-8f342e39cfbc","ios":"levelo://app?vid=17780240-ee37-4e0b-ac8f-8f342e39cfbc"},"vehicle_type_id":"4","last_reported":1731593355,"current_range_meters":35600,"station_id":"ce4bhgp2rcd13ifvqfe0","pricing_plan_id":"cebpf4jnsgd1na2vs0mg"},{"bike_id":"5fcf0b0a-1c96-4f2a-bab7-01f1f4d82dde","system_id":"levelo_inurba_marseille","lat":43.23155,"lon":5.43706,"is_reserved":false,"is_disabled":false,"rental_uris":{"android":"levelo://app?vid=5fcf0b0a-1c96-4f2a-bab7-01f1f4d82dde","ios":"levelo://app?vid=5fcf0b0a-1c96-4f2a-bab7-01f1f4d82dde"},"vehicle_type_id":"4","last_reported":1731593355,"current_range_meters":32000,"station_id":"ce4bhmp2rcd13ifvqgog","pricing_plan_id":"cebpf4jnsgd1na2vs0mg"},{"bike_id":"2e56507a-09fc-45f5-9d4f-fd076d3c1369","system_id":"levelo_inurba_marseille","lat":43.31763,"lon":5.39023,"is_reserved":false,"is_disabled":false,"rental_uris":{"android":"levelo://app?vid=2e56507a-09fc-45f5-9d4f-fd076d3c1369","ios":"levelo://app?vid=2e56507a-09fc-45f5-9d4f-fd076d3c1369"},"vehicle_type_id":"4","last_reported":1731593355,"current_range_meters":12000,"station_id":"ce4bhqp2rcd13ifvqhng","pricing_plan_id":"cebpf4jnsgd1na2vs0mg"},{"bike_id":"ee97f2e3-d41d-4662-b59a-9ac6135b4a76","system_id":"levelo_inurba_marseille","lat":43.31223,"lon":5.36875,"is_reserved":false,"is_disabled":false,"rental_uris":{"android":"levelo://app?vid=ee97f2e3-d41d-4662-b59a-9ac6135b4a76","ios":"levelo://app?vid=ee97f2e3-d41d-4662-b59a-9ac6135b4a76"},"vehicle_type_id":"4","last_reported":1731593355,"current_range_meters":17200,"station_id":"ce4bgl92rcd13ifvqbq0","pricing_plan_id":"cebpf4jnsgd1na2vs0mg"},{"bike_id":"070aae14-a984-4613-8ade-edb7cfd29691","system_id":"levelo_inurba_marseille","lat":43.30412,"lon":5.41279,"is_reserved":false,"is_disabled":false,"rental_uris":{"android":"levelo://app?vid=070aae14-a984-4613-8ade-edb7cfd29691","ios":"levelo://app?vid=070aae14-a984-4613-8ade-edb7cfd29691"},"vehicle_type_id":"4","last_reported":1731593355,"current_range_meters":38000,"station_id":"ce4bhop2rcd13ifvqh8g","pricing_plan_id":"cebpf4jnsgd1na2vs0mg"},{"bike_id":"c3b9ced7-2951-4845-9c00-c49c8c3e851f","system_id":"levelo_inurba_marseille","lat":43.276897,"lon":5.389,"is_reserved":false,"is_disabled":false,"rental_uris":{"android":"levelo://app?vid=c3b9ced7-2951-4845-9c00-c49c8c3e851f","ios":"levelo://app?vid=c3b9ced7-2951-4845-9c00-c49c8c3e851f"},"vehicle_type_id":"4","last_reported":1731593355,"current_range_meters":38800,"station_id":"ce4bhi12rcd13ifvqfo0","pricing_plan_id":"cebpf4jnsgd1na2vs0mg"},{"bike_id":"5c050fb1-5848-4e73-b50e-f3ee3d9e8aee","system_id":"levelo_inurba_marseille","lat":43.28921,"lon":5.38405,"is_reserved":false,"is_disabled":false,"rental_uris":{"android":"levelo://app?vid=5c050fb1-5848-4e73-b50e-f3ee3d9e8aee","ios":"levelo://app?vid=5c050fb1-5848-4e73-b50e-f3ee3d9e8aee"},"vehicle_type_id":"4","last_reported":1731593355,"current_range_meters":12000,"station_id":"ce4bh612rcd13ifvqe6g","pricing_plan_id":"cebpf4jnsgd1na2vs0mg"},{"bike_id":"4bbaf73d-fc2a-4e45-a669-e4b5032ca381","system_id":"levelo_inurba_marseille","lat":43.28265,"lon":5.35084,"is_reserved":false,"is_disabled":false,"rental_uris":{"android":"levelo://app?vid=4bbaf73d-fc2a-4e45-a669-e4b5032ca381","ios":"levelo://app?vid=4bbaf73d-fc2a-4e45-a669-e4b5032ca381"},"vehicle_type_id":"4","last_reported":1731593355,"current_range_meters":39200,"station_id":"ce4bhbp2rcd13ifvqerg","pricing_plan_id":"cebpf4jnsgd1na2vs0mg"},{"bike_id":"2ba01715-3170-4a7e-ae00-4a8868ac1042","system_id":"levelo_inurba_marseille","lat":43.25088,"lon":5.39512,"is_reserved":false,"is_disabled":false,"rental_uris":{"android":"levelo://app?vid=2ba01715-3170-4a7e-ae00-4a8868ac1042","ios":"levelo://app?vid=2ba01715-3170-4a7e-ae00-4a8868ac1042"},"vehicle_type_id":"4","last_reported":1731593355,"current_range_meters":28400,"station_id":"ce4bhm12rcd13ifvqgkg","pricing_plan_id":"cebpf4jnsgd1na2vs0mg"},{"bike_id":"8c2c5c70-e073-4fc3-adbd-49a7e0bbbd4e","system_id":"levelo_inurba_marseille","lat":43.24388,"lon":5.3707,"is_reserved":false,"is_disabled":false,"rental_uris":{"android":"levelo://app?vid=8c2c5c70-e073-4fc3-adbd-49a7e0bbbd4e","ios":"levelo://app?vid=8c2c5c70-e073-4fc3-adbd-49a7e0bbbd4e"},"vehicle_type_id":"4","last_reported":1731593355,"current_range_meters":4400,"station_id":"ce4bhhh2rcd13ifvqfk0","pricing_plan_id":"cebpf4jnsgd1na2vs0mg"},{"bike_id":"fa1a31b2-c2a5-4f95-9ffc-009725842b5d","system_id":"levelo_inurba_marseille","lat":43.29786,"lon":5.39352,"is_reserved":false,"is_disabled":false,"rental_uris":{"android":"levelo://app?vid=fa1a31b2-c2a5-4f95-9ffc-009725842b5d","ios":"levelo://app?vid=fa1a31b2-c2a5-4f95-9ffc-009725842b5d"},"vehicle_type_id":"4","last_reported":1731593355,"current_range_meters":18800,"station_id":"chh1huq6cuj3fo74tm60","pricing_plan_id":"cebpf4jnsgd1na2vs0mg"},{"bike_id":"465a0a86-e7a3-43cd-9ba7-a13ff2df1673","system_id":"levelo_inurba_marseille","lat":43.302204,"lon":5.369068,"is_reserved":false,"is_disabled":false,"rental_uris":{"android":"levelo://app?vid=465a0a86-e7a3-43cd-9ba7-a13ff2df1673","ios":"levelo://app?vid=465a0a86-e7a3-43cd-9ba7-a13ff2df1673"},"vehicle_type_id":"4","last_reported":1731593355,"current_range_meters":16400,"station_id":"","pricing_plan_id":"cebpf4jnsgd1na2vs0mg"},{"bike_id":"3e0117f8-27b1-4aa6-b2fa-3e05280a6456","system_id":"levelo_inurba_marseille","lat":43.32533,"lon":5.41435,"is_reserved":false,"is_disabled":false,"rental_uris":{"android":"levelo://app?vid=3e0117f8-27b1-4aa6-b2fa-3e05280a6456","ios":"levelo://app?vid=3e0117f8-27b1-4aa6-b2fa-3e05280a6456"},"vehicle_type_id":"4","last_reported":1731593355,"current_range_meters":2800,"station_id":"ce4bhq12rcd13ifvqhhg","pricing_plan_id":"cebpf4jnsgd1na2vs0mg"},{"bike_id":"890394d9-d027-42d8-8d4b-306c8879b0e0","system_id":"levelo_inurba_marseille","lat":43.337444,"lon":5.374475,"is_reserved":false,"is_disabled":false,"rental_uris":{"android":"levelo://app?vid=890394d9-d027-42d8-8d4b-306c8879b0e0","ios":"levelo://app?vid=890394d9-d027-42d8-8d4b-306c8879b0e0"},"vehicle_type_id":"4","last_reported":1731593355,"current_range_meters":34000,"station_id":"","pricing_plan_id":"cebpf4jnsgd1na2vs0mg"},{"bike_id":"43a5f1c7-2fd2-4bc4-b9f5-50dc856737ff","system_id":"levelo_inurba_marseille","lat":43.34138,"lon":5.40901,"is_reserved":false,"is_disabled":false,"rental_uris":{"android":"levelo://app?vid=43a5f1c7-2fd2-4bc4-b9f5-50dc856737ff","ios":"levelo://app?vid=43a5f1c7-2fd2-4bc4-b9f5-50dc856737ff"},"vehicle_type_id":"4","last_reported":1731593355,"current_range_meters":14800,"station_id":"ce4bhqh2rcd13ifvqhlg","pricing_plan_id":"cebpf4jnsgd1na2vs0mg"},{"bike_id":"93c2dd5d-7aac-4286-963c-35c9c97a6971","system_id":"levelo_inurba_marseille","lat":43.24995,"lon":5.38931,"is_reserved":false,"is_disabled":false,"rental_uris":{"android":"levelo://app?vid=93c2dd5d-7aac-4286-963c-35c9c97a6971","ios":"levelo://app?vid=93c2dd5d-7aac-4286-963c-35c9c97a6971"},"vehicle_type_id":"4","last_reported":1731593355,"current_range_meters":12000,"station_id":"ce4bhgp2rcd13ifvqfd0","pricing_plan_id":"cebpf4jnsgd1na2vs0mg"},{"bike_id":"4d8555cb-513b-4a18-bac7-f14a7a1ff24b","system_id":"levelo_inurba_marseille","lat":43.29256,"lon":5.40901,"is_reserved":false,"is_disabled":false,"rental_uris":{"android":"levelo://app?vid=4d8555cb-513b-4a18-bac7-f14a7a1ff24b","ios":"levelo://app?vid=4d8555cb-513b-4a18-bac7-f14a7a1ff24b"},"vehicle_type_id":"4","last_reported":1731593355,"current_range_meters":14000,"station_id":"ce4bh192rcd13ifvqdc0","pricing_plan_id":"cebpf4jnsgd1na2vs0mg"},{"bike_id":"c5724241-224d-4381-b448-0778e2ab7c52","system_id":"levelo_inurba_marseille","lat":43.27176,"lon":5.40993,"is_reserved":false,"is_disabled":false,"rental_uris":{"android":"levelo://app?vid=c5724241-224d-4381-b448-0778e2ab7c52","ios":"levelo://app?vid=c5724241-224d-4381-b448-0778e2ab7c52"},"vehicle_type_id":"4","last_reported":1731593355,"current_range_meters":27200,"station_id":"ce4bhl12rcd13ifvqgf0","pricing_plan_id":"cebpf4jnsgd1na2vs0mg"},{"bike_id":"8459340c-7963-433e-bad3-6aecb697895d","system_id":"levelo_inurba_marseille","lat":43.27808,"lon":5.40709,"is_reserved":false,"is_disabled":false,"rental_uris":{"android":"levelo://app?vid=8459340c-7963-433e-bad3-6aecb697895d","ios":"levelo://app?vid=8459340c-7963-433e-bad3-6aecb697895d"},"vehicle_type_id":"4","last_reported":1731593355,"current_range_meters":35600,"station_id":"ce4bhnh2rcd13ifvqgtg","pricing_plan_id":"cebpf4jnsgd1na2vs0mg"},{"bike_id":"cefd6eab-6f19-4560-89c5-217b1e9d5ea1","system_id":"levelo_inurba_marseille","lat":43.26564,"lon":5.3901,"is_reserved":false,"is_disabled":false,"rental_uris":{"android":"levelo://app?vid=cefd6eab-6f19-4560-89c5-217b1e9d5ea1","ios":"levelo://app?vid=cefd6eab-6f19-4560-89c5-217b1e9d5ea1"},"vehicle_type_id":"4","last_reported":1731593355,"current_range_meters":10800,"station_id":"ce4bhe12rcd13ifvqf30","pricing_plan_id":"cebpf4jnsgd1na2vs0mg"},{"bike_id":"d64789a5-6f7a-491a-b16a-1ea1a1a93312","system_id":"levelo_inurba_marseille","lat":43.307982,"lon":5.376658,"is_reserved":false,"is_disabled":false,"rental_uris":{"android":"levelo://app?vid=d64789a5-6f7a-491a-b16a-1ea1a1a93312","ios":"levelo://app?vid=d64789a5-6f7a-491a-b16a-1ea1a1a93312"},"vehicle_type_id":"4","last_reported":1731593355,"current_range_meters":38800,"station_id":"ce4bgv92rcd13ifvqcq0","pricing_plan_id":"cebpf4jnsgd1na2vs0mg"},{"bike_id":"0654a533-c813-40ca-ab3e-644b6de7e9f2","system_id":"levelo_inurba_marseille","lat":43.27811,"lon":5.39216,"is_reserved":false,"is_disabled":false,"rental_uris":{"android":"levelo://app?vid=0654a533-c813-40ca-ab3e-644b6de7e9f2","ios":"levelo://app?vid=0654a533-c813-40ca-ab3e-644b6de7e9f2"},"vehicle_type_id":"4","last_reported":1731593355,"current_range_meters":27200,"station_id":"ce4bhjp2rcd13ifvqga0","pricing_plan_id":"cebpf4jnsgd1na2vs0mg"},{"bike_id":"dbe4a842-54cb-424c-9a90-b2fb703fc4c0","system_id":"levelo_inurba_marseille","lat":43.30882,"lon":5.37198,"is_reserved":false,"is_disabled":false,"rental_uris":{"android":"levelo://app?vid=dbe4a842-54cb-424c-9a90-b2fb703fc4c0","ios":"levelo://app?vid=dbe4a842-54cb-424c-9a90-b2fb703fc4c0"},"vehicle_type_id":"4","last_reported":1731593355,"current_range_meters":7200,"station_id":"ce4bguh2rcd13ifvqckg","pricing_plan_id":"cebpf4jnsgd1na2vs0mg"},{"bike_id":"2988b7e4-df59-414f-81ed-b2bac2efb65f","system_id":"levelo_inurba_marseille","lat":43.28263,"lon":5.35062,"is_reserved":false,"is_disabled":false,"rental_uris":{"android":"levelo://app?vid=2988b7e4-df59-414f-81ed-b2bac2efb65f","ios":"levelo://app?vid=2988b7e4-df59-414f-81ed-b2bac2efb65f"},"vehicle_type_id":"4","last_reported":1731593355,"current_range_meters":8000,"station_id":"ce4bhbp2rcd13ifvqerg","pricing_plan_id":"cebpf4jnsgd1na2vs0mg"},{"bike_id":"a412956e-af31-44e1-a774-7e70d0dcc6da","system_id":"levelo_inurba_marseille","lat":43.29002,"lon":5.35615,"is_reserved":false,"is_disabled":false,"rental_uris":{"android":"levelo://app?vid=a412956e-af31-44e1-a774-7e70d0dcc6da","ios":"levelo://app?vid=a412956e-af31-44e1-a774-7e70d0dcc6da"},"vehicle_type_id":"4","last_reported":1731593355,"current_range_meters":22800,"station_id":"ce4bhb92rcd13ifvqen0","pricing_plan_id":"cebpf4jnsgd1na2vs0mg"},{"bike_id":"07ee4904-f535-458a-b0b5-2f7426ce7969","system_id":"levelo_inurba_marseille","lat":43.24079,"lon":5.37747,"is_reserved":false,"is_disabled":false,"rental_uris":{"android":"levelo://app?vid=07ee4904-f535-458a-b0b5-2f7426ce7969","ios":"levelo://app?vid=07ee4904-f535-458a-b0b5-2f7426ce7969"},"vehicle_type_id":"4","last_reported":1731593355,"current_range_meters":7200,"station_id":"ce4bhnp2rcd13ifvqgvg","pricing_plan_id":"cebpf4jnsgd1na2vs0mg"},{"bike_id":"cce41bad-42ae-4e8f-abca-4fef23f9a5d2","system_id":"levelo_inurba_marseille","lat":43.32102,"lon":5.36766,"is_reserved":false,"is_disabled":false,"rental_uris":{"android":"levelo://app?vid=cce41bad-42ae-4e8f-abca-4fef23f9a5d2","ios":"levelo://app?vid=cce41bad-42ae-4e8f-abca-4fef23f9a5d2"},"vehicle_type_id":"4","last_reported":1731593355,"current_range_meters":32400,"station_id":"ce4bhrh2rcd13ifvqhug","pricing_plan_id":"cebpf4jnsgd1na2vs0mg"},{"bike_id":"92cf8a3e-24d5-4897-bc75-b9999f35f0f7","system_id":"levelo_inurba_marseille","lat":43.31713,"lon":5.37754,"is_reserved":false,"is_disabled":false,"rental_uris":{"android":"levelo://app?vid=92cf8a3e-24d5-4897-bc75-b9999f35f0f7","ios":"levelo://app?vid=92cf8a3e-24d5-4897-bc75-b9999f35f0f7"},"vehicle_type_id":"4","last_reported":1731593355,"current_range_meters":30400,"station_id":"ce4bgth2rcd13ifvqch0","pricing_plan_id":"cebpf4jnsgd1na2vs0mg"},{"bike_id":"a46784f2-4ee9-4d08-926a-86fcf39f46e6","system_id":"levelo_inurba_marseille","lat":43.30908,"lon":5.36854,"is_reserved":false,"is_disabled":false,"rental_uris":{"android":"levelo://app?vid=a46784f2-4ee9-4d08-926a-86fcf39f46e6","ios":"levelo://app?vid=a46784f2-4ee9-4d08-926a-86fcf39f46e6"},"vehicle_type_id":"4","last_reported":1731593355,"current_range_meters":10800,"station_id":"ce4bgn92rcd13ifvqbvg","pricing_plan_id":"cebpf4jnsgd1na2vs0mg"},{"bike_id":"b277c41c-d8d5-4885-a3cd-df7609bf9100","system_id":"levelo_inurba_marseille","lat":43.30207,"lon":5.39467,"is_reserved":false,"is_disabled":false,"rental_uris":{"android":"levelo://app?vid=b277c41c-d8d5-4885-a3cd-df7609bf9100","ios":"levelo://app?vid=b277c41c-d8d5-4885-a3cd-df7609bf9100"},"vehicle_type_id":"4","last_reported":1731593355,"current_range_meters":39200,"station_id":"ce4bh0p2rcd13ifvqd70","pricing_plan_id":"cebpf4jnsgd1na2vs0mg"},{"bike_id":"afb8b4e9-41ca-4ecb-82f6-539a067b1cb8","system_id":"levelo_inurba_marseille","lat":43.29163,"lon":5.37159,"is_reserved":false,"is_disabled":false,"rental_uris":{"android":"levelo://app?vid=afb8b4e9-41ca-4ecb-82f6-539a067b1cb8","ios":"levelo://app?vid=afb8b4e9-41ca-4ecb-82f6-539a067b1cb8"},"vehicle_type_id":"4","last_reported":1731593355,"current_range_meters":18800,"station_id":"ce4bha92rcd13ifvqeh0","pricing_plan_id":"cebpf4jnsgd1na2vs0mg"},{"bike_id":"7acae80b-e3ed-4eb2-affe-e47cc18dac06","system_id":"levelo_inurba_marseille","lat":43.24077,"lon":5.37751,"is_reserved":false,"is_disabled":false,"rental_uris":{"android":"levelo://app?vid=7acae80b-e3ed-4eb2-affe-e47cc18dac06","ios":"levelo://app?vid=7acae80b-e3ed-4eb2-affe-e47cc18dac06"},"vehicle_type_id":"4","last_reported":1731593355,"current_range_meters":37600,"station_id":"ce4bhnp2rcd13ifvqgvg","pricing_plan_id":"cebpf4jnsgd1na2vs0mg"},{"bike_id":"b761fbf5-2bb8-4246-8985-7f4acd907d8e","system_id":"levelo_inurba_marseille","lat":43.29684,"lon":5.37316,"is_reserved":false,"is_disabled":false,"rental_uris":{"android":"levelo://app?vid=b761fbf5-2bb8-4246-8985-7f4acd907d8e","ios":"levelo://app?vid=b761fbf5-2bb8-4246-8985-7f4acd907d8e"},"vehicle_type_id":"4","last_reported":1731593355,"current_range_meters":38800,"station_id":"ce4bgk12rcd13ifvqbj0","pricing_plan_id":"cebpf4jnsgd1na2vs0mg"},{"bike_id":"6a6ea60f-2251-4c20-a3fd-b8dbfc3cb31a","system_id":"levelo_inurba_marseille","lat":43.33764,"lon":5.37473,"is_reserved":false,"is_disabled":false,"rental_uris":{"android":"levelo://app?vid=6a6ea60f-2251-4c20-a3fd-b8dbfc3cb31a","ios":"levelo://app?vid=6a6ea60f-2251-4c20-a3fd-b8dbfc3cb31a"},"vehicle_type_id":"4","last_reported":1731593355,"current_range_meters":34800,"station_id":"","pricing_plan_id":"cebpf4jnsgd1na2vs0mg"},{"bike_id":"2868211a-801a-40e9-87f4-374361291305","system_id":"levelo_inurba_marseille","lat":43.28151,"lon":5.42654,"is_reserved":false,"is_disabled":false,"rental_uris":{"android":"levelo://app?vid=2868211a-801a-40e9-87f4-374361291305","ios":"levelo://app?vid=2868211a-801a-40e9-87f4-374361291305"},"vehicle_type_id":"4","last_reported":1731593355,"current_range_meters":26000,"station_id":"ce4bhnh2rcd13ifvqgug","pricing_plan_id":"cebpf4jnsgd1na2vs0mg"},{"bike_id":"1311c692-6e9d-4afb-b7b0-20686564fe7a","system_id":"levelo_inurba_marseille","lat":43.337444,"lon":5.374475,"is_reserved":false,"is_disabled":false,"rental_uris":{"android":"levelo://app?vid=1311c692-6e9d-4afb-b7b0-20686564fe7a","ios":"levelo://app?vid=1311c692-6e9d-4afb-b7b0-20686564fe7a"},"vehicle_type_id":"4","last_reported":1731593355,"current_range_meters":32800,"station_id":"","pricing_plan_id":"cebpf4jnsgd1na2vs0mg"},{"bike_id":"7bed7dc9-e68e-49ec-b705-97e55f2d4941","system_id":"levelo_inurba_marseille","lat":43.26673,"lon":5.38268,"is_reserved":false,"is_disabled":false,"rental_uris":{"android":"levelo://app?vid=7bed7dc9-e68e-49ec-b705-97e55f2d4941","ios":"levelo://app?vid=7bed7dc9-e68e-49ec-b705-97e55f2d4941"},"vehicle_type_id":"4","last_reported":1731593355,"current_range_meters":37600,"station_id":"ce4bhg92rcd13ifvqf90","pricing_plan_id":"cebpf4jnsgd1na2vs0mg"},{"bike_id":"07a4be1c-5cf0-4f3e-8c27-4c3e24078daa","system_id":"levelo_inurba_marseille","lat":43.24809,"lon":5.37461,"is_reserved":false,"is_disabled":false,"rental_uris":{"android":"levelo://app?vid=07a4be1c-5cf0-4f3e-8c27-4c3e24078daa","ios":"levelo://app?vid=07a4be1c-5cf0-4f3e-8c27-4c3e24078daa"},"vehicle_type_id":"4","last_reported":1731593355,"current_range_meters":38400,"station_id":"ce4bhgh2rcd13ifvqfb0","pricing_plan_id":"cebpf4jnsgd1na2vs0mg"},{"bike_id":"5b6c5558-28c3-4db4-9ef2-c42f2d0b9715","system_id":"levelo_inurba_marseille","lat":43.29802,"lon":5.38097,"is_reserved":false,"is_disabled":false,"rental_uris":{"android":"levelo://app?vid=5b6c5558-28c3-4db4-9ef2-c42f2d0b9715","ios":"levelo://app?vid=5b6c5558-28c3-4db4-9ef2-c42f2d0b9715"},"vehicle_type_id":"4","last_reported":1731593355,"current_range_meters":30000,"station_id":"ce4bgip2rcd13ifvqbb0","pricing_plan_id":"cebpf4jnsgd1na2vs0mg"},{"bike_id":"00e5ba65-0bf1-4c3a-bef2-91f89020d7f7","system_id":"levelo_inurba_marseille","lat":43.29001,"lon":5.35621,"is_reserved":false,"is_disabled":false,"rental_uris":{"android":"levelo://app?vid=00e5ba65-0bf1-4c3a-bef2-91f89020d7f7","ios":"levelo://app?vid=00e5ba65-0bf1-4c3a-bef2-91f89020d7f7"},"vehicle_type_id":"4","last_reported":1731593355,"current_range_meters":4800,"station_id":"","pricing_plan_id":"cebpf4jnsgd1na2vs0mg"},{"bike_id":"f10719fa-f1c9-4780-bb71-d23f613f05f5","system_id":"levelo_inurba_marseille","lat":43.299353,"lon":5.38925,"is_reserved":false,"is_disabled":false,"rental_uris":{"android":"levelo://app?vid=f10719fa-f1c9-4780-bb71-d23f613f05f5","ios":"levelo://app?vid=f10719fa-f1c9-4780-bb71-d23f613f05f5"},"vehicle_type_id":"4","last_reported":1731593355,"current_range_meters":29600,"station_id":"ce4bh392rcd13ifvqdl0","pricing_plan_id":"cebpf4jnsgd1na2vs0mg"},{"bike_id":"14371120-afeb-4428-b4f8-617c43a9073f","system_id":"levelo_inurba_marseille","lat":43.26792,"lon":5.39408,"is_reserved":false,"is_disabled":false,"rental_uris":{"android":"levelo://app?vid=14371120-afeb-4428-b4f8-617c43a9073f","ios":"levelo://app?vid=14371120-afeb-4428-b4f8-617c43a9073f"},"vehicle_type_id":"4","last_reported":1731593355,"current_range_meters":38000,"station_id":"ce4bhh12rcd13ifvqfg0","pricing_plan_id":"cebpf4jnsgd1na2vs0mg"},{"bike_id":"66f6c770-c469-4690-9949-1e60d2bfe07e","system_id":"levelo_inurba_marseille","lat":43.29227,"lon":5.36078,"is_reserved":false,"is_disabled":false,"rental_uris":{"android":"levelo://app?vid=66f6c770-c469-4690-9949-1e60d2bfe07e","ios":"levelo://app?vid=66f6c770-c469-4690-9949-1e60d2bfe07e"},"vehicle_type_id":"4","last_reported":1731593355,"current_range_meters":25600,"station_id":"ce4bhbh2rcd13ifvqeqg","pricing_plan_id":"cebpf4jnsgd1na2vs0mg"},{"bike_id":"805aef12-8df9-4428-9e6a-7c9b8dcc8c7b","system_id":"levelo_inurba_marseille","lat":43.25085,"lon":5.39524,"is_reserved":false,"is_disabled":false,"rental_uris":{"android":"levelo://app?vid=805aef12-8df9-4428-9e6a-7c9b8dcc8c7b","ios":"levelo://app?vid=805aef12-8df9-4428-9e6a-7c9b8dcc8c7b"},"vehicle_type_id":"4","last_reported":1731593355,"current_range_meters":25200,"station_id":"ce4bhm12rcd13ifvqgkg","pricing_plan_id":"cebpf4jnsgd1na2vs0mg"},{"bike_id":"3d513708-f95c-4cb9-828c-9df3e142d836","system_id":"levelo_inurba_marseille","lat":43.26954,"lon":5.38631,"is_reserved":false,"is_disabled":false,"rental_uris":{"android":"levelo://app?vid=3d513708-f95c-4cb9-828c-9df3e142d836","ios":"levelo://app?vid=3d513708-f95c-4cb9-828c-9df3e142d836"},"vehicle_type_id":"4","last_reported":1731593355,"current_range_meters":35200,"station_id":"ce4bhh92rcd13ifvqfh0","pricing_plan_id":"cebpf4jnsgd1na2vs0mg"},{"bike_id":"3e4efabd-b6ee-455f-8edb-144b5b7ee1b2","system_id":"levelo_inurba_marseille","lat":43.27434,"lon":5.39413,"is_reserved":false,"is_disabled":false,"rental_uris":{"android":"levelo://app?vid=3e4efabd-b6ee-455f-8edb-144b5b7ee1b2","ios":"levelo://app?vid=3e4efabd-b6ee-455f-8edb-144b5b7ee1b2"},"vehicle_type_id":"4","last_reported":1731593355,"current_range_meters":37600,"station_id":"ce4bhdp2rcd13ifvqf20","pricing_plan_id":"cebpf4jnsgd1na2vs0mg"},{"bike_id":"43aa04c8-2b2b-4d04-8a62-b963d5000326","system_id":"levelo_inurba_marseille","lat":43.30472,"lon":5.37913,"is_reserved":false,"is_disabled":false,"rental_uris":{"android":"levelo://app?vid=43aa04c8-2b2b-4d04-8a62-b963d5000326","ios":"levelo://app?vid=43aa04c8-2b2b-4d04-8a62-b963d5000326"},"vehicle_type_id":"4","last_reported":1731593355,"current_range_meters":38800,"station_id":"ce4bgup2rcd13ifvqcn0","pricing_plan_id":"cebpf4jnsgd1na2vs0mg"},{"bike_id":"a6b8c285-acc9-4039-9531-1aae39136a33","system_id":"levelo_inurba_marseille","lat":43.312042,"lon":5.367348,"is_reserved":false,"is_disabled":false,"rental_uris":{"android":"levelo://app?vid=a6b8c285-acc9-4039-9531-1aae39136a33","ios":"levelo://app?vid=a6b8c285-acc9-4039-9531-1aae39136a33"},"vehicle_type_id":"4","last_reported":1731593355,"current_range_meters":24000,"station_id":"","pricing_plan_id":"cebpf4jnsgd1na2vs0mg"},{"bike_id":"eb91c9e7-9f57-4d2a-81be-c15638f04fa6","system_id":"levelo_inurba_marseille","lat":43.28073,"lon":5.39664,"is_reserved":false,"is_disabled":false,"rental_uris":{"android":"levelo://app?vid=eb91c9e7-9f57-4d2a-81be-c15638f04fa6","ios":"levelo://app?vid=eb91c9e7-9f57-4d2a-81be-c15638f04fa6"},"vehicle_type_id":"4","last_reported":1731593355,"current_range_meters":38000,"station_id":"ce4bho12rcd13ifvqh2g","pricing_plan_id":"cebpf4jnsgd1na2vs0mg"},{"bike_id":"bba76986-27db-4a0b-aac9-b12dd5c4e056","system_id":"levelo_inurba_marseille","lat":43.30284,"lon":5.37709,"is_reserved":false,"is_disabled":false,"rental_uris":{"android":"levelo://app?vid=bba76986-27db-4a0b-aac9-b12dd5c4e056","ios":"levelo://app?vid=bba76986-27db-4a0b-aac9-b12dd5c4e056"},"vehicle_type_id":"4","last_reported":1731593355,"current_range_meters":39200,"station_id":"ce4bguh2rcd13ifvqcj0","pricing_plan_id":"cebpf4jnsgd1na2vs0mg"},{"bike_id":"30579d2d-afec-421e-bd07-fe577ab81dba","system_id":"levelo_inurba_marseille","lat":43.337444,"lon":5.374475,"is_reserved":false,"is_disabled":false,"rental_uris":{"android":"levelo://app?vid=30579d2d-afec-421e-bd07-fe577ab81dba","ios":"levelo://app?vid=30579d2d-afec-421e-bd07-fe577ab81dba"},"vehicle_type_id":"4","last_reported":1731593355,"current_range_meters":35200,"station_id":"","pricing_plan_id":"cebpf4jnsgd1na2vs0mg"},{"bike_id":"1624fc6d-63e8-40df-ae2d-23cd608eb667","system_id":"levelo_inurba_marseille","lat":43.2902,"lon":5.38131,"is_reserved":false,"is_disabled":false,"rental_uris":{"android":"levelo://app?vid=1624fc6d-63e8-40df-ae2d-23cd608eb667","ios":"levelo://app?vid=1624fc6d-63e8-40df-ae2d-23cd608eb667"},"vehicle_type_id":"4","last_reported":1731593355,"current_range_meters":2800,"station_id":"ce4bh4p2rcd13ifvqe1g","pricing_plan_id":"cebpf4jnsgd1na2vs0mg"},{"bike_id":"bc1c80bd-5a3e-4594-9f59-ee5fa84996d4","system_id":"levelo_inurba_marseille","lat":43.28946,"lon":5.35492,"is_reserved":false,"is_disabled":false,"rental_uris":{"android":"levelo://app?vid=bc1c80bd-5a3e-4594-9f59-ee5fa84996d4","ios":"levelo://app?vid=bc1c80bd-5a3e-4594-9f59-ee5fa84996d4"},"vehicle_type_id":"4","last_reported":1731593355,"current_range_meters":24400,"station_id":"ce4bhgp2rcd13ifvqfd0","pricing_plan_id":"cebpf4jnsgd1na2vs0mg"},{"bike_id":"0adbe115-1e2e-4f19-aaa6-64977261b7d0","system_id":"levelo_inurba_marseille","lat":43.33748,"lon":5.37455,"is_reserved":false,"is_disabled":false,"rental_uris":{"android":"levelo://app?vid=0adbe115-1e2e-4f19-aaa6-64977261b7d0","ios":"levelo://app?vid=0adbe115-1e2e-4f19-aaa6-64977261b7d0"},"vehicle_type_id":"4","last_reported":1731593355,"current_range_meters":33200,"station_id":"","pricing_plan_id":"cebpf4jnsgd1na2vs0mg"},{"bike_id":"d90b63c1-fb2f-4dc4-b0c5-6e6cf9107d93","system_id":"levelo_inurba_marseille","lat":43.30648,"lon":5.40111,"is_reserved":false,"is_disabled":false,"rental_uris":{"android":"levelo://app?vid=d90b63c1-fb2f-4dc4-b0c5-6e6cf9107d93","ios":"levelo://app?vid=d90b63c1-fb2f-4dc4-b0c5-6e6cf9107d93"},"vehicle_type_id":"4","last_reported":1731593355,"current_range_meters":38400,"station_id":"ce4bh112rcd13ifvqda0","pricing_plan_id":"cebpf4jnsgd1na2vs0mg"},{"bike_id":"92ac4858-87d6-4ceb-8f6e-004635a816a8","system_id":"levelo_inurba_marseille","lat":43.27789,"lon":5.40737,"is_reserved":false,"is_disabled":false,"rental_uris":{"android":"levelo://app?vid=92ac4858-87d6-4ceb-8f6e-004635a816a8","ios":"levelo://app?vid=92ac4858-87d6-4ceb-8f6e-004635a816a8"},"vehicle_type_id":"4","last_reported":1731593355,"current_range_meters":38800,"station_id":"ce4bhnh2rcd13ifvqgtg","pricing_plan_id":"cebpf4jnsgd1na2vs0mg"},{"bike_id":"96580690-3f2b-42f2-a59f-c350b41c5f75","system_id":"levelo_inurba_marseille","lat":43.26196,"lon":5.37936,"is_reserved":false,"is_disabled":false,"rental_uris":{"android":"levelo://app?vid=96580690-3f2b-42f2-a59f-c350b41c5f75","ios":"levelo://app?vid=96580690-3f2b-42f2-a59f-c350b41c5f75"},"vehicle_type_id":"4","last_reported":1731593355,"current_range_meters":19600,"station_id":"ce4bhjp2rcd13ifvqg90","pricing_plan_id":"cebpf4jnsgd1na2vs0mg"},{"bike_id":"1bda1f07-b7d4-4dea-acbc-bba7a290c9cc","system_id":"levelo_inurba_marseille","lat":43.2985,"lon":5.36281,"is_reserved":false,"is_disabled":false,"rental_uris":{"android":"levelo://app?vid=1bda1f07-b7d4-4dea-acbc-bba7a290c9cc","ios":"levelo://app?vid=1bda1f07-b7d4-4dea-acbc-bba7a290c9cc"},"vehicle_type_id":"4","last_reported":1731593355,"current_range_meters":26000,"station_id":"ce4bgpp2rcd13ifvqc3g","pricing_plan_id":"cebpf4jnsgd1na2vs0mg"},{"bike_id":"e5641271-02e4-4ce0-9ff2-de402faa180c","system_id":"levelo_inurba_marseille","lat":43.272064,"lon":5.391822,"is_reserved":false,"is_disabled":false,"rental_uris":{"android":"levelo://app?vid=e5641271-02e4-4ce0-9ff2-de402faa180c","ios":"levelo://app?vid=e5641271-02e4-4ce0-9ff2-de402faa180c"},"vehicle_type_id":"4","last_reported":1731593355,"current_range_meters":12400,"station_id":"ce4bhhp2rcd13ifvqfm0","pricing_plan_id":"cebpf4jnsgd1na2vs0mg"},{"bike_id":"9bcfd93a-6161-4fca-ac69-4c7ed3a1542e","system_id":"levelo_inurba_marseille","lat":43.31325,"lon":5.39699,"is_reserved":false,"is_disabled":false,"rental_uris":{"android":"levelo://app?vid=9bcfd93a-6161-4fca-ac69-4c7ed3a1542e","ios":"levelo://app?vid=9bcfd93a-6161-4fca-ac69-4c7ed3a1542e"},"vehicle_type_id":"4","last_reported":1731593355,"current_range_meters":38400,"station_id":"ce4bgvp2rcd13ifvqcu0","pricing_plan_id":"cebpf4jnsgd1na2vs0mg"},{"bike_id":"32163a7c-87fe-4787-9fae-0fde4291b040","system_id":"levelo_inurba_marseille","lat":43.30932,"lon":5.40145,"is_reserved":false,"is_disabled":false,"rental_uris":{"android":"levelo://app?vid=32163a7c-87fe-4787-9fae-0fde4291b040","ios":"levelo://app?vid=32163a7c-87fe-4787-9fae-0fde4291b040"},"vehicle_type_id":"4","last_reported":1731593355,"current_range_meters":38800,"station_id":"ce4bgvp2rcd13ifvqct0","pricing_plan_id":"cebpf4jnsgd1na2vs0mg"},{"bike_id":"119e07ed-61a1-42ed-bd2e-2f3bed871e21","system_id":"levelo_inurba_marseille","lat":43.27373,"lon":5.36255,"is_reserved":false,"is_disabled":false,"rental_uris":{"android":"levelo://app?vid=119e07ed-61a1-42ed-bd2e-2f3bed871e21","ios":"levelo://app?vid=119e07ed-61a1-42ed-bd2e-2f3bed871e21"},"vehicle_type_id":"4","last_reported":1731593355,"current_range_meters":21600,"station_id":"ce4bhbh2rcd13ifvqeo0","pricing_plan_id":"cebpf4jnsgd1na2vs0mg"},{"bike_id":"0ebf1d8e-7d0d-401e-a53d-164bd3109d60","system_id":"levelo_inurba_marseille","lat":43.25495,"lon":5.3765,"is_reserved":false,"is_disabled":false,"rental_uris":{"android":"levelo://app?vid=0ebf1d8e-7d0d-401e-a53d-164bd3109d60","ios":"levelo://app?vid=0ebf1d8e-7d0d-401e-a53d-164bd3109d60"},"vehicle_type_id":"4","last_reported":1731593355,"current_range_meters":38800,"station_id":"ce4bhh12rcd13ifvqff0","pricing_plan_id":"cebpf4jnsgd1na2vs0mg"},{"bike_id":"0f433459-e074-4293-bfa5-3b5b113abeb1","system_id":"levelo_inurba_marseille","lat":43.337231,"lon":5.391846,"is_reserved":false,"is_disabled":false,"rental_uris":{"android":"levelo://app?vid=0f433459-e074-4293-bfa5-3b5b113abeb1","ios":"levelo://app?vid=0f433459-e074-4293-bfa5-3b5b113abeb1"},"vehicle_type_id":"4","last_reported":1731593355,"current_range_meters":37600,"station_id":"ce4bhr92rcd13ifvqhsg","pricing_plan_id":"cebpf4jnsgd1na2vs0mg"},{"bike_id":"b6bca026-1efe-4754-928d-9042ba992b22","system_id":"levelo_inurba_marseille","lat":43.28423,"lon":5.34999,"is_reserved":false,"is_disabled":false,"rental_uris":{"android":"levelo://app?vid=b6bca026-1efe-4754-928d-9042ba992b22","ios":"levelo://app?vid=b6bca026-1efe-4754-928d-9042ba992b22"},"vehicle_type_id":"4","last_reported":1731593355,"current_range_meters":36400,"station_id":"ce4bhbh2rcd13ifvqepg","pricing_plan_id":"cebpf4jnsgd1na2vs0mg"},{"bike_id":"1ca0df36-b114-4d32-a286-69f2a8c93f85","system_id":"levelo_inurba_marseille","lat":43.28999,"lon":5.35609,"is_reserved":false,"is_disabled":false,"rental_uris":{"android":"levelo://app?vid=1ca0df36-b114-4d32-a286-69f2a8c93f85","ios":"levelo://app?vid=1ca0df36-b114-4d32-a286-69f2a8c93f85"},"vehicle_type_id":"4","last_reported":1731593355,"current_range_meters":28400,"station_id":"ce4bhb92rcd13ifvqen0","pricing_plan_id":"cebpf4jnsgd1na2vs0mg"},{"bike_id":"dbd750a9-0c24-495b-8b51-27338322d10f","system_id":"levelo_inurba_marseille","lat":43.30278,"lon":5.37726,"is_reserved":false,"is_disabled":false,"rental_uris":{"android":"levelo://app?vid=dbd750a9-0c24-495b-8b51-27338322d10f","ios":"levelo://app?vid=dbd750a9-0c24-495b-8b51-27338322d10f"},"vehicle_type_id":"4","last_reported":1731593355,"current_range_meters":38400,"station_id":"ce4bguh2rcd13ifvqcj0","pricing_plan_id":"cebpf4jnsgd1na2vs0mg"},{"bike_id":"62347821-fc2b-450a-9f68-2d9725aa9aa1","system_id":"levelo_inurba_marseille","lat":43.34132,"lon":5.40909,"is_reserved":false,"is_disabled":false,"rental_uris":{"android":"levelo://app?vid=62347821-fc2b-450a-9f68-2d9725aa9aa1","ios":"levelo://app?vid=62347821-fc2b-450a-9f68-2d9725aa9aa1"},"vehicle_type_id":"4","last_reported":1731593355,"current_range_meters":38800,"station_id":"ce4bhqh2rcd13ifvqhlg","pricing_plan_id":"cebpf4jnsgd1na2vs0mg"},{"bike_id":"8f6e4a2d-7245-40ff-b198-73575424a862","system_id":"levelo_inurba_marseille","lat":43.25579,"lon":5.3824,"is_reserved":false,"is_disabled":false,"rental_uris":{"android":"levelo://app?vid=8f6e4a2d-7245-40ff-b198-73575424a862","ios":"levelo://app?vid=8f6e4a2d-7245-40ff-b198-73575424a862"},"vehicle_type_id":"4","last_reported":1731593355,"current_range_meters":26800,"station_id":"ce4bhih2rcd13ifvqfs0","pricing_plan_id":"cebpf4jnsgd1na2vs0mg"},{"bike_id":"5c86b552-8acc-4854-be3b-f9c8a51a0c3a","system_id":"levelo_inurba_marseille","lat":43.2956,"lon":5.39977,"is_reserved":false,"is_disabled":false,"rental_uris":{"android":"levelo://app?vid=5c86b552-8acc-4854-be3b-f9c8a51a0c3a","ios":"levelo://app?vid=5c86b552-8acc-4854-be3b-f9c8a51a0c3a"},"vehicle_type_id":"4","last_reported":1731593355,"current_range_meters":36400,"station_id":"ce4bh312rcd13ifvqdj0","pricing_plan_id":"cebpf4jnsgd1na2vs0mg"},{"bike_id":"b7fb8d75-d625-4c08-9dbb-f681a5ef902e","system_id":"levelo_inurba_marseille","lat":43.29903,"lon":5.3747,"is_reserved":false,"is_disabled":false,"rental_uris":{"android":"levelo://app?vid=b7fb8d75-d625-4c08-9dbb-f681a5ef902e","ios":"levelo://app?vid=b7fb8d75-d625-4c08-9dbb-f681a5ef902e"},"vehicle_type_id":"4","last_reported":1731593355,"current_range_meters":17200,"station_id":"ce4bgjh2rcd13ifvqbg0","pricing_plan_id":"cebpf4jnsgd1na2vs0mg"},{"bike_id":"2260b08b-e51a-4f71-aab9-a20c91cd8504","system_id":"levelo_inurba_marseille","lat":43.27374,"lon":5.36258,"is_reserved":false,"is_disabled":false,"rental_uris":{"android":"levelo://app?vid=2260b08b-e51a-4f71-aab9-a20c91cd8504","ios":"levelo://app?vid=2260b08b-e51a-4f71-aab9-a20c91cd8504"},"vehicle_type_id":"4","last_reported":1731593355,"current_range_meters":38800,"station_id":"ce4bhbh2rcd13ifvqeo0","pricing_plan_id":"cebpf4jnsgd1na2vs0mg"},{"bike_id":"b448c76e-6a85-4e4e-8af8-7d9249501502","system_id":"levelo_inurba_marseille","lat":43.337444,"lon":5.374475,"is_reserved":false,"is_disabled":false,"rental_uris":{"android":"levelo://app?vid=b448c76e-6a85-4e4e-8af8-7d9249501502","ios":"levelo://app?vid=b448c76e-6a85-4e4e-8af8-7d9249501502"},"vehicle_type_id":"4","last_reported":1731593355,"current_range_meters":32800,"station_id":"","pricing_plan_id":"cebpf4jnsgd1na2vs0mg"},{"bike_id":"6459ab19-6b0e-42aa-84fc-f766794048b0","system_id":"levelo_inurba_marseille","lat":43.29412,"lon":5.38626,"is_reserved":false,"is_disabled":false,"rental_uris":{"android":"levelo://app?vid=6459ab19-6b0e-42aa-84fc-f766794048b0","ios":"levelo://app?vid=6459ab19-6b0e-42aa-84fc-f766794048b0"},"vehicle_type_id":"4","last_reported":1731593355,"current_range_meters":33200,"station_id":"ce4bh2h2rcd13ifvqdh0","pricing_plan_id":"cebpf4jnsgd1na2vs0mg"},{"bike_id":"27180a1a-1e8e-44cf-be67-76727484dd68","system_id":"levelo_inurba_marseille","lat":43.32363,"lon":5.38885,"is_reserved":false,"is_disabled":false,"rental_uris":{"android":"levelo://app?vid=27180a1a-1e8e-44cf-be67-76727484dd68","ios":"levelo://app?vid=27180a1a-1e8e-44cf-be67-76727484dd68"},