{"last_updated":1728929548,"ttl":60,"version":"2.2","data":{"bikes":[{"bike_id":"84ecbfed-8e04-4770-b5ad-3aeb880091e0","system_id":"levelo_inurba_marseille","lat":43.31717,"lon":5.37746,"is_reserved":false,"is_disabled":false,"rental_uris":{"android":"levelo://app?vid=84ecbfed-8e04-4770-b5ad-3aeb880091e0","ios":"levelo://app?vid=84ecbfed-8e04-4770-b5ad-3aeb880091e0"},"vehicle_type_id":"4","last_reported":1728929548,"current_range_meters":3200,"station_id":"ce4bgth2rcd13ifvqch0","pricing_plan_id":"cebpf4jnsgd1na2vs0mg"},{"bike_id":"10530386-7ea2-4630-9cfd-fe14c55cdb58","system_id":"levelo_inurba_marseille","lat":43.31757,"lon":5.39018,"is_reserved":false,"is_disabled":false,"rental_uris":{"android":"levelo://app?vid=10530386-7ea2-4630-9cfd-fe14c55cdb58","ios":"levelo://app?vid=10530386-7ea2-4630-9cfd-fe14c55cdb58"},"vehicle_type_id":"4","last_reported":1728929548,"current_range_meters":11200,"station_id":"ce4bhqp2rcd13ifvqhng","pricing_plan_id":"cebpf4jnsgd1na2vs0mg"},{"bike_id":"5f91e217-9b9f-4437-8417-2fd3f1510dcf","system_id":"levelo_inurba_marseille","lat":43.30797,"lon":5.38168,"is_reserved":false,"is_disabled":false,"rental_uris":{"android":"levelo://app?vid=5f91e217-9b9f-4437-8417-2fd3f1510dcf","ios":"levelo://app?vid=5f91e217-9b9f-4437-8417-2fd3f1510dcf"},"vehicle_type_id":"4","last_reported":1728929548,"current_range_meters":38800,"station_id":"ce4bgt12rcd13ifvqce0","pricing_plan_id":"cebpf4jnsgd1na2vs0mg"},{"bike_id":"cf4cabc2-1787-4d02-a606-03a61104119e","system_id":"levelo_inurba_marseille","lat":43.31337,"lon":5.397,"is_reserved":false,"is_disabled":false,"rental_uris":{"android":"levelo://app?vid=cf4cabc2-1787-4d02-a606-03a61104119e","ios":"levelo://app?vid=cf4cabc2-1787-4d02-a606-03a61104119e"},"vehicle_type_id":"4","last_reported":1728929548,"current_range_meters":30800,"station_id":"ce4bgvp2rcd13ifvqcu0","pricing_plan_id":"cebpf4jnsgd1na2vs0mg"},{"bike_id":"ac788206-ab8f-4ef0-a827-047740674c33","system_id":"levelo_inurba_marseille","lat":43.31224,"lon":5.39546,"is_reserved":false,"is_disabled":false,"rental_uris":{"android":"levelo://app?vid=ac788206-ab8f-4ef0-a827-047740674c33","ios":"levelo://app?vid=ac788206-ab8f-4ef0-a827-047740674c33"},"vehicle_type_id":"4","last_reported":1728929548,"current_range_meters":21600,"station_id":"","pricing_plan_id":"cebpf4jnsgd1na2vs0mg"},{"bike_id":"a6cde9a0-3c4a-40f2-aa70-db2d229f6707","system_id":"levelo_inurba_marseille","lat":43.29302,"lon":5.37462,"is_reserved":false,"is_disabled":false,"rental_uris":{"android":"levelo://app?vid=a6cde9a0-3c4a-40f2-aa70-db2d229f6707","ios":"levelo://app?vid=a6cde9a0-3c4a-40f2-aa70-db2d229f6707"},"vehicle_type_id":"4","last_reported":1728929548,"current_range_meters":34000,"station_id":"ce4bgi12rcd13ifvqb70","pricing_plan_id":"cebpf4jnsgd1na2vs0mg"},{"bike_id":"5e412de0-c175-41d4-9e01-bd8b62064c0c","system_id":"levelo_inurba_marseille","lat":43.27373,"lon":5.36259,"is_reserved":false,"is_disabled":false,"rental_uris":{"android":"levelo://app?vid=5e412de0-c175-41d4-9e01-bd8b62064c0c","ios":"levelo://app?vid=5e412de0-c175-41d4-9e01-bd8b62064c0c"},"vehicle_type_id":"4","last_reported":1728929548,"current_range_meters":21600,"station_id":"ce4bhbh2rcd13ifvqeo0","pricing_plan_id":"cebpf4jnsgd1na2vs0mg"},{"bike_id":"ab06f5b3-3c08-4bb2-ab1c-a3aa34c68d36","system_id":"levelo_inurba_marseille","lat":43.25088,"lon":5.39525,"is_reserved":false,"is_disabled":false,"rental_uris":{"android":"levelo://app?vid=ab06f5b3-3c08-4bb2-ab1c-a3aa34c68d36","ios":"levelo://app?vid=ab06f5b3-3c08-4bb2-ab1c-a3aa34c68d36"},"vehicle_type_id":"4","last_reported":1728929548,"current_range_meters":5600,"station_id":"ce4bhm12rcd13ifvqgkg","pricing_plan_id":"cebpf4jnsgd1na2vs0mg"},{"bike_id":"6c769316-75e3-4eba-8bca-7dffbdb7e41c","system_id":"levelo_inurba_marseille","lat":43.28462,"lon":5.35899,"is_reserved":false,"is_disabled":false,"rental_uris":{"android":"levelo://app?vid=6c769316-75e3-4eba-8bca-7dffbdb7e41c","ios":"levelo://app?vid=6c769316-75e3-4eba-8bca-7dffbdb7e41c"},"vehicle_type_id":"4","last_reported":1728929548,"current_range_meters":2800,"station_id":"ce4bhah2rcd13ifvqei0","pricing_plan_id":"cebpf4jnsgd1na2vs0mg"},{"bike_id":"3cf5a3d5-252e-45dd-9bc5-16f0049b6608","system_id":"levelo_inurba_marseille","lat":43.23966,"lon":5.36633,"is_reserved":false,"is_disabled":false,"rental_uris":{"android":"levelo://app?vid=3cf5a3d5-252e-45dd-9bc5-16f0049b6608","ios":"levelo://app?vid=3cf5a3d5-252e-45dd-9bc5-16f0049b6608"},"vehicle_type_id":"4","last_reported":1728929548,"current_range_meters":8800,"station_id":"ce4bhi12rcd13ifvqfp0","pricing_plan_id":"cebpf4jnsgd1na2vs0mg"},{"bike_id":"5eaa264b-2d70-45ee-9a11-e1d7b006217c","system_id":"levelo_inurba_marseille","lat":43.29417,"lon":5.3862,"is_reserved":false,"is_disabled":false,"rental_uris":{"android":"levelo://app?vid=5eaa264b-2d70-45ee-9a11-e1d7b006217c","ios":"levelo://app?vid=5eaa264b-2d70-45ee-9a11-e1d7b006217c"},"vehicle_type_id":"4","last_reported":1728929548,"current_range_meters":14800,"station_id":"ce4bh2h2rcd13ifvqdh0","pricing_plan_id":"cebpf4jnsgd1na2vs0mg"},{"bike_id":"78c68d0d-f1c1-4b05-bfe6-6c7ed003c903","system_id":"levelo_inurba_marseille","lat":43.29196,"lon":5.35803,"is_reserved":false,"is_disabled":false,"rental_uris":{"android":"levelo://app?vid=78c68d0d-f1c1-4b05-bfe6-6c7ed003c903","ios":"levelo://app?vid=78c68d0d-f1c1-4b05-bfe6-6c7ed003c903"},"vehicle_type_id":"4","last_reported":1728929548,"current_range_meters":5600,"station_id":"ce4bhb12rcd13ifvqel0","pricing_plan_id":"cebpf4jnsgd1na2vs0mg"},{"bike_id":"6692caa7-712f-4211-8b98-6d47eb8d2b05","system_id":"levelo_inurba_marseille","lat":43.2917,"lon":5.3715,"is_reserved":false,"is_disabled":false,"rental_uris":{"android":"levelo://app?vid=6692caa7-712f-4211-8b98-6d47eb8d2b05","ios":"levelo://app?vid=6692caa7-712f-4211-8b98-6d47eb8d2b05"},"vehicle_type_id":"4","last_reported":1728929548,"current_range_meters":10000,"station_id":"ce4bha92rcd13ifvqeh0","pricing_plan_id":"cebpf4jnsgd1na2vs0mg"},{"bike_id":"758bd0a3-3085-46f3-bfff-87c0aaf6f640","system_id":"levelo_inurba_marseille","lat":43.30358,"lon":5.41878,"is_reserved":false,"is_disabled":false,"rental_uris":{"android":"levelo://app?vid=758bd0a3-3085-46f3-bfff-87c0aaf6f640","ios":"levelo://app?vid=758bd0a3-3085-46f3-bfff-87c0aaf6f640"},"vehicle_type_id":"4","last_reported":1728929548,"current_range_meters":30800,"station_id":"ce4bhop2rcd13ifvqh7g","pricing_plan_id":"cebpf4jnsgd1na2vs0mg"},{"bike_id":"4fb899fb-c7f7-4299-8856-d588065fcc96","system_id":"levelo_inurba_marseille","lat":43.31726,"lon":5.42411,"is_reserved":false,"is_disabled":false,"rental_uris":{"android":"levelo://app?vid=4fb899fb-c7f7-4299-8856-d588065fcc96","ios":"levelo://app?vid=4fb899fb-c7f7-4299-8856-d588065fcc96"},"vehicle_type_id":"4","last_reported":1728929548,"current_range_meters":38400,"station_id":"ce4bhp92rcd13ifvqhbg","pricing_plan_id":"cebpf4jnsgd1na2vs0mg"},{"bike_id":"dfe8030c-37d8-4b9c-a9e4-185e78aae511","system_id":"levelo_inurba_marseille","lat":43.31772,"lon":5.39014,"is_reserved":false,"is_disabled":false,"rental_uris":{"android":"levelo://app?vid=dfe8030c-37d8-4b9c-a9e4-185e78aae511","ios":"levelo://app?vid=dfe8030c-37d8-4b9c-a9e4-185e78aae511"},"vehicle_type_id":"4","last_reported":1728929548,"current_range_meters":38800,"station_id":"ce4bhqp2rcd13ifvqhng","pricing_plan_id":"cebpf4jnsgd1na2vs0mg"},{"bike_id":"009e1944-5320-46ff-a5bd-7f170a6cc59c","system_id":"levelo_inurba_marseille","lat":43.31077,"lon":5.38345,"is_reserved":false,"is_disabled":false,"rental_uris":{"android":"levelo://app?vid=009e1944-5320-46ff-a5bd-7f170a6cc59c","ios":"levelo://app?vid=009e1944-5320-46ff-a5bd-7f170a6cc59c"},"vehicle_type_id":"4","last_reported":1728929548,"current_range_meters":38800,"station_id":"ce4bgv92rcd13ifvqcr0","pricing_plan_id":"cebpf4jnsgd1na2vs0mg"},{"bike_id":"73f9a39c-7690-4438-b647-f6ccb95b7ed4","system_id":"levelo_inurba_marseille","lat":43.31767,"lon":5.36854,"is_reserved":false,"is_disabled":false,"rental_uris":{"android":"levelo://app?vid=73f9a39c-7690-4438-b647-f6ccb95b7ed4","ios":"levelo://app?vid=73f9a39c-7690-4438-b647-f6ccb95b7ed4"},"vehicle_type_id":"4","last_reported":1728929548,"current_range_meters":22400,"station_id":"ce4bhs12rcd13ifvqhvg","pricing_plan_id":"cebpf4jnsgd1na2vs0mg"},{"bike_id":"2023e189-93eb-415b-8125-a50a06418b8a","system_id":"levelo_inurba_marseille","lat":43.28611,"lon":5.37068,"is_reserved":false,"is_disabled":false,"rental_uris":{"android":"levelo://app?vid=2023e189-93eb-415b-8125-a50a06418b8a","ios":"levelo://app?vid=2023e189-93eb-415b-8125-a50a06418b8a"},"vehicle_type_id":"4","last_reported":1728929548,"current_range_meters":35200,"station_id":"ce4bht12rcd13ifvqi60","pricing_plan_id":"cebpf4jnsgd1na2vs0mg"},{"bike_id":"1c9343e4-7b78-402e-b1fe-6599c269887e","system_id":"levelo_inurba_marseille","lat":43.314515,"lon":5.37384,"is_reserved":false,"is_disabled":false,"rental_uris":{"android":"levelo://app?vid=1c9343e4-7b78-402e-b1fe-6599c269887e","ios":"levelo://app?vid=1c9343e4-7b78-402e-b1fe-6599c269887e"},"vehicle_type_id":"4","last_reported":1728929548,"current_range_meters":27200,"station_id":"","pricing_plan_id":"cebpf4jnsgd1na2vs0mg"},{"bike_id":"6977f940-8487-45db-91a9-6d0509903f9a","system_id":"levelo_inurba_marseille","lat":43.28937,"lon":5.36393,"is_reserved":false,"is_disabled":false,"rental_uris":{"android":"levelo://app?vid=6977f940-8487-45db-91a9-6d0509903f9a","ios":"levelo://app?vid=6977f940-8487-45db-91a9-6d0509903f9a"},"vehicle_type_id":"4","last_reported":1728929548,"current_range_meters":8000,"station_id":"ce4bhc92rcd13ifvqetg","pricing_plan_id":"cebpf4jnsgd1na2vs0mg"},{"bike_id":"b563cc33-e333-46aa-a85f-2ba6ec543dc6","system_id":"levelo_inurba_marseille","lat":43.24809,"lon":5.37463,"is_reserved":false,"is_disabled":false,"rental_uris":{"android":"levelo://app?vid=b563cc33-e333-46aa-a85f-2ba6ec543dc6","ios":"levelo://app?vid=b563cc33-e333-46aa-a85f-2ba6ec543dc6"},"vehicle_type_id":"4","last_reported":1728929548,"current_range_meters":38000,"station_id":"ce4bhgh2rcd13ifvqfb0","pricing_plan_id":"cebpf4jnsgd1na2vs0mg"},{"bike_id":"2c528c6a-db41-4b69-ba99-725aa39a41ff","system_id":"levelo_inurba_marseille","lat":43.30359,"lon":5.43008,"is_reserved":false,"is_disabled":false,"rental_uris":{"android":"levelo://app?vid=2c528c6a-db41-4b69-ba99-725aa39a41ff","ios":"levelo://app?vid=2c528c6a-db41-4b69-ba99-725aa39a41ff"},"vehicle_type_id":"4","last_reported":1728929548,"current_range_meters":4800,"station_id":"ce4bhph2rcd13ifvqheg","pricing_plan_id":"cebpf4jnsgd1na2vs0mg"},{"bike_id":"a1fadbf3-9314-4264-9d24-d4ec99f0e426","system_id":"levelo_inurba_marseille","lat":43.29028,"lon":5.38629,"is_reserved":false,"is_disabled":false,"rental_uris":{"android":"levelo://app?vid=a1fadbf3-9314-4264-9d24-d4ec99f0e426","ios":"levelo://app?vid=a1fadbf3-9314-4264-9d24-d4ec99f0e426"},"vehicle_type_id":"4","last_reported":1728929548,"current_range_meters":3600,"station_id":"ce4bh4p2rcd13ifvqe0g","pricing_plan_id":"cebpf4jnsgd1na2vs0mg"},{"bike_id":"93396bbe-8c63-41de-9ff2-c3e2f9574911","system_id":"levelo_inurba_marseille","lat":43.29172,"lon":5.37157,"is_reserved":false,"is_disabled":false,"rental_uris":{"android":"levelo://app?vid=93396bbe-8c63-41de-9ff2-c3e2f9574911","ios":"levelo://app?vid=93396bbe-8c63-41de-9ff2-c3e2f9574911"},"vehicle_type_id":"4","last_reported":1728929548,"current_range_meters":36000,"station_id":"ce4bha92rcd13ifvqeh0","pricing_plan_id":"cebpf4jnsgd1na2vs0mg"},{"bike_id":"d25bcc20-4737-4952-acd4-ed8f651c6541","system_id":"levelo_inurba_marseille","lat":43.33023,"lon":5.3905,"is_reserved":false,"is_disabled":false,"rental_uris":{"android":"levelo://app?vid=d25bcc20-4737-4952-acd4-ed8f651c6541","ios":"levelo://app?vid=d25bcc20-4737-4952-acd4-ed8f651c6541"},"vehicle_type_id":"4","last_reported":1728929548,"current_range_meters":38800,"station_id":"ce4bhr92rcd13ifvqhrg","pricing_plan_id":"cebpf4jnsgd1na2vs0mg"},{"bike_id":"0aa0a823-4192-4039-a41f-8b7be20c611d","system_id":"levelo_inurba_marseille","lat":43.3151,"lon":5.37304,"is_reserved":false,"is_disabled":false,"rental_uris":{"android":"levelo://app?vid=0aa0a823-4192-4039-a41f-8b7be20c611d","ios":"levelo://app?vid=0aa0a823-4192-4039-a41f-8b7be20c611d"},"vehicle_type_id":"4","last_reported":1728929548,"current_range_meters":11200,"station_id":"ce4bgt12rcd13ifvqcd0","pricing_plan_id":"cebpf4jnsgd1na2vs0mg"},{"bike_id":"5fe20323-0016-4ce7-9d5f-2acc9cf04e86","system_id":"levelo_inurba_marseille","lat":43.31745,"lon":5.3718,"is_reserved":false,"is_disabled":false,"rental_uris":{"android":"levelo://app?vid=5fe20323-0016-4ce7-9d5f-2acc9cf04e86","ios":"levelo://app?vid=5fe20323-0016-4ce7-9d5f-2acc9cf04e86"},"vehicle_type_id":"4","last_reported":1728929548,"current_range_meters":20800,"station_id":"","pricing_plan_id":"cebpf4jnsgd1na2vs0mg"},{"bike_id":"1ec914f6-ac84-4515-b115-cb0cf8438fac","system_id":"levelo_inurba_marseille","lat":43.28702,"lon":5.39986,"is_reserved":false,"is_disabled":false,"rental_uris":{"android":"levelo://app?vid=1ec914f6-ac84-4515-b115-cb0cf8438fac","ios":"levelo://app?vid=1ec914f6-ac84-4515-b115-cb0cf8438fac"},"vehicle_type_id":"4","last_reported":1728929548,"current_range_meters":22400,"station_id":"ce4bho92rcd13ifvqh3g","pricing_plan_id":"cebpf4jnsgd1na2vs0mg"},{"bike_id":"811759de-7405-429c-8d49-29bb7371b392","system_id":"levelo_inurba_marseille","lat":43.302155,"lon":5.394669,"is_reserved":false,"is_disabled":false,"rental_uris":{"android":"levelo://app?vid=811759de-7405-429c-8d49-29bb7371b392","ios":"levelo://app?vid=811759de-7405-429c-8d49-29bb7371b392"},"vehicle_type_id":"4","last_reported":1728929548,"current_range_meters":3200,"station_id":"ce4bh0p2rcd13ifvqd70","pricing_plan_id":"cebpf4jnsgd1na2vs0mg"},{"bike_id":"9212eb05-896b-452a-8023-968a3a350064","system_id":"levelo_inurba_marseille","lat":43.26809,"lon":5.40275,"is_reserved":false,"is_disabled":false,"rental_uris":{"android":"levelo://app?vid=9212eb05-896b-452a-8023-968a3a350064","ios":"levelo://app?vid=9212eb05-896b-452a-8023-968a3a350064"},"vehicle_type_id":"4","last_reported":1728929548,"current_range_meters":4800,"station_id":"ce501612rcd8frsf0b60","pricing_plan_id":"cebpf4jnsgd1na2vs0mg"},{"bike_id":"02d20c80-1832-49a8-b20c-d886b909e3b2","system_id":"levelo_inurba_marseille","lat":43.29266,"lon":5.40914,"is_reserved":false,"is_disabled":false,"rental_uris":{"android":"levelo://app?vid=02d20c80-1832-49a8-b20c-d886b909e3b2","ios":"levelo://app?vid=02d20c80-1832-49a8-b20c-d886b909e3b2"},"vehicle_type_id":"4","last_reported":1728929548,"current_range_meters":36400,"station_id":"ce4bh192rcd13ifvqdc0","pricing_plan_id":"cebpf4jnsgd1na2vs0mg"},{"bike_id":"1eb0d291-c980-43c3-897c-b678fe3f7bcf","system_id":"levelo_inurba_marseille","lat":43.32334,"lon":5.40626,"is_reserved":false,"is_disabled":false,"rental_uris":{"android":"levelo://app?vid=1eb0d291-c980-43c3-897c-b678fe3f7bcf","ios":"levelo://app?vid=1eb0d291-c980-43c3-897c-b678fe3f7bcf"},"vehicle_type_id":"4","last_reported":1728929548,"current_range_meters":34800,"station_id":"ce4bhq92rcd13ifvqhjg","pricing_plan_id":"cebpf4jnsgd1na2vs0mg"},{"bike_id":"51a43f96-867e-4ab9-8ec5-999842e38d95","system_id":"levelo_inurba_marseille","lat":43.31064,"lon":5.40103,"is_reserved":false,"is_disabled":false,"rental_uris":{"android":"levelo://app?vid=51a43f96-867e-4ab9-8ec5-999842e38d95","ios":"levelo://app?vid=51a43f96-867e-4ab9-8ec5-999842e38d95"},"vehicle_type_id":"4","last_reported":1728929548,"current_range_meters":24800,"station_id":"","pricing_plan_id":"cebpf4jnsgd1na2vs0mg"},{"bike_id":"27521189-a10b-488a-82b8-973812fa95e1","system_id":"levelo_inurba_marseille","lat":43.32477,"lon":5.36581,"is_reserved":false,"is_disabled":false,"rental_uris":{"android":"levelo://app?vid=27521189-a10b-488a-82b8-973812fa95e1","ios":"levelo://app?vid=27521189-a10b-488a-82b8-973812fa95e1"},"vehicle_type_id":"4","last_reported":1728929548,"current_range_meters":38800,"station_id":"ce4bhs12rcd13ifvqhvg","pricing_plan_id":"cebpf4jnsgd1na2vs0mg"},{"bike_id":"340002eb-f659-433d-885b-50b16d2bf94c","system_id":"levelo_inurba_marseille","lat":43.28616,"lon":5.3511,"is_reserved":false,"is_disabled":false,"rental_uris":{"android":"levelo://app?vid=340002eb-f659-433d-885b-50b16d2bf94c","ios":"levelo://app?vid=340002eb-f659-433d-885b-50b16d2bf94c"},"vehicle_type_id":"4","last_reported":1728929548,"current_range_meters":38800,"station_id":"ce4bhch2rcd13ifvqeug","pricing_plan_id":"cebpf4jnsgd1na2vs0mg"},{"bike_id":"814e88e1-1aeb-4d34-b8dd-7e6e541307fe","system_id":"levelo_inurba_marseille","lat":43.25435,"lon":5.37608,"is_reserved":false,"is_disabled":false,"rental_uris":{"android":"levelo://app?vid=814e88e1-1aeb-4d34-b8dd-7e6e541307fe","ios":"levelo://app?vid=814e88e1-1aeb-4d34-b8dd-7e6e541307fe"},"vehicle_type_id":"4","last_reported":1728929548,"current_range_meters":4400,"station_id":"ce4bhi12rcd13ifvqfp0","pricing_plan_id":"cebpf4jnsgd1na2vs0mg"},{"bike_id":"09a2e575-ef21-47f1-afdd-66b4617de5a0","system_id":"levelo_inurba_marseille","lat":43.28081,"lon":5.39657,"is_reserved":false,"is_disabled":false,"rental_uris":{"android":"levelo://app?vid=09a2e575-ef21-47f1-afdd-66b4617de5a0","ios":"levelo://app?vid=09a2e575-ef21-47f1-afdd-66b4617de5a0"},"vehicle_type_id":"4","last_reported":1728929548,"current_range_meters":40000,"station_id":"ce4bho12rcd13ifvqh2g","pricing_plan_id":"cebpf4jnsgd1na2vs0mg"},{"bike_id":"e6c2f0f0-bd08-45f5-8ee8-093632c71268","system_id":"levelo_inurba_marseille","lat":43.3089,"lon":5.3965,"is_reserved":false,"is_disabled":false,"rental_uris":{"android":"levelo://app?vid=e6c2f0f0-bd08-45f5-8ee8-093632c71268","ios":"levelo://app?vid=e6c2f0f0-bd08-45f5-8ee8-093632c71268"},"vehicle_type_id":"4","last_reported":1728929548,"current_range_meters":20800,"station_id":"ce4bh012rcd13ifvqcv0","pricing_plan_id":"cebpf4jnsgd1na2vs0mg"},{"bike_id":"e505fef5-a892-438e-aa5d-1c764dc6e5fc","system_id":"levelo_inurba_marseille","lat":43.28009,"lon":5.40005,"is_reserved":false,"is_disabled":false,"rental_uris":{"android":"levelo://app?vid=e505fef5-a892-438e-aa5d-1c764dc6e5fc","ios":"levelo://app?vid=e505fef5-a892-438e-aa5d-1c764dc6e5fc"},"vehicle_type_id":"4","last_reported":1728929548,"current_range_meters":12800,"station_id":"ce4bho92rcd13ifvqh4g","pricing_plan_id":"cebpf4jnsgd1na2vs0mg"},{"bike_id":"4482dbd3-0d31-4b43-bbd3-5cfbb130291d","system_id":"levelo_inurba_marseille","lat":43.23208,"lon":5.3555,"is_reserved":false,"is_disabled":false,"rental_uris":{"android":"levelo://app?vid=4482dbd3-0d31-4b43-bbd3-5cfbb130291d","ios":"levelo://app?vid=4482dbd3-0d31-4b43-bbd3-5cfbb130291d"},"vehicle_type_id":"4","last_reported":1728929548,"current_range_meters":4400,"station_id":"ce4bhu92rcd13ifvqi70","pricing_plan_id":"cebpf4jnsgd1na2vs0mg"},{"bike_id":"870cdfd3-a237-4937-8e0b-e46806ee4933","system_id":"levelo_inurba_marseille","lat":43.25721,"lon":5.41116,"is_reserved":false,"is_disabled":false,"rental_uris":{"android":"levelo://app?vid=870cdfd3-a237-4937-8e0b-e46806ee4933","ios":"levelo://app?vid=870cdfd3-a237-4937-8e0b-e46806ee4933"},"vehicle_type_id":"4","last_reported":1728929548,"current_range_meters":27600,"station_id":"ce4bhkp2rcd13ifvqgd0","pricing_plan_id":"cebpf4jnsgd1na2vs0mg"},{"bike_id":"7788dc4b-4f54-41ed-a1d3-a1984d58b388","system_id":"levelo_inurba_marseille","lat":43.28617,"lon":5.35106,"is_reserved":false,"is_disabled":false,"rental_uris":{"android":"levelo://app?vid=7788dc4b-4f54-41ed-a1d3-a1984d58b388","ios":"levelo://app?vid=7788dc4b-4f54-41ed-a1d3-a1984d58b388"},"vehicle_type_id":"4","last_reported":1728929548,"current_range_meters":38800,"station_id":"ce4bhch2rcd13ifvqeug","pricing_plan_id":"cebpf4jnsgd1na2vs0mg"},{"bike_id":"43453fc3-f15a-4bcf-8f5c-3ec3188e9761","system_id":"levelo_inurba_marseille","lat":43.33029,"lon":5.39045,"is_reserved":false,"is_disabled":false,"rental_uris":{"android":"levelo://app?vid=43453fc3-f15a-4bcf-8f5c-3ec3188e9761","ios":"levelo://app?vid=43453fc3-f15a-4bcf-8f5c-3ec3188e9761"},"vehicle_type_id":"4","last_reported":1728929548,"current_range_meters":20800,"station_id":"ce4bhr92rcd13ifvqhrg","pricing_plan_id":"cebpf4jnsgd1na2vs0mg"},{"bike_id":"b178b062-35cd-4f92-91db-f4ae171fe0ea","system_id":"levelo_inurba_marseille","lat":43.292851,"lon":5.368404,"is_reserved":false,"is_disabled":false,"rental_uris":{"android":"levelo://app?vid=b178b062-35cd-4f92-91db-f4ae171fe0ea","ios":"levelo://app?vid=b178b062-35cd-4f92-91db-f4ae171fe0ea"},"vehicle_type_id":"4","last_reported":1728929548,"current_range_meters":13600,"station_id":"","pricing_plan_id":"cebpf4jnsgd1na2vs0mg"},{"bike_id":"b17bd6a0-4c14-4c8c-96d0-fdc1bec84ba5","system_id":"levelo_inurba_marseille","lat":43.31068,"lon":5.38362,"is_reserved":false,"is_disabled":false,"rental_uris":{"android":"levelo://app?vid=b17bd6a0-4c14-4c8c-96d0-fdc1bec84ba5","ios":"levelo://app?vid=b17bd6a0-4c14-4c8c-96d0-fdc1bec84ba5"},"vehicle_type_id":"4","last_reported":1728929548,"current_range_meters":12000,"station_id":"ce4bgv92rcd13ifvqcr0","pricing_plan_id":"cebpf4jnsgd1na2vs0mg"},{"bike_id":"a0004b86-0108-4a59-8420-8474f739e195","system_id":"levelo_inurba_marseille","lat":43.31765,"lon":5.39015,"is_reserved":false,"is_disabled":false,"rental_uris":{"android":"levelo://app?vid=a0004b86-0108-4a59-8420-8474f739e195","ios":"levelo://app?vid=a0004b86-0108-4a59-8420-8474f739e195"},"vehicle_type_id":"4","last_reported":1728929548,"current_range_meters":38800,"station_id":"ce4bhqp2rcd13ifvqhng","pricing_plan_id":"cebpf4jnsgd1na2vs0mg"},{"bike_id":"c0670d96-b06e-446b-a07e-6b5eeebc59d7","system_id":"levelo_inurba_marseille","lat":43.274948,"lon":5.424466,"is_reserved":false,"is_disabled":false,"rental_uris":{"android":"levelo://app?vid=c0670d96-b06e-446b-a07e-6b5eeebc59d7","ios":"levelo://app?vid=c0670d96-b06e-446b-a07e-6b5eeebc59d7"},"vehicle_type_id":"4","last_reported":1728929548,"current_range_meters":16000,"station_id":"ce4bhn92rcd13ifvqgrg","pricing_plan_id":"cebpf4jnsgd1na2vs0mg"},{"bike_id":"80ea82cb-fdc6-4f40-b9be-6332a9de722d","system_id":"levelo_inurba_marseille","lat":43.23176,"lon":5.39993,"is_reserved":false,"is_disabled":false,"rental_uris":{"android":"levelo://app?vid=80ea82cb-fdc6-4f40-b9be-6332a9de722d","ios":"levelo://app?vid=80ea82cb-fdc6-4f40-b9be-6332a9de722d"},"vehicle_type_id":"4","last_reported":1728929548,"current_range_meters":12800,"station_id":"ce4bhn12rcd13ifvqgqg","pricing_plan_id":"cebpf4jnsgd1na2vs0mg"},{"bike_id":"a52d4416-17ca-43b5-bb08-d64bd60c07c4","system_id":"levelo_inurba_marseille","lat":43.29103,"lon":5.38125,"is_reserved":false,"is_disabled":false,"rental_uris":{"android":"levelo://app?vid=a52d4416-17ca-43b5-bb08-d64bd60c07c4","ios":"levelo://app?vid=a52d4416-17ca-43b5-bb08-d64bd60c07c4"},"vehicle_type_id":"4","last_reported":1728929548,"current_range_meters":10000,"station_id":"ce4bh512rcd13ifvqe2g","pricing_plan_id":"cebpf4jnsgd1na2vs0mg"},{"bike_id":"97bbc13f-a053-46dc-98d3-f4706df291f5","system_id":"levelo_inurba_marseille","lat":43.30961,"lon":5.39028,"is_reserved":false,"is_disabled":false,"rental_uris":{"android":"levelo://app?vid=97bbc13f-a053-46dc-98d3-f4706df291f5","ios":"levelo://app?vid=97bbc13f-a053-46dc-98d3-f4706df291f5"},"vehicle_type_id":"4","last_reported":1728929548,"current_range_meters":38800,"station_id":"ce4bgup2rcd13ifvqco0","pricing_plan_id":"cebpf4jnsgd1na2vs0mg"},{"bike_id":"f5b05b13-f93e-4057-b13c-c97c646af6af","system_id":"levelo_inurba_marseille","lat":43.27981,"lon":5.38729,"is_reserved":false,"is_disabled":false,"rental_uris":{"android":"levelo://app?vid=f5b05b13-f93e-4057-b13c-c97c646af6af","ios":"levelo://app?vid=f5b05b13-f93e-4057-b13c-c97c646af6af"},"vehicle_type_id":"4","last_reported":1728929548,"current_range_meters":6800,"station_id":"ce4bhg12rcd13ifvqf80","pricing_plan_id":"cebpf4jnsgd1na2vs0mg"},{"bike_id":"a0d3d324-fa7e-4417-aee7-85012ecab44e","system_id":"levelo_inurba_marseille","lat":43.34234,"lon":5.44565,"is_reserved":false,"is_disabled":false,"rental_uris":{"android":"levelo://app?vid=a0d3d324-fa7e-4417-aee7-85012ecab44e","ios":"levelo://app?vid=a0d3d324-fa7e-4417-aee7-85012ecab44e"},"vehicle_type_id":"4","last_reported":1728929548,"current_range_meters":27200,"station_id":"","pricing_plan_id":"cebpf4jnsgd1na2vs0mg"},{"bike_id":"62bf91f0-b1a6-4dd5-a5a2-40b9d87500c7","system_id":"levelo_inurba_marseille","lat":43.28616,"lon":5.35108,"is_reserved":false,"is_disabled":false,"rental_uris":{"android":"levelo://app?vid=62bf91f0-b1a6-4dd5-a5a2-40b9d87500c7","ios":"levelo://app?vid=62bf91f0-b1a6-4dd5-a5a2-40b9d87500c7"},"vehicle_type_id":"4","last_reported":1728929548,"current_range_meters":8400,"station_id":"ce4bhch2rcd13ifvqeug","pricing_plan_id":"cebpf4jnsgd1na2vs0mg"},{"bike_id":"032aa5e5-fcec-4e5c-80a4-47f84e70e8a8","system_id":"levelo_inurba_marseille","lat":43.27669,"lon":5.38904,"is_reserved":false,"is_disabled":false,"rental_uris":{"android":"levelo://app?vid=032aa5e5-fcec-4e5c-80a4-47f84e70e8a8","ios":"levelo://app?vid=032aa5e5-fcec-4e5c-80a4-47f84e70e8a8"},"vehicle_type_id":"4","last_reported":1728929548,"current_range_meters":33600,"station_id":"ce4bhi12rcd13ifvqfo0","pricing_plan_id":"cebpf4jnsgd1na2vs0mg"},{"bike_id":"6a6e8901-7cf8-4ec1-b6aa-3e523137d174","system_id":"levelo_inurba_marseille","lat":43.31191,"lon":5.3872,"is_reserved":false,"is_disabled":false,"rental_uris":{"android":"levelo://app?vid=6a6e8901-7cf8-4ec1-b6aa-3e523137d174","ios":"levelo://app?vid=6a6e8901-7cf8-4ec1-b6aa-3e523137d174"},"vehicle_type_id":"4","last_reported":1728929548,"current_range_meters":9600,"station_id":"ce4bgv12rcd13ifvqcp0","pricing_plan_id":"cebpf4jnsgd1na2vs0mg"},{"bike_id":"6b2e5226-d11c-47cf-be27-e1ef39d00c1f","system_id":"levelo_inurba_marseille","lat":43.29533,"lon":5.38548,"is_reserved":false,"is_disabled":false,"rental_uris":{"android":"levelo://app?vid=6b2e5226-d11c-47cf-be27-e1ef39d00c1f","ios":"levelo://app?vid=6b2e5226-d11c-47cf-be27-e1ef39d00c1f"},"vehicle_type_id":"4","last_reported":1728929548,"current_range_meters":28800,"station_id":"ce4bgih2rcd13ifvqba0","pricing_plan_id":"cebpf4jnsgd1na2vs0mg"},{"bike_id":"a7e6567f-f26c-47cf-8b7b-8658b019bf04","system_id":"levelo_inurba_marseille","lat":43.29024,"lon":5.38132,"is_reserved":false,"is_disabled":false,"rental_uris":{"android":"levelo://app?vid=a7e6567f-f26c-47cf-8b7b-8658b019bf04","ios":"levelo://app?vid=a7e6567f-f26c-47cf-8b7b-8658b019bf04"},"vehicle_type_id":"4","last_reported":1728929548,"current_range_meters":14000,"station_id":"ce4bh4p2rcd13ifvqe1g","pricing_plan_id":"cebpf4jnsgd1na2vs0mg"},{"bike_id":"1d843a14-ec5e-407d-bd46-7d4bfe5a6a8e","system_id":"levelo_inurba_marseille","lat":43.24392,"lon":5.37056,"is_reserved":false,"is_disabled":false,"rental_uris":{"android":"levelo://app?vid=1d843a14-ec5e-407d-bd46-7d4bfe5a6a8e","ios":"levelo://app?vid=1d843a14-ec5e-407d-bd46-7d4bfe5a6a8e"},"vehicle_type_id":"4","last_reported":1728929548,"current_range_meters":25600,"station_id":"ce4bhhh2rcd13ifvqfk0","pricing_plan_id":"cebpf4jnsgd1na2vs0mg"},{"bike_id":"df818b9f-1228-4637-b219-e44497a55caa","system_id":"levelo_inurba_marseille","lat":43.29418,"lon":5.3861,"is_reserved":false,"is_disabled":false,"rental_uris":{"android":"levelo://app?vid=df818b9f-1228-4637-b219-e44497a55caa","ios":"levelo://app?vid=df818b9f-1228-4637-b219-e44497a55caa"},"vehicle_type_id":"4","last_reported":1728929548,"current_range_meters":38800,"station_id":"ce4bh2h2rcd13ifvqdh0","pricing_plan_id":"cebpf4jnsgd1na2vs0mg"},{"bike_id":"8a3380a7-423c-4352-b39a-3274f94dce2e","system_id":"levelo_inurba_marseille","lat":43.26557,"lon":5.372815,"is_reserved":false,"is_disabled":false,"rental_uris":{"android":"levelo://app?vid=8a3380a7-423c-4352-b39a-3274f94dce2e","ios":"levelo://app?vid=8a3380a7-423c-4352-b39a-3274f94dce2e"},"vehicle_type_id":"4","last_reported":1728929548,"current_range_meters":29600,"station_id":"ce4bhg12rcd13ifvqf70","pricing_plan_id":"cebpf4jnsgd1na2vs0mg"},{"bike_id":"3afb0681-8fbd-47fe-8917-e12bc3cf488b","system_id":"levelo_inurba_marseille","lat":43.337221,"lon":5.391828,"is_reserved":false,"is_disabled":false,"rental_uris":{"android":"levelo://app?vid=3afb0681-8fbd-47fe-8917-e12bc3cf488b","ios":"levelo://app?vid=3afb0681-8fbd-47fe-8917-e12bc3cf488b"},"vehicle_type_id":"4","last_reported":1728929548,"current_range_meters":39200,"station_id":"ce4bhr92rcd13ifvqhsg","pricing_plan_id":"cebpf4jnsgd1na2vs0mg"},{"bike_id":"a732941c-85bc-42aa-bd93-04ae552d110c","system_id":"levelo_inurba_marseille","lat":43.30802,"lon":5.43523,"is_reserved":false,"is_disabled":false,"rental_uris":{"android":"levelo://app?vid=a732941c-85bc-42aa-bd93-04ae552d110c","ios":"levelo://app?vid=a732941c-85bc-42aa-bd93-04ae552d110c"},"vehicle_type_id":"4","last_reported":1728929548,"current_range_meters":8400,"station_id":"ce4bhph2rcd13ifvqheg","pricing_plan_id":"cebpf4jnsgd1na2vs0mg"},{"bike_id":"b1b7a512-e819-496f-adbf-5792eb3d26b1","system_id":"levelo_inurba_marseille","lat":43.29003,"lon":5.35616,"is_reserved":false,"is_disabled":false,"rental_uris":{"android":"levelo://app?vid=b1b7a512-e819-496f-adbf-5792eb3d26b1","ios":"levelo://app?vid=b1b7a512-e819-496f-adbf-5792eb3d26b1"},"vehicle_type_id":"4","last_reported":1728929548,"current_range_meters":4400,"station_id":"ce4bhb92rcd13ifvqen0","pricing_plan_id":"cebpf4jnsgd1na2vs0mg"},{"bike_id":"0aa24254-1147-4847-8b08-06033f0bb6c7","system_id":"levelo_inurba_marseille","lat":43.33023,"lon":5.39043,"is_reserved":false,"is_disabled":false,"rental_uris":{"android":"levelo://app?vid=0aa24254-1147-4847-8b08-06033f0bb6c7","ios":"levelo://app?vid=0aa24254-1147-4847-8b08-06033f0bb6c7"},"vehicle_type_id":"4","last_reported":1728929548,"current_range_meters":28400,"station_id":"ce4bhr92rcd13ifvqhrg","pricing_plan_id":"cebpf4jnsgd1na2vs0mg"},{"bike_id":"827e2d2e-551f-482b-9290-da4e520182c1","system_id":"levelo_inurba_marseille","lat":43.31125,"lon":5.37777,"is_reserved":false,"is_disabled":false,"rental_uris":{"android":"levelo://app?vid=827e2d2e-551f-482b-9290-da4e520182c1","ios":"levelo://app?vid=827e2d2e-551f-482b-9290-da4e520182c1"},"vehicle_type_id":"4","last_reported":1728929548,"current_range_meters":24000,"station_id":"ce4bgt92rcd13ifvqcg0","pricing_plan_id":"cebpf4jnsgd1na2vs0mg"},{"bike_id":"7509c6f2-a27f-48e3-98e4-3995d3d4f318","system_id":"levelo_inurba_marseille","lat":43.31071,"lon":5.3836,"is_reserved":false,"is_disabled":false,"rental_uris":{"android":"levelo://app?vid=7509c6f2-a27f-48e3-98e4-3995d3d4f318","ios":"levelo://app?vid=7509c6f2-a27f-48e3-98e4-3995d3d4f318"},"vehicle_type_id":"4","last_reported":1728929548,"current_range_meters":27200,"station_id":"ce4bgv92rcd13ifvqcr0","pricing_plan_id":"cebpf4jnsgd1na2vs0mg"},{"bike_id":"b97ac990-8c0e-4aa6-a428-6bf3d623b8ab","system_id":"levelo_inurba_marseille","lat":43.24547,"lon":5.39523,"is_reserved":false,"is_disabled":false,"rental_uris":{"android":"levelo://app?vid=b97ac990-8c0e-4aa6-a428-6bf3d623b8ab","ios":"levelo://app?vid=b97ac990-8c0e-4aa6-a428-6bf3d623b8ab"},"vehicle_type_id":"4","last_reported":1728929548,"current_range_meters":4400,"station_id":"ce4bhlp2rcd13ifvqgjg","pricing_plan_id":"cebpf4jnsgd1na2vs0mg"},{"bike_id":"085e9aa5-494f-4b71-b18b-f7d7ebeab46a","system_id":"levelo_inurba_marseille","lat":43.28846,"lon":5.39313,"is_reserved":false,"is_disabled":false,"rental_uris":{"android":"levelo://app?vid=085e9aa5-494f-4b71-b18b-f7d7ebeab46a","ios":"levelo://app?vid=085e9aa5-494f-4b71-b18b-f7d7ebeab46a"},"vehicle_type_id":"4","last_reported":1728929548,"current_range_meters":17200,"station_id":"ce4bh2p2rcd13ifvqdi0","pricing_plan_id":"cebpf4jnsgd1na2vs0mg"},{"bike_id":"7306f698-d49d-44bc-94bc-25fe8f6e403f","system_id":"levelo_inurba_marseille","lat":43.2952,"lon":5.39045,"is_reserved":false,"is_disabled":false,"rental_uris":{"android":"levelo://app?vid=7306f698-d49d-44bc-94bc-25fe8f6e403f","ios":"levelo://app?vid=7306f698-d49d-44bc-94bc-25fe8f6e403f"},"vehicle_type_id":"4","last_reported":1728929548,"current_range_meters":20000,"station_id":"ce4bh3p2rcd13ifvqdp0","pricing_plan_id":"cebpf4jnsgd1na2vs0mg"},{"bike_id":"96327b61-5898-4e81-9da9-7c10ccdae5c7","system_id":"levelo_inurba_marseille","lat":43.258632,"lon":5.398977,"is_reserved":false,"is_disabled":false,"rental_uris":{"android":"levelo://app?vid=96327b61-5898-4e81-9da9-7c10ccdae5c7","ios":"levelo://app?vid=96327b61-5898-4e81-9da9-7c10ccdae5c7"},"vehicle_type_id":"4","last_reported":1728929548,"current_range_meters":33200,"station_id":"ce4bhl92rcd13ifvqghg","pricing_plan_id":"cebpf4jnsgd1na2vs0mg"},{"bike_id":"b80c714b-6a66-4d5c-832e-bd487c535a72","system_id":"levelo_inurba_marseille","lat":43.31109,"lon":5.38064,"is_reserved":false,"is_disabled":false,"rental_uris":{"android":"levelo://app?vid=b80c714b-6a66-4d5c-832e-bd487c535a72","ios":"levelo://app?vid=b80c714b-6a66-4d5c-832e-bd487c535a72"},"vehicle_type_id":"4","last_reported":1728929548,"current_range_meters":18800,"station_id":"ce4bgt92rcd13ifvqcf0","pricing_plan_id":"cebpf4jnsgd1na2vs0mg"},{"bike_id":"2140b6a3-5118-4150-823e-9225aeb56201","system_id":"levelo_inurba_marseille","lat":43.23193,"lon":5.355488,"is_reserved":false,"is_disabled":false,"rental_uris":{"android":"levelo://app?vid=2140b6a3-5118-4150-823e-9225aeb56201","ios":"levelo://app?vid=2140b6a3-5118-4150-823e-9225aeb56201"},"vehicle_type_id":"4","last_reported":1728929548,"current_range_meters":7200,"station_id":"ce4bhu92rcd13ifvqi70","pricing_plan_id":"cebpf4jnsgd1na2vs0mg"},{"bike_id":"1d9199ca-110c-45dd-9ad8-eb2fc9f35abb","system_id":"levelo_inurba_marseille","lat":43.293,"lon":5.37468,"is_reserved":false,"is_disabled":false,"rental_uris":{"android":"levelo://app?vid=1d9199ca-110c-45dd-9ad8-eb2fc9f35abb","ios":"levelo://app?vid=1d9199ca-110c-45dd-9ad8-eb2fc9f35abb"},"vehicle_type_id":"4","last_reported":1728929548,"current_range_meters":23200,"station_id":"ce4bgi12rcd13ifvqb70","pricing_plan_id":"cebpf4jnsgd1na2vs0mg"},{"bike_id":"0a76a1f0-392f-4c16-9c64-3b5183d6aad9","system_id":"levelo_inurba_marseille","lat":43.23964,"lon":5.36636,"is_reserved":false,"is_disabled":false,"rental_uris":{"android":"levelo://app?vid=0a76a1f0-392f-4c16-9c64-3b5183d6aad9","ios":"levelo://app?vid=0a76a1f0-392f-4c16-9c64-3b5183d6aad9"},"vehicle_type_id":"4","last_reported":1728929548,"current_range_meters":36000,"station_id":"ce4bhi12rcd13ifvqfp0","pricing_plan_id":"cebpf4jnsgd1na2vs0mg"},{"bike_id":"94e36800-0876-449f-ab73-0d327298c706","system_id":"levelo_inurba_marseille","lat":43.31363,"lon":5.38505,"is_reserved":false,"is_disabled":false,"rental_uris":{"android":"levelo://app?vid=94e36800-0876-449f-ab73-0d327298c706","ios":"levelo://app?vid=94e36800-0876-449f-ab73-0d327298c706"},"vehicle_type_id":"4","last_reported":1728929548,"current_range_meters":30000,"station_id":"ce4bgt92rcd13ifvqcf0","pricing_plan_id":"cebpf4jnsgd1na2vs0mg"},{"bike_id":"7eaa335e-af99-4f56-a328-5a2f2385e3f0","system_id":"levelo_inurba_marseille","lat":43.29035,"lon":5.38655,"is_reserved":false,"is_disabled":false,"rental_uris":{"android":"levelo://app?vid=7eaa335e-af99-4f56-a328-5a2f2385e3f0","ios":"levelo://app?vid=7eaa335e-af99-4f56-a328-5a2f2385e3f0"},"vehicle_type_id":"4","last_reported":1728929548,"current_range_meters":38000,"station_id":"ce4bh4p2rcd13ifvqe0g","pricing_plan_id":"cebpf4jnsgd1na2vs0mg"},{"bike_id":"02edf250-0bdc-44d6-9936-04b527fbc30e","system_id":"levelo_inurba_marseille","lat":43.24395,"lon":5.37057,"is_reserved":false,"is_disabled":false,"rental_uris":{"android":"levelo://app?vid=02edf250-0bdc-44d6-9936-04b527fbc30e","ios":"levelo://app?vid=02edf250-0bdc-44d6-9936-04b527fbc30e"},"vehicle_type_id":"4","last_reported":1728929548,"current_range_meters":14800,"station_id":"ce4bhhh2rcd13ifvqfk0","pricing_plan_id":"cebpf4jnsgd1na2vs0mg"},{"bike_id":"78bdb84b-c1ee-4965-b64e-1cd2c42960aa","system_id":"levelo_inurba_marseille","lat":43.26809,"lon":5.40265,"is_reserved":false,"is_disabled":false,"rental_uris":{"android":"levelo://app?vid=78bdb84b-c1ee-4965-b64e-1cd2c42960aa","ios":"levelo://app?vid=78bdb84b-c1ee-4965-b64e-1cd2c42960aa"},"vehicle_type_id":"4","last_reported":1728929548,"current_range_meters":37600,"station_id":"ce501612rcd8frsf0b60","pricing_plan_id":"cebpf4jnsgd1na2vs0mg"},{"bike_id":"de5fb6c9-1629-41d4-994d-0b513290afbf","system_id":"levelo_inurba_marseille","lat":43.30317,"lon":5.40437,"is_reserved":false,"is_disabled":false,"rental_uris":{"android":"levelo://app?vid=de5fb6c9-1629-41d4-994d-0b513290afbf","ios":"levelo://app?vid=de5fb6c9-1629-41d4-994d-0b513290afbf"},"vehicle_type_id":"4","last_reported":1728929548,"current_range_meters":11200,"station_id":"ce4bh012rcd13ifvqd10","pricing_plan_id":"cebpf4jnsgd1na2vs0mg"},{"bike_id":"f39d3468-e77d-41b7-a69c-f82fd065b369","system_id":"levelo_inurba_marseille","lat":43.2721,"lon":5.39187,"is_reserved":false,"is_disabled":false,"rental_uris":{"android":"levelo://app?vid=f39d3468-e77d-41b7-a69c-f82fd065b369","ios":"levelo://app?vid=f39d3468-e77d-41b7-a69c-f82fd065b369"},"vehicle_type_id":"4","last_reported":1728929548,"current_range_meters":38800,"station_id":"ce4bhhp2rcd13ifvqfm0","pricing_plan_id":"cebpf4jnsgd1na2vs0mg"},{"bike_id":"a210394c-e316-4bed-81bd-3697504c3a30","system_id":"levelo_inurba_marseille","lat":43.2926,"lon":5.40911,"is_reserved":false,"is_disabled":false,"rental_uris":{"android":"levelo://app?vid=a210394c-e316-4bed-81bd-3697504c3a30","ios":"levelo://app?vid=a210394c-e316-4bed-81bd-3697504c3a30"},"vehicle_type_id":"4","last_reported":1728929548,"current_range_meters":32400,"station_id":"ce4bh192rcd13ifvqdc0","pricing_plan_id":"cebpf4jnsgd1na2vs0mg"},{"bike_id":"0e95359d-4d2d-408a-b535-7978770db6a6","system_id":"levelo_inurba_marseille","lat":43.29418,"lon":5.38622,"is_reserved":false,"is_disabled":false,"rental_uris":{"android":"levelo://app?vid=0e95359d-4d2d-408a-b535-7978770db6a6","ios":"levelo://app?vid=0e95359d-4d2d-408a-b535-7978770db6a6"},"vehicle_type_id":"4","last_reported":1728929548,"current_range_meters":8000,"station_id":"ce4bh2h2rcd13ifvqdh0","pricing_plan_id":"cebpf4jnsgd1na2vs0mg"},{"bike_id":"1c6aaf64-f8c5-48b5-9f84-de4cbf055946","system_id":"levelo_inurba_marseille","lat":43.29277,"lon":5.368465,"is_reserved":false,"is_disabled":false,"rental_uris":{"android":"levelo://app?vid=1c6aaf64-f8c5-48b5-9f84-de4cbf055946","ios":"levelo://app?vid=1c6aaf64-f8c5-48b5-9f84-de4cbf055946"},"vehicle_type_id":"4","last_reported":1728929548,"current_range_meters":22800,"station_id":"ce4bhbp2rcd13ifvqesg","pricing_plan_id":"cebpf4jnsgd1na2vs0mg"},{"bike_id":"d153668c-31d3-41ad-a7c1-81e8779fdfd0","system_id":"levelo_inurba_marseille","lat":43.30138,"lon":5.39872,"is_reserved":false,"is_disabled":false,"rental_uris":{"android":"levelo://app?vid=d153668c-31d3-41ad-a7c1-81e8779fdfd0","ios":"levelo://app?vid=d153668c-31d3-41ad-a7c1-81e8779fdfd0"},"vehicle_type_id":"4","last_reported":1728929548,"current_range_meters":17600,"station_id":"ce4bh0h2rcd13ifvqd40","pricing_plan_id":"cebpf4jnsgd1na2vs0mg"},{"bike_id":"c6f1c670-56f1-422c-b84d-3a04939da413","system_id":"levelo_inurba_marseille","lat":43.24389,"lon":5.37058,"is_reserved":false,"is_disabled":false,"rental_uris":{"android":"levelo://app?vid=c6f1c670-56f1-422c-b84d-3a04939da413","ios":"levelo://app?vid=c6f1c670-56f1-422c-b84d-3a04939da413"},"vehicle_type_id":"4","last_reported":1728929548,"current_range_meters":28000,"station_id":"ce4bhhh2rcd13ifvqfk0","pricing_plan_id":"cebpf4jnsgd1na2vs0mg"},{"bike_id":"e01e41b6-906b-4d38-bd47-8409331ef9cb","system_id":"levelo_inurba_marseille","lat":43.24167,"lon":5.36402,"is_reserved":false,"is_disabled":false,"rental_uris":{"android":"levelo://app?vid=e01e41b6-906b-4d38-bd47-8409331ef9cb","ios":"levelo://app?vid=e01e41b6-906b-4d38-bd47-8409331ef9cb"},"vehicle_type_id":"4","last_reported":1728929548,"current_range_meters":36800,"station_id":"cpo36qri1sfpv3e86is0","pricing_plan_id":"cebpf4jnsgd1na2vs0mg"},{"bike_id":"0eafdba6-2b03-4430-88b8-4e60c6aa4b07","system_id":"levelo_inurba_marseille","lat":43.30418,"lon":5.41286,"is_reserved":false,"is_disabled":false,"rental_uris":{"android":"levelo://app?vid=0eafdba6-2b03-4430-88b8-4e60c6aa4b07","ios":"levelo://app?vid=0eafdba6-2b03-4430-88b8-4e60c6aa4b07"},"vehicle_type_id":"4","last_reported":1728929548,"current_range_meters":9200,"station_id":"ce4bhop2rcd13ifvqh8g","pricing_plan_id":"cebpf4jnsgd1na2vs0mg"},{"bike_id":"666b92fd-5917-4c46-8d79-fcf8ac21dad5","system_id":"levelo_inurba_marseille","lat":43.28485,"lon":5.38545,"is_reserved":false,"is_disabled":false,"rental_uris":{"android":"levelo://app?vid=666b92fd-5917-4c46-8d79-fcf8ac21dad5","ios":"levelo://app?vid=666b92fd-5917-4c46-8d79-fcf8ac21dad5"},"vehicle_type_id":"4","last_reported":1728929548,"current_range_meters":38800,"station_id":"ce4bh8p2rcd13ifvqeb0","pricing_plan_id":"cebpf4jnsgd1na2vs0mg"},{"bike_id":"5fa385c9-31dc-4a25-97be-ac88aa734055","system_id":"levelo_inurba_marseille","lat":43.33022,"lon":5.39053,"is_reserved":false,"is_disabled":false,"rental_uris":{"android":"levelo://app?vid=5fa385c9-31dc-4a25-97be-ac88aa734055","ios":"levelo://app?vid=5fa385c9-31dc-4a25-97be-ac88aa734055"},"vehicle_type_id":"4","last_reported":1728929548,"current_range_meters":23200,"station_id":"ce4bhr92rcd13ifvqhrg","pricing_plan_id":"cebpf4jnsgd1na2vs0mg"},{"bike_id":"89211ee2-076f-4df3-92bd-cd8885f2e76d","system_id":"levelo_inurba_marseille","lat":43.23191,"lon":5.35557,"is_reserved":false,"is_disabled":false,"rental_uris":{"android":"levelo://app?vid=89211ee2-076f-4df3-92bd-cd8885f2e76d","ios":"levelo://app?vid=89211ee2-076f-4df3-92bd-cd8885f2e76d"},"vehicle_type_id":"4","last_reported":1728929548,"current_range_meters":40000,"station_id":"ce4bhu92rcd13ifvqi70","pricing_plan_id":"cebpf4jnsgd1na2vs0mg"},{"bike_id":"6f108c79-169f-46fd-b08b-6b93e5050ee6","system_id":"levelo_inurba_marseille","lat":43.33728,"lon":5.39203,"is_reserved":false,"is_disabled":false,"rental_uris":{"android":"levelo://app?vid=6f108c79-169f-46fd-b08b-6b93e5050ee6","ios":"levelo://app?vid=6f108c79-169f-46fd-b08b-6b93e5050ee6"},"vehicle_type_id":"4","last_reported":1728929548,"current_range_meters":9600,"station_id":"ce4bhr92rcd13ifvqhsg","pricing_plan_id":"cebpf4jnsgd1na2vs0mg"},{"bike_id":"07d66f84-a01d-40e5-91b4-9bef731fcb95","system_id":"levelo_inurba_marseille","lat":43.29428,"lon":5.38635,"is_reserved":false,"is_disabled":false,"rental_uris":{"android":"levelo://app?vid=07d66f84-a01d-40e5-91b4-9bef731fcb95","ios":"levelo://app?vid=07d66f84-a01d-40e5-91b4-9bef731fcb95"},"vehicle_type_id":"4","last_reported":1728929548,"current_range_meters":38800,"station_id":"ce4bh2h2rcd13ifvqdh0","pricing_plan_id":"cebpf4jnsgd1na2vs0mg"},{"bike_id":"4401e9fe-8fae-4df0-be02-0119e3aeedbd","system_id":"levelo_inurba_marseille","lat":43.33775,"lon":5.3745,"is_reserved":false,"is_disabled":false,"rental_uris":{"android":"levelo://app?vid=4401e9fe-8fae-4df0-be02-0119e3aeedbd","ios":"levelo://app?vid=4401e9fe-8fae-4df0-be02-0119e3aeedbd"},"vehicle_type_id":"4","last_reported":1728929548,"current_range_meters":35600,"station_id":"","pricing_plan_id":"cebpf4jnsgd1na2vs0mg"},{"bike_id":"22327741-809d-4a3f-a1fe-afa9fb26287c","system_id":"levelo_inurba_marseille","lat":43.27979,"lon":5.38749,"is_reserved":false,"is_disabled":false,"rental_uris":{"android":"levelo://app?vid=22327741-809d-4a3f-a1fe-afa9fb26287c","ios":"levelo://app?vid=22327741-809d-4a3f-a1fe-afa9fb26287c"},"vehicle_type_id":"4","last_reported":1728929548,"current_range_meters":19200,"station_id":"ce4bhg12rcd13ifvqf80","pricing_plan_id":"cebpf4jnsgd1na2vs0mg"},{"bike_id":"7407b431-bff5-4398-a903-ce772c985ca2","system_id":"levelo_inurba_marseille","lat":43.24389,"lon":5.37075,"is_reserved":false,"is_disabled":false,"rental_uris":{"android":"levelo://app?vid=7407b431-bff5-4398-a903-ce772c985ca2","ios":"levelo://app?vid=7407b431-bff5-4398-a903-ce772c985ca2"},"vehicle_type_id":"4","last_reported":1728929548,"current_range_meters":23200,"station_id":"ce4bhhh2rcd13ifvqfk0","pricing_plan_id":"cebpf4jnsgd1na2vs0mg"},{"bike_id":"1ffa878e-7475-4e16-bedf-e1edad73f932","system_id":"levelo_inurba_marseille","lat":43.26803,"lon":5.40266,"is_reserved":false,"is_disabled":false,"rental_uris":{"android":"levelo://app?vid=1ffa878e-7475-4e16-bedf-e1edad73f932","ios":"levelo://app?vid=1ffa878e-7475-4e16-bedf-e1edad73f932"},"vehicle_type_id":"4","last_reported":1728929548,"current_range_meters":26800,"station_id":"ce501612rcd8frsf0b60","pricing_plan_id":"cebpf4jnsgd1na2vs0mg"},{"bike_id":"f86c0e4c-e675-4813-89ef-9c087542fa2b","system_id":"levelo_inurba_marseille","lat":43.28449,"lon":5.35886,"is_reserved":false,"is_disabled":false,"rental_uris":{"android":"levelo://app?vid=f86c0e4c-e675-4813-89ef-9c087542fa2b","ios":"levelo://app?vid=f86c0e4c-e675-4813-89ef-9c087542fa2b"},"vehicle_type_id":"4","last_reported":1728929548,"current_range_meters":6000,"station_id":"ce4bhah2rcd13ifvqei0","pricing_plan_id":"cebpf4jnsgd1na2vs0mg"},{"bike_id":"b3325896-9f2e-42e4-bdb2-e06b88cc1115","system_id":"levelo_inurba_marseille","lat":43.27425,"lon":5.39413,"is_reserved":false,"is_disabled":false,"rental_uris":{"android":"levelo://app?vid=b3325896-9f2e-42e4-bdb2-e06b88cc1115","ios":"levelo://app?vid=b3325896-9f2e-42e4-bdb2-e06b88cc1115"},"vehicle_type_id":"4","last_reported":1728929548,"current_range_meters":30000,"station_id":"ce4bhdp2rcd13ifvqf20","pricing_plan_id":"cebpf4jnsgd1na2vs0mg"},{"bike_id":"de9fce36-42d5-4f27-b0a2-d390f9b6b1c9","system_id":"levelo_inurba_marseille","lat":43.25116,"lon":5.40324,"is_reserved":false,"is_disabled":false,"rental_uris":{"android":"levelo://app?vid=de9fce36-42d5-4f27-b0a2-d390f9b6b1c9","ios":"levelo://app?vid=de9fce36-42d5-4f27-b0a2-d390f9b6b1c9"},"vehicle_type_id":"4","last_reported":1728929548,"current_range_meters":14800,"station_id":"ce4bhlh2rcd13ifvqgig","pricing_plan_id":"cebpf4jnsgd1na2vs0mg"},{"bike_id":"747f5242-6bfc-4179-964c-c89b0a8b96aa","system_id":"levelo_inurba_marseille","lat":43.30606,"lon":5.37215,"is_reserved":false,"is_disabled":false,"rental_uris":{"android":"levelo://app?vid=747f5242-6bfc-4179-964c-c89b0a8b96aa","ios":"levelo://app?vid=747f5242-6bfc-4179-964c-c89b0a8b96aa"},"vehicle_type_id":"4","last_reported":1728929548,"current_range_meters":38800,"station_id":"ce4bgqh2rcd13ifvqc4g","pricing_plan_id":"cebpf4jnsgd1na2vs0mg"},{"bike_id":"8eca1db8-c7a5-4c55-a530-7e36502bac8b","system_id":"levelo_inurba_marseille","lat":43.33024,"lon":5.39036,"is_reserved":false,"is_disabled":false,"rental_uris":{"android":"levelo://app?vid=8eca1db8-c7a5-4c55-a530-7e36502bac8b","ios":"levelo://app?vid=8eca1db8-c7a5-4c55-a530-7e36502bac8b"},"vehicle_type_id":"4","last_reported":1728929548,"current_range_meters":30800,"station_id":"ce4bhr92rcd13ifvqhrg","pricing_plan_id":"cebpf4jnsgd1na2vs0mg"},{"bike_id":"7c290627-04de-4467-9c9b-d5a25856590b","system_id":"levelo_inurba_marseille","lat":43.28939,"lon":5.36382,"is_reserved":false,"is_disabled":false,"rental_uris":{"android":"levelo://app?vid=7c290627-04de-4467-9c9b-d5a25856590b","ios":"levelo://app?vid=7c290627-04de-4467-9c9b-d5a25856590b"},"vehicle_type_id":"4","last_reported":1728929548,"current_range_meters":9600,"station_id":"ce4bhc92rcd13ifvqetg","pricing_plan_id":"cebpf4jnsgd1na2vs0mg"},{"bike_id":"3c9a80a7-6d68-4bb8-9474-fe0e2b009cb0","system_id":"levelo_inurba_marseille","lat":43.31758,"lon":5.3902,"is_reserved":false,"is_disabled":false,"rental_uris":{"android":"levelo://app?vid=3c9a80a7-6d68-4bb8-9474-fe0e2b009cb0","ios":"levelo://app?vid=3c9a80a7-6d68-4bb8-9474-fe0e2b009cb0"},"vehicle_type_id":"4","last_reported":1728929548,"current_range_meters":9200,"station_id":"ce4bhqp2rcd13ifvqhng","pricing_plan_id":"cebpf4jnsgd1na2vs0mg"},{"bike_id":"e3c21e81-f579-407f-a9fb-8a48fbd070d7","system_id":"levelo_inurba_marseille","lat":43.2558,"lon":5.38239,"is_reserved":false,"is_disabled":false,"rental_uris":{"android":"levelo://app?vid=e3c21e81-f579-407f-a9fb-8a48fbd070d7","ios":"levelo://app?vid=e3c21e81-f579-407f-a9fb-8a48fbd070d7"},"vehicle_type_id":"4","last_reported":1728929548,"current_range_meters":6400,"station_id":"ce4bhih2rcd13ifvqfs0","pricing_plan_id":"cebpf4jnsgd1na2vs0mg"},{"bike_id":"ff96eee3-1ac8-4888-9ae7-e4b6cc8154af","system_id":"levelo_inurba_marseille","lat":43.33739,"lon":5.3746,"is_reserved":false,"is_disabled":false,"rental_uris":{"android":"levelo://app?vid=ff96eee3-1ac8-4888-9ae7-e4b6cc8154af","ios":"levelo://app?vid=ff96eee3-1ac8-4888-9ae7-e4b6cc8154af"},"vehicle_type_id":"4","last_reported":1728929548,"current_range_meters":37600,"station_id":"","pricing_plan_id":"cebpf4jnsgd1na2vs0mg"},{"bike_id":"9ea5018b-5344-41e5-bc7c-c6f703a700db","system_id":"levelo_inurba_marseille","lat":43.28003,"lon":5.40018,"is_reserved":false,"is_disabled":false,"rental_uris":{"android":"levelo://app?vid=9ea5018b-5344-41e5-bc7c-c6f703a700db","ios":"levelo://app?vid=9ea5018b-5344-41e5-bc7c-c6f703a700db"},"vehicle_type_id":"4","last_reported":1728929548,"current_range_meters":27600,"station_id":"ce4bho92rcd13ifvqh4g","pricing_plan_id":"cebpf4jnsgd1na2vs0mg"},{"bike_id":"6a0e4dba-bb4c-42e4-ab78-31811238e8fc","system_id":"levelo_inurba_marseille","lat":43.29533,"lon":5.38551,"is_reserved":false,"is_disabled":false,"rental_uris":{"android":"levelo://app?vid=6a0e4dba-bb4c-42e4-ab78-31811238e8fc","ios":"levelo://app?vid=6a0e4dba-bb4c-42e4-ab78-31811238e8fc"},"vehicle_type_id":"4","last_reported":1728929548,"current_range_meters":8000,"station_id":"ce4bgih2rcd13ifvqba0","pricing_plan_id":"cebpf4jnsgd1na2vs0mg"},{"bike_id":"855cd581-ad5b-42f0-baf6-5824858fbcdd","system_id":"levelo_inurba_marseille","lat":43.28936,"lon":5.36633,"is_reserved":false,"is_disabled":false,"rental_uris":{"android":"levelo://app?vid=855cd581-ad5b-42f0-baf6-5824858fbcdd","ios":"levelo://app?vid=855cd581-ad5b-42f0-baf6-5824858fbcdd"},"vehicle_type_id":"4","last_reported":1728929548,"current_range_meters":35600,"station_id":"ce4bhap2rcd13ifvqek0","pricing_plan_id":"cebpf4jnsgd1na2vs0mg"},{"bike_id":"c50c599b-7eb4-4ae0-bc1f-a366e21ec0ac","system_id":"levelo_inurba_marseille","lat":43.33026,"lon":5.3904,"is_reserved":false,"is_disabled":false,"rental_uris":{"android":"levelo://app?vid=c50c599b-7eb4-4ae0-bc1f-a366e21ec0ac","ios":"levelo://app?vid=c50c599b-7eb4-4ae0-bc1f-a366e21ec0ac"},"vehicle_type_id":"4","last_reported":1728929548,"current_range_meters":38000,"station_id":"ce4bhr92rcd13ifvqhrg","pricing_plan_id":"cebpf4jnsgd1na2vs0mg"},{"bike_id":"4e65694f-00d8-44f2-9aaf-8930e2be5a38","system_id":"levelo_inurba_marseille","lat":43.28862,"lon":5.35847,"is_reserved":false,"is_disabled":false,"rental_uris":{"android":"levelo://app?vid=4e65694f-00d8-44f2-9aaf-8930e2be5a38","ios":"levelo://app?vid=4e65694f-00d8-44f2-9aaf-8930e2be5a38"},"vehicle_type_id":"4","last_reported":1728929548,"current_range_meters":10000,"station_id":"ce4bhb12rcd13ifvqem0","pricing_plan_id":"cebpf4jnsgd1na2vs0mg"},{"bike_id":"852c7b96-8992-40aa-8d66-79f89b281326","system_id":"levelo_inurba_marseille","lat":43.291987,"lon":5.357983,"is_reserved":false,"is_disabled":false,"rental_uris":{"android":"levelo://app?vid=852c7b96-8992-40aa-8d66-79f89b281326","ios":"levelo://app?vid=852c7b96-8992-40aa-8d66-79f89b281326"},"vehicle_type_id":"4","last_reported":1728929548,"current_range_meters":14800,"station_id":"ce4bhb12rcd13ifvqel0","pricing_plan_id":"cebpf4jnsgd1na2vs0mg"},{"bike_id":"36a5d3da-1eed-4fff-9fd7-9ae5da8b0d0e","system_id":"levelo_inurba_marseille","lat":43.28456,"lon":5.35893,"is_reserved":false,"is_disabled":false,"rental_uris":{"android":"levelo://app?vid=36a5d3da-1eed-4fff-9fd7-9ae5da8b0d0e","ios":"levelo://app?vid=36a5d3da-1eed-4fff-9fd7-9ae5da8b0d0e"},"vehicle_type_id":"4","last_reported":1728929548,"current_range_meters":16800,"station_id":"ce4bhah2rcd13ifvqei0","pricing_plan_id":"cebpf4jnsgd1na2vs0mg"},{"bike_id":"124fe4c8-d877-453b-88bd-af8d62d24653","system_id":"levelo_inurba_marseille","lat":43.2465,"lon":5.389,"is_reserved":false,"is_disabled":false,"rental_uris":{"android":"levelo://app?vid=124fe4c8-d877-453b-88bd-af8d62d24653","ios":"levelo://app?vid=124fe4c8-d877-453b-88bd-af8d62d24653"},"vehicle_type_id":"4","last_reported":1728929548,"current_range_meters":9600,"station_id":"ce4bhg12rcd13ifvqf60","pricing_plan_id":"cebpf4jnsgd1na2vs0mg"},{"bike_id":"360576db-9731-42d5-a524-b430f6101b3b","system_id":"levelo_inurba_marseille","lat":43.30883,"lon":5.37204,"is_reserved":false,"is_disabled":false,"rental_uris":{"android":"levelo://app?vid=360576db-9731-42d5-a524-b430f6101b3b","ios":"levelo://app?vid=360576db-9731-42d5-a524-b430f6101b3b"},"vehicle_type_id":"4","last_reported":1728929548,"current_range_meters":26000,"station_id":"ce4bguh2rcd13ifvqckg","pricing_plan_id":"cebpf4jnsgd1na2vs0mg"},{"bike_id":"f57f4d6f-75e3-40c2-8b37-fd35a15bf7ea","system_id":"levelo_inurba_marseille","lat":43.28102,"lon":5.37842,"is_reserved":false,"is_disabled":false,"rental_uris":{"android":"levelo://app?vid=f57f4d6f-75e3-40c2-8b37-fd35a15bf7ea","ios":"levelo://app?vid=f57f4d6f-75e3-40c2-8b37-fd35a15bf7ea"},"vehicle_type_id":"4","last_reported":1728929548,"current_range_meters":24800,"station_id":"ce4bha12rcd13ifvqee0","pricing_plan_id":"cebpf4jnsgd1na2vs0mg"},{"bike_id":"8bf5b36e-884a-4ead-a687-4aeaa5d33435","system_id":"levelo_inurba_marseille","lat":43.25871,"lon":5.39905,"is_reserved":false,"is_disabled":false,"rental_uris":{"android":"levelo://app?vid=8bf5b36e-884a-4ead-a687-4aeaa5d33435","ios":"levelo://app?vid=8bf5b36e-884a-4ead-a687-4aeaa5d33435"},"vehicle_type_id":"4","last_reported":1728929548,"current_range_meters":40000,"station_id":"ce4bhl92rcd13ifvqghg","pricing_plan_id":"cebpf4jnsgd1na2vs0mg"},{"bike_id":"6678ec82-06cf-4acb-a793-22ee18900348","system_id":"levelo_inurba_marseille","lat":43.27995,"lon":5.41667,"is_reserved":false,"is_disabled":false,"rental_uris":{"android":"levelo://app?vid=6678ec82-06cf-4acb-a793-22ee18900348","ios":"levelo://app?vid=6678ec82-06cf-4acb-a793-22ee18900348"},"vehicle_type_id":"4","last_reported":1728929548,"current_range_meters":3200,"station_id":"ce4bho12rcd13ifvqh1g","pricing_plan_id":"cebpf4jnsgd1na2vs0mg"},{"bike_id":"e55ce7e2-8e60-47b5-844e-977029bd08ba","system_id":"levelo_inurba_marseille","lat":43.29555,"lon":5.42288,"is_reserved":false,"is_disabled":false,"rental_uris":{"android":"levelo://app?vid=e55ce7e2-8e60-47b5-844e-977029bd08ba","ios":"levelo://app?vid=e55ce7e2-8e60-47b5-844e-977029bd08ba"},"vehicle_type_id":"4","last_reported":1728929548,"current_range_meters":39200,"station_id":"ce4bhph2rcd13ifvqhdg","pricing_plan_id":"cebpf4jnsgd1na2vs0mg"},{"bike_id":"07d70820-54c8-485a-b04b-017096cc6e14","system_id":"levelo_inurba_marseille","lat":43.33023,"lon":5.39041,"is_reserved":false,"is_disabled":false,"rental_uris":{"android":"levelo://app?vid=07d70820-54c8-485a-b04b-017096cc6e14","ios":"levelo://app?vid=07d70820-54c8-485a-b04b-017096cc6e14"},"vehicle_type_id":"4","last_reported":1728929548,"current_range_meters":38800,"station_id":"ce4bhr92rcd13ifvqhrg","pricing_plan_id":"cebpf4jnsgd1na2vs0mg"},{"bike_id":"292b9425-1372-40d4-bf0a-fe57aa779a41","system_id":"levelo_inurba_marseille","lat":43.23058,"lon":5.35495,"is_reserved":false,"is_disabled":false,"rental_uris":{"android":"levelo://app?vid=292b9425-1372-40d4-bf0a-fe57aa779a41","ios":"levelo://app?vid=292b9425-1372-40d4-bf0a-fe57aa779a41"},"vehicle_type_id":"4","last_reported":1728929548,"current_range_meters":36800,"station_id":"cpo3342slgdg3j2ifvpg","pricing_plan_id":"cebpf4jnsgd1na2vs0mg"},{"bike_id":"6dba08da-54a1-4d59-b230-f3753f15200e","system_id":"levelo_inurba_marseille","lat":43.28366,"lon":5.38654,"is_reserved":false,"is_disabled":false,"rental_uris":{"android":"levelo://app?vid=6dba08da-54a1-4d59-b230-f3753f15200e","ios":"levelo://app?vid=6dba08da-54a1-4d59-b230-f3753f15200e"},"vehicle_type_id":"4","last_reported":1728929548,"current_range_meters":38800,"station_id":"ce4bh492rcd13ifvqdvg","pricing_plan_id":"cebpf4jnsgd1na2vs0mg"},{"bike_id":"a83e231b-1db5-47b3-a8e1-d65a119fa15a","system_id":"levelo_inurba_marseille","lat":43.27671,"lon":5.38908,"is_reserved":false,"is_disabled":false,"rental_uris":{"android":"levelo://app?vid=a83e231b-1db5-47b3-a8e1-d65a119fa15a","ios":"levelo://app?vid=a83e231b-1db5-47b3-a8e1-d65a119fa15a"},"vehicle_type_id":"4","last_reported":1728929548,"current_range_meters":20400,"station_id":"ce4bhi12rcd13ifvqfo0","pricing_plan_id":"cebpf4jnsgd1na2vs0mg"},{"bike_id":"96b4510d-2fdb-4925-883b-1996a809b1ab","system_id":"levelo_inurba_marseille","lat":43.29316,"lon":5.37186,"is_reserved":false,"is_disabled":false,"rental_uris":{"android":"levelo://app?vid=96b4510d-2fdb-4925-883b-1996a809b1ab","ios":"levelo://app?vid=96b4510d-2fdb-4925-883b-1996a809b1ab"},"vehicle_type_id":"4","last_reported":1728929548,"current_range_meters":28000,"station_id":"ce4bgh92rcd13ifvqb40","pricing_plan_id":"cebpf4jnsgd1na2vs0mg"},{"bike_id":"f9431acc-4158-4e63-bbe0-7544277cc35e","system_id":"levelo_inurba_marseille","lat":43.29032,"lon":5.37567,"is_reserved":false,"is_disabled":false,"rental_uris":{"android":"levelo://app?vid=f9431acc-4158-4e63-bbe0-7544277cc35e","ios":"levelo://app?vid=f9431acc-4158-4e63-bbe0-7544277cc35e"},"vehicle_type_id":"4","last_reported":1728929548,"current_range_meters":30000,"station_id":"ce4bh692rcd13ifvqe90","pricing_plan_id":"cebpf4jnsgd1na2vs0mg"},{"bike_id":"e42a5c5b-19d2-48bc-8dfc-c8514ef28621","system_id":"levelo_inurba_marseille","lat":43.24167,"lon":5.36407,"is_reserved":false,"is_disabled":false,"rental_uris":{"android":"levelo://app?vid=e42a5c5b-19d2-48bc-8dfc-c8514ef28621","ios":"levelo://app?vid=e42a5c5b-19d2-48bc-8dfc-c8514ef28621"},"vehicle_type_id":"4","last_reported":1728929548,"current_range_meters":28800,"station_id":"cpo36qri1sfpv3e86is0","pricing_plan_id":"cebpf4jnsgd1na2vs0mg"},{"bike_id":"b7942792-0691-4f01-b0df-ce905b8c6fe3","system_id":"levelo_inurba_marseille","lat":43.29533,"lon":5.38551,"is_reserved":false,"is_disabled":false,"rental_uris":{"android":"levelo://app?vid=b7942792-0691-4f01-b0df-ce905b8c6fe3","ios":"levelo://app?vid=b7942792-0691-4f01-b0df-ce905b8c6fe3"},"vehicle_type_id":"4","last_reported":1728929548,"current_range_meters":8400,"station_id":"ce4bgih2rcd13ifvqba0","pricing_plan_id":"cebpf4jnsgd1na2vs0mg"},{"bike_id":"b06fad3a-c976-49a7-9eef-73d7ba88f78c","system_id":"levelo_inurba_marseille","lat":43.29201,"lon":5.358,"is_reserved":false,"is_disabled":false,"rental_uris":{"android":"levelo://app?vid=b06fad3a-c976-49a7-9eef-73d7ba88f78c","ios":"levelo://app?vid=b06fad3a-c976-49a7-9eef-73d7ba88f78c"},"vehicle_type_id":"4","last_reported":1728929548,"current_range_meters":23200,"station_id":"ce4bhb12rcd13ifvqel0","pricing_plan_id":"cebpf4jnsgd1na2vs0mg"},{"bike_id":"0262a9fe-feca-45d9-bcc5-0db5cd20149e","system_id":"levelo_inurba_marseille","lat":43.30997,"lon":5.40084,"is_reserved":false,"is_disabled":false,"rental_uris":{"android":"levelo://app?vid=0262a9fe-feca-45d9-bcc5-0db5cd20149e","ios":"levelo://app?vid=0262a9fe-feca-45d9-bcc5-0db5cd20149e"},"vehicle_type_id":"4","last_reported":1728929548,"current_range_meters":19200,"station_id":"ce4bh092rcd13ifvqd30","pricing_plan_id":"cebpf4jnsgd1na2vs0mg"},{"bike_id":"339289c4-7b38-4d77-815f-139b6ca78fd9","system_id":"levelo_inurba_marseille","lat":43.291931,"lon":5.358038,"is_reserved":false,"is_disabled":false,"rental_uris":{"android":"levelo://app?vid=339289c4-7b38-4d77-815f-139b6ca78fd9","ios":"levelo://app?vid=339289c4-7b38-4d77-815f-139b6ca78fd9"},"vehicle_type_id":"4","last_reported":1728929548,"current_range_meters":22800,"station_id":"ce4bhb12rcd13ifvqel0","pricing_plan_id":"cebpf4jnsgd1na2vs0mg"},{"bike_id":"e2269ceb-628a-46bc-99be-000f6b18d412","system_id":"levelo_inurba_marseille","lat":43.30207,"lon":5.39465,"is_reserved":false,"is_disabled":false,"rental_uris":{"android":"levelo://app?vid=e2269ceb-628a-46bc-99be-000f6b18d412","ios":"levelo://app?vid=e2269ceb-628a-46bc-99be-000f6b18d412"},"vehicle_type_id":"4","last_reported":1728929548,"current_range_meters":36000,"station_id":"ce4bh0p2rcd13ifvqd70","pricing_plan_id":"cebpf4jnsgd1na2vs0mg"},{"bike_id":"d06f24f3-1961-4c39-8b26-c72733863fe9","system_id":"levelo_inurba_marseille","lat":43.33781,"lon":5.37443,"is_reserved":false,"is_disabled":false,"rental_uris":{"android":"levelo://app?vid=d06f24f3-1961-4c39-8b26-c72733863fe9","ios":"levelo://app?vid=d06f24f3-1961-4c39-8b26-c72733863fe9"},"vehicle_type_id":"4","last_reported":1728929548,"current_range_meters":28000,"station_id":"","pricing_plan_id":"cebpf4jnsgd1na2vs0mg"},{"bike_id":"2da6aa54-ad0c-484f-8279-5aac8ad1d94b","system_id":"levelo_inurba_marseille","lat":43.31718,"lon":5.42397,"is_reserved":false,"is_disabled":false,"rental_uris":{"android":"levelo://app?vid=2da6aa54-ad0c-484f-8279-5aac8ad1d94b","ios":"levelo://app?vid=2da6aa54-ad0c-484f-8279-5aac8ad1d94b"},"vehicle_type_id":"4","last_reported":1728929548,"current_range_meters":38000,"station_id":"ce4bhp92rcd13ifvqhbg","pricing_plan_id":"cebpf4jnsgd1na2vs0mg"},{"bike_id":"12923c04-e310-48e8-8b54-ad6d6534c662","system_id":"levelo_inurba_marseille","lat":43.2917,"lon":5.37148,"is_reserved":false,"is_disabled":false,"rental_uris":{"android":"levelo://app?vid=12923c04-e310-48e8-8b54-ad6d6534c662","ios":"levelo://app?vid=12923c04-e310-48e8-8b54-ad6d6534c662"},"vehicle_type_id":"4","last_reported":1728929548,"current_range_meters":38800,"station_id":"ce4bha92rcd13ifvqeh0","pricing_plan_id":"cebpf4jnsgd1na2vs0mg"},{"bike_id":"59801407-972f-4a36-807e-85d5772337bc","system_id":"levelo_inurba_marseille","lat":43.28081,"lon":5.39672,"is_reserved":false,"is_disabled":false,"rental_uris":{"android":"levelo://app?vid=59801407-972f-4a36-807e-85d5772337bc","ios":"levelo://app?vid=59801407-972f-4a36-807e-85d5772337bc"},"vehicle_type_id":"4","last_reported":1728929548,"current_range_meters":19200,"station_id":"ce4bho12rcd13ifvqh2g","pricing_plan_id":"cebpf4jnsgd1na2vs0mg"},{"bike_id":"de55ef64-fd38-455a-b0e1-1ae601486694","system_id":"levelo_inurba_marseille","lat":43.28467,"lon":5.359,"is_reserved":false,"is_disabled":false,"rental_uris":{"android":"levelo://app?vid=de55ef64-fd38-455a-b0e1-1ae601486694","ios":"levelo://app?vid=de55ef64-fd38-455a-b0e1-1ae601486694"},"vehicle_type_id":"4","last_reported":1728929548,"current_range_meters":30000,"station_id":"ce4bhah2rcd13ifvqei0","pricing_plan_id":"cebpf4jnsgd1na2vs0mg"},{"bike_id":"d41309ab-1a1f-4395-acaa-455483c3f8e1","system_id":"levelo_inurba_marseille","lat":43.23201,"lon":5.35554,"is_reserved":false,"is_disabled":false,"rental_uris":{"android":"levelo://app?vid=d41309ab-1a1f-4395-acaa-455483c3f8e1","ios":"levelo://app?vid=d41309ab-1a1f-4395-acaa-455483c3f8e1"},"vehicle_type_id":"4","last_reported":1728929548,"current_range_meters":37600,"station_id":"ce4bhu92rcd13ifvqi70","pricing_plan_id":"cebpf4jnsgd1na2vs0mg"},{"bike_id":"8e685304-684e-4947-8a35-51cf59d0c0ab","system_id":"levelo_inurba_marseille","lat":43.2439,"lon":5.37065,"is_reserved":false,"is_disabled":false,"rental_uris":{"android":"levelo://app?vid=8e685304-684e-4947-8a35-51cf59d0c0ab","ios":"levelo://app?vid=8e685304-684e-4947-8a35-51cf59d0c0ab"},"vehicle_type_id":"4","last_reported":1728929548,"current_range_meters":23200,"station_id":"ce4bhhh2rcd13ifvqfk0","pricing_plan_id":"cebpf4jnsgd1na2vs0mg"},{"bike_id":"eaedc49c-645c-4444-a4d2-8456bbc17d70","system_id":"levelo_inurba_marseille","lat":43.299,"lon":5.43665,"is_reserved":false,"is_disabled":false,"rental_uris":{"android":"levelo://app?vid=eaedc49c-645c-4444-a4d2-8456bbc17d70","ios":"levelo://app?vid=eaedc49c-645c-4444-a4d2-8456bbc17d70"},"vehicle_type_id":"4","last_reported":1728929548,"current_range_meters":16800,"station_id":"ce4bhpp2rcd13ifvqhfg","pricing_plan_id":"cebpf4jnsgd1na2vs0mg"},{"bike_id":"20cf49f9-1944-454b-98be-038481d3426a","system_id":"levelo_inurba_marseille","lat":43.32487,"lon":5.36572,"is_reserved":false,"is_disabled":false,"rental_uris":{"android":"levelo://app?vid=20cf49f9-1944-454b-98be-038481d3426a","ios":"levelo://app?vid=20cf49f9-1944-454b-98be-038481d3426a"},"vehicle_type_id":"4","last_reported":1728929548,"current_range_meters":20400,"station_id":"ce4bhs12rcd13ifvqhvg","pricing_plan_id":"cebpf4jnsgd1na2vs0mg"},{"bike_id":"841fb6f8-2296-487b-9f27-17f776d3e1ac","system_id":"levelo_inurba_marseille","lat":43.2417,"lon":5.39752,"is_reserved":false,"is_disabled":false,"rental_uris":{"android":"levelo://app?vid=841fb6f8-2296-487b-9f27-17f776d3e1ac","ios":"levelo://app?vid=841fb6f8-2296-487b-9f27-17f776d3e1ac"},"vehicle_type_id":"4","last_reported":1728929548,"current_range_meters":2800,"station_id":"ce4bhn12rcd13ifvqgpg","pricing_plan_id":"cebpf4jnsgd1na2vs0mg"},{"bike_id":"70c95378-a25a-4142-a216-c8b3cf7fb134","system_id":"levelo_inurba_marseille","lat":43.26064,"lon":5.39405,"is_reserved":false,"is_disabled":false,"rental_uris":{"android":"levelo://app?vid=70c95378-a25a-4142-a216-c8b3cf7fb134","ios":"levelo://app?vid=70c95378-a25a-4142-a216-c8b3cf7fb134"},"vehicle_type_id":"4","last_reported":1728929548,"current_range_meters":33600,"station_id":"ce4bhh92rcd13ifvqfj0","pricing_plan_id":"cebpf4jnsgd1na2vs0mg"},{"bike_id":"69b09ac4-905b-4dfb-80eb-2afebc7708ea","system_id":"levelo_inurba_marseille","lat":43.27827,"lon":5.39199,"is_reserved":false,"is_disabled":false,"rental_uris":{"android":"levelo://app?vid=69b09ac4-905b-4dfb-80eb-2afebc7708ea","ios":"levelo://app?vid=69b09ac4-905b-4dfb-80eb-2afebc7708ea"},"vehicle_type_id":"4","last_reported":1728929548,"current_range_meters":30800,"station_id":"ce4bhjp2rcd13ifvqga0","pricing_plan_id":"cebpf4jnsgd1na2vs0mg"},{"bike_id":"f33ca04e-0fdd-4816-b4fc-80bcd342b78a","system_id":"levelo_inurba_marseille","lat":43.29555,"lon":5.42288,"is_reserved":false,"is_disabled":false,"rental_uris":{"android":"levelo://app?vid=f33ca04e-0fdd-4816-b4fc-80bcd342b78a","ios":"levelo://app?vid=f33ca04e-0fdd-4816-b4fc-80bcd342b78a"},"vehicle_type_id":"4","last_reported":1728929548,"current_range_meters":7200,"station_id":"ce4bhph2rcd13ifvqhdg","pricing_plan_id":"cebpf4jnsgd1na2vs0mg"},{"bike_id":"92abd203-a3b3-44c8-b284-849151100775","system_id":"levelo_inurba_marseille","lat":43.2781,"lon":5.40722,"is_reserved":false,"is_disabled":false,"rental_uris":{"android":"levelo://app?vid=92abd203-a3b3-44c8-b284-849151100775","ios":"levelo://app?vid=92abd203-a3b3-44c8-b284-849151100775"},"vehicle_type_id":"4","last_reported":1728929548,"current_range_meters":38000,"station_id":"ce4bhnh2rcd13ifvqgtg","pricing_plan_id":"cebpf4jnsgd1na2vs0mg"},{"bike_id":"925b32c9-dce1-463a-8b78-24054e090a7e","system_id":"levelo_inurba_marseille","lat":43.28437,"lon":5.39194,"is_reserved":false,"is_disabled":false,"rental_uris":{"android":"levelo://app?vid=925b32c9-dce1-463a-8b78-24054e090a7e","ios":"levelo://app?vid=925b32c9-dce1-463a-8b78-24054e090a7e"},"vehicle_type_id":"4","last_reported":1728929548,"current_range_meters":22400,"station_id":"ce4bhoh2rcd13ifvqh5g","pricing_plan_id":"cebpf4jnsgd1na2vs0mg"},{"bike_id":"c7592558-a7e3-4c08-8758-a05c5369dc74","system_id":"levelo_inurba_marseille","lat":43.29023,"lon":5.38137,"is_reserved":false,"is_disabled":false,"rental_uris":{"android":"levelo://app?vid=c7592558-a7e3-4c08-8758-a05c5369dc74","ios":"levelo://app?vid=c7592558-a7e3-4c08-8758-a05c5369dc74"},"vehicle_type_id":"4","last_reported":1728929548,"current_range_meters":33600,"station_id":"ce4bh4p2rcd13ifvqe1g","pricing_plan_id":"cebpf4jnsgd1na2vs0mg"},{"bike_id":"3b95cb80-dbf5-4911-8f54-b8818843c02b","system_id":"levelo_inurba_marseille","lat":43.33022,"lon":5.39039,"is_reserved":false,"is_disabled":false,"rental_uris":{"android":"levelo://app?vid=3b95cb80-dbf5-4911-8f54-b8818843c02b","ios":"levelo://app?vid=3b95cb80-dbf5-4911-8f54-b8818843c02b"},"vehicle_type_id":"4","last_reported":1728929548,"current_range_meters":38800,"station_id":"ce4bhr92rcd13ifvqhrg","pricing_plan_id":"cebpf4jnsgd1na2vs0mg"},{"bike_id":"08cda9f4-14d4-4953-8150-c20d25e6b7f1","system_id":"levelo_inurba_marseille","lat":43.29712,"lon":5.36616,"is_reserved":false,"is_disabled":false,"rental_uris":{"android":"levelo://app?vid=08cda9f4-14d4-4953-8150-c20d25e6b7f1","ios":"levelo://app?vid=08cda9f4-14d4-4953-8150-c20d25e6b7f1"},"vehicle_type_id":"4","last_reported":1728929548,"current_range_meters":27200,"station_id":"ce4bgn12rcd13ifvqbt0","pricing_plan_id":"cebpf4jnsgd1na2vs0mg"},{"bike_id":"1af2813b-98a0-4b62-aaf8-89652b30f639","system_id":"levelo_inurba_marseille","lat":43.22936,"lon":5.35378,"is_reserved":false,"is_disabled":false,"rental_uris":{"android":"levelo://app?vid=1af2813b-98a0-4b62-aaf8-89652b30f639","ios":"levelo://app?vid=1af2813b-98a0-4b62-aaf8-89652b30f639"},"vehicle_type_id":"4","last_reported":1728929548,"current_range_meters":35200,"station_id":"cpo3532slgdg3j2ikp40","pricing_plan_id":"cebpf4jnsgd1na2vs0mg"},{"bike_id":"924dcebd-6f14-4b48-bdd9-71b7ecd3af87","system_id":"levelo_inurba_marseille","lat":43.27926,"lon":5.39582,"is_reserved":false,"is_disabled":false,"rental_uris":{"android":"levelo://app?vid=924dcebd-6f14-4b48-bdd9-71b7ecd3af87","ios":"levelo://app?vid=924dcebd-6f14-4b48-bdd9-71b7ecd3af87"},"vehicle_type_id":"4","last_reported":1728929548,"current_range_meters":38800,"station_id":"ce4bhf92rcd13ifvqf40","pricing_plan_id":"cebpf4jnsgd1na2vs0mg"},{"bike_id":"f93454e1-a669-4c63-a4ca-b572042c7971","system_id":"levelo_inurba_marseille","lat":43.23192,"lon":5.35559,"is_reserved":false,"is_disabled":false,"rental_uris":{"android":"levelo://app?vid=f93454e1-a669-4c63-a4ca-b572042c7971","ios":"levelo://app?vid=f93454e1-a669-4c63-a4ca-b572042c7971"},"vehicle_type_id":"4","last_reported":1728929548,"current_range_meters":29600,"station_id":"ce4bhu92rcd13ifvqi70","pricing_plan_id":"cebpf4jnsgd1na2vs0mg"},{"bike_id":"2f5ff739-6d41-4f2c-929d-ed4311b1c92d","system_id":"levelo_inurba_marseille","lat":43.29895,"lon":5.43668,"is_reserved":false,"is_disabled":false,"rental_uris":{"android":"levelo://app?vid=2f5ff739-6d41-4f2c-929d-ed4311b1c92d","ios":"levelo://app?vid=2f5ff739-6d41-4f2c-929d-ed4311b1c92d"},"vehicle_type_id":"4","last_reported":1728929548,"current_range_meters":25200,"station_id":"ce4bhpp2rcd13ifvqhfg","pricing_plan_id":"cebpf4jnsgd1na2vs0mg"},{"bike_id":"1420b767-7d1b-4c8e-abc0-b682cc188332","system_id":"levelo_inurba_marseille","lat":43.27811,"lon":5.40716,"is_reserved":false,"is_disabled":false,"rental_uris":{"android":"levelo://app?vid=1420b767-7d1b-4c8e-abc0-b682cc188332","ios":"levelo://app?vid=1420b767-7d1b-4c8e-abc0-b682cc188332"},"vehicle_type_id":"4","last_reported":1728929548,"current_range_meters":10800,"station_id":"ce4bhnh2rcd13ifvqgtg","pricing_plan_id":"cebpf4jnsgd1na2vs0mg"},{"bike_id":"95dd915c-8394-40fe-898a-55a99e68a03b","system_id":"levelo_inurba_marseille","lat":43.27335,"lon":5.39084,"is_reserved":false,"is_disabled":false,"rental_uris":{"android":"levelo://app?vid=95dd915c-8394-40fe-898a-55a99e68a03b","ios":"levelo://app?vid=95dd915c-8394-40fe-898a-55a99e68a03b"},"vehicle_type_id":"4","last_reported":1728929548,"current_range_meters":37600,"station_id":"ce4bhgp2rcd13ifvqfe0","pricing_plan_id":"cebpf4jnsgd1na2vs0mg"},{"bike_id":"14cc93c0-0cd6-4a72-bdcd-21ecbb392f01","system_id":"levelo_inurba_marseille","lat":43.30307,"lon":5.39213,"is_reserved":false,"is_disabled":false,"rental_uris":{"android":"levelo://app?vid=14cc93c0-0cd6-4a72-bdcd-21ecbb392f01","ios":"levelo://app?vid=14cc93c0-0cd6-4a72-bdcd-21ecbb392f01"},"vehicle_type_id":"4","last_reported":1728929548,"current_range_meters":11200,"station_id":"ce4bgkh2rcd13ifvqbk0","pricing_plan_id":"cebpf4jnsgd1na2vs0mg"},{"bike_id":"8df94bb5-9315-45f7-aecb-13efe2780616","system_id":"levelo_inurba_marseille","lat":43.31329,"lon":5.39684,"is_reserved":false,"is_disabled":false,"rental_uris":{"android":"levelo://app?vid=8df94bb5-9315-45f7-aecb-13efe2780616","ios":"levelo://app?vid=8df94bb5-9315-45f7-aecb-13efe2780616"},"vehicle_type_id":"4","last_reported":1728929548,"current_range_meters":39200,"station_id":"ce4bgvp2rcd13ifvqcu0","pricing_plan_id":"cebpf4jnsgd1na2vs0mg"},{"bike_id":"476ab3bb-9455-4401-9423-faa80f6c98d8","system_id":"levelo_inurba_marseille","lat":43.292,"lon":5.39316,"is_reserved":false,"is_disabled":false,"rental_uris":{"android":"levelo://app?vid=476ab3bb-9455-4401-9423-faa80f6c98d8","ios":"levelo://app?vid=476ab3bb-9455-4401-9423-faa80f6c98d8"},"vehicle_type_id":"4","last_reported":1728929548,"current_range_meters":38800,"station_id":"ce4bh192rcd13ifvqdd0","pricing_plan_id":"cebpf4jnsgd1na2vs0mg"},{"bike_id":"6a344486-14e7-432e-98bf-b8beed8e06c6","system_id":"levelo_inurba_marseille","lat":43.32336,"lon":5.38328,"is_reserved":false,"is_disabled":false,"rental_uris":{"android":"levelo://app?vid=6a344486-14e7-432e-98bf-b8beed8e06c6","ios":"levelo://app?vid=6a344486-14e7-432e-98bf-b8beed8e06c6"},"vehicle_type_id":"4","last_reported":1728929548,"current_range_meters":34000,"station_id":"","pricing_plan_id":"cebpf4jnsgd1na2vs0mg"},{"bike_id":"9b8845d4-eac8-47c1-9fcb-2671037ed195","system_id":"levelo_inurba_marseille","lat":43.31753,"lon":5.39032,"is_reserved":false,"is_disabled":false,"rental_uris":{"android":"levelo://app?vid=9b8845d4-eac8-47c1-9fcb-2671037ed195","ios":"levelo://app?vid=9b8845d4-eac8-47c1-9fcb-2671037ed195"},"vehicle_type_id":"4","last_reported":1728929548,"current_range_meters":8800,"station_id":"ce4bhqp2rcd13ifvqhng","pricing_plan_id":"cebpf4jnsgd1na2vs0mg"},{"bike_id":"8737d77e-94aa-4d13-b525-ee4d321b6691","system_id":"levelo_inurba_marseille","lat":43.2465,"lon":5.38897,"is_reserved":false,"is_disabled":false,"rental_uris":{"android":"levelo://app?vid=8737d77e-94aa-4d13-b525-ee4d321b6691","ios":"levelo://app?vid=8737d77e-94aa-4d13-b525-ee4d321b6691"},"vehicle_type_id":"4","last_reported":1728929548,"current_range_meters":11200,"station_id":"ce4bhg12rcd13ifvqf60","pricing_plan_id":"cebpf4jnsgd1na2vs0mg"},{"bike_id":"3bad0a29-c6b9-4d89-8ff7-850668526b6b","system_id":"levelo_inurba_marseille","lat":43.31379,"lon":5.38495,"is_reserved":false,"is_disabled":false,"rental_uris":{"android":"levelo://app?vid=3bad0a29-c6b9-4d89-8ff7-850668526b6b","ios":"levelo://app?vid=3bad0a29-c6b9-4d89-8ff7-850668526b6b"},"vehicle_type_id":"4","last_reported":1728929548,"current_range_meters":22000,"station_id":"ce4bgt92rcd13ifvqcf0","pricing_plan_id":"cebpf4jnsgd1na2vs0mg"},{"bike_id":"4fe94fb2-31c1-4f69-810f-2301eba419a5","system_id":"levelo_inurba_marseille","lat":43.29206,"lon":5.39323,"is_reserved":false,"is_disabled":false,"rental_uris":{"android":"levelo://app?vid=4fe94fb2-31c1-4f69-810f-2301eba419a5","ios":"levelo://app?vid=4fe94fb2-31c1-4f69-810f-2301eba419a5"},"vehicle_type_id":"4","last_reported":1728929548,"current_range_meters":17600,"station_id":"ce4bh192rcd13ifvqdd0","pricing_plan_id":"cebpf4jnsgd1na2vs0mg"},{"bike_id":"826e67a1-1f1b-48d5-9965-734aa482296d","system_id":"levelo_inurba_marseille","lat":43.30805,"lon":5.43527,"is_reserved":false,"is_disabled":false,"rental_uris":{"android":"levelo://app?vid=826e67a1-1f1b-48d5-9965-734aa482296d","ios":"levelo://app?vid=826e67a1-1f1b-48d5-9965-734aa482296d"},"vehicle_type_id":"4","last_reported":1728929548,"current_range_meters":10800,"station_id":"ce4bhph2rcd13ifvqheg","pricing_plan_id":"cebpf4jnsgd1na2vs0mg"},{"bike_id":"754da881-cbc9-4b35-beb2-51d368048841","system_id":"levelo_inurba_marseille","lat":43.33742,"lon":5.37457,"is_reserved":false,"is_disabled":false,"rental_uris":{"android":"levelo://app?vid=754da881-cbc9-4b35-beb2-51d368048841","ios":"levelo://app?vid=754da881-cbc9-4b35-beb2-51d368048841"},"vehicle_type_id":"4","last_reported":1728929548,"current_range_meters":37600,"station_id":"","pricing_plan_id":"cebpf4jnsgd1na2vs0mg"},{"bike_id":"4ccb61f0-fe9d-45ac-8109-7b4b8e2ed881","system_id":"levelo_inurba_marseille","lat":43.28605,"lon":5.37059,"is_reserved":false,"is_disabled":false,"rental_uris":{"android":"levelo://app?vid=4ccb61f0-fe9d-45ac-8109-7b4b8e2ed881","ios":"levelo://app?vid=4ccb61f0-fe9d-45ac-8109-7b4b8e2ed881"},"vehicle_type_id":"4","last_reported":1728929548,"current_range_meters":19200,"station_id":"ce4bht12rcd13ifvqi60","pricing_plan_id":"cebpf4jnsgd1na2vs0mg"},{"bike_id":"dcd9c2d3-0fb7-41e9-a6a9-4039f2f8d9b8","system_id":"levelo_inurba_marseille","lat":43.22934,"lon":5.35375,"is_reserved":false,"is_disabled":false,"rental_uris":{"android":"levelo://app?vid=dcd9c2d3-0fb7-41e9-a6a9-4039f2f8d9b8","ios":"levelo://app?vid=dcd9c2d3-0fb7-41e9-a6a9-4039f2f8d9b8"},"vehicle_type_id":"4","last_reported":1728929548,"current_range_meters":22400,"station_id":"cpo3532slgdg3j2ikp40","pricing_plan_id":"cebpf4jnsgd1na2vs0mg"},{"bike_id":"80004c0b-1888-4bc4-861c-1bb18fe1efd7","system_id":"levelo_inurba_marseille","lat":43.29554,"lon":5.42293,"is_reserved":false,"is_disabled":false,"rental_uris":{"android":"levelo://app?vid=80004c0b-1888-4bc4-861c-1bb18fe1efd7","ios":"levelo://app?vid=80004c0b-1888-4bc4-861c-1bb18fe1efd7"},"vehicle_type_id":"4","last_reported":1728929548,"current_range_meters":35600,"station_id":"ce4bhph2rcd13ifvqhdg","pricing_plan_id":"cebpf4jnsgd1na2vs0mg"},{"bike_id":"552ef3f0-704a-498c-ae10-da5e2e2c864e","system_id":"levelo_inurba_marseille","lat":43.3133,"lon":5.397,"is_reserved":false,"is_disabled":false,"rental_uris":{"android":"levelo://app?vid=552ef3f0-704a-498c-ae10-da5e2e2c864e","ios":"levelo://app?vid=552ef3f0-704a-498c-ae10-da5e2e2c864e"},"vehicle_type_id":"4","last_reported":1728929548,"current_range_meters":40000,"station_id":"ce4bgvp2rcd13ifvqcu0","pricing_plan_id":"cebpf4jnsgd1na2vs0mg"},{"bike_id":"df4aed1b-317f-4cfc-8330-ad30e350b41b","system_id":"levelo_inurba_marseille","lat":43.29041,"lon":5.38661,"is_reserved":false,"is_disabled":false,"rental_uris":{"android":"levelo://app?vid=df4aed1b-317f-4cfc-8330-ad30e350b41b","ios":"levelo://app?vid=df4aed1b-317f-4cfc-8330-ad30e350b41b"},"vehicle_type_id":"4","last_reported":1728929548,"current_range_meters":27200,"station_id":"ce4bh4p2rcd13ifvqe0g","pricing_plan_id":"cebpf4jnsgd1na2vs0mg"},{"bike_id":"fa5a3ca4-a51c-46c4-bba3-9cfad8525837","system_id":"levelo_inurba_marseille","lat":43.28159,"lon":5.42643,"is_reserved":false,"is_disabled":false,"rental_uris":{"android":"levelo://app?vid=fa5a3ca4-a51c-46c4-bba3-9cfad8525837","ios":"levelo://app?vid=fa5a3ca4-a51c-46c4-bba3-9cfad8525837"},"vehicle_type_id":"4","last_reported":1728929548,"current_range_meters":36000,"station_id":"ce4bhnh2rcd13ifvqgug","pricing_plan_id":"cebpf4jnsgd1na2vs0mg"},{"bike_id":"5d1e5410-1541-4810-b936-ac35687df37c","system_id":"levelo_inurba_marseille","lat":43.27057,"lon":5.40284,"is_reserved":false,"is_disabled":false,"rental_uris":{"android":"levelo://app?vid=5d1e5410-1541-4810-b936-ac35687df37c","ios":"levelo://app?vid=5d1e5410-1541-4810-b936-ac35687df37c"},"vehicle_type_id":"4","last_reported":1728929548,"current_range_meters":23200,"station_id":"ce4bhk92rcd13ifvqgc0","pricing_plan_id":"cebpf4jnsgd1na2vs0mg"},{"bike_id":"90bb1bb0-a1f4-4c67-ae23-c7828fe1c26e","system_id":"levelo_inurba_marseille","lat":43.30101,"lon":5.39075,"is_reserved":false,"is_disabled":false,"rental_uris":{"android":"levelo://app?vid=90bb1bb0-a1f4-4c67-ae23-c7828fe1c26e","ios":"levelo://app?vid=90bb1bb0-a1f4-4c67-ae23-c7828fe1c26e"},"vehicle_type_id":"4","last_reported":1728929548,"current_range_meters":28800,"station_id":"ce4bh192rcd13ifvqdb0","pricing_plan_id":"cebpf4jnsgd1na2vs0mg"},{"bike_id":"bc578eb5-a492-4878-b3b5-f68bb1ab9120","system_id":"levelo_inurba_marseille","lat":43.30952,"lon":5.39029,"is_reserved":false,"is_disabled":false,"rental_uris":{"android":"levelo://app?vid=bc578eb5-a492-4878-b3b5-f68bb1ab9120","ios":"levelo://app?vid=bc578eb5-a492-4878-b3b5-f68bb1ab9120"},"vehicle_type_id":"4","last_reported":1728929548,"current_range_meters":38800,"station_id":"ce4bgup2rcd13ifvqco0","pricing_plan_id":"cebpf4jnsgd1na2vs0mg"},{"bike_id":"a97eda8e-88d5-4104-9f1d-eba30e79e853","system_id":"levelo_inurba_marseille","lat":43.28374,"lon":5.38634,"is_reserved":false,"is_disabled":false,"rental_uris":{"android":"levelo://app?vid=a97eda8e-88d5-4104-9f1d-eba30e79e853","ios":"levelo://app?vid=a97eda8e-88d5-4104-9f1d-eba30e79e853"},"vehicle_type_id":"4","last_reported":1728929548,"current_range_meters":10800,"station_id":"ce4bh492rcd13ifvqdvg","pricing_plan_id":"cebpf4jnsgd1na2vs0mg"},{"bike_id":"5ff4e58d-7b6d-47db-8ceb-86716a11a6b9","system_id":"levelo_inurba_marseille","lat":43.30145,"lon":5.39877,"is_reserved":false,"is_disabled":false,"rental_uris":{"android":"levelo://app?vid=5ff4e58d-7b6d-47db-8ceb-86716a11a6b9","ios":"levelo://app?vid=5ff4e58d-7b6d-47db-8ceb-86716a11a6b9"},"vehicle_type_id":"4","last_reported":1728929548,"current_range_meters":17200,"station_id":"ce4bh0h2rcd13ifvqd40","pricing_plan_id":"cebpf4jnsgd1na2vs0mg"},{"bike_id":"711d5b4f-86cf-4b36-90d2-856cd1005a53","system_id":"levelo_inurba_marseille","lat":43.25582,"lon":5.38233,"is_reserved":false,"is_disabled":false,"rental_uris":{"android":"levelo://app?vid=711d5b4f-86cf-4b36-90d2-856cd1005a53","ios":"levelo://app?vid=711d5b4f-86cf-4b36-90d2-856cd1005a53"},"vehicle_type_id":"4","last_reported":1728929548,"current_range_meters":38000,"station_id":"ce4bhih2rcd13ifvqfs0","pricing_plan_id":"cebpf4jnsgd1na2vs0mg"},{"bike_id":"f269126c-1b0b-4a1a-a1d6-f8c3716f5336","system_id":"levelo_inurba_marseille","lat":43.23196,"lon":5.35552,"is_reserved":false,"is_disabled":false,"rental_uris":{"android":"levelo://app?vid=f269126c-1b0b-4a1a-a1d6-f8c3716f5336","ios":"levelo://app?vid=f269126c-1b0b-4a1a-a1d6-f8c3716f5336"},"vehicle_type_id":"4","last_reported":1728929548,"current_range_meters":37600,"station_id":"ce4bhu92rcd13ifvqi70","pricing_plan_id":"cebpf4jnsgd1na2vs0mg"},{"bike_id":"7966fcf8-1528-4829-b491-11d0fb0ce4ab","system_id":"levelo_inurba_marseille","lat":43.29195,"lon":5.35802,"is_reserved":false,"is_disabled":false,"rental_uris":{"android":"levelo://app?vid=7966fcf8-1528-4829-b491-11d0fb0ce4ab","ios":"levelo://app?vid=7966fcf8-1528-4829-b491-11d0fb0ce4ab"},"vehicle_type_id":"4","last_reported":1728929548,"current_range_meters":27600,"station_id":"ce4bhb12rcd13ifvqel0","pricing_plan_id":"cebpf4jnsgd1na2vs0mg"},{"bike_id":"d3bc916d-9d06-46f2-ab9a-35a8465cfd44","system_id":"levelo_inurba_marseille","lat":43.28937,"lon":5.36638,"is_reserved":false,"is_disabled":false,"rental_uris":{"android":"levelo://app?vid=d3bc916d-9d06-46f2-ab9a-35a8465cfd44","ios":"levelo://app?vid=d3bc916d-9d06-46f2-ab9a-35a8465cfd44"},"vehicle_type_id":"4","last_reported":1728929548,"current_range_meters":39200,"station_id":"ce4bhap2rcd13ifvqek0","pricing_plan_id":"cebpf4jnsgd1na2vs0mg"},{"bike_id":"172c6f0b-db2a-426e-82d7-b2e5ca3bb238","system_id":"levelo_inurba_marseille","lat":43.29201,"lon":5.35793,"is_reserved":false,"is_disabled":false,"rental_uris":{"android":"levelo://app?vid=172c6f0b-db2a-426e-82d7-b2e5ca3bb238","ios":"levelo://app?vid=172c6f0b-db2a-426e-82d7-b2e5ca3bb238"},"vehicle_type_id":"4","last_reported":1728929548,"current_range_meters":37600,"station_id":"ce4bhb12rcd13ifvqel0","pricing_plan_id":"cebpf4jnsgd1na2vs0mg"},{"bike_id":"206337a7-d6c1-42aa-8425-762634b39d82","system_id":"levelo_inurba_marseille","lat":43.29417,"lon":5.38623,"is_reserved":false,"is_disabled":false,"rental_uris":{"android":"levelo://app?vid=206337a7-d6c1-42aa-8425-762634b39d82","ios":"levelo://app?vid=206337a7-d6c1-42aa-8425-762634b39d82"},"vehicle_type_id":"4","last_reported":1728929548,"current_range_meters":11200,"station_id":"ce4bhqh2rcd13ifvqhlg","pricing_plan_id":"cebpf4jnsgd1na2vs0mg"},{"bike_id":"c377bb64-5d0e-4a64-a6a8-1e2f69242577","system_id":"levelo_inurba_marseille","lat":43.29904,"lon":5.43672,"is_reserved":false,"is_disabled":false,"rental_uris":{"android":"levelo://app?vid=c377bb64-5d0e-4a64-a6a8-1e2f69242577","ios":"levelo://app?vid=c377bb64-5d0e-4a64-a6a8-1e2f69242577"},"vehicle_type_id":"4","last_reported":1728929548,"current_range_meters":8000,"station_id":"ce4bhpp2rcd13ifvqhfg","pricing_plan_id":"cebpf4jnsgd1na2vs0mg"},{"bike_id":"4a8f54a4-dbbe-495a-bf7a-12ffe046f888","system_id":"levelo_inurba_marseille","lat":43.290335,"lon":5.386535,"is_reserved":false,"is_disabled":false,"rental_uris":{"android":"levelo://app?vid=4a8f54a4-dbbe-495a-bf7a-12ffe046f888","ios":"levelo://app?vid=4a8f54a4-dbbe-495a-bf7a-12ffe046f888"},"vehicle_type_id":"4","last_reported":1728929548,"current_range_meters":39200,"station_id":"ce4bh4p2rcd13ifvqe0g","pricing_plan_id":"cebpf4jnsgd1na2vs0mg"},{"bike_id":"d47c0ee8-6f6c-4953-a29e-a815b1a6c7cb","system_id":"levelo_inurba_marseille","lat":43.29028,"lon":5.38639,"is_reserved":false,"is_disabled":false,"rental_uris":{"android":"levelo://app?vid=d47c0ee8-6f6c-4953-a29e-a815b1a6c7cb","ios":"levelo://app?vid=d47c0ee8-6f6c-4953-a29e-a815b1a6c7cb"},"vehicle_type_id":"4","last_reported":1728929548,"current_range_meters":19600,"station_id":"ce4bh4p2rcd13ifvqe0g","pricing_plan_id":"cebpf4jnsgd1na2vs0mg"},{"bike_id":"4943c5ec-3563-423a-9303-c56ee778f007","system_id":"levelo_inurba_marseille","lat":43.26951,"lon":5.40256,"is_reserved":false,"is_disabled":false,"rental_uris":{"android":"levelo://app?vid=4943c5ec-3563-423a-9303-c56ee778f007","ios":"levelo://app?vid=4943c5ec-3563-423a-9303-c56ee778f007"},"vehicle_type_id":"4","last_reported":1728929548,"current_range_meters":39200,"station_id":"cjm6bp8fraef2m0cb0m0","pricing_plan_id":"cebpf4jnsgd1na2vs0mg"},{"bike_id":"94d48054-be54-488d-a425-2deb433f452c","system_id":"levelo_inurba_marseille","lat":43.29801,"lon":5.36439,"is_reserved":false,"is_disabled":false,"rental_uris":{"android":"levelo://app?vid=94d48054-be54-488d-a425-2deb433f452c","ios":"levelo://app?vid=94d48054-be54-488d-a425-2deb433f452c"},"vehicle_type_id":"4","last_reported":1728929548,"current_range_meters":28400,"station_id":"ce4bgnh2rcd13ifvqc0g","pricing_plan_id":"cebpf4jnsgd1na2vs0mg"},{"bike_id":"2146558d-993b-4010-bf4d-b2b87f16d98f","system_id":"levelo_inurba_marseille","lat":43.30797,"lon":5.43532,"is_reserved":false,"is_disabled":false,"rental_uris":{"android":"levelo://app?vid=2146558d-993b-4010-bf4d-b2b87f16d98f","ios":"levelo://app?vid=2146558d-993b-4010-bf4d-b2b87f16d98f"},"vehicle_type_id":"4","last_reported":1728929548,"current_range_meters":26800,"station_id":"ce4bhph2rcd13ifvqheg","pricing_plan_id":"cebpf4jnsgd1na2vs0mg"},{"bike_id":"a33d3f98-2473-40ab-b30e-8d8913bbcc18","system_id":"levelo_inurba_marseille","lat":43.28038,"lon":5.36955,"is_reserved":false,"is_disabled":false,"rental_uris":{"android":"levelo://app?vid=a33d3f98-2473-40ab-b30e-8d8913bbcc18","ios":"levelo://app?vid=a33d3f98-2473-40ab-b30e-8d8913bbcc18"},"vehicle_type_id":"4","last_reported":1728929548,"current_range_meters":17600,"station_id":"ce4bha12rcd13ifvqef0","pricing_plan_id":"cebpf4jnsgd1na2vs0mg"},{"bike_id":"c6710237-b445-4862-8616-47ea11d83d0f","system_id":"levelo_inurba_marseille","lat":43.24161,"lon":5.36394,"is_reserved":false,"is_disabled":false,"rental_uris":{"android":"levelo://app?vid=c6710237-b445-4862-8616-47ea11d83d0f","ios":"levelo://app?vid=c6710237-b445-4862-8616-47ea11d83d0f"},"vehicle_type_id":"4","last_reported":1728929548,"current_range_meters":28800,"station_id":"cpo36qri1sfpv3e86is0","pricing_plan_id":"cebpf4jnsgd1na2vs0mg"},{"bike_id":"403bfd01-4e2c-41de-8653-d3cba62f4f0e","system_id":"levelo_inurba_marseille","lat":43.308,"lon":5.43531,"is_reserved":false,"is_disabled":false,"rental_uris":{"android":"levelo://app?vid=403bfd01-4e2c-41de-8653-d3cba62f4f0e","ios":"levelo://app?vid=403bfd01-4e2c-41de-8653-d3cba62f4f0e"},"vehicle_type_id":"4","last_reported":1728929548,"current_range_meters":11200,"station_id":"ce4bhph2rcd13ifvqheg","pricing_plan_id":"cebpf4jnsgd1na2vs0mg"},{"bike_id":"384b648d-c213-470a-9a57-51c7fd98889b","system_id":"levelo_inurba_marseille","lat":43.31232,"lon":5.36862,"is_reserved":false,"is_disabled":false,"rental_uris":{"android":"levelo://app?vid=384b648d-c213-470a-9a57-51c7fd98889b","ios":"levelo://app?vid=384b648d-c213-470a-9a57-51c7fd98889b"},"vehicle_type_id":"4","last_reported":1728929548,"current_range_meters":6800,"station_id":"ce4bgl92rcd13ifvqbq0","pricing_plan_id":"cebpf4jnsgd1na2vs0mg"},{"bike_id":"a69949f3-b1de-434f-a682-78844d4461de","system_id":"levelo_inurba_marseille","lat":43.33023,"lon":5.39039,"is_reserved":false,"is_disabled":false,"rental_uris":{"android":"levelo://app?vid=a69949f3-b1de-434f-a682-78844d4461de","ios":"levelo://app?vid=a69949f3-b1de-434f-a682-78844d4461de"},"vehicle_type_id":"4","last_reported":1728929548,"current_range_meters":22400,"station_id":"ce4bhr92rcd13ifvqhrg","pricing_plan_id":"cebpf4jnsgd1na2vs0mg"},{"bike_id":"c95409fc-24a4-44f1-808d-f1764ab80930","system_id":"levelo_inurba_marseille","lat":43.30252,"lon":5.40081,"is_reserved":false,"is_disabled":false,"rental_uris":{"android":"levelo://app?vid=c95409fc-24a4-44f1-808d-f1764ab80930","ios":"levelo://app?vid=c95409fc-24a4-44f1-808d-f1764ab80930"},"vehicle_type_id":"4","last_reported":1728929548,"current_range_meters":19600,"station_id":"ce4bgvh2rcd13ifvqcs0","pricing_plan_id":"cebpf4jnsgd1na2vs0mg"},{"bike_id":"7e57da64-3af7-4a5a-954e-66618d4b5fe4","system_id":"levelo_inurba_marseille","lat":43.25823,"lon":5.39441,"is_reserved":false,"is_disabled":false,"rental_uris":{"android":"levelo://app?vid=7e57da64-3af7-4a5a-954e-66618d4b5fe4","ios":"levelo://app?vid=7e57da64-3af7-4a5a-954e-66618d4b5fe4"},"vehicle_type_id":"4","last_reported":1728929548,"current_range_meters":39200,"station_id":"ce4bhip2rcd13ifvqft0","pricing_plan_id":"cebpf4jnsgd1na2vs0mg"},{"bike_id":"e742fc04-8391-434b-a102-0604ac4d974e","system_id":"levelo_inurba_marseille","lat":43.31074,"lon":5.40093,"is_reserved":false,"is_disabled":false,"rental_uris":{"android":"levelo://app?vid=e742fc04-8391-434b-a102-0604ac4d974e","ios":"levelo://app?vid=e742fc04-8391-434b-a102-0604ac4d974e"},"vehicle_type_id":"4","last_reported":1728929548,"current_range_meters":30000,"station_id":"","pricing_plan_id":"cebpf4jnsgd1na2vs0mg"},{"bike_id":"94e11af5-c82c-46ba-a34a-523a9d332fc3","system_id":"levelo_inurba_marseille","lat":43.28078,"lon":5.39662,"is_reserved":false,"is_disabled":false,"rental_uris":{"android":"levelo://app?vid=94e11af5-c82c-46ba-a34a-523a9d332fc3","ios":"levelo://app?vid=94e11af5-c82c-46ba-a34a-523a9d332fc3"},"vehicle_type_id":"4","last_reported":1728929548,"current_range_meters":36800,"station_id":"ce4bho12rcd13ifvqh2g","pricing_plan_id":"cebpf4jnsgd1na2vs0mg"},{"bike_id":"c787d3c1-8ddf-445d-af58-1cc7fbcb52e6","system_id":"levelo_inurba_marseille","lat":43.29259,"lon":5.40918,"is_reserved":false,"is_disabled":false,"rental_uris":{"android":"levelo://app?vid=c787d3c1-8ddf-445d-af58-1cc7fbcb52e6","ios":"levelo://app?vid=c787d3c1-8ddf-445d-af58-1cc7fbcb52e6"},"vehicle_type_id":"4","last_reported":1728929548,"current_range_meters":9600,"station_id":"ce4bh192rcd13ifvqdc0","pricing_plan_id":"cebpf4jnsgd1na2vs0mg"},{"bike_id":"36b15776-9ed7-4ae9-b9e8-d597f0563bcc","system_id":"levelo_inurba_marseille","lat":43.3237,"lon":5.38888,"is_reserved":false,"is_disabled":false,"rental_uris":{"android":"levelo://app?vid=36b15776-9ed7-4ae9-b9e8-d597f0563bcc","ios":"levelo://app?vid=36b15776-9ed7-4ae9-b9e8-d597f0563bcc"},"vehicle_type_id":"4","last_reported":1728929548,"current_range_meters":38800,"station_id":"ce4bhqp2rcd13ifvqhog","pricing_plan_id":"cebpf4jnsgd1na2vs0mg"},{"bike_id":"bef2fd9d-ff07-4a0e-81ee-7eae6c4d24c4","system_id":"levelo_inurba_marseille","lat":43.33753,"lon":5.37458,"is_reserved":false,"is_disabled":false,"rental_uris":{"android":"levelo://app?vid=bef2fd9d-ff07-4a0e-81ee-7eae6c4d24c4","ios":"levelo://app?vid=bef2fd9d-ff07-4a0e-81ee-7eae6c4d24c4"},"vehicle_type_id":"4","last_reported":1728929548,"current_range_meters":12800,"station_id":"","pricing_plan_id":"cebpf4jnsgd1na2vs0mg"},{"bike_id":"e27d7630-c4bd-441f-a25f-4b2efa15742b","system_id":"levelo_inurba_marseille","lat":43.29312,"lon":5.37181,"is_reserved":false,"is_disabled":false,"rental_uris":{"android":"levelo://app?vid=e27d7630-c4bd-441f-a25f-4b2efa15742b","ios":"levelo://app?vid=e27d7630-c4bd-441f-a25f-4b2efa15742b"},"vehicle_type_id":"4","last_reported":1728929548,"current_range_meters":38000,"station_id":"ce4bgh92rcd13ifvqb40","pricing_plan_id":"cebpf4jnsgd1na2vs0mg"},{"bike_id":"2cedec15-6d4c-4c79-89d0-d407ae6cd1fc","system_id":"levelo_inurba_marseille","lat":43.28933,"lon":5.39624,"is_reserved":false,"is_disabled":false,"rental_uris":{"android":"levelo://app?vid=2cedec15-6d4c-4c79-89d0-d407ae6cd1fc","ios":"levelo://app?vid=2cedec15-6d4c-4c79-89d0-d407ae6cd1fc"},"vehicle_type_id":"4","last_reported":1728929548,"current_range_meters":36000,"station_id":"ce4bh3h2rcd13ifvqdn0","pricing_plan_id":"cebpf4jnsgd1na2vs0mg"},{"bike_id":"1ed24797-1c82-48a1-80e1-b83800dfa5de","system_id":"levelo_inurba_marseille","lat":43.25583,"lon":5.38235,"is_reserved":false,"is_disabled":false,"rental_uris":{"android":"levelo://app?vid=1ed24797-1c82-48a1-80e1-b83800dfa5de","ios":"levelo://app?vid=1ed24797-1c82-48a1-80e1-b83800dfa5de"},"vehicle_type_id":"4","last_reported":1728929548,"current_range_meters":20000,"station_id":"ce4bhih2rcd13ifvqfs0","pricing_plan_id":"cebpf4jnsgd1na2vs0mg"},{"bike_id":"e6a0b850-bde4-4562-83b6-7847b848a59d","system_id":"levelo_inurba_marseille","lat":43.29008,"lon":5.3562,"is_reserved":false,"is_disabled":false,"rental_uris":{"android":"levelo://app?vid=e6a0b850-bde4-4562-83b6-7847b848a59d","ios":"levelo://app?vid=e6a0b850-bde4-4562-83b6-7847b848a59d"},"vehicle_type_id":"4","last_reported":1728929548,"current_range_meters":16800,"station_id":"ce4bhb92rcd13ifvqen0","pricing_plan_id":"cebpf4jnsgd1na2vs0mg"},{"bike_id":"580f1bfb-aabc-4189-a605-9d9cc0581cb9","system_id":"levelo_inurba_marseille","lat":43.28606,"lon":5.37073,"is_reserved":false,"is_disabled":false,"rental_uris":{"android":"levelo://app?vid=580f1bfb-aabc-4189-a605-9d9cc0581cb9","ios":"levelo://app?vid=580f1bfb-aabc-4189-a605-9d9cc0581cb9"},"vehicle_type_id":"4","last_reported":1728929548,"current_range_meters":17600,"station_id":"ce4bht12rcd13ifvqi60","pricing_plan_id":"cebpf4jnsgd1na2vs0mg"},{"bike_id":"95099106-6bb7-46f5-b966-ee1b55c49a81","system_id":"levelo_inurba_marseille","lat":43.28444,"lon":5.3921,"is_reserved":false,"is_disabled":false,"rental_uris":{"android":"levelo://app?vid=95099106-6bb7-46f5-b966-ee1b55c49a81","ios":"levelo://app?vid=95099106-6bb7-46f5-b966-ee1b55c49a81"},"vehicle_type_id":"4","last_reported":1728929548,"current_range_meters":39200,"station_id":"ce4bhoh2rcd13ifvqh5g","pricing_plan_id":"cebpf4jnsgd1na2vs0mg"},{"bike_id":"ffeba25d-64e1-4131-80ec-4da92686b840","system_id":"levelo_inurba_marseille","lat":43.28478,"lon":5.38429,"is_reserved":false,"is_disabled":false,"rental_uris":{"android":"levelo://app?vid=ffeba25d-64e1-4131-80ec-4da92686b840","ios":"levelo://app?vid=ffeba25d-64e1-4131-80ec-4da92686b840"},"vehicle_type_id":"4","last_reported":1728929548,"current_range_meters":20400,"station_id":"ce4bh512rcd13ifvqe3g","pricing_plan_id":"cebpf4jnsgd1na2vs0mg"},{"bike_id":"1d3216d7-510e-47b8-aed2-27300ecd9d37","system_id":"levelo_inurba_marseille","lat":43.28618,"lon":5.35104,"is_reserved":false,"is_disabled":false,"rental_uris":{"android":"levelo://app?vid=1d3216d7-510e-47b8-aed2-27300ecd9d37","ios":"levelo://app?vid=1d3216d7-510e-47b8-aed2-27300ecd9d37"},"vehicle_type_id":"4","last_reported":1728929548,"current_range_meters":6400,"station_id":"ce4bhch2rcd13ifvqeug","pricing_plan_id":"cebpf4jnsgd1na2vs0mg"},{"bike_id":"e712b4a8-f00c-40a4-a7c3-4ebd9bf83b7c","system_id":"levelo_inurba_marseille","lat":43.29203,"lon":5.39318,"is_reserved":false,"is_disabled":false,"rental_uris":{"android":"levelo://app?vid=e712b4a8-f00c-40a4-a7c3-4ebd9bf83b7c","ios":"levelo://app?vid=e712b4a8-f00c-40a4-a7c3-4ebd9bf83b7c"},"vehicle_type_id":"4","last_reported":1728929548,"current_range_meters":28400,"station_id":"ce4bh192rcd13ifvqdd0","pricing_plan_id":"cebpf4jnsgd1na2vs0mg"},{"bike_id":"a509579a-db5d-4b1f-81d5-a1d24f99eaa2","system_id":"levelo_inurba_marseille","lat":43.26681,"lon":5.3827,"is_reserved":false,"is_disabled":false,"rental_uris":{"android":"levelo://app?vid=a509579a-db5d-4b1f-81d5-a1d24f99eaa2","ios":"levelo://app?vid=a509579a-db5d-4b1f-81d5-a1d24f99eaa2"},"vehicle_type_id":"4","last_reported":1728929548,"current_range_meters":38400,"station_id":"ce4bhg92rcd13ifvqf90","pricing_plan_id":"cebpf4jnsgd1na2vs0mg"},{"bike_id":"738f1cb8-55d8-46f6-9732-03e58c8f44a2","system_id":"levelo_inurba_marseille","lat":43.2559,"lon":5.38223,"is_reserved":false,"is_disabled":false,"rental_uris":{"android":"levelo://app?vid=738f1cb8-55d8-46f6-9732-03e58c8f44a2","ios":"levelo://app?vid=738f1cb8-55d8-46f6-9732-03e58c8f44a2"},"vehicle_type_id":"4","last_reported":1728929548,"current_range_meters":18800,"station_id":"ce4bhih2rcd13ifvqfs0","pricing_plan_id":"cebpf4jnsgd1na2vs0mg"},{"bike_id":"46e39a25-08ca-421d-8c11-1dd58e3c360b","system_id":"levelo_inurba_marseille","lat":43.29261,"lon":5.40911,"is_reserved":false,"is_disabled":false,"rental_uris":{"android":"levelo://app?vid=46e39a25-08ca-421d-8c11-1dd58e3c360b","ios":"levelo://app?vid=46e39a25-08ca-421d-8c11-1dd58e3c360b"},"vehicle_type_id":"4","last_reported":1728929548,"current_range_meters":32400,"station_id":"ce4bh192rcd13ifvqdc0","pricing_plan_id":"cebpf4jnsgd1na2vs0mg"},{"bike_id":"653f8350-f18d-4f28-8853-92b601b9a643","system_id":"levelo_inurba_marseille","lat":43.23064,"lon":5.35501,"is_reserved":false,"is_disabled":false,"rental_uris":{"android":"levelo://app?vid=653f8350-f18d-4f28-8853-92b601b9a643","ios":"levelo://app?vid=653f8350-f18d-4f28-8853-92b601b9a643"},"vehicle_type_id":"4","last_reported":1728929548,"current_range_meters":18800,"station_id":"cpo3342slgdg3j2ifvpg","pricing_plan_id":"cebpf4jnsgd1na2vs0mg"},{"bike_id":"643b0f56-6d60-4031-9e23-a836cb11de7e","system_id":"levelo_inurba_marseille","lat":43.30337,"lon":5.40435,"is_reserved":false,"is_disabled":false,"rental_uris":{"android":"levelo://app?vid=643b0f56-6d60-4031-9e23-a836cb11de7e","ios":"levelo://app?vid=643b0f56-6d60-4031-9e23-a836cb11de7e"},"vehicle_type_id":"4","last_reported":1728929548,"current_range_meters":30800,"station_id":"ce4bh012rcd13ifvqd10","pricing_plan_id":"cebpf4jnsgd1na2vs0mg"},{"bike_id":"e1a23fd8-71bd-4fae-8c65-b297c9085a22","system_id":"levelo_inurba_marseille","lat":43.31072,"lon":5.38339,"is_reserved":false,"is_disabled":false,"rental_uris":{"android":"levelo://app?vid=e1a23fd8-71bd-4fae-8c65-b297c9085a22","ios":"levelo://app?vid=e1a23fd8-71bd-4fae-8c65-b297c9085a22"},"vehicle_type_id":"4","last_reported":1728929548,"current_range_meters":32400,"station_id":"ce4bgv92rcd13ifvqcr0","pricing_plan_id":"cebpf4jnsgd1na2vs0mg"},{"bike_id":"a1e0278e-920e-4eea-a381-891331e8e403","system_id":"levelo_inurba_marseille","lat":43.23196,"lon":5.35549,"is_reserved":false,"is_disabled":false,"rental_uris":{"android":"levelo://app?vid=a1e0278e-920e-4eea-a381-891331e8e403","ios":"levelo://app?vid=a1e0278e-920e-4eea-a381-891331e8e403"},"vehicle_type_id":"4","last_reported":1728929548,"current_range_meters":10000,"station_id":"ce4bhu92rcd13ifvqi70","pricing_plan_id":"cebpf4jnsgd1na2vs0mg"},{"bike_id":"4b557f38-e79d-41b4-bfeb-baf800d779e4","system_id":"levelo_inurba_marseille","lat":43.29566,"lon":5.42292,"is_reserved":false,"is_disabled":false,"rental_uris":{"android":"levelo://app?vid=4b557f38-e79d-41b4-bfeb-baf800d779e4","ios":"levelo://app?vid=4b557f38-e79d-41b4-bfeb-baf800d779e4"},"vehicle_type_id":"4","last_reported":1728929548,"current_range_meters":3600,"station_id":"ce4bhph2rcd13ifvqhdg","pricing_plan_id":"cebpf4jnsgd1na2vs0mg"},{"bike_id":"ef9ab441-20dc-4a85-9f68-995a49f7b755","system_id":"levelo_inurba_marseille","lat":43.27975,"lon":5.38744,"is_reserved":false,"is_disabled":false,"rental_uris":{"android":"levelo://app?vid=ef9ab441-20dc-4a85-9f68-995a49f7b755","ios":"levelo://app?vid=ef9ab441-20dc-4a85-9f68-995a49f7b755"},"vehicle_type_id":"4","last_reported":1728929548,"current_range_meters":33600,"station_id":"ce4bhg12rcd13ifvqf80","pricing_plan_id":"cebpf4jnsgd1na2vs0mg"},{"bike_id":"88a1c9e8-58e0-4981-84b3-0daa2dde0719","system_id":"levelo_inurba_marseille","lat":43.2318,"lon":5.39989,"is_reserved":false,"is_disabled":false,"rental_uris":{"android":"levelo://app?vid=88a1c9e8-58e0-4981-84b3-0daa2dde0719","ios":"levelo://app?vid=88a1c9e8-58e0-4981-84b3-0daa2dde0719"},"vehicle_type_id":"4","last_reported":1728929548,"current_range_meters":14800,"station_id":"ce4bhn12rcd13ifvqgqg","pricing_plan_id":"cebpf4jnsgd1na2vs0mg"},