{"last_updated":1759169696,"ttl":60,"version":"2.2","data":{"bikes":[{"bike_id":"3dda0a6b-81c8-466a-a8af-b2f519ed9b93","system_id":"levelo_inurba_marseille","lat":43.27618,"lon":5.36117,"is_reserved":false,"is_disabled":false,"rental_uris":{"android":"levelo://app?vid=3dda0a6b-81c8-466a-a8af-b2f519ed9b93","ios":"levelo://app?vid=3dda0a6b-81c8-466a-a8af-b2f519ed9b93"},"vehicle_type_id":"4","last_reported":1759169696,"current_range_meters":2800,"station_id":"ce4bgj92rcd13ifvqbe0","pricing_plan_id":"cebpf4jnsgd1na2vs0mg"},{"bike_id":"301e26e1-2f35-44b8-9605-4d1d8f818feb","system_id":"levelo_inurba_marseille","lat":43.30463,"lon":5.37906,"is_reserved":false,"is_disabled":false,"rental_uris":{"android":"levelo://app?vid=301e26e1-2f35-44b8-9605-4d1d8f818feb","ios":"levelo://app?vid=301e26e1-2f35-44b8-9605-4d1d8f818feb"},"vehicle_type_id":"4","last_reported":1759169696,"current_range_meters":2800,"station_id":"ce4bgup2rcd13ifvqcn0","pricing_plan_id":"cebpf4jnsgd1na2vs0mg"},{"bike_id":"4bf7204f-8e5f-41d0-b4ba-fb51d90064d0","system_id":"levelo_inurba_marseille","lat":43.24074,"lon":5.37768,"is_reserved":false,"is_disabled":false,"rental_uris":{"android":"levelo://app?vid=4bf7204f-8e5f-41d0-b4ba-fb51d90064d0","ios":"levelo://app?vid=4bf7204f-8e5f-41d0-b4ba-fb51d90064d0"},"vehicle_type_id":"4","last_reported":1759169696,"current_range_meters":2800,"station_id":"ce4bhnp2rcd13ifvqgvg","pricing_plan_id":"cebpf4jnsgd1na2vs0mg"},{"bike_id":"aa7708cb-ead7-4c10-ac96-3cc1e07540dc","system_id":"levelo_inurba_marseille","lat":43.28144,"lon":5.42649,"is_reserved":false,"is_disabled":false,"rental_uris":{"android":"levelo://app?vid=aa7708cb-ead7-4c10-ac96-3cc1e07540dc","ios":"levelo://app?vid=aa7708cb-ead7-4c10-ac96-3cc1e07540dc"},"vehicle_type_id":"4","last_reported":1759169696,"current_range_meters":2800,"station_id":"ce4bhnh2rcd13ifvqgug","pricing_plan_id":"cebpf4jnsgd1na2vs0mg"},{"bike_id":"16013fe5-99cd-4880-9726-5de7e9e7067b","system_id":"levelo_inurba_marseille","lat":43.28115,"lon":5.37718,"is_reserved":false,"is_disabled":false,"rental_uris":{"android":"levelo://app?vid=16013fe5-99cd-4880-9726-5de7e9e7067b","ios":"levelo://app?vid=16013fe5-99cd-4880-9726-5de7e9e7067b"},"vehicle_type_id":"4","last_reported":1759169696,"current_range_meters":2800,"station_id":"ce4bha12rcd13ifvqee0","pricing_plan_id":"cebpf4jnsgd1na2vs0mg"},{"bike_id":"4a726bbf-4545-4a59-9d5f-c1c8ab1a9cca","system_id":"levelo_inurba_marseille","lat":43.29017,"lon":5.40013,"is_reserved":false,"is_disabled":false,"rental_uris":{"android":"levelo://app?vid=4a726bbf-4545-4a59-9d5f-c1c8ab1a9cca","ios":"levelo://app?vid=4a726bbf-4545-4a59-9d5f-c1c8ab1a9cca"},"vehicle_type_id":"4","last_reported":1759169696,"current_range_meters":2800,"station_id":"ce4bh392rcd13ifvqdm0","pricing_plan_id":"cebpf4jnsgd1na2vs0mg"},{"bike_id":"29dbd7d1-419f-495a-beff-a4f4369b08e6","system_id":"levelo_inurba_marseille","lat":43.289765,"lon":5.383719,"is_reserved":false,"is_disabled":false,"rental_uris":{"android":"levelo://app?vid=29dbd7d1-419f-495a-beff-a4f4369b08e6","ios":"levelo://app?vid=29dbd7d1-419f-495a-beff-a4f4369b08e6"},"vehicle_type_id":"4","last_reported":1759169696,"current_range_meters":2800,"station_id":"","pricing_plan_id":"cebpf4jnsgd1na2vs0mg"},{"bike_id":"820e424e-7f34-4bfd-bcc8-e110a6ddcf92","system_id":"levelo_inurba_marseille","lat":43.28344,"lon":5.38108,"is_reserved":false,"is_disabled":false,"rental_uris":{"android":"levelo://app?vid=820e424e-7f34-4bfd-bcc8-e110a6ddcf92","ios":"levelo://app?vid=820e424e-7f34-4bfd-bcc8-e110a6ddcf92"},"vehicle_type_id":"4","last_reported":1759169696,"current_range_meters":2800,"station_id":"ce4bh412rcd13ifvqdr0","pricing_plan_id":"cebpf4jnsgd1na2vs0mg"},{"bike_id":"a3ea2992-d994-4153-a1d7-b5bcac222817","system_id":"levelo_inurba_marseille","lat":43.29818,"lon":5.38077,"is_reserved":false,"is_disabled":false,"rental_uris":{"android":"levelo://app?vid=a3ea2992-d994-4153-a1d7-b5bcac222817","ios":"levelo://app?vid=a3ea2992-d994-4153-a1d7-b5bcac222817"},"vehicle_type_id":"4","last_reported":1759169696,"current_range_meters":2800,"station_id":"ce4bgip2rcd13ifvqbb0","pricing_plan_id":"cebpf4jnsgd1na2vs0mg"},{"bike_id":"d8c7b56a-ccf9-4e12-b25f-ac7a22480fed","system_id":"levelo_inurba_marseille","lat":43.27074,"lon":5.42283,"is_reserved":false,"is_disabled":false,"rental_uris":{"android":"levelo://app?vid=d8c7b56a-ccf9-4e12-b25f-ac7a22480fed","ios":"levelo://app?vid=d8c7b56a-ccf9-4e12-b25f-ac7a22480fed"},"vehicle_type_id":"4","last_reported":1759169696,"current_range_meters":2800,"station_id":"ce4bhk92rcd13ifvqgb0","pricing_plan_id":"cebpf4jnsgd1na2vs0mg"},{"bike_id":"60fff06d-b139-493d-a48f-88e62e7dcd86","system_id":"levelo_inurba_marseille","lat":43.29322,"lon":5.37174,"is_reserved":false,"is_disabled":false,"rental_uris":{"android":"levelo://app?vid=60fff06d-b139-493d-a48f-88e62e7dcd86","ios":"levelo://app?vid=60fff06d-b139-493d-a48f-88e62e7dcd86"},"vehicle_type_id":"4","last_reported":1759169696,"current_range_meters":3200,"station_id":"ce4bgh92rcd13ifvqb40","pricing_plan_id":"cebpf4jnsgd1na2vs0mg"},{"bike_id":"be7dae0d-94d7-4a0d-89d8-07c528e32b57","system_id":"levelo_inurba_marseille","lat":43.3261,"lon":5.39059,"is_reserved":false,"is_disabled":false,"rental_uris":{"android":"levelo://app?vid=be7dae0d-94d7-4a0d-89d8-07c528e32b57","ios":"levelo://app?vid=be7dae0d-94d7-4a0d-89d8-07c528e32b57"},"vehicle_type_id":"4","last_reported":1759169696,"current_range_meters":3200,"station_id":"","pricing_plan_id":"cebpf4jnsgd1na2vs0mg"},{"bike_id":"b36e1800-2037-474d-be31-f6a6a385da3e","system_id":"levelo_inurba_marseille","lat":43.2583,"lon":5.39436,"is_reserved":false,"is_disabled":false,"rental_uris":{"android":"levelo://app?vid=b36e1800-2037-474d-be31-f6a6a385da3e","ios":"levelo://app?vid=b36e1800-2037-474d-be31-f6a6a385da3e"},"vehicle_type_id":"4","last_reported":1759169696,"current_range_meters":3600,"station_id":"ce4bhip2rcd13ifvqft0","pricing_plan_id":"cebpf4jnsgd1na2vs0mg"},{"bike_id":"ad0c602e-7568-4bc9-9e48-ebc3fe12aec8","system_id":"levelo_inurba_marseille","lat":43.26229,"lon":5.40453,"is_reserved":false,"is_disabled":false,"rental_uris":{"android":"levelo://app?vid=ad0c602e-7568-4bc9-9e48-ebc3fe12aec8","ios":"levelo://app?vid=ad0c602e-7568-4bc9-9e48-ebc3fe12aec8"},"vehicle_type_id":"4","last_reported":1759169696,"current_range_meters":3600,"station_id":"ce4bhmh2rcd13ifvqgmg","pricing_plan_id":"cebpf4jnsgd1na2vs0mg"},{"bike_id":"9397a370-f4a7-4bbf-9c0c-87ccdb0b3277","system_id":"levelo_inurba_marseille","lat":43.28992,"lon":5.37837,"is_reserved":false,"is_disabled":false,"rental_uris":{"android":"levelo://app?vid=9397a370-f4a7-4bbf-9c0c-87ccdb0b3277","ios":"levelo://app?vid=9397a370-f4a7-4bbf-9c0c-87ccdb0b3277"},"vehicle_type_id":"4","last_reported":1759169696,"current_range_meters":3600,"station_id":"ce4bh9p2rcd13ifvqed0","pricing_plan_id":"cebpf4jnsgd1na2vs0mg"},{"bike_id":"c4f5bf64-b763-4876-a9cd-43935d3a3615","system_id":"levelo_inurba_marseille","lat":43.29873,"lon":5.38918,"is_reserved":false,"is_disabled":false,"rental_uris":{"android":"levelo://app?vid=c4f5bf64-b763-4876-a9cd-43935d3a3615","ios":"levelo://app?vid=c4f5bf64-b763-4876-a9cd-43935d3a3615"},"vehicle_type_id":"4","last_reported":1759169696,"current_range_meters":3600,"station_id":"ce4bh392rcd13ifvqdl0","pricing_plan_id":"cebpf4jnsgd1na2vs0mg"},{"bike_id":"318e8c47-16b8-4f26-b10b-f315c767b846","system_id":"levelo_inurba_marseille","lat":43.29898,"lon":5.43669,"is_reserved":false,"is_disabled":false,"rental_uris":{"android":"levelo://app?vid=318e8c47-16b8-4f26-b10b-f315c767b846","ios":"levelo://app?vid=318e8c47-16b8-4f26-b10b-f315c767b846"},"vehicle_type_id":"4","last_reported":1759169696,"current_range_meters":3200,"station_id":"ce4bhpp2rcd13ifvqhfg","pricing_plan_id":"cebpf4jnsgd1na2vs0mg"},{"bike_id":"d19d3f26-2ed9-4325-a03a-20938ce7b7ff","system_id":"levelo_inurba_marseille","lat":43.31075,"lon":5.38351,"is_reserved":false,"is_disabled":false,"rental_uris":{"android":"levelo://app?vid=d19d3f26-2ed9-4325-a03a-20938ce7b7ff","ios":"levelo://app?vid=d19d3f26-2ed9-4325-a03a-20938ce7b7ff"},"vehicle_type_id":"4","last_reported":1759169696,"current_range_meters":3600,"station_id":"ce4bgv92rcd13ifvqcr0","pricing_plan_id":"cebpf4jnsgd1na2vs0mg"},{"bike_id":"ece748c0-0d4c-41c0-afab-bdcfeb147e6e","system_id":"levelo_inurba_marseille","lat":43.26679,"lon":5.38257,"is_reserved":false,"is_disabled":false,"rental_uris":{"android":"levelo://app?vid=ece748c0-0d4c-41c0-afab-bdcfeb147e6e","ios":"levelo://app?vid=ece748c0-0d4c-41c0-afab-bdcfeb147e6e"},"vehicle_type_id":"4","last_reported":1759169696,"current_range_meters":4000,"station_id":"ce4bhg92rcd13ifvqf90","pricing_plan_id":"cebpf4jnsgd1na2vs0mg"},{"bike_id":"e4687788-74f2-4f82-9e57-2099bc378182","system_id":"levelo_inurba_marseille","lat":43.29029,"lon":5.38143,"is_reserved":false,"is_disabled":false,"rental_uris":{"android":"levelo://app?vid=e4687788-74f2-4f82-9e57-2099bc378182","ios":"levelo://app?vid=e4687788-74f2-4f82-9e57-2099bc378182"},"vehicle_type_id":"4","last_reported":1759169696,"current_range_meters":4000,"station_id":"ce4bh4p2rcd13ifvqe1g","pricing_plan_id":"cebpf4jnsgd1na2vs0mg"},{"bike_id":"4aefdc7d-8dd5-4130-8630-c761455732a0","system_id":"levelo_inurba_marseille","lat":43.30211,"lon":5.39484,"is_reserved":false,"is_disabled":false,"rental_uris":{"android":"levelo://app?vid=4aefdc7d-8dd5-4130-8630-c761455732a0","ios":"levelo://app?vid=4aefdc7d-8dd5-4130-8630-c761455732a0"},"vehicle_type_id":"4","last_reported":1759169696,"current_range_meters":4000,"station_id":"ce4bh0p2rcd13ifvqd70","pricing_plan_id":"cebpf4jnsgd1na2vs0mg"},{"bike_id":"4fcf49da-ad50-414a-bda8-cbd36287dfda","system_id":"levelo_inurba_marseille","lat":43.25414,"lon":5.37806,"is_reserved":false,"is_disabled":true,"rental_uris":{"android":"levelo://app?vid=4fcf49da-ad50-414a-bda8-cbd36287dfda","ios":"levelo://app?vid=4fcf49da-ad50-414a-bda8-cbd36287dfda"},"vehicle_type_id":"4","last_reported":1759169696,"current_range_meters":4400,"station_id":"","pricing_plan_id":"cebpf4jnsgd1na2vs0mg"},{"bike_id":"4a6916f4-4abf-43c4-9d2a-f80e1e726b30","system_id":"levelo_inurba_marseille","lat":43.29204,"lon":5.39327,"is_reserved":false,"is_disabled":false,"rental_uris":{"android":"levelo://app?vid=4a6916f4-4abf-43c4-9d2a-f80e1e726b30","ios":"levelo://app?vid=4a6916f4-4abf-43c4-9d2a-f80e1e726b30"},"vehicle_type_id":"4","last_reported":1759169696,"current_range_meters":4000,"station_id":"ce4bh192rcd13ifvqdd0","pricing_plan_id":"cebpf4jnsgd1na2vs0mg"},{"bike_id":"e20ad031-6658-440d-9cad-91e5ddf764a1","system_id":"levelo_inurba_marseille","lat":43.25728,"lon":5.4111,"is_reserved":false,"is_disabled":false,"rental_uris":{"android":"levelo://app?vid=e20ad031-6658-440d-9cad-91e5ddf764a1","ios":"levelo://app?vid=e20ad031-6658-440d-9cad-91e5ddf764a1"},"vehicle_type_id":"4","last_reported":1759169696,"current_range_meters":4400,"station_id":"ce4bhkp2rcd13ifvqgd0","pricing_plan_id":"cebpf4jnsgd1na2vs0mg"},{"bike_id":"78a28ad5-a5b1-4cfd-8b1e-98dacae93b92","system_id":"levelo_inurba_marseille","lat":43.2926,"lon":5.384378,"is_reserved":false,"is_disabled":false,"rental_uris":{"android":"levelo://app?vid=78a28ad5-a5b1-4cfd-8b1e-98dacae93b92","ios":"levelo://app?vid=78a28ad5-a5b1-4cfd-8b1e-98dacae93b92"},"vehicle_type_id":"4","last_reported":1759169696,"current_range_meters":4400,"station_id":"ce4bh692rcd13ifvqea0","pricing_plan_id":"cebpf4jnsgd1na2vs0mg"},{"bike_id":"6c623229-08d9-4447-8002-432be29d2530","system_id":"levelo_inurba_marseille","lat":43.30918,"lon":5.36847,"is_reserved":false,"is_disabled":false,"rental_uris":{"android":"levelo://app?vid=6c623229-08d9-4447-8002-432be29d2530","ios":"levelo://app?vid=6c623229-08d9-4447-8002-432be29d2530"},"vehicle_type_id":"4","last_reported":1759169696,"current_range_meters":4000,"station_id":"ce4bgn92rcd13ifvqbvg","pricing_plan_id":"cebpf4jnsgd1na2vs0mg"},{"bike_id":"ff964d5d-7532-4c29-ae1c-35b655e74902","system_id":"levelo_inurba_marseille","lat":43.27809,"lon":5.40716,"is_reserved":false,"is_disabled":false,"rental_uris":{"android":"levelo://app?vid=ff964d5d-7532-4c29-ae1c-35b655e74902","ios":"levelo://app?vid=ff964d5d-7532-4c29-ae1c-35b655e74902"},"vehicle_type_id":"4","last_reported":1759169696,"current_range_meters":4400,"station_id":"ce4bhnh2rcd13ifvqgtg","pricing_plan_id":"cebpf4jnsgd1na2vs0mg"},{"bike_id":"cf019335-1a00-4d3a-b137-2a1d40ad1fe6","system_id":"levelo_inurba_marseille","lat":43.290368,"lon":5.386574,"is_reserved":false,"is_disabled":false,"rental_uris":{"android":"levelo://app?vid=cf019335-1a00-4d3a-b137-2a1d40ad1fe6","ios":"levelo://app?vid=cf019335-1a00-4d3a-b137-2a1d40ad1fe6"},"vehicle_type_id":"4","last_reported":1759169696,"current_range_meters":4400,"station_id":"ce4bh4p2rcd13ifvqe0g","pricing_plan_id":"cebpf4jnsgd1na2vs0mg"},{"bike_id":"96fb4a73-622f-46f2-98d8-0fa6909385ad","system_id":"levelo_inurba_marseille","lat":43.26206,"lon":5.40443,"is_reserved":false,"is_disabled":false,"rental_uris":{"android":"levelo://app?vid=96fb4a73-622f-46f2-98d8-0fa6909385ad","ios":"levelo://app?vid=96fb4a73-622f-46f2-98d8-0fa6909385ad"},"vehicle_type_id":"4","last_reported":1759169696,"current_range_meters":4800,"station_id":"ce4bhmh2rcd13ifvqgmg","pricing_plan_id":"cebpf4jnsgd1na2vs0mg"},{"bike_id":"f5f7fa37-9453-4481-858b-d4a2f1ad8ddf","system_id":"levelo_inurba_marseille","lat":43.29263,"lon":5.38443,"is_reserved":false,"is_disabled":false,"rental_uris":{"android":"levelo://app?vid=f5f7fa37-9453-4481-858b-d4a2f1ad8ddf","ios":"levelo://app?vid=f5f7fa37-9453-4481-858b-d4a2f1ad8ddf"},"vehicle_type_id":"4","last_reported":1759169696,"current_range_meters":4800,"station_id":"ce4bh692rcd13ifvqea0","pricing_plan_id":"cebpf4jnsgd1na2vs0mg"},{"bike_id":"de2f92e1-0f27-4090-840a-d7428443427c","system_id":"levelo_inurba_marseille","lat":43.28027,"lon":5.36966,"is_reserved":false,"is_disabled":false,"rental_uris":{"android":"levelo://app?vid=de2f92e1-0f27-4090-840a-d7428443427c","ios":"levelo://app?vid=de2f92e1-0f27-4090-840a-d7428443427c"},"vehicle_type_id":"4","last_reported":1759169696,"current_range_meters":4800,"station_id":"ce4bha12rcd13ifvqef0","pricing_plan_id":"cebpf4jnsgd1na2vs0mg"},{"bike_id":"9c657e68-17d9-42e7-aa98-db9bf52f631f","system_id":"levelo_inurba_marseille","lat":43.31121,"lon":5.37781,"is_reserved":false,"is_disabled":false,"rental_uris":{"android":"levelo://app?vid=9c657e68-17d9-42e7-aa98-db9bf52f631f","ios":"levelo://app?vid=9c657e68-17d9-42e7-aa98-db9bf52f631f"},"vehicle_type_id":"4","last_reported":1759169696,"current_range_meters":5600,"station_id":"ce4bgt92rcd13ifvqcg0","pricing_plan_id":"cebpf4jnsgd1na2vs0mg"},{"bike_id":"67200657-336e-421b-879d-6056227e2c5b","system_id":"levelo_inurba_marseille","lat":43.29771,"lon":5.39365,"is_reserved":false,"is_disabled":false,"rental_uris":{"android":"levelo://app?vid=67200657-336e-421b-879d-6056227e2c5b","ios":"levelo://app?vid=67200657-336e-421b-879d-6056227e2c5b"},"vehicle_type_id":"4","last_reported":1759169696,"current_range_meters":5600,"station_id":"chh1huq6cuj3fo74tm60","pricing_plan_id":"cebpf4jnsgd1na2vs0mg"},{"bike_id":"3b8754c6-2c8e-4865-ba8d-1179f0045661","system_id":"levelo_inurba_marseille","lat":43.24184,"lon":5.3973,"is_reserved":false,"is_disabled":false,"rental_uris":{"android":"levelo://app?vid=3b8754c6-2c8e-4865-ba8d-1179f0045661","ios":"levelo://app?vid=3b8754c6-2c8e-4865-ba8d-1179f0045661"},"vehicle_type_id":"4","last_reported":1759169696,"current_range_meters":5600,"station_id":"ce4bhn12rcd13ifvqgpg","pricing_plan_id":"cebpf4jnsgd1na2vs0mg"},{"bike_id":"4f194c40-87fd-45d8-84a8-40381524af69","system_id":"levelo_inurba_marseille","lat":43.24668,"lon":5.38185,"is_reserved":false,"is_disabled":false,"rental_uris":{"android":"levelo://app?vid=4f194c40-87fd-45d8-84a8-40381524af69","ios":"levelo://app?vid=4f194c40-87fd-45d8-84a8-40381524af69"},"vehicle_type_id":"4","last_reported":1759169696,"current_range_meters":5600,"station_id":"ce4bhih2rcd13ifvqfr0","pricing_plan_id":"cebpf4jnsgd1na2vs0mg"},{"bike_id":"d7f5fc14-994a-46b0-b612-c48d546986d0","system_id":"levelo_inurba_marseille","lat":43.28461,"lon":5.3589,"is_reserved":false,"is_disabled":false,"rental_uris":{"android":"levelo://app?vid=d7f5fc14-994a-46b0-b612-c48d546986d0","ios":"levelo://app?vid=d7f5fc14-994a-46b0-b612-c48d546986d0"},"vehicle_type_id":"4","last_reported":1759169696,"current_range_meters":5600,"station_id":"ce4bhah2rcd13ifvqei0","pricing_plan_id":"cebpf4jnsgd1na2vs0mg"},{"bike_id":"cf4108ec-f8c5-4986-9835-c631b57d70eb","system_id":"levelo_inurba_marseille","lat":43.30656,"lon":5.40053,"is_reserved":false,"is_disabled":false,"rental_uris":{"android":"levelo://app?vid=cf4108ec-f8c5-4986-9835-c631b57d70eb","ios":"levelo://app?vid=cf4108ec-f8c5-4986-9835-c631b57d70eb"},"vehicle_type_id":"4","last_reported":1759169696,"current_range_meters":5600,"station_id":"ce4bh112rcd13ifvqda0","pricing_plan_id":"cebpf4jnsgd1na2vs0mg"},{"bike_id":"3717330e-3fc1-4bfc-8e2e-1549b211ee4f","system_id":"levelo_inurba_marseille","lat":43.26788,"lon":5.39421,"is_reserved":false,"is_disabled":false,"rental_uris":{"android":"levelo://app?vid=3717330e-3fc1-4bfc-8e2e-1549b211ee4f","ios":"levelo://app?vid=3717330e-3fc1-4bfc-8e2e-1549b211ee4f"},"vehicle_type_id":"4","last_reported":1759169696,"current_range_meters":4800,"station_id":"ce4bhh12rcd13ifvqfg0","pricing_plan_id":"cebpf4jnsgd1na2vs0mg"},{"bike_id":"5658146f-249e-4909-971a-60144c3d5d9a","system_id":"levelo_inurba_marseille","lat":43.29306,"lon":5.3746,"is_reserved":false,"is_disabled":false,"rental_uris":{"android":"levelo://app?vid=5658146f-249e-4909-971a-60144c3d5d9a","ios":"levelo://app?vid=5658146f-249e-4909-971a-60144c3d5d9a"},"vehicle_type_id":"4","last_reported":1759169696,"current_range_meters":5600,"station_id":"ce4bgi12rcd13ifvqb70","pricing_plan_id":"cebpf4jnsgd1na2vs0mg"},{"bike_id":"07747a9a-2f8f-4658-8dca-60b461ec0ab5","system_id":"levelo_inurba_marseille","lat":43.24183,"lon":5.39728,"is_reserved":false,"is_disabled":false,"rental_uris":{"android":"levelo://app?vid=07747a9a-2f8f-4658-8dca-60b461ec0ab5","ios":"levelo://app?vid=07747a9a-2f8f-4658-8dca-60b461ec0ab5"},"vehicle_type_id":"4","last_reported":1759169696,"current_range_meters":6000,"station_id":"ce4bhn12rcd13ifvqgpg","pricing_plan_id":"cebpf4jnsgd1na2vs0mg"},{"bike_id":"f957a086-10a0-460e-9cf8-842846f2fe92","system_id":"levelo_inurba_marseille","lat":43.25578,"lon":5.38233,"is_reserved":false,"is_disabled":false,"rental_uris":{"android":"levelo://app?vid=f957a086-10a0-460e-9cf8-842846f2fe92","ios":"levelo://app?vid=f957a086-10a0-460e-9cf8-842846f2fe92"},"vehicle_type_id":"4","last_reported":1759169696,"current_range_meters":6000,"station_id":"ce4bhih2rcd13ifvqfs0","pricing_plan_id":"cebpf4jnsgd1na2vs0mg"},{"bike_id":"1e75b6c5-ee39-4000-a343-75d728e95f03","system_id":"levelo_inurba_marseille","lat":43.26573,"lon":5.39035,"is_reserved":false,"is_disabled":false,"rental_uris":{"android":"levelo://app?vid=1e75b6c5-ee39-4000-a343-75d728e95f03","ios":"levelo://app?vid=1e75b6c5-ee39-4000-a343-75d728e95f03"},"vehicle_type_id":"4","last_reported":1759169696,"current_range_meters":6000,"station_id":"ce4bhe12rcd13ifvqf30","pricing_plan_id":"cebpf4jnsgd1na2vs0mg"},{"bike_id":"2ea17b5b-cbd9-4f02-af2c-a9ba40f321c1","system_id":"levelo_inurba_marseille","lat":43.293,"lon":5.37466,"is_reserved":false,"is_disabled":false,"rental_uris":{"android":"levelo://app?vid=2ea17b5b-cbd9-4f02-af2c-a9ba40f321c1","ios":"levelo://app?vid=2ea17b5b-cbd9-4f02-af2c-a9ba40f321c1"},"vehicle_type_id":"4","last_reported":1759169696,"current_range_meters":6000,"station_id":"ce4bgi12rcd13ifvqb70","pricing_plan_id":"cebpf4jnsgd1na2vs0mg"},{"bike_id":"f0a62be3-9d99-40fc-b88c-1e00c89ff2a7","system_id":"levelo_inurba_marseille","lat":43.290725,"lon":5.371729,"is_reserved":false,"is_disabled":false,"rental_uris":{"android":"levelo://app?vid=f0a62be3-9d99-40fc-b88c-1e00c89ff2a7","ios":"levelo://app?vid=f0a62be3-9d99-40fc-b88c-1e00c89ff2a7"},"vehicle_type_id":"4","last_reported":1759169696,"current_range_meters":6000,"station_id":"ce4bh5p2rcd13ifvqe4g","pricing_plan_id":"cebpf4jnsgd1na2vs0mg"},{"bike_id":"a531b475-fbea-47f7-9b54-763a349e3604","system_id":"levelo_inurba_marseille","lat":43.28711,"lon":5.3998,"is_reserved":false,"is_disabled":false,"rental_uris":{"android":"levelo://app?vid=a531b475-fbea-47f7-9b54-763a349e3604","ios":"levelo://app?vid=a531b475-fbea-47f7-9b54-763a349e3604"},"vehicle_type_id":"4","last_reported":1759169696,"current_range_meters":6000,"station_id":"ce4bho92rcd13ifvqh3g","pricing_plan_id":"cebpf4jnsgd1na2vs0mg"},{"bike_id":"e5dcab55-de7c-4c1e-8767-768182ea5ce8","system_id":"levelo_inurba_marseille","lat":43.28723,"lon":5.36089,"is_reserved":false,"is_disabled":false,"rental_uris":{"android":"levelo://app?vid=e5dcab55-de7c-4c1e-8767-768182ea5ce8","ios":"levelo://app?vid=e5dcab55-de7c-4c1e-8767-768182ea5ce8"},"vehicle_type_id":"4","last_reported":1759169696,"current_range_meters":6400,"station_id":"cki0cbj6b192h4jlfktg","pricing_plan_id":"cebpf4jnsgd1na2vs0mg"},{"bike_id":"ad4373c5-8d2d-4e32-a085-60a4af83d94c","system_id":"levelo_inurba_marseille","lat":43.31115,"lon":5.37777,"is_reserved":false,"is_disabled":false,"rental_uris":{"android":"levelo://app?vid=ad4373c5-8d2d-4e32-a085-60a4af83d94c","ios":"levelo://app?vid=ad4373c5-8d2d-4e32-a085-60a4af83d94c"},"vehicle_type_id":"4","last_reported":1759169696,"current_range_meters":6400,"station_id":"ce4bgt92rcd13ifvqcg0","pricing_plan_id":"cebpf4jnsgd1na2vs0mg"},{"bike_id":"8fe55a06-3727-430d-947d-d30149af51d2","system_id":"levelo_inurba_marseille","lat":43.25584,"lon":5.3826,"is_reserved":false,"is_disabled":false,"rental_uris":{"android":"levelo://app?vid=8fe55a06-3727-430d-947d-d30149af51d2","ios":"levelo://app?vid=8fe55a06-3727-430d-947d-d30149af51d2"},"vehicle_type_id":"4","last_reported":1759169696,"current_range_meters":6400,"station_id":"ce4bhih2rcd13ifvqfs0","pricing_plan_id":"cebpf4jnsgd1na2vs0mg"},{"bike_id":"bc85c2b7-fb13-477a-bbd7-01f47d27e6a2","system_id":"levelo_inurba_marseille","lat":43.23187,"lon":5.35566,"is_reserved":false,"is_disabled":false,"rental_uris":{"android":"levelo://app?vid=bc85c2b7-fb13-477a-bbd7-01f47d27e6a2","ios":"levelo://app?vid=bc85c2b7-fb13-477a-bbd7-01f47d27e6a2"},"vehicle_type_id":"4","last_reported":1759169696,"current_range_meters":6400,"station_id":"ce4bhu92rcd13ifvqi70","pricing_plan_id":"cebpf4jnsgd1na2vs0mg"},{"bike_id":"e4f5acbb-2676-4acf-b68a-80727e2c5cdd","system_id":"levelo_inurba_marseille","lat":43.29257,"lon":5.38443,"is_reserved":false,"is_disabled":false,"rental_uris":{"android":"levelo://app?vid=e4f5acbb-2676-4acf-b68a-80727e2c5cdd","ios":"levelo://app?vid=e4f5acbb-2676-4acf-b68a-80727e2c5cdd"},"vehicle_type_id":"4","last_reported":1759169696,"current_range_meters":6400,"station_id":"ce4bh692rcd13ifvqea0","pricing_plan_id":"cebpf4jnsgd1na2vs0mg"},{"bike_id":"fb78d8d5-f814-4bc4-8cff-5f3f388833d8","system_id":"levelo_inurba_marseille","lat":43.29033,"lon":5.38636,"is_reserved":false,"is_disabled":false,"rental_uris":{"android":"levelo://app?vid=fb78d8d5-f814-4bc4-8cff-5f3f388833d8","ios":"levelo://app?vid=fb78d8d5-f814-4bc4-8cff-5f3f388833d8"},"vehicle_type_id":"4","last_reported":1759169696,"current_range_meters":6400,"station_id":"ce4bh4p2rcd13ifvqe0g","pricing_plan_id":"cebpf4jnsgd1na2vs0mg"},{"bike_id":"f4e169e6-32e3-46ca-8c44-dd2d245fa722","system_id":"levelo_inurba_marseille","lat":43.29786,"lon":5.39348,"is_reserved":false,"is_disabled":false,"rental_uris":{"android":"levelo://app?vid=f4e169e6-32e3-46ca-8c44-dd2d245fa722","ios":"levelo://app?vid=f4e169e6-32e3-46ca-8c44-dd2d245fa722"},"vehicle_type_id":"4","last_reported":1759169696,"current_range_meters":6400,"station_id":"chh1huq6cuj3fo74tm60","pricing_plan_id":"cebpf4jnsgd1na2vs0mg"},{"bike_id":"8ec97ba1-7fa6-4afb-a371-8d287dd047ca","system_id":"levelo_inurba_marseille","lat":43.304286,"lon":5.397514,"is_reserved":false,"is_disabled":false,"rental_uris":{"android":"levelo://app?vid=8ec97ba1-7fa6-4afb-a371-8d287dd047ca","ios":"levelo://app?vid=8ec97ba1-7fa6-4afb-a371-8d287dd047ca"},"vehicle_type_id":"4","last_reported":1759169696,"current_range_meters":6400,"station_id":"ce4bh092rcd13ifvqd20","pricing_plan_id":"cebpf4jnsgd1na2vs0mg"},{"bike_id":"c9916796-5f07-4d22-aceb-87882fb08ac5","system_id":"levelo_inurba_marseille","lat":43.30567,"lon":5.36611,"is_reserved":false,"is_disabled":false,"rental_uris":{"android":"levelo://app?vid=c9916796-5f07-4d22-aceb-87882fb08ac5","ios":"levelo://app?vid=c9916796-5f07-4d22-aceb-87882fb08ac5"},"vehicle_type_id":"4","last_reported":1759169696,"current_range_meters":6800,"station_id":"ce4bgs12rcd13ifvqcag","pricing_plan_id":"cebpf4jnsgd1na2vs0mg"},{"bike_id":"8a4a8404-2223-404b-b9d6-fda388efd3eb","system_id":"levelo_inurba_marseille","lat":43.225399,"lon":5.348524,"is_reserved":false,"is_disabled":false,"rental_uris":{"android":"levelo://app?vid=8a4a8404-2223-404b-b9d6-fda388efd3eb","ios":"levelo://app?vid=8a4a8404-2223-404b-b9d6-fda388efd3eb"},"vehicle_type_id":"4","last_reported":1759169696,"current_range_meters":6800,"station_id":"","pricing_plan_id":"cebpf4jnsgd1na2vs0mg"},{"bike_id":"3ea3d53c-e6af-41f3-be44-5d6713c8040a","system_id":"levelo_inurba_marseille","lat":43.29863,"lon":5.39736,"is_reserved":false,"is_disabled":false,"rental_uris":{"android":"levelo://app?vid=3ea3d53c-e6af-41f3-be44-5d6713c8040a","ios":"levelo://app?vid=3ea3d53c-e6af-41f3-be44-5d6713c8040a"},"vehicle_type_id":"4","last_reported":1759169696,"current_range_meters":6800,"station_id":"ce4bh0h2rcd13ifvqd50","pricing_plan_id":"cebpf4jnsgd1na2vs0mg"},{"bike_id":"258ab053-1083-4ca9-a32a-1e85f085fc22","system_id":"levelo_inurba_marseille","lat":43.337444,"lon":5.374475,"is_reserved":false,"is_disabled":false,"rental_uris":{"android":"levelo://app?vid=258ab053-1083-4ca9-a32a-1e85f085fc22","ios":"levelo://app?vid=258ab053-1083-4ca9-a32a-1e85f085fc22"},"vehicle_type_id":"4","last_reported":1759169696,"current_range_meters":6800,"station_id":"","pricing_plan_id":"cebpf4jnsgd1na2vs0mg"},{"bike_id":"9ef22d16-de2c-40ae-8d2a-b4ab6dbd5002","system_id":"levelo_inurba_marseille","lat":43.31117,"lon":5.37778,"is_reserved":false,"is_disabled":false,"rental_uris":{"android":"levelo://app?vid=9ef22d16-de2c-40ae-8d2a-b4ab6dbd5002","ios":"levelo://app?vid=9ef22d16-de2c-40ae-8d2a-b4ab6dbd5002"},"vehicle_type_id":"4","last_reported":1759169696,"current_range_meters":7200,"station_id":"ce4bgt92rcd13ifvqcg0","pricing_plan_id":"cebpf4jnsgd1na2vs0mg"},{"bike_id":"8db0b184-5167-447c-be40-3007e63ba498","system_id":"levelo_inurba_marseille","lat":43.29261,"lon":5.38445,"is_reserved":false,"is_disabled":false,"rental_uris":{"android":"levelo://app?vid=8db0b184-5167-447c-be40-3007e63ba498","ios":"levelo://app?vid=8db0b184-5167-447c-be40-3007e63ba498"},"vehicle_type_id":"4","last_reported":1759169696,"current_range_meters":7200,"station_id":"ce4bh692rcd13ifvqea0","pricing_plan_id":"cebpf4jnsgd1na2vs0mg"},{"bike_id":"ae717c3f-d8a7-461a-a578-8bf557ac62db","system_id":"levelo_inurba_marseille","lat":43.25498,"lon":5.37654,"is_reserved":false,"is_disabled":false,"rental_uris":{"android":"levelo://app?vid=ae717c3f-d8a7-461a-a578-8bf557ac62db","ios":"levelo://app?vid=ae717c3f-d8a7-461a-a578-8bf557ac62db"},"vehicle_type_id":"4","last_reported":1759169696,"current_range_meters":7200,"station_id":"ce4bhh12rcd13ifvqff0","pricing_plan_id":"cebpf4jnsgd1na2vs0mg"},{"bike_id":"cefe59df-2426-4a68-83cf-fcecbb3c8c98","system_id":"levelo_inurba_marseille","lat":43.30273,"lon":5.39652,"is_reserved":false,"is_disabled":true,"rental_uris":{"android":"levelo://app?vid=cefe59df-2426-4a68-83cf-fcecbb3c8c98","ios":"levelo://app?vid=cefe59df-2426-4a68-83cf-fcecbb3c8c98"},"vehicle_type_id":"4","last_reported":1759169696,"current_range_meters":7200,"station_id":"","pricing_plan_id":"cebpf4jnsgd1na2vs0mg"},{"bike_id":"fc90c548-9456-4a69-b1c3-247fddbf5b91","system_id":"levelo_inurba_marseille","lat":43.28845,"lon":5.39326,"is_reserved":false,"is_disabled":false,"rental_uris":{"android":"levelo://app?vid=fc90c548-9456-4a69-b1c3-247fddbf5b91","ios":"levelo://app?vid=fc90c548-9456-4a69-b1c3-247fddbf5b91"},"vehicle_type_id":"4","last_reported":1759169696,"current_range_meters":7200,"station_id":"ce4bh2p2rcd13ifvqdi0","pricing_plan_id":"cebpf4jnsgd1na2vs0mg"},{"bike_id":"f9b9c3ec-61a2-402c-a0f4-fd6582d17287","system_id":"levelo_inurba_marseille","lat":43.29303,"lon":5.37456,"is_reserved":false,"is_disabled":false,"rental_uris":{"android":"levelo://app?vid=f9b9c3ec-61a2-402c-a0f4-fd6582d17287","ios":"levelo://app?vid=f9b9c3ec-61a2-402c-a0f4-fd6582d17287"},"vehicle_type_id":"4","last_reported":1759169696,"current_range_meters":7200,"station_id":"ce4bgi12rcd13ifvqb70","pricing_plan_id":"cebpf4jnsgd1na2vs0mg"},{"bike_id":"8b353c9e-13c5-42ee-a76f-ccbd6269a3dc","system_id":"levelo_inurba_marseille","lat":43.30424,"lon":5.366666,"is_reserved":false,"is_disabled":false,"rental_uris":{"android":"levelo://app?vid=8b353c9e-13c5-42ee-a76f-ccbd6269a3dc","ios":"levelo://app?vid=8b353c9e-13c5-42ee-a76f-ccbd6269a3dc"},"vehicle_type_id":"4","last_reported":1759169696,"current_range_meters":8000,"station_id":"","pricing_plan_id":"cebpf4jnsgd1na2vs0mg"},{"bike_id":"6dadca8b-1783-4f22-927a-396948aff375","system_id":"levelo_inurba_marseille","lat":43.31062,"lon":5.38356,"is_reserved":false,"is_disabled":false,"rental_uris":{"android":"levelo://app?vid=6dadca8b-1783-4f22-927a-396948aff375","ios":"levelo://app?vid=6dadca8b-1783-4f22-927a-396948aff375"},"vehicle_type_id":"4","last_reported":1759169696,"current_range_meters":8000,"station_id":"ce4bgv92rcd13ifvqcr0","pricing_plan_id":"cebpf4jnsgd1na2vs0mg"},{"bike_id":"1a427523-89b9-416f-b456-71f200f39ffb","system_id":"levelo_inurba_marseille","lat":43.26568,"lon":5.40333,"is_reserved":false,"is_disabled":false,"rental_uris":{"android":"levelo://app?vid=1a427523-89b9-416f-b456-71f200f39ffb","ios":"levelo://app?vid=1a427523-89b9-416f-b456-71f200f39ffb"},"vehicle_type_id":"4","last_reported":1759169696,"current_range_meters":8000,"station_id":"ce4bhmp2rcd13ifvqgng","pricing_plan_id":"cebpf4jnsgd1na2vs0mg"},{"bike_id":"97bb1058-c810-4149-8415-10fcc9abfb72","system_id":"levelo_inurba_marseille","lat":43.3117,"lon":5.38723,"is_reserved":false,"is_disabled":false,"rental_uris":{"android":"levelo://app?vid=97bb1058-c810-4149-8415-10fcc9abfb72","ios":"levelo://app?vid=97bb1058-c810-4149-8415-10fcc9abfb72"},"vehicle_type_id":"4","last_reported":1759169696,"current_range_meters":2000,"station_id":"ce4bgv12rcd13ifvqcp0","pricing_plan_id":"cebpf4jnsgd1na2vs0mg"},{"bike_id":"7bd72a2c-237b-49a3-8c8a-6ce244f386ea","system_id":"levelo_inurba_marseille","lat":43.30423,"lon":5.41286,"is_reserved":false,"is_disabled":false,"rental_uris":{"android":"levelo://app?vid=7bd72a2c-237b-49a3-8c8a-6ce244f386ea","ios":"levelo://app?vid=7bd72a2c-237b-49a3-8c8a-6ce244f386ea"},"vehicle_type_id":"4","last_reported":1759169696,"current_range_meters":8000,"station_id":"ce4bhop2rcd13ifvqh8g","pricing_plan_id":"cebpf4jnsgd1na2vs0mg"},{"bike_id":"ee96a502-9b76-492e-840a-498b02aefe72","system_id":"levelo_inurba_marseille","lat":43.32355,"lon":5.39217,"is_reserved":false,"is_disabled":false,"rental_uris":{"android":"levelo://app?vid=ee96a502-9b76-492e-840a-498b02aefe72","ios":"levelo://app?vid=ee96a502-9b76-492e-840a-498b02aefe72"},"vehicle_type_id":"4","last_reported":1759169696,"current_range_meters":8000,"station_id":"","pricing_plan_id":"cebpf4jnsgd1na2vs0mg"},{"bike_id":"bb0939b8-fd8e-454a-b101-8a00f4a3fc30","system_id":"levelo_inurba_marseille","lat":43.29528,"lon":5.39401,"is_reserved":false,"is_disabled":false,"rental_uris":{"android":"levelo://app?vid=bb0939b8-fd8e-454a-b101-8a00f4a3fc30","ios":"levelo://app?vid=bb0939b8-fd8e-454a-b101-8a00f4a3fc30"},"vehicle_type_id":"4","last_reported":1759169696,"current_range_meters":6000,"station_id":"ce4bh292rcd13ifvqdf0","pricing_plan_id":"cebpf4jnsgd1na2vs0mg"},{"bike_id":"6eeea41b-aa60-4f14-a3fb-55ba3b641da2","system_id":"levelo_inurba_marseille","lat":43.29863,"lon":5.38908,"is_reserved":false,"is_disabled":true,"rental_uris":{"android":"levelo://app?vid=6eeea41b-aa60-4f14-a3fb-55ba3b641da2","ios":"levelo://app?vid=6eeea41b-aa60-4f14-a3fb-55ba3b641da2"},"vehicle_type_id":"4","last_reported":1759169696,"current_range_meters":8000,"station_id":"ce4bh392rcd13ifvqdl0","pricing_plan_id":"cebpf4jnsgd1na2vs0mg"},{"bike_id":"da0f26e9-0bdb-4063-b9f5-dcfb6728a88e","system_id":"levelo_inurba_marseille","lat":43.22932,"lon":5.35386,"is_reserved":false,"is_disabled":true,"rental_uris":{"android":"levelo://app?vid=da0f26e9-0bdb-4063-b9f5-dcfb6728a88e","ios":"levelo://app?vid=da0f26e9-0bdb-4063-b9f5-dcfb6728a88e"},"vehicle_type_id":"4","last_reported":1759169696,"current_range_meters":8000,"station_id":"cpo3532slgdg3j2ikp40","pricing_plan_id":"cebpf4jnsgd1na2vs0mg"},{"bike_id":"e6f7a0c7-26ec-43c4-b694-f39a869f510a","system_id":"levelo_inurba_marseille","lat":43.29268,"lon":5.38437,"is_reserved":false,"is_disabled":true,"rental_uris":{"android":"levelo://app?vid=e6f7a0c7-26ec-43c4-b694-f39a869f510a","ios":"levelo://app?vid=e6f7a0c7-26ec-43c4-b694-f39a869f510a"},"vehicle_type_id":"4","last_reported":1759169696,"current_range_meters":8000,"station_id":"ce4bh692rcd13ifvqea0","pricing_plan_id":"cebpf4jnsgd1na2vs0mg"},{"bike_id":"188830d8-d60c-4934-b1c8-c40a9cdc6697","system_id":"levelo_inurba_marseille","lat":43.289509,"lon":5.366433,"is_reserved":false,"is_disabled":false,"rental_uris":{"android":"levelo://app?vid=188830d8-d60c-4934-b1c8-c40a9cdc6697","ios":"levelo://app?vid=188830d8-d60c-4934-b1c8-c40a9cdc6697"},"vehicle_type_id":"4","last_reported":1759169696,"current_range_meters":8000,"station_id":"ce4bhap2rcd13ifvqek0","pricing_plan_id":"cebpf4jnsgd1na2vs0mg"},{"bike_id":"6d392b4b-28dc-4471-bc7a-9685640dbd94","system_id":"levelo_inurba_marseille","lat":43.29257,"lon":5.40913,"is_reserved":false,"is_disabled":false,"rental_uris":{"android":"levelo://app?vid=6d392b4b-28dc-4471-bc7a-9685640dbd94","ios":"levelo://app?vid=6d392b4b-28dc-4471-bc7a-9685640dbd94"},"vehicle_type_id":"4","last_reported":1759169696,"current_range_meters":8000,"station_id":"ce4bh192rcd13ifvqdc0","pricing_plan_id":"cebpf4jnsgd1na2vs0mg"},{"bike_id":"04cb393d-b1e8-4a72-ab1f-4e3a96eac3f7","system_id":"levelo_inurba_marseille","lat":43.28109,"lon":5.37837,"is_reserved":false,"is_disabled":false,"rental_uris":{"android":"levelo://app?vid=04cb393d-b1e8-4a72-ab1f-4e3a96eac3f7","ios":"levelo://app?vid=04cb393d-b1e8-4a72-ab1f-4e3a96eac3f7"},"vehicle_type_id":"4","last_reported":1759169696,"current_range_meters":8000,"station_id":"ce4bha12rcd13ifvqee0","pricing_plan_id":"cebpf4jnsgd1na2vs0mg"},{"bike_id":"1dad2113-89e2-44fc-a0b6-ddd6a09baff1","system_id":"levelo_inurba_marseille","lat":43.337444,"lon":5.374475,"is_reserved":false,"is_disabled":false,"rental_uris":{"android":"levelo://app?vid=1dad2113-89e2-44fc-a0b6-ddd6a09baff1","ios":"levelo://app?vid=1dad2113-89e2-44fc-a0b6-ddd6a09baff1"},"vehicle_type_id":"4","last_reported":1759169696,"current_range_meters":8000,"station_id":"","pricing_plan_id":"cebpf4jnsgd1na2vs0mg"},{"bike_id":"ab3e4d7b-b29e-4f76-bc69-a9c42e2a028a","system_id":"levelo_inurba_marseille","lat":43.30377,"lon":5.42477,"is_reserved":false,"is_disabled":false,"rental_uris":{"android":"levelo://app?vid=ab3e4d7b-b29e-4f76-bc69-a9c42e2a028a","ios":"levelo://app?vid=ab3e4d7b-b29e-4f76-bc69-a9c42e2a028a"},"vehicle_type_id":"4","last_reported":1759169696,"current_range_meters":8400,"station_id":"ce4bhoh2rcd13ifvqh6g","pricing_plan_id":"cebpf4jnsgd1na2vs0mg"},{"bike_id":"9307c200-f0ae-4aa3-b641-426445272084","system_id":"levelo_inurba_marseille","lat":43.2959,"lon":5.38107,"is_reserved":false,"is_disabled":false,"rental_uris":{"android":"levelo://app?vid=9307c200-f0ae-4aa3-b641-426445272084","ios":"levelo://app?vid=9307c200-f0ae-4aa3-b641-426445272084"},"vehicle_type_id":"4","last_reported":1759169696,"current_range_meters":8400,"station_id":"ce4bgl12rcd13ifvqbo0","pricing_plan_id":"cebpf4jnsgd1na2vs0mg"},{"bike_id":"2912895c-ae39-4552-8ba6-56a81b4e2f5a","system_id":"levelo_inurba_marseille","lat":43.24652,"lon":5.38895,"is_reserved":false,"is_disabled":false,"rental_uris":{"android":"levelo://app?vid=2912895c-ae39-4552-8ba6-56a81b4e2f5a","ios":"levelo://app?vid=2912895c-ae39-4552-8ba6-56a81b4e2f5a"},"vehicle_type_id":"4","last_reported":1759169696,"current_range_meters":8400,"station_id":"ce4bhg12rcd13ifvqf60","pricing_plan_id":"cebpf4jnsgd1na2vs0mg"},{"bike_id":"2c6518be-b3f0-42d2-93c9-c1de9e54885f","system_id":"levelo_inurba_marseille","lat":43.29227,"lon":5.38219,"is_reserved":false,"is_disabled":false,"rental_uris":{"android":"levelo://app?vid=2c6518be-b3f0-42d2-93c9-c1de9e54885f","ios":"levelo://app?vid=2c6518be-b3f0-42d2-93c9-c1de9e54885f"},"vehicle_type_id":"4","last_reported":1759169696,"current_range_meters":8400,"station_id":"","pricing_plan_id":"cebpf4jnsgd1na2vs0mg"},{"bike_id":"cebffcbc-0db6-412d-add8-54304fd0ea2b","system_id":"levelo_inurba_marseille","lat":43.29588,"lon":5.38103,"is_reserved":false,"is_disabled":false,"rental_uris":{"android":"levelo://app?vid=cebffcbc-0db6-412d-add8-54304fd0ea2b","ios":"levelo://app?vid=cebffcbc-0db6-412d-add8-54304fd0ea2b"},"vehicle_type_id":"4","last_reported":1759169696,"current_range_meters":8400,"station_id":"ce4bgl12rcd13ifvqbo0","pricing_plan_id":"cebpf4jnsgd1na2vs0mg"},{"bike_id":"d515a3cf-29dc-4e14-ae7f-af1536e8a0a3","system_id":"levelo_inurba_marseille","lat":43.27062,"lon":5.42284,"is_reserved":false,"is_disabled":false,"rental_uris":{"android":"levelo://app?vid=d515a3cf-29dc-4e14-ae7f-af1536e8a0a3","ios":"levelo://app?vid=d515a3cf-29dc-4e14-ae7f-af1536e8a0a3"},"vehicle_type_id":"4","last_reported":1759169696,"current_range_meters":8400,"station_id":"ce4bhk92rcd13ifvqgb0","pricing_plan_id":"cebpf4jnsgd1na2vs0mg"},{"bike_id":"33ad0a6a-6c3a-4cb6-abbb-221b72a9a741","system_id":"levelo_inurba_marseille","lat":43.29657,"lon":5.40608,"is_reserved":false,"is_disabled":false,"rental_uris":{"android":"levelo://app?vid=33ad0a6a-6c3a-4cb6-abbb-221b72a9a741","ios":"levelo://app?vid=33ad0a6a-6c3a-4cb6-abbb-221b72a9a741"},"vehicle_type_id":"4","last_reported":1759169696,"current_range_meters":8400,"station_id":"ce4bh0h2rcd13ifvqd60","pricing_plan_id":"cebpf4jnsgd1na2vs0mg"},{"bike_id":"82fe119c-e6bd-4e98-9565-3993a6eca539","system_id":"levelo_inurba_marseille","lat":43.29161,"lon":5.37168,"is_reserved":false,"is_disabled":false,"rental_uris":{"android":"levelo://app?vid=82fe119c-e6bd-4e98-9565-3993a6eca539","ios":"levelo://app?vid=82fe119c-e6bd-4e98-9565-3993a6eca539"},"vehicle_type_id":"4","last_reported":1759169696,"current_range_meters":7200,"station_id":"ce4bha92rcd13ifvqeh0","pricing_plan_id":"cebpf4jnsgd1na2vs0mg"},{"bike_id":"f066f6e0-58b1-408e-bdaf-f43ee08cef83","system_id":"levelo_inurba_marseille","lat":43.281,"lon":5.37836,"is_reserved":false,"is_disabled":false,"rental_uris":{"android":"levelo://app?vid=f066f6e0-58b1-408e-bdaf-f43ee08cef83","ios":"levelo://app?vid=f066f6e0-58b1-408e-bdaf-f43ee08cef83"},"vehicle_type_id":"4","last_reported":1759169696,"current_range_meters":8000,"station_id":"ce4bha12rcd13ifvqee0","pricing_plan_id":"cebpf4jnsgd1na2vs0mg"},{"bike_id":"614333db-3de8-4bda-9f1e-f773f878a6e4","system_id":"levelo_inurba_marseille","lat":43.265683,"lon":5.403278,"is_reserved":false,"is_disabled":false,"rental_uris":{"android":"levelo://app?vid=614333db-3de8-4bda-9f1e-f773f878a6e4","ios":"levelo://app?vid=614333db-3de8-4bda-9f1e-f773f878a6e4"},"vehicle_type_id":"4","last_reported":1759169696,"current_range_meters":8400,"station_id":"ce4bhmp2rcd13ifvqgng","pricing_plan_id":"cebpf4jnsgd1na2vs0mg"},{"bike_id":"8b22df52-f7a7-483b-be08-ec9712a7193a","system_id":"levelo_inurba_marseille","lat":43.23185,"lon":5.39992,"is_reserved":false,"is_disabled":false,"rental_uris":{"android":"levelo://app?vid=8b22df52-f7a7-483b-be08-ec9712a7193a","ios":"levelo://app?vid=8b22df52-f7a7-483b-be08-ec9712a7193a"},"vehicle_type_id":"4","last_reported":1759169696,"current_range_meters":8800,"station_id":"ce4bhn12rcd13ifvqgqg","pricing_plan_id":"cebpf4jnsgd1na2vs0mg"},{"bike_id":"c29764c0-1ed4-42eb-865a-0c49767897dc","system_id":"levelo_inurba_marseille","lat":43.253442,"lon":5.421695,"is_reserved":false,"is_disabled":true,"rental_uris":{"android":"levelo://app?vid=c29764c0-1ed4-42eb-865a-0c49767897dc","ios":"levelo://app?vid=c29764c0-1ed4-42eb-865a-0c49767897dc"},"vehicle_type_id":"4","last_reported":1759169696,"current_range_meters":8800,"station_id":"st_d2m65c5bi1j21697t3ng","pricing_plan_id":"cebpf4jnsgd1na2vs0mg"},{"bike_id":"24610806-e71b-42aa-867c-5e039e777de0","system_id":"levelo_inurba_marseille","lat":43.30463,"lon":5.37903,"is_reserved":false,"is_disabled":false,"rental_uris":{"android":"levelo://app?vid=24610806-e71b-42aa-867c-5e039e777de0","ios":"levelo://app?vid=24610806-e71b-42aa-867c-5e039e777de0"},"vehicle_type_id":"4","last_reported":1759169696,"current_range_meters":8800,"station_id":"ce4bgup2rcd13ifvqcn0","pricing_plan_id":"cebpf4jnsgd1na2vs0mg"},{"bike_id":"511cc80f-04a6-4a9f-afdd-004129d93b1f","system_id":"levelo_inurba_marseille","lat":43.26604,"lon":5.39378,"is_reserved":false,"is_disabled":false,"rental_uris":{"android":"levelo://app?vid=511cc80f-04a6-4a9f-afdd-004129d93b1f","ios":"levelo://app?vid=511cc80f-04a6-4a9f-afdd-004129d93b1f"},"vehicle_type_id":"4","last_reported":1759169696,"current_range_meters":8800,"station_id":"","pricing_plan_id":"cebpf4jnsgd1na2vs0mg"},{"bike_id":"03350417-1098-4d6c-b8fe-9e64358744bf","system_id":"levelo_inurba_marseille","lat":43.30927,"lon":5.37542,"is_reserved":false,"is_disabled":false,"rental_uris":{"android":"levelo://app?vid=03350417-1098-4d6c-b8fe-9e64358744bf","ios":"levelo://app?vid=03350417-1098-4d6c-b8fe-9e64358744bf"},"vehicle_type_id":"4","last_reported":1759169696,"current_range_meters":8800,"station_id":"","pricing_plan_id":"cebpf4jnsgd1na2vs0mg"},{"bike_id":"bf1e2110-19dd-4bb5-bda4-f28c13f6cf04","system_id":"levelo_inurba_marseille","lat":43.3133,"lon":5.39694,"is_reserved":false,"is_disabled":false,"rental_uris":{"android":"levelo://app?vid=bf1e2110-19dd-4bb5-bda4-f28c13f6cf04","ios":"levelo://app?vid=bf1e2110-19dd-4bb5-bda4-f28c13f6cf04"},"vehicle_type_id":"4","last_reported":1759169696,"current_range_meters":9200,"station_id":"ce4bgvp2rcd13ifvqcu0","pricing_plan_id":"cebpf4jnsgd1na2vs0mg"},{"bike_id":"86dff2f8-bd10-4ac5-b7e0-a22d1cc1d026","system_id":"levelo_inurba_marseille","lat":43.30251,"lon":5.40071,"is_reserved":false,"is_disabled":false,"rental_uris":{"android":"levelo://app?vid=86dff2f8-bd10-4ac5-b7e0-a22d1cc1d026","ios":"levelo://app?vid=86dff2f8-bd10-4ac5-b7e0-a22d1cc1d026"},"vehicle_type_id":"4","last_reported":1759169696,"current_range_meters":9200,"station_id":"ce4bgvh2rcd13ifvqcs0","pricing_plan_id":"cebpf4jnsgd1na2vs0mg"},{"bike_id":"03e38958-02d9-431c-aa26-c4e1013a7cf3","system_id":"levelo_inurba_marseille","lat":43.28869,"lon":5.42518,"is_reserved":false,"is_disabled":false,"rental_uris":{"android":"levelo://app?vid=03e38958-02d9-431c-aa26-c4e1013a7cf3","ios":"levelo://app?vid=03e38958-02d9-431c-aa26-c4e1013a7cf3"},"vehicle_type_id":"4","last_reported":1759169696,"current_range_meters":9200,"station_id":"st_d3b462108ojc7389ooeg","pricing_plan_id":"cebpf4jnsgd1na2vs0mg"},{"bike_id":"35e8f722-b82a-4247-beb8-7e2827829ce6","system_id":"levelo_inurba_marseille","lat":43.32405,"lon":5.3911,"is_reserved":false,"is_disabled":false,"rental_uris":{"android":"levelo://app?vid=35e8f722-b82a-4247-beb8-7e2827829ce6","ios":"levelo://app?vid=35e8f722-b82a-4247-beb8-7e2827829ce6"},"vehicle_type_id":"4","last_reported":1759169696,"current_range_meters":9200,"station_id":"","pricing_plan_id":"cebpf4jnsgd1na2vs0mg"},{"bike_id":"e75a043a-077f-43a6-9b36-26a2c2059b68","system_id":"levelo_inurba_marseille","lat":43.29026,"lon":5.38651,"is_reserved":false,"is_disabled":false,"rental_uris":{"android":"levelo://app?vid=e75a043a-077f-43a6-9b36-26a2c2059b68","ios":"levelo://app?vid=e75a043a-077f-43a6-9b36-26a2c2059b68"},"vehicle_type_id":"4","last_reported":1759169696,"current_range_meters":8800,"station_id":"ce4bh4p2rcd13ifvqe0g","pricing_plan_id":"cebpf4jnsgd1na2vs0mg"},{"bike_id":"a6e319a5-7e62-47ec-accc-66352b923dd0","system_id":"levelo_inurba_marseille","lat":43.30422,"lon":5.41291,"is_reserved":false,"is_disabled":false,"rental_uris":{"android":"levelo://app?vid=a6e319a5-7e62-47ec-accc-66352b923dd0","ios":"levelo://app?vid=a6e319a5-7e62-47ec-accc-66352b923dd0"},"vehicle_type_id":"4","last_reported":1759169696,"current_range_meters":9200,"station_id":"ce4bhop2rcd13ifvqh8g","pricing_plan_id":"cebpf4jnsgd1na2vs0mg"},{"bike_id":"e5378695-fba9-432a-9cfb-3b5b05e40fec","system_id":"levelo_inurba_marseille","lat":43.337986,"lon":5.374304,"is_reserved":false,"is_disabled":false,"rental_uris":{"android":"levelo://app?vid=e5378695-fba9-432a-9cfb-3b5b05e40fec","ios":"levelo://app?vid=e5378695-fba9-432a-9cfb-3b5b05e40fec"},"vehicle_type_id":"4","last_reported":1759169696,"current_range_meters":9200,"station_id":"","pricing_plan_id":"cebpf4jnsgd1na2vs0mg"},{"bike_id":"c47f5c3e-1ff3-43b7-b740-1c081ef57305","system_id":"levelo_inurba_marseille","lat":43.29647,"lon":5.376,"is_reserved":false,"is_disabled":false,"rental_uris":{"android":"levelo://app?vid=c47f5c3e-1ff3-43b7-b740-1c081ef57305","ios":"levelo://app?vid=c47f5c3e-1ff3-43b7-b740-1c081ef57305"},"vehicle_type_id":"4","last_reported":1759169696,"current_range_meters":9600,"station_id":"","pricing_plan_id":"cebpf4jnsgd1na2vs0mg"},{"bike_id":"850745f2-1fd1-497f-a0b2-b357ec43e2b0","system_id":"levelo_inurba_marseille","lat":43.2657,"lon":5.39009,"is_reserved":false,"is_disabled":false,"rental_uris":{"android":"levelo://app?vid=850745f2-1fd1-497f-a0b2-b357ec43e2b0","ios":"levelo://app?vid=850745f2-1fd1-497f-a0b2-b357ec43e2b0"},"vehicle_type_id":"4","last_reported":1759169696,"current_range_meters":9600,"station_id":"ce4bhe12rcd13ifvqf30","pricing_plan_id":"cebpf4jnsgd1na2vs0mg"},{"bike_id":"805d261a-8a05-45b4-8761-4b367f7f327c","system_id":"levelo_inurba_marseille","lat":43.29521,"lon":5.39412,"is_reserved":false,"is_disabled":false,"rental_uris":{"android":"levelo://app?vid=805d261a-8a05-45b4-8761-4b367f7f327c","ios":"levelo://app?vid=805d261a-8a05-45b4-8761-4b367f7f327c"},"vehicle_type_id":"4","last_reported":1759169696,"current_range_meters":9600,"station_id":"ce4bh292rcd13ifvqdf0","pricing_plan_id":"cebpf4jnsgd1na2vs0mg"},{"bike_id":"d7d09523-34bb-44d2-9695-02f0abea9b47","system_id":"levelo_inurba_marseille","lat":43.29717,"lon":5.37842,"is_reserved":false,"is_disabled":false,"rental_uris":{"android":"levelo://app?vid=d7d09523-34bb-44d2-9695-02f0abea9b47","ios":"levelo://app?vid=d7d09523-34bb-44d2-9695-02f0abea9b47"},"vehicle_type_id":"4","last_reported":1759169696,"current_range_meters":9600,"station_id":"","pricing_plan_id":"cebpf4jnsgd1na2vs0mg"},{"bike_id":"45cd9e73-8786-4978-9923-6422323a7327","system_id":"levelo_inurba_marseille","lat":43.25575,"lon":5.38259,"is_reserved":false,"is_disabled":true,"rental_uris":{"android":"levelo://app?vid=45cd9e73-8786-4978-9923-6422323a7327","ios":"levelo://app?vid=45cd9e73-8786-4978-9923-6422323a7327"},"vehicle_type_id":"4","last_reported":1759169696,"current_range_meters":9600,"station_id":"ce4bhih2rcd13ifvqfs0","pricing_plan_id":"cebpf4jnsgd1na2vs0mg"},{"bike_id":"a3eeb075-923a-4788-96f1-d0b7f025aeb7","system_id":"levelo_inurba_marseille","lat":43.29167,"lon":5.37182,"is_reserved":false,"is_disabled":false,"rental_uris":{"android":"levelo://app?vid=a3eeb075-923a-4788-96f1-d0b7f025aeb7","ios":"levelo://app?vid=a3eeb075-923a-4788-96f1-d0b7f025aeb7"},"vehicle_type_id":"4","last_reported":1759169696,"current_range_meters":12000,"station_id":"ce4bha92rcd13ifvqeh0","pricing_plan_id":"cebpf4jnsgd1na2vs0mg"},{"bike_id":"d1976417-3502-4fa6-b07c-452f75f60560","system_id":"levelo_inurba_marseille","lat":43.295169,"lon":5.390387,"is_reserved":false,"is_disabled":false,"rental_uris":{"android":"levelo://app?vid=d1976417-3502-4fa6-b07c-452f75f60560","ios":"levelo://app?vid=d1976417-3502-4fa6-b07c-452f75f60560"},"vehicle_type_id":"4","last_reported":1759169696,"current_range_meters":9200,"station_id":"ce4bh3p2rcd13ifvqdp0","pricing_plan_id":"cebpf4jnsgd1na2vs0mg"},{"bike_id":"ce59f9ec-42af-46b2-9013-3af26a13a794","system_id":"levelo_inurba_marseille","lat":43.30273,"lon":5.4008,"is_reserved":false,"is_disabled":false,"rental_uris":{"android":"levelo://app?vid=ce59f9ec-42af-46b2-9013-3af26a13a794","ios":"levelo://app?vid=ce59f9ec-42af-46b2-9013-3af26a13a794"},"vehicle_type_id":"4","last_reported":1759169696,"current_range_meters":10000,"station_id":"ce4bgvh2rcd13ifvqcs0","pricing_plan_id":"cebpf4jnsgd1na2vs0mg"},{"bike_id":"4ad96011-f79c-4c93-92e5-fe561776647c","system_id":"levelo_inurba_marseille","lat":43.31891,"lon":5.40748,"is_reserved":false,"is_disabled":false,"rental_uris":{"android":"levelo://app?vid=4ad96011-f79c-4c93-92e5-fe561776647c","ios":"levelo://app?vid=4ad96011-f79c-4c93-92e5-fe561776647c"},"vehicle_type_id":"4","last_reported":1759169696,"current_range_meters":10000,"station_id":"ce4bhq12rcd13ifvqhig","pricing_plan_id":"cebpf4jnsgd1na2vs0mg"},{"bike_id":"07648681-7b10-4ced-8d96-599377d8d028","system_id":"levelo_inurba_marseille","lat":43.320014,"lon":5.381658,"is_reserved":false,"is_disabled":false,"rental_uris":{"android":"levelo://app?vid=07648681-7b10-4ced-8d96-599377d8d028","ios":"levelo://app?vid=07648681-7b10-4ced-8d96-599377d8d028"},"vehicle_type_id":"4","last_reported":1759169696,"current_range_meters":10000,"station_id":"ce4bhr12rcd13ifvqhpg","pricing_plan_id":"cebpf4jnsgd1na2vs0mg"},{"bike_id":"39f0cdae-2541-46ab-901f-6e0b9174cc1a","system_id":"levelo_inurba_marseille","lat":43.28004,"lon":5.40012,"is_reserved":false,"is_disabled":false,"rental_uris":{"android":"levelo://app?vid=39f0cdae-2541-46ab-901f-6e0b9174cc1a","ios":"levelo://app?vid=39f0cdae-2541-46ab-901f-6e0b9174cc1a"},"vehicle_type_id":"4","last_reported":1759169696,"current_range_meters":10000,"station_id":"ce4bho92rcd13ifvqh4g","pricing_plan_id":"cebpf4jnsgd1na2vs0mg"},{"bike_id":"aa964867-cd5c-4289-89a3-2ad56cce8ab1","system_id":"levelo_inurba_marseille","lat":43.2318,"lon":5.39992,"is_reserved":false,"is_disabled":false,"rental_uris":{"android":"levelo://app?vid=aa964867-cd5c-4289-89a3-2ad56cce8ab1","ios":"levelo://app?vid=aa964867-cd5c-4289-89a3-2ad56cce8ab1"},"vehicle_type_id":"4","last_reported":1759169696,"current_range_meters":10000,"station_id":"ce4bhn12rcd13ifvqgqg","pricing_plan_id":"cebpf4jnsgd1na2vs0mg"},{"bike_id":"3645f311-b424-42ff-8ab3-a598710e9214","system_id":"levelo_inurba_marseille","lat":43.23193,"lon":5.39985,"is_reserved":false,"is_disabled":true,"rental_uris":{"android":"levelo://app?vid=3645f311-b424-42ff-8ab3-a598710e9214","ios":"levelo://app?vid=3645f311-b424-42ff-8ab3-a598710e9214"},"vehicle_type_id":"4","last_reported":1759169696,"current_range_meters":10800,"station_id":"ce4bhn12rcd13ifvqgqg","pricing_plan_id":"cebpf4jnsgd1na2vs0mg"},{"bike_id":"b6a57b90-e1df-4d16-8464-7614d8008326","system_id":"levelo_inurba_marseille","lat":43.31713,"lon":5.43711,"is_reserved":false,"is_disabled":false,"rental_uris":{"android":"levelo://app?vid=b6a57b90-e1df-4d16-8464-7614d8008326","ios":"levelo://app?vid=b6a57b90-e1df-4d16-8464-7614d8008326"},"vehicle_type_id":"4","last_reported":1759169696,"current_range_meters":10800,"station_id":"ce4bhp92rcd13ifvqhcg","pricing_plan_id":"cebpf4jnsgd1na2vs0mg"},{"bike_id":"b112c340-5c7f-4d60-8acc-43466e19c436","system_id":"levelo_inurba_marseille","lat":43.25097,"lon":5.39521,"is_reserved":false,"is_disabled":false,"rental_uris":{"android":"levelo://app?vid=b112c340-5c7f-4d60-8acc-43466e19c436","ios":"levelo://app?vid=b112c340-5c7f-4d60-8acc-43466e19c436"},"vehicle_type_id":"4","last_reported":1759169696,"current_range_meters":10800,"station_id":"ce4bhm12rcd13ifvqgkg","pricing_plan_id":"cebpf4jnsgd1na2vs0mg"},{"bike_id":"d6c734f5-0e13-46a8-8e3e-fda40abe4b7d","system_id":"levelo_inurba_marseille","lat":43.302139,"lon":5.394708,"is_reserved":false,"is_disabled":true,"rental_uris":{"android":"levelo://app?vid=d6c734f5-0e13-46a8-8e3e-fda40abe4b7d","ios":"levelo://app?vid=d6c734f5-0e13-46a8-8e3e-fda40abe4b7d"},"vehicle_type_id":"4","last_reported":1759169696,"current_range_meters":10800,"station_id":"ce4bhgh2rcd13ifvqfa0","pricing_plan_id":"cebpf4jnsgd1na2vs0mg"},{"bike_id":"80b98ce0-3233-47ce-84db-722943723d1e","system_id":"levelo_inurba_marseille","lat":43.269329,"lon":5.38928,"is_reserved":false,"is_disabled":false,"rental_uris":{"android":"levelo://app?vid=80b98ce0-3233-47ce-84db-722943723d1e","ios":"levelo://app?vid=80b98ce0-3233-47ce-84db-722943723d1e"},"vehicle_type_id":"4","last_reported":1759169696,"current_range_meters":10800,"station_id":"","pricing_plan_id":"cebpf4jnsgd1na2vs0mg"},{"bike_id":"9c4235da-d3d0-4056-aa6b-c6aa6e8e7367","system_id":"levelo_inurba_marseille","lat":43.306898,"lon":5.375236,"is_reserved":false,"is_disabled":false,"rental_uris":{"android":"levelo://app?vid=9c4235da-d3d0-4056-aa6b-c6aa6e8e7367","ios":"levelo://app?vid=9c4235da-d3d0-4056-aa6b-c6aa6e8e7367"},"vehicle_type_id":"4","last_reported":1759169696,"current_range_meters":10800,"station_id":"","pricing_plan_id":"cebpf4jnsgd1na2vs0mg"},{"bike_id":"0993abcd-55c4-418b-8f10-8d78f6d08424","system_id":"levelo_inurba_marseille","lat":43.27214,"lon":5.39189,"is_reserved":false,"is_disabled":false,"rental_uris":{"android":"levelo://app?vid=0993abcd-55c4-418b-8f10-8d78f6d08424","ios":"levelo://app?vid=0993abcd-55c4-418b-8f10-8d78f6d08424"},"vehicle_type_id":"4","last_reported":1759169696,"current_range_meters":10000,"station_id":"ce4bhhp2rcd13ifvqfm0","pricing_plan_id":"cebpf4jnsgd1na2vs0mg"},{"bike_id":"0582be26-b660-45e9-892d-5a11b4d8c76d","system_id":"levelo_inurba_marseille","lat":43.295311,"lon":5.390344,"is_reserved":false,"is_disabled":false,"rental_uris":{"android":"levelo://app?vid=0582be26-b660-45e9-892d-5a11b4d8c76d","ios":"levelo://app?vid=0582be26-b660-45e9-892d-5a11b4d8c76d"},"vehicle_type_id":"4","last_reported":1759169696,"current_range_meters":10800,"station_id":"ce4bh3p2rcd13ifvqdp0","pricing_plan_id":"cebpf4jnsgd1na2vs0mg"},{"bike_id":"8c0227e3-55e8-4994-aa0c-9b6ee99b7e26","system_id":"levelo_inurba_marseille","lat":43.23057,"lon":5.35499,"is_reserved":false,"is_disabled":false,"rental_uris":{"android":"levelo://app?vid=8c0227e3-55e8-4994-aa0c-9b6ee99b7e26","ios":"levelo://app?vid=8c0227e3-55e8-4994-aa0c-9b6ee99b7e26"},"vehicle_type_id":"4","last_reported":1759169696,"current_range_meters":11200,"station_id":"cpo3342slgdg3j2ifvpg","pricing_plan_id":"cebpf4jnsgd1na2vs0mg"},{"bike_id":"ee6406f7-9f33-4935-a835-0f3904e54bc4","system_id":"levelo_inurba_marseille","lat":43.31875,"lon":5.37317,"is_reserved":false,"is_disabled":true,"rental_uris":{"android":"levelo://app?vid=ee6406f7-9f33-4935-a835-0f3904e54bc4","ios":"levelo://app?vid=ee6406f7-9f33-4935-a835-0f3904e54bc4"},"vehicle_type_id":"4","last_reported":1759169696,"current_range_meters":11200,"station_id":"ce4bgt12rcd13ifvqcd0","pricing_plan_id":"cebpf4jnsgd1na2vs0mg"},{"bike_id":"44cc4359-e7b3-48af-83b4-65edd912ef63","system_id":"levelo_inurba_marseille","lat":43.28154,"lon":5.42645,"is_reserved":false,"is_disabled":true,"rental_uris":{"android":"levelo://app?vid=44cc4359-e7b3-48af-83b4-65edd912ef63","ios":"levelo://app?vid=44cc4359-e7b3-48af-83b4-65edd912ef63"},"vehicle_type_id":"4","last_reported":1759169696,"current_range_meters":11200,"station_id":"ce4bhnh2rcd13ifvqgug","pricing_plan_id":"cebpf4jnsgd1na2vs0mg"},{"bike_id":"912bc599-df05-414c-a4f0-2fe21fa6e86c","system_id":"levelo_inurba_marseille","lat":43.31746,"lon":5.37752,"is_reserved":false,"is_disabled":false,"rental_uris":{"android":"levelo://app?vid=912bc599-df05-414c-a4f0-2fe21fa6e86c","ios":"levelo://app?vid=912bc599-df05-414c-a4f0-2fe21fa6e86c"},"vehicle_type_id":"4","last_reported":1759169696,"current_range_meters":10800,"station_id":"ce4bgth2rcd13ifvqch0","pricing_plan_id":"cebpf4jnsgd1na2vs0mg"},{"bike_id":"f3bacdac-c459-488e-8e1f-a5eb5d7ec4e3","system_id":"levelo_inurba_marseille","lat":43.29043,"lon":5.39977,"is_reserved":false,"is_disabled":false,"rental_uris":{"android":"levelo://app?vid=f3bacdac-c459-488e-8e1f-a5eb5d7ec4e3","ios":"levelo://app?vid=f3bacdac-c459-488e-8e1f-a5eb5d7ec4e3"},"vehicle_type_id":"4","last_reported":1759169696,"current_range_meters":11200,"station_id":"ce4bh392rcd13ifvqdm0","pricing_plan_id":"cebpf4jnsgd1na2vs0mg"},{"bike_id":"4773796a-cbd2-4113-9b95-f235acacad1e","system_id":"levelo_inurba_marseille","lat":43.31246,"lon":5.36847,"is_reserved":false,"is_disabled":false,"rental_uris":{"android":"levelo://app?vid=4773796a-cbd2-4113-9b95-f235acacad1e","ios":"levelo://app?vid=4773796a-cbd2-4113-9b95-f235acacad1e"},"vehicle_type_id":"4","last_reported":1759169696,"current_range_meters":11200,"station_id":"ce4bgl92rcd13ifvqbq0","pricing_plan_id":"cebpf4jnsgd1na2vs0mg"},{"bike_id":"10176dad-e77f-4f18-8cea-556decfc72aa","system_id":"levelo_inurba_marseille","lat":43.21716,"lon":5.34548,"is_reserved":false,"is_disabled":false,"rental_uris":{"android":"levelo://app?vid=10176dad-e77f-4f18-8cea-556decfc72aa","ios":"levelo://app?vid=10176dad-e77f-4f18-8cea-556decfc72aa"},"vehicle_type_id":"4","last_reported":1759169696,"current_range_meters":11200,"station_id":"st_cvj6r9ubvosntc0bgbag","pricing_plan_id":"cebpf4jnsgd1na2vs0mg"},{"bike_id":"187c02fe-3eb7-4c0c-82bb-0605a53532a7","system_id":"levelo_inurba_marseille","lat":43.286614,"lon":5.363486,"is_reserved":false,"is_disabled":false,"rental_uris":{"android":"levelo://app?vid=187c02fe-3eb7-4c0c-82bb-0605a53532a7","ios":"levelo://app?vid=187c02fe-3eb7-4c0c-82bb-0605a53532a7"},"vehicle_type_id":"4","last_reported":1759169696,"current_range_meters":11200,"station_id":"ce4bhah2rcd13ifvqej0","pricing_plan_id":"cebpf4jnsgd1na2vs0mg"},{"bike_id":"a6970cde-57bd-4311-a7ae-d219ab0cf469","system_id":"levelo_inurba_marseille","lat":43.2953,"lon":5.38553,"is_reserved":false,"is_disabled":false,"rental_uris":{"android":"levelo://app?vid=a6970cde-57bd-4311-a7ae-d219ab0cf469","ios":"levelo://app?vid=a6970cde-57bd-4311-a7ae-d219ab0cf469"},"vehicle_type_id":"4","last_reported":1759169696,"current_range_meters":11200,"station_id":"ce4bgih2rcd13ifvqba0","pricing_plan_id":"cebpf4jnsgd1na2vs0mg"},{"bike_id":"42ff6031-a237-4eb0-82bc-9d49f7c5b788","system_id":"levelo_inurba_marseille","lat":43.29913,"lon":5.38134,"is_reserved":false,"is_disabled":false,"rental_uris":{"android":"levelo://app?vid=42ff6031-a237-4eb0-82bc-9d49f7c5b788","ios":"levelo://app?vid=42ff6031-a237-4eb0-82bc-9d49f7c5b788"},"vehicle_type_id":"4","last_reported":1759169696,"current_range_meters":10800,"station_id":"ce4bgj12rcd13ifvqbc0","pricing_plan_id":"cebpf4jnsgd1na2vs0mg"},{"bike_id":"ce5e157e-4ef2-4c41-9b3b-54d3eecbfa45","system_id":"levelo_inurba_marseille","lat":43.2254,"lon":5.34853,"is_reserved":false,"is_disabled":false,"rental_uris":{"android":"levelo://app?vid=ce5e157e-4ef2-4c41-9b3b-54d3eecbfa45","ios":"levelo://app?vid=ce5e157e-4ef2-4c41-9b3b-54d3eecbfa45"},"vehicle_type_id":"4","last_reported":1759169696,"current_range_meters":11200,"station_id":"","pricing_plan_id":"cebpf4jnsgd1na2vs0mg"},{"bike_id":"236aa8bd-b51e-40b7-b8ad-c42ca899af76","system_id":"levelo_inurba_marseille","lat":43.28723,"lon":5.36079,"is_reserved":false,"is_disabled":false,"rental_uris":{"android":"levelo://app?vid=236aa8bd-b51e-40b7-b8ad-c42ca899af76","ios":"levelo://app?vid=236aa8bd-b51e-40b7-b8ad-c42ca899af76"},"vehicle_type_id":"4","last_reported":1759169696,"current_range_meters":11600,"station_id":"cki0cbj6b192h4jlfktg","pricing_plan_id":"cebpf4jnsgd1na2vs0mg"},{"bike_id":"ab87546f-9c82-4e8c-aa56-98f6fc8cd71b","system_id":"levelo_inurba_marseille","lat":43.28453,"lon":5.39175,"is_reserved":false,"is_disabled":false,"rental_uris":{"android":"levelo://app?vid=ab87546f-9c82-4e8c-aa56-98f6fc8cd71b","ios":"levelo://app?vid=ab87546f-9c82-4e8c-aa56-98f6fc8cd71b"},"vehicle_type_id":"4","last_reported":1759169696,"current_range_meters":11600,"station_id":"ce4bhoh2rcd13ifvqh5g","pricing_plan_id":"cebpf4jnsgd1na2vs0mg"},{"bike_id":"3110c5b5-e2e9-41ae-9cc4-95e4cfaded32","system_id":"levelo_inurba_marseille","lat":43.29039,"lon":5.38657,"is_reserved":false,"is_disabled":false,"rental_uris":{"android":"levelo://app?vid=3110c5b5-e2e9-41ae-9cc4-95e4cfaded32","ios":"levelo://app?vid=3110c5b5-e2e9-41ae-9cc4-95e4cfaded32"},"vehicle_type_id":"4","last_reported":1759169696,"current_range_meters":11600,"station_id":"ce4bh4p2rcd13ifvqe0g","pricing_plan_id":"cebpf4jnsgd1na2vs0mg"},{"bike_id":"ea59b303-6900-42ad-9e79-5b0f95bedd6c","system_id":"levelo_inurba_marseille","lat":43.30441,"lon":5.36871,"is_reserved":false,"is_disabled":false,"rental_uris":{"android":"levelo://app?vid=ea59b303-6900-42ad-9e79-5b0f95bedd6c","ios":"levelo://app?vid=ea59b303-6900-42ad-9e79-5b0f95bedd6c"},"vehicle_type_id":"4","last_reported":1759169696,"current_range_meters":11600,"station_id":"","pricing_plan_id":"cebpf4jnsgd1na2vs0mg"},{"bike_id":"91a8f6ab-ec50-47d6-b3ec-4cfcab727a67","system_id":"levelo_inurba_marseille","lat":43.28841,"lon":5.39339,"is_reserved":false,"is_disabled":false,"rental_uris":{"android":"levelo://app?vid=91a8f6ab-ec50-47d6-b3ec-4cfcab727a67","ios":"levelo://app?vid=91a8f6ab-ec50-47d6-b3ec-4cfcab727a67"},"vehicle_type_id":"4","last_reported":1759169696,"current_range_meters":11600,"station_id":"ce4bh2p2rcd13ifvqdi0","pricing_plan_id":"cebpf4jnsgd1na2vs0mg"},{"bike_id":"d86446ad-6e4e-43ef-943a-4d0b1c9bdca7","system_id":"levelo_inurba_marseille","lat":43.25089,"lon":5.39527,"is_reserved":false,"is_disabled":false,"rental_uris":{"android":"levelo://app?vid=d86446ad-6e4e-43ef-943a-4d0b1c9bdca7","ios":"levelo://app?vid=d86446ad-6e4e-43ef-943a-4d0b1c9bdca7"},"vehicle_type_id":"4","last_reported":1759169696,"current_range_meters":11600,"station_id":"ce4bhm12rcd13ifvqgkg","pricing_plan_id":"cebpf4jnsgd1na2vs0mg"},{"bike_id":"c19d4687-14ff-43ae-8be1-d641e67c3c15","system_id":"levelo_inurba_marseille","lat":43.29794,"lon":5.40409,"is_reserved":false,"is_disabled":false,"rental_uris":{"android":"levelo://app?vid=c19d4687-14ff-43ae-8be1-d641e67c3c15","ios":"levelo://app?vid=c19d4687-14ff-43ae-8be1-d641e67c3c15"},"vehicle_type_id":"4","last_reported":1759169696,"current_range_meters":11600,"station_id":"ce4bh112rcd13ifvqd90","pricing_plan_id":"cebpf4jnsgd1na2vs0mg"},{"bike_id":"0eda2527-f3ce-4552-96df-04220f592c11","system_id":"levelo_inurba_marseille","lat":43.211979,"lon":5.350723,"is_reserved":false,"is_disabled":false,"rental_uris":{"android":"levelo://app?vid=0eda2527-f3ce-4552-96df-04220f592c11","ios":"levelo://app?vid=0eda2527-f3ce-4552-96df-04220f592c11"},"vehicle_type_id":"4","last_reported":1759169696,"current_range_meters":11600,"station_id":"st_cvj6sg6p6f1abm77japg","pricing_plan_id":"cebpf4jnsgd1na2vs0mg"},{"bike_id":"831e6a54-bde0-4f77-80bc-8857d66d3744","system_id":"levelo_inurba_marseille","lat":43.27948,"lon":5.41057,"is_reserved":false,"is_disabled":true,"rental_uris":{"android":"levelo://app?vid=831e6a54-bde0-4f77-80bc-8857d66d3744","ios":"levelo://app?vid=831e6a54-bde0-4f77-80bc-8857d66d3744"},"vehicle_type_id":"4","last_reported":1759169696,"current_range_meters":12000,"station_id":"ce4bhnp2rcd13ifvqh0g","pricing_plan_id":"cebpf4jnsgd1na2vs0mg"},{"bike_id":"7dc10ae7-7366-4aef-afb3-946c513f88ef","system_id":"levelo_inurba_marseille","lat":43.27998,"lon":5.36406,"is_reserved":false,"is_disabled":false,"rental_uris":{"android":"levelo://app?vid=7dc10ae7-7366-4aef-afb3-946c513f88ef","ios":"levelo://app?vid=7dc10ae7-7366-4aef-afb3-946c513f88ef"},"vehicle_type_id":"4","last_reported":1759169696,"current_range_meters":12000,"station_id":"ce4bha12rcd13ifvqef0","pricing_plan_id":"cebpf4jnsgd1na2vs0mg"},{"bike_id":"f6e8cf02-4ec8-4f47-83dd-ddd84fe62208","system_id":"levelo_inurba_marseille","lat":43.23188,"lon":5.39996,"is_reserved":false,"is_disabled":false,"rental_uris":{"android":"levelo://app?vid=f6e8cf02-4ec8-4f47-83dd-ddd84fe62208","ios":"levelo://app?vid=f6e8cf02-4ec8-4f47-83dd-ddd84fe62208"},"vehicle_type_id":"4","last_reported":1759169696,"current_range_meters":12000,"station_id":"ce4bhn12rcd13ifvqgqg","pricing_plan_id":"cebpf4jnsgd1na2vs0mg"},{"bike_id":"7952d0c5-c3b4-4c29-bacd-f59ef155894d","system_id":"levelo_inurba_marseille","lat":43.309025,"lon":5.381673,"is_reserved":false,"is_disabled":false,"rental_uris":{"android":"levelo://app?vid=7952d0c5-c3b4-4c29-bacd-f59ef155894d","ios":"levelo://app?vid=7952d0c5-c3b4-4c29-bacd-f59ef155894d"},"vehicle_type_id":"4","last_reported":1759169696,"current_range_meters":12000,"station_id":"","pricing_plan_id":"cebpf4jnsgd1na2vs0mg"},{"bike_id":"48acb65d-dece-4830-a219-6c7b2de70bd6","system_id":"levelo_inurba_marseille","lat":43.28439,"lon":5.39195,"is_reserved":false,"is_disabled":false,"rental_uris":{"android":"levelo://app?vid=48acb65d-dece-4830-a219-6c7b2de70bd6","ios":"levelo://app?vid=48acb65d-dece-4830-a219-6c7b2de70bd6"},"vehicle_type_id":"4","last_reported":1759169696,"current_range_meters":12000,"station_id":"ce4bhoh2rcd13ifvqh5g","pricing_plan_id":"cebpf4jnsgd1na2vs0mg"},{"bike_id":"a07a513e-e5a9-4481-8592-d991379bc662","system_id":"levelo_inurba_marseille","lat":43.33735,"lon":5.37481,"is_reserved":false,"is_disabled":false,"rental_uris":{"android":"levelo://app?vid=a07a513e-e5a9-4481-8592-d991379bc662","ios":"levelo://app?vid=a07a513e-e5a9-4481-8592-d991379bc662"},"vehicle_type_id":"4","last_reported":1759169696,"current_range_meters":12000,"station_id":"","pricing_plan_id":"cebpf4jnsgd1na2vs0mg"},{"bike_id":"834d954d-eca7-4c68-a992-51d80a79bde9","system_id":"levelo_inurba_marseille","lat":43.29534,"lon":5.38545,"is_reserved":false,"is_disabled":false,"rental_uris":{"android":"levelo://app?vid=834d954d-eca7-4c68-a992-51d80a79bde9","ios":"levelo://app?vid=834d954d-eca7-4c68-a992-51d80a79bde9"},"vehicle_type_id":"4","last_reported":1759169696,"current_range_meters":12400,"station_id":"ce4bgih2rcd13ifvqba0","pricing_plan_id":"cebpf4jnsgd1na2vs0mg"},{"bike_id":"8c986307-df22-41f8-9c2d-42ccabc665aa","system_id":"levelo_inurba_marseille","lat":43.30181,"lon":5.36653,"is_reserved":false,"is_disabled":false,"rental_uris":{"android":"levelo://app?vid=8c986307-df22-41f8-9c2d-42ccabc665aa","ios":"levelo://app?vid=8c986307-df22-41f8-9c2d-42ccabc665aa"},"vehicle_type_id":"4","last_reported":1759169696,"current_range_meters":12400,"station_id":"ce4bgrh2rcd13ifvqc8g","pricing_plan_id":"cebpf4jnsgd1na2vs0mg"},{"bike_id":"16736934-dfee-4899-9572-c856d9cb8245","system_id":"levelo_inurba_marseille","lat":43.27825,"lon":5.40705,"is_reserved":false,"is_disabled":false,"rental_uris":{"android":"levelo://app?vid=16736934-dfee-4899-9572-c856d9cb8245","ios":"levelo://app?vid=16736934-dfee-4899-9572-c856d9cb8245"},"vehicle_type_id":"4","last_reported":1759169696,"current_range_meters":12400,"station_id":"ce4bhnh2rcd13ifvqgtg","pricing_plan_id":"cebpf4jnsgd1na2vs0mg"},{"bike_id":"42a44a7a-1c05-4611-bc99-ba386524aaf0","system_id":"levelo_inurba_marseille","lat":43.29279,"lon":5.36847,"is_reserved":false,"is_disabled":false,"rental_uris":{"android":"levelo://app?vid=42a44a7a-1c05-4611-bc99-ba386524aaf0","ios":"levelo://app?vid=42a44a7a-1c05-4611-bc99-ba386524aaf0"},"vehicle_type_id":"4","last_reported":1759169696,"current_range_meters":12400,"station_id":"ce4bhbp2rcd13ifvqesg","pricing_plan_id":"cebpf4jnsgd1na2vs0mg"},{"bike_id":"559c0a6e-399b-4d3a-b77c-70b5c76e1ebe","system_id":"levelo_inurba_marseille","lat":43.298867,"lon":5.389003,"is_reserved":false,"is_disabled":false,"rental_uris":{"android":"levelo://app?vid=559c0a6e-399b-4d3a-b77c-70b5c76e1ebe","ios":"levelo://app?vid=559c0a6e-399b-4d3a-b77c-70b5c76e1ebe"},"vehicle_type_id":"4","last_reported":1759169696,"current_range_meters":12400,"station_id":"ce4bh392rcd13ifvqdl0","pricing_plan_id":"cebpf4jnsgd1na2vs0mg"},{"bike_id":"b7ad8bbc-3622-4041-8ee8-327a457d017d","system_id":"levelo_inurba_marseille","lat":43.322951,"lon":5.412338,"is_reserved":false,"is_disabled":false,"rental_uris":{"android":"levelo://app?vid=b7ad8bbc-3622-4041-8ee8-327a457d017d","ios":"levelo://app?vid=b7ad8bbc-3622-4041-8ee8-327a457d017d"},"vehicle_type_id":"4","last_reported":1759169696,"current_range_meters":12000,"station_id":"ce4bhpp2rcd13ifvqhgg","pricing_plan_id":"cebpf4jnsgd1na2vs0mg"},{"bike_id":"c627b34a-8e81-4438-af3b-4fd0aab1c160","system_id":"levelo_inurba_marseille","lat":43.296617,"lon":5.360056,"is_reserved":false,"is_disabled":false,"rental_uris":{"android":"levelo://app?vid=c627b34a-8e81-4438-af3b-4fd0aab1c160","ios":"levelo://app?vid=c627b34a-8e81-4438-af3b-4fd0aab1c160"},"vehicle_type_id":"4","last_reported":1759169696,"current_range_meters":12400,"station_id":"","pricing_plan_id":"cebpf4jnsgd1na2vs0mg"},{"bike_id":"a0626b95-b5a9-4995-9277-4bbaf3a9fe1e","system_id":"levelo_inurba_marseille","lat":43.30267,"lon":5.4006,"is_reserved":false,"is_disabled":false,"rental_uris":{"android":"levelo://app?vid=a0626b95-b5a9-4995-9277-4bbaf3a9fe1e","ios":"levelo://app?vid=a0626b95-b5a9-4995-9277-4bbaf3a9fe1e"},"vehicle_type_id":"4","last_reported":1759169696,"current_range_meters":12800,"station_id":"ce4bgvh2rcd13ifvqcs0","pricing_plan_id":"cebpf4jnsgd1na2vs0mg"},{"bike_id":"08897f5d-483e-4ffa-b1bb-f13bc5f35002","system_id":"levelo_inurba_marseille","lat":43.2808,"lon":5.39656,"is_reserved":false,"is_disabled":false,"rental_uris":{"android":"levelo://app?vid=08897f5d-483e-4ffa-b1bb-f13bc5f35002","ios":"levelo://app?vid=08897f5d-483e-4ffa-b1bb-f13bc5f35002"},"vehicle_type_id":"4","last_reported":1759169696,"current_range_meters":12800,"station_id":"ce4bho12rcd13ifvqh2g","pricing_plan_id":"cebpf4jnsgd1na2vs0mg"},{"bike_id":"385fa573-6758-43e7-a2f4-f27be30ea572","system_id":"levelo_inurba_marseille","lat":43.32118,"lon":5.36781,"is_reserved":false,"is_disabled":false,"rental_uris":{"android":"levelo://app?vid=385fa573-6758-43e7-a2f4-f27be30ea572","ios":"levelo://app?vid=385fa573-6758-43e7-a2f4-f27be30ea572"},"vehicle_type_id":"4","last_reported":1759169696,"current_range_meters":12800,"station_id":"ce4bhrh2rcd13ifvqhug","pricing_plan_id":"cebpf4jnsgd1na2vs0mg"},{"bike_id":"e1f0e8c3-3cec-47a1-abb7-bf8d034ab0c5","system_id":"levelo_inurba_marseille","lat":43.29256,"lon":5.4091,"is_reserved":false,"is_disabled":false,"rental_uris":{"android":"levelo://app?vid=e1f0e8c3-3cec-47a1-abb7-bf8d034ab0c5","ios":"levelo://app?vid=e1f0e8c3-3cec-47a1-abb7-bf8d034ab0c5"},"vehicle_type_id":"4","last_reported":1759169696,"current_range_meters":12400,"station_id":"ce4bh192rcd13ifvqdc0","pricing_plan_id":"cebpf4jnsgd1na2vs0mg"},{"bike_id":"0030cf69-75f8-4719-a372-efc52bdb748a","system_id":"levelo_inurba_marseille","lat":43.32908,"lon":5.45421,"is_reserved":false,"is_disabled":false,"rental_uris":{"android":"levelo://app?vid=0030cf69-75f8-4719-a372-efc52bdb748a","ios":"levelo://app?vid=0030cf69-75f8-4719-a372-efc52bdb748a"},"vehicle_type_id":"4","last_reported":1759169696,"current_range_meters":12800,"station_id":"","pricing_plan_id":"cebpf4jnsgd1na2vs0mg"},{"bike_id":"566d635f-0fea-4b72-a40f-be3a0aa5a5b2","system_id":"levelo_inurba_marseille","lat":43.29048,"lon":5.39955,"is_reserved":false,"is_disabled":false,"rental_uris":{"android":"levelo://app?vid=566d635f-0fea-4b72-a40f-be3a0aa5a5b2","ios":"levelo://app?vid=566d635f-0fea-4b72-a40f-be3a0aa5a5b2"},"vehicle_type_id":"4","last_reported":1759169696,"current_range_meters":12800,"station_id":"ce4bh392rcd13ifvqdm0","pricing_plan_id":"cebpf4jnsgd1na2vs0mg"},{"bike_id":"fe7c339b-81a8-4a59-b339-9d30aae20d0f","system_id":"levelo_inurba_marseille","lat":43.25299,"lon":5.42109,"is_reserved":false,"is_disabled":false,"rental_uris":{"android":"levelo://app?vid=fe7c339b-81a8-4a59-b339-9d30aae20d0f","ios":"levelo://app?vid=fe7c339b-81a8-4a59-b339-9d30aae20d0f"},"vehicle_type_id":"4","last_reported":1759169696,"current_range_meters":12800,"station_id":"","pricing_plan_id":"cebpf4jnsgd1na2vs0mg"},{"bike_id":"47833dae-15b1-4063-a968-04a3fb2d2f37","system_id":"levelo_inurba_marseille","lat":43.29915,"lon":5.38158,"is_reserved":false,"is_disabled":false,"rental_uris":{"android":"levelo://app?vid=47833dae-15b1-4063-a968-04a3fb2d2f37","ios":"levelo://app?vid=47833dae-15b1-4063-a968-04a3fb2d2f37"},"vehicle_type_id":"4","last_reported":1759169696,"current_range_meters":10800,"station_id":"ce4bgj12rcd13ifvqbc0","pricing_plan_id":"cebpf4jnsgd1na2vs0mg"},{"bike_id":"4e501550-c1d6-4aec-86de-3241b57de3c6","system_id":"levelo_inurba_marseille","lat":43.29524,"lon":5.3855,"is_reserved":false,"is_disabled":false,"rental_uris":{"android":"levelo://app?vid=4e501550-c1d6-4aec-86de-3241b57de3c6","ios":"levelo://app?vid=4e501550-c1d6-4aec-86de-3241b57de3c6"},"vehicle_type_id":"4","last_reported":1759169696,"current_range_meters":12400,"station_id":"ce4bgih2rcd13ifvqba0","pricing_plan_id":"cebpf4jnsgd1na2vs0mg"},{"bike_id":"2698c3c3-4f41-480c-b3bd-bf477fd82bf2","system_id":"levelo_inurba_marseille","lat":43.28709,"lon":5.37385,"is_reserved":false,"is_disabled":false,"rental_uris":{"android":"levelo://app?vid=2698c3c3-4f41-480c-b3bd-bf477fd82bf2","ios":"levelo://app?vid=2698c3c3-4f41-480c-b3bd-bf477fd82bf2"},"vehicle_type_id":"4","last_reported":1759169696,"current_range_meters":12800,"station_id":"ce4bh3p2rcd13ifvqdq0","pricing_plan_id":"cebpf4jnsgd1na2vs0mg"},{"bike_id":"1169a0ee-2464-4fdf-a708-3939c0486cd4","system_id":"levelo_inurba_marseille","lat":43.27995,"lon":5.40032,"is_reserved":false,"is_disabled":false,"rental_uris":{"android":"levelo://app?vid=1169a0ee-2464-4fdf-a708-3939c0486cd4","ios":"levelo://app?vid=1169a0ee-2464-4fdf-a708-3939c0486cd4"},"vehicle_type_id":"4","last_reported":1759169696,"current_range_meters":13600,"station_id":"ce4bho92rcd13ifvqh4g","pricing_plan_id":"cebpf4jnsgd1na2vs0mg"},{"bike_id":"d60dc148-253b-4625-ae0c-8c88dcdb4260","system_id":"levelo_inurba_marseille","lat":43.272127,"lon":5.391798,"is_reserved":false,"is_disabled":false,"rental_uris":{"android":"levelo://app?vid=d60dc148-253b-4625-ae0c-8c88dcdb4260","ios":"levelo://app?vid=d60dc148-253b-4625-ae0c-8c88dcdb4260"},"vehicle_type_id":"4","last_reported":1759169696,"current_range_meters":13600,"station_id":"","pricing_plan_id":"cebpf4jnsgd1na2vs0mg"},{"bike_id":"603b48a8-a4ae-4222-bee8-5769d86ea9a8","system_id":"levelo_inurba_marseille","lat":43.25336,"lon":5.42172,"is_reserved":false,"is_disabled":false,"rental_uris":{"android":"levelo://app?vid=603b48a8-a4ae-4222-bee8-5769d86ea9a8","ios":"levelo://app?vid=603b48a8-a4ae-4222-bee8-5769d86ea9a8"},"vehicle_type_id":"4","last_reported":1759169696,"current_range_meters":13600,"station_id":"st_d2m65c5bi1j21697t3ng","pricing_plan_id":"cebpf4jnsgd1na2vs0mg"},{"bike_id":"aa123961-c527-4db0-9350-7d548f67905a","system_id":"levelo_inurba_marseille","lat":43.27946,"lon":5.38753,"is_reserved":false,"is_disabled":false,"rental_uris":{"android":"levelo://app?vid=aa123961-c527-4db0-9350-7d548f67905a","ios":"levelo://app?vid=aa123961-c527-4db0-9350-7d548f67905a"},"vehicle_type_id":"4","last_reported":1759169696,"current_range_meters":13600,"station_id":"ce4bh492rcd13ifvqdvg","pricing_plan_id":"cebpf4jnsgd1na2vs0mg"},{"bike_id":"ba1cfbb3-555c-4e6c-85db-b50e9395062e","system_id":"levelo_inurba_marseille","lat":43.246877,"lon":5.381936,"is_reserved":false,"is_disabled":false,"rental_uris":{"android":"levelo://app?vid=ba1cfbb3-555c-4e6c-85db-b50e9395062e","ios":"levelo://app?vid=ba1cfbb3-555c-4e6c-85db-b50e9395062e"},"vehicle_type_id":"4","last_reported":1759169696,"current_range_meters":13600,"station_id":"","pricing_plan_id":"cebpf4jnsgd1na2vs0mg"},{"bike_id":"e8419209-5311-4e19-b40d-bf82fd59480e","system_id":"levelo_inurba_marseille","lat":43.28613,"lon":5.37068,"is_reserved":false,"is_disabled":false,"rental_uris":{"android":"levelo://app?vid=e8419209-5311-4e19-b40d-bf82fd59480e","ios":"levelo://app?vid=e8419209-5311-4e19-b40d-bf82fd59480e"},"vehicle_type_id":"4","last_reported":1759169696,"current_range_meters":13600,"station_id":"ce4bht12rcd13ifvqi60","pricing_plan_id":"cebpf4jnsgd1na2vs0mg"},{"bike_id":"498de633-1978-409b-aa35-b617d56ba506","system_id":"levelo_inurba_marseille","lat":43.289401,"lon":5.366452,"is_reserved":false,"is_disabled":false,"rental_uris":{"android":"levelo://app?vid=498de633-1978-409b-aa35-b617d56ba506","ios":"levelo://app?vid=498de633-1978-409b-aa35-b617d56ba506"},"vehicle_type_id":"4","last_reported":1759169696,"current_range_meters":13600,"station_id":"ce4bhap2rcd13ifvqek0","pricing_plan_id":"cebpf4jnsgd1na2vs0mg"},{"bike_id":"aebf0e68-ba27-412a-9ce2-11cc42127dee","system_id":"levelo_inurba_marseille","lat":43.337444,"lon":5.374475,"is_reserved":false,"is_disabled":false,"rental_uris":{"android":"levelo://app?vid=aebf0e68-ba27-412a-9ce2-11cc42127dee","ios":"levelo://app?vid=aebf0e68-ba27-412a-9ce2-11cc42127dee"},"vehicle_type_id":"4","last_reported":1759169696,"current_range_meters":13600,"station_id":"","pricing_plan_id":"cebpf4jnsgd1na2vs0mg"},{"bike_id":"a6d5fea6-0b36-4308-aa47-0115b1c3b025","system_id":"levelo_inurba_marseille","lat":43.30731,"lon":5.42452,"is_reserved":false,"is_disabled":false,"rental_uris":{"android":"levelo://app?vid=a6d5fea6-0b36-4308-aa47-0115b1c3b025","ios":"levelo://app?vid=a6d5fea6-0b36-4308-aa47-0115b1c3b025"},"vehicle_type_id":"4","last_reported":1759169696,"current_range_meters":14000,"station_id":"st_cvj6ca6bvosntc0bfgr0","pricing_plan_id":"cebpf4jnsgd1na2vs0mg"},{"bike_id":"91658db2-d6ae-4346-bb4d-02353c95c4ab","system_id":"levelo_inurba_marseille","lat":43.25345,"lon":5.42172,"is_reserved":false,"is_disabled":false,"rental_uris":{"android":"levelo://app?vid=91658db2-d6ae-4346-bb4d-02353c95c4ab","ios":"levelo://app?vid=91658db2-d6ae-4346-bb4d-02353c95c4ab"},"vehicle_type_id":"4","last_reported":1759169696,"current_range_meters":14000,"station_id":"st_d2m65c5bi1j21697t3ng","pricing_plan_id":"cebpf4jnsgd1na2vs0mg"},{"bike_id":"6ca33fa2-479c-42e8-8720-43110efcf2c1","system_id":"levelo_inurba_marseille","lat":43.31367,"lon":5.38497,"is_reserved":false,"is_disabled":false,"rental_uris":{"android":"levelo://app?vid=6ca33fa2-479c-42e8-8720-43110efcf2c1","ios":"levelo://app?vid=6ca33fa2-479c-42e8-8720-43110efcf2c1"},"vehicle_type_id":"4","last_reported":1759169696,"current_range_meters":14000,"station_id":"ce4bgt92rcd13ifvqcf0","pricing_plan_id":"cebpf4jnsgd1na2vs0mg"},{"bike_id":"56d6a008-a903-4bd5-8ee3-1cec5d05c634","system_id":"levelo_inurba_marseille","lat":43.31749,"lon":5.39024,"is_reserved":false,"is_disabled":false,"rental_uris":{"android":"levelo://app?vid=56d6a008-a903-4bd5-8ee3-1cec5d05c634","ios":"levelo://app?vid=56d6a008-a903-4bd5-8ee3-1cec5d05c634"},"vehicle_type_id":"4","last_reported":1759169696,"current_range_meters":14000,"station_id":"ce4bhqp2rcd13ifvqhng","pricing_plan_id":"cebpf4jnsgd1na2vs0mg"},{"bike_id":"ea06ea0d-e046-4d18-bbe8-8532c6db6580","system_id":"levelo_inurba_marseille","lat":43.26602,"lon":5.39034,"is_reserved":false,"is_disabled":false,"rental_uris":{"android":"levelo://app?vid=ea06ea0d-e046-4d18-bbe8-8532c6db6580","ios":"levelo://app?vid=ea06ea0d-e046-4d18-bbe8-8532c6db6580"},"vehicle_type_id":"4","last_reported":1759169696,"current_range_meters":14000,"station_id":"","pricing_plan_id":"cebpf4jnsgd1na2vs0mg"},{"bike_id":"03fa4704-fb06-466a-bacd-913cbd558a3b","system_id":"levelo_inurba_marseille","lat":43.28161,"lon":5.42642,"is_reserved":false,"is_disabled":false,"rental_uris":{"android":"levelo://app?vid=03fa4704-fb06-466a-bacd-913cbd558a3b","ios":"levelo://app?vid=03fa4704-fb06-466a-bacd-913cbd558a3b"},"vehicle_type_id":"4","last_reported":1759169696,"current_range_meters":14400,"station_id":"ce4bhnh2rcd13ifvqgug","pricing_plan_id":"cebpf4jnsgd1na2vs0mg"},{"bike_id":"78edd212-3bd8-4a45-bced-089e3907902a","system_id":"levelo_inurba_marseille","lat":43.32739,"lon":5.42381,"is_reserved":false,"is_disabled":true,"rental_uris":{"android":"levelo://app?vid=78edd212-3bd8-4a45-bced-089e3907902a","ios":"levelo://app?vid=78edd212-3bd8-4a45-bced-089e3907902a"},"vehicle_type_id":"4","last_reported":1759169696,"current_range_meters":14400,"station_id":"","pricing_plan_id":"cebpf4jnsgd1na2vs0mg"},{"bike_id":"fab1638a-d55e-49a7-872d-4ba81b5836e5","system_id":"levelo_inurba_marseille","lat":43.29162,"lon":5.37158,"is_reserved":false,"is_disabled":false,"rental_uris":{"android":"levelo://app?vid=fab1638a-d55e-49a7-872d-4ba81b5836e5","ios":"levelo://app?vid=fab1638a-d55e-49a7-872d-4ba81b5836e5"},"vehicle_type_id":"4","last_reported":1759169696,"current_range_meters":14400,"station_id":"ce4bha92rcd13ifvqeh0","pricing_plan_id":"cebpf4jnsgd1na2vs0mg"},{"bike_id":"37f92675-5c6d-4cea-8a60-2198fa390655","system_id":"levelo_inurba_marseille","lat":43.23955,"lon":5.36637,"is_reserved":false,"is_disabled":false,"rental_uris":{"android":"levelo://app?vid=37f92675-5c6d-4cea-8a60-2198fa390655","ios":"levelo://app?vid=37f92675-5c6d-4cea-8a60-2198fa390655"},"vehicle_type_id":"4","last_reported":1759169696,"current_range_meters":14400,"station_id":"","pricing_plan_id":"cebpf4jnsgd1na2vs0mg"},{"bike_id":"a9cd5665-4575-420b-bb7e-e441349a406a","system_id":"levelo_inurba_marseille","lat":43.28436,"lon":5.34994,"is_reserved":false,"is_disabled":false,"rental_uris":{"android":"levelo://app?vid=a9cd5665-4575-420b-bb7e-e441349a406a","ios":"levelo://app?vid=a9cd5665-4575-420b-bb7e-e441349a406a"},"vehicle_type_id":"4","last_reported":1759169696,"current_range_meters":14400,"station_id":"ce4bhbh2rcd13ifvqepg","pricing_plan_id":"cebpf4jnsgd1na2vs0mg"},{"bike_id":"8cbcf5e7-b804-4925-bbed-5f57e8580ccf","system_id":"levelo_inurba_marseille","lat":43.31519,"lon":5.36803,"is_reserved":false,"is_disabled":false,"rental_uris":{"android":"levelo://app?vid=8cbcf5e7-b804-4925-bbed-5f57e8580ccf","ios":"levelo://app?vid=8cbcf5e7-b804-4925-bbed-5f57e8580ccf"},"vehicle_type_id":"4","last_reported":1759169696,"current_range_meters":14400,"station_id":"","pricing_plan_id":"cebpf4jnsgd1na2vs0mg"},{"bike_id":"51f96056-2760-4419-bf60-119a572513f6","system_id":"levelo_inurba_marseille","lat":43.31533,"lon":5.3801,"is_reserved":false,"is_disabled":false,"rental_uris":{"android":"levelo://app?vid=51f96056-2760-4419-bf60-119a572513f6","ios":"levelo://app?vid=51f96056-2760-4419-bf60-119a572513f6"},"vehicle_type_id":"4","last_reported":1759169696,"current_range_meters":14400,"station_id":"ce4bhsp2rcd13ifvqi50","pricing_plan_id":"cebpf4jnsgd1na2vs0mg"},{"bike_id":"a2e45c06-7d2f-44e3-92a1-23bde99e0798","system_id":"levelo_inurba_marseille","lat":43.28867,"lon":5.42527,"is_reserved":false,"is_disabled":false,"rental_uris":{"android":"levelo://app?vid=a2e45c06-7d2f-44e3-92a1-23bde99e0798","ios":"levelo://app?vid=a2e45c06-7d2f-44e3-92a1-23bde99e0798"},"vehicle_type_id":"4","last_reported":1759169696,"current_range_meters":14400,"station_id":"st_d3b462108ojc7389ooeg","pricing_plan_id":"cebpf4jnsgd1na2vs0mg"},{"bike_id":"17bbf4dd-fba9-4826-8c7d-9be0609a6e2f","system_id":"levelo_inurba_marseille","lat":43.31147,"lon":5.37729,"is_reserved":false,"is_disabled":false,"rental_uris":{"android":"levelo://app?vid=17bbf4dd-fba9-4826-8c7d-9be0609a6e2f","ios":"levelo://app?vid=17bbf4dd-fba9-4826-8c7d-9be0609a6e2f"},"vehicle_type_id":"4","last_reported":1759169696,"current_range_meters":14400,"station_id":"","pricing_plan_id":"cebpf4jnsgd1na2vs0mg"},{"bike_id":"99ce2063-5dfb-4ed3-a4a6-8fc3a54c4890","system_id":"levelo_inurba_marseille","lat":43.337444,"lon":5.374475,"is_reserved":false,"is_disabled":false,"rental_uris":{"android":"levelo://app?vid=99ce2063-5dfb-4ed3-a4a6-8fc3a54c4890","ios":"levelo://app?vid=99ce2063-5dfb-4ed3-a4a6-8fc3a54c4890"},"vehicle_type_id":"4","last_reported":1759169696,"current_range_meters":14400,"station_id":"","pricing_plan_id":"cebpf4jnsgd1na2vs0mg"},{"bike_id":"b758b494-181d-4229-918f-9ce41e85b04d","system_id":"levelo_inurba_marseille","lat":43.33164,"lon":5.38156,"is_reserved":false,"is_disabled":false,"rental_uris":{"android":"levelo://app?vid=b758b494-181d-4229-918f-9ce41e85b04d","ios":"levelo://app?vid=b758b494-181d-4229-918f-9ce41e85b04d"},"vehicle_type_id":"4","last_reported":1759169696,"current_range_meters":14800,"station_id":"","pricing_plan_id":"cebpf4jnsgd1na2vs0mg"},{"bike_id":"8faf05c5-98e8-4a70-8643-75391f3c180e","system_id":"levelo_inurba_marseille","lat":43.25092,"lon":5.39521,"is_reserved":false,"is_disabled":false,"rental_uris":{"android":"levelo://app?vid=8faf05c5-98e8-4a70-8643-75391f3c180e","ios":"levelo://app?vid=8faf05c5-98e8-4a70-8643-75391f3c180e"},"vehicle_type_id":"4","last_reported":1759169696,"current_range_meters":14800,"station_id":"ce4bhm12rcd13ifvqgkg","pricing_plan_id":"cebpf4jnsgd1na2vs0mg"},{"bike_id":"19ac511d-5775-4917-b4a4-09a1b6422175","system_id":"levelo_inurba_marseille","lat":43.28358,"lon":5.38638,"is_reserved":false,"is_disabled":false,"rental_uris":{"android":"levelo://app?vid=19ac511d-5775-4917-b4a4-09a1b6422175","ios":"levelo://app?vid=19ac511d-5775-4917-b4a4-09a1b6422175"},"vehicle_type_id":"4","last_reported":1759169696,"current_range_meters":18000,"station_id":"ce4bh492rcd13ifvqdvg","pricing_plan_id":"cebpf4jnsgd1na2vs0mg"},{"bike_id":"90b4c2c6-74ed-4bc2-b762-05e29dca864f","system_id":"levelo_inurba_marseille","lat":43.2466,"lon":5.38891,"is_reserved":false,"is_disabled":false,"rental_uris":{"android":"levelo://app?vid=90b4c2c6-74ed-4bc2-b762-05e29dca864f","ios":"levelo://app?vid=90b4c2c6-74ed-4bc2-b762-05e29dca864f"},"vehicle_type_id":"4","last_reported":1759169696,"current_range_meters":14800,"station_id":"ce4bhg12rcd13ifvqf60","pricing_plan_id":"cebpf4jnsgd1na2vs0mg"},{"bike_id":"c2484e75-f6e1-4fb6-8abd-c21d122e9daf","system_id":"levelo_inurba_marseille","lat":43.29032,"lon":5.38649,"is_reserved":false,"is_disabled":false,"rental_uris":{"android":"levelo://app?vid=c2484e75-f6e1-4fb6-8abd-c21d122e9daf","ios":"levelo://app?vid=c2484e75-f6e1-4fb6-8abd-c21d122e9daf"},"vehicle_type_id":"4","last_reported":1759169696,"current_range_meters":14800,"station_id":"ce4bh4p2rcd13ifvqe0g","pricing_plan_id":"cebpf4jnsgd1na2vs0mg"},{"bike_id":"f0822ab2-b3b6-4e81-af8a-a1ec7990771e","system_id":"levelo_inurba_marseille","lat":43.28371,"lon":5.38645,"is_reserved":false,"is_disabled":false,"rental_uris":{"android":"levelo://app?vid=f0822ab2-b3b6-4e81-af8a-a1ec7990771e","ios":"levelo://app?vid=f0822ab2-b3b6-4e81-af8a-a1ec7990771e"},"vehicle_type_id":"4","last_reported":1759169696,"current_range_meters":14800,"station_id":"ce4bh492rcd13ifvqdvg","pricing_plan_id":"cebpf4jnsgd1na2vs0mg"},{"bike_id":"e6ad85b1-a3cb-4839-baf9-2eb5999fca22","system_id":"levelo_inurba_marseille","lat":43.29533,"lon":5.38549,"is_reserved":false,"is_disabled":false,"rental_uris":{"android":"levelo://app?vid=e6ad85b1-a3cb-4839-baf9-2eb5999fca22","ios":"levelo://app?vid=e6ad85b1-a3cb-4839-baf9-2eb5999fca22"},"vehicle_type_id":"4","last_reported":1759169696,"current_range_meters":14800,"station_id":"ce4bgih2rcd13ifvqba0","pricing_plan_id":"cebpf4jnsgd1na2vs0mg"},{"bike_id":"fa7be026-78b9-471f-aea2-fa586c115751","system_id":"levelo_inurba_marseille","lat":43.29714,"lon":5.36621,"is_reserved":false,"is_disabled":false,"rental_uris":{"android":"levelo://app?vid=fa7be026-78b9-471f-aea2-fa586c115751","ios":"levelo://app?vid=fa7be026-78b9-471f-aea2-fa586c115751"},"vehicle_type_id":"4","last_reported":1759169696,"current_range_meters":14800,"station_id":"ce4bgn12rcd13ifvqbt0","pricing_plan_id":"cebpf4jnsgd1na2vs0mg"},{"bike_id":"50db5d85-cf29-4c95-8cdf-8bacc7a306bd","system_id":"levelo_inurba_marseille","lat":43.27955,"lon":5.4104,"is_reserved":false,"is_disabled":false,"rental_uris":{"android":"levelo://app?vid=50db5d85-cf29-4c95-8cdf-8bacc7a306bd","ios":"levelo://app?vid=50db5d85-cf29-4c95-8cdf-8bacc7a306bd"},"vehicle_type_id":"4","last_reported":1759169696,"current_range_meters":14800,"station_id":"ce4bhnp2rcd13ifvqh0g","pricing_plan_id":"cebpf4jnsgd1na2vs0mg"},{"bike_id":"00b3c5d5-9ad5-4872-b372-089fa3a04914","system_id":"levelo_inurba_marseille","lat":43.286376,"lon":5.354934,"is_reserved":false,"is_disabled":false,"rental_uris":{"android":"levelo://app?vid=00b3c5d5-9ad5-4872-b372-089fa3a04914","ios":"levelo://app?vid=00b3c5d5-9ad5-4872-b372-089fa3a04914"},"vehicle_type_id":"4","last_reported":1759169696,"current_range_meters":14800,"station_id":"","pricing_plan_id":"cebpf4jnsgd1na2vs0mg"},{"bike_id":"155a350c-8771-4a8d-a2be-0a63990f5610","system_id":"levelo_inurba_marseille","lat":43.29532,"lon":5.39037,"is_reserved":false,"is_disabled":false,"rental_uris":{"android":"levelo://app?vid=155a350c-8771-4a8d-a2be-0a63990f5610","ios":"levelo://app?vid=155a350c-8771-4a8d-a2be-0a63990f5610"},"vehicle_type_id":"4","last_reported":1759169696,"current_range_meters":14800,"station_id":"ce4bh3p2rcd13ifvqdp0","pricing_plan_id":"cebpf4jnsgd1na2vs0mg"},{"bike_id":"92662833-c6ac-4b02-b7df-1638b54b1972","system_id":"levelo_inurba_marseille","lat":43.33742,"lon":5.37449,"is_reserved":false,"is_disabled":false,"rental_uris":{"android":"levelo://app?vid=92662833-c6ac-4b02-b7df-1638b54b1972","ios":"levelo://app?vid=92662833-c6ac-4b02-b7df-1638b54b1972"},"vehicle_type_id":"4","last_reported":1759169696,"current_range_meters":14800,"station_id":"","pricing_plan_id":"cebpf4jnsgd1na2vs0mg"},{"bike_id":"f8d78e5f-60e1-4623-939f-49e76ff16505","system_id":"levelo_inurba_marseille","lat":43.33742,"lon":5.37448,"is_reserved":false,"is_disabled":false,"rental_uris":{"android":"levelo://app?vid=f8d78e5f-60e1-4623-939f-49e76ff16505","ios":"levelo://app?vid=f8d78e5f-60e1-4623-939f-49e76ff16505"},"vehicle_type_id":"4","last_reported":1759169696,"current_range_meters":14800,"station_id":"","pricing_plan_id":"cebpf4jnsgd1na2vs0mg"},{"bike_id":"044920dd-d539-4b28-a284-f3f6330313ab","system_id":"levelo_inurba_marseille","lat":43.28083,"lon":5.3967,"is_reserved":false,"is_disabled":false,"rental_uris":{"android":"levelo://app?vid=044920dd-d539-4b28-a284-f3f6330313ab","ios":"levelo://app?vid=044920dd-d539-4b28-a284-f3f6330313ab"},"vehicle_type_id":"4","last_reported":1759169696,"current_range_meters":15200,"station_id":"ce4bho12rcd13ifvqh2g","pricing_plan_id":"cebpf4jnsgd1na2vs0mg"},{"bike_id":"35674f30-45d2-4192-a400-f0f8445d4437","system_id":"levelo_inurba_marseille","lat":43.31075,"lon":5.40079,"is_reserved":false,"is_disabled":false,"rental_uris":{"android":"levelo://app?vid=35674f30-45d2-4192-a400-f0f8445d4437","ios":"levelo://app?vid=35674f30-45d2-4192-a400-f0f8445d4437"},"vehicle_type_id":"4","last_reported":1759169696,"current_range_meters":15200,"station_id":"","pricing_plan_id":"cebpf4jnsgd1na2vs0mg"},{"bike_id":"553fb3aa-524d-46e1-a850-69dea266c42c","system_id":"levelo_inurba_marseille","lat":43.30802,"lon":5.37662,"is_reserved":false,"is_disabled":false,"rental_uris":{"android":"levelo://app?vid=553fb3aa-524d-46e1-a850-69dea266c42c","ios":"levelo://app?vid=553fb3aa-524d-46e1-a850-69dea266c42c"},"vehicle_type_id":"4","last_reported":1759169696,"current_range_meters":15200,"station_id":"ce4bgv92rcd13ifvqcq0","pricing_plan_id":"cebpf4jnsgd1na2vs0mg"},{"bike_id":"ad36ad91-5b1b-4105-ac4a-6bb7f9760b47","system_id":"levelo_inurba_marseille","lat":43.23189,"lon":5.39986,"is_reserved":false,"is_disabled":false,"rental_uris":{"android":"levelo://app?vid=ad36ad91-5b1b-4105-ac4a-6bb7f9760b47","ios":"levelo://app?vid=ad36ad91-5b1b-4105-ac4a-6bb7f9760b47"},"vehicle_type_id":"4","last_reported":1759169696,"current_range_meters":15200,"station_id":"ce4bhn12rcd13ifvqgqg","pricing_plan_id":"cebpf4jnsgd1na2vs0mg"},{"bike_id":"a804ed38-2824-42e4-8adc-6f8a71f3a071","system_id":"levelo_inurba_marseille","lat":43.29594,"lon":5.38097,"is_reserved":false,"is_disabled":false,"rental_uris":{"android":"levelo://app?vid=a804ed38-2824-42e4-8adc-6f8a71f3a071","ios":"levelo://app?vid=a804ed38-2824-42e4-8adc-6f8a71f3a071"},"vehicle_type_id":"4","last_reported":1759169696,"current_range_meters":15200,"station_id":"ce4bgl12rcd13ifvqbo0","pricing_plan_id":"cebpf4jnsgd1na2vs0mg"},{"bike_id":"180f9710-c4cf-40c2-9a95-b8c1ad89aeae","system_id":"levelo_inurba_marseille","lat":43.29595,"lon":5.3751,"is_reserved":false,"is_disabled":true,"rental_uris":{"android":"levelo://app?vid=180f9710-c4cf-40c2-9a95-b8c1ad89aeae","ios":"levelo://app?vid=180f9710-c4cf-40c2-9a95-b8c1ad89aeae"},"vehicle_type_id":"4","last_reported":1759169696,"current_range_meters":15200,"station_id":"ce4bgh92rcd13ifvqb50","pricing_plan_id":"cebpf4jnsgd1na2vs0mg"},{"bike_id":"cb8737f5-9915-4005-98ee-fd2aa1c38d9f","system_id":"levelo_inurba_marseille","lat":43.23182,"lon":5.39982,"is_reserved":false,"is_disabled":false,"rental_uris":{"android":"levelo://app?vid=cb8737f5-9915-4005-98ee-fd2aa1c38d9f","ios":"levelo://app?vid=cb8737f5-9915-4005-98ee-fd2aa1c38d9f"},"vehicle_type_id":"4","last_reported":1759169696,"current_range_meters":15200,"station_id":"ce4bhn12rcd13ifvqgqg","pricing_plan_id":"cebpf4jnsgd1na2vs0mg"},{"bike_id":"56ca0258-bee9-4eb2-b3c5-63b5cd0b9e67","system_id":"levelo_inurba_marseille","lat":43.33737,"lon":5.37445,"is_reserved":false,"is_disabled":false,"rental_uris":{"android":"levelo://app?vid=56ca0258-bee9-4eb2-b3c5-63b5cd0b9e67","ios":"levelo://app?vid=56ca0258-bee9-4eb2-b3c5-63b5cd0b9e67"},"vehicle_type_id":"4","last_reported":1759169696,"current_range_meters":15200,"station_id":"","pricing_plan_id":"cebpf4jnsgd1na2vs0mg"},{"bike_id":"96520869-d013-4e0c-a355-f7bbd728ba84","system_id":"levelo_inurba_marseille","lat":43.32355,"lon":5.36759,"is_reserved":false,"is_disabled":false,"rental_uris":{"android":"levelo://app?vid=96520869-d013-4e0c-a355-f7bbd728ba84","ios":"levelo://app?vid=96520869-d013-4e0c-a355-f7bbd728ba84"},"vehicle_type_id":"4","last_reported":1759169696,"current_range_meters":16000,"station_id":"ce4bhsh2rcd13ifvqi2g","pricing_plan_id":"cebpf4jnsgd1na2vs0mg"},{"bike_id":"716ec372-1e32-4564-8f0e-da5da7c66c4a","system_id":"levelo_inurba_marseille","lat":43.25715,"lon":5.41098,"is_reserved":false,"is_disabled":true,"rental_uris":{"android":"levelo://app?vid=716ec372-1e32-4564-8f0e-da5da7c66c4a","ios":"levelo://app?vid=716ec372-1e32-4564-8f0e-da5da7c66c4a"},"vehicle_type_id":"4","last_reported":1759169696,"current_range_meters":16000,"station_id":"ce4bhkp2rcd13ifvqgd0","pricing_plan_id":"cebpf4jnsgd1na2vs0mg"},{"bike_id":"ad19d54a-bebc-4819-837d-dcc457c04acc","system_id":"levelo_inurba_marseille","lat":43.31175,"lon":5.38719,"is_reserved":false,"is_disabled":false,"rental_uris":{"android":"levelo://app?vid=ad19d54a-bebc-4819-837d-dcc457c04acc","ios":"levelo://app?vid=ad19d54a-bebc-4819-837d-dcc457c04acc"},"vehicle_type_id":"4","last_reported":1759169696,"current_range_meters":15200,"station_id":"ce4bgv12rcd13ifvqcp0","pricing_plan_id":"cebpf4jnsgd1na2vs0mg"},{"bike_id":"1f05ab47-bda3-411a-921d-9f21cd784300","system_id":"levelo_inurba_marseille","lat":43.283542,"lon":5.381057,"is_reserved":false,"is_disabled":false,"rental_uris":{"android":"levelo://app?vid=1f05ab47-bda3-411a-921d-9f21cd784300","ios":"levelo://app?vid=1f05ab47-bda3-411a-921d-9f21cd784300"},"vehicle_type_id":"4","last_reported":1759169696,"current_range_meters":16000,"station_id":"ce4bh412rcd13ifvqdr0","pricing_plan_id":"cebpf4jnsgd1na2vs0mg"},{"bike_id":"8e0e8ea4-2f5b-458c-9b0a-66deb7cd3b4b","system_id":"levelo_inurba_marseille","lat":43.29261,"lon":5.3845,"is_reserved":false,"is_disabled":false,"rental_uris":{"android":"levelo://app?vid=8e0e8ea4-2f5b-458c-9b0a-66deb7cd3b4b","ios":"levelo://app?vid=8e0e8ea4-2f5b-458c-9b0a-66deb7cd3b4b"},"vehicle_type_id":"4","last_reported":1759169696,"current_range_meters":16000,"station_id":"ce4bh692rcd13ifvqea0","pricing_plan_id":"cebpf4jnsgd1na2vs0mg"},{"bike_id":"e17857ef-9057-4d30-b1e9-4ab6ead4c304","system_id":"levelo_inurba_marseille","lat":43.246562,"lon":5.38886,"is_reserved":false,"is_disabled":true,"rental_uris":{"android":"levelo://app?vid=e17857ef-9057-4d30-b1e9-4ab6ead4c304","ios":"levelo://app?vid=e17857ef-9057-4d30-b1e9-4ab6ead4c304"},"vehicle_type_id":"4","last_reported":1759169696,"current_range_meters":16000,"station_id":"ce4bhg12rcd13ifvqf60","pricing_plan_id":"cebpf4jnsgd1na2vs0mg"},{"bike_id":"9641b504-7f0b-4cb3-820b-81ca8b78d6a5","system_id":"levelo_inurba_marseille","lat":43.28669,"lon":5.36361,"is_reserved":false,"is_disabled":false,"rental_uris":{"android":"levelo://app?vid=9641b504-7f0b-4cb3-820b-81ca8b78d6a5","ios":"levelo://app?vid=9641b504-7f0b-4cb3-820b-81ca8b78d6a5"},"vehicle_type_id":"4","last_reported":1759169696,"current_range_meters":16000,"station_id":"ce4bhah2rcd13ifvqej0","pricing_plan_id":"cebpf4jnsgd1na2vs0mg"},{"bike_id":"738a51a6-02d0-4def-8f3f-9c82f6a6dd05","system_id":"levelo_inurba_marseille","lat":43.32367,"lon":5.36749,"is_reserved":false,"is_disabled":false,"rental_uris":{"android":"levelo://app?vid=738a51a6-02d0-4def-8f3f-9c82f6a6dd05","ios":"levelo://app?vid=738a51a6-02d0-4def-8f3f-9c82f6a6dd05"},"vehicle_type_id":"4","last_reported":1759169696,"current_range_meters":16000,"station_id":"ce4bhsh2rcd13ifvqi2g","pricing_plan_id":"cebpf4jnsgd1na2vs0mg"},{"bike_id":"b45645c3-5947-4e1b-9c1b-147f0540c9af","system_id":"levelo_inurba_marseille","lat":43.308,"lon":5.43537,"is_reserved":false,"is_disabled":false,"rental_uris":{"android":"levelo://app?vid=b45645c3-5947-4e1b-9c1b-147f0540c9af","ios":"levelo://app?vid=b45645c3-5947-4e1b-9c1b-147f0540c9af"},"vehicle_type_id":"4","last_reported":1759169696,"current_range_meters":16000,"station_id":"ce4bhph2rcd13ifvqheg","pricing_plan_id":"cebpf4jnsgd1na2vs0mg"},{"bike_id":"4c8e9ee7-79aa-42ca-8f69-6709623dc66d","system_id":"levelo_inurba_marseille","lat":43.29063,"lon":5.3592,"is_reserved":false,"is_disabled":false,"rental_uris":{"android":"levelo://app?vid=4c8e9ee7-79aa-42ca-8f69-6709623dc66d","ios":"levelo://app?vid=4c8e9ee7-79aa-42ca-8f69-6709623dc66d"},"vehicle_type_id":"4","last_reported":1759169696,"current_range_meters":16400,"station_id":"ce4bha92rcd13ifvqeg0","pricing_plan_id":"cebpf4jnsgd1na2vs0mg"},{"bike_id":"0aba4fe3-5dca-4d79-8b9d-2fc77d6e7d70","system_id":"levelo_inurba_marseille","lat":43.28418,"lon":5.349815,"is_reserved":false,"is_disabled":false,"rental_uris":{"android":"levelo://app?vid=0aba4fe3-5dca-4d79-8b9d-2fc77d6e7d70","ios":"levelo://app?vid=0aba4fe3-5dca-4d79-8b9d-2fc77d6e7d70"},"vehicle_type_id":"4","last_reported":1759169696,"current_range_meters":16400,"station_id":"","pricing_plan_id":"cebpf4jnsgd1na2vs0mg"},{"bike_id":"48d921ed-1e5a-4a3b-b275-11495bf0d26d","system_id":"levelo_inurba_marseille","lat":43.29575,"lon":5.3675,"is_reserved":false,"is_disabled":false,"rental_uris":{"android":"levelo://app?vid=48d921ed-1e5a-4a3b-b275-11495bf0d26d","ios":"levelo://app?vid=48d921ed-1e5a-4a3b-b275-11495bf0d26d"},"vehicle_type_id":"4","last_reported":1759169696,"current_range_meters":16400,"station_id":"ce4bgph2rcd13ifvqc2g","pricing_plan_id":"cebpf4jnsgd1na2vs0mg"},{"bike_id":"149cb654-9e06-44d3-bb84-e380626e80f6","system_id":"levelo_inurba_marseille","lat":43.302356,"lon":5.400809,"is_reserved":false,"is_disabled":false,"rental_uris":{"android":"levelo://app?vid=149cb654-9e06-44d3-bb84-e380626e80f6","ios":"levelo://app?vid=149cb654-9e06-44d3-bb84-e380626e80f6"},"vehicle_type_id":"4","last_reported":1759169696,"current_range_meters":17200,"station_id":"ce4bgvh2rcd13ifvqcs0","pricing_plan_id":"cebpf4jnsgd1na2vs0mg"},{"bike_id":"f44df0c8-3c0a-4103-982e-900169d96e81","system_id":"levelo_inurba_marseille","lat":43.321039,"lon":5.367932,"is_reserved":false,"is_disabled":false,"rental_uris":{"android":"levelo://app?vid=f44df0c8-3c0a-4103-982e-900169d96e81","ios":"levelo://app?vid=f44df0c8-3c0a-4103-982e-900169d96e81"},"vehicle_type_id":"4","last_reported":1759169696,"current_range_meters":16400,"station_id":"ce4bhrh2rcd13ifvqhug","pricing_plan_id":"cebpf4jnsgd1na2vs0mg"},{"bike_id":"13604148-437a-4148-9ed9-019ca4e03ec3","system_id":"levelo_inurba_marseille","lat":43.24635,"lon":5.43156,"is_reserved":false,"is_disabled":false,"rental_uris":{"android":"levelo://app?vid=13604148-437a-4148-9ed9-019ca4e03ec3","ios":"levelo://app?vid=13604148-437a-4148-9ed9-019ca4e03ec3"},"vehicle_type_id":"4","last_reported":1759169696,"current_range_meters":16400,"station_id":"st_d2m6c4gdas8pm72e190g","pricing_plan_id":"cebpf4jnsgd1na2vs0mg"},