{"last_updated":1737731312,"ttl":60,"version":"2.2","data":{"bikes":[{"bike_id":"71025e83-daff-40eb-8f70-b8e1fc9300fb","system_id":"levelo_inurba_marseille","lat":43.22934,"lon":5.35372,"is_reserved":false,"is_disabled":false,"rental_uris":{"android":"levelo://app?vid=71025e83-daff-40eb-8f70-b8e1fc9300fb","ios":"levelo://app?vid=71025e83-daff-40eb-8f70-b8e1fc9300fb"},"vehicle_type_id":"4","last_reported":1737731312,"current_range_meters":38800,"station_id":"cpo3532slgdg3j2ikp40","pricing_plan_id":"cebpf4jnsgd1na2vs0mg"},{"bike_id":"e1f47e23-de29-46f4-8208-83292534ccc8","system_id":"levelo_inurba_marseille","lat":43.29626,"lon":5.37726,"is_reserved":false,"is_disabled":false,"rental_uris":{"android":"levelo://app?vid=e1f47e23-de29-46f4-8208-83292534ccc8","ios":"levelo://app?vid=e1f47e23-de29-46f4-8208-83292534ccc8"},"vehicle_type_id":"4","last_reported":1737731312,"current_range_meters":25200,"station_id":"ce4bgi92rcd13ifvqb90","pricing_plan_id":"cebpf4jnsgd1na2vs0mg"},{"bike_id":"394c9ae7-6e90-449e-a07a-87d9bfde70a1","system_id":"levelo_inurba_marseille","lat":43.29029,"lon":5.38125,"is_reserved":false,"is_disabled":false,"rental_uris":{"android":"levelo://app?vid=394c9ae7-6e90-449e-a07a-87d9bfde70a1","ios":"levelo://app?vid=394c9ae7-6e90-449e-a07a-87d9bfde70a1"},"vehicle_type_id":"4","last_reported":1737731312,"current_range_meters":8800,"station_id":"ce4bh4p2rcd13ifvqe1g","pricing_plan_id":"cebpf4jnsgd1na2vs0mg"},{"bike_id":"3fc71f2b-f71f-4278-ba1a-785de3566083","system_id":"levelo_inurba_marseille","lat":43.23967,"lon":5.36635,"is_reserved":false,"is_disabled":false,"rental_uris":{"android":"levelo://app?vid=3fc71f2b-f71f-4278-ba1a-785de3566083","ios":"levelo://app?vid=3fc71f2b-f71f-4278-ba1a-785de3566083"},"vehicle_type_id":"4","last_reported":1737731312,"current_range_meters":38800,"station_id":"ce4bhi12rcd13ifvqfp0","pricing_plan_id":"cebpf4jnsgd1na2vs0mg"},{"bike_id":"5ca1b0d9-e907-4880-8a5c-e9faab2c55a0","system_id":"levelo_inurba_marseille","lat":43.30564,"lon":5.36518,"is_reserved":false,"is_disabled":false,"rental_uris":{"android":"levelo://app?vid=5ca1b0d9-e907-4880-8a5c-e9faab2c55a0","ios":"levelo://app?vid=5ca1b0d9-e907-4880-8a5c-e9faab2c55a0"},"vehicle_type_id":"4","last_reported":1737731312,"current_range_meters":8800,"station_id":"ce4bgs12rcd13ifvqcag","pricing_plan_id":"cebpf4jnsgd1na2vs0mg"},{"bike_id":"0793f05d-0029-4d54-a0fe-9c0436426db5","system_id":"levelo_inurba_marseille","lat":43.23189,"lon":5.35545,"is_reserved":false,"is_disabled":false,"rental_uris":{"android":"levelo://app?vid=0793f05d-0029-4d54-a0fe-9c0436426db5","ios":"levelo://app?vid=0793f05d-0029-4d54-a0fe-9c0436426db5"},"vehicle_type_id":"4","last_reported":1737731312,"current_range_meters":32400,"station_id":"ce4bhu92rcd13ifvqi70","pricing_plan_id":"cebpf4jnsgd1na2vs0mg"},{"bike_id":"e6bf3662-afda-4c94-aeb8-67570b60fa75","system_id":"levelo_inurba_marseille","lat":43.2587,"lon":5.39899,"is_reserved":false,"is_disabled":false,"rental_uris":{"android":"levelo://app?vid=e6bf3662-afda-4c94-aeb8-67570b60fa75","ios":"levelo://app?vid=e6bf3662-afda-4c94-aeb8-67570b60fa75"},"vehicle_type_id":"4","last_reported":1737731312,"current_range_meters":9600,"station_id":"ce4bhl92rcd13ifvqghg","pricing_plan_id":"cebpf4jnsgd1na2vs0mg"},{"bike_id":"b5053d19-fa4e-424e-910f-1779f888d264","system_id":"levelo_inurba_marseille","lat":43.28726,"lon":5.37933,"is_reserved":false,"is_disabled":false,"rental_uris":{"android":"levelo://app?vid=b5053d19-fa4e-424e-910f-1779f888d264","ios":"levelo://app?vid=b5053d19-fa4e-424e-910f-1779f888d264"},"vehicle_type_id":"4","last_reported":1737731312,"current_range_meters":28400,"station_id":"ce4bh9p2rcd13ifvqec0","pricing_plan_id":"cebpf4jnsgd1na2vs0mg"},{"bike_id":"eb97554e-9784-452b-b85e-e8331efd4fe5","system_id":"levelo_inurba_marseille","lat":43.31366,"lon":5.36695,"is_reserved":false,"is_disabled":false,"rental_uris":{"android":"levelo://app?vid=eb97554e-9784-452b-b85e-e8331efd4fe5","ios":"levelo://app?vid=eb97554e-9784-452b-b85e-e8331efd4fe5"},"vehicle_type_id":"4","last_reported":1737731312,"current_range_meters":38800,"station_id":"ce4bgr92rcd13ifvqc6g","pricing_plan_id":"cebpf4jnsgd1na2vs0mg"},{"bike_id":"a7374ea6-d40c-40c7-a19b-2d50add97ae5","system_id":"levelo_inurba_marseille","lat":43.29717,"lon":5.3661,"is_reserved":false,"is_disabled":false,"rental_uris":{"android":"levelo://app?vid=a7374ea6-d40c-40c7-a19b-2d50add97ae5","ios":"levelo://app?vid=a7374ea6-d40c-40c7-a19b-2d50add97ae5"},"vehicle_type_id":"4","last_reported":1737731312,"current_range_meters":25200,"station_id":"ce4bgn12rcd13ifvqbt0","pricing_plan_id":"cebpf4jnsgd1na2vs0mg"},{"bike_id":"025728b7-b6ec-4eb1-921e-b5a83c942a9b","system_id":"levelo_inurba_marseille","lat":43.30159,"lon":5.38081,"is_reserved":false,"is_disabled":false,"rental_uris":{"android":"levelo://app?vid=025728b7-b6ec-4eb1-921e-b5a83c942a9b","ios":"levelo://app?vid=025728b7-b6ec-4eb1-921e-b5a83c942a9b"},"vehicle_type_id":"4","last_reported":1737731312,"current_range_meters":34000,"station_id":"ce4bgjp2rcd13ifvqbh0","pricing_plan_id":"cebpf4jnsgd1na2vs0mg"},{"bike_id":"3809bb1b-1f2b-4c5f-ac6e-77b80fd19edc","system_id":"levelo_inurba_marseille","lat":43.28425,"lon":5.34986,"is_reserved":false,"is_disabled":false,"rental_uris":{"android":"levelo://app?vid=3809bb1b-1f2b-4c5f-ac6e-77b80fd19edc","ios":"levelo://app?vid=3809bb1b-1f2b-4c5f-ac6e-77b80fd19edc"},"vehicle_type_id":"4","last_reported":1737731312,"current_range_meters":38000,"station_id":"ce4bhbh2rcd13ifvqepg","pricing_plan_id":"cebpf4jnsgd1na2vs0mg"},{"bike_id":"6e0e02f5-b0ae-450f-ad77-51511a2e44cf","system_id":"levelo_inurba_marseille","lat":43.30927,"lon":5.40147,"is_reserved":false,"is_disabled":true,"rental_uris":{"android":"levelo://app?vid=6e0e02f5-b0ae-450f-ad77-51511a2e44cf","ios":"levelo://app?vid=6e0e02f5-b0ae-450f-ad77-51511a2e44cf"},"vehicle_type_id":"4","last_reported":1737731312,"current_range_meters":24800,"station_id":"ce4bgvp2rcd13ifvqct0","pricing_plan_id":"cebpf4jnsgd1na2vs0mg"},{"bike_id":"367c1a4d-e3ef-4cc4-8a53-e7c1e322176a","system_id":"levelo_inurba_marseille","lat":43.30156,"lon":5.38089,"is_reserved":false,"is_disabled":false,"rental_uris":{"android":"levelo://app?vid=367c1a4d-e3ef-4cc4-8a53-e7c1e322176a","ios":"levelo://app?vid=367c1a4d-e3ef-4cc4-8a53-e7c1e322176a"},"vehicle_type_id":"4","last_reported":1737731312,"current_range_meters":38800,"station_id":"ce4bgjp2rcd13ifvqbh0","pricing_plan_id":"cebpf4jnsgd1na2vs0mg"},{"bike_id":"637cf45d-cd8a-4700-9a5f-fca22f97ab8f","system_id":"levelo_inurba_marseille","lat":43.275662,"lon":5.384038,"is_reserved":false,"is_disabled":false,"rental_uris":{"android":"levelo://app?vid=637cf45d-cd8a-4700-9a5f-fca22f97ab8f","ios":"levelo://app?vid=637cf45d-cd8a-4700-9a5f-fca22f97ab8f"},"vehicle_type_id":"4","last_reported":1737731312,"current_range_meters":39200,"station_id":"ce4bhh92rcd13ifvqfi0","pricing_plan_id":"cebpf4jnsgd1na2vs0mg"},{"bike_id":"f5e6fb75-6770-4185-8aa6-35caca726285","system_id":"levelo_inurba_marseille","lat":43.29868,"lon":5.39726,"is_reserved":false,"is_disabled":false,"rental_uris":{"android":"levelo://app?vid=f5e6fb75-6770-4185-8aa6-35caca726285","ios":"levelo://app?vid=f5e6fb75-6770-4185-8aa6-35caca726285"},"vehicle_type_id":"4","last_reported":1737731312,"current_range_meters":38400,"station_id":"ce4bh0h2rcd13ifvqd50","pricing_plan_id":"cebpf4jnsgd1na2vs0mg"},{"bike_id":"3169bea1-794e-4a56-bb06-3b17a235f305","system_id":"levelo_inurba_marseille","lat":43.25799,"lon":5.41005,"is_reserved":false,"is_disabled":false,"rental_uris":{"android":"levelo://app?vid=3169bea1-794e-4a56-bb06-3b17a235f305","ios":"levelo://app?vid=3169bea1-794e-4a56-bb06-3b17a235f305"},"vehicle_type_id":"4","last_reported":1737731312,"current_range_meters":38800,"station_id":"ce4bhkp2rcd13ifvqgd0","pricing_plan_id":"cebpf4jnsgd1na2vs0mg"},{"bike_id":"0f2a1312-e97a-449a-abfd-7818dd55f40f","system_id":"levelo_inurba_marseille","lat":43.32534,"lon":5.36585,"is_reserved":false,"is_disabled":false,"rental_uris":{"android":"levelo://app?vid=0f2a1312-e97a-449a-abfd-7818dd55f40f","ios":"levelo://app?vid=0f2a1312-e97a-449a-abfd-7818dd55f40f"},"vehicle_type_id":"4","last_reported":1737731312,"current_range_meters":18000,"station_id":"ce4bhs12rcd13ifvqhvg","pricing_plan_id":"cebpf4jnsgd1na2vs0mg"},{"bike_id":"0f91c880-c9fc-4ac9-8972-986b782da834","system_id":"levelo_inurba_marseille","lat":43.29104,"lon":5.37176,"is_reserved":false,"is_disabled":false,"rental_uris":{"android":"levelo://app?vid=0f91c880-c9fc-4ac9-8972-986b782da834","ios":"levelo://app?vid=0f91c880-c9fc-4ac9-8972-986b782da834"},"vehicle_type_id":"4","last_reported":1737731312,"current_range_meters":36400,"station_id":"ce4bh5p2rcd13ifvqe4g","pricing_plan_id":"cebpf4jnsgd1na2vs0mg"},{"bike_id":"8436acf0-1f80-41e1-8a4e-9bea51bc7fa6","system_id":"levelo_inurba_marseille","lat":43.30564,"lon":5.3841,"is_reserved":false,"is_disabled":false,"rental_uris":{"android":"levelo://app?vid=8436acf0-1f80-41e1-8a4e-9bea51bc7fa6","ios":"levelo://app?vid=8436acf0-1f80-41e1-8a4e-9bea51bc7fa6"},"vehicle_type_id":"4","last_reported":1737731312,"current_range_meters":38000,"station_id":"ce4bgg92rcd13ifvqb30","pricing_plan_id":"cebpf4jnsgd1na2vs0mg"},{"bike_id":"67c7ae87-b85c-4dbb-9df2-0efb537799a4","system_id":"levelo_inurba_marseille","lat":43.299113,"lon":5.381453,"is_reserved":false,"is_disabled":false,"rental_uris":{"android":"levelo://app?vid=67c7ae87-b85c-4dbb-9df2-0efb537799a4","ios":"levelo://app?vid=67c7ae87-b85c-4dbb-9df2-0efb537799a4"},"vehicle_type_id":"4","last_reported":1737731312,"current_range_meters":22400,"station_id":"ce4bgj12rcd13ifvqbc0","pricing_plan_id":"cebpf4jnsgd1na2vs0mg"},{"bike_id":"6a0c52b0-f71a-4340-9332-80a77ea7e4fa","system_id":"levelo_inurba_marseille","lat":43.31768,"lon":5.39013,"is_reserved":false,"is_disabled":false,"rental_uris":{"android":"levelo://app?vid=6a0c52b0-f71a-4340-9332-80a77ea7e4fa","ios":"levelo://app?vid=6a0c52b0-f71a-4340-9332-80a77ea7e4fa"},"vehicle_type_id":"4","last_reported":1737731312,"current_range_meters":19200,"station_id":"ce4bhqp2rcd13ifvqhng","pricing_plan_id":"cebpf4jnsgd1na2vs0mg"},{"bike_id":"7d01c9c2-01d8-4b93-841d-cd56a6790539","system_id":"levelo_inurba_marseille","lat":43.27191,"lon":5.40972,"is_reserved":false,"is_disabled":false,"rental_uris":{"android":"levelo://app?vid=7d01c9c2-01d8-4b93-841d-cd56a6790539","ios":"levelo://app?vid=7d01c9c2-01d8-4b93-841d-cd56a6790539"},"vehicle_type_id":"4","last_reported":1737731312,"current_range_meters":36800,"station_id":"ce4bhl12rcd13ifvqgf0","pricing_plan_id":"cebpf4jnsgd1na2vs0mg"},{"bike_id":"348d67ba-2781-43f3-ad02-99affac5e7a3","system_id":"levelo_inurba_marseille","lat":43.32653,"lon":5.40992,"is_reserved":false,"is_disabled":false,"rental_uris":{"android":"levelo://app?vid=348d67ba-2781-43f3-ad02-99affac5e7a3","ios":"levelo://app?vid=348d67ba-2781-43f3-ad02-99affac5e7a3"},"vehicle_type_id":"4","last_reported":1737731312,"current_range_meters":12000,"station_id":"ce4bhpp2rcd13ifvqhgg","pricing_plan_id":"cebpf4jnsgd1na2vs0mg"},{"bike_id":"7dafa7e7-757d-4898-abdf-cf5305599df2","system_id":"levelo_inurba_marseille","lat":43.29912,"lon":5.37474,"is_reserved":false,"is_disabled":false,"rental_uris":{"android":"levelo://app?vid=7dafa7e7-757d-4898-abdf-cf5305599df2","ios":"levelo://app?vid=7dafa7e7-757d-4898-abdf-cf5305599df2"},"vehicle_type_id":"4","last_reported":1737731312,"current_range_meters":38800,"station_id":"ce4bgjh2rcd13ifvqbg0","pricing_plan_id":"cebpf4jnsgd1na2vs0mg"},{"bike_id":"4976480c-cdc2-4ba7-911a-6ff0383cca59","system_id":"levelo_inurba_marseille","lat":43.28955,"lon":5.39626,"is_reserved":false,"is_disabled":false,"rental_uris":{"android":"levelo://app?vid=4976480c-cdc2-4ba7-911a-6ff0383cca59","ios":"levelo://app?vid=4976480c-cdc2-4ba7-911a-6ff0383cca59"},"vehicle_type_id":"4","last_reported":1737731312,"current_range_meters":39200,"station_id":"ce4bh3h2rcd13ifvqdn0","pricing_plan_id":"cebpf4jnsgd1na2vs0mg"},{"bike_id":"76405985-5f5b-4382-aa14-60330cf5d3cb","system_id":"levelo_inurba_marseille","lat":43.32054,"lon":5.41538,"is_reserved":false,"is_disabled":false,"rental_uris":{"android":"levelo://app?vid=76405985-5f5b-4382-aa14-60330cf5d3cb","ios":"levelo://app?vid=76405985-5f5b-4382-aa14-60330cf5d3cb"},"vehicle_type_id":"4","last_reported":1737731312,"current_range_meters":39200,"station_id":"ce4bhq92rcd13ifvqhkg","pricing_plan_id":"cebpf4jnsgd1na2vs0mg"},{"bike_id":"eab78164-8b49-4b34-b0f8-61e657f23111","system_id":"levelo_inurba_marseille","lat":43.28269,"lon":5.3507,"is_reserved":false,"is_disabled":false,"rental_uris":{"android":"levelo://app?vid=eab78164-8b49-4b34-b0f8-61e657f23111","ios":"levelo://app?vid=eab78164-8b49-4b34-b0f8-61e657f23111"},"vehicle_type_id":"4","last_reported":1737731312,"current_range_meters":10000,"station_id":"ce4bhbp2rcd13ifvqerg","pricing_plan_id":"cebpf4jnsgd1na2vs0mg"},{"bike_id":"b214cadd-e18d-499d-bd11-205c2e43cccd","system_id":"levelo_inurba_marseille","lat":43.32114,"lon":5.36772,"is_reserved":false,"is_disabled":false,"rental_uris":{"android":"levelo://app?vid=b214cadd-e18d-499d-bd11-205c2e43cccd","ios":"levelo://app?vid=b214cadd-e18d-499d-bd11-205c2e43cccd"},"vehicle_type_id":"4","last_reported":1737731312,"current_range_meters":30400,"station_id":"ce4bhrh2rcd13ifvqhug","pricing_plan_id":"cebpf4jnsgd1na2vs0mg"},{"bike_id":"ee8f3652-3512-447d-a6db-2dabec8ece02","system_id":"levelo_inurba_marseille","lat":43.2396,"lon":5.36631,"is_reserved":false,"is_disabled":false,"rental_uris":{"android":"levelo://app?vid=ee8f3652-3512-447d-a6db-2dabec8ece02","ios":"levelo://app?vid=ee8f3652-3512-447d-a6db-2dabec8ece02"},"vehicle_type_id":"4","last_reported":1737731312,"current_range_meters":16800,"station_id":"ce4bhi12rcd13ifvqfp0","pricing_plan_id":"cebpf4jnsgd1na2vs0mg"},{"bike_id":"7729905d-bf2b-48ad-a552-1632a15d8cbd","system_id":"levelo_inurba_marseille","lat":43.30155,"lon":5.38102,"is_reserved":false,"is_disabled":false,"rental_uris":{"android":"levelo://app?vid=7729905d-bf2b-48ad-a552-1632a15d8cbd","ios":"levelo://app?vid=7729905d-bf2b-48ad-a552-1632a15d8cbd"},"vehicle_type_id":"4","last_reported":1737731312,"current_range_meters":26000,"station_id":"ce4bgjp2rcd13ifvqbh0","pricing_plan_id":"cebpf4jnsgd1na2vs0mg"},{"bike_id":"c491b9d7-9629-4215-bdb7-4fec9c846c78","system_id":"levelo_inurba_marseille","lat":43.31767,"lon":5.39018,"is_reserved":false,"is_disabled":false,"rental_uris":{"android":"levelo://app?vid=c491b9d7-9629-4215-bdb7-4fec9c846c78","ios":"levelo://app?vid=c491b9d7-9629-4215-bdb7-4fec9c846c78"},"vehicle_type_id":"4","last_reported":1737731312,"current_range_meters":36400,"station_id":"ce4bhqp2rcd13ifvqhng","pricing_plan_id":"cebpf4jnsgd1na2vs0mg"},{"bike_id":"7e47f404-af0f-45fe-82e0-fbcc8350a698","system_id":"levelo_inurba_marseille","lat":43.23063,"lon":5.35499,"is_reserved":false,"is_disabled":false,"rental_uris":{"android":"levelo://app?vid=7e47f404-af0f-45fe-82e0-fbcc8350a698","ios":"levelo://app?vid=7e47f404-af0f-45fe-82e0-fbcc8350a698"},"vehicle_type_id":"4","last_reported":1737731312,"current_range_meters":12400,"station_id":"cpo3342slgdg3j2ifvpg","pricing_plan_id":"cebpf4jnsgd1na2vs0mg"},{"bike_id":"34da221c-c1f5-4ddc-890d-9091cd51d245","system_id":"levelo_inurba_marseille","lat":43.30538,"lon":5.38445,"is_reserved":false,"is_disabled":false,"rental_uris":{"android":"levelo://app?vid=34da221c-c1f5-4ddc-890d-9091cd51d245","ios":"levelo://app?vid=34da221c-c1f5-4ddc-890d-9091cd51d245"},"vehicle_type_id":"4","last_reported":1737731312,"current_range_meters":38800,"station_id":"ce4bgg92rcd13ifvqb30","pricing_plan_id":"cebpf4jnsgd1na2vs0mg"},{"bike_id":"0bc71879-f319-4ffa-a1d8-dc0c68ac136c","system_id":"levelo_inurba_marseille","lat":43.29632,"lon":5.37141,"is_reserved":false,"is_disabled":false,"rental_uris":{"android":"levelo://app?vid=0bc71879-f319-4ffa-a1d8-dc0c68ac136c","ios":"levelo://app?vid=0bc71879-f319-4ffa-a1d8-dc0c68ac136c"},"vehicle_type_id":"4","last_reported":1737731312,"current_range_meters":32800,"station_id":"ce4bgnh2rcd13ifvqc0g","pricing_plan_id":"cebpf4jnsgd1na2vs0mg"},{"bike_id":"6d1c7757-cbfa-452f-8195-daacd34f212b","system_id":"levelo_inurba_marseille","lat":43.23062,"lon":5.35483,"is_reserved":false,"is_disabled":true,"rental_uris":{"android":"levelo://app?vid=6d1c7757-cbfa-452f-8195-daacd34f212b","ios":"levelo://app?vid=6d1c7757-cbfa-452f-8195-daacd34f212b"},"vehicle_type_id":"4","last_reported":1737731312,"current_range_meters":800,"station_id":"cpo3342slgdg3j2ifvpg","pricing_plan_id":"cebpf4jnsgd1na2vs0mg"},{"bike_id":"51482d97-eb97-48da-9162-9e1763768d59","system_id":"levelo_inurba_marseille","lat":43.29785,"lon":5.3709,"is_reserved":false,"is_disabled":true,"rental_uris":{"android":"levelo://app?vid=51482d97-eb97-48da-9162-9e1763768d59","ios":"levelo://app?vid=51482d97-eb97-48da-9162-9e1763768d59"},"vehicle_type_id":"4","last_reported":1737731312,"current_range_meters":1200,"station_id":"ce4bgop2rcd13ifvqc1g","pricing_plan_id":"cebpf4jnsgd1na2vs0mg"},{"bike_id":"2564c0de-58fc-4c88-89df-c0dad47b5784","system_id":"levelo_inurba_marseille","lat":43.29623,"lon":5.40588,"is_reserved":false,"is_disabled":false,"rental_uris":{"android":"levelo://app?vid=2564c0de-58fc-4c88-89df-c0dad47b5784","ios":"levelo://app?vid=2564c0de-58fc-4c88-89df-c0dad47b5784"},"vehicle_type_id":"4","last_reported":1737731312,"current_range_meters":36000,"station_id":"ce4bh0h2rcd13ifvqd60","pricing_plan_id":"cebpf4jnsgd1na2vs0mg"},{"bike_id":"56284cda-5358-45d2-b028-ad4c0b9d2efe","system_id":"levelo_inurba_marseille","lat":43.29518,"lon":5.39398,"is_reserved":false,"is_disabled":false,"rental_uris":{"android":"levelo://app?vid=56284cda-5358-45d2-b028-ad4c0b9d2efe","ios":"levelo://app?vid=56284cda-5358-45d2-b028-ad4c0b9d2efe"},"vehicle_type_id":"4","last_reported":1737731312,"current_range_meters":24000,"station_id":"ce4bh292rcd13ifvqdf0","pricing_plan_id":"cebpf4jnsgd1na2vs0mg"},{"bike_id":"f253fc82-7ca1-4c38-a41a-566478bb536e","system_id":"levelo_inurba_marseille","lat":43.28028,"lon":5.369465,"is_reserved":false,"is_disabled":false,"rental_uris":{"android":"levelo://app?vid=f253fc82-7ca1-4c38-a41a-566478bb536e","ios":"levelo://app?vid=f253fc82-7ca1-4c38-a41a-566478bb536e"},"vehicle_type_id":"4","last_reported":1737731312,"current_range_meters":39200,"station_id":"ce4bha12rcd13ifvqef0","pricing_plan_id":"cebpf4jnsgd1na2vs0mg"},{"bike_id":"c287a3ed-5ab1-4fe0-a917-cf5ecb40f512","system_id":"levelo_inurba_marseille","lat":43.29258,"lon":5.38431,"is_reserved":false,"is_disabled":true,"rental_uris":{"android":"levelo://app?vid=c287a3ed-5ab1-4fe0-a917-cf5ecb40f512","ios":"levelo://app?vid=c287a3ed-5ab1-4fe0-a917-cf5ecb40f512"},"vehicle_type_id":"4","last_reported":1737731312,"current_range_meters":22400,"station_id":"ce4bh692rcd13ifvqea0","pricing_plan_id":"cebpf4jnsgd1na2vs0mg"},{"bike_id":"9838cc78-2b53-49d3-ae13-82df62c4fd64","system_id":"levelo_inurba_marseille","lat":43.28422,"lon":5.40937,"is_reserved":false,"is_disabled":true,"rental_uris":{"android":"levelo://app?vid=9838cc78-2b53-49d3-ae13-82df62c4fd64","ios":"levelo://app?vid=9838cc78-2b53-49d3-ae13-82df62c4fd64"},"vehicle_type_id":"4","last_reported":1737731312,"current_range_meters":400,"station_id":"","pricing_plan_id":"cebpf4jnsgd1na2vs0mg"},{"bike_id":"be7bca6d-d29a-453b-8adc-504af9606380","system_id":"levelo_inurba_marseille","lat":43.23966,"lon":5.36627,"is_reserved":false,"is_disabled":false,"rental_uris":{"android":"levelo://app?vid=be7bca6d-d29a-453b-8adc-504af9606380","ios":"levelo://app?vid=be7bca6d-d29a-453b-8adc-504af9606380"},"vehicle_type_id":"4","last_reported":1737731312,"current_range_meters":26800,"station_id":"ce4bhi12rcd13ifvqfp0","pricing_plan_id":"cebpf4jnsgd1na2vs0mg"},{"bike_id":"34421432-4e11-4a9d-9526-f2d73a86386e","system_id":"levelo_inurba_marseille","lat":43.28852,"lon":5.35838,"is_reserved":false,"is_disabled":false,"rental_uris":{"android":"levelo://app?vid=34421432-4e11-4a9d-9526-f2d73a86386e","ios":"levelo://app?vid=34421432-4e11-4a9d-9526-f2d73a86386e"},"vehicle_type_id":"4","last_reported":1737731312,"current_range_meters":38800,"station_id":"ce4bhb12rcd13ifvqem0","pricing_plan_id":"cebpf4jnsgd1na2vs0mg"},{"bike_id":"34b2229e-959d-48df-914c-319914ed7988","system_id":"levelo_inurba_marseille","lat":43.27989,"lon":5.4166,"is_reserved":false,"is_disabled":false,"rental_uris":{"android":"levelo://app?vid=34b2229e-959d-48df-914c-319914ed7988","ios":"levelo://app?vid=34b2229e-959d-48df-914c-319914ed7988"},"vehicle_type_id":"4","last_reported":1737731312,"current_range_meters":27600,"station_id":"ce4bho12rcd13ifvqh1g","pricing_plan_id":"cebpf4jnsgd1na2vs0mg"},{"bike_id":"bf096a89-ee72-4f37-85bd-7b3cf9f0cb41","system_id":"levelo_inurba_marseille","lat":43.31933,"lon":5.379,"is_reserved":false,"is_disabled":false,"rental_uris":{"android":"levelo://app?vid=bf096a89-ee72-4f37-85bd-7b3cf9f0cb41","ios":"levelo://app?vid=bf096a89-ee72-4f37-85bd-7b3cf9f0cb41"},"vehicle_type_id":"4","last_reported":1737731312,"current_range_meters":35200,"station_id":"","pricing_plan_id":"cebpf4jnsgd1na2vs0mg"},{"bike_id":"7f3c0ff0-fa7e-4cf7-81f3-9aa94aa13774","system_id":"levelo_inurba_marseille","lat":43.29023,"lon":5.38125,"is_reserved":false,"is_disabled":false,"rental_uris":{"android":"levelo://app?vid=7f3c0ff0-fa7e-4cf7-81f3-9aa94aa13774","ios":"levelo://app?vid=7f3c0ff0-fa7e-4cf7-81f3-9aa94aa13774"},"vehicle_type_id":"4","last_reported":1737731312,"current_range_meters":8000,"station_id":"ce4bh4p2rcd13ifvqe1g","pricing_plan_id":"cebpf4jnsgd1na2vs0mg"},{"bike_id":"b1a31b37-3c6a-43de-ac18-6b6b299e2d44","system_id":"levelo_inurba_marseille","lat":43.25504,"lon":5.37646,"is_reserved":false,"is_disabled":false,"rental_uris":{"android":"levelo://app?vid=b1a31b37-3c6a-43de-ac18-6b6b299e2d44","ios":"levelo://app?vid=b1a31b37-3c6a-43de-ac18-6b6b299e2d44"},"vehicle_type_id":"4","last_reported":1737731312,"current_range_meters":5600,"station_id":"ce4bhh12rcd13ifvqff0","pricing_plan_id":"cebpf4jnsgd1na2vs0mg"},{"bike_id":"1bc0c8aa-b251-4a2a-b585-a39e24044df3","system_id":"levelo_inurba_marseille","lat":43.26948,"lon":5.38629,"is_reserved":false,"is_disabled":false,"rental_uris":{"android":"levelo://app?vid=1bc0c8aa-b251-4a2a-b585-a39e24044df3","ios":"levelo://app?vid=1bc0c8aa-b251-4a2a-b585-a39e24044df3"},"vehicle_type_id":"4","last_reported":1737731312,"current_range_meters":4400,"station_id":"ce4bhh92rcd13ifvqfh0","pricing_plan_id":"cebpf4jnsgd1na2vs0mg"},{"bike_id":"b3d6b5e1-6e99-4f8a-ad43-d9bfedb2dac9","system_id":"levelo_inurba_marseille","lat":43.3196,"lon":5.37192,"is_reserved":false,"is_disabled":false,"rental_uris":{"android":"levelo://app?vid=b3d6b5e1-6e99-4f8a-ad43-d9bfedb2dac9","ios":"levelo://app?vid=b3d6b5e1-6e99-4f8a-ad43-d9bfedb2dac9"},"vehicle_type_id":"4","last_reported":1737731312,"current_range_meters":6000,"station_id":"","pricing_plan_id":"cebpf4jnsgd1na2vs0mg"},{"bike_id":"5d57c4f5-fbb6-4390-97ca-e8e05a3ca80e","system_id":"levelo_inurba_marseille","lat":43.2317,"lon":5.3999,"is_reserved":false,"is_disabled":false,"rental_uris":{"android":"levelo://app?vid=5d57c4f5-fbb6-4390-97ca-e8e05a3ca80e","ios":"levelo://app?vid=5d57c4f5-fbb6-4390-97ca-e8e05a3ca80e"},"vehicle_type_id":"4","last_reported":1737731312,"current_range_meters":22000,"station_id":"ce4bhn12rcd13ifvqgqg","pricing_plan_id":"cebpf4jnsgd1na2vs0mg"},{"bike_id":"e2b15c9b-bfdb-4523-aaba-3c2d85254228","system_id":"levelo_inurba_marseille","lat":43.31074,"lon":5.38363,"is_reserved":false,"is_disabled":false,"rental_uris":{"android":"levelo://app?vid=e2b15c9b-bfdb-4523-aaba-3c2d85254228","ios":"levelo://app?vid=e2b15c9b-bfdb-4523-aaba-3c2d85254228"},"vehicle_type_id":"4","last_reported":1737731312,"current_range_meters":19600,"station_id":"ce4bgv92rcd13ifvqcr0","pricing_plan_id":"cebpf4jnsgd1na2vs0mg"},{"bike_id":"b4c1a0f9-b077-4050-9630-dd172e3de6db","system_id":"levelo_inurba_marseille","lat":43.29944,"lon":5.36536,"is_reserved":false,"is_disabled":false,"rental_uris":{"android":"levelo://app?vid=b4c1a0f9-b077-4050-9630-dd172e3de6db","ios":"levelo://app?vid=b4c1a0f9-b077-4050-9630-dd172e3de6db"},"vehicle_type_id":"4","last_reported":1737731312,"current_range_meters":35200,"station_id":"ce4bgm92rcd13ifvqbr0","pricing_plan_id":"cebpf4jnsgd1na2vs0mg"},{"bike_id":"c964a905-9270-455d-8da3-260e623933e5","system_id":"levelo_inurba_marseille","lat":43.26692,"lon":5.38278,"is_reserved":false,"is_disabled":false,"rental_uris":{"android":"levelo://app?vid=c964a905-9270-455d-8da3-260e623933e5","ios":"levelo://app?vid=c964a905-9270-455d-8da3-260e623933e5"},"vehicle_type_id":"4","last_reported":1737731312,"current_range_meters":38800,"station_id":"ce4bhg92rcd13ifvqf90","pricing_plan_id":"cebpf4jnsgd1na2vs0mg"},{"bike_id":"1015d3cc-1b9b-42b8-8e79-707fec2d7a50","system_id":"levelo_inurba_marseille","lat":43.30144,"lon":5.39874,"is_reserved":false,"is_disabled":false,"rental_uris":{"android":"levelo://app?vid=1015d3cc-1b9b-42b8-8e79-707fec2d7a50","ios":"levelo://app?vid=1015d3cc-1b9b-42b8-8e79-707fec2d7a50"},"vehicle_type_id":"4","last_reported":1737731312,"current_range_meters":24000,"station_id":"ce4bh0h2rcd13ifvqd40","pricing_plan_id":"cebpf4jnsgd1na2vs0mg"},{"bike_id":"e6fed224-e420-4150-9f76-4b1a14407d3e","system_id":"levelo_inurba_marseille","lat":43.24173,"lon":5.36395,"is_reserved":false,"is_disabled":false,"rental_uris":{"android":"levelo://app?vid=e6fed224-e420-4150-9f76-4b1a14407d3e","ios":"levelo://app?vid=e6fed224-e420-4150-9f76-4b1a14407d3e"},"vehicle_type_id":"4","last_reported":1737731312,"current_range_meters":6400,"station_id":"cpo36qri1sfpv3e86is0","pricing_plan_id":"cebpf4jnsgd1na2vs0mg"},{"bike_id":"c276da85-c857-4b0d-8792-c2826228a14c","system_id":"levelo_inurba_marseille","lat":43.23965,"lon":5.36631,"is_reserved":false,"is_disabled":false,"rental_uris":{"android":"levelo://app?vid=c276da85-c857-4b0d-8792-c2826228a14c","ios":"levelo://app?vid=c276da85-c857-4b0d-8792-c2826228a14c"},"vehicle_type_id":"4","last_reported":1737731312,"current_range_meters":28800,"station_id":"ce4bhi12rcd13ifvqfp0","pricing_plan_id":"cebpf4jnsgd1na2vs0mg"},{"bike_id":"2068ce80-1659-42b4-945e-19e0e5710b37","system_id":"levelo_inurba_marseille","lat":43.29721,"lon":5.3662,"is_reserved":false,"is_disabled":true,"rental_uris":{"android":"levelo://app?vid=2068ce80-1659-42b4-945e-19e0e5710b37","ios":"levelo://app?vid=2068ce80-1659-42b4-945e-19e0e5710b37"},"vehicle_type_id":"4","last_reported":1737731312,"current_range_meters":37600,"station_id":"ce4bgn12rcd13ifvqbt0","pricing_plan_id":"cebpf4jnsgd1na2vs0mg"},{"bike_id":"c0df63a5-409a-4548-90bc-467eb4865fe0","system_id":"levelo_inurba_marseille","lat":43.30316,"lon":5.3689,"is_reserved":false,"is_disabled":true,"rental_uris":{"android":"levelo://app?vid=c0df63a5-409a-4548-90bc-467eb4865fe0","ios":"levelo://app?vid=c0df63a5-409a-4548-90bc-467eb4865fe0"},"vehicle_type_id":"4","last_reported":1737731312,"current_range_meters":400,"station_id":"ce4bgqh2rcd13ifvqc5g","pricing_plan_id":"cebpf4jnsgd1na2vs0mg"},{"bike_id":"0d523cb4-824a-4f30-9f94-216dd58ad552","system_id":"levelo_inurba_marseille","lat":43.31988,"lon":5.38138,"is_reserved":false,"is_disabled":false,"rental_uris":{"android":"levelo://app?vid=0d523cb4-824a-4f30-9f94-216dd58ad552","ios":"levelo://app?vid=0d523cb4-824a-4f30-9f94-216dd58ad552"},"vehicle_type_id":"4","last_reported":1737731312,"current_range_meters":38800,"station_id":"ce4bhr12rcd13ifvqhpg","pricing_plan_id":"cebpf4jnsgd1na2vs0mg"},{"bike_id":"b1350c89-a295-42ef-b3a2-f01d5d977dd1","system_id":"levelo_inurba_marseille","lat":43.3017,"lon":5.38106,"is_reserved":false,"is_disabled":false,"rental_uris":{"android":"levelo://app?vid=b1350c89-a295-42ef-b3a2-f01d5d977dd1","ios":"levelo://app?vid=b1350c89-a295-42ef-b3a2-f01d5d977dd1"},"vehicle_type_id":"4","last_reported":1737731312,"current_range_meters":16400,"station_id":"ce4bgjp2rcd13ifvqbh0","pricing_plan_id":"cebpf4jnsgd1na2vs0mg"},{"bike_id":"5f2c0c87-0fad-479b-a16f-7e7c4f720c82","system_id":"levelo_inurba_marseille","lat":43.32666,"lon":5.40983,"is_reserved":false,"is_disabled":false,"rental_uris":{"android":"levelo://app?vid=5f2c0c87-0fad-479b-a16f-7e7c4f720c82","ios":"levelo://app?vid=5f2c0c87-0fad-479b-a16f-7e7c4f720c82"},"vehicle_type_id":"4","last_reported":1737731312,"current_range_meters":9600,"station_id":"ce4bhpp2rcd13ifvqhgg","pricing_plan_id":"cebpf4jnsgd1na2vs0mg"},{"bike_id":"6b358356-e9c1-4220-9959-a063813f1c64","system_id":"levelo_inurba_marseille","lat":43.32489,"lon":5.36573,"is_reserved":false,"is_disabled":false,"rental_uris":{"android":"levelo://app?vid=6b358356-e9c1-4220-9959-a063813f1c64","ios":"levelo://app?vid=6b358356-e9c1-4220-9959-a063813f1c64"},"vehicle_type_id":"4","last_reported":1737731312,"current_range_meters":20800,"station_id":"ce4bhs12rcd13ifvqhvg","pricing_plan_id":"cebpf4jnsgd1na2vs0mg"},{"bike_id":"c376c27b-4d6c-492c-a811-2fce69031c6d","system_id":"levelo_inurba_marseille","lat":43.29702,"lon":5.37641,"is_reserved":false,"is_disabled":false,"rental_uris":{"android":"levelo://app?vid=c376c27b-4d6c-492c-a811-2fce69031c6d","ios":"levelo://app?vid=c376c27b-4d6c-492c-a811-2fce69031c6d"},"vehicle_type_id":"4","last_reported":1737731312,"current_range_meters":8000,"station_id":"ce4bgkh2rcd13ifvqbl0","pricing_plan_id":"cebpf4jnsgd1na2vs0mg"},{"bike_id":"347dd29e-9a9e-4a37-8ddd-6e2050aaff03","system_id":"levelo_inurba_marseille","lat":43.33723,"lon":5.39195,"is_reserved":false,"is_disabled":false,"rental_uris":{"android":"levelo://app?vid=347dd29e-9a9e-4a37-8ddd-6e2050aaff03","ios":"levelo://app?vid=347dd29e-9a9e-4a37-8ddd-6e2050aaff03"},"vehicle_type_id":"4","last_reported":1737731312,"current_range_meters":38000,"station_id":"ce4bhr92rcd13ifvqhsg","pricing_plan_id":"cebpf4jnsgd1na2vs0mg"},{"bike_id":"f275ebe6-1a69-4f3c-9164-01179e7481f0","system_id":"levelo_inurba_marseille","lat":43.30796,"lon":5.38155,"is_reserved":false,"is_disabled":false,"rental_uris":{"android":"levelo://app?vid=f275ebe6-1a69-4f3c-9164-01179e7481f0","ios":"levelo://app?vid=f275ebe6-1a69-4f3c-9164-01179e7481f0"},"vehicle_type_id":"4","last_reported":1737731312,"current_range_meters":4000,"station_id":"ce4bgt12rcd13ifvqce0","pricing_plan_id":"cebpf4jnsgd1na2vs0mg"},{"bike_id":"d7dbec56-3cb4-42dd-970e-b1e8e7b8f352","system_id":"levelo_inurba_marseille","lat":43.26682,"lon":5.38264,"is_reserved":false,"is_disabled":false,"rental_uris":{"android":"levelo://app?vid=d7dbec56-3cb4-42dd-970e-b1e8e7b8f352","ios":"levelo://app?vid=d7dbec56-3cb4-42dd-970e-b1e8e7b8f352"},"vehicle_type_id":"4","last_reported":1737731312,"current_range_meters":39200,"station_id":"ce4bhg92rcd13ifvqf90","pricing_plan_id":"cebpf4jnsgd1na2vs0mg"},{"bike_id":"f8ea2046-cba1-432a-b3c5-e15c802e7278","system_id":"levelo_inurba_marseille","lat":43.23965,"lon":5.36638,"is_reserved":false,"is_disabled":false,"rental_uris":{"android":"levelo://app?vid=f8ea2046-cba1-432a-b3c5-e15c802e7278","ios":"levelo://app?vid=f8ea2046-cba1-432a-b3c5-e15c802e7278"},"vehicle_type_id":"4","last_reported":1737731312,"current_range_meters":34000,"station_id":"ce4bhi12rcd13ifvqfp0","pricing_plan_id":"cebpf4jnsgd1na2vs0mg"},{"bike_id":"3ff1902e-4027-4240-9bad-43801a612f71","system_id":"levelo_inurba_marseille","lat":43.30789,"lon":5.37642,"is_reserved":false,"is_disabled":false,"rental_uris":{"android":"levelo://app?vid=3ff1902e-4027-4240-9bad-43801a612f71","ios":"levelo://app?vid=3ff1902e-4027-4240-9bad-43801a612f71"},"vehicle_type_id":"4","last_reported":1737731312,"current_range_meters":2000,"station_id":"ce4bgv92rcd13ifvqcq0","pricing_plan_id":"cebpf4jnsgd1na2vs0mg"},{"bike_id":"90b8a1b1-ad54-458d-9362-f5197bbdf048","system_id":"levelo_inurba_marseille","lat":43.22929,"lon":5.35398,"is_reserved":false,"is_disabled":false,"rental_uris":{"android":"levelo://app?vid=90b8a1b1-ad54-458d-9362-f5197bbdf048","ios":"levelo://app?vid=90b8a1b1-ad54-458d-9362-f5197bbdf048"},"vehicle_type_id":"4","last_reported":1737731312,"current_range_meters":39200,"station_id":"cpo3532slgdg3j2ikp40","pricing_plan_id":"cebpf4jnsgd1na2vs0mg"},{"bike_id":"272572ed-b142-479f-89f7-4d25af8d61b8","system_id":"levelo_inurba_marseille","lat":43.29919,"lon":5.37474,"is_reserved":false,"is_disabled":false,"rental_uris":{"android":"levelo://app?vid=272572ed-b142-479f-89f7-4d25af8d61b8","ios":"levelo://app?vid=272572ed-b142-479f-89f7-4d25af8d61b8"},"vehicle_type_id":"4","last_reported":1737731312,"current_range_meters":38800,"station_id":"ce4bgjh2rcd13ifvqbg0","pricing_plan_id":"cebpf4jnsgd1na2vs0mg"},{"bike_id":"a91c6be4-7131-455a-9422-ae0bcae5fd6f","system_id":"levelo_inurba_marseille","lat":43.29036,"lon":5.3592,"is_reserved":false,"is_disabled":false,"rental_uris":{"android":"levelo://app?vid=a91c6be4-7131-455a-9422-ae0bcae5fd6f","ios":"levelo://app?vid=a91c6be4-7131-455a-9422-ae0bcae5fd6f"},"vehicle_type_id":"4","last_reported":1737731312,"current_range_meters":39200,"station_id":"ce4bha92rcd13ifvqeg0","pricing_plan_id":"cebpf4jnsgd1na2vs0mg"},{"bike_id":"767c603d-097c-4883-8c2e-4cdaf7df3e6c","system_id":"levelo_inurba_marseille","lat":43.29521,"lon":5.39042,"is_reserved":false,"is_disabled":false,"rental_uris":{"android":"levelo://app?vid=767c603d-097c-4883-8c2e-4cdaf7df3e6c","ios":"levelo://app?vid=767c603d-097c-4883-8c2e-4cdaf7df3e6c"},"vehicle_type_id":"4","last_reported":1737731312,"current_range_meters":28000,"station_id":"ce4bh3p2rcd13ifvqdp0","pricing_plan_id":"cebpf4jnsgd1na2vs0mg"},{"bike_id":"cd2ccc12-8a27-4040-94ff-d34f4d3aaf8b","system_id":"levelo_inurba_marseille","lat":43.31487,"lon":5.37309,"is_reserved":false,"is_disabled":false,"rental_uris":{"android":"levelo://app?vid=cd2ccc12-8a27-4040-94ff-d34f4d3aaf8b","ios":"levelo://app?vid=cd2ccc12-8a27-4040-94ff-d34f4d3aaf8b"},"vehicle_type_id":"4","last_reported":1737731312,"current_range_meters":35200,"station_id":"ce4bgt12rcd13ifvqcd0","pricing_plan_id":"cebpf4jnsgd1na2vs0mg"},{"bike_id":"74b37422-9abd-473e-a24c-4273cfc6193d","system_id":"levelo_inurba_marseille","lat":43.29171,"lon":5.37161,"is_reserved":false,"is_disabled":false,"rental_uris":{"android":"levelo://app?vid=74b37422-9abd-473e-a24c-4273cfc6193d","ios":"levelo://app?vid=74b37422-9abd-473e-a24c-4273cfc6193d"},"vehicle_type_id":"4","last_reported":1737731312,"current_range_meters":7200,"station_id":"ce4bha92rcd13ifvqeh0","pricing_plan_id":"cebpf4jnsgd1na2vs0mg"},{"bike_id":"afc318aa-966d-4875-8e45-5aa8f1bc41d1","system_id":"levelo_inurba_marseille","lat":43.27372,"lon":5.36258,"is_reserved":false,"is_disabled":false,"rental_uris":{"android":"levelo://app?vid=afc318aa-966d-4875-8e45-5aa8f1bc41d1","ios":"levelo://app?vid=afc318aa-966d-4875-8e45-5aa8f1bc41d1"},"vehicle_type_id":"4","last_reported":1737731312,"current_range_meters":25200,"station_id":"ce4bhbh2rcd13ifvqeo0","pricing_plan_id":"cebpf4jnsgd1na2vs0mg"},{"bike_id":"ce90fea6-ff2a-4d0b-bd4f-45ced0acf4c0","system_id":"levelo_inurba_marseille","lat":43.323664,"lon":5.367554,"is_reserved":false,"is_disabled":false,"rental_uris":{"android":"levelo://app?vid=ce90fea6-ff2a-4d0b-bd4f-45ced0acf4c0","ios":"levelo://app?vid=ce90fea6-ff2a-4d0b-bd4f-45ced0acf4c0"},"vehicle_type_id":"4","last_reported":1737731312,"current_range_meters":8000,"station_id":"ce4bhsh2rcd13ifvqi2g","pricing_plan_id":"cebpf4jnsgd1na2vs0mg"},{"bike_id":"69ceb8d4-fb5c-4d7d-b16d-856723f43d30","system_id":"levelo_inurba_marseille","lat":43.23187,"lon":5.3999,"is_reserved":false,"is_disabled":false,"rental_uris":{"android":"levelo://app?vid=69ceb8d4-fb5c-4d7d-b16d-856723f43d30","ios":"levelo://app?vid=69ceb8d4-fb5c-4d7d-b16d-856723f43d30"},"vehicle_type_id":"4","last_reported":1737731312,"current_range_meters":9200,"station_id":"ce4bhn12rcd13ifvqgqg","pricing_plan_id":"cebpf4jnsgd1na2vs0mg"},{"bike_id":"5cdf4b29-86e7-4520-803e-ea89d511a797","system_id":"levelo_inurba_marseille","lat":43.29276,"lon":5.36856,"is_reserved":false,"is_disabled":false,"rental_uris":{"android":"levelo://app?vid=5cdf4b29-86e7-4520-803e-ea89d511a797","ios":"levelo://app?vid=5cdf4b29-86e7-4520-803e-ea89d511a797"},"vehicle_type_id":"4","last_reported":1737731312,"current_range_meters":38400,"station_id":"ce4bhbp2rcd13ifvqesg","pricing_plan_id":"cebpf4jnsgd1na2vs0mg"},{"bike_id":"399bd6f9-9d2d-42e4-8e26-63c33d5a5c28","system_id":"levelo_inurba_marseille","lat":43.29676,"lon":5.37703,"is_reserved":false,"is_disabled":false,"rental_uris":{"android":"levelo://app?vid=399bd6f9-9d2d-42e4-8e26-63c33d5a5c28","ios":"levelo://app?vid=399bd6f9-9d2d-42e4-8e26-63c33d5a5c28"},"vehicle_type_id":"4","last_reported":1737731312,"current_range_meters":39200,"station_id":"ce4bgkh2rcd13ifvqbl0","pricing_plan_id":"cebpf4jnsgd1na2vs0mg"},{"bike_id":"096c5340-18e4-4cc8-8774-06e9d0f25f98","system_id":"levelo_inurba_marseille","lat":43.29524,"lon":5.38549,"is_reserved":false,"is_disabled":false,"rental_uris":{"android":"levelo://app?vid=096c5340-18e4-4cc8-8774-06e9d0f25f98","ios":"levelo://app?vid=096c5340-18e4-4cc8-8774-06e9d0f25f98"},"vehicle_type_id":"4","last_reported":1737731312,"current_range_meters":30400,"station_id":"ce4bgih2rcd13ifvqba0","pricing_plan_id":"cebpf4jnsgd1na2vs0mg"},{"bike_id":"cf6285a9-f75c-4f38-bb8a-70ce67a4ee67","system_id":"levelo_inurba_marseille","lat":43.25827,"lon":5.39421,"is_reserved":false,"is_disabled":true,"rental_uris":{"android":"levelo://app?vid=cf6285a9-f75c-4f38-bb8a-70ce67a4ee67","ios":"levelo://app?vid=cf6285a9-f75c-4f38-bb8a-70ce67a4ee67"},"vehicle_type_id":"4","last_reported":1737731312,"current_range_meters":800,"station_id":"ce4bhip2rcd13ifvqft0","pricing_plan_id":"cebpf4jnsgd1na2vs0mg"},{"bike_id":"2adfa857-69f2-473f-add8-67be9eb9122e","system_id":"levelo_inurba_marseille","lat":43.26697,"lon":5.38232,"is_reserved":false,"is_disabled":false,"rental_uris":{"android":"levelo://app?vid=2adfa857-69f2-473f-add8-67be9eb9122e","ios":"levelo://app?vid=2adfa857-69f2-473f-add8-67be9eb9122e"},"vehicle_type_id":"4","last_reported":1737731312,"current_range_meters":38800,"station_id":"ce4bhg92rcd13ifvqf90","pricing_plan_id":"cebpf4jnsgd1na2vs0mg"},{"bike_id":"78b03264-0c2d-45b5-9b0a-cf7cc454c0c6","system_id":"levelo_inurba_marseille","lat":43.32469,"lon":5.36589,"is_reserved":false,"is_disabled":false,"rental_uris":{"android":"levelo://app?vid=78b03264-0c2d-45b5-9b0a-cf7cc454c0c6","ios":"levelo://app?vid=78b03264-0c2d-45b5-9b0a-cf7cc454c0c6"},"vehicle_type_id":"4","last_reported":1737731312,"current_range_meters":36800,"station_id":"ce4bhs12rcd13ifvqhvg","pricing_plan_id":"cebpf4jnsgd1na2vs0mg"},{"bike_id":"92305434-0a2d-4727-9a0b-9a6eb99b2d5e","system_id":"levelo_inurba_marseille","lat":43.27996,"lon":5.40007,"is_reserved":false,"is_disabled":false,"rental_uris":{"android":"levelo://app?vid=92305434-0a2d-4727-9a0b-9a6eb99b2d5e","ios":"levelo://app?vid=92305434-0a2d-4727-9a0b-9a6eb99b2d5e"},"vehicle_type_id":"4","last_reported":1737731312,"current_range_meters":36000,"station_id":"ce4bho92rcd13ifvqh4g","pricing_plan_id":"cebpf4jnsgd1na2vs0mg"},{"bike_id":"610b06d9-d6b8-493e-925e-29958eda2fc5","system_id":"levelo_inurba_marseille","lat":43.27386,"lon":5.3627,"is_reserved":false,"is_disabled":false,"rental_uris":{"android":"levelo://app?vid=610b06d9-d6b8-493e-925e-29958eda2fc5","ios":"levelo://app?vid=610b06d9-d6b8-493e-925e-29958eda2fc5"},"vehicle_type_id":"4","last_reported":1737731312,"current_range_meters":38800,"station_id":"ce4bhbh2rcd13ifvqeo0","pricing_plan_id":"cebpf4jnsgd1na2vs0mg"},{"bike_id":"9840a83d-1bab-46f1-89c9-f05e08ee23ea","system_id":"levelo_inurba_marseille","lat":43.30803,"lon":5.43513,"is_reserved":false,"is_disabled":false,"rental_uris":{"android":"levelo://app?vid=9840a83d-1bab-46f1-89c9-f05e08ee23ea","ios":"levelo://app?vid=9840a83d-1bab-46f1-89c9-f05e08ee23ea"},"vehicle_type_id":"4","last_reported":1737731312,"current_range_meters":38000,"station_id":"ce4bhph2rcd13ifvqheg","pricing_plan_id":"cebpf4jnsgd1na2vs0mg"},{"bike_id":"609ac61e-951a-45ba-8cb9-f3cf0e79f8d1","system_id":"levelo_inurba_marseille","lat":43.2846,"lon":5.35884,"is_reserved":false,"is_disabled":false,"rental_uris":{"android":"levelo://app?vid=609ac61e-951a-45ba-8cb9-f3cf0e79f8d1","ios":"levelo://app?vid=609ac61e-951a-45ba-8cb9-f3cf0e79f8d1"},"vehicle_type_id":"4","last_reported":1737731312,"current_range_meters":24800,"station_id":"ce4bhah2rcd13ifvqei0","pricing_plan_id":"cebpf4jnsgd1na2vs0mg"},{"bike_id":"86e74e3b-996a-4975-88d9-d5a7ed191bca","system_id":"levelo_inurba_marseille","lat":43.305161,"lon":5.365637,"is_reserved":false,"is_disabled":false,"rental_uris":{"android":"levelo://app?vid=86e74e3b-996a-4975-88d9-d5a7ed191bca","ios":"levelo://app?vid=86e74e3b-996a-4975-88d9-d5a7ed191bca"},"vehicle_type_id":"4","last_reported":1737731312,"current_range_meters":38800,"station_id":"","pricing_plan_id":"cebpf4jnsgd1na2vs0mg"},{"bike_id":"dea5efc7-435e-4477-8a93-0f3edc9e6281","system_id":"levelo_inurba_marseille","lat":43.30607,"lon":5.37228,"is_reserved":false,"is_disabled":false,"rental_uris":{"android":"levelo://app?vid=dea5efc7-435e-4477-8a93-0f3edc9e6281","ios":"levelo://app?vid=dea5efc7-435e-4477-8a93-0f3edc9e6281"},"vehicle_type_id":"4","last_reported":1737731312,"current_range_meters":19200,"station_id":"ce4bgqh2rcd13ifvqc4g","pricing_plan_id":"cebpf4jnsgd1na2vs0mg"},{"bike_id":"f8d47279-9ba1-467f-a5c2-954f8bee37fb","system_id":"levelo_inurba_marseille","lat":43.32536,"lon":5.41435,"is_reserved":false,"is_disabled":false,"rental_uris":{"android":"levelo://app?vid=f8d47279-9ba1-467f-a5c2-954f8bee37fb","ios":"levelo://app?vid=f8d47279-9ba1-467f-a5c2-954f8bee37fb"},"vehicle_type_id":"4","last_reported":1737731312,"current_range_meters":38800,"station_id":"ce4bhq12rcd13ifvqhhg","pricing_plan_id":"cebpf4jnsgd1na2vs0mg"},{"bike_id":"b88cebb6-0d80-403f-871e-116b9793c11e","system_id":"levelo_inurba_marseille","lat":43.31325,"lon":5.39692,"is_reserved":false,"is_disabled":false,"rental_uris":{"android":"levelo://app?vid=b88cebb6-0d80-403f-871e-116b9793c11e","ios":"levelo://app?vid=b88cebb6-0d80-403f-871e-116b9793c11e"},"vehicle_type_id":"4","last_reported":1737731312,"current_range_meters":27600,"station_id":"ce4bgvp2rcd13ifvqcu0","pricing_plan_id":"cebpf4jnsgd1na2vs0mg"},{"bike_id":"c9d3d75f-a4b9-4903-88df-7e14dd239622","system_id":"levelo_inurba_marseille","lat":43.25486,"lon":5.37642,"is_reserved":false,"is_disabled":true,"rental_uris":{"android":"levelo://app?vid=c9d3d75f-a4b9-4903-88df-7e14dd239622","ios":"levelo://app?vid=c9d3d75f-a4b9-4903-88df-7e14dd239622"},"vehicle_type_id":"4","last_reported":1737731312,"current_range_meters":0,"station_id":"ce4bhh12rcd13ifvqff0","pricing_plan_id":"cebpf4jnsgd1na2vs0mg"},{"bike_id":"85c4b304-0a15-4fc1-b75d-cfc16b5afe60","system_id":"levelo_inurba_marseille","lat":43.22944,"lon":5.3539,"is_reserved":false,"is_disabled":false,"rental_uris":{"android":"levelo://app?vid=85c4b304-0a15-4fc1-b75d-cfc16b5afe60","ios":"levelo://app?vid=85c4b304-0a15-4fc1-b75d-cfc16b5afe60"},"vehicle_type_id":"4","last_reported":1737731312,"current_range_meters":38800,"station_id":"cpo3532slgdg3j2ikp40","pricing_plan_id":"cebpf4jnsgd1na2vs0mg"},{"bike_id":"72bca693-6299-400e-8130-c642ac080ed7","system_id":"levelo_inurba_marseille","lat":43.31705,"lon":5.4372,"is_reserved":false,"is_disabled":false,"rental_uris":{"android":"levelo://app?vid=72bca693-6299-400e-8130-c642ac080ed7","ios":"levelo://app?vid=72bca693-6299-400e-8130-c642ac080ed7"},"vehicle_type_id":"4","last_reported":1737731312,"current_range_meters":38800,"station_id":"ce4bhp92rcd13ifvqhcg","pricing_plan_id":"cebpf4jnsgd1na2vs0mg"},{"bike_id":"4b50d96f-1b11-4ffb-b7f5-d554c8eb5ef9","system_id":"levelo_inurba_marseille","lat":43.29612,"lon":5.37727,"is_reserved":false,"is_disabled":false,"rental_uris":{"android":"levelo://app?vid=4b50d96f-1b11-4ffb-b7f5-d554c8eb5ef9","ios":"levelo://app?vid=4b50d96f-1b11-4ffb-b7f5-d554c8eb5ef9"},"vehicle_type_id":"4","last_reported":1737731312,"current_range_meters":39200,"station_id":"ce4bgi92rcd13ifvqb90","pricing_plan_id":"cebpf4jnsgd1na2vs0mg"},{"bike_id":"2aeb1fe7-2455-4a37-a484-bbbf324c7cf2","system_id":"levelo_inurba_marseille","lat":43.32121,"lon":5.36784,"is_reserved":false,"is_disabled":false,"rental_uris":{"android":"levelo://app?vid=2aeb1fe7-2455-4a37-a484-bbbf324c7cf2","ios":"levelo://app?vid=2aeb1fe7-2455-4a37-a484-bbbf324c7cf2"},"vehicle_type_id":"4","last_reported":1737731312,"current_range_meters":6800,"station_id":"ce4bhrh2rcd13ifvqhug","pricing_plan_id":"cebpf4jnsgd1na2vs0mg"},{"bike_id":"cfb81e86-da4c-40db-a09b-f8d4fdcc863e","system_id":"levelo_inurba_marseille","lat":43.32049,"lon":5.41557,"is_reserved":false,"is_disabled":false,"rental_uris":{"android":"levelo://app?vid=cfb81e86-da4c-40db-a09b-f8d4fdcc863e","ios":"levelo://app?vid=cfb81e86-da4c-40db-a09b-f8d4fdcc863e"},"vehicle_type_id":"4","last_reported":1737731312,"current_range_meters":30000,"station_id":"ce4bhq92rcd13ifvqhkg","pricing_plan_id":"cebpf4jnsgd1na2vs0mg"},{"bike_id":"a581e17f-caa5-47d2-b86d-360af63b739b","system_id":"levelo_inurba_marseille","lat":43.29869,"lon":5.39731,"is_reserved":false,"is_disabled":false,"rental_uris":{"android":"levelo://app?vid=a581e17f-caa5-47d2-b86d-360af63b739b","ios":"levelo://app?vid=a581e17f-caa5-47d2-b86d-360af63b739b"},"vehicle_type_id":"4","last_reported":1737731312,"current_range_meters":36800,"station_id":"ce4bh0h2rcd13ifvqd50","pricing_plan_id":"cebpf4jnsgd1na2vs0mg"},{"bike_id":"7adee84c-870a-46b5-b69e-0c07649ea134","system_id":"levelo_inurba_marseille","lat":43.33734,"lon":5.39182,"is_reserved":false,"is_disabled":false,"rental_uris":{"android":"levelo://app?vid=7adee84c-870a-46b5-b69e-0c07649ea134","ios":"levelo://app?vid=7adee84c-870a-46b5-b69e-0c07649ea134"},"vehicle_type_id":"4","last_reported":1737731312,"current_range_meters":14000,"station_id":"ce4bhr92rcd13ifvqhsg","pricing_plan_id":"cebpf4jnsgd1na2vs0mg"},{"bike_id":"954acbad-5d22-4674-867d-a1df269d7fcb","system_id":"levelo_inurba_marseille","lat":43.29441,"lon":5.39759,"is_reserved":false,"is_disabled":false,"rental_uris":{"android":"levelo://app?vid=954acbad-5d22-4674-867d-a1df269d7fcb","ios":"levelo://app?vid=954acbad-5d22-4674-867d-a1df269d7fcb"},"vehicle_type_id":"4","last_reported":1737731312,"current_range_meters":20400,"station_id":"ce4bh3h2rcd13ifvqdo0","pricing_plan_id":"cebpf4jnsgd1na2vs0mg"},{"bike_id":"7a55f28a-5a5b-4ca4-9825-dee123c17d08","system_id":"levelo_inurba_marseille","lat":43.32116,"lon":5.36749,"is_reserved":false,"is_disabled":false,"rental_uris":{"android":"levelo://app?vid=7a55f28a-5a5b-4ca4-9825-dee123c17d08","ios":"levelo://app?vid=7a55f28a-5a5b-4ca4-9825-dee123c17d08"},"vehicle_type_id":"4","last_reported":1737731312,"current_range_meters":36800,"station_id":"ce4bhrh2rcd13ifvqhug","pricing_plan_id":"cebpf4jnsgd1na2vs0mg"},{"bike_id":"fa8d78eb-e4d3-478c-924c-1bcea3e36896","system_id":"levelo_inurba_marseille","lat":43.27333,"lon":5.39121,"is_reserved":false,"is_disabled":false,"rental_uris":{"android":"levelo://app?vid=fa8d78eb-e4d3-478c-924c-1bcea3e36896","ios":"levelo://app?vid=fa8d78eb-e4d3-478c-924c-1bcea3e36896"},"vehicle_type_id":"4","last_reported":1737731312,"current_range_meters":38800,"station_id":"ce4bhgp2rcd13ifvqfe0","pricing_plan_id":"cebpf4jnsgd1na2vs0mg"},{"bike_id":"ffe2742c-407f-46b3-8ff8-4a379a0d59c5","system_id":"levelo_inurba_marseille","lat":43.25505,"lon":5.37657,"is_reserved":false,"is_disabled":false,"rental_uris":{"android":"levelo://app?vid=ffe2742c-407f-46b3-8ff8-4a379a0d59c5","ios":"levelo://app?vid=ffe2742c-407f-46b3-8ff8-4a379a0d59c5"},"vehicle_type_id":"4","last_reported":1737731312,"current_range_meters":38800,"station_id":"ce4bhh12rcd13ifvqff0","pricing_plan_id":"cebpf4jnsgd1na2vs0mg"},{"bike_id":"6c1b4cba-8708-45a9-8d84-f6eac77f9e11","system_id":"levelo_inurba_marseille","lat":43.26499,"lon":5.39537,"is_reserved":false,"is_disabled":false,"rental_uris":{"android":"levelo://app?vid=6c1b4cba-8708-45a9-8d84-f6eac77f9e11","ios":"levelo://app?vid=6c1b4cba-8708-45a9-8d84-f6eac77f9e11"},"vehicle_type_id":"4","last_reported":1737731312,"current_range_meters":8400,"station_id":"ce4bhi12rcd13ifvqfq0","pricing_plan_id":"cebpf4jnsgd1na2vs0mg"},{"bike_id":"91be6530-820a-42a2-8802-0bdbe5f5b902","system_id":"levelo_inurba_marseille","lat":43.2767,"lon":5.38872,"is_reserved":false,"is_disabled":true,"rental_uris":{"android":"levelo://app?vid=91be6530-820a-42a2-8802-0bdbe5f5b902","ios":"levelo://app?vid=91be6530-820a-42a2-8802-0bdbe5f5b902"},"vehicle_type_id":"4","last_reported":1737731312,"current_range_meters":1200,"station_id":"ce4bhi12rcd13ifvqfo0","pricing_plan_id":"cebpf4jnsgd1na2vs0mg"},{"bike_id":"09316271-8bf0-440c-a597-fbf9b65525e8","system_id":"levelo_inurba_marseille","lat":43.29683,"lon":5.37312,"is_reserved":false,"is_disabled":false,"rental_uris":{"android":"levelo://app?vid=09316271-8bf0-440c-a597-fbf9b65525e8","ios":"levelo://app?vid=09316271-8bf0-440c-a597-fbf9b65525e8"},"vehicle_type_id":"4","last_reported":1737731312,"current_range_meters":38000,"station_id":"ce4bgk12rcd13ifvqbj0","pricing_plan_id":"cebpf4jnsgd1na2vs0mg"},{"bike_id":"35614ed7-a0df-4792-bca2-a1978fcd9fab","system_id":"levelo_inurba_marseille","lat":43.30816,"lon":5.43518,"is_reserved":false,"is_disabled":false,"rental_uris":{"android":"levelo://app?vid=35614ed7-a0df-4792-bca2-a1978fcd9fab","ios":"levelo://app?vid=35614ed7-a0df-4792-bca2-a1978fcd9fab"},"vehicle_type_id":"4","last_reported":1737731312,"current_range_meters":38000,"station_id":"ce4bhph2rcd13ifvqheg","pricing_plan_id":"cebpf4jnsgd1na2vs0mg"},{"bike_id":"c2b1d898-8d95-4b49-b324-a24f4f18a4a0","system_id":"levelo_inurba_marseille","lat":43.3255,"lon":5.4145,"is_reserved":false,"is_disabled":false,"rental_uris":{"android":"levelo://app?vid=c2b1d898-8d95-4b49-b324-a24f4f18a4a0","ios":"levelo://app?vid=c2b1d898-8d95-4b49-b324-a24f4f18a4a0"},"vehicle_type_id":"4","last_reported":1737731312,"current_range_meters":35600,"station_id":"ce4bhq12rcd13ifvqhhg","pricing_plan_id":"cebpf4jnsgd1na2vs0mg"},{"bike_id":"d42bf647-1ecc-4437-8f49-3b4e75edd8a1","system_id":"levelo_inurba_marseille","lat":43.2731,"lon":5.39068,"is_reserved":false,"is_disabled":false,"rental_uris":{"android":"levelo://app?vid=d42bf647-1ecc-4437-8f49-3b4e75edd8a1","ios":"levelo://app?vid=d42bf647-1ecc-4437-8f49-3b4e75edd8a1"},"vehicle_type_id":"4","last_reported":1737731312,"current_range_meters":29600,"station_id":"ce4bhgp2rcd13ifvqfe0","pricing_plan_id":"cebpf4jnsgd1na2vs0mg"},{"bike_id":"06e71326-a55c-4f31-b5e5-06a02b4de42a","system_id":"levelo_inurba_marseille","lat":43.3127,"lon":5.40167,"is_reserved":false,"is_disabled":false,"rental_uris":{"android":"levelo://app?vid=06e71326-a55c-4f31-b5e5-06a02b4de42a","ios":"levelo://app?vid=06e71326-a55c-4f31-b5e5-06a02b4de42a"},"vehicle_type_id":"4","last_reported":1737731312,"current_range_meters":34000,"station_id":"ce4bh092rcd13ifvqd30","pricing_plan_id":"cebpf4jnsgd1na2vs0mg"},{"bike_id":"cb77fdee-81f8-480a-b801-01a29c51697f","system_id":"levelo_inurba_marseille","lat":43.32339,"lon":5.40627,"is_reserved":false,"is_disabled":false,"rental_uris":{"android":"levelo://app?vid=cb77fdee-81f8-480a-b801-01a29c51697f","ios":"levelo://app?vid=cb77fdee-81f8-480a-b801-01a29c51697f"},"vehicle_type_id":"4","last_reported":1737731312,"current_range_meters":34000,"station_id":"ce4bhq92rcd13ifvqhjg","pricing_plan_id":"cebpf4jnsgd1na2vs0mg"},{"bike_id":"85411516-6be2-4df9-a75f-bfddb23079f0","system_id":"levelo_inurba_marseille","lat":43.30547,"lon":5.38437,"is_reserved":false,"is_disabled":false,"rental_uris":{"android":"levelo://app?vid=85411516-6be2-4df9-a75f-bfddb23079f0","ios":"levelo://app?vid=85411516-6be2-4df9-a75f-bfddb23079f0"},"vehicle_type_id":"4","last_reported":1737731312,"current_range_meters":28800,"station_id":"ce4bgg92rcd13ifvqb30","pricing_plan_id":"cebpf4jnsgd1na2vs0mg"},{"bike_id":"5f760866-c598-4660-b386-c9c889f0733e","system_id":"levelo_inurba_marseille","lat":43.26056,"lon":5.39389,"is_reserved":false,"is_disabled":false,"rental_uris":{"android":"levelo://app?vid=5f760866-c598-4660-b386-c9c889f0733e","ios":"levelo://app?vid=5f760866-c598-4660-b386-c9c889f0733e"},"vehicle_type_id":"4","last_reported":1737731312,"current_range_meters":38400,"station_id":"ce4bhh92rcd13ifvqfj0","pricing_plan_id":"cebpf4jnsgd1na2vs0mg"},{"bike_id":"1b083bff-f2bb-4417-a719-a288617cc817","system_id":"levelo_inurba_marseille","lat":43.24082,"lon":5.37752,"is_reserved":false,"is_disabled":false,"rental_uris":{"android":"levelo://app?vid=1b083bff-f2bb-4417-a719-a288617cc817","ios":"levelo://app?vid=1b083bff-f2bb-4417-a719-a288617cc817"},"vehicle_type_id":"4","last_reported":1737731312,"current_range_meters":25200,"station_id":"ce4bhnp2rcd13ifvqgvg","pricing_plan_id":"cebpf4jnsgd1na2vs0mg"},{"bike_id":"25f3f2bb-3d58-4602-b324-04ef97598411","system_id":"levelo_inurba_marseille","lat":43.29844,"lon":5.36275,"is_reserved":false,"is_disabled":false,"rental_uris":{"android":"levelo://app?vid=25f3f2bb-3d58-4602-b324-04ef97598411","ios":"levelo://app?vid=25f3f2bb-3d58-4602-b324-04ef97598411"},"vehicle_type_id":"4","last_reported":1737731312,"current_range_meters":23200,"station_id":"ce4bgpp2rcd13ifvqc3g","pricing_plan_id":"cebpf4jnsgd1na2vs0mg"},{"bike_id":"94ee98a1-2d4c-4cdf-81de-65acebfd58a3","system_id":"levelo_inurba_marseille","lat":43.27228,"lon":5.392017,"is_reserved":false,"is_disabled":false,"rental_uris":{"android":"levelo://app?vid=94ee98a1-2d4c-4cdf-81de-65acebfd58a3","ios":"levelo://app?vid=94ee98a1-2d4c-4cdf-81de-65acebfd58a3"},"vehicle_type_id":"4","last_reported":1737731312,"current_range_meters":36000,"station_id":"ce4bhhp2rcd13ifvqfm0","pricing_plan_id":"cebpf4jnsgd1na2vs0mg"},{"bike_id":"bce5b737-eb70-4339-9352-9b379016152f","system_id":"levelo_inurba_marseille","lat":43.30138,"lon":5.37434,"is_reserved":false,"is_disabled":false,"rental_uris":{"android":"levelo://app?vid=bce5b737-eb70-4339-9352-9b379016152f","ios":"levelo://app?vid=bce5b737-eb70-4339-9352-9b379016152f"},"vehicle_type_id":"4","last_reported":1737731312,"current_range_meters":39200,"station_id":"ce4bgs92rcd13ifvqcc0","pricing_plan_id":"cebpf4jnsgd1na2vs0mg"},{"bike_id":"c5332c32-f726-4644-b824-15429296eaca","system_id":"levelo_inurba_marseille","lat":43.25503,"lon":5.3765,"is_reserved":false,"is_disabled":false,"rental_uris":{"android":"levelo://app?vid=c5332c32-f726-4644-b824-15429296eaca","ios":"levelo://app?vid=c5332c32-f726-4644-b824-15429296eaca"},"vehicle_type_id":"4","last_reported":1737731312,"current_range_meters":22400,"station_id":"ce4bhh12rcd13ifvqff0","pricing_plan_id":"cebpf4jnsgd1na2vs0mg"},{"bike_id":"299777d4-08b5-4150-8b8c-ee3338d2857d","system_id":"levelo_inurba_marseille","lat":43.29602,"lon":5.38093,"is_reserved":false,"is_disabled":false,"rental_uris":{"android":"levelo://app?vid=299777d4-08b5-4150-8b8c-ee3338d2857d","ios":"levelo://app?vid=299777d4-08b5-4150-8b8c-ee3338d2857d"},"vehicle_type_id":"4","last_reported":1737731312,"current_range_meters":27200,"station_id":"ce4bgl12rcd13ifvqbo0","pricing_plan_id":"cebpf4jnsgd1na2vs0mg"},{"bike_id":"14baf52d-15a7-433c-872f-52e12fe04de3","system_id":"levelo_inurba_marseille","lat":43.29989,"lon":5.37156,"is_reserved":false,"is_disabled":false,"rental_uris":{"android":"levelo://app?vid=14baf52d-15a7-433c-872f-52e12fe04de3","ios":"levelo://app?vid=14baf52d-15a7-433c-872f-52e12fe04de3"},"vehicle_type_id":"4","last_reported":1737731312,"current_range_meters":38400,"station_id":"ce4bgr92rcd13ifvqc7g","pricing_plan_id":"cebpf4jnsgd1na2vs0mg"},{"bike_id":"9863b7f9-4316-4322-9f6c-3cc66b0448e2","system_id":"levelo_inurba_marseille","lat":43.279439,"lon":5.389008,"is_reserved":false,"is_disabled":true,"rental_uris":{"android":"levelo://app?vid=9863b7f9-4316-4322-9f6c-3cc66b0448e2","ios":"levelo://app?vid=9863b7f9-4316-4322-9f6c-3cc66b0448e2"},"vehicle_type_id":"4","last_reported":1737731312,"current_range_meters":19600,"station_id":"","pricing_plan_id":"cebpf4jnsgd1na2vs0mg"},{"bike_id":"c0a03b27-97a3-474d-8779-50835321f213","system_id":"levelo_inurba_marseille","lat":43.28657,"lon":5.36363,"is_reserved":false,"is_disabled":false,"rental_uris":{"android":"levelo://app?vid=c0a03b27-97a3-474d-8779-50835321f213","ios":"levelo://app?vid=c0a03b27-97a3-474d-8779-50835321f213"},"vehicle_type_id":"4","last_reported":1737731312,"current_range_meters":30800,"station_id":"ce4bhah2rcd13ifvqej0","pricing_plan_id":"cebpf4jnsgd1na2vs0mg"},{"bike_id":"736ea07b-0a61-4ca1-9ceb-4fbe56298727","system_id":"levelo_inurba_marseille","lat":43.30309,"lon":5.36908,"is_reserved":false,"is_disabled":false,"rental_uris":{"android":"levelo://app?vid=736ea07b-0a61-4ca1-9ceb-4fbe56298727","ios":"levelo://app?vid=736ea07b-0a61-4ca1-9ceb-4fbe56298727"},"vehicle_type_id":"4","last_reported":1737731312,"current_range_meters":33600,"station_id":"ce4bgqh2rcd13ifvqc5g","pricing_plan_id":"cebpf4jnsgd1na2vs0mg"},{"bike_id":"16ecc48e-71e0-4db7-a5d0-458818f87528","system_id":"levelo_inurba_marseille","lat":43.31759,"lon":5.39009,"is_reserved":false,"is_disabled":false,"rental_uris":{"android":"levelo://app?vid=16ecc48e-71e0-4db7-a5d0-458818f87528","ios":"levelo://app?vid=16ecc48e-71e0-4db7-a5d0-458818f87528"},"vehicle_type_id":"4","last_reported":1737731312,"current_range_meters":25600,"station_id":"ce4bhqp2rcd13ifvqhng","pricing_plan_id":"cebpf4jnsgd1na2vs0mg"},{"bike_id":"2172a171-424d-470b-a2fa-9cdd952d0348","system_id":"levelo_inurba_marseille","lat":43.26926,"lon":5.3891,"is_reserved":false,"is_disabled":false,"rental_uris":{"android":"levelo://app?vid=2172a171-424d-470b-a2fa-9cdd952d0348","ios":"levelo://app?vid=2172a171-424d-470b-a2fa-9cdd952d0348"},"vehicle_type_id":"4","last_reported":1737731312,"current_range_meters":38800,"station_id":"ce4bhhh2rcd13ifvqfl0","pricing_plan_id":"cebpf4jnsgd1na2vs0mg"},{"bike_id":"1444be0d-eb17-480d-ac3e-ef5fd5f92546","system_id":"levelo_inurba_marseille","lat":43.27905,"lon":5.38007,"is_reserved":false,"is_disabled":false,"rental_uris":{"android":"levelo://app?vid=1444be0d-eb17-480d-ac3e-ef5fd5f92546","ios":"levelo://app?vid=1444be0d-eb17-480d-ac3e-ef5fd5f92546"},"vehicle_type_id":"4","last_reported":1737731312,"current_range_meters":9600,"station_id":"ce4bhf92rcd13ifvqf50","pricing_plan_id":"cebpf4jnsgd1na2vs0mg"},{"bike_id":"1451baee-679d-4d56-b07f-349b5e186d75","system_id":"levelo_inurba_marseille","lat":43.28722,"lon":5.37947,"is_reserved":false,"is_disabled":false,"rental_uris":{"android":"levelo://app?vid=1451baee-679d-4d56-b07f-349b5e186d75","ios":"levelo://app?vid=1451baee-679d-4d56-b07f-349b5e186d75"},"vehicle_type_id":"4","last_reported":1737731312,"current_range_meters":30800,"station_id":"ce4bh9p2rcd13ifvqec0","pricing_plan_id":"cebpf4jnsgd1na2vs0mg"},{"bike_id":"0e7191eb-98d3-4fbb-ba7e-599adbd07a4d","system_id":"levelo_inurba_marseille","lat":43.29193,"lon":5.39328,"is_reserved":false,"is_disabled":false,"rental_uris":{"android":"levelo://app?vid=0e7191eb-98d3-4fbb-ba7e-599adbd07a4d","ios":"levelo://app?vid=0e7191eb-98d3-4fbb-ba7e-599adbd07a4d"},"vehicle_type_id":"4","last_reported":1737731312,"current_range_meters":21600,"station_id":"ce4bh192rcd13ifvqdd0","pricing_plan_id":"cebpf4jnsgd1na2vs0mg"},{"bike_id":"fb96c333-d038-4b1c-9f7d-d3a5abfa6e1c","system_id":"levelo_inurba_marseille","lat":43.32479,"lon":5.36564,"is_reserved":false,"is_disabled":false,"rental_uris":{"android":"levelo://app?vid=fb96c333-d038-4b1c-9f7d-d3a5abfa6e1c","ios":"levelo://app?vid=fb96c333-d038-4b1c-9f7d-d3a5abfa6e1c"},"vehicle_type_id":"4","last_reported":1737731312,"current_range_meters":20000,"station_id":"ce4bhs12rcd13ifvqhvg","pricing_plan_id":"cebpf4jnsgd1na2vs0mg"},{"bike_id":"84324997-1fc9-4f65-9613-a2961b0bcbbf","system_id":"levelo_inurba_marseille","lat":43.25499,"lon":5.37652,"is_reserved":false,"is_disabled":false,"rental_uris":{"android":"levelo://app?vid=84324997-1fc9-4f65-9613-a2961b0bcbbf","ios":"levelo://app?vid=84324997-1fc9-4f65-9613-a2961b0bcbbf"},"vehicle_type_id":"4","last_reported":1737731312,"current_range_meters":6400,"station_id":"ce4bhh12rcd13ifvqff0","pricing_plan_id":"cebpf4jnsgd1na2vs0mg"},{"bike_id":"c400706d-11d8-4109-af7f-04e1a2259d9b","system_id":"levelo_inurba_marseille","lat":43.29901,"lon":5.43668,"is_reserved":false,"is_disabled":false,"rental_uris":{"android":"levelo://app?vid=c400706d-11d8-4109-af7f-04e1a2259d9b","ios":"levelo://app?vid=c400706d-11d8-4109-af7f-04e1a2259d9b"},"vehicle_type_id":"4","last_reported":1737731312,"current_range_meters":38800,"station_id":"ce4bhpp2rcd13ifvqhfg","pricing_plan_id":"cebpf4jnsgd1na2vs0mg"},{"bike_id":"71f52d6b-b04a-44ac-bcaf-49c5bd066bef","system_id":"levelo_inurba_marseille","lat":43.26684,"lon":5.38269,"is_reserved":false,"is_disabled":false,"rental_uris":{"android":"levelo://app?vid=71f52d6b-b04a-44ac-bcaf-49c5bd066bef","ios":"levelo://app?vid=71f52d6b-b04a-44ac-bcaf-49c5bd066bef"},"vehicle_type_id":"4","last_reported":1737731312,"current_range_meters":38000,"station_id":"ce4bhg92rcd13ifvqf90","pricing_plan_id":"cebpf4jnsgd1na2vs0mg"},{"bike_id":"58b35899-51a7-449f-a0c4-699f11c77791","system_id":"levelo_inurba_marseille","lat":43.31168,"lon":5.38725,"is_reserved":false,"is_disabled":false,"rental_uris":{"android":"levelo://app?vid=58b35899-51a7-449f-a0c4-699f11c77791","ios":"levelo://app?vid=58b35899-51a7-449f-a0c4-699f11c77791"},"vehicle_type_id":"4","last_reported":1737731312,"current_range_meters":31200,"station_id":"ce4bgv12rcd13ifvqcp0","pricing_plan_id":"cebpf4jnsgd1na2vs0mg"},{"bike_id":"b4209839-edbc-4883-abf6-1f4ed74d3a88","system_id":"levelo_inurba_marseille","lat":43.33025,"lon":5.39038,"is_reserved":false,"is_disabled":false,"rental_uris":{"android":"levelo://app?vid=b4209839-edbc-4883-abf6-1f4ed74d3a88","ios":"levelo://app?vid=b4209839-edbc-4883-abf6-1f4ed74d3a88"},"vehicle_type_id":"4","last_reported":1737731312,"current_range_meters":16000,"station_id":"ce4bhr92rcd13ifvqhrg","pricing_plan_id":"cebpf4jnsgd1na2vs0mg"},{"bike_id":"d81c489c-14fd-4d4a-aeb6-a75d5390f7ae","system_id":"levelo_inurba_marseille","lat":43.27048,"lon":5.40258,"is_reserved":false,"is_disabled":false,"rental_uris":{"android":"levelo://app?vid=d81c489c-14fd-4d4a-aeb6-a75d5390f7ae","ios":"levelo://app?vid=d81c489c-14fd-4d4a-aeb6-a75d5390f7ae"},"vehicle_type_id":"4","last_reported":1737731312,"current_range_meters":36400,"station_id":"ce4bhk92rcd13ifvqgc0","pricing_plan_id":"cebpf4jnsgd1na2vs0mg"},{"bike_id":"7c78a755-c7f5-4f07-a96b-621451d47948","system_id":"levelo_inurba_marseille","lat":43.29895,"lon":5.43663,"is_reserved":false,"is_disabled":false,"rental_uris":{"android":"levelo://app?vid=7c78a755-c7f5-4f07-a96b-621451d47948","ios":"levelo://app?vid=7c78a755-c7f5-4f07-a96b-621451d47948"},"vehicle_type_id":"4","last_reported":1737731312,"current_range_meters":38800,"station_id":"ce4bhpp2rcd13ifvqhfg","pricing_plan_id":"cebpf4jnsgd1na2vs0mg"},{"bike_id":"32b6ca88-74ef-44ca-8cf1-8c56cd1b9220","system_id":"levelo_inurba_marseille","lat":43.26685,"lon":5.38257,"is_reserved":false,"is_disabled":false,"rental_uris":{"android":"levelo://app?vid=32b6ca88-74ef-44ca-8cf1-8c56cd1b9220","ios":"levelo://app?vid=32b6ca88-74ef-44ca-8cf1-8c56cd1b9220"},"vehicle_type_id":"4","last_reported":1737731312,"current_range_meters":7200,"station_id":"ce4bhg92rcd13ifvqf90","pricing_plan_id":"cebpf4jnsgd1na2vs0mg"},{"bike_id":"bf765831-2bd2-4e0c-a392-adbd81eeb3d4","system_id":"levelo_inurba_marseille","lat":43.26681,"lon":5.38268,"is_reserved":false,"is_disabled":false,"rental_uris":{"android":"levelo://app?vid=bf765831-2bd2-4e0c-a392-adbd81eeb3d4","ios":"levelo://app?vid=bf765831-2bd2-4e0c-a392-adbd81eeb3d4"},"vehicle_type_id":"4","last_reported":1737731312,"current_range_meters":39200,"station_id":"ce4bhg92rcd13ifvqf90","pricing_plan_id":"cebpf4jnsgd1na2vs0mg"},{"bike_id":"bc5ea025-3c0a-49e5-8c1a-216733bb1a37","system_id":"levelo_inurba_marseille","lat":43.31491,"lon":5.37302,"is_reserved":false,"is_disabled":false,"rental_uris":{"android":"levelo://app?vid=bc5ea025-3c0a-49e5-8c1a-216733bb1a37","ios":"levelo://app?vid=bc5ea025-3c0a-49e5-8c1a-216733bb1a37"},"vehicle_type_id":"4","last_reported":1737731312,"current_range_meters":18800,"station_id":"ce4bgt12rcd13ifvqcd0","pricing_plan_id":"cebpf4jnsgd1na2vs0mg"},{"bike_id":"88577f0e-0c53-4525-bfb2-852a9f1c587e","system_id":"levelo_inurba_marseille","lat":43.251177,"lon":5.402934,"is_reserved":false,"is_disabled":false,"rental_uris":{"android":"levelo://app?vid=88577f0e-0c53-4525-bfb2-852a9f1c587e","ios":"levelo://app?vid=88577f0e-0c53-4525-bfb2-852a9f1c587e"},"vehicle_type_id":"4","last_reported":1737731312,"current_range_meters":19600,"station_id":"ce4bhlh2rcd13ifvqgig","pricing_plan_id":"cebpf4jnsgd1na2vs0mg"},{"bike_id":"d166bc63-804e-464b-8d89-c2b8dfc8f17a","system_id":"levelo_inurba_marseille","lat":43.28715,"lon":5.37933,"is_reserved":false,"is_disabled":false,"rental_uris":{"android":"levelo://app?vid=d166bc63-804e-464b-8d89-c2b8dfc8f17a","ios":"levelo://app?vid=d166bc63-804e-464b-8d89-c2b8dfc8f17a"},"vehicle_type_id":"4","last_reported":1737731312,"current_range_meters":34800,"station_id":"ce4bh9p2rcd13ifvqec0","pricing_plan_id":"cebpf4jnsgd1na2vs0mg"},{"bike_id":"4a13ea03-ec6c-4773-aab6-bf9a860cd9fc","system_id":"levelo_inurba_marseille","lat":43.2789,"lon":5.38011,"is_reserved":false,"is_disabled":false,"rental_uris":{"android":"levelo://app?vid=4a13ea03-ec6c-4773-aab6-bf9a860cd9fc","ios":"levelo://app?vid=4a13ea03-ec6c-4773-aab6-bf9a860cd9fc"},"vehicle_type_id":"4","last_reported":1737731312,"current_range_meters":38800,"station_id":"ce4bhf92rcd13ifvqf50","pricing_plan_id":"cebpf4jnsgd1na2vs0mg"},{"bike_id":"fb6c295d-1724-4d33-a3c9-a298a0f0c5f2","system_id":"levelo_inurba_marseille","lat":43.28725,"lon":5.37947,"is_reserved":false,"is_disabled":false,"rental_uris":{"android":"levelo://app?vid=fb6c295d-1724-4d33-a3c9-a298a0f0c5f2","ios":"levelo://app?vid=fb6c295d-1724-4d33-a3c9-a298a0f0c5f2"},"vehicle_type_id":"4","last_reported":1737731312,"current_range_meters":18000,"station_id":"ce4bh9p2rcd13ifvqec0","pricing_plan_id":"cebpf4jnsgd1na2vs0mg"},{"bike_id":"e86e0480-41c6-4a0c-aa7e-87018e07202b","system_id":"levelo_inurba_marseille","lat":43.31171,"lon":5.38717,"is_reserved":false,"is_disabled":false,"rental_uris":{"android":"levelo://app?vid=e86e0480-41c6-4a0c-aa7e-87018e07202b","ios":"levelo://app?vid=e86e0480-41c6-4a0c-aa7e-87018e07202b"},"vehicle_type_id":"4","last_reported":1737731312,"current_range_meters":38800,"station_id":"ce4bgv12rcd13ifvqcp0","pricing_plan_id":"cebpf4jnsgd1na2vs0mg"},{"bike_id":"73f0a483-06c6-43e4-8150-96acc4952fc2","system_id":"levelo_inurba_marseille","lat":43.30613,"lon":5.37215,"is_reserved":false,"is_disabled":false,"rental_uris":{"android":"levelo://app?vid=73f0a483-06c6-43e4-8150-96acc4952fc2","ios":"levelo://app?vid=73f0a483-06c6-43e4-8150-96acc4952fc2"},"vehicle_type_id":"4","last_reported":1737731312,"current_range_meters":34000,"station_id":"ce4bgqh2rcd13ifvqc4g","pricing_plan_id":"cebpf4jnsgd1na2vs0mg"},{"bike_id":"06d80e65-24b0-45ba-a0af-fdf2015a8f79","system_id":"levelo_inurba_marseille","lat":43.25107,"lon":5.40322,"is_reserved":false,"is_disabled":false,"rental_uris":{"android":"levelo://app?vid=06d80e65-24b0-45ba-a0af-fdf2015a8f79","ios":"levelo://app?vid=06d80e65-24b0-45ba-a0af-fdf2015a8f79"},"vehicle_type_id":"4","last_reported":1737731312,"current_range_meters":38000,"station_id":"ce4bhlh2rcd13ifvqgig","pricing_plan_id":"cebpf4jnsgd1na2vs0mg"},{"bike_id":"0f6f1f28-264c-42b7-9014-efb1bc5cfecb","system_id":"levelo_inurba_marseille","lat":43.29897,"lon":5.37462,"is_reserved":false,"is_disabled":false,"rental_uris":{"android":"levelo://app?vid=0f6f1f28-264c-42b7-9014-efb1bc5cfecb","ios":"levelo://app?vid=0f6f1f28-264c-42b7-9014-efb1bc5cfecb"},"vehicle_type_id":"4","last_reported":1737731312,"current_range_meters":38800,"station_id":"ce4bgjh2rcd13ifvqbg0","pricing_plan_id":"cebpf4jnsgd1na2vs0mg"},{"bike_id":"9c7b1e6c-f6a7-4443-915b-f81466fe1ec7","system_id":"levelo_inurba_marseille","lat":43.28265,"lon":5.35068,"is_reserved":false,"is_disabled":false,"rental_uris":{"android":"levelo://app?vid=9c7b1e6c-f6a7-4443-915b-f81466fe1ec7","ios":"levelo://app?vid=9c7b1e6c-f6a7-4443-915b-f81466fe1ec7"},"vehicle_type_id":"4","last_reported":1737731312,"current_range_meters":31200,"station_id":"ce4bhbp2rcd13ifvqerg","pricing_plan_id":"cebpf4jnsgd1na2vs0mg"},{"bike_id":"2d09f6c2-0a95-42dd-b273-6c37bca47794","system_id":"levelo_inurba_marseille","lat":43.29919,"lon":5.37478,"is_reserved":false,"is_disabled":false,"rental_uris":{"android":"levelo://app?vid=2d09f6c2-0a95-42dd-b273-6c37bca47794","ios":"levelo://app?vid=2d09f6c2-0a95-42dd-b273-6c37bca47794"},"vehicle_type_id":"4","last_reported":1737731312,"current_range_meters":38800,"station_id":"ce4bgjh2rcd13ifvqbg0","pricing_plan_id":"cebpf4jnsgd1na2vs0mg"},{"bike_id":"4c6ace24-8fa1-4251-bdd2-2f7b7944df6a","system_id":"levelo_inurba_marseille","lat":43.29249,"lon":5.40905,"is_reserved":false,"is_disabled":false,"rental_uris":{"android":"levelo://app?vid=4c6ace24-8fa1-4251-bdd2-2f7b7944df6a","ios":"levelo://app?vid=4c6ace24-8fa1-4251-bdd2-2f7b7944df6a"},"vehicle_type_id":"4","last_reported":1737731312,"current_range_meters":36000,"station_id":"ce4bh192rcd13ifvqdc0","pricing_plan_id":"cebpf4jnsgd1na2vs0mg"},{"bike_id":"fe3679b4-09f6-4e41-9aae-9d00892cb93e","system_id":"levelo_inurba_marseille","lat":43.23193,"lon":5.35544,"is_reserved":false,"is_disabled":false,"rental_uris":{"android":"levelo://app?vid=fe3679b4-09f6-4e41-9aae-9d00892cb93e","ios":"levelo://app?vid=fe3679b4-09f6-4e41-9aae-9d00892cb93e"},"vehicle_type_id":"4","last_reported":1737731312,"current_range_meters":17600,"station_id":"ce4bhu92rcd13ifvqi70","pricing_plan_id":"cebpf4jnsgd1na2vs0mg"},{"bike_id":"b4ac2db2-b45d-4139-8166-fe3d7a6cfed2","system_id":"levelo_inurba_marseille","lat":43.2927,"lon":5.38451,"is_reserved":false,"is_disabled":false,"rental_uris":{"android":"levelo://app?vid=b4ac2db2-b45d-4139-8166-fe3d7a6cfed2","ios":"levelo://app?vid=b4ac2db2-b45d-4139-8166-fe3d7a6cfed2"},"vehicle_type_id":"4","last_reported":1737731312,"current_range_meters":25200,"station_id":"ce4bh692rcd13ifvqea0","pricing_plan_id":"cebpf4jnsgd1na2vs0mg"},{"bike_id":"7c5742b4-6005-4de6-a3cf-df4c9e88d63b","system_id":"levelo_inurba_marseille","lat":43.28292,"lon":5.3508,"is_reserved":false,"is_disabled":false,"rental_uris":{"android":"levelo://app?vid=7c5742b4-6005-4de6-a3cf-df4c9e88d63b","ios":"levelo://app?vid=7c5742b4-6005-4de6-a3cf-df4c9e88d63b"},"vehicle_type_id":"4","last_reported":1737731312,"current_range_meters":8000,"station_id":"ce4bhbp2rcd13ifvqerg","pricing_plan_id":"cebpf4jnsgd1na2vs0mg"},{"bike_id":"02c32972-2589-4dd4-8b7a-da5539e1cade","system_id":"levelo_inurba_marseille","lat":43.31757,"lon":5.39022,"is_reserved":false,"is_disabled":false,"rental_uris":{"android":"levelo://app?vid=02c32972-2589-4dd4-8b7a-da5539e1cade","ios":"levelo://app?vid=02c32972-2589-4dd4-8b7a-da5539e1cade"},"vehicle_type_id":"4","last_reported":1737731312,"current_range_meters":38000,"station_id":"ce4bhqp2rcd13ifvqhng","pricing_plan_id":"cebpf4jnsgd1na2vs0mg"},{"bike_id":"2872d2f4-af5f-46bd-9605-ffc92361cf0a","system_id":"levelo_inurba_marseille","lat":43.29255,"lon":5.38453,"is_reserved":false,"is_disabled":false,"rental_uris":{"android":"levelo://app?vid=2872d2f4-af5f-46bd-9605-ffc92361cf0a","ios":"levelo://app?vid=2872d2f4-af5f-46bd-9605-ffc92361cf0a"},"vehicle_type_id":"4","last_reported":1737731312,"current_range_meters":33600,"station_id":"ce4bh692rcd13ifvqea0","pricing_plan_id":"cebpf4jnsgd1na2vs0mg"},{"bike_id":"16cba4e1-cb10-44ef-b1a1-eca95385335f","system_id":"levelo_inurba_marseille","lat":43.28424,"lon":5.34976,"is_reserved":false,"is_disabled":true,"rental_uris":{"android":"levelo://app?vid=16cba4e1-cb10-44ef-b1a1-eca95385335f","ios":"levelo://app?vid=16cba4e1-cb10-44ef-b1a1-eca95385335f"},"vehicle_type_id":"4","last_reported":1737731312,"current_range_meters":19200,"station_id":"ce4bhbh2rcd13ifvqepg","pricing_plan_id":"cebpf4jnsgd1na2vs0mg"},{"bike_id":"6a2306e6-46c8-49cb-9114-f759fcbeeb72","system_id":"levelo_inurba_marseille","lat":43.2953,"lon":5.38551,"is_reserved":false,"is_disabled":false,"rental_uris":{"android":"levelo://app?vid=6a2306e6-46c8-49cb-9114-f759fcbeeb72","ios":"levelo://app?vid=6a2306e6-46c8-49cb-9114-f759fcbeeb72"},"vehicle_type_id":"4","last_reported":1737731312,"current_range_meters":39200,"station_id":"ce4bgih2rcd13ifvqba0","pricing_plan_id":"cebpf4jnsgd1na2vs0mg"},{"bike_id":"71616297-0ba3-4fa6-84ce-d8e3720e24de","system_id":"levelo_inurba_marseille","lat":43.29875,"lon":5.38908,"is_reserved":false,"is_disabled":false,"rental_uris":{"android":"levelo://app?vid=71616297-0ba3-4fa6-84ce-d8e3720e24de","ios":"levelo://app?vid=71616297-0ba3-4fa6-84ce-d8e3720e24de"},"vehicle_type_id":"4","last_reported":1737731312,"current_range_meters":9200,"station_id":"ce4bh392rcd13ifvqdl0","pricing_plan_id":"cebpf4jnsgd1na2vs0mg"},{"bike_id":"96483320-e801-4080-bdb7-5790cd44e6fe","system_id":"levelo_inurba_marseille","lat":43.29569,"lon":5.37515,"is_reserved":false,"is_disabled":false,"rental_uris":{"android":"levelo://app?vid=96483320-e801-4080-bdb7-5790cd44e6fe","ios":"levelo://app?vid=96483320-e801-4080-bdb7-5790cd44e6fe"},"vehicle_type_id":"4","last_reported":1737731312,"current_range_meters":13600,"station_id":"ce4bgh92rcd13ifvqb50","pricing_plan_id":"cebpf4jnsgd1na2vs0mg"},{"bike_id":"c07ffe20-21f2-4b01-b153-b7e93fc6ba8d","system_id":"levelo_inurba_marseille","lat":43.31721,"lon":5.42398,"is_reserved":false,"is_disabled":false,"rental_uris":{"android":"levelo://app?vid=c07ffe20-21f2-4b01-b153-b7e93fc6ba8d","ios":"levelo://app?vid=c07ffe20-21f2-4b01-b153-b7e93fc6ba8d"},"vehicle_type_id":"4","last_reported":1737731312,"current_range_meters":38800,"station_id":"ce4bhp92rcd13ifvqhbg","pricing_plan_id":"cebpf4jnsgd1na2vs0mg"},{"bike_id":"d96b3434-2cc6-4c2e-a560-763e1b71f3ae","system_id":"levelo_inurba_marseille","lat":43.24999,"lon":5.3893,"is_reserved":false,"is_disabled":false,"rental_uris":{"android":"levelo://app?vid=d96b3434-2cc6-4c2e-a560-763e1b71f3ae","ios":"levelo://app?vid=d96b3434-2cc6-4c2e-a560-763e1b71f3ae"},"vehicle_type_id":"4","last_reported":1737731312,"current_range_meters":16800,"station_id":"ce4bhgp2rcd13ifvqfd0","pricing_plan_id":"cebpf4jnsgd1na2vs0mg"},{"bike_id":"2856cb9d-ffef-49cf-bb76-128179dfc919","system_id":"levelo_inurba_marseille","lat":43.31489,"lon":5.37307,"is_reserved":false,"is_disabled":false,"rental_uris":{"android":"levelo://app?vid=2856cb9d-ffef-49cf-bb76-128179dfc919","ios":"levelo://app?vid=2856cb9d-ffef-49cf-bb76-128179dfc919"},"vehicle_type_id":"4","last_reported":1737731312,"current_range_meters":39200,"station_id":"ce4bgt12rcd13ifvqcd0","pricing_plan_id":"cebpf4jnsgd1na2vs0mg"},{"bike_id":"65e5ac56-5201-4856-b10d-baa21fbf13f7","system_id":"levelo_inurba_marseille","lat":43.30145,"lon":5.38091,"is_reserved":false,"is_disabled":false,"rental_uris":{"android":"levelo://app?vid=65e5ac56-5201-4856-b10d-baa21fbf13f7","ios":"levelo://app?vid=65e5ac56-5201-4856-b10d-baa21fbf13f7"},"vehicle_type_id":"4","last_reported":1737731312,"current_range_meters":6000,"station_id":"ce4bgjp2rcd13ifvqbh0","pricing_plan_id":"cebpf4jnsgd1na2vs0mg"},{"bike_id":"1c93196e-c93f-4eac-96cd-365ada6baaf8","system_id":"levelo_inurba_marseille","lat":43.30131,"lon":5.39871,"is_reserved":false,"is_disabled":false,"rental_uris":{"android":"levelo://app?vid=1c93196e-c93f-4eac-96cd-365ada6baaf8","ios":"levelo://app?vid=1c93196e-c93f-4eac-96cd-365ada6baaf8"},"vehicle_type_id":"4","last_reported":1737731312,"current_range_meters":39200,"station_id":"ce4bh0h2rcd13ifvqd40","pricing_plan_id":"cebpf4jnsgd1na2vs0mg"},{"bike_id":"45b366a6-6abc-4401-bb9e-1aee69db2cae","system_id":"levelo_inurba_marseille","lat":43.28083,"lon":5.39665,"is_reserved":false,"is_disabled":false,"rental_uris":{"android":"levelo://app?vid=45b366a6-6abc-4401-bb9e-1aee69db2cae","ios":"levelo://app?vid=45b366a6-6abc-4401-bb9e-1aee69db2cae"},"vehicle_type_id":"4","last_reported":1737731312,"current_range_meters":32000,"station_id":"ce4bho12rcd13ifvqh2g","pricing_plan_id":"cebpf4jnsgd1na2vs0mg"},{"bike_id":"8d6c105b-a979-4d49-9ed9-36a139435b82","system_id":"levelo_inurba_marseille","lat":43.298063,"lon":5.381117,"is_reserved":false,"is_disabled":false,"rental_uris":{"android":"levelo://app?vid=8d6c105b-a979-4d49-9ed9-36a139435b82","ios":"levelo://app?vid=8d6c105b-a979-4d49-9ed9-36a139435b82"},"vehicle_type_id":"4","last_reported":1737731312,"current_range_meters":38800,"station_id":"ce4bgip2rcd13ifvqbb0","pricing_plan_id":"cebpf4jnsgd1na2vs0mg"},{"bike_id":"421d447e-f137-48f8-b50a-3cef6ba73d00","system_id":"levelo_inurba_marseille","lat":43.32364,"lon":5.3677,"is_reserved":false,"is_disabled":false,"rental_uris":{"android":"levelo://app?vid=421d447e-f137-48f8-b50a-3cef6ba73d00","ios":"levelo://app?vid=421d447e-f137-48f8-b50a-3cef6ba73d00"},"vehicle_type_id":"4","last_reported":1737731312,"current_range_meters":9200,"station_id":"ce4bhsh2rcd13ifvqi2g","pricing_plan_id":"cebpf4jnsgd1na2vs0mg"},{"bike_id":"99c60d21-e005-4af0-89c4-0cba147c73bd","system_id":"levelo_inurba_marseille","lat":43.28413,"lon":5.35009,"is_reserved":false,"is_disabled":false,"rental_uris":{"android":"levelo://app?vid=99c60d21-e005-4af0-89c4-0cba147c73bd","ios":"levelo://app?vid=99c60d21-e005-4af0-89c4-0cba147c73bd"},"vehicle_type_id":"4","last_reported":1737731312,"current_range_meters":22400,"station_id":"ce4bhbh2rcd13ifvqepg","pricing_plan_id":"cebpf4jnsgd1na2vs0mg"},{"bike_id":"841a1767-078e-4378-8ef2-78843610d635","system_id":"levelo_inurba_marseille","lat":43.23191,"lon":5.3555,"is_reserved":false,"is_disabled":false,"rental_uris":{"android":"levelo://app?vid=841a1767-078e-4378-8ef2-78843610d635","ios":"levelo://app?vid=841a1767-078e-4378-8ef2-78843610d635"},"vehicle_type_id":"4","last_reported":1737731312,"current_range_meters":10000,"station_id":"ce4bhu92rcd13ifvqi70","pricing_plan_id":"cebpf4jnsgd1na2vs0mg"},{"bike_id":"31d80e3f-752a-47a0-a74d-bfbb80b74f64","system_id":"levelo_inurba_marseille","lat":43.23069,"lon":5.35493,"is_reserved":false,"is_disabled":false,"rental_uris":{"android":"levelo://app?vid=31d80e3f-752a-47a0-a74d-bfbb80b74f64","ios":"levelo://app?vid=31d80e3f-752a-47a0-a74d-bfbb80b74f64"},"vehicle_type_id":"4","last_reported":1737731312,"current_range_meters":11200,"station_id":"cpo3342slgdg3j2ifvpg","pricing_plan_id":"cebpf4jnsgd1na2vs0mg"},{"bike_id":"75495e7c-20bd-4569-84c6-35df34ab244d","system_id":"levelo_inurba_marseille","lat":43.29898,"lon":5.43672,"is_reserved":false,"is_disabled":false,"rental_uris":{"android":"levelo://app?vid=75495e7c-20bd-4569-84c6-35df34ab244d","ios":"levelo://app?vid=75495e7c-20bd-4569-84c6-35df34ab244d"},"vehicle_type_id":"4","last_reported":1737731312,"current_range_meters":38800,"station_id":"ce4bhpp2rcd13ifvqhfg","pricing_plan_id":"cebpf4jnsgd1na2vs0mg"},{"bike_id":"73f990de-6bc1-4d77-99a4-532b35a18969","system_id":"levelo_inurba_marseille","lat":43.29415,"lon":5.38632,"is_reserved":false,"is_disabled":false,"rental_uris":{"android":"levelo://app?vid=73f990de-6bc1-4d77-99a4-532b35a18969","ios":"levelo://app?vid=73f990de-6bc1-4d77-99a4-532b35a18969"},"vehicle_type_id":"4","last_reported":1737731312,"current_range_meters":30800,"station_id":"ce4bh2h2rcd13ifvqdh0","pricing_plan_id":"cebpf4jnsgd1na2vs0mg"},{"bike_id":"a1a36f1b-8c99-4f04-a1b7-75e73a147681","system_id":"levelo_inurba_marseille","lat":43.30138,"lon":5.39867,"is_reserved":false,"is_disabled":false,"rental_uris":{"android":"levelo://app?vid=a1a36f1b-8c99-4f04-a1b7-75e73a147681","ios":"levelo://app?vid=a1a36f1b-8c99-4f04-a1b7-75e73a147681"},"vehicle_type_id":"4","last_reported":1737731312,"current_range_meters":38000,"station_id":"ce4bh0h2rcd13ifvqd40","pricing_plan_id":"cebpf4jnsgd1na2vs0mg"},{"bike_id":"a12ae140-7d40-4453-aee3-1f900eeb57d0","system_id":"levelo_inurba_marseille","lat":43.31719,"lon":5.42395,"is_reserved":false,"is_disabled":false,"rental_uris":{"android":"levelo://app?vid=a12ae140-7d40-4453-aee3-1f900eeb57d0","ios":"levelo://app?vid=a12ae140-7d40-4453-aee3-1f900eeb57d0"},"vehicle_type_id":"4","last_reported":1737731312,"current_range_meters":38800,"station_id":"ce4bhp92rcd13ifvqhbg","pricing_plan_id":"cebpf4jnsgd1na2vs0mg"},{"bike_id":"06c9f187-3277-47a5-bdd5-35571bc3badf","system_id":"levelo_inurba_marseille","lat":43.29922,"lon":5.37478,"is_reserved":false,"is_disabled":false,"rental_uris":{"android":"levelo://app?vid=06c9f187-3277-47a5-bdd5-35571bc3badf","ios":"levelo://app?vid=06c9f187-3277-47a5-bdd5-35571bc3badf"},"vehicle_type_id":"4","last_reported":1737731312,"current_range_meters":9600,"station_id":"ce4bgjh2rcd13ifvqbg0","pricing_plan_id":"cebpf4jnsgd1na2vs0mg"},{"bike_id":"0683b8fa-bf66-4a85-b23f-305b1ef8e2c5","system_id":"levelo_inurba_marseille","lat":43.29909,"lon":5.43667,"is_reserved":false,"is_disabled":true,"rental_uris":{"android":"levelo://app?vid=0683b8fa-bf66-4a85-b23f-305b1ef8e2c5","ios":"levelo://app?vid=0683b8fa-bf66-4a85-b23f-305b1ef8e2c5"},"vehicle_type_id":"4","last_reported":1737731312,"current_range_meters":400,"station_id":"ce4bhpp2rcd13ifvqhfg","pricing_plan_id":"cebpf4jnsgd1na2vs0mg"},{"bike_id":"c758891b-5e6c-4207-a53d-625568e9a4c9","system_id":"levelo_inurba_marseille","lat":43.31119,"lon":5.37761,"is_reserved":false,"is_disabled":false,"rental_uris":{"android":"levelo://app?vid=c758891b-5e6c-4207-a53d-625568e9a4c9","ios":"levelo://app?vid=c758891b-5e6c-4207-a53d-625568e9a4c9"},"vehicle_type_id":"4","last_reported":1737731312,"current_range_meters":9600,"station_id":"ce4bgt92rcd13ifvqcg0","pricing_plan_id":"cebpf4jnsgd1na2vs0mg"},{"bike_id":"1a5e6089-79b1-42c3-9dee-1e9edc9bdaf8","system_id":"levelo_inurba_marseille","lat":43.30728,"lon":5.38064,"is_reserved":false,"is_disabled":false,"rental_uris":{"android":"levelo://app?vid=1a5e6089-79b1-42c3-9dee-1e9edc9bdaf8","ios":"levelo://app?vid=1a5e6089-79b1-42c3-9dee-1e9edc9bdaf8"},"vehicle_type_id":"4","last_reported":1737731312,"current_range_meters":33600,"station_id":"","pricing_plan_id":"cebpf4jnsgd1na2vs0mg"},{"bike_id":"b6663470-0bb2-4d25-96c5-fa533bc2c675","system_id":"levelo_inurba_marseille","lat":43.33728,"lon":5.39189,"is_reserved":false,"is_disabled":false,"rental_uris":{"android":"levelo://app?vid=b6663470-0bb2-4d25-96c5-fa533bc2c675","ios":"levelo://app?vid=b6663470-0bb2-4d25-96c5-fa533bc2c675"},"vehicle_type_id":"4","last_reported":1737731312,"current_range_meters":38800,"station_id":"ce4bhr92rcd13ifvqhsg","pricing_plan_id":"cebpf4jnsgd1na2vs0mg"},{"bike_id":"4f272108-94ff-460b-af0d-645dff65830c","system_id":"levelo_inurba_marseille","lat":43.28435,"lon":5.34978,"is_reserved":false,"is_disabled":false,"rental_uris":{"android":"levelo://app?vid=4f272108-94ff-460b-af0d-645dff65830c","ios":"levelo://app?vid=4f272108-94ff-460b-af0d-645dff65830c"},"vehicle_type_id":"4","last_reported":1737731312,"current_range_meters":19200,"station_id":"ce4bhbh2rcd13ifvqepg","pricing_plan_id":"cebpf4jnsgd1na2vs0mg"},{"bike_id":"dccdc62b-21ff-4f08-9d31-6c4a438a4b69","system_id":"levelo_inurba_marseille","lat":43.29426,"lon":5.38625,"is_reserved":false,"is_disabled":false,"rental_uris":{"android":"levelo://app?vid=dccdc62b-21ff-4f08-9d31-6c4a438a4b69","ios":"levelo://app?vid=dccdc62b-21ff-4f08-9d31-6c4a438a4b69"},"vehicle_type_id":"4","last_reported":1737731312,"current_range_meters":22000,"station_id":"ce4bh2h2rcd13ifvqdh0","pricing_plan_id":"cebpf4jnsgd1na2vs0mg"},{"bike_id":"55fa9a63-1046-4c0c-8d88-973abc543598","system_id":"levelo_inurba_marseille","lat":43.25004,"lon":5.38938,"is_reserved":false,"is_disabled":false,"rental_uris":{"android":"levelo://app?vid=55fa9a63-1046-4c0c-8d88-973abc543598","ios":"levelo://app?vid=55fa9a63-1046-4c0c-8d88-973abc543598"},"vehicle_type_id":"4","last_reported":1737731312,"current_range_meters":14400,"station_id":"ce4bhgp2rcd13ifvqfd0","pricing_plan_id":"cebpf4jnsgd1na2vs0mg"},{"bike_id":"488527ea-bab0-48b3-9e22-22a7754122b2","system_id":"levelo_inurba_marseille","lat":43.29229,"lon":5.36073,"is_reserved":false,"is_disabled":false,"rental_uris":{"android":"levelo://app?vid=488527ea-bab0-48b3-9e22-22a7754122b2","ios":"levelo://app?vid=488527ea-bab0-48b3-9e22-22a7754122b2"},"vehicle_type_id":"4","last_reported":1737731312,"current_range_meters":24000,"station_id":"","pricing_plan_id":"cebpf4jnsgd1na2vs0mg"},{"bike_id":"78d4f20e-d7f1-4914-b87b-99aa5b196d3a","system_id":"levelo_inurba_marseille","lat":43.29885,"lon":5.39732,"is_reserved":false,"is_disabled":false,"rental_uris":{"android":"levelo://app?vid=78d4f20e-d7f1-4914-b87b-99aa5b196d3a","ios":"levelo://app?vid=78d4f20e-d7f1-4914-b87b-99aa5b196d3a"},"vehicle_type_id":"4","last_reported":1737731312,"current_range_meters":28800,"station_id":"ce4bh0h2rcd13ifvqd50","pricing_plan_id":"cebpf4jnsgd1na2vs0mg"},{"bike_id":"f7149591-9b6b-4426-9acf-ae4359e39ffe","system_id":"levelo_inurba_marseille","lat":43.30534,"lon":5.38433,"is_reserved":false,"is_disabled":false,"rental_uris":{"android":"levelo://app?vid=f7149591-9b6b-4426-9acf-ae4359e39ffe","ios":"levelo://app?vid=f7149591-9b6b-4426-9acf-ae4359e39ffe"},"vehicle_type_id":"4","last_reported":1737731312,"current_range_meters":38800,"station_id":"ce4bgg92rcd13ifvqb30","pricing_plan_id":"cebpf4jnsgd1na2vs0mg"},{"bike_id":"746aee08-25c9-452c-b13a-7599480c6b71","system_id":"levelo_inurba_marseille","lat":43.31706,"lon":5.37742,"is_reserved":false,"is_disabled":false,"rental_uris":{"android":"levelo://app?vid=746aee08-25c9-452c-b13a-7599480c6b71","ios":"levelo://app?vid=746aee08-25c9-452c-b13a-7599480c6b71"},"vehicle_type_id":"4","last_reported":1737731312,"current_range_meters":36800,"station_id":"ce4bgth2rcd13ifvqch0","pricing_plan_id":"cebpf4jnsgd1na2vs0mg"},{"bike_id":"c057115f-c9b1-431a-857e-bc1d8932d5b2","system_id":"levelo_inurba_marseille","lat":43.30781,"lon":5.37644,"is_reserved":false,"is_disabled":false,"rental_uris":{"android":"levelo://app?vid=c057115f-c9b1-431a-857e-bc1d8932d5b2","ios":"levelo://app?vid=c057115f-c9b1-431a-857e-bc1d8932d5b2"},"vehicle_type_id":"4","last_reported":1737731312,"current_range_meters":36000,"station_id":"ce4bgv92rcd13ifvqcq0","pricing_plan_id":"cebpf4jnsgd1na2vs0mg"},{"bike_id":"db26516d-4ecb-415a-9085-700f58bc376b","system_id":"levelo_inurba_marseille","lat":43.28848,"lon":5.35842,"is_reserved":false,"is_disabled":false,"rental_uris":{"android":"levelo://app?vid=db26516d-4ecb-415a-9085-700f58bc376b","ios":"levelo://app?vid=db26516d-4ecb-415a-9085-700f58bc376b"},"vehicle_type_id":"4","last_reported":1737731312,"current_range_meters":10000,"station_id":"ce4bhb12rcd13ifvqem0","pricing_plan_id":"cebpf4jnsgd1na2vs0mg"},{"bike_id":"4e93830c-589f-413d-9c1d-ba2ee232cc2b","system_id":"levelo_inurba_marseille","lat":43.28407,"lon":5.37508,"is_reserved":false,"is_disabled":true,"rental_uris":{"android":"levelo://app?vid=4e93830c-589f-413d-9c1d-ba2ee232cc2b","ios":"levelo://app?vid=4e93830c-589f-413d-9c1d-ba2ee232cc2b"},"vehicle_type_id":"4","last_reported":1737731312,"current_range_meters":16400,"station_id":"ce4bh412rcd13ifvqds0","pricing_plan_id":"cebpf4jnsgd1na2vs0mg"},{"bike_id":"033e3539-4f4c-4fa3-ad37-9f1909d3f28c","system_id":"levelo_inurba_marseille","lat":43.29797,"lon":5.4041,"is_reserved":false,"is_disabled":false,"rental_uris":{"android":"levelo://app?vid=033e3539-4f4c-4fa3-ad37-9f1909d3f28c","ios":"levelo://app?vid=033e3539-4f4c-4fa3-ad37-9f1909d3f28c"},"vehicle_type_id":"4","last_reported":1737731312,"current_range_meters":39200,"station_id":"ce4bh112rcd13ifvqd90","pricing_plan_id":"cebpf4jnsgd1na2vs0mg"},{"bike_id":"4c4f250f-bd2f-4d27-9cb0-9af1e3584693","system_id":"levelo_inurba_marseille","lat":43.26695,"lon":5.38256,"is_reserved":false,"is_disabled":false,"rental_uris":{"android":"levelo://app?vid=4c4f250f-bd2f-4d27-9cb0-9af1e3584693","ios":"levelo://app?vid=4c4f250f-bd2f-4d27-9cb0-9af1e3584693"},"vehicle_type_id":"4","last_reported":1737731312,"current_range_meters":38400,"station_id":"ce4bhg92rcd13ifvqf90","pricing_plan_id":"cebpf4jnsgd1na2vs0mg"},{"bike_id":"706e28c8-944b-42b5-b67a-5c63ea2b7c60","system_id":"levelo_inurba_marseille","lat":43.30531,"lon":5.3842,"is_reserved":false,"is_disabled":false,"rental_uris":{"android":"levelo://app?vid=706e28c8-944b-42b5-b67a-5c63ea2b7c60","ios":"levelo://app?vid=706e28c8-944b-42b5-b67a-5c63ea2b7c60"},"vehicle_type_id":"4","last_reported":1737731312,"current_range_meters":38800,"station_id":"ce4bgg92rcd13ifvqb30","pricing_plan_id":"cebpf4jnsgd1na2vs0mg"},{"bike_id":"576b8657-d5e2-4d23-9b1e-461b2180cd28","system_id":"levelo_inurba_marseille","lat":43.22931,"lon":5.35388,"is_reserved":false,"is_disabled":false,"rental_uris":{"android":"levelo://app?vid=576b8657-d5e2-4d23-9b1e-461b2180cd28","ios":"levelo://app?vid=576b8657-d5e2-4d23-9b1e-461b2180cd28"},"vehicle_type_id":"4","last_reported":1737731312,"current_range_meters":38800,"station_id":"cpo3532slgdg3j2ikp40","pricing_plan_id":"cebpf4jnsgd1na2vs0mg"},{"bike_id":"1041b9e6-0cf7-4f25-81c3-be28c0444178","system_id":"levelo_inurba_marseille","lat":43.266755,"lon":5.382489,"is_reserved":false,"is_disabled":false,"rental_uris":{"android":"levelo://app?vid=1041b9e6-0cf7-4f25-81c3-be28c0444178","ios":"levelo://app?vid=1041b9e6-0cf7-4f25-81c3-be28c0444178"},"vehicle_type_id":"4","last_reported":1737731312,"current_range_meters":32800,"station_id":"ce4bhg92rcd13ifvqf90","pricing_plan_id":"cebpf4jnsgd1na2vs0mg"},{"bike_id":"8681b4f0-f70d-4ae9-bc77-525a728117e8","system_id":"levelo_inurba_marseille","lat":43.27373,"lon":5.36249,"is_reserved":false,"is_disabled":true,"rental_uris":{"android":"levelo://app?vid=8681b4f0-f70d-4ae9-bc77-525a728117e8","ios":"levelo://app?vid=8681b4f0-f70d-4ae9-bc77-525a728117e8"},"vehicle_type_id":"4","last_reported":1737731312,"current_range_meters":800,"station_id":"ce4bhbh2rcd13ifvqeo0","pricing_plan_id":"cebpf4jnsgd1na2vs0mg"},{"bike_id":"65bf9402-f876-4b88-adaf-b40cf3b01798","system_id":"levelo_inurba_marseille","lat":43.27329,"lon":5.39099,"is_reserved":false,"is_disabled":true,"rental_uris":{"android":"levelo://app?vid=65bf9402-f876-4b88-adaf-b40cf3b01798","ios":"levelo://app?vid=65bf9402-f876-4b88-adaf-b40cf3b01798"},"vehicle_type_id":"4","last_reported":1737731312,"current_range_meters":0,"station_id":"ce4bhgp2rcd13ifvqfe0","pricing_plan_id":"cebpf4jnsgd1na2vs0mg"},{"bike_id":"9cb02720-952c-444e-9657-dc043f973e0e","system_id":"levelo_inurba_marseille","lat":43.29067,"lon":5.3717,"is_reserved":false,"is_disabled":true,"rental_uris":{"android":"levelo://app?vid=9cb02720-952c-444e-9657-dc043f973e0e","ios":"levelo://app?vid=9cb02720-952c-444e-9657-dc043f973e0e"},"vehicle_type_id":"4","last_reported":1737731312,"current_range_meters":1600,"station_id":"ce4bh5p2rcd13ifvqe4g","pricing_plan_id":"cebpf4jnsgd1na2vs0mg"},{"bike_id":"7e805606-8c5e-4c76-9f6f-ae686c66a340","system_id":"levelo_inurba_marseille","lat":43.30808,"lon":5.3815,"is_reserved":false,"is_disabled":false,"rental_uris":{"android":"levelo://app?vid=7e805606-8c5e-4c76-9f6f-ae686c66a340","ios":"levelo://app?vid=7e805606-8c5e-4c76-9f6f-ae686c66a340"},"vehicle_type_id":"4","last_reported":1737731312,"current_range_meters":28800,"station_id":"ce4bgt12rcd13ifvqce0","pricing_plan_id":"cebpf4jnsgd1na2vs0mg"},{"bike_id":"0c184a37-ed1e-49f8-9878-651470ae5991","system_id":"levelo_inurba_marseille","lat":43.29619,"lon":5.37173,"is_reserved":false,"is_disabled":false,"rental_uris":{"android":"levelo://app?vid=0c184a37-ed1e-49f8-9878-651470ae5991","ios":"levelo://app?vid=0c184a37-ed1e-49f8-9878-651470ae5991"},"vehicle_type_id":"4","last_reported":1737731312,"current_range_meters":16400,"station_id":"ce4bgnh2rcd13ifvqc0g","pricing_plan_id":"cebpf4jnsgd1na2vs0mg"},{"bike_id":"a6ed32e1-5f77-48e1-a52f-af930b732239","system_id":"levelo_inurba_marseille","lat":43.31734,"lon":5.42387,"is_reserved":false,"is_disabled":false,"rental_uris":{"android":"levelo://app?vid=a6ed32e1-5f77-48e1-a52f-af930b732239","ios":"levelo://app?vid=a6ed32e1-5f77-48e1-a52f-af930b732239"},"vehicle_type_id":"4","last_reported":1737731312,"current_range_meters":38800,"station_id":"ce4bhp92rcd13ifvqhbg","pricing_plan_id":"cebpf4jnsgd1na2vs0mg"},{"bike_id":"b1f83aae-ce91-43c1-908a-3715b1c271cd","system_id":"levelo_inurba_marseille","lat":43.32348,"lon":5.38885,"is_reserved":false,"is_disabled":true,"rental_uris":{"android":"levelo://app?vid=b1f83aae-ce91-43c1-908a-3715b1c271cd","ios":"levelo://app?vid=b1f83aae-ce91-43c1-908a-3715b1c271cd"},"vehicle_type_id":"4","last_reported":1737731312,"current_range_meters":0,"station_id":"ce4bhqp2rcd13ifvqhog","pricing_plan_id":"cebpf4jnsgd1na2vs0mg"},{"bike_id":"2c44e657-fff9-4c1e-907d-41d14737ecdc","system_id":"levelo_inurba_marseille","lat":43.27069,"lon":5.40261,"is_reserved":false,"is_disabled":false,"rental_uris":{"android":"levelo://app?vid=2c44e657-fff9-4c1e-907d-41d14737ecdc","ios":"levelo://app?vid=2c44e657-fff9-4c1e-907d-41d14737ecdc"},"vehicle_type_id":"4","last_reported":1737731312,"current_range_meters":11200,"station_id":"ce4bhk92rcd13ifvqgc0","pricing_plan_id":"cebpf4jnsgd1na2vs0mg"},{"bike_id":"8e684fe1-e823-4367-81c0-b3c2dedc805b","system_id":"levelo_inurba_marseille","lat":43.29618,"lon":5.37177,"is_reserved":false,"is_disabled":false,"rental_uris":{"android":"levelo://app?vid=8e684fe1-e823-4367-81c0-b3c2dedc805b","ios":"levelo://app?vid=8e684fe1-e823-4367-81c0-b3c2dedc805b"},"vehicle_type_id":"4","last_reported":1737731312,"current_range_meters":39200,"station_id":"ce4bgnh2rcd13ifvqc0g","pricing_plan_id":"cebpf4jnsgd1na2vs0mg"},{"bike_id":"f10ee8bd-0798-445c-a435-cbdbde7b3b5e","system_id":"levelo_inurba_marseille","lat":43.28733,"lon":5.3793,"is_reserved":false,"is_disabled":false,"rental_uris":{"android":"levelo://app?vid=f10ee8bd-0798-445c-a435-cbdbde7b3b5e","ios":"levelo://app?vid=f10ee8bd-0798-445c-a435-cbdbde7b3b5e"},"vehicle_type_id":"4","last_reported":1737731312,"current_range_meters":22800,"station_id":"ce4bh9p2rcd13ifvqec0","pricing_plan_id":"cebpf4jnsgd1na2vs0mg"},{"bike_id":"51d0d35e-472f-4346-876e-238fe6bb1c8a","system_id":"levelo_inurba_marseille","lat":43.27921,"lon":5.39589,"is_reserved":false,"is_disabled":false,"rental_uris":{"android":"levelo://app?vid=51d0d35e-472f-4346-876e-238fe6bb1c8a","ios":"levelo://app?vid=51d0d35e-472f-4346-876e-238fe6bb1c8a"},"vehicle_type_id":"4","last_reported":1737731312,"current_range_meters":36000,"station_id":"ce4bhf92rcd13ifvqf40","pricing_plan_id":"cebpf4jnsgd1na2vs0mg"},{"bike_id":"b580ec2d-1d87-4b50-98ee-810dc065f4c0","system_id":"levelo_inurba_marseille","lat":43.27055,"lon":5.40258,"is_reserved":false,"is_disabled":false,"rental_uris":{"android":"levelo://app?vid=b580ec2d-1d87-4b50-98ee-810dc065f4c0","ios":"levelo://app?vid=b580ec2d-1d87-4b50-98ee-810dc065f4c0"},"vehicle_type_id":"4","last_reported":1737731312,"current_range_meters":27600,"station_id":"ce4bhk92rcd13ifvqgc0","pricing_plan_id":"cebpf4jnsgd1na2vs0mg"},{"bike_id":"439a30cc-d24d-40ce-b418-f7804d9cb82a","system_id":"levelo_inurba_marseille","lat":43.289359,"lon":5.363841,"is_reserved":false,"is_disabled":false,"rental_uris":{"android":"levelo://app?vid=439a30cc-d24d-40ce-b418-f7804d9cb82a","ios":"levelo://app?vid=439a30cc-d24d-40ce-b418-f7804d9cb82a"},"vehicle_type_id":"4","last_reported":1737731312,"current_range_meters":38800,"station_id":"ce4bhc92rcd13ifvqetg","pricing_plan_id":"cebpf4jnsgd1na2vs0mg"},{"bike_id":"26f57c93-90d3-499c-84dd-7bf9c697aea6","system_id":"levelo_inurba_marseille","lat":43.2954,"lon":5.38559,"is_reserved":false,"is_disabled":false,"rental_uris":{"android":"levelo://app?vid=26f57c93-90d3-499c-84dd-7bf9c697aea6","ios":"levelo://app?vid=26f57c93-90d3-499c-84dd-7bf9c697aea6"},"vehicle_type_id":"4","last_reported":1737731312,"current_range_meters":36800,"station_id":"ce4bgih2rcd13ifvqba0","pricing_plan_id":"cebpf4jnsgd1na2vs0mg"},{"bike_id":"ca111f2e-e07e-48e5-a66b-50f3b899cc71","system_id":"levelo_inurba_marseille","lat":43.25083,"lon":5.39511,"is_reserved":false,"is_disabled":false,"rental_uris":{"android":"levelo://app?vid=ca111f2e-e07e-48e5-a66b-50f3b899cc71","ios":"levelo://app?vid=ca111f2e-e07e-48e5-a66b-50f3b899cc71"},"vehicle_type_id":"4","last_reported":1737731312,"current_range_meters":37600,"station_id":"ce4bhm12rcd13ifvqgkg","pricing_plan_id":"cebpf4jnsgd1na2vs0mg"},{"bike_id":"12663151-95d3-4b2b-98eb-501b8da4efd2","system_id":"levelo_inurba_marseille","lat":43.30149,"lon":5.38093,"is_reserved":false,"is_disabled":false,"rental_uris":{"android":"levelo://app?vid=12663151-95d3-4b2b-98eb-501b8da4efd2","ios":"levelo://app?vid=12663151-95d3-4b2b-98eb-501b8da4efd2"},"vehicle_type_id":"4","last_reported":1737731312,"current_range_meters":6400,"station_id":"ce4bgjp2rcd13ifvqbh0","pricing_plan_id":"cebpf4jnsgd1na2vs0mg"},{"bike_id":"447b8a66-f5d2-457d-bf9b-ac995915c91a","system_id":"levelo_inurba_marseille","lat":43.29835,"lon":5.42025,"is_reserved":false,"is_disabled":false,"rental_uris":{"android":"levelo://app?vid=447b8a66-f5d2-457d-bf9b-ac995915c91a","ios":"levelo://app?vid=447b8a66-f5d2-457d-bf9b-ac995915c91a"},"vehicle_type_id":"4","last_reported":1737731312,"current_range_meters":8800,"station_id":"","pricing_plan_id":"cebpf4jnsgd1na2vs0mg"},{"bike_id":"91efe6ba-6a0e-4e8b-9fca-14b75128f5d5","system_id":"levelo_inurba_marseille","lat":43.30423,"lon":5.41174,"is_reserved":false,"is_disabled":true,"rental_uris":{"android":"levelo://app?vid=91efe6ba-6a0e-4e8b-9fca-14b75128f5d5","ios":"levelo://app?vid=91efe6ba-6a0e-4e8b-9fca-14b75128f5d5"},"vehicle_type_id":"4","last_reported":1737731312,"current_range_meters":0,"station_id":"","pricing_plan_id":"cebpf4jnsgd1na2vs0mg"},{"bike_id":"385b05f4-cd67-4fc0-bab8-48a839de2db4","system_id":"levelo_inurba_marseille","lat":43.30939,"lon":5.37224,"is_reserved":false,"is_disabled":true,"rental_uris":{"android":"levelo://app?vid=385b05f4-cd67-4fc0-bab8-48a839de2db4","ios":"levelo://app?vid=385b05f4-cd67-4fc0-bab8-48a839de2db4"},"vehicle_type_id":"4","last_reported":1737731312,"current_range_meters":1200,"station_id":"","pricing_plan_id":"cebpf4jnsgd1na2vs0mg"},{"bike_id":"6fd73f4f-1954-4782-9e90-de7f65b3c67c","system_id":"levelo_inurba_marseille","lat":43.31774,"lon":5.39016,"is_reserved":false,"is_disabled":false,"rental_uris":{"android":"levelo://app?vid=6fd73f4f-1954-4782-9e90-de7f65b3c67c","ios":"levelo://app?vid=6fd73f4f-1954-4782-9e90-de7f65b3c67c"},"vehicle_type_id":"4","last_reported":1737731312,"current_range_meters":38800,"station_id":"ce4bhqp2rcd13ifvqhng","pricing_plan_id":"cebpf4jnsgd1na2vs0mg"},{"bike_id":"7db52b9f-ce79-4063-a90d-1d006402972c","system_id":"levelo_inurba_marseille","lat":43.323697,"lon":5.367709,"is_reserved":false,"is_disabled":false,"rental_uris":{"android":"levelo://app?vid=7db52b9f-ce79-4063-a90d-1d006402972c","ios":"levelo://app?vid=7db52b9f-ce79-4063-a90d-1d006402972c"},"vehicle_type_id":"4","last_reported":1737731312,"current_range_meters":22400,"station_id":"ce4bhsh2rcd13ifvqi2g","pricing_plan_id":"cebpf4jnsgd1na2vs0mg"},{"bike_id":"57309b83-05b2-41b4-8354-d8a9957344ad","system_id":"levelo_inurba_marseille","lat":43.26499,"lon":5.39537,"is_reserved":false,"is_disabled":false,"rental_uris":{"android":"levelo://app?vid=57309b83-05b2-41b4-8354-d8a9957344ad","ios":"levelo://app?vid=57309b83-05b2-41b4-8354-d8a9957344ad"},"vehicle_type_id":"4","last_reported":1737731312,"current_range_meters":27600,"station_id":"ce4bhi12rcd13ifvqfq0","pricing_plan_id":"cebpf4jnsgd1na2vs0mg"},{"bike_id":"b0b40de6-826f-4def-817e-5469f554bc95","system_id":"levelo_inurba_marseille","lat":43.2961,"lon":5.38097,"is_reserved":false,"is_disabled":false,"rental_uris":{"android":"levelo://app?vid=b0b40de6-826f-4def-817e-5469f554bc95","ios":"levelo://app?vid=b0b40de6-826f-4def-817e-5469f554bc95"},"vehicle_type_id":"4","last_reported":1737731312,"current_range_meters":38000,"station_id":"ce4bgl12rcd13ifvqbo0","pricing_plan_id":"cebpf4jnsgd1na2vs0mg"},{"bike_id":"7f29fcf4-afe8-47ae-a3bc-9c2c9a11a0e5","system_id":"levelo_inurba_marseille","lat":43.324705,"lon":5.365865,"is_reserved":false,"is_disabled":false,"rental_uris":{"android":"levelo://app?vid=7f29fcf4-afe8-47ae-a3bc-9c2c9a11a0e5","ios":"levelo://app?vid=7f29fcf4-afe8-47ae-a3bc-9c2c9a11a0e5"},"vehicle_type_id":"4","last_reported":1737731312,"current_range_meters":27200,"station_id":"ce4bhs12rcd13ifvqhvg","pricing_plan_id":"cebpf4jnsgd1na2vs0mg"},