{"last_updated":1719158924,"ttl":30,"version":"2.2","data":{"bikes":[{"bike_id":"81269665-b10d-43b4-985e-86ef92b9ce3b","system_id":"levelo_inurba_marseille","lat":43.31341,"lon":5.367098,"is_reserved":false,"is_disabled":false,"rental_uris":{"android":"levelo://app?vid=81269665-b10d-43b4-985e-86ef92b9ce3b","ios":"levelo://app?vid=81269665-b10d-43b4-985e-86ef92b9ce3b"},"vehicle_type_id":"4","last_reported":1719158925,"current_range_meters":24800,"station_id":"ce4bgr92rcd13ifvqc6g","pricing_plan_id":"cebpf4jnsgd1na2vs0mg"},{"bike_id":"46c44e4d-1b19-4844-aac2-1937976f6b71","system_id":"levelo_inurba_marseille","lat":43.312239,"lon":5.368562,"is_reserved":false,"is_disabled":false,"rental_uris":{"android":"levelo://app?vid=46c44e4d-1b19-4844-aac2-1937976f6b71","ios":"levelo://app?vid=46c44e4d-1b19-4844-aac2-1937976f6b71"},"vehicle_type_id":"4","last_reported":1719158925,"current_range_meters":15600,"station_id":"ce4bgl92rcd13ifvqbq0","pricing_plan_id":"cebpf4jnsgd1na2vs0mg"},{"bike_id":"4d0374e7-5283-4929-ab75-e84bdd086df8","system_id":"levelo_inurba_marseille","lat":43.312239,"lon":5.368562,"is_reserved":false,"is_disabled":false,"rental_uris":{"android":"levelo://app?vid=4d0374e7-5283-4929-ab75-e84bdd086df8","ios":"levelo://app?vid=4d0374e7-5283-4929-ab75-e84bdd086df8"},"vehicle_type_id":"4","last_reported":1719158925,"current_range_meters":3200,"station_id":"ce4bgl92rcd13ifvqbq0","pricing_plan_id":"cebpf4jnsgd1na2vs0mg"},{"bike_id":"dd55c2dd-c966-49a6-8875-c15acde9a057","system_id":"levelo_inurba_marseille","lat":43.312239,"lon":5.368562,"is_reserved":false,"is_disabled":false,"rental_uris":{"android":"levelo://app?vid=dd55c2dd-c966-49a6-8875-c15acde9a057","ios":"levelo://app?vid=dd55c2dd-c966-49a6-8875-c15acde9a057"},"vehicle_type_id":"4","last_reported":1719158925,"current_range_meters":18400,"station_id":"ce4bgl92rcd13ifvqbq0","pricing_plan_id":"cebpf4jnsgd1na2vs0mg"},{"bike_id":"82736f4f-2c34-452d-b920-0fadefdae820","system_id":"levelo_inurba_marseille","lat":43.312239,"lon":5.368562,"is_reserved":false,"is_disabled":false,"rental_uris":{"android":"levelo://app?vid=82736f4f-2c34-452d-b920-0fadefdae820","ios":"levelo://app?vid=82736f4f-2c34-452d-b920-0fadefdae820"},"vehicle_type_id":"4","last_reported":1719158925,"current_range_meters":12800,"station_id":"ce4bgl92rcd13ifvqbq0","pricing_plan_id":"cebpf4jnsgd1na2vs0mg"},{"bike_id":"54f6887e-238b-451e-b921-e878623a2d48","system_id":"levelo_inurba_marseille","lat":43.314811,"lon":5.373103,"is_reserved":false,"is_disabled":false,"rental_uris":{"android":"levelo://app?vid=54f6887e-238b-451e-b921-e878623a2d48","ios":"levelo://app?vid=54f6887e-238b-451e-b921-e878623a2d48"},"vehicle_type_id":"4","last_reported":1719158925,"current_range_meters":22800,"station_id":"ce4bgt12rcd13ifvqcd0","pricing_plan_id":"cebpf4jnsgd1na2vs0mg"},{"bike_id":"3e6229a9-daa1-4e8e-b7ec-60b28f97252f","system_id":"levelo_inurba_marseille","lat":43.314526,"lon":5.373624,"is_reserved":false,"is_disabled":false,"rental_uris":{"android":"levelo://app?vid=3e6229a9-daa1-4e8e-b7ec-60b28f97252f","ios":"levelo://app?vid=3e6229a9-daa1-4e8e-b7ec-60b28f97252f"},"vehicle_type_id":"4","last_reported":1719158925,"current_range_meters":800,"station_id":"","pricing_plan_id":"cebpf4jnsgd1na2vs0mg"},{"bike_id":"20f31c62-307b-4c16-93b6-6fcc5accd677","system_id":"levelo_inurba_marseille","lat":43.31458,"lon":5.373641,"is_reserved":false,"is_disabled":false,"rental_uris":{"android":"levelo://app?vid=20f31c62-307b-4c16-93b6-6fcc5accd677","ios":"levelo://app?vid=20f31c62-307b-4c16-93b6-6fcc5accd677"},"vehicle_type_id":"4","last_reported":1719158925,"current_range_meters":12000,"station_id":"","pricing_plan_id":"cebpf4jnsgd1na2vs0mg"},{"bike_id":"24d509b5-ef37-465b-b8cc-6a71986a5c4f","system_id":"levelo_inurba_marseille","lat":43.314585,"lon":5.373727,"is_reserved":false,"is_disabled":false,"rental_uris":{"android":"levelo://app?vid=24d509b5-ef37-465b-b8cc-6a71986a5c4f","ios":"levelo://app?vid=24d509b5-ef37-465b-b8cc-6a71986a5c4f"},"vehicle_type_id":"4","last_reported":1719158925,"current_range_meters":22400,"station_id":"ce4bgt12rcd13ifvqcd0","pricing_plan_id":"cebpf4jnsgd1na2vs0mg"},{"bike_id":"77460ccb-960a-4153-8783-e0a172f31a95","system_id":"levelo_inurba_marseille","lat":43.314565,"lon":5.373768,"is_reserved":false,"is_disabled":false,"rental_uris":{"android":"levelo://app?vid=77460ccb-960a-4153-8783-e0a172f31a95","ios":"levelo://app?vid=77460ccb-960a-4153-8783-e0a172f31a95"},"vehicle_type_id":"4","last_reported":1719158925,"current_range_meters":5200,"station_id":"","pricing_plan_id":"cebpf4jnsgd1na2vs0mg"},{"bike_id":"d7c21ce2-a776-470c-b443-51e8cb8311e6","system_id":"levelo_inurba_marseille","lat":43.31479,"lon":5.37372,"is_reserved":false,"is_disabled":false,"rental_uris":{"android":"levelo://app?vid=d7c21ce2-a776-470c-b443-51e8cb8311e6","ios":"levelo://app?vid=d7c21ce2-a776-470c-b443-51e8cb8311e6"},"vehicle_type_id":"4","last_reported":1719158925,"current_range_meters":10400,"station_id":"","pricing_plan_id":"cebpf4jnsgd1na2vs0mg"},{"bike_id":"84c20ea0-8eca-472f-815a-fc3c9508882b","system_id":"levelo_inurba_marseille","lat":43.30623,"lon":5.368915,"is_reserved":false,"is_disabled":false,"rental_uris":{"android":"levelo://app?vid=84c20ea0-8eca-472f-815a-fc3c9508882b","ios":"levelo://app?vid=84c20ea0-8eca-472f-815a-fc3c9508882b"},"vehicle_type_id":"4","last_reported":1719158925,"current_range_meters":0,"station_id":"","pricing_plan_id":"cebpf4jnsgd1na2vs0mg"},{"bike_id":"a43e7e1e-e283-47ba-bb74-77104a25b45c","system_id":"levelo_inurba_marseille","lat":43.30532,"lon":5.36661,"is_reserved":false,"is_disabled":false,"rental_uris":{"android":"levelo://app?vid=a43e7e1e-e283-47ba-bb74-77104a25b45c","ios":"levelo://app?vid=a43e7e1e-e283-47ba-bb74-77104a25b45c"},"vehicle_type_id":"4","last_reported":1719158925,"current_range_meters":18000,"station_id":"","pricing_plan_id":"cebpf4jnsgd1na2vs0mg"},{"bike_id":"368fbb62-902f-401f-964f-7d81b2dac426","system_id":"levelo_inurba_marseille","lat":43.311125,"lon":5.377624,"is_reserved":false,"is_disabled":false,"rental_uris":{"android":"levelo://app?vid=368fbb62-902f-401f-964f-7d81b2dac426","ios":"levelo://app?vid=368fbb62-902f-401f-964f-7d81b2dac426"},"vehicle_type_id":"4","last_reported":1719158925,"current_range_meters":10800,"station_id":"ce4bgt92rcd13ifvqcg0","pricing_plan_id":"cebpf4jnsgd1na2vs0mg"},{"bike_id":"ea51df5a-fc71-41e0-849a-4fcfa9489753","system_id":"levelo_inurba_marseille","lat":43.311125,"lon":5.377624,"is_reserved":false,"is_disabled":false,"rental_uris":{"android":"levelo://app?vid=ea51df5a-fc71-41e0-849a-4fcfa9489753","ios":"levelo://app?vid=ea51df5a-fc71-41e0-849a-4fcfa9489753"},"vehicle_type_id":"4","last_reported":1719158925,"current_range_meters":23200,"station_id":"ce4bgt92rcd13ifvqcg0","pricing_plan_id":"cebpf4jnsgd1na2vs0mg"},{"bike_id":"e71c3abb-b2c8-47be-8a90-613fa00b250d","system_id":"levelo_inurba_marseille","lat":43.311131,"lon":5.377651,"is_reserved":false,"is_disabled":false,"rental_uris":{"android":"levelo://app?vid=e71c3abb-b2c8-47be-8a90-613fa00b250d","ios":"levelo://app?vid=e71c3abb-b2c8-47be-8a90-613fa00b250d"},"vehicle_type_id":"4","last_reported":1719158925,"current_range_meters":0,"station_id":"ce4bgt92rcd13ifvqcg0","pricing_plan_id":"cebpf4jnsgd1na2vs0mg"},{"bike_id":"edea6bb6-5df0-4db6-8fca-092697bdbfc7","system_id":"levelo_inurba_marseille","lat":43.307945,"lon":5.376487,"is_reserved":false,"is_disabled":false,"rental_uris":{"android":"levelo://app?vid=edea6bb6-5df0-4db6-8fca-092697bdbfc7","ios":"levelo://app?vid=edea6bb6-5df0-4db6-8fca-092697bdbfc7"},"vehicle_type_id":"4","last_reported":1719158925,"current_range_meters":18400,"station_id":"ce4bgv92rcd13ifvqcq0","pricing_plan_id":"cebpf4jnsgd1na2vs0mg"},{"bike_id":"37cabfc4-058d-495e-938c-ca1d61295c05","system_id":"levelo_inurba_marseille","lat":43.307945,"lon":5.376487,"is_reserved":false,"is_disabled":false,"rental_uris":{"android":"levelo://app?vid=37cabfc4-058d-495e-938c-ca1d61295c05","ios":"levelo://app?vid=37cabfc4-058d-495e-938c-ca1d61295c05"},"vehicle_type_id":"4","last_reported":1719158925,"current_range_meters":1600,"station_id":"ce4bgv92rcd13ifvqcq0","pricing_plan_id":"cebpf4jnsgd1na2vs0mg"},{"bike_id":"7ccc0f7b-2284-42fb-b0d2-f91bc2009766","system_id":"levelo_inurba_marseille","lat":43.317075,"lon":5.377367,"is_reserved":false,"is_disabled":false,"rental_uris":{"android":"levelo://app?vid=7ccc0f7b-2284-42fb-b0d2-f91bc2009766","ios":"levelo://app?vid=7ccc0f7b-2284-42fb-b0d2-f91bc2009766"},"vehicle_type_id":"4","last_reported":1719158925,"current_range_meters":15200,"station_id":"ce4bgth2rcd13ifvqch0","pricing_plan_id":"cebpf4jnsgd1na2vs0mg"},{"bike_id":"1752e8b2-9b3b-4c77-b166-b537876db2bd","system_id":"levelo_inurba_marseille","lat":43.315367,"lon":5.380283,"is_reserved":false,"is_disabled":false,"rental_uris":{"android":"levelo://app?vid=1752e8b2-9b3b-4c77-b166-b537876db2bd","ios":"levelo://app?vid=1752e8b2-9b3b-4c77-b166-b537876db2bd"},"vehicle_type_id":"4","last_reported":1719158925,"current_range_meters":0,"station_id":"ce4bhsp2rcd13ifvqi50","pricing_plan_id":"cebpf4jnsgd1na2vs0mg"},{"bike_id":"1bc920c8-8b89-437c-9cde-5783116c5366","system_id":"levelo_inurba_marseille","lat":43.315293,"lon":5.380349,"is_reserved":false,"is_disabled":false,"rental_uris":{"android":"levelo://app?vid=1bc920c8-8b89-437c-9cde-5783116c5366","ios":"levelo://app?vid=1bc920c8-8b89-437c-9cde-5783116c5366"},"vehicle_type_id":"4","last_reported":1719158925,"current_range_meters":2000,"station_id":"ce4bhsp2rcd13ifvqi50","pricing_plan_id":"cebpf4jnsgd1na2vs0mg"},{"bike_id":"cb0d51e5-d665-455b-b0e6-fbb2cbda4230","system_id":"levelo_inurba_marseille","lat":43.31531,"lon":5.38042,"is_reserved":false,"is_disabled":false,"rental_uris":{"android":"levelo://app?vid=cb0d51e5-d665-455b-b0e6-fbb2cbda4230","ios":"levelo://app?vid=cb0d51e5-d665-455b-b0e6-fbb2cbda4230"},"vehicle_type_id":"4","last_reported":1719158925,"current_range_meters":0,"station_id":"ce4bhsp2rcd13ifvqi50","pricing_plan_id":"cebpf4jnsgd1na2vs0mg"},{"bike_id":"4e8a3766-cab8-490e-8363-3581d251f836","system_id":"levelo_inurba_marseille","lat":43.303666,"lon":5.37365,"is_reserved":false,"is_disabled":false,"rental_uris":{"android":"levelo://app?vid=4e8a3766-cab8-490e-8363-3581d251f836","ios":"levelo://app?vid=4e8a3766-cab8-490e-8363-3581d251f836"},"vehicle_type_id":"4","last_reported":1719158925,"current_range_meters":26000,"station_id":"","pricing_plan_id":"cebpf4jnsgd1na2vs0mg"},{"bike_id":"c8d74784-cfa3-4dc0-a55e-c53d6b6b7590","system_id":"levelo_inurba_marseille","lat":43.31322,"lon":5.38197,"is_reserved":false,"is_disabled":false,"rental_uris":{"android":"levelo://app?vid=c8d74784-cfa3-4dc0-a55e-c53d6b6b7590","ios":"levelo://app?vid=c8d74784-cfa3-4dc0-a55e-c53d6b6b7590"},"vehicle_type_id":"4","last_reported":1719158925,"current_range_meters":18800,"station_id":"","pricing_plan_id":"cebpf4jnsgd1na2vs0mg"},{"bike_id":"90f90f48-6898-4335-a92e-d0fba2149c99","system_id":"levelo_inurba_marseille","lat":43.303046,"lon":5.368981,"is_reserved":false,"is_disabled":false,"rental_uris":{"android":"levelo://app?vid=90f90f48-6898-4335-a92e-d0fba2149c99","ios":"levelo://app?vid=90f90f48-6898-4335-a92e-d0fba2149c99"},"vehicle_type_id":"4","last_reported":1719158925,"current_range_meters":9200,"station_id":"ce4bgqh2rcd13ifvqc5g","pricing_plan_id":"cebpf4jnsgd1na2vs0mg"},{"bike_id":"8f185663-97e8-47c9-b89c-53d71dba30b8","system_id":"levelo_inurba_marseille","lat":43.302784,"lon":5.377158,"is_reserved":false,"is_disabled":false,"rental_uris":{"android":"levelo://app?vid=8f185663-97e8-47c9-b89c-53d71dba30b8","ios":"levelo://app?vid=8f185663-97e8-47c9-b89c-53d71dba30b8"},"vehicle_type_id":"4","last_reported":1719158925,"current_range_meters":1600,"station_id":"ce4bguh2rcd13ifvqcj0","pricing_plan_id":"cebpf4jnsgd1na2vs0mg"},{"bike_id":"4945704b-12bf-431c-86b2-bc37c5f9a20b","system_id":"levelo_inurba_marseille","lat":43.313571,"lon":5.384829,"is_reserved":false,"is_disabled":false,"rental_uris":{"android":"levelo://app?vid=4945704b-12bf-431c-86b2-bc37c5f9a20b","ios":"levelo://app?vid=4945704b-12bf-431c-86b2-bc37c5f9a20b"},"vehicle_type_id":"4","last_reported":1719158925,"current_range_meters":26800,"station_id":"ce4bgt92rcd13ifvqcf0","pricing_plan_id":"cebpf4jnsgd1na2vs0mg"},{"bike_id":"f28d3434-dc52-41f4-8157-3ec33beb0476","system_id":"levelo_inurba_marseille","lat":43.313571,"lon":5.384829,"is_reserved":false,"is_disabled":false,"rental_uris":{"android":"levelo://app?vid=f28d3434-dc52-41f4-8157-3ec33beb0476","ios":"levelo://app?vid=f28d3434-dc52-41f4-8157-3ec33beb0476"},"vehicle_type_id":"4","last_reported":1719158925,"current_range_meters":3600,"station_id":"ce4bgt92rcd13ifvqcf0","pricing_plan_id":"cebpf4jnsgd1na2vs0mg"},{"bike_id":"0dc5855a-ff5c-4a24-ac18-f94f4dd8b1c1","system_id":"levelo_inurba_marseille","lat":43.299724,"lon":5.371829,"is_reserved":false,"is_disabled":false,"rental_uris":{"android":"levelo://app?vid=0dc5855a-ff5c-4a24-ac18-f94f4dd8b1c1","ios":"levelo://app?vid=0dc5855a-ff5c-4a24-ac18-f94f4dd8b1c1"},"vehicle_type_id":"4","last_reported":1719158925,"current_range_meters":19600,"station_id":"ce4bgr92rcd13ifvqc7g","pricing_plan_id":"cebpf4jnsgd1na2vs0mg"},{"bike_id":"e1bed244-5b48-4028-a8c9-3db3632f04cf","system_id":"levelo_inurba_marseille","lat":43.299293,"lon":5.374483,"is_reserved":false,"is_disabled":false,"rental_uris":{"android":"levelo://app?vid=e1bed244-5b48-4028-a8c9-3db3632f04cf","ios":"levelo://app?vid=e1bed244-5b48-4028-a8c9-3db3632f04cf"},"vehicle_type_id":"4","last_reported":1719158925,"current_range_meters":23600,"station_id":"ce4bgjh2rcd13ifvqbg0","pricing_plan_id":"cebpf4jnsgd1na2vs0mg"},{"bike_id":"28528a68-fc81-4214-8165-684cb1ef1b7e","system_id":"levelo_inurba_marseille","lat":43.298433,"lon":5.362774,"is_reserved":false,"is_disabled":false,"rental_uris":{"android":"levelo://app?vid=28528a68-fc81-4214-8165-684cb1ef1b7e","ios":"levelo://app?vid=28528a68-fc81-4214-8165-684cb1ef1b7e"},"vehicle_type_id":"4","last_reported":1719158925,"current_range_meters":26400,"station_id":"ce4bgpp2rcd13ifvqc3g","pricing_plan_id":"cebpf4jnsgd1na2vs0mg"},{"bike_id":"6246922f-8abe-4d28-ad85-1055487d0416","system_id":"levelo_inurba_marseille","lat":43.298433,"lon":5.362774,"is_reserved":false,"is_disabled":false,"rental_uris":{"android":"levelo://app?vid=6246922f-8abe-4d28-ad85-1055487d0416","ios":"levelo://app?vid=6246922f-8abe-4d28-ad85-1055487d0416"},"vehicle_type_id":"4","last_reported":1719158925,"current_range_meters":13200,"station_id":"ce4bgpp2rcd13ifvqc3g","pricing_plan_id":"cebpf4jnsgd1na2vs0mg"},{"bike_id":"b9c02676-7c99-4977-ac70-efeb7b414cd5","system_id":"levelo_inurba_marseille","lat":43.298433,"lon":5.362774,"is_reserved":false,"is_disabled":false,"rental_uris":{"android":"levelo://app?vid=b9c02676-7c99-4977-ac70-efeb7b414cd5","ios":"levelo://app?vid=b9c02676-7c99-4977-ac70-efeb7b414cd5"},"vehicle_type_id":"4","last_reported":1719158925,"current_range_meters":31200,"station_id":"ce4bgpp2rcd13ifvqc3g","pricing_plan_id":"cebpf4jnsgd1na2vs0mg"},{"bike_id":"d7d891f4-4204-47be-b6ac-ff99a1a4cdde","system_id":"levelo_inurba_marseille","lat":43.299243,"lon":5.37481,"is_reserved":false,"is_disabled":false,"rental_uris":{"android":"levelo://app?vid=d7d891f4-4204-47be-b6ac-ff99a1a4cdde","ios":"levelo://app?vid=d7d891f4-4204-47be-b6ac-ff99a1a4cdde"},"vehicle_type_id":"4","last_reported":1719158925,"current_range_meters":0,"station_id":"ce4bgjh2rcd13ifvqbg0","pricing_plan_id":"cebpf4jnsgd1na2vs0mg"},{"bike_id":"c2c416b2-8b98-4930-829a-05bd056b4015","system_id":"levelo_inurba_marseille","lat":43.311722,"lon":5.387247,"is_reserved":false,"is_disabled":false,"rental_uris":{"android":"levelo://app?vid=c2c416b2-8b98-4930-829a-05bd056b4015","ios":"levelo://app?vid=c2c416b2-8b98-4930-829a-05bd056b4015"},"vehicle_type_id":"4","last_reported":1719158925,"current_range_meters":12000,"station_id":"ce4bgv12rcd13ifvqcp0","pricing_plan_id":"cebpf4jnsgd1na2vs0mg"},{"bike_id":"668ad80e-ebec-4830-9c1c-398218650d5d","system_id":"levelo_inurba_marseille","lat":43.297794,"lon":5.370888,"is_reserved":false,"is_disabled":false,"rental_uris":{"android":"levelo://app?vid=668ad80e-ebec-4830-9c1c-398218650d5d","ios":"levelo://app?vid=668ad80e-ebec-4830-9c1c-398218650d5d"},"vehicle_type_id":"4","last_reported":1719158925,"current_range_meters":28000,"station_id":"ce4bgop2rcd13ifvqc1g","pricing_plan_id":"cebpf4jnsgd1na2vs0mg"},{"bike_id":"e9d17947-e53a-4d8a-a3a6-9a6821c914eb","system_id":"levelo_inurba_marseille","lat":43.31427,"lon":5.38749,"is_reserved":false,"is_disabled":false,"rental_uris":{"android":"levelo://app?vid=e9d17947-e53a-4d8a-a3a6-9a6821c914eb","ios":"levelo://app?vid=e9d17947-e53a-4d8a-a3a6-9a6821c914eb"},"vehicle_type_id":"4","last_reported":1719158925,"current_range_meters":3200,"station_id":"","pricing_plan_id":"cebpf4jnsgd1na2vs0mg"},{"bike_id":"0e0e1733-6cf9-4de6-b1cc-7d8047fd60e8","system_id":"levelo_inurba_marseille","lat":43.32287,"lon":5.38273,"is_reserved":false,"is_disabled":false,"rental_uris":{"android":"levelo://app?vid=0e0e1733-6cf9-4de6-b1cc-7d8047fd60e8","ios":"levelo://app?vid=0e0e1733-6cf9-4de6-b1cc-7d8047fd60e8"},"vehicle_type_id":"4","last_reported":1719158925,"current_range_meters":5200,"station_id":"ce4bhr12rcd13ifvqhqg","pricing_plan_id":"cebpf4jnsgd1na2vs0mg"},{"bike_id":"47d8b23c-4c93-414b-a0d6-0712a6743209","system_id":"levelo_inurba_marseille","lat":43.322872,"lon":5.382756,"is_reserved":false,"is_disabled":false,"rental_uris":{"android":"levelo://app?vid=47d8b23c-4c93-414b-a0d6-0712a6743209","ios":"levelo://app?vid=47d8b23c-4c93-414b-a0d6-0712a6743209"},"vehicle_type_id":"4","last_reported":1719158925,"current_range_meters":17600,"station_id":"ce4bhr12rcd13ifvqhqg","pricing_plan_id":"cebpf4jnsgd1na2vs0mg"},{"bike_id":"9620de09-f461-454b-af8d-b8fa388de29f","system_id":"levelo_inurba_marseille","lat":43.297163,"lon":5.365866,"is_reserved":false,"is_disabled":false,"rental_uris":{"android":"levelo://app?vid=9620de09-f461-454b-af8d-b8fa388de29f","ios":"levelo://app?vid=9620de09-f461-454b-af8d-b8fa388de29f"},"vehicle_type_id":"4","last_reported":1719158925,"current_range_meters":13200,"station_id":"ce4bgn12rcd13ifvqbt0","pricing_plan_id":"cebpf4jnsgd1na2vs0mg"},{"bike_id":"f150b6b6-fb27-4bd2-a9df-6635cdbe7332","system_id":"levelo_inurba_marseille","lat":43.29703,"lon":5.36603,"is_reserved":false,"is_disabled":false,"rental_uris":{"android":"levelo://app?vid=f150b6b6-fb27-4bd2-a9df-6635cdbe7332","ios":"levelo://app?vid=f150b6b6-fb27-4bd2-a9df-6635cdbe7332"},"vehicle_type_id":"4","last_reported":1719158925,"current_range_meters":22000,"station_id":"ce4bgn12rcd13ifvqbt0","pricing_plan_id":"cebpf4jnsgd1na2vs0mg"},{"bike_id":"4b0438e5-5a65-4b39-896c-df05b17e82b1","system_id":"levelo_inurba_marseille","lat":43.296131,"lon":5.370791,"is_reserved":false,"is_disabled":false,"rental_uris":{"android":"levelo://app?vid=4b0438e5-5a65-4b39-896c-df05b17e82b1","ios":"levelo://app?vid=4b0438e5-5a65-4b39-896c-df05b17e82b1"},"vehicle_type_id":"4","last_reported":1719158925,"current_range_meters":10000,"station_id":"ce4bgnh2rcd13ifvqc0g","pricing_plan_id":"cebpf4jnsgd1na2vs0mg"},{"bike_id":"6aeec2c4-caad-44ac-a3b4-3f973542cc75","system_id":"levelo_inurba_marseille","lat":43.296129,"lon":5.370777,"is_reserved":false,"is_disabled":false,"rental_uris":{"android":"levelo://app?vid=6aeec2c4-caad-44ac-a3b4-3f973542cc75","ios":"levelo://app?vid=6aeec2c4-caad-44ac-a3b4-3f973542cc75"},"vehicle_type_id":"4","last_reported":1719158925,"current_range_meters":19600,"station_id":"ce4bgnh2rcd13ifvqc0g","pricing_plan_id":"cebpf4jnsgd1na2vs0mg"},{"bike_id":"b83a6ba1-4940-4ee6-bc24-6820dd922de6","system_id":"levelo_inurba_marseille","lat":43.296129,"lon":5.370777,"is_reserved":false,"is_disabled":false,"rental_uris":{"android":"levelo://app?vid=b83a6ba1-4940-4ee6-bc24-6820dd922de6","ios":"levelo://app?vid=b83a6ba1-4940-4ee6-bc24-6820dd922de6"},"vehicle_type_id":"4","last_reported":1719158925,"current_range_meters":16800,"station_id":"ce4bgnh2rcd13ifvqc0g","pricing_plan_id":"cebpf4jnsgd1na2vs0mg"},{"bike_id":"2fb5a9c6-79f7-41f1-a5be-9da82eea6084","system_id":"levelo_inurba_marseille","lat":43.29916,"lon":5.38134,"is_reserved":false,"is_disabled":false,"rental_uris":{"android":"levelo://app?vid=2fb5a9c6-79f7-41f1-a5be-9da82eea6084","ios":"levelo://app?vid=2fb5a9c6-79f7-41f1-a5be-9da82eea6084"},"vehicle_type_id":"4","last_reported":1719158925,"current_range_meters":6400,"station_id":"ce4bgj12rcd13ifvqbc0","pricing_plan_id":"cebpf4jnsgd1na2vs0mg"},{"bike_id":"626fc751-d8ca-4f16-8f16-50a3406974b6","system_id":"levelo_inurba_marseille","lat":43.29908,"lon":5.38139,"is_reserved":false,"is_disabled":false,"rental_uris":{"android":"levelo://app?vid=626fc751-d8ca-4f16-8f16-50a3406974b6","ios":"levelo://app?vid=626fc751-d8ca-4f16-8f16-50a3406974b6"},"vehicle_type_id":"4","last_reported":1719158925,"current_range_meters":2000,"station_id":"ce4bgj12rcd13ifvqbc0","pricing_plan_id":"cebpf4jnsgd1na2vs0mg"},{"bike_id":"cebac8b3-7a51-4070-941d-3342566d77e1","system_id":"levelo_inurba_marseille","lat":43.29608,"lon":5.37314,"is_reserved":false,"is_disabled":false,"rental_uris":{"android":"levelo://app?vid=cebac8b3-7a51-4070-941d-3342566d77e1","ios":"levelo://app?vid=cebac8b3-7a51-4070-941d-3342566d77e1"},"vehicle_type_id":"4","last_reported":1719158925,"current_range_meters":28800,"station_id":"","pricing_plan_id":"cebpf4jnsgd1na2vs0mg"},{"bike_id":"84ee8bd6-20e5-4561-971b-38a78294b279","system_id":"levelo_inurba_marseille","lat":43.30961,"lon":5.39029,"is_reserved":false,"is_disabled":false,"rental_uris":{"android":"levelo://app?vid=84ee8bd6-20e5-4561-971b-38a78294b279","ios":"levelo://app?vid=84ee8bd6-20e5-4561-971b-38a78294b279"},"vehicle_type_id":"4","last_reported":1719158925,"current_range_meters":0,"station_id":"ce4bgup2rcd13ifvqco0","pricing_plan_id":"cebpf4jnsgd1na2vs0mg"},{"bike_id":"0b314b0b-6d3e-4e6a-bd89-1d1839191bbb","system_id":"levelo_inurba_marseille","lat":43.317557,"lon":5.390173,"is_reserved":false,"is_disabled":false,"rental_uris":{"android":"levelo://app?vid=0b314b0b-6d3e-4e6a-bd89-1d1839191bbb","ios":"levelo://app?vid=0b314b0b-6d3e-4e6a-bd89-1d1839191bbb"},"vehicle_type_id":"4","last_reported":1719158925,"current_range_meters":17200,"station_id":"ce4bhqp2rcd13ifvqhng","pricing_plan_id":"cebpf4jnsgd1na2vs0mg"},{"bike_id":"792ba260-df74-41ea-8264-338b975fa44d","system_id":"levelo_inurba_marseille","lat":43.31754,"lon":5.39023,"is_reserved":false,"is_disabled":false,"rental_uris":{"android":"levelo://app?vid=792ba260-df74-41ea-8264-338b975fa44d","ios":"levelo://app?vid=792ba260-df74-41ea-8264-338b975fa44d"},"vehicle_type_id":"4","last_reported":1719158925,"current_range_meters":18800,"station_id":"ce4bhqp2rcd13ifvqhng","pricing_plan_id":"cebpf4jnsgd1na2vs0mg"},{"bike_id":"454182c7-d66f-45bc-a8a8-890b23bb4b01","system_id":"levelo_inurba_marseille","lat":43.29704,"lon":5.37879,"is_reserved":false,"is_disabled":false,"rental_uris":{"android":"levelo://app?vid=454182c7-d66f-45bc-a8a8-890b23bb4b01","ios":"levelo://app?vid=454182c7-d66f-45bc-a8a8-890b23bb4b01"},"vehicle_type_id":"4","last_reported":1719158925,"current_range_meters":6800,"station_id":"","pricing_plan_id":"cebpf4jnsgd1na2vs0mg"},{"bike_id":"4238a267-32bc-4f34-a4d6-509b8dfacb8e","system_id":"levelo_inurba_marseille","lat":43.30432,"lon":5.38895,"is_reserved":false,"is_disabled":false,"rental_uris":{"android":"levelo://app?vid=4238a267-32bc-4f34-a4d6-509b8dfacb8e","ios":"levelo://app?vid=4238a267-32bc-4f34-a4d6-509b8dfacb8e"},"vehicle_type_id":"4","last_reported":1719158925,"current_range_meters":0,"station_id":"ce4bgk12rcd13ifvqbi0","pricing_plan_id":"cebpf4jnsgd1na2vs0mg"},{"bike_id":"61d942e8-0a30-4e0b-804e-3e59246b9340","system_id":"levelo_inurba_marseille","lat":43.319179,"lon":5.407725,"is_reserved":false,"is_disabled":false,"rental_uris":{"android":"levelo://app?vid=61d942e8-0a30-4e0b-804e-3e59246b9340","ios":"levelo://app?vid=61d942e8-0a30-4e0b-804e-3e59246b9340"},"vehicle_type_id":"4","last_reported":1719158925,"current_range_meters":24000,"station_id":"ce4bhq12rcd13ifvqhig","pricing_plan_id":"cebpf4jnsgd1na2vs0mg"},{"bike_id":"3aa2d0d7-b983-4643-a6c4-d264771eb1ed","system_id":"levelo_inurba_marseille","lat":43.296263,"lon":5.377094,"is_reserved":false,"is_disabled":false,"rental_uris":{"android":"levelo://app?vid=3aa2d0d7-b983-4643-a6c4-d264771eb1ed","ios":"levelo://app?vid=3aa2d0d7-b983-4643-a6c4-d264771eb1ed"},"vehicle_type_id":"4","last_reported":1719158925,"current_range_meters":14000,"station_id":"ce4bgi92rcd13ifvqb90","pricing_plan_id":"cebpf4jnsgd1na2vs0mg"},{"bike_id":"383fc7ea-b373-4426-93b9-b5d55d331a27","system_id":"levelo_inurba_marseille","lat":43.296263,"lon":5.377094,"is_reserved":false,"is_disabled":false,"rental_uris":{"android":"levelo://app?vid=383fc7ea-b373-4426-93b9-b5d55d331a27","ios":"levelo://app?vid=383fc7ea-b373-4426-93b9-b5d55d331a27"},"vehicle_type_id":"4","last_reported":1719158925,"current_range_meters":400,"station_id":"ce4bgi92rcd13ifvqb90","pricing_plan_id":"cebpf4jnsgd1na2vs0mg"},{"bike_id":"844711e2-50c0-4903-8f4f-0450af2dc209","system_id":"levelo_inurba_marseille","lat":43.299707,"lon":5.384859,"is_reserved":false,"is_disabled":false,"rental_uris":{"android":"levelo://app?vid=844711e2-50c0-4903-8f4f-0450af2dc209","ios":"levelo://app?vid=844711e2-50c0-4903-8f4f-0450af2dc209"},"vehicle_type_id":"4","last_reported":1719158925,"current_range_meters":24000,"station_id":"ce4bgj92rcd13ifvqbd0","pricing_plan_id":"cebpf4jnsgd1na2vs0mg"},{"bike_id":"27387e19-8fe0-4db7-b195-f537a991034c","system_id":"levelo_inurba_marseille","lat":43.299707,"lon":5.384859,"is_reserved":false,"is_disabled":false,"rental_uris":{"android":"levelo://app?vid=27387e19-8fe0-4db7-b195-f537a991034c","ios":"levelo://app?vid=27387e19-8fe0-4db7-b195-f537a991034c"},"vehicle_type_id":"4","last_reported":1719158925,"current_range_meters":0,"station_id":"ce4bgj92rcd13ifvqbd0","pricing_plan_id":"cebpf4jnsgd1na2vs0mg"},{"bike_id":"98168777-a647-42a7-83a9-9ed9ba4c29fa","system_id":"levelo_inurba_marseille","lat":43.295145,"lon":5.37447,"is_reserved":false,"is_disabled":false,"rental_uris":{"android":"levelo://app?vid=98168777-a647-42a7-83a9-9ed9ba4c29fa","ios":"levelo://app?vid=98168777-a647-42a7-83a9-9ed9ba4c29fa"},"vehicle_type_id":"4","last_reported":1719158925,"current_range_meters":24000,"station_id":"","pricing_plan_id":"cebpf4jnsgd1na2vs0mg"},{"bike_id":"49376045-01ab-41de-8e6f-53786d34755b","system_id":"levelo_inurba_marseille","lat":43.32367,"lon":5.388836,"is_reserved":false,"is_disabled":false,"rental_uris":{"android":"levelo://app?vid=49376045-01ab-41de-8e6f-53786d34755b","ios":"levelo://app?vid=49376045-01ab-41de-8e6f-53786d34755b"},"vehicle_type_id":"4","last_reported":1719158925,"current_range_meters":0,"station_id":"ce4bhqp2rcd13ifvqhog","pricing_plan_id":"cebpf4jnsgd1na2vs0mg"},{"bike_id":"e72e5663-d79d-40c3-8c5e-71e68beb6b5c","system_id":"levelo_inurba_marseille","lat":43.29309,"lon":5.37179,"is_reserved":false,"is_disabled":false,"rental_uris":{"android":"levelo://app?vid=e72e5663-d79d-40c3-8c5e-71e68beb6b5c","ios":"levelo://app?vid=e72e5663-d79d-40c3-8c5e-71e68beb6b5c"},"vehicle_type_id":"4","last_reported":1719158925,"current_range_meters":0,"station_id":"ce4bgh92rcd13ifvqb40","pricing_plan_id":"cebpf4jnsgd1na2vs0mg"},{"bike_id":"d698ab58-e025-4acf-9507-6d939cfc838b","system_id":"levelo_inurba_marseille","lat":43.292749,"lon":5.368402,"is_reserved":false,"is_disabled":false,"rental_uris":{"android":"levelo://app?vid=d698ab58-e025-4acf-9507-6d939cfc838b","ios":"levelo://app?vid=d698ab58-e025-4acf-9507-6d939cfc838b"},"vehicle_type_id":"4","last_reported":1719158925,"current_range_meters":0,"station_id":"ce4bhbp2rcd13ifvqesg","pricing_plan_id":"cebpf4jnsgd1na2vs0mg"},{"bike_id":"1587f0cf-001a-4c40-aac4-e5337a36eabf","system_id":"levelo_inurba_marseille","lat":43.292749,"lon":5.368402,"is_reserved":false,"is_disabled":false,"rental_uris":{"android":"levelo://app?vid=1587f0cf-001a-4c40-aac4-e5337a36eabf","ios":"levelo://app?vid=1587f0cf-001a-4c40-aac4-e5337a36eabf"},"vehicle_type_id":"4","last_reported":1719158925,"current_range_meters":0,"station_id":"ce4bhbp2rcd13ifvqesg","pricing_plan_id":"cebpf4jnsgd1na2vs0mg"},{"bike_id":"a8f43573-3df3-464a-aa94-65a81f38c07d","system_id":"levelo_inurba_marseille","lat":43.29306,"lon":5.37457,"is_reserved":false,"is_disabled":false,"rental_uris":{"android":"levelo://app?vid=a8f43573-3df3-464a-aa94-65a81f38c07d","ios":"levelo://app?vid=a8f43573-3df3-464a-aa94-65a81f38c07d"},"vehicle_type_id":"4","last_reported":1719158925,"current_range_meters":0,"station_id":"ce4bgi12rcd13ifvqb70","pricing_plan_id":"cebpf4jnsgd1na2vs0mg"},{"bike_id":"804cf2ef-173c-48ef-b7ef-297f6784509a","system_id":"levelo_inurba_marseille","lat":43.293009,"lon":5.374584,"is_reserved":false,"is_disabled":false,"rental_uris":{"android":"levelo://app?vid=804cf2ef-173c-48ef-b7ef-297f6784509a","ios":"levelo://app?vid=804cf2ef-173c-48ef-b7ef-297f6784509a"},"vehicle_type_id":"4","last_reported":1719158925,"current_range_meters":2800,"station_id":"ce4bgi12rcd13ifvqb70","pricing_plan_id":"cebpf4jnsgd1na2vs0mg"},{"bike_id":"379f3e3f-2784-4560-acb6-8564aff7233b","system_id":"levelo_inurba_marseille","lat":43.302992,"lon":5.392136,"is_reserved":false,"is_disabled":false,"rental_uris":{"android":"levelo://app?vid=379f3e3f-2784-4560-acb6-8564aff7233b","ios":"levelo://app?vid=379f3e3f-2784-4560-acb6-8564aff7233b"},"vehicle_type_id":"4","last_reported":1719158925,"current_range_meters":17600,"station_id":"ce4bgkh2rcd13ifvqbk0","pricing_plan_id":"cebpf4jnsgd1na2vs0mg"},{"bike_id":"7ce5df04-77be-40a9-9bb4-19be7a13dc72","system_id":"levelo_inurba_marseille","lat":43.292311,"lon":5.360731,"is_reserved":false,"is_disabled":false,"rental_uris":{"android":"levelo://app?vid=7ce5df04-77be-40a9-9bb4-19be7a13dc72","ios":"levelo://app?vid=7ce5df04-77be-40a9-9bb4-19be7a13dc72"},"vehicle_type_id":"4","last_reported":1719158925,"current_range_meters":14800,"station_id":"ce4bhbh2rcd13ifvqeqg","pricing_plan_id":"cebpf4jnsgd1na2vs0mg"},{"bike_id":"19982d88-38e3-4295-adf9-880984d23307","system_id":"levelo_inurba_marseille","lat":43.293009,"lon":5.374584,"is_reserved":false,"is_disabled":false,"rental_uris":{"android":"levelo://app?vid=19982d88-38e3-4295-adf9-880984d23307","ios":"levelo://app?vid=19982d88-38e3-4295-adf9-880984d23307"},"vehicle_type_id":"4","last_reported":1719158925,"current_range_meters":10000,"station_id":"ce4bgi12rcd13ifvqb70","pricing_plan_id":"cebpf4jnsgd1na2vs0mg"},{"bike_id":"b6118d82-b0fc-4334-82f5-067af5247ecb","system_id":"levelo_inurba_marseille","lat":43.291675,"lon":5.371583,"is_reserved":false,"is_disabled":false,"rental_uris":{"android":"levelo://app?vid=b6118d82-b0fc-4334-82f5-067af5247ecb","ios":"levelo://app?vid=b6118d82-b0fc-4334-82f5-067af5247ecb"},"vehicle_type_id":"4","last_reported":1719158925,"current_range_meters":0,"station_id":"ce4bha92rcd13ifvqeh0","pricing_plan_id":"cebpf4jnsgd1na2vs0mg"},{"bike_id":"e9f8c0c0-ac3d-46e8-9470-e1799570f886","system_id":"levelo_inurba_marseille","lat":43.332247,"lon":5.380777,"is_reserved":false,"is_disabled":false,"rental_uris":{"android":"levelo://app?vid=e9f8c0c0-ac3d-46e8-9470-e1799570f886","ios":"levelo://app?vid=e9f8c0c0-ac3d-46e8-9470-e1799570f886"},"vehicle_type_id":"4","last_reported":1719158925,"current_range_meters":0,"station_id":"","pricing_plan_id":"cebpf4jnsgd1na2vs0mg"},{"bike_id":"3d7c618a-a703-433c-b524-a71a66ab0509","system_id":"levelo_inurba_marseille","lat":43.290779,"lon":5.371482,"is_reserved":false,"is_disabled":false,"rental_uris":{"android":"levelo://app?vid=3d7c618a-a703-433c-b524-a71a66ab0509","ios":"levelo://app?vid=3d7c618a-a703-433c-b524-a71a66ab0509"},"vehicle_type_id":"4","last_reported":1719158925,"current_range_meters":21600,"station_id":"ce4bh5p2rcd13ifvqe4g","pricing_plan_id":"cebpf4jnsgd1na2vs0mg"},{"bike_id":"fe8f6040-41ab-4b75-95c1-6fe66028b78b","system_id":"levelo_inurba_marseille","lat":43.302008,"lon":5.394694,"is_reserved":false,"is_disabled":false,"rental_uris":{"android":"levelo://app?vid=fe8f6040-41ab-4b75-95c1-6fe66028b78b","ios":"levelo://app?vid=fe8f6040-41ab-4b75-95c1-6fe66028b78b"},"vehicle_type_id":"4","last_reported":1719158925,"current_range_meters":31200,"station_id":"ce4bh0p2rcd13ifvqd70","pricing_plan_id":"cebpf4jnsgd1na2vs0mg"},{"bike_id":"61d40fe9-dd03-4d06-987f-ffc859e2b487","system_id":"levelo_inurba_marseille","lat":43.2904,"lon":5.37559,"is_reserved":false,"is_disabled":false,"rental_uris":{"android":"levelo://app?vid=61d40fe9-dd03-4d06-987f-ffc859e2b487","ios":"levelo://app?vid=61d40fe9-dd03-4d06-987f-ffc859e2b487"},"vehicle_type_id":"4","last_reported":1719158925,"current_range_meters":1200,"station_id":"ce4bh692rcd13ifvqe90","pricing_plan_id":"cebpf4jnsgd1na2vs0mg"},{"bike_id":"c0b396c8-96fd-4a3e-8cc3-2f9ad05c0303","system_id":"levelo_inurba_marseille","lat":43.2904,"lon":5.37564,"is_reserved":false,"is_disabled":false,"rental_uris":{"android":"levelo://app?vid=c0b396c8-96fd-4a3e-8cc3-2f9ad05c0303","ios":"levelo://app?vid=c0b396c8-96fd-4a3e-8cc3-2f9ad05c0303"},"vehicle_type_id":"4","last_reported":1719158925,"current_range_meters":0,"station_id":"ce4bh692rcd13ifvqe90","pricing_plan_id":"cebpf4jnsgd1na2vs0mg"},{"bike_id":"9ced45cb-5be9-402c-a4e3-e248cb84e3ff","system_id":"levelo_inurba_marseille","lat":43.290319,"lon":5.375732,"is_reserved":false,"is_disabled":false,"rental_uris":{"android":"levelo://app?vid=9ced45cb-5be9-402c-a4e3-e248cb84e3ff","ios":"levelo://app?vid=9ced45cb-5be9-402c-a4e3-e248cb84e3ff"},"vehicle_type_id":"4","last_reported":1719158925,"current_range_meters":10400,"station_id":"ce4bh692rcd13ifvqe90","pricing_plan_id":"cebpf4jnsgd1na2vs0mg"},{"bike_id":"c8459791-eadf-4837-80bc-49b9f99d9fa8","system_id":"levelo_inurba_marseille","lat":43.289184,"lon":5.366408,"is_reserved":false,"is_disabled":false,"rental_uris":{"android":"levelo://app?vid=c8459791-eadf-4837-80bc-49b9f99d9fa8","ios":"levelo://app?vid=c8459791-eadf-4837-80bc-49b9f99d9fa8"},"vehicle_type_id":"4","last_reported":1719158925,"current_range_meters":12400,"station_id":"ce4bhap2rcd13ifvqek0","pricing_plan_id":"cebpf4jnsgd1na2vs0mg"},{"bike_id":"79185829-8283-4f38-8b54-0111a79ac931","system_id":"levelo_inurba_marseille","lat":43.290104,"lon":5.356111,"is_reserved":false,"is_disabled":false,"rental_uris":{"android":"levelo://app?vid=79185829-8283-4f38-8b54-0111a79ac931","ios":"levelo://app?vid=79185829-8283-4f38-8b54-0111a79ac931"},"vehicle_type_id":"4","last_reported":1719158925,"current_range_meters":0,"station_id":"ce4bhb92rcd13ifvqen0","pricing_plan_id":"cebpf4jnsgd1na2vs0mg"},{"bike_id":"63a0539b-5eab-404e-af83-17184fd1091d","system_id":"levelo_inurba_marseille","lat":43.304296,"lon":5.397513,"is_reserved":false,"is_disabled":false,"rental_uris":{"android":"levelo://app?vid=63a0539b-5eab-404e-af83-17184fd1091d","ios":"levelo://app?vid=63a0539b-5eab-404e-af83-17184fd1091d"},"vehicle_type_id":"4","last_reported":1719158925,"current_range_meters":7600,"station_id":"ce4bh092rcd13ifvqd20","pricing_plan_id":"cebpf4jnsgd1na2vs0mg"},{"bike_id":"75195429-59b7-4309-842a-dec9f0732e82","system_id":"levelo_inurba_marseille","lat":43.304274,"lon":5.397513,"is_reserved":false,"is_disabled":false,"rental_uris":{"android":"levelo://app?vid=75195429-59b7-4309-842a-dec9f0732e82","ios":"levelo://app?vid=75195429-59b7-4309-842a-dec9f0732e82"},"vehicle_type_id":"4","last_reported":1719158925,"current_range_meters":17600,"station_id":"ce4bh092rcd13ifvqd20","pricing_plan_id":"cebpf4jnsgd1na2vs0mg"},{"bike_id":"fde95331-5e8f-4a3d-813e-6d91869ffa57","system_id":"levelo_inurba_marseille","lat":43.292644,"lon":5.384257,"is_reserved":false,"is_disabled":false,"rental_uris":{"android":"levelo://app?vid=fde95331-5e8f-4a3d-813e-6d91869ffa57","ios":"levelo://app?vid=fde95331-5e8f-4a3d-813e-6d91869ffa57"},"vehicle_type_id":"4","last_reported":1719158925,"current_range_meters":6400,"station_id":"ce4bh692rcd13ifvqea0","pricing_plan_id":"cebpf4jnsgd1na2vs0mg"},{"bike_id":"6a3866e6-d89b-4973-9c77-fd54f3a7a420","system_id":"levelo_inurba_marseille","lat":43.29006,"lon":5.35613,"is_reserved":false,"is_disabled":false,"rental_uris":{"android":"levelo://app?vid=6a3866e6-d89b-4973-9c77-fd54f3a7a420","ios":"levelo://app?vid=6a3866e6-d89b-4973-9c77-fd54f3a7a420"},"vehicle_type_id":"4","last_reported":1719158925,"current_range_meters":0,"station_id":"ce4bhb92rcd13ifvqen0","pricing_plan_id":"cebpf4jnsgd1na2vs0mg"},{"bike_id":"00e40a91-9dff-4d4c-a5f8-8fddcec8776a","system_id":"levelo_inurba_marseille","lat":43.290104,"lon":5.356111,"is_reserved":false,"is_disabled":false,"rental_uris":{"android":"levelo://app?vid=00e40a91-9dff-4d4c-a5f8-8fddcec8776a","ios":"levelo://app?vid=00e40a91-9dff-4d4c-a5f8-8fddcec8776a"},"vehicle_type_id":"4","last_reported":1719158925,"current_range_meters":4000,"station_id":"ce4bhb92rcd13ifvqen0","pricing_plan_id":"cebpf4jnsgd1na2vs0mg"},{"bike_id":"5921ab2a-e8ff-47c8-b536-5f66236783fe","system_id":"levelo_inurba_marseille","lat":43.330442,"lon":5.389148,"is_reserved":false,"is_disabled":false,"rental_uris":{"android":"levelo://app?vid=5921ab2a-e8ff-47c8-b536-5f66236783fe","ios":"levelo://app?vid=5921ab2a-e8ff-47c8-b536-5f66236783fe"},"vehicle_type_id":"4","last_reported":1719158925,"current_range_meters":10400,"station_id":"ce4bhr92rcd13ifvqhrg","pricing_plan_id":"cebpf4jnsgd1na2vs0mg"},{"bike_id":"cdba2dd1-ec6b-453e-bf92-97711c2d30f8","system_id":"levelo_inurba_marseille","lat":43.330442,"lon":5.389148,"is_reserved":false,"is_disabled":false,"rental_uris":{"android":"levelo://app?vid=cdba2dd1-ec6b-453e-bf92-97711c2d30f8","ios":"levelo://app?vid=cdba2dd1-ec6b-453e-bf92-97711c2d30f8"},"vehicle_type_id":"4","last_reported":1719158925,"current_range_meters":2000,"station_id":"ce4bhr92rcd13ifvqhrg","pricing_plan_id":"cebpf4jnsgd1na2vs0mg"},{"bike_id":"7cffc5ab-1d98-4b39-9271-059357023ad7","system_id":"levelo_inurba_marseille","lat":43.33021,"lon":5.3905,"is_reserved":false,"is_disabled":false,"rental_uris":{"android":"levelo://app?vid=7cffc5ab-1d98-4b39-9271-059357023ad7","ios":"levelo://app?vid=7cffc5ab-1d98-4b39-9271-059357023ad7"},"vehicle_type_id":"4","last_reported":1719158925,"current_range_meters":0,"station_id":"ce4bhr92rcd13ifvqhrg","pricing_plan_id":"cebpf4jnsgd1na2vs0mg"},{"bike_id":"75bfbbdd-14c1-4055-a02c-1ecb46ba76a1","system_id":"levelo_inurba_marseille","lat":43.2901,"lon":5.381269,"is_reserved":false,"is_disabled":false,"rental_uris":{"android":"levelo://app?vid=75bfbbdd-14c1-4055-a02c-1ecb46ba76a1","ios":"levelo://app?vid=75bfbbdd-14c1-4055-a02c-1ecb46ba76a1"},"vehicle_type_id":"4","last_reported":1719158925,"current_range_meters":4000,"station_id":"ce4bh4p2rcd13ifvqe1g","pricing_plan_id":"cebpf4jnsgd1na2vs0mg"},{"bike_id":"5af46929-c182-41bf-b9ae-29803fa21faf","system_id":"levelo_inurba_marseille","lat":43.2901,"lon":5.381269,"is_reserved":false,"is_disabled":false,"rental_uris":{"android":"levelo://app?vid=5af46929-c182-41bf-b9ae-29803fa21faf","ios":"levelo://app?vid=5af46929-c182-41bf-b9ae-29803fa21faf"},"vehicle_type_id":"4","last_reported":1719158925,"current_range_meters":30400,"station_id":"ce4bh4p2rcd13ifvqe1g","pricing_plan_id":"cebpf4jnsgd1na2vs0mg"},{"bike_id":"ba50a203-ac88-4a81-b4ec-c5c454e45e0c","system_id":"levelo_inurba_marseille","lat":43.290094,"lon":5.381264,"is_reserved":false,"is_disabled":false,"rental_uris":{"android":"levelo://app?vid=ba50a203-ac88-4a81-b4ec-c5c454e45e0c","ios":"levelo://app?vid=ba50a203-ac88-4a81-b4ec-c5c454e45e0c"},"vehicle_type_id":"4","last_reported":1719158925,"current_range_meters":5200,"station_id":"ce4bh4p2rcd13ifvqe1g","pricing_plan_id":"cebpf4jnsgd1na2vs0mg"},{"bike_id":"e3d83c8b-6198-4cfa-a42f-b260e49dd14a","system_id":"levelo_inurba_marseille","lat":43.28856,"lon":5.358371,"is_reserved":false,"is_disabled":false,"rental_uris":{"android":"levelo://app?vid=e3d83c8b-6198-4cfa-a42f-b260e49dd14a","ios":"levelo://app?vid=e3d83c8b-6198-4cfa-a42f-b260e49dd14a"},"vehicle_type_id":"4","last_reported":1719158925,"current_range_meters":0,"station_id":"ce4bhb12rcd13ifvqem0","pricing_plan_id":"cebpf4jnsgd1na2vs0mg"},{"bike_id":"05092e03-5cef-41c3-9575-df5db7507ebd","system_id":"levelo_inurba_marseille","lat":43.33739,"lon":5.37464,"is_reserved":false,"is_disabled":false,"rental_uris":{"android":"levelo://app?vid=05092e03-5cef-41c3-9575-df5db7507ebd","ios":"levelo://app?vid=05092e03-5cef-41c3-9575-df5db7507ebd"},"vehicle_type_id":"4","last_reported":1719158925,"current_range_meters":15200,"station_id":"","pricing_plan_id":"cebpf4jnsgd1na2vs0mg"},{"bike_id":"5b5cae36-09e1-4bd0-aeb4-83d37c064d16","system_id":"levelo_inurba_marseille","lat":43.33752,"lon":5.37456,"is_reserved":false,"is_disabled":false,"rental_uris":{"android":"levelo://app?vid=5b5cae36-09e1-4bd0-aeb4-83d37c064d16","ios":"levelo://app?vid=5b5cae36-09e1-4bd0-aeb4-83d37c064d16"},"vehicle_type_id":"4","last_reported":1719158925,"current_range_meters":17200,"station_id":"","pricing_plan_id":"cebpf4jnsgd1na2vs0mg"},{"bike_id":"a00c218c-138a-4388-aca4-2952a6961815","system_id":"levelo_inurba_marseille","lat":43.337479,"lon":5.37488,"is_reserved":false,"is_disabled":false,"rental_uris":{"android":"levelo://app?vid=a00c218c-138a-4388-aca4-2952a6961815","ios":"levelo://app?vid=a00c218c-138a-4388-aca4-2952a6961815"},"vehicle_type_id":"4","last_reported":1719158925,"current_range_meters":29200,"station_id":"","pricing_plan_id":"cebpf4jnsgd1na2vs0mg"},{"bike_id":"0e11bbab-a5d9-4098-a6f1-624d89f27c59","system_id":"levelo_inurba_marseille","lat":43.337572,"lon":5.374546,"is_reserved":false,"is_disabled":false,"rental_uris":{"android":"levelo://app?vid=0e11bbab-a5d9-4098-a6f1-624d89f27c59","ios":"levelo://app?vid=0e11bbab-a5d9-4098-a6f1-624d89f27c59"},"vehicle_type_id":"4","last_reported":1719158925,"current_range_meters":20000,"station_id":"","pricing_plan_id":"cebpf4jnsgd1na2vs0mg"},{"bike_id":"db534928-e6a2-47cc-a852-558fe66ed50c","system_id":"levelo_inurba_marseille","lat":43.337583,"lon":5.374633,"is_reserved":false,"is_disabled":false,"rental_uris":{"android":"levelo://app?vid=db534928-e6a2-47cc-a852-558fe66ed50c","ios":"levelo://app?vid=db534928-e6a2-47cc-a852-558fe66ed50c"},"vehicle_type_id":"4","last_reported":1719158925,"current_range_meters":18400,"station_id":"","pricing_plan_id":"cebpf4jnsgd1na2vs0mg"},{"bike_id":"e7be790b-07e4-40f3-b60f-da683b157943","system_id":"levelo_inurba_marseille","lat":43.33033,"lon":5.39238,"is_reserved":false,"is_disabled":false,"rental_uris":{"android":"levelo://app?vid=e7be790b-07e4-40f3-b60f-da683b157943","ios":"levelo://app?vid=e7be790b-07e4-40f3-b60f-da683b157943"},"vehicle_type_id":"4","last_reported":1719158925,"current_range_meters":14800,"station_id":"","pricing_plan_id":"cebpf4jnsgd1na2vs0mg"},{"bike_id":"a77bf3f1-dc55-4e35-8fe0-6292cee970ef","system_id":"levelo_inurba_marseille","lat":43.33035,"lon":5.39239,"is_reserved":false,"is_disabled":false,"rental_uris":{"android":"levelo://app?vid=a77bf3f1-dc55-4e35-8fe0-6292cee970ef","ios":"levelo://app?vid=a77bf3f1-dc55-4e35-8fe0-6292cee970ef"},"vehicle_type_id":"4","last_reported":1719158925,"current_range_meters":17200,"station_id":"","pricing_plan_id":"cebpf4jnsgd1na2vs0mg"},{"bike_id":"8c8d01b4-9432-406c-a093-95a8fd9a07c4","system_id":"levelo_inurba_marseille","lat":43.2901,"lon":5.381269,"is_reserved":false,"is_disabled":false,"rental_uris":{"android":"levelo://app?vid=8c8d01b4-9432-406c-a093-95a8fd9a07c4","ios":"levelo://app?vid=8c8d01b4-9432-406c-a093-95a8fd9a07c4"},"vehicle_type_id":"4","last_reported":1719158925,"current_range_meters":5200,"station_id":"ce4bh4p2rcd13ifvqe1g","pricing_plan_id":"cebpf4jnsgd1na2vs0mg"},{"bike_id":"944b34ee-3b05-4173-a20e-56c842b6eadf","system_id":"levelo_inurba_marseille","lat":43.28727,"lon":5.36078,"is_reserved":false,"is_disabled":false,"rental_uris":{"android":"levelo://app?vid=944b34ee-3b05-4173-a20e-56c842b6eadf","ios":"levelo://app?vid=944b34ee-3b05-4173-a20e-56c842b6eadf"},"vehicle_type_id":"4","last_reported":1719158925,"current_range_meters":10800,"station_id":"cki0cbj6b192h4jlfktg","pricing_plan_id":"cebpf4jnsgd1na2vs0mg"},{"bike_id":"c7b9bd20-bd6f-406e-b293-68e0041e71bb","system_id":"levelo_inurba_marseille","lat":43.286591,"lon":5.363346,"is_reserved":false,"is_disabled":false,"rental_uris":{"android":"levelo://app?vid=c7b9bd20-bd6f-406e-b293-68e0041e71bb","ios":"levelo://app?vid=c7b9bd20-bd6f-406e-b293-68e0041e71bb"},"vehicle_type_id":"4","last_reported":1719158925,"current_range_meters":4400,"station_id":"ce4bhah2rcd13ifvqej0","pricing_plan_id":"cebpf4jnsgd1na2vs0mg"},{"bike_id":"e9859a6c-df07-4b4a-900a-430bbaf7b39b","system_id":"levelo_inurba_marseille","lat":43.286961,"lon":5.373785,"is_reserved":false,"is_disabled":false,"rental_uris":{"android":"levelo://app?vid=e9859a6c-df07-4b4a-900a-430bbaf7b39b","ios":"levelo://app?vid=e9859a6c-df07-4b4a-900a-430bbaf7b39b"},"vehicle_type_id":"4","last_reported":1719158925,"current_range_meters":0,"station_id":"ce4bh3p2rcd13ifvqdq0","pricing_plan_id":"cebpf4jnsgd1na2vs0mg"},{"bike_id":"0d7648da-da4c-4a7c-a03a-032496454b7b","system_id":"levelo_inurba_marseille","lat":43.286593,"lon":5.363346,"is_reserved":false,"is_disabled":false,"rental_uris":{"android":"levelo://app?vid=0d7648da-da4c-4a7c-a03a-032496454b7b","ios":"levelo://app?vid=0d7648da-da4c-4a7c-a03a-032496454b7b"},"vehicle_type_id":"4","last_reported":1719158925,"current_range_meters":6800,"station_id":"ce4bhah2rcd13ifvqej0","pricing_plan_id":"cebpf4jnsgd1na2vs0mg"},{"bike_id":"95c8dc6a-b5e0-4189-acb5-5275532551f2","system_id":"levelo_inurba_marseille","lat":43.295194,"lon":5.39397,"is_reserved":false,"is_disabled":false,"rental_uris":{"android":"levelo://app?vid=95c8dc6a-b5e0-4189-acb5-5275532551f2","ios":"levelo://app?vid=95c8dc6a-b5e0-4189-acb5-5275532551f2"},"vehicle_type_id":"4","last_reported":1719158925,"current_range_meters":0,"station_id":"ce4bh292rcd13ifvqdf0","pricing_plan_id":"cebpf4jnsgd1na2vs0mg"},{"bike_id":"f1e5a862-91ea-411d-9298-1d64a9096715","system_id":"levelo_inurba_marseille","lat":43.302759,"lon":5.400793,"is_reserved":false,"is_disabled":false,"rental_uris":{"android":"levelo://app?vid=f1e5a862-91ea-411d-9298-1d64a9096715","ios":"levelo://app?vid=f1e5a862-91ea-411d-9298-1d64a9096715"},"vehicle_type_id":"4","last_reported":1719158925,"current_range_meters":3600,"station_id":"ce4bgvh2rcd13ifvqcs0","pricing_plan_id":"cebpf4jnsgd1na2vs0mg"},{"bike_id":"a5ce7e69-adfd-4d42-bf62-9a27fa279ff7","system_id":"levelo_inurba_marseille","lat":43.290345,"lon":5.38646,"is_reserved":false,"is_disabled":false,"rental_uris":{"android":"levelo://app?vid=a5ce7e69-adfd-4d42-bf62-9a27fa279ff7","ios":"levelo://app?vid=a5ce7e69-adfd-4d42-bf62-9a27fa279ff7"},"vehicle_type_id":"4","last_reported":1719158925,"current_range_meters":6400,"station_id":"ce4bh4p2rcd13ifvqe0g","pricing_plan_id":"cebpf4jnsgd1na2vs0mg"},{"bike_id":"98251078-f0c8-4877-8a9e-fcfde0d4761e","system_id":"levelo_inurba_marseille","lat":43.29027,"lon":5.38649,"is_reserved":false,"is_disabled":false,"rental_uris":{"android":"levelo://app?vid=98251078-f0c8-4877-8a9e-fcfde0d4761e","ios":"levelo://app?vid=98251078-f0c8-4877-8a9e-fcfde0d4761e"},"vehicle_type_id":"4","last_reported":1719158925,"current_range_meters":0,"station_id":"ce4bh4p2rcd13ifvqe0g","pricing_plan_id":"cebpf4jnsgd1na2vs0mg"},{"bike_id":"430cff05-9d0d-4a24-8a6f-8ce833910764","system_id":"levelo_inurba_marseille","lat":43.29026,"lon":5.38651,"is_reserved":false,"is_disabled":false,"rental_uris":{"android":"levelo://app?vid=430cff05-9d0d-4a24-8a6f-8ce833910764","ios":"levelo://app?vid=430cff05-9d0d-4a24-8a6f-8ce833910764"},"vehicle_type_id":"4","last_reported":1719158925,"current_range_meters":0,"station_id":"ce4bh4p2rcd13ifvqe0g","pricing_plan_id":"cebpf4jnsgd1na2vs0mg"},{"bike_id":"a4af888f-0d91-4f0e-a805-902cd471e36d","system_id":"levelo_inurba_marseille","lat":43.291994,"lon":5.392907,"is_reserved":false,"is_disabled":false,"rental_uris":{"android":"levelo://app?vid=a4af888f-0d91-4f0e-a805-902cd471e36d","ios":"levelo://app?vid=a4af888f-0d91-4f0e-a805-902cd471e36d"},"vehicle_type_id":"4","last_reported":1719158925,"current_range_meters":11200,"station_id":"ce4bh192rcd13ifvqdd0","pricing_plan_id":"cebpf4jnsgd1na2vs0mg"},{"bike_id":"19dcd83b-e838-41e0-91a3-d2970078e377","system_id":"levelo_inurba_marseille","lat":43.283998,"lon":5.375062,"is_reserved":false,"is_disabled":false,"rental_uris":{"android":"levelo://app?vid=19dcd83b-e838-41e0-91a3-d2970078e377","ios":"levelo://app?vid=19dcd83b-e838-41e0-91a3-d2970078e377"},"vehicle_type_id":"4","last_reported":1719158925,"current_range_meters":11600,"station_id":"ce4bh412rcd13ifvqds0","pricing_plan_id":"cebpf4jnsgd1na2vs0mg"},{"bike_id":"b1cd5ca2-f385-4364-aa00-983c949e5387","system_id":"levelo_inurba_marseille","lat":43.284534,"lon":5.358662,"is_reserved":false,"is_disabled":false,"rental_uris":{"android":"levelo://app?vid=b1cd5ca2-f385-4364-aa00-983c949e5387","ios":"levelo://app?vid=b1cd5ca2-f385-4364-aa00-983c949e5387"},"vehicle_type_id":"4","last_reported":1719158925,"current_range_meters":21600,"station_id":"ce4bhah2rcd13ifvqei0","pricing_plan_id":"cebpf4jnsgd1na2vs0mg"},{"bike_id":"caef7251-4167-4bd1-823c-7883c79c863b","system_id":"levelo_inurba_marseille","lat":43.28453,"lon":5.35892,"is_reserved":false,"is_disabled":false,"rental_uris":{"android":"levelo://app?vid=caef7251-4167-4bd1-823c-7883c79c863b","ios":"levelo://app?vid=caef7251-4167-4bd1-823c-7883c79c863b"},"vehicle_type_id":"4","last_reported":1719158925,"current_range_meters":0,"station_id":"ce4bhah2rcd13ifvqei0","pricing_plan_id":"cebpf4jnsgd1na2vs0mg"},{"bike_id":"2231baa7-5347-494c-bf96-9fd4ae7024e2","system_id":"levelo_inurba_marseille","lat":43.284538,"lon":5.358657,"is_reserved":false,"is_disabled":false,"rental_uris":{"android":"levelo://app?vid=2231baa7-5347-494c-bf96-9fd4ae7024e2","ios":"levelo://app?vid=2231baa7-5347-494c-bf96-9fd4ae7024e2"},"vehicle_type_id":"4","last_reported":1719158925,"current_range_meters":6800,"station_id":"ce4bhah2rcd13ifvqei0","pricing_plan_id":"cebpf4jnsgd1na2vs0mg"},{"bike_id":"f5f13047-2ab2-4b97-8fef-cd557fc1fe65","system_id":"levelo_inurba_marseille","lat":43.294314,"lon":5.397498,"is_reserved":false,"is_disabled":false,"rental_uris":{"android":"levelo://app?vid=f5f13047-2ab2-4b97-8fef-cd557fc1fe65","ios":"levelo://app?vid=f5f13047-2ab2-4b97-8fef-cd557fc1fe65"},"vehicle_type_id":"4","last_reported":1719158925,"current_range_meters":20000,"station_id":"ce4bh3h2rcd13ifvqdo0","pricing_plan_id":"cebpf4jnsgd1na2vs0mg"},{"bike_id":"78f77e19-2124-4aa3-9a84-732c6884f412","system_id":"levelo_inurba_marseille","lat":43.285856,"lon":5.350771,"is_reserved":false,"is_disabled":false,"rental_uris":{"android":"levelo://app?vid=78f77e19-2124-4aa3-9a84-732c6884f412","ios":"levelo://app?vid=78f77e19-2124-4aa3-9a84-732c6884f412"},"vehicle_type_id":"4","last_reported":1719158925,"current_range_meters":0,"station_id":"ce4bhch2rcd13ifvqeug","pricing_plan_id":"cebpf4jnsgd1na2vs0mg"},{"bike_id":"3b27a60d-914f-4f45-b719-9fac5cdec55f","system_id":"levelo_inurba_marseille","lat":43.286095,"lon":5.351223,"is_reserved":false,"is_disabled":false,"rental_uris":{"android":"levelo://app?vid=3b27a60d-914f-4f45-b719-9fac5cdec55f","ios":"levelo://app?vid=3b27a60d-914f-4f45-b719-9fac5cdec55f"},"vehicle_type_id":"4","last_reported":1719158925,"current_range_meters":0,"station_id":"","pricing_plan_id":"cebpf4jnsgd1na2vs0mg"},{"bike_id":"3771ed15-92cc-4f3f-a78f-453dc95a6af5","system_id":"levelo_inurba_marseille","lat":43.283998,"lon":5.375062,"is_reserved":false,"is_disabled":false,"rental_uris":{"android":"levelo://app?vid=3771ed15-92cc-4f3f-a78f-453dc95a6af5","ios":"levelo://app?vid=3771ed15-92cc-4f3f-a78f-453dc95a6af5"},"vehicle_type_id":"4","last_reported":1719158925,"current_range_meters":23200,"station_id":"ce4bh412rcd13ifvqds0","pricing_plan_id":"cebpf4jnsgd1na2vs0mg"},{"bike_id":"f796f5a2-db39-4a30-9488-d87c6bff9f97","system_id":"levelo_inurba_marseille","lat":43.283998,"lon":5.375062,"is_reserved":false,"is_disabled":false,"rental_uris":{"android":"levelo://app?vid=f796f5a2-db39-4a30-9488-d87c6bff9f97","ios":"levelo://app?vid=f796f5a2-db39-4a30-9488-d87c6bff9f97"},"vehicle_type_id":"4","last_reported":1719158925,"current_range_meters":15200,"station_id":"ce4bh412rcd13ifvqds0","pricing_plan_id":"cebpf4jnsgd1na2vs0mg"},{"bike_id":"32760eaf-c118-4b4b-91fd-2b97a4e09bdd","system_id":"levelo_inurba_marseille","lat":43.283998,"lon":5.375062,"is_reserved":false,"is_disabled":false,"rental_uris":{"android":"levelo://app?vid=32760eaf-c118-4b4b-91fd-2b97a4e09bdd","ios":"levelo://app?vid=32760eaf-c118-4b4b-91fd-2b97a4e09bdd"},"vehicle_type_id":"4","last_reported":1719158925,"current_range_meters":2400,"station_id":"ce4bh412rcd13ifvqds0","pricing_plan_id":"cebpf4jnsgd1na2vs0mg"},{"bike_id":"479697a1-6690-4bd5-8568-da89e33de09d","system_id":"levelo_inurba_marseille","lat":43.283998,"lon":5.375062,"is_reserved":false,"is_disabled":false,"rental_uris":{"android":"levelo://app?vid=479697a1-6690-4bd5-8568-da89e33de09d","ios":"levelo://app?vid=479697a1-6690-4bd5-8568-da89e33de09d"},"vehicle_type_id":"4","last_reported":1719158925,"current_range_meters":6400,"station_id":"ce4bh412rcd13ifvqds0","pricing_plan_id":"cebpf4jnsgd1na2vs0mg"},{"bike_id":"7e24f969-65f7-4438-b0ee-2a76a44d1822","system_id":"levelo_inurba_marseille","lat":43.28669,"lon":5.38666,"is_reserved":false,"is_disabled":false,"rental_uris":{"android":"levelo://app?vid=7e24f969-65f7-4438-b0ee-2a76a44d1822","ios":"levelo://app?vid=7e24f969-65f7-4438-b0ee-2a76a44d1822"},"vehicle_type_id":"4","last_reported":1719158925,"current_range_meters":0,"station_id":"ce4bh492rcd13ifvqdug","pricing_plan_id":"cebpf4jnsgd1na2vs0mg"},{"bike_id":"28ca5fda-27c5-4157-a75f-57f69776fe95","system_id":"levelo_inurba_marseille","lat":43.323464,"lon":5.406297,"is_reserved":false,"is_disabled":false,"rental_uris":{"android":"levelo://app?vid=28ca5fda-27c5-4157-a75f-57f69776fe95","ios":"levelo://app?vid=28ca5fda-27c5-4157-a75f-57f69776fe95"},"vehicle_type_id":"4","last_reported":1719158925,"current_range_meters":400,"station_id":"ce4bhq92rcd13ifvqhjg","pricing_plan_id":"cebpf4jnsgd1na2vs0mg"},{"bike_id":"f3afbcfa-fef5-4566-b335-b95d65d96a32","system_id":"levelo_inurba_marseille","lat":43.337226,"lon":5.391823,"is_reserved":false,"is_disabled":false,"rental_uris":{"android":"levelo://app?vid=f3afbcfa-fef5-4566-b335-b95d65d96a32","ios":"levelo://app?vid=f3afbcfa-fef5-4566-b335-b95d65d96a32"},"vehicle_type_id":"4","last_reported":1719158925,"current_range_meters":0,"station_id":"ce4bhr92rcd13ifvqhsg","pricing_plan_id":"cebpf4jnsgd1na2vs0mg"},{"bike_id":"3a47a2ad-7b89-46bf-9676-c7f26b3fba53","system_id":"levelo_inurba_marseille","lat":43.323464,"lon":5.406297,"is_reserved":false,"is_disabled":false,"rental_uris":{"android":"levelo://app?vid=3a47a2ad-7b89-46bf-9676-c7f26b3fba53","ios":"levelo://app?vid=3a47a2ad-7b89-46bf-9676-c7f26b3fba53"},"vehicle_type_id":"4","last_reported":1719158925,"current_range_meters":15200,"station_id":"ce4bhq92rcd13ifvqhjg","pricing_plan_id":"cebpf4jnsgd1na2vs0mg"},{"bike_id":"f01d15b0-b9a7-463a-98dc-e8897ab5629d","system_id":"levelo_inurba_marseille","lat":43.284793,"lon":5.384113,"is_reserved":false,"is_disabled":false,"rental_uris":{"android":"levelo://app?vid=f01d15b0-b9a7-463a-98dc-e8897ab5629d","ios":"levelo://app?vid=f01d15b0-b9a7-463a-98dc-e8897ab5629d"},"vehicle_type_id":"4","last_reported":1719158925,"current_range_meters":11600,"station_id":"ce4bh512rcd13ifvqe3g","pricing_plan_id":"cebpf4jnsgd1na2vs0mg"},{"bike_id":"2d7fca26-4e00-45a2-971c-c0b593e30a78","system_id":"levelo_inurba_marseille","lat":43.33726,"lon":5.39183,"is_reserved":false,"is_disabled":false,"rental_uris":{"android":"levelo://app?vid=2d7fca26-4e00-45a2-971c-c0b593e30a78","ios":"levelo://app?vid=2d7fca26-4e00-45a2-971c-c0b593e30a78"},"vehicle_type_id":"4","last_reported":1719158925,"current_range_meters":18400,"station_id":"ce4bhr92rcd13ifvqhsg","pricing_plan_id":"cebpf4jnsgd1na2vs0mg"},{"bike_id":"4e26fbe6-11d4-4617-8f4d-b7e35ae8ccac","system_id":"levelo_inurba_marseille","lat":43.284787,"lon":5.384116,"is_reserved":false,"is_disabled":false,"rental_uris":{"android":"levelo://app?vid=4e26fbe6-11d4-4617-8f4d-b7e35ae8ccac","ios":"levelo://app?vid=4e26fbe6-11d4-4617-8f4d-b7e35ae8ccac"},"vehicle_type_id":"4","last_reported":1719158925,"current_range_meters":24000,"station_id":"ce4bh512rcd13ifvqe3g","pricing_plan_id":"cebpf4jnsgd1na2vs0mg"},{"bike_id":"d29f7bd8-e3f7-464c-bc0d-62575d49d189","system_id":"levelo_inurba_marseille","lat":43.288501,"lon":5.393087,"is_reserved":false,"is_disabled":false,"rental_uris":{"android":"levelo://app?vid=d29f7bd8-e3f7-464c-bc0d-62575d49d189","ios":"levelo://app?vid=d29f7bd8-e3f7-464c-bc0d-62575d49d189"},"vehicle_type_id":"4","last_reported":1719158925,"current_range_meters":0,"station_id":"ce4bh2p2rcd13ifvqdi0","pricing_plan_id":"cebpf4jnsgd1na2vs0mg"},{"bike_id":"11269d16-4c7e-4216-9464-b826ed225d97","system_id":"levelo_inurba_marseille","lat":43.288497,"lon":5.393089,"is_reserved":false,"is_disabled":false,"rental_uris":{"android":"levelo://app?vid=11269d16-4c7e-4216-9464-b826ed225d97","ios":"levelo://app?vid=11269d16-4c7e-4216-9464-b826ed225d97"},"vehicle_type_id":"4","last_reported":1719158925,"current_range_meters":1600,"station_id":"ce4bh2p2rcd13ifvqdi0","pricing_plan_id":"cebpf4jnsgd1na2vs0mg"},{"bike_id":"17a93c52-a863-4c07-aa85-385dce34739d","system_id":"levelo_inurba_marseille","lat":43.284793,"lon":5.384119,"is_reserved":false,"is_disabled":false,"rental_uris":{"android":"levelo://app?vid=17a93c52-a863-4c07-aa85-385dce34739d","ios":"levelo://app?vid=17a93c52-a863-4c07-aa85-385dce34739d"},"vehicle_type_id":"4","last_reported":1719158925,"current_range_meters":11200,"station_id":"ce4bh512rcd13ifvqe3g","pricing_plan_id":"cebpf4jnsgd1na2vs0mg"},{"bike_id":"b9bcc4c7-5ac2-42f9-9d80-01f4f50d9a04","system_id":"levelo_inurba_marseille","lat":43.284167,"lon":5.349987,"is_reserved":false,"is_disabled":false,"rental_uris":{"android":"levelo://app?vid=b9bcc4c7-5ac2-42f9-9d80-01f4f50d9a04","ios":"levelo://app?vid=b9bcc4c7-5ac2-42f9-9d80-01f4f50d9a04"},"vehicle_type_id":"4","last_reported":1719158925,"current_range_meters":0,"station_id":"","pricing_plan_id":"cebpf4jnsgd1na2vs0mg"},{"bike_id":"9a5373fd-5297-40b8-86f3-2a5de259b714","system_id":"levelo_inurba_marseille","lat":43.284219,"lon":5.3497,"is_reserved":false,"is_disabled":false,"rental_uris":{"android":"levelo://app?vid=9a5373fd-5297-40b8-86f3-2a5de259b714","ios":"levelo://app?vid=9a5373fd-5297-40b8-86f3-2a5de259b714"},"vehicle_type_id":"4","last_reported":1719158925,"current_range_meters":24400,"station_id":"ce4bhbh2rcd13ifvqepg","pricing_plan_id":"cebpf4jnsgd1na2vs0mg"},{"bike_id":"98dba31a-b59e-4d76-ad5d-9b41858f7cd9","system_id":"levelo_inurba_marseille","lat":43.292724,"lon":5.401131,"is_reserved":false,"is_disabled":false,"rental_uris":{"android":"levelo://app?vid=98dba31a-b59e-4d76-ad5d-9b41858f7cd9","ios":"levelo://app?vid=98dba31a-b59e-4d76-ad5d-9b41858f7cd9"},"vehicle_type_id":"4","last_reported":1719158925,"current_range_meters":21200,"station_id":"ce4bh312rcd13ifvqdk0","pricing_plan_id":"cebpf4jnsgd1na2vs0mg"},{"bike_id":"672838e6-c38b-4ddc-96bf-a1f271874ea7","system_id":"levelo_inurba_marseille","lat":43.28273,"lon":5.35074,"is_reserved":false,"is_disabled":false,"rental_uris":{"android":"levelo://app?vid=672838e6-c38b-4ddc-96bf-a1f271874ea7","ios":"levelo://app?vid=672838e6-c38b-4ddc-96bf-a1f271874ea7"},"vehicle_type_id":"4","last_reported":1719158925,"current_range_meters":0,"station_id":"ce4bhbp2rcd13ifvqerg","pricing_plan_id":"cebpf4jnsgd1na2vs0mg"},{"bike_id":"b2903d07-79cd-4cb7-bfe3-1f5a037f1a94","system_id":"levelo_inurba_marseille","lat":43.283502,"lon":5.386471,"is_reserved":false,"is_disabled":false,"rental_uris":{"android":"levelo://app?vid=b2903d07-79cd-4cb7-bfe3-1f5a037f1a94","ios":"levelo://app?vid=b2903d07-79cd-4cb7-bfe3-1f5a037f1a94"},"vehicle_type_id":"4","last_reported":1719158925,"current_range_meters":6400,"station_id":"ce4bh492rcd13ifvqdvg","pricing_plan_id":"cebpf4jnsgd1na2vs0mg"},{"bike_id":"9a346475-8e93-49f3-ba37-c4c83c70753b","system_id":"levelo_inurba_marseille","lat":43.282754,"lon":5.350519,"is_reserved":false,"is_disabled":false,"rental_uris":{"android":"levelo://app?vid=9a346475-8e93-49f3-ba37-c4c83c70753b","ios":"levelo://app?vid=9a346475-8e93-49f3-ba37-c4c83c70753b"},"vehicle_type_id":"4","last_reported":1719158925,"current_range_meters":0,"station_id":"ce4bhbp2rcd13ifvqerg","pricing_plan_id":"cebpf4jnsgd1na2vs0mg"},{"bike_id":"be86d107-aaf3-455c-b4ce-e076751897b1","system_id":"levelo_inurba_marseille","lat":43.2827,"lon":5.35068,"is_reserved":false,"is_disabled":false,"rental_uris":{"android":"levelo://app?vid=be86d107-aaf3-455c-b4ce-e076751897b1","ios":"levelo://app?vid=be86d107-aaf3-455c-b4ce-e076751897b1"},"vehicle_type_id":"4","last_reported":1719158925,"current_range_meters":0,"station_id":"ce4bhbp2rcd13ifvqerg","pricing_plan_id":"cebpf4jnsgd1na2vs0mg"},{"bike_id":"3769de43-af8f-47d5-a4bb-5ad29d051227","system_id":"levelo_inurba_marseille","lat":43.282719,"lon":5.350605,"is_reserved":false,"is_disabled":false,"rental_uris":{"android":"levelo://app?vid=3769de43-af8f-47d5-a4bb-5ad29d051227","ios":"levelo://app?vid=3769de43-af8f-47d5-a4bb-5ad29d051227"},"vehicle_type_id":"4","last_reported":1719158925,"current_range_meters":1600,"station_id":"ce4bhbp2rcd13ifvqerg","pricing_plan_id":"cebpf4jnsgd1na2vs0mg"},{"bike_id":"432b08f9-ce09-453e-8051-a4fc1dc5b600","system_id":"levelo_inurba_marseille","lat":43.283502,"lon":5.386471,"is_reserved":false,"is_disabled":false,"rental_uris":{"android":"levelo://app?vid=432b08f9-ce09-453e-8051-a4fc1dc5b600","ios":"levelo://app?vid=432b08f9-ce09-453e-8051-a4fc1dc5b600"},"vehicle_type_id":"4","last_reported":1719158925,"current_range_meters":4000,"station_id":"ce4bh492rcd13ifvqdvg","pricing_plan_id":"cebpf4jnsgd1na2vs0mg"},{"bike_id":"37fff3e6-9645-4034-8dea-551f1e0315ea","system_id":"levelo_inurba_marseille","lat":43.28266,"lon":5.35064,"is_reserved":false,"is_disabled":false,"rental_uris":{"android":"levelo://app?vid=37fff3e6-9645-4034-8dea-551f1e0315ea","ios":"levelo://app?vid=37fff3e6-9645-4034-8dea-551f1e0315ea"},"vehicle_type_id":"4","last_reported":1719158925,"current_range_meters":8000,"station_id":"ce4bhbp2rcd13ifvqerg","pricing_plan_id":"cebpf4jnsgd1na2vs0mg"},{"bike_id":"24be62cc-d831-4881-97a8-6dc84bcca6ed","system_id":"levelo_inurba_marseille","lat":43.283502,"lon":5.386471,"is_reserved":false,"is_disabled":false,"rental_uris":{"android":"levelo://app?vid=24be62cc-d831-4881-97a8-6dc84bcca6ed","ios":"levelo://app?vid=24be62cc-d831-4881-97a8-6dc84bcca6ed"},"vehicle_type_id":"4","last_reported":1719158925,"current_range_meters":4400,"station_id":"ce4bh492rcd13ifvqdvg","pricing_plan_id":"cebpf4jnsgd1na2vs0mg"},{"bike_id":"dfb4aad8-8e71-49eb-95ca-1161925408b7","system_id":"levelo_inurba_marseille","lat":43.28039,"lon":5.369297,"is_reserved":false,"is_disabled":false,"rental_uris":{"android":"levelo://app?vid=dfb4aad8-8e71-49eb-95ca-1161925408b7","ios":"levelo://app?vid=dfb4aad8-8e71-49eb-95ca-1161925408b7"},"vehicle_type_id":"4","last_reported":1719158925,"current_range_meters":0,"station_id":"ce4bha12rcd13ifvqef0","pricing_plan_id":"cebpf4jnsgd1na2vs0mg"},{"bike_id":"f84ce62f-0e31-4f5f-9dcf-b89b145fbd91","system_id":"levelo_inurba_marseille","lat":43.280382,"lon":5.369291,"is_reserved":false,"is_disabled":false,"rental_uris":{"android":"levelo://app?vid=f84ce62f-0e31-4f5f-9dcf-b89b145fbd91","ios":"levelo://app?vid=f84ce62f-0e31-4f5f-9dcf-b89b145fbd91"},"vehicle_type_id":"4","last_reported":1719158925,"current_range_meters":6800,"station_id":"ce4bha12rcd13ifvqef0","pricing_plan_id":"cebpf4jnsgd1na2vs0mg"},{"bike_id":"d11e7eb8-9345-490c-9e5e-f3d8d894f6f8","system_id":"levelo_inurba_marseille","lat":43.28261,"lon":5.35047,"is_reserved":false,"is_disabled":false,"rental_uris":{"android":"levelo://app?vid=d11e7eb8-9345-490c-9e5e-f3d8d894f6f8","ios":"levelo://app?vid=d11e7eb8-9345-490c-9e5e-f3d8d894f6f8"},"vehicle_type_id":"4","last_reported":1719158925,"current_range_meters":26000,"station_id":"ce4bhbp2rcd13ifvqerg","pricing_plan_id":"cebpf4jnsgd1na2vs0mg"},{"bike_id":"1494bbb4-1d86-470b-8090-d81cc9344447","system_id":"levelo_inurba_marseille","lat":43.28039,"lon":5.369297,"is_reserved":false,"is_disabled":false,"rental_uris":{"android":"levelo://app?vid=1494bbb4-1d86-470b-8090-d81cc9344447","ios":"levelo://app?vid=1494bbb4-1d86-470b-8090-d81cc9344447"},"vehicle_type_id":"4","last_reported":1719158925,"current_range_meters":2000,"station_id":"ce4bha12rcd13ifvqef0","pricing_plan_id":"cebpf4jnsgd1na2vs0mg"},{"bike_id":"566f3f37-4baf-44d6-b875-32bef15771a8","system_id":"levelo_inurba_marseille","lat":43.296263,"lon":5.40601,"is_reserved":false,"is_disabled":false,"rental_uris":{"android":"levelo://app?vid=566f3f37-4baf-44d6-b875-32bef15771a8","ios":"levelo://app?vid=566f3f37-4baf-44d6-b875-32bef15771a8"},"vehicle_type_id":"4","last_reported":1719158925,"current_range_meters":2000,"station_id":"ce4bh0h2rcd13ifvqd60","pricing_plan_id":"cebpf4jnsgd1na2vs0mg"},{"bike_id":"c9f5727f-73c7-45a3-b9cf-3845601ac317","system_id":"levelo_inurba_marseille","lat":43.284462,"lon":5.392121,"is_reserved":false,"is_disabled":false,"rental_uris":{"android":"levelo://app?vid=c9f5727f-73c7-45a3-b9cf-3845601ac317","ios":"levelo://app?vid=c9f5727f-73c7-45a3-b9cf-3845601ac317"},"vehicle_type_id":"4","last_reported":1719158925,"current_range_meters":28000,"station_id":"ce4bhoh2rcd13ifvqh5g","pricing_plan_id":"cebpf4jnsgd1na2vs0mg"},{"bike_id":"61ee56cb-94c4-4853-b877-794351e39aa7","system_id":"levelo_inurba_marseille","lat":43.326605,"lon":5.409903,"is_reserved":false,"is_disabled":false,"rental_uris":{"android":"levelo://app?vid=61ee56cb-94c4-4853-b877-794351e39aa7","ios":"levelo://app?vid=61ee56cb-94c4-4853-b877-794351e39aa7"},"vehicle_type_id":"4","last_reported":1719158925,"current_range_meters":27600,"station_id":"ce4bhpp2rcd13ifvqhgg","pricing_plan_id":"cebpf4jnsgd1na2vs0mg"},{"bike_id":"462ce5ea-cf8d-4e54-9951-8d1303378916","system_id":"levelo_inurba_marseille","lat":43.326605,"lon":5.409903,"is_reserved":false,"is_disabled":false,"rental_uris":{"android":"levelo://app?vid=462ce5ea-cf8d-4e54-9951-8d1303378916","ios":"levelo://app?vid=462ce5ea-cf8d-4e54-9951-8d1303378916"},"vehicle_type_id":"4","last_reported":1719158925,"current_range_meters":6800,"station_id":"ce4bhpp2rcd13ifvqhgg","pricing_plan_id":"cebpf4jnsgd1na2vs0mg"},{"bike_id":"fb7f0182-f64c-47ba-be75-a6d9e6814c4c","system_id":"levelo_inurba_marseille","lat":43.326605,"lon":5.409903,"is_reserved":false,"is_disabled":false,"rental_uris":{"android":"levelo://app?vid=fb7f0182-f64c-47ba-be75-a6d9e6814c4c","ios":"levelo://app?vid=fb7f0182-f64c-47ba-be75-a6d9e6814c4c"},"vehicle_type_id":"4","last_reported":1719158925,"current_range_meters":28400,"station_id":"ce4bhpp2rcd13ifvqhgg","pricing_plan_id":"cebpf4jnsgd1na2vs0mg"},{"bike_id":"3673c04b-2d78-4e8d-83c9-9dfef58df536","system_id":"levelo_inurba_marseille","lat":43.326605,"lon":5.409903,"is_reserved":false,"is_disabled":false,"rental_uris":{"android":"levelo://app?vid=3673c04b-2d78-4e8d-83c9-9dfef58df536","ios":"levelo://app?vid=3673c04b-2d78-4e8d-83c9-9dfef58df536"},"vehicle_type_id":"4","last_reported":1719158925,"current_range_meters":4000,"station_id":"ce4bhpp2rcd13ifvqhgg","pricing_plan_id":"cebpf4jnsgd1na2vs0mg"},{"bike_id":"7434e633-772a-4040-8212-bbe050c9b4fa","system_id":"levelo_inurba_marseille","lat":43.29961,"lon":5.41316,"is_reserved":false,"is_disabled":false,"rental_uris":{"android":"levelo://app?vid=7434e633-772a-4040-8212-bbe050c9b4fa","ios":"levelo://app?vid=7434e633-772a-4040-8212-bbe050c9b4fa"},"vehicle_type_id":"4","last_reported":1719158925,"current_range_meters":23200,"station_id":"ce4bhp12rcd13ifvqh9g","pricing_plan_id":"cebpf4jnsgd1na2vs0mg"},{"bike_id":"0af6a2b1-51c0-4c68-9a93-fbc9f37983e5","system_id":"levelo_inurba_marseille","lat":43.320045,"lon":5.415048,"is_reserved":false,"is_disabled":false,"rental_uris":{"android":"levelo://app?vid=0af6a2b1-51c0-4c68-9a93-fbc9f37983e5","ios":"levelo://app?vid=0af6a2b1-51c0-4c68-9a93-fbc9f37983e5"},"vehicle_type_id":"4","last_reported":1719158925,"current_range_meters":8400,"station_id":"ce4bhq92rcd13ifvqhkg","pricing_plan_id":"cebpf4jnsgd1na2vs0mg"},{"bike_id":"5f6b658e-0e22-4f68-8d3e-96c646187b34","system_id":"levelo_inurba_marseille","lat":43.299577,"lon":5.413277,"is_reserved":false,"is_disabled":false,"rental_uris":{"android":"levelo://app?vid=5f6b658e-0e22-4f68-8d3e-96c646187b34","ios":"levelo://app?vid=5f6b658e-0e22-4f68-8d3e-96c646187b34"},"vehicle_type_id":"4","last_reported":1719158925,"current_range_meters":15600,"station_id":"ce4bhp12rcd13ifvqh9g","pricing_plan_id":"cebpf4jnsgd1na2vs0mg"},{"bike_id":"eb9f6c93-47e4-4bf3-bedb-7718a0032dd8","system_id":"levelo_inurba_marseille","lat":43.27977,"lon":5.38742,"is_reserved":false,"is_disabled":false,"rental_uris":{"android":"levelo://app?vid=eb9f6c93-47e4-4bf3-bedb-7718a0032dd8","ios":"levelo://app?vid=eb9f6c93-47e4-4bf3-bedb-7718a0032dd8"},"vehicle_type_id":"4","last_reported":1719158925,"current_range_meters":11200,"station_id":"ce4bhg12rcd13ifvqf80","pricing_plan_id":"cebpf4jnsgd1na2vs0mg"},{"bike_id":"c7b49313-18dd-46ed-a68b-25c4b3418cd7","system_id":"levelo_inurba_marseille","lat":43.279742,"lon":5.38744,"is_reserved":false,"is_disabled":false,"rental_uris":{"android":"levelo://app?vid=c7b49313-18dd-46ed-a68b-25c4b3418cd7","ios":"levelo://app?vid=c7b49313-18dd-46ed-a68b-25c4b3418cd7"},"vehicle_type_id":"4","last_reported":1719158925,"current_range_meters":12800,"station_id":"ce4bhg12rcd13ifvqf80","pricing_plan_id":"cebpf4jnsgd1na2vs0mg"},{"bike_id":"20e752d6-5144-4b19-8724-b1e62f5165b3","system_id":"levelo_inurba_marseille","lat":43.279742,"lon":5.38744,"is_reserved":false,"is_disabled":false,"rental_uris":{"android":"levelo://app?vid=20e752d6-5144-4b19-8724-b1e62f5165b3","ios":"levelo://app?vid=20e752d6-5144-4b19-8724-b1e62f5165b3"},"vehicle_type_id":"4","last_reported":1719158925,"current_range_meters":0,"station_id":"ce4bhg12rcd13ifvqf80","pricing_plan_id":"cebpf4jnsgd1na2vs0mg"},{"bike_id":"807a2c0b-6615-4df9-b820-3f66264b5a18","system_id":"levelo_inurba_marseille","lat":43.320045,"lon":5.415048,"is_reserved":false,"is_disabled":false,"rental_uris":{"android":"levelo://app?vid=807a2c0b-6615-4df9-b820-3f66264b5a18","ios":"levelo://app?vid=807a2c0b-6615-4df9-b820-3f66264b5a18"},"vehicle_type_id":"4","last_reported":1719158925,"current_range_meters":18000,"station_id":"ce4bhq92rcd13ifvqhkg","pricing_plan_id":"cebpf4jnsgd1na2vs0mg"},{"bike_id":"26b51d29-b0bf-498a-9d56-b9c22043d762","system_id":"levelo_inurba_marseille","lat":43.2796,"lon":5.38739,"is_reserved":false,"is_disabled":false,"rental_uris":{"android":"levelo://app?vid=26b51d29-b0bf-498a-9d56-b9c22043d762","ios":"levelo://app?vid=26b51d29-b0bf-498a-9d56-b9c22043d762"},"vehicle_type_id":"4","last_reported":1719158925,"current_range_meters":0,"station_id":"ce4bhg12rcd13ifvqf80","pricing_plan_id":"cebpf4jnsgd1na2vs0mg"},{"bike_id":"ed02aa49-1381-4fe8-85a4-22036200d4ce","system_id":"levelo_inurba_marseille","lat":43.279742,"lon":5.38744,"is_reserved":false,"is_disabled":false,"rental_uris":{"android":"levelo://app?vid=ed02aa49-1381-4fe8-85a4-22036200d4ce","ios":"levelo://app?vid=ed02aa49-1381-4fe8-85a4-22036200d4ce"},"vehicle_type_id":"4","last_reported":1719158925,"current_range_meters":6000,"station_id":"ce4bhg12rcd13ifvqf80","pricing_plan_id":"cebpf4jnsgd1na2vs0mg"},{"bike_id":"a3b23cb1-9938-4c98-91ad-02e912e8ce23","system_id":"levelo_inurba_marseille","lat":43.292571,"lon":5.409107,"is_reserved":false,"is_disabled":false,"rental_uris":{"android":"levelo://app?vid=a3b23cb1-9938-4c98-91ad-02e912e8ce23","ios":"levelo://app?vid=a3b23cb1-9938-4c98-91ad-02e912e8ce23"},"vehicle_type_id":"4","last_reported":1719158925,"current_range_meters":15200,"station_id":"ce4bh192rcd13ifvqdc0","pricing_plan_id":"cebpf4jnsgd1na2vs0mg"},{"bike_id":"eb3b6bae-3881-46a3-b4d5-ed85fa833847","system_id":"levelo_inurba_marseille","lat":43.292569,"lon":5.409107,"is_reserved":false,"is_disabled":false,"rental_uris":{"android":"levelo://app?vid=eb3b6bae-3881-46a3-b4d5-ed85fa833847","ios":"levelo://app?vid=eb3b6bae-3881-46a3-b4d5-ed85fa833847"},"vehicle_type_id":"4","last_reported":1719158925,"current_range_meters":26400,"station_id":"ce4bh192rcd13ifvqdc0","pricing_plan_id":"cebpf4jnsgd1na2vs0mg"},{"bike_id":"397737d3-a319-43f1-8022-b7e05e968a7f","system_id":"levelo_inurba_marseille","lat":43.27569,"lon":5.36024,"is_reserved":false,"is_disabled":false,"rental_uris":{"android":"levelo://app?vid=397737d3-a319-43f1-8022-b7e05e968a7f","ios":"levelo://app?vid=397737d3-a319-43f1-8022-b7e05e968a7f"},"vehicle_type_id":"4","last_reported":1719158925,"current_range_meters":18000,"station_id":"","pricing_plan_id":"cebpf4jnsgd1na2vs0mg"},{"bike_id":"f3615187-e6f6-4d0a-9aea-ef48a3c4cd24","system_id":"levelo_inurba_marseille","lat":43.275809,"lon":5.37765,"is_reserved":false,"is_disabled":false,"rental_uris":{"android":"levelo://app?vid=f3615187-e6f6-4d0a-9aea-ef48a3c4cd24","ios":"levelo://app?vid=f3615187-e6f6-4d0a-9aea-ef48a3c4cd24"},"vehicle_type_id":"4","last_reported":1719158925,"current_range_meters":22800,"station_id":"","pricing_plan_id":"cebpf4jnsgd1na2vs0mg"},{"bike_id":"b569623b-9b03-4e21-a852-2dccdccb5a13","system_id":"levelo_inurba_marseille","lat":43.280784,"lon":5.396622,"is_reserved":false,"is_disabled":false,"rental_uris":{"android":"levelo://app?vid=b569623b-9b03-4e21-a852-2dccdccb5a13","ios":"levelo://app?vid=b569623b-9b03-4e21-a852-2dccdccb5a13"},"vehicle_type_id":"4","last_reported":1719158925,"current_range_meters":12000,"station_id":"ce4bho12rcd13ifvqh2g","pricing_plan_id":"cebpf4jnsgd1na2vs0mg"},{"bike_id":"88e5158c-fa12-49e2-acd8-702b6b87ced7","system_id":"levelo_inurba_marseille","lat":43.303837,"lon":5.418724,"is_reserved":false,"is_disabled":false,"rental_uris":{"android":"levelo://app?vid=88e5158c-fa12-49e2-acd8-702b6b87ced7","ios":"levelo://app?vid=88e5158c-fa12-49e2-acd8-702b6b87ced7"},"vehicle_type_id":"4","last_reported":1719158925,"current_range_meters":14800,"station_id":"ce4bhop2rcd13ifvqh7g","pricing_plan_id":"cebpf4jnsgd1na2vs0mg"},{"bike_id":"ec67f4c7-718c-4b2a-9ef1-9d03bc551dd0","system_id":"levelo_inurba_marseille","lat":43.278401,"lon":5.392152,"is_reserved":false,"is_disabled":false,"rental_uris":{"android":"levelo://app?vid=ec67f4c7-718c-4b2a-9ef1-9d03bc551dd0","ios":"levelo://app?vid=ec67f4c7-718c-4b2a-9ef1-9d03bc551dd0"},"vehicle_type_id":"4","last_reported":1719158925,"current_range_meters":1200,"station_id":"ce4bhjp2rcd13ifvqga0","pricing_plan_id":"cebpf4jnsgd1na2vs0mg"},{"bike_id":"2a619eb8-8092-4ab9-b46a-4fbf882002fe","system_id":"levelo_inurba_marseille","lat":43.278399,"lon":5.392139,"is_reserved":false,"is_disabled":false,"rental_uris":{"android":"levelo://app?vid=2a619eb8-8092-4ab9-b46a-4fbf882002fe","ios":"levelo://app?vid=2a619eb8-8092-4ab9-b46a-4fbf882002fe"},"vehicle_type_id":"4","last_reported":1719158925,"current_range_meters":23200,"station_id":"ce4bhjp2rcd13ifvqga0","pricing_plan_id":"cebpf4jnsgd1na2vs0mg"},{"bike_id":"32ae8339-43b6-4219-9b9e-1286be5089e0","system_id":"levelo_inurba_marseille","lat":43.273609,"lon":5.362708,"is_reserved":false,"is_disabled":false,"rental_uris":{"android":"levelo://app?vid=32ae8339-43b6-4219-9b9e-1286be5089e0","ios":"levelo://app?vid=32ae8339-43b6-4219-9b9e-1286be5089e0"},"vehicle_type_id":"4","last_reported":1719158925,"current_range_meters":0,"station_id":"ce4bhbh2rcd13ifvqeo0","pricing_plan_id":"cebpf4jnsgd1na2vs0mg"},{"bike_id":"126ec0a9-4f41-4113-b5ce-bf2c6b1a9323","system_id":"levelo_inurba_marseille","lat":43.27377,"lon":5.36252,"is_reserved":false,"is_disabled":false,"rental_uris":{"android":"levelo://app?vid=126ec0a9-4f41-4113-b5ce-bf2c6b1a9323","ios":"levelo://app?vid=126ec0a9-4f41-4113-b5ce-bf2c6b1a9323"},"vehicle_type_id":"4","last_reported":1719158925,"current_range_meters":0,"station_id":"ce4bhbh2rcd13ifvqeo0","pricing_plan_id":"cebpf4jnsgd1na2vs0mg"},{"bike_id":"33f7b89a-27c4-4d9c-8e61-2325682ab609","system_id":"levelo_inurba_marseille","lat":43.273613,"lon":5.362705,"is_reserved":false,"is_disabled":false,"rental_uris":{"android":"levelo://app?vid=33f7b89a-27c4-4d9c-8e61-2325682ab609","ios":"levelo://app?vid=33f7b89a-27c4-4d9c-8e61-2325682ab609"},"vehicle_type_id":"4","last_reported":1719158925,"current_range_meters":11200,"station_id":"ce4bhbh2rcd13ifvqeo0","pricing_plan_id":"cebpf4jnsgd1na2vs0mg"},{"bike_id":"5032540c-264a-4c0a-bc51-935089e09b34","system_id":"levelo_inurba_marseille","lat":43.273609,"lon":5.362708,"is_reserved":false,"is_disabled":false,"rental_uris":{"android":"levelo://app?vid=5032540c-264a-4c0a-bc51-935089e09b34","ios":"levelo://app?vid=5032540c-264a-4c0a-bc51-935089e09b34"},"vehicle_type_id":"4","last_reported":1719158925,"current_range_meters":0,"station_id":"ce4bhbh2rcd13ifvqeo0","pricing_plan_id":"cebpf4jnsgd1na2vs0mg"},{"bike_id":"c8c8c75e-5edc-4ffd-94cc-660569176e53","system_id":"levelo_inurba_marseille","lat":43.27373,"lon":5.36259,"is_reserved":false,"is_disabled":false,"rental_uris":{"android":"levelo://app?vid=c8c8c75e-5edc-4ffd-94cc-660569176e53","ios":"levelo://app?vid=c8c8c75e-5edc-4ffd-94cc-660569176e53"},"vehicle_type_id":"4","last_reported":1719158925,"current_range_meters":0,"station_id":"ce4bhbh2rcd13ifvqeo0","pricing_plan_id":"cebpf4jnsgd1na2vs0mg"},{"bike_id":"826d2892-d149-4627-9e65-028bf1cba84f","system_id":"levelo_inurba_marseille","lat":43.275625,"lon":5.384392,"is_reserved":false,"is_disabled":false,"rental_uris":{"android":"levelo://app?vid=826d2892-d149-4627-9e65-028bf1cba84f","ios":"levelo://app?vid=826d2892-d149-4627-9e65-028bf1cba84f"},"vehicle_type_id":"4","last_reported":1719158925,"current_range_meters":6800,"station_id":"ce4bhh92rcd13ifvqfi0","pricing_plan_id":"cebpf4jnsgd1na2vs0mg"},{"bike_id":"0b855851-0738-455a-8754-d41b9398f965","system_id":"levelo_inurba_marseille","lat":43.33612,"lon":5.41034,"is_reserved":false,"is_disabled":false,"rental_uris":{"android":"levelo://app?vid=0b855851-0738-455a-8754-d41b9398f965","ios":"levelo://app?vid=0b855851-0738-455a-8754-d41b9398f965"},"vehicle_type_id":"4","last_reported":1719158925,"current_range_meters":16800,"station_id":"ce4bhqh2rcd13ifvqhmg","pricing_plan_id":"cebpf4jnsgd1na2vs0mg"},{"bike_id":"bc6cc03a-54ba-4af2-9897-a5f24eb7a182","system_id":"levelo_inurba_marseille","lat":43.276771,"lon":5.388799,"is_reserved":false,"is_disabled":false,"rental_uris":{"android":"levelo://app?vid=bc6cc03a-54ba-4af2-9897-a5f24eb7a182","ios":"levelo://app?vid=bc6cc03a-54ba-4af2-9897-a5f24eb7a182"},"vehicle_type_id":"4","last_reported":1719158925,"current_range_meters":2000,"station_id":"ce4bhi12rcd13ifvqfo0","pricing_plan_id":"cebpf4jnsgd1na2vs0mg"},{"bike_id":"9ec9131b-7dc2-446e-befe-f15ea932fa08","system_id":"levelo_inurba_marseille","lat":43.276771,"lon":5.388799,"is_reserved":false,"is_disabled":false,"rental_uris":{"android":"levelo://app?vid=9ec9131b-7dc2-446e-befe-f15ea932fa08","ios":"levelo://app?vid=9ec9131b-7dc2-446e-befe-f15ea932fa08"},"vehicle_type_id":"4","last_reported":1719158925,"current_range_meters":2000,"station_id":"ce4bhi12rcd13ifvqfo0","pricing_plan_id":"cebpf4jnsgd1na2vs0mg"},{"bike_id":"17f43aed-1f91-4d86-985e-98e28ec50e17","system_id":"levelo_inurba_marseille","lat":43.276771,"lon":5.388799,"is_reserved":false,"is_disabled":false,"rental_uris":{"android":"levelo://app?vid=17f43aed-1f91-4d86-985e-98e28ec50e17","ios":"levelo://app?vid=17f43aed-1f91-4d86-985e-98e28ec50e17"},"vehicle_type_id":"4","last_reported":1719158925,"current_range_meters":3600,"station_id":"ce4bhi12rcd13ifvqfo0","pricing_plan_id":"cebpf4jnsgd1na2vs0mg"},{"bike_id":"670a06ec-d4ad-4774-8573-e2621a938193","system_id":"levelo_inurba_marseille","lat":43.279952,"lon":5.400085,"is_reserved":false,"is_disabled":false,"rental_uris":{"android":"levelo://app?vid=670a06ec-d4ad-4774-8573-e2621a938193","ios":"levelo://app?vid=670a06ec-d4ad-4774-8573-e2621a938193"},"vehicle_type_id":"4","last_reported":1719158925,"current_range_meters":28800,"station_id":"ce4bho92rcd13ifvqh4g","pricing_plan_id":"cebpf4jnsgd1na2vs0mg"},{"bike_id":"ed6556cb-04ce-47db-9a93-311a0fab8fc2","system_id":"levelo_inurba_marseille","lat":43.279952,"lon":5.400085,"is_reserved":false,"is_disabled":false,"rental_uris":{"android":"levelo://app?vid=ed6556cb-04ce-47db-9a93-311a0fab8fc2","ios":"levelo://app?vid=ed6556cb-04ce-47db-9a93-311a0fab8fc2"},"vehicle_type_id":"4","last_reported":1719158925,"current_range_meters":0,"station_id":"ce4bho92rcd13ifvqh4g","pricing_plan_id":"cebpf4jnsgd1na2vs0mg"},{"bike_id":"3456e619-bce7-4af7-aa6d-a329a2db0041","system_id":"levelo_inurba_marseille","lat":43.271268,"lon":5.36325,"is_reserved":false,"is_disabled":false,"rental_uris":{"android":"levelo://app?vid=3456e619-bce7-4af7-aa6d-a329a2db0041","ios":"levelo://app?vid=3456e619-bce7-4af7-aa6d-a329a2db0041"},"vehicle_type_id":"4","last_reported":1719158925,"current_range_meters":4000,"station_id":"","pricing_plan_id":"cebpf4jnsgd1na2vs0mg"},{"bike_id":"61115c7f-fac9-4eaf-9183-82484b3b9465","system_id":"levelo_inurba_marseille","lat":43.317121,"lon":5.423936,"is_reserved":false,"is_disabled":false,"rental_uris":{"android":"levelo://app?vid=61115c7f-fac9-4eaf-9183-82484b3b9465","ios":"levelo://app?vid=61115c7f-fac9-4eaf-9183-82484b3b9465"},"vehicle_type_id":"4","last_reported":1719158925,"current_range_meters":22800,"station_id":"ce4bhp92rcd13ifvqhbg","pricing_plan_id":"cebpf4jnsgd1na2vs0mg"},{"bike_id":"5e5a9e63-977d-4b47-b0f4-c3f36dbcb5fa","system_id":"levelo_inurba_marseille","lat":43.295523,"lon":5.422926,"is_reserved":false,"is_disabled":false,"rental_uris":{"android":"levelo://app?vid=5e5a9e63-977d-4b47-b0f4-c3f36dbcb5fa","ios":"levelo://app?vid=5e5a9e63-977d-4b47-b0f4-c3f36dbcb5fa"},"vehicle_type_id":"4","last_reported":1719158925,"current_range_meters":30400,"station_id":"ce4bhph2rcd13ifvqhdg","pricing_plan_id":"cebpf4jnsgd1na2vs0mg"},{"bike_id":"e11bcb62-b913-4595-98d0-8ffe882d8fcc","system_id":"levelo_inurba_marseille","lat":43.278128,"lon":5.407195,"is_reserved":false,"is_disabled":false,"rental_uris":{"android":"levelo://app?vid=e11bcb62-b913-4595-98d0-8ffe882d8fcc","ios":"levelo://app?vid=e11bcb62-b913-4595-98d0-8ffe882d8fcc"},"vehicle_type_id":"4","last_reported":1719158925,"current_range_meters":12800,"station_id":"ce4bhnh2rcd13ifvqgtg","pricing_plan_id":"cebpf4jnsgd1na2vs0mg"},{"bike_id":"6f89f849-4e46-49e5-afa7-632945298d2d","system_id":"levelo_inurba_marseille","lat":43.278128,"lon":5.407195,"is_reserved":false,"is_disabled":false,"rental_uris":{"android":"levelo://app?vid=6f89f849-4e46-49e5-afa7-632945298d2d","ios":"levelo://app?vid=6f89f849-4e46-49e5-afa7-632945298d2d"},"vehicle_type_id":"4","last_reported":1719158925,"current_range_meters":31200,"station_id":"ce4bhnh2rcd13ifvqgtg","pricing_plan_id":"cebpf4jnsgd1na2vs0mg"},{"bike_id":"0ec637f2-1b26-4c77-a9c8-9ca720427b13","system_id":"levelo_inurba_marseille","lat":43.278128,"lon":5.407195,"is_reserved":false,"is_disabled":false,"rental_uris":{"android":"levelo://app?vid=0ec637f2-1b26-4c77-a9c8-9ca720427b13","ios":"levelo://app?vid=0ec637f2-1b26-4c77-a9c8-9ca720427b13"},"vehicle_type_id":"4","last_reported":1719158925,"current_range_meters":30400,"station_id":"ce4bhnh2rcd13ifvqgtg","pricing_plan_id":"cebpf4jnsgd1na2vs0mg"},{"bike_id":"81ecd66a-c95f-4203-a909-ba187a37500e","system_id":"levelo_inurba_marseille","lat":43.278128,"lon":5.407195,"is_reserved":false,"is_disabled":false,"rental_uris":{"android":"levelo://app?vid=81ecd66a-c95f-4203-a909-ba187a37500e","ios":"levelo://app?vid=81ecd66a-c95f-4203-a909-ba187a37500e"},"vehicle_type_id":"4","last_reported":1719158925,"current_range_meters":14400,"station_id":"ce4bhnh2rcd13ifvqgtg","pricing_plan_id":"cebpf4jnsgd1na2vs0mg"},{"bike_id":"6c6aa725-9183-48b0-beed-94323f246218","system_id":"levelo_inurba_marseille","lat":43.269467,"lon":5.386439,"is_reserved":false,"is_disabled":false,"rental_uris":{"android":"levelo://app?vid=6c6aa725-9183-48b0-beed-94323f246218","ios":"levelo://app?vid=6c6aa725-9183-48b0-beed-94323f246218"},"vehicle_type_id":"4","last_reported":1719158925,"current_range_meters":0,"station_id":"ce4bhh92rcd13ifvqfh0","pricing_plan_id":"cebpf4jnsgd1na2vs0mg"},{"bike_id":"efdd62b8-0913-4417-983f-72cc6f3991e9","system_id":"levelo_inurba_marseille","lat":43.269467,"lon":5.386439,"is_reserved":false,"is_disabled":false,"rental_uris":{"android":"levelo://app?vid=efdd62b8-0913-4417-983f-72cc6f3991e9","ios":"levelo://app?vid=efdd62b8-0913-4417-983f-72cc6f3991e9"},"vehicle_type_id":"4","last_reported":1719158925,"current_range_meters":800,"station_id":"ce4bhh92rcd13ifvqfh0","pricing_plan_id":"cebpf4jnsgd1na2vs0mg"},{"bike_id":"4e1e5651-d054-4a19-af01-0dc355f8522a","system_id":"levelo_inurba_marseille","lat":43.269467,"lon":5.386439,"is_reserved":false,"is_disabled":false,"rental_uris":{"android":"levelo://app?vid=4e1e5651-d054-4a19-af01-0dc355f8522a","ios":"levelo://app?vid=4e1e5651-d054-4a19-af01-0dc355f8522a"},"vehicle_type_id":"4","last_reported":1719158925,"current_range_meters":23200,"station_id":"ce4bhh92rcd13ifvqfh0","pricing_plan_id":"cebpf4jnsgd1na2vs0mg"},{"bike_id":"8732e84a-52c3-4f34-b06a-85c5a1d58af9","system_id":"levelo_inurba_marseille","lat":43.269467,"lon":5.386439,"is_reserved":false,"is_disabled":false,"rental_uris":{"android":"levelo://app?vid=8732e84a-52c3-4f34-b06a-85c5a1d58af9","ios":"levelo://app?vid=8732e84a-52c3-4f34-b06a-85c5a1d58af9"},"vehicle_type_id":"4","last_reported":1719158925,"current_range_meters":31200,"station_id":"ce4bhh92rcd13ifvqfh0","pricing_plan_id":"cebpf4jnsgd1na2vs0mg"},{"bike_id":"81ca5170-a8ed-4149-bc3f-7f11b819f677","system_id":"levelo_inurba_marseille","lat":43.269467,"lon":5.386439,"is_reserved":false,"is_disabled":false,"rental_uris":{"android":"levelo://app?vid=81ca5170-a8ed-4149-bc3f-7f11b819f677","ios":"levelo://app?vid=81ca5170-a8ed-4149-bc3f-7f11b819f677"},"vehicle_type_id":"4","last_reported":1719158925,"current_range_meters":16800,"station_id":"ce4bhh92rcd13ifvqfh0","pricing_plan_id":"cebpf4jnsgd1na2vs0mg"},{"bike_id":"dd86f034-a8d3-44c6-92b9-075dcf3dfa52","system_id":"levelo_inurba_marseille","lat":43.279465,"lon":5.410561,"is_reserved":false,"is_disabled":false,"rental_uris":{"android":"levelo://app?vid=dd86f034-a8d3-44c6-92b9-075dcf3dfa52","ios":"levelo://app?vid=dd86f034-a8d3-44c6-92b9-075dcf3dfa52"},"vehicle_type_id":"4","last_reported":1719158925,"current_range_meters":0,"station_id":"ce4bhnp2rcd13ifvqh0g","pricing_plan_id":"cebpf4jnsgd1na2vs0mg"},{"bike_id":"fed70919-5421-4aad-91ee-55d8a891bf2c","system_id":"levelo_inurba_marseille","lat":43.26681,"lon":5.382694,"is_reserved":false,"is_disabled":false,"rental_uris":{"android":"levelo://app?vid=fed70919-5421-4aad-91ee-55d8a891bf2c","ios":"levelo://app?vid=fed70919-5421-4aad-91ee-55d8a891bf2c"},"vehicle_type_id":"4","last_reported":1719158925,"current_range_meters":5600,"station_id":"ce4bhg92rcd13ifvqf90","pricing_plan_id":"cebpf4jnsgd1na2vs0mg"},{"bike_id":"9021fb3a-b83d-4b0b-8ae2-1b5c68c62bf1","system_id":"levelo_inurba_marseille","lat":43.267787,"lon":5.389303,"is_reserved":false,"is_disabled":false,"rental_uris":{"android":"levelo://app?vid=9021fb3a-b83d-4b0b-8ae2-1b5c68c62bf1","ios":"levelo://app?vid=9021fb3a-b83d-4b0b-8ae2-1b5c68c62bf1"},"vehicle_type_id":"4","last_reported":1719158925,"current_range_meters":0,"station_id":"","pricing_plan_id":"cebpf4jnsgd1na2vs0mg"},{"bike_id":"51569d06-e7f3-49ce-b928-3dc277d9ead0","system_id":"levelo_inurba_marseille","lat":43.267966,"lon":5.393976,"is_reserved":false,"is_disabled":false,"rental_uris":{"android":"levelo://app?vid=51569d06-e7f3-49ce-b928-3dc277d9ead0","ios":"levelo://app?vid=51569d06-e7f3-49ce-b928-3dc277d9ead0"},"vehicle_type_id":"4","last_reported":1719158925,"current_range_meters":2800,"station_id":"ce4bhh12rcd13ifvqfg0","pricing_plan_id":"cebpf4jnsgd1na2vs0mg"},{"bike_id":"8cbb86a8-33fa-472a-9c91-4ce024befde3","system_id":"levelo_inurba_marseille","lat":43.267966,"lon":5.393976,"is_reserved":false,"is_disabled":false,"rental_uris":{"android":"levelo://app?vid=8cbb86a8-33fa-472a-9c91-4ce024befde3","ios":"levelo://app?vid=8cbb86a8-33fa-472a-9c91-4ce024befde3"},"vehicle_type_id":"4","last_reported":1719158925,"current_range_meters":12400,"station_id":"ce4bhh12rcd13ifvqfg0","pricing_plan_id":"cebpf4jnsgd1na2vs0mg"},{"bike_id":"783f18f7-4895-46bb-a48e-495a2dd283c7","system_id":"levelo_inurba_marseille","lat":43.267966,"lon":5.393976,"is_reserved":false,"is_disabled":false,"rental_uris":{"android":"levelo://app?vid=783f18f7-4895-46bb-a48e-495a2dd283c7","ios":"levelo://app?vid=783f18f7-4895-46bb-a48e-495a2dd283c7"},"vehicle_type_id":"4","last_reported":1719158925,"current_range_meters":22800,"station_id":"ce4bhh12rcd13ifvqfg0","pricing_plan_id":"cebpf4jnsgd1na2vs0mg"},{"bike_id":"f3cfe14f-b316-4323-ba2a-9915cd99aacf","system_id":"levelo_inurba_marseille","lat":43.308051,"lon":5.43527,"is_reserved":false,"is_disabled":false,"rental_uris":{"android":"levelo://app?vid=f3cfe14f-b316-4323-ba2a-9915cd99aacf","ios":"levelo://app?vid=f3cfe14f-b316-4323-ba2a-9915cd99aacf"},"vehicle_type_id":"4","last_reported":1719158925,"current_range_meters":31600,"station_id":"ce4bhph2rcd13ifvqheg","pricing_plan_id":"cebpf4jnsgd1na2vs0mg"},{"bike_id":"34d42927-0258-4933-924b-8dd3a08735e0","system_id":"levelo_inurba_marseille","lat":43.30792,"lon":5.43521,"is_reserved":false,"is_disabled":false,"rental_uris":{"android":"levelo://app?vid=34d42927-0258-4933-924b-8dd3a08735e0","ios":"levelo://app?vid=34d42927-0258-4933-924b-8dd3a08735e0"},"vehicle_type_id":"4","last_reported":1719158925,"current_range_meters":2400,"station_id":"ce4bhph2rcd13ifvqheg","pricing_plan_id":"cebpf4jnsgd1na2vs0mg"},{"bike_id":"2d1aa6c4-a28b-45fb-aae0-b39d545de960","system_id":"levelo_inurba_marseille","lat":43.308051,"lon":5.43527,"is_reserved":false,"is_disabled":false,"rental_uris":{"android":"levelo://app?vid=2d1aa6c4-a28b-45fb-aae0-b39d545de960","ios":"levelo://app?vid=2d1aa6c4-a28b-45fb-aae0-b39d545de960"},"vehicle_type_id":"4","last_reported":1719158925,"current_range_meters":22400,"station_id":"ce4bhph2rcd13ifvqheg","pricing_plan_id":"cebpf4jnsgd1na2vs0mg"},{"bike_id":"04b1c609-eb82-4c9e-8df5-cb5136857d72","system_id":"levelo_inurba_marseille","lat":43.30798,"lon":5.43524,"is_reserved":false,"is_disabled":false,"rental_uris":{"android":"levelo://app?vid=04b1c609-eb82-4c9e-8df5-cb5136857d72","ios":"levelo://app?vid=04b1c609-eb82-4c9e-8df5-cb5136857d72"},"vehicle_type_id":"4","last_reported":1719158925,"current_range_meters":28400,"station_id":"ce4bhph2rcd13ifvqheg","pricing_plan_id":"cebpf4jnsgd1na2vs0mg"},{"bike_id":"ae7fa3b3-3cd8-427a-a028-53c7f7d4a015","system_id":"levelo_inurba_marseille","lat":43.308051,"lon":5.43527,"is_reserved":false,"is_disabled":false,"rental_uris":{"android":"levelo://app?vid=ae7fa3b3-3cd8-427a-a028-53c7f7d4a015","ios":"levelo://app?vid=ae7fa3b3-3cd8-427a-a028-53c7f7d4a015"},"vehicle_type_id":"4","last_reported":1719158925,"current_range_meters":28000,"station_id":"ce4bhph2rcd13ifvqheg","pricing_plan_id":"cebpf4jnsgd1na2vs0mg"},{"bike_id":"6b1233e7-ed0c-49a4-8367-4ecfe7c07720","system_id":"levelo_inurba_marseille","lat":43.308051,"lon":5.43527,"is_reserved":false,"is_disabled":false,"rental_uris":{"android":"levelo://app?vid=6b1233e7-ed0c-49a4-8367-4ecfe7c07720","ios":"levelo://app?vid=6b1233e7-ed0c-49a4-8367-4ecfe7c07720"},"vehicle_type_id":"4","last_reported":1719158925,"current_range_meters":24400,"station_id":"ce4bhph2rcd13ifvqheg","pricing_plan_id":"cebpf4jnsgd1na2vs0mg"},{"bike_id":"1662f728-49f2-46e0-bccd-94e642360901","system_id":"levelo_inurba_marseille","lat":43.261782,"lon":5.374515,"is_reserved":false,"is_disabled":false,"rental_uris":{"android":"levelo://app?vid=1662f728-49f2-46e0-bccd-94e642360901","ios":"levelo://app?vid=1662f728-49f2-46e0-bccd-94e642360901"},"vehicle_type_id":"4","last_reported":1719158925,"current_range_meters":1600,"station_id":"ce4bhgp2rcd13ifvqfc0","pricing_plan_id":"cebpf4jnsgd1na2vs0mg"},{"bike_id":"578c84d1-47ba-4486-a540-7b7fccc30ca4","system_id":"levelo_inurba_marseille","lat":43.2621,"lon":5.37447,"is_reserved":false,"is_disabled":false,"rental_uris":{"android":"levelo://app?vid=578c84d1-47ba-4486-a540-7b7fccc30ca4","ios":"levelo://app?vid=578c84d1-47ba-4486-a540-7b7fccc30ca4"},"vehicle_type_id":"4","last_reported":1719158925,"current_range_meters":0,"station_id":"ce4bhgp2rcd13ifvqfc0","pricing_plan_id":"cebpf4jnsgd1na2vs0mg"},{"bike_id":"dff0e6e2-4aad-454e-8ce8-98fcf8e21534","system_id":"levelo_inurba_marseille","lat":43.26209,"lon":5.3744,"is_reserved":false,"is_disabled":false,"rental_uris":{"android":"levelo://app?vid=dff0e6e2-4aad-454e-8ce8-98fcf8e21534","ios":"levelo://app?vid=dff0e6e2-4aad-454e-8ce8-98fcf8e21534"},"vehicle_type_id":"4","last_reported":1719158925,"current_range_meters":0,"station_id":"ce4bhgp2rcd13ifvqfc0","pricing_plan_id":"cebpf4jnsgd1na2vs0mg"},{"bike_id":"21a18a02-381d-4700-acab-98af52c4fe97","system_id":"levelo_inurba_marseille","lat":43.26209,"lon":5.37443,"is_reserved":false,"is_disabled":false,"rental_uris":{"android":"levelo://app?vid=21a18a02-381d-4700-acab-98af52c4fe97","ios":"levelo://app?vid=21a18a02-381d-4700-acab-98af52c4fe97"},"vehicle_type_id":"4","last_reported":1719158925,"current_range_meters":0,"station_id":"ce4bhgp2rcd13ifvqfc0","pricing_plan_id":"cebpf4jnsgd1na2vs0mg"},{"bike_id":"5ef1d603-b23c-4d7e-b520-8db042ee2c46","system_id":"levelo_inurba_marseille","lat":43.26208,"lon":5.3744,"is_reserved":false,"is_disabled":false,"rental_uris":{"android":"levelo://app?vid=5ef1d603-b23c-4d7e-b520-8db042ee2c46","ios":"levelo://app?vid=5ef1d603-b23c-4d7e-b520-8db042ee2c46"},"vehicle_type_id":"4","last_reported":1719158925,"current_range_meters":0,"station_id":"ce4bhgp2rcd13ifvqfc0","pricing_plan_id":"cebpf4jnsgd1na2vs0mg"},{"bike_id":"bc5c2dee-7a72-4110-abdc-ec3960c128d1","system_id":"levelo_inurba_marseille","lat":43.26203,"lon":5.37447,"is_reserved":false,"is_disabled":false,"rental_uris":{"android":"levelo://app?vid=bc5c2dee-7a72-4110-abdc-ec3960c128d1","ios":"levelo://app?vid=bc5c2dee-7a72-4110-abdc-ec3960c128d1"},"vehicle_type_id":"4","last_reported":1719158925,"current_range_meters":0,"station_id":"ce4bhgp2rcd13ifvqfc0","pricing_plan_id":"cebpf4jnsgd1na2vs0mg"},{"bike_id":"334ac450-26cc-411b-8092-f5ebde6cd482","system_id":"levelo_inurba_marseille","lat":43.261782,"lon":5.374515,"is_reserved":false,"is_disabled":false,"rental_uris":{"android":"levelo://app?vid=334ac450-26cc-411b-8092-f5ebde6cd482","ios":"levelo://app?vid=334ac450-26cc-411b-8092-f5ebde6cd482"},"vehicle_type_id":"4","last_reported":1719158925,"current_range_meters":22800,"station_id":"ce4bhgp2rcd13ifvqfc0","pricing_plan_id":"cebpf4jnsgd1na2vs0mg"},{"bike_id":"63a5fa0e-9ec4-42e5-9fe7-c94a82263067","system_id":"levelo_inurba_marseille","lat":43.26554,"lon":5.39493,"is_reserved":false,"is_disabled":false,"rental_uris":{"android":"levelo://app?vid=63a5fa0e-9ec4-42e5-9fe7-c94a82263067","ios":"levelo://app?vid=63a5fa0e-9ec4-42e5-9fe7-c94a82263067"},"vehicle_type_id":"4","last_reported":1719158925,"current_range_meters":13200,"station_id":"","pricing_plan_id":"cebpf4jnsgd1na2vs0mg"},{"bike_id":"67c38b2e-27f3-4d1c-b00e-a31e90a56b95","system_id":"levelo_inurba_marseille","lat":43.26211,"lon":5.37927,"is_reserved":false,"is_disabled":false,"rental_uris":{"android":"levelo://app?vid=67c38b2e-27f3-4d1c-b00e-a31e90a56b95","ios":"levelo://app?vid=67c38b2e-27f3-4d1c-b00e-a31e90a56b95"},"vehicle_type_id":"4","last_reported":1719158925,"current_range_meters":0,"station_id":"ce4bhjp2rcd13ifvqg90","pricing_plan_id":"cebpf4jnsgd1na2vs0mg"},{"bike_id":"19b05b23-85ba-476e-8990-97222827ede2","system_id":"levelo_inurba_marseille","lat":43.271388,"lon":5.409269,"is_reserved":false,"is_disabled":false,"rental_uris":{"android":"levelo://app?vid=19b05b23-85ba-476e-8990-97222827ede2","ios":"levelo://app?vid=19b05b23-85ba-476e-8990-97222827ede2"},"vehicle_type_id":"4","last_reported":1719158925,"current_range_meters":14800,"station_id":"ce4bhl12rcd13ifvqgf0","pricing_plan_id":"cebpf4jnsgd1na2vs0mg"},{"bike_id":"082f25e3-e57f-4892-9444-285eb3024e1e","system_id":"levelo_inurba_marseille","lat":43.271368,"lon":5.40928,"is_reserved":false,"is_disabled":false,"rental_uris":{"android":"levelo://app?vid=082f25e3-e57f-4892-9444-285eb3024e1e","ios":"levelo://app?vid=082f25e3-e57f-4892-9444-285eb3024e1e"},"vehicle_type_id":"4","last_reported":1719158925,"current_range_meters":29600,"station_id":"ce4bhl12rcd13ifvqgf0","pricing_plan_id":"cebpf4jnsgd1na2vs0mg"},{"bike_id":"a280e0df-557e-4bdd-991b-0d4dba5b592d","system_id":"levelo_inurba_marseille","lat":43.267959,"lon":5.402687,"is_reserved":false,"is_disabled":false,"rental_uris":{"android":"levelo://app?vid=a280e0df-557e-4bdd-991b-0d4dba5b592d","ios":"levelo://app?vid=a280e0df-557e-4bdd-991b-0d4dba5b592d"},"vehicle_type_id":"4","last_reported":1719158925,"current_range_meters":24800,"station_id":"ce501612rcd8frsf0b60","pricing_plan_id":"cebpf4jnsgd1na2vs0mg"},{"bike_id":"05617c13-e896-417f-844a-81be9f413eb0","system_id":"levelo_inurba_marseille","lat":43.264946,"lon":5.395416,"is_reserved":false,"is_disabled":false,"rental_uris":{"android":"levelo://app?vid=05617c13-e896-417f-844a-81be9f413eb0","ios":"levelo://app?vid=05617c13-e896-417f-844a-81be9f413eb0"},"vehicle_type_id":"4","last_reported":1719158925,"current_range_meters":4000,"station_id":"ce4bhi12rcd13ifvqfq0","pricing_plan_id":"cebpf4jnsgd1na2vs0mg"},{"bike_id":"8dec0121-79f6-4486-be05-74936aa40442","system_id":"levelo_inurba_marseille","lat":43.298768,"lon":5.43643,"is_reserved":false,"is_disabled":false,"rental_uris":{"android":"levelo://app?vid=8dec0121-79f6-4486-be05-74936aa40442","ios":"levelo://app?vid=8dec0121-79f6-4486-be05-74936aa40442"},"vehicle_type_id":"4","last_reported":1719158925,"current_range_meters":29600,"station_id":"ce4bhpp2rcd13ifvqhfg","pricing_plan_id":"cebpf4jnsgd1na2vs0mg"},{"bike_id":"7e4bc5b0-f026-4a1f-9f2d-dfc707549f98","system_id":"levelo_inurba_marseille","lat":43.298768,"lon":5.43643,"is_reserved":false,"is_disabled":false,"rental_uris":{"android":"levelo://app?vid=7e4bc5b0-f026-4a1f-9f2d-dfc707549f98","ios":"levelo://app?vid=7e4bc5b0-f026-4a1f-9f2d-dfc707549f98"},"vehicle_type_id":"4","last_reported":1719158925,"current_range_meters":20000,"station_id":"ce4bhpp2rcd13ifvqhfg","pricing_plan_id":"cebpf4jnsgd1na2vs0mg"},{"bike_id":"826aec98-b9f8-41df-a381-bf5fd786bf4e","system_id":"levelo_inurba_marseille","lat":43.281548,"lon":5.42643,"is_reserved":false,"is_disabled":false,"rental_uris":{"android":"levelo://app?vid=826aec98-b9f8-41df-a381-bf5fd786bf4e","ios":"levelo://app?vid=826aec98-b9f8-41df-a381-bf5fd786bf4e"},"vehicle_type_id":"4","last_reported":1719158925,"current_range_meters":12400,"station_id":"ce4bhnh2rcd13ifvqgug","pricing_plan_id":"cebpf4jnsgd1na2vs0mg"},{"bike_id":"f322c228-dc7a-45bd-a2e4-207d6d247ec0","system_id":"levelo_inurba_marseille","lat":43.281548,"lon":5.42643,"is_reserved":false,"is_disabled":false,"rental_uris":{"android":"levelo://app?vid=f322c228-dc7a-45bd-a2e4-207d6d247ec0","ios":"levelo://app?vid=f322c228-dc7a-45bd-a2e4-207d6d247ec0"},"vehicle_type_id":"4","last_reported":1719158925,"current_range_meters":4800,"station_id":"ce4bhnh2rcd13ifvqgug","pricing_plan_id":"cebpf4jnsgd1na2vs0mg"},{"bike_id":"176067a2-1546-451c-9ea7-c6729ecd4df0","system_id":"levelo_inurba_marseille","lat":43.28154,"lon":5.42644,"is_reserved":false,"is_disabled":false,"rental_uris":{"android":"levelo://app?vid=176067a2-1546-451c-9ea7-c6729ecd4df0","ios":"levelo://app?vid=176067a2-1546-451c-9ea7-c6729ecd4df0"},"vehicle_type_id":"4","last_reported":1719158925,"current_range_meters":400,"station_id":"ce4bhnh2rcd13ifvqgug","pricing_plan_id":"cebpf4jnsgd1na2vs0mg"},{"bike_id":"548547e8-293b-463f-8464-fb93afdaaaee","system_id":"levelo_inurba_marseille","lat":43.28319,"lon":5.42849,"is_reserved":false,"is_disabled":false,"rental_uris":{"android":"levelo://app?vid=548547e8-293b-463f-8464-fb93afdaaaee","ios":"levelo://app?vid=548547e8-293b-463f-8464-fb93afdaaaee"},