{"last_updated":1717168052,"ttl":30,"version":"2.2","data":{"bikes":[{"bike_id":"dee3719d-1770-4aff-8620-65358446b185","system_id":"levelo_inurba_marseille","lat":43.313459,"lon":5.367111,"is_reserved":false,"is_disabled":false,"rental_uris":{"android":"levelo://app?vid=dee3719d-1770-4aff-8620-65358446b185","ios":"levelo://app?vid=dee3719d-1770-4aff-8620-65358446b185"},"vehicle_type_id":"4","last_reported":1717168052,"current_range_meters":13200,"station_id":"ce4bgr92rcd13ifvqc6g","pricing_plan_id":"cebpf4jnsgd1na2vs0mg"},{"bike_id":"483a9762-9176-4c1f-a24a-7a3669d60e46","system_id":"levelo_inurba_marseille","lat":43.31347,"lon":5.36717,"is_reserved":false,"is_disabled":false,"rental_uris":{"android":"levelo://app?vid=483a9762-9176-4c1f-a24a-7a3669d60e46","ios":"levelo://app?vid=483a9762-9176-4c1f-a24a-7a3669d60e46"},"vehicle_type_id":"4","last_reported":1717168052,"current_range_meters":30400,"station_id":"ce4bgr92rcd13ifvqc6g","pricing_plan_id":"cebpf4jnsgd1na2vs0mg"},{"bike_id":"a9a000e2-a4f8-4267-8694-dda236a252c9","system_id":"levelo_inurba_marseille","lat":43.313391,"lon":5.36706,"is_reserved":false,"is_disabled":false,"rental_uris":{"android":"levelo://app?vid=a9a000e2-a4f8-4267-8694-dda236a252c9","ios":"levelo://app?vid=a9a000e2-a4f8-4267-8694-dda236a252c9"},"vehicle_type_id":"4","last_reported":1717168052,"current_range_meters":31600,"station_id":"ce4bgr92rcd13ifvqc6g","pricing_plan_id":"cebpf4jnsgd1na2vs0mg"},{"bike_id":"45e48687-4dd5-4895-93c9-c40f08ef6852","system_id":"levelo_inurba_marseille","lat":43.313526,"lon":5.367051,"is_reserved":false,"is_disabled":false,"rental_uris":{"android":"levelo://app?vid=45e48687-4dd5-4895-93c9-c40f08ef6852","ios":"levelo://app?vid=45e48687-4dd5-4895-93c9-c40f08ef6852"},"vehicle_type_id":"4","last_reported":1717168052,"current_range_meters":30400,"station_id":"ce4bgr92rcd13ifvqc6g","pricing_plan_id":"cebpf4jnsgd1na2vs0mg"},{"bike_id":"96081eeb-6771-489a-98ce-d56399941ae7","system_id":"levelo_inurba_marseille","lat":43.313391,"lon":5.36706,"is_reserved":false,"is_disabled":false,"rental_uris":{"android":"levelo://app?vid=96081eeb-6771-489a-98ce-d56399941ae7","ios":"levelo://app?vid=96081eeb-6771-489a-98ce-d56399941ae7"},"vehicle_type_id":"4","last_reported":1717168052,"current_range_meters":10000,"station_id":"ce4bgr92rcd13ifvqc6g","pricing_plan_id":"cebpf4jnsgd1na2vs0mg"},{"bike_id":"49bdaf0b-398f-4ee7-a033-a804026163d4","system_id":"levelo_inurba_marseille","lat":43.313391,"lon":5.36706,"is_reserved":false,"is_disabled":false,"rental_uris":{"android":"levelo://app?vid=49bdaf0b-398f-4ee7-a033-a804026163d4","ios":"levelo://app?vid=49bdaf0b-398f-4ee7-a033-a804026163d4"},"vehicle_type_id":"4","last_reported":1717168052,"current_range_meters":12400,"station_id":"ce4bgr92rcd13ifvqc6g","pricing_plan_id":"cebpf4jnsgd1na2vs0mg"},{"bike_id":"0d0a4703-6a6f-48a0-b2df-36bf1d097abf","system_id":"levelo_inurba_marseille","lat":43.313579,"lon":5.367032,"is_reserved":false,"is_disabled":false,"rental_uris":{"android":"levelo://app?vid=0d0a4703-6a6f-48a0-b2df-36bf1d097abf","ios":"levelo://app?vid=0d0a4703-6a6f-48a0-b2df-36bf1d097abf"},"vehicle_type_id":"4","last_reported":1717168052,"current_range_meters":14000,"station_id":"ce4bgr92rcd13ifvqc6g","pricing_plan_id":"cebpf4jnsgd1na2vs0mg"},{"bike_id":"23e14c6c-1128-4d3b-9466-a7994bac7cf7","system_id":"levelo_inurba_marseille","lat":43.312239,"lon":5.368562,"is_reserved":false,"is_disabled":false,"rental_uris":{"android":"levelo://app?vid=23e14c6c-1128-4d3b-9466-a7994bac7cf7","ios":"levelo://app?vid=23e14c6c-1128-4d3b-9466-a7994bac7cf7"},"vehicle_type_id":"4","last_reported":1717168052,"current_range_meters":28000,"station_id":"ce4bgl92rcd13ifvqbq0","pricing_plan_id":"cebpf4jnsgd1na2vs0mg"},{"bike_id":"ff6ecadf-a6d2-488c-8e14-20aaf680c3e6","system_id":"levelo_inurba_marseille","lat":43.312239,"lon":5.368562,"is_reserved":false,"is_disabled":false,"rental_uris":{"android":"levelo://app?vid=ff6ecadf-a6d2-488c-8e14-20aaf680c3e6","ios":"levelo://app?vid=ff6ecadf-a6d2-488c-8e14-20aaf680c3e6"},"vehicle_type_id":"4","last_reported":1717168052,"current_range_meters":25600,"station_id":"ce4bgl92rcd13ifvqbq0","pricing_plan_id":"cebpf4jnsgd1na2vs0mg"},{"bike_id":"0f922c4e-a4a8-4f45-b33e-ce8c4afa5577","system_id":"levelo_inurba_marseille","lat":43.312239,"lon":5.368562,"is_reserved":false,"is_disabled":false,"rental_uris":{"android":"levelo://app?vid=0f922c4e-a4a8-4f45-b33e-ce8c4afa5577","ios":"levelo://app?vid=0f922c4e-a4a8-4f45-b33e-ce8c4afa5577"},"vehicle_type_id":"4","last_reported":1717168052,"current_range_meters":20000,"station_id":"ce4bgl92rcd13ifvqbq0","pricing_plan_id":"cebpf4jnsgd1na2vs0mg"},{"bike_id":"bb2adfb1-6db7-4564-8afb-39b0458a000b","system_id":"levelo_inurba_marseille","lat":43.312239,"lon":5.368562,"is_reserved":false,"is_disabled":false,"rental_uris":{"android":"levelo://app?vid=bb2adfb1-6db7-4564-8afb-39b0458a000b","ios":"levelo://app?vid=bb2adfb1-6db7-4564-8afb-39b0458a000b"},"vehicle_type_id":"4","last_reported":1717168052,"current_range_meters":1200,"station_id":"ce4bgl92rcd13ifvqbq0","pricing_plan_id":"cebpf4jnsgd1na2vs0mg"},{"bike_id":"21884f64-899a-4097-8f29-84c31092109b","system_id":"levelo_inurba_marseille","lat":43.312239,"lon":5.368562,"is_reserved":false,"is_disabled":false,"rental_uris":{"android":"levelo://app?vid=21884f64-899a-4097-8f29-84c31092109b","ios":"levelo://app?vid=21884f64-899a-4097-8f29-84c31092109b"},"vehicle_type_id":"4","last_reported":1717168052,"current_range_meters":24800,"station_id":"ce4bgl92rcd13ifvqbq0","pricing_plan_id":"cebpf4jnsgd1na2vs0mg"},{"bike_id":"cea8873d-aad3-4a88-bf5c-b7414fa15886","system_id":"levelo_inurba_marseille","lat":43.312239,"lon":5.368562,"is_reserved":false,"is_disabled":false,"rental_uris":{"android":"levelo://app?vid=cea8873d-aad3-4a88-bf5c-b7414fa15886","ios":"levelo://app?vid=cea8873d-aad3-4a88-bf5c-b7414fa15886"},"vehicle_type_id":"4","last_reported":1717168052,"current_range_meters":20800,"station_id":"ce4bgl92rcd13ifvqbq0","pricing_plan_id":"cebpf4jnsgd1na2vs0mg"},{"bike_id":"bd6bfec5-4b91-4ea2-a0cc-daddbeee9abc","system_id":"levelo_inurba_marseille","lat":43.312239,"lon":5.368562,"is_reserved":false,"is_disabled":false,"rental_uris":{"android":"levelo://app?vid=bd6bfec5-4b91-4ea2-a0cc-daddbeee9abc","ios":"levelo://app?vid=bd6bfec5-4b91-4ea2-a0cc-daddbeee9abc"},"vehicle_type_id":"4","last_reported":1717168052,"current_range_meters":5600,"station_id":"ce4bgl92rcd13ifvqbq0","pricing_plan_id":"cebpf4jnsgd1na2vs0mg"},{"bike_id":"dfbc514f-e28d-4f1d-a3ba-f035dc8242c8","system_id":"levelo_inurba_marseille","lat":43.312239,"lon":5.368562,"is_reserved":false,"is_disabled":false,"rental_uris":{"android":"levelo://app?vid=dfbc514f-e28d-4f1d-a3ba-f035dc8242c8","ios":"levelo://app?vid=dfbc514f-e28d-4f1d-a3ba-f035dc8242c8"},"vehicle_type_id":"4","last_reported":1717168052,"current_range_meters":20400,"station_id":"ce4bgl92rcd13ifvqbq0","pricing_plan_id":"cebpf4jnsgd1na2vs0mg"},{"bike_id":"ce3ffd43-ff89-4c97-a6ba-4416883a8b54","system_id":"levelo_inurba_marseille","lat":43.30906,"lon":5.3685,"is_reserved":false,"is_disabled":false,"rental_uris":{"android":"levelo://app?vid=ce3ffd43-ff89-4c97-a6ba-4416883a8b54","ios":"levelo://app?vid=ce3ffd43-ff89-4c97-a6ba-4416883a8b54"},"vehicle_type_id":"4","last_reported":1717168052,"current_range_meters":20800,"station_id":"ce4bgn92rcd13ifvqbvg","pricing_plan_id":"cebpf4jnsgd1na2vs0mg"},{"bike_id":"54510f6e-2964-4ea5-bcc2-89d20549627e","system_id":"levelo_inurba_marseille","lat":43.30904,"lon":5.36854,"is_reserved":false,"is_disabled":false,"rental_uris":{"android":"levelo://app?vid=54510f6e-2964-4ea5-bcc2-89d20549627e","ios":"levelo://app?vid=54510f6e-2964-4ea5-bcc2-89d20549627e"},"vehicle_type_id":"4","last_reported":1717168052,"current_range_meters":14400,"station_id":"ce4bgn92rcd13ifvqbvg","pricing_plan_id":"cebpf4jnsgd1na2vs0mg"},{"bike_id":"a2b1e035-c5ff-443c-bb68-8146e1c97b04","system_id":"levelo_inurba_marseille","lat":43.314811,"lon":5.373103,"is_reserved":false,"is_disabled":false,"rental_uris":{"android":"levelo://app?vid=a2b1e035-c5ff-443c-bb68-8146e1c97b04","ios":"levelo://app?vid=a2b1e035-c5ff-443c-bb68-8146e1c97b04"},"vehicle_type_id":"4","last_reported":1717168052,"current_range_meters":0,"station_id":"ce4bgt12rcd13ifvqcd0","pricing_plan_id":"cebpf4jnsgd1na2vs0mg"},{"bike_id":"3ef61efe-e519-45ae-a844-a9215df795d2","system_id":"levelo_inurba_marseille","lat":43.31487,"lon":5.37303,"is_reserved":false,"is_disabled":false,"rental_uris":{"android":"levelo://app?vid=3ef61efe-e519-45ae-a844-a9215df795d2","ios":"levelo://app?vid=3ef61efe-e519-45ae-a844-a9215df795d2"},"vehicle_type_id":"4","last_reported":1717168052,"current_range_meters":0,"station_id":"ce4bgt12rcd13ifvqcd0","pricing_plan_id":"cebpf4jnsgd1na2vs0mg"},{"bike_id":"e9966fec-57d4-480b-bff9-54bb6569f930","system_id":"levelo_inurba_marseille","lat":43.31507,"lon":5.37299,"is_reserved":false,"is_disabled":false,"rental_uris":{"android":"levelo://app?vid=e9966fec-57d4-480b-bff9-54bb6569f930","ios":"levelo://app?vid=e9966fec-57d4-480b-bff9-54bb6569f930"},"vehicle_type_id":"4","last_reported":1717168052,"current_range_meters":0,"station_id":"ce4bgt12rcd13ifvqcd0","pricing_plan_id":"cebpf4jnsgd1na2vs0mg"},{"bike_id":"6944a5e8-4860-49e1-ab07-13dd955f2d58","system_id":"levelo_inurba_marseille","lat":43.309039,"lon":5.371797,"is_reserved":false,"is_disabled":false,"rental_uris":{"android":"levelo://app?vid=6944a5e8-4860-49e1-ab07-13dd955f2d58","ios":"levelo://app?vid=6944a5e8-4860-49e1-ab07-13dd955f2d58"},"vehicle_type_id":"4","last_reported":1717168052,"current_range_meters":31600,"station_id":"ce4bguh2rcd13ifvqckg","pricing_plan_id":"cebpf4jnsgd1na2vs0mg"},{"bike_id":"7baa6c80-c883-42a9-bf94-48af49ed78cc","system_id":"levelo_inurba_marseille","lat":43.31432,"lon":5.3738,"is_reserved":false,"is_disabled":false,"rental_uris":{"android":"levelo://app?vid=7baa6c80-c883-42a9-bf94-48af49ed78cc","ios":"levelo://app?vid=7baa6c80-c883-42a9-bf94-48af49ed78cc"},"vehicle_type_id":"4","last_reported":1717168052,"current_range_meters":17200,"station_id":"","pricing_plan_id":"cebpf4jnsgd1na2vs0mg"},{"bike_id":"8f46712f-1ec7-4588-99a6-561cedf55a8c","system_id":"levelo_inurba_marseille","lat":43.309039,"lon":5.371797,"is_reserved":false,"is_disabled":false,"rental_uris":{"android":"levelo://app?vid=8f46712f-1ec7-4588-99a6-561cedf55a8c","ios":"levelo://app?vid=8f46712f-1ec7-4588-99a6-561cedf55a8c"},"vehicle_type_id":"4","last_reported":1717168052,"current_range_meters":29600,"station_id":"ce4bguh2rcd13ifvqckg","pricing_plan_id":"cebpf4jnsgd1na2vs0mg"},{"bike_id":"6fc21d98-6632-47cf-9618-9aeebb4bdfb7","system_id":"levelo_inurba_marseille","lat":43.309039,"lon":5.371797,"is_reserved":false,"is_disabled":false,"rental_uris":{"android":"levelo://app?vid=6fc21d98-6632-47cf-9618-9aeebb4bdfb7","ios":"levelo://app?vid=6fc21d98-6632-47cf-9618-9aeebb4bdfb7"},"vehicle_type_id":"4","last_reported":1717168052,"current_range_meters":28800,"station_id":"ce4bguh2rcd13ifvqckg","pricing_plan_id":"cebpf4jnsgd1na2vs0mg"},{"bike_id":"cb04b88a-4e70-4d82-baf5-220ffeb82065","system_id":"levelo_inurba_marseille","lat":43.309039,"lon":5.371797,"is_reserved":false,"is_disabled":false,"rental_uris":{"android":"levelo://app?vid=cb04b88a-4e70-4d82-baf5-220ffeb82065","ios":"levelo://app?vid=cb04b88a-4e70-4d82-baf5-220ffeb82065"},"vehicle_type_id":"4","last_reported":1717168052,"current_range_meters":26400,"station_id":"ce4bguh2rcd13ifvqckg","pricing_plan_id":"cebpf4jnsgd1na2vs0mg"},{"bike_id":"a678dc00-65f0-4d57-abae-55e69124d3d5","system_id":"levelo_inurba_marseille","lat":43.309039,"lon":5.371797,"is_reserved":false,"is_disabled":false,"rental_uris":{"android":"levelo://app?vid=a678dc00-65f0-4d57-abae-55e69124d3d5","ios":"levelo://app?vid=a678dc00-65f0-4d57-abae-55e69124d3d5"},"vehicle_type_id":"4","last_reported":1717168052,"current_range_meters":14400,"station_id":"ce4bguh2rcd13ifvqckg","pricing_plan_id":"cebpf4jnsgd1na2vs0mg"},{"bike_id":"9a7f4940-9a73-44a4-b12c-f9aec5ed8362","system_id":"levelo_inurba_marseille","lat":43.309034,"lon":5.371783,"is_reserved":false,"is_disabled":false,"rental_uris":{"android":"levelo://app?vid=9a7f4940-9a73-44a4-b12c-f9aec5ed8362","ios":"levelo://app?vid=9a7f4940-9a73-44a4-b12c-f9aec5ed8362"},"vehicle_type_id":"4","last_reported":1717168052,"current_range_meters":12800,"station_id":"ce4bguh2rcd13ifvqckg","pricing_plan_id":"cebpf4jnsgd1na2vs0mg"},{"bike_id":"3212a196-09e3-4d7c-9405-41a38dbf14c0","system_id":"levelo_inurba_marseille","lat":43.309034,"lon":5.371783,"is_reserved":false,"is_disabled":false,"rental_uris":{"android":"levelo://app?vid=3212a196-09e3-4d7c-9405-41a38dbf14c0","ios":"levelo://app?vid=3212a196-09e3-4d7c-9405-41a38dbf14c0"},"vehicle_type_id":"4","last_reported":1717168052,"current_range_meters":14800,"station_id":"ce4bguh2rcd13ifvqckg","pricing_plan_id":"cebpf4jnsgd1na2vs0mg"},{"bike_id":"97eb3c4c-6bf9-4a6c-9309-42de4f03c081","system_id":"levelo_inurba_marseille","lat":43.309039,"lon":5.371797,"is_reserved":false,"is_disabled":false,"rental_uris":{"android":"levelo://app?vid=97eb3c4c-6bf9-4a6c-9309-42de4f03c081","ios":"levelo://app?vid=97eb3c4c-6bf9-4a6c-9309-42de4f03c081"},"vehicle_type_id":"4","last_reported":1717168052,"current_range_meters":17600,"station_id":"ce4bguh2rcd13ifvqckg","pricing_plan_id":"cebpf4jnsgd1na2vs0mg"},{"bike_id":"a0d99d72-0bd5-4530-ad08-c8be5b39632f","system_id":"levelo_inurba_marseille","lat":43.309034,"lon":5.371783,"is_reserved":false,"is_disabled":false,"rental_uris":{"android":"levelo://app?vid=a0d99d72-0bd5-4530-ad08-c8be5b39632f","ios":"levelo://app?vid=a0d99d72-0bd5-4530-ad08-c8be5b39632f"},"vehicle_type_id":"4","last_reported":1717168052,"current_range_meters":2000,"station_id":"ce4bguh2rcd13ifvqckg","pricing_plan_id":"cebpf4jnsgd1na2vs0mg"},{"bike_id":"595bc011-8970-4306-bd50-2d1fd0777967","system_id":"levelo_inurba_marseille","lat":43.309034,"lon":5.371783,"is_reserved":false,"is_disabled":false,"rental_uris":{"android":"levelo://app?vid=595bc011-8970-4306-bd50-2d1fd0777967","ios":"levelo://app?vid=595bc011-8970-4306-bd50-2d1fd0777967"},"vehicle_type_id":"4","last_reported":1717168052,"current_range_meters":23200,"station_id":"ce4bguh2rcd13ifvqckg","pricing_plan_id":"cebpf4jnsgd1na2vs0mg"},{"bike_id":"8e93b2ae-0c45-49be-b569-81aaa1f4412b","system_id":"levelo_inurba_marseille","lat":43.309039,"lon":5.371797,"is_reserved":false,"is_disabled":false,"rental_uris":{"android":"levelo://app?vid=8e93b2ae-0c45-49be-b569-81aaa1f4412b","ios":"levelo://app?vid=8e93b2ae-0c45-49be-b569-81aaa1f4412b"},"vehicle_type_id":"4","last_reported":1717168052,"current_range_meters":28800,"station_id":"ce4bguh2rcd13ifvqckg","pricing_plan_id":"cebpf4jnsgd1na2vs0mg"},{"bike_id":"ffe2a53d-f68f-4c5b-ba8d-486efe79e1c3","system_id":"levelo_inurba_marseille","lat":43.30887,"lon":5.372,"is_reserved":false,"is_disabled":false,"rental_uris":{"android":"levelo://app?vid=ffe2a53d-f68f-4c5b-ba8d-486efe79e1c3","ios":"levelo://app?vid=ffe2a53d-f68f-4c5b-ba8d-486efe79e1c3"},"vehicle_type_id":"4","last_reported":1717168052,"current_range_meters":0,"station_id":"ce4bguh2rcd13ifvqckg","pricing_plan_id":"cebpf4jnsgd1na2vs0mg"},{"bike_id":"7f14e9fd-23e7-4ef7-9e7e-08691a30fb9b","system_id":"levelo_inurba_marseille","lat":43.312239,"lon":5.368562,"is_reserved":false,"is_disabled":false,"rental_uris":{"android":"levelo://app?vid=7f14e9fd-23e7-4ef7-9e7e-08691a30fb9b","ios":"levelo://app?vid=7f14e9fd-23e7-4ef7-9e7e-08691a30fb9b"},"vehicle_type_id":"4","last_reported":1717168052,"current_range_meters":22800,"station_id":"ce4bgl92rcd13ifvqbq0","pricing_plan_id":"cebpf4jnsgd1na2vs0mg"},{"bike_id":"435eea1b-6df5-4338-a9f1-88cc053af9f4","system_id":"levelo_inurba_marseille","lat":43.305989,"lon":5.37225,"is_reserved":false,"is_disabled":false,"rental_uris":{"android":"levelo://app?vid=435eea1b-6df5-4338-a9f1-88cc053af9f4","ios":"levelo://app?vid=435eea1b-6df5-4338-a9f1-88cc053af9f4"},"vehicle_type_id":"4","last_reported":1717168052,"current_range_meters":5600,"station_id":"ce4bgqh2rcd13ifvqc4g","pricing_plan_id":"cebpf4jnsgd1na2vs0mg"},{"bike_id":"d81f4646-cd4d-47c5-9163-e35264a9cdda","system_id":"levelo_inurba_marseille","lat":43.305451,"lon":5.365547,"is_reserved":false,"is_disabled":false,"rental_uris":{"android":"levelo://app?vid=d81f4646-cd4d-47c5-9163-e35264a9cdda","ios":"levelo://app?vid=d81f4646-cd4d-47c5-9163-e35264a9cdda"},"vehicle_type_id":"4","last_reported":1717168052,"current_range_meters":16000,"station_id":"ce4bgs12rcd13ifvqcag","pricing_plan_id":"cebpf4jnsgd1na2vs0mg"},{"bike_id":"ac6b9103-f257-431a-ae3d-9e9c87e7b35d","system_id":"levelo_inurba_marseille","lat":43.305989,"lon":5.37225,"is_reserved":false,"is_disabled":false,"rental_uris":{"android":"levelo://app?vid=ac6b9103-f257-431a-ae3d-9e9c87e7b35d","ios":"levelo://app?vid=ac6b9103-f257-431a-ae3d-9e9c87e7b35d"},"vehicle_type_id":"4","last_reported":1717168052,"current_range_meters":30000,"station_id":"ce4bgqh2rcd13ifvqc4g","pricing_plan_id":"cebpf4jnsgd1na2vs0mg"},{"bike_id":"493ad180-83db-4556-8920-d682a3a3bf2c","system_id":"levelo_inurba_marseille","lat":43.30532,"lon":5.36712,"is_reserved":false,"is_disabled":false,"rental_uris":{"android":"levelo://app?vid=493ad180-83db-4556-8920-d682a3a3bf2c","ios":"levelo://app?vid=493ad180-83db-4556-8920-d682a3a3bf2c"},"vehicle_type_id":"4","last_reported":1717168052,"current_range_meters":0,"station_id":"ce4bgrp2rcd13ifvqc9g","pricing_plan_id":"cebpf4jnsgd1na2vs0mg"},{"bike_id":"f55368a9-679f-4600-a9c6-cfe383dbe89c","system_id":"levelo_inurba_marseille","lat":43.311125,"lon":5.377624,"is_reserved":false,"is_disabled":false,"rental_uris":{"android":"levelo://app?vid=f55368a9-679f-4600-a9c6-cfe383dbe89c","ios":"levelo://app?vid=f55368a9-679f-4600-a9c6-cfe383dbe89c"},"vehicle_type_id":"4","last_reported":1717168052,"current_range_meters":29600,"station_id":"ce4bgt92rcd13ifvqcg0","pricing_plan_id":"cebpf4jnsgd1na2vs0mg"},{"bike_id":"d0c118e8-d009-4e45-8338-ba8480a833a3","system_id":"levelo_inurba_marseille","lat":43.305989,"lon":5.37225,"is_reserved":false,"is_disabled":false,"rental_uris":{"android":"levelo://app?vid=d0c118e8-d009-4e45-8338-ba8480a833a3","ios":"levelo://app?vid=d0c118e8-d009-4e45-8338-ba8480a833a3"},"vehicle_type_id":"4","last_reported":1717168052,"current_range_meters":5600,"station_id":"ce4bgqh2rcd13ifvqc4g","pricing_plan_id":"cebpf4jnsgd1na2vs0mg"},{"bike_id":"68be991c-d91d-4ed3-b849-89e3db12d3bc","system_id":"levelo_inurba_marseille","lat":43.305989,"lon":5.37225,"is_reserved":false,"is_disabled":false,"rental_uris":{"android":"levelo://app?vid=68be991c-d91d-4ed3-b849-89e3db12d3bc","ios":"levelo://app?vid=68be991c-d91d-4ed3-b849-89e3db12d3bc"},"vehicle_type_id":"4","last_reported":1717168052,"current_range_meters":27600,"station_id":"ce4bgqh2rcd13ifvqc4g","pricing_plan_id":"cebpf4jnsgd1na2vs0mg"},{"bike_id":"56156c0c-ee23-446b-94b7-605de32b4621","system_id":"levelo_inurba_marseille","lat":43.305989,"lon":5.37225,"is_reserved":false,"is_disabled":false,"rental_uris":{"android":"levelo://app?vid=56156c0c-ee23-446b-94b7-605de32b4621","ios":"levelo://app?vid=56156c0c-ee23-446b-94b7-605de32b4621"},"vehicle_type_id":"4","last_reported":1717168052,"current_range_meters":11600,"station_id":"ce4bgqh2rcd13ifvqc4g","pricing_plan_id":"cebpf4jnsgd1na2vs0mg"},{"bike_id":"f7ddfbcc-bbaf-45bc-87b1-aca3234726d4","system_id":"levelo_inurba_marseille","lat":43.307945,"lon":5.376487,"is_reserved":false,"is_disabled":false,"rental_uris":{"android":"levelo://app?vid=f7ddfbcc-bbaf-45bc-87b1-aca3234726d4","ios":"levelo://app?vid=f7ddfbcc-bbaf-45bc-87b1-aca3234726d4"},"vehicle_type_id":"4","last_reported":1717168052,"current_range_meters":28800,"station_id":"ce4bgv92rcd13ifvqcq0","pricing_plan_id":"cebpf4jnsgd1na2vs0mg"},{"bike_id":"fe45ef6b-0fe4-4205-bab2-8a07f5f4c1bc","system_id":"levelo_inurba_marseille","lat":43.305989,"lon":5.37225,"is_reserved":false,"is_disabled":false,"rental_uris":{"android":"levelo://app?vid=fe45ef6b-0fe4-4205-bab2-8a07f5f4c1bc","ios":"levelo://app?vid=fe45ef6b-0fe4-4205-bab2-8a07f5f4c1bc"},"vehicle_type_id":"4","last_reported":1717168052,"current_range_meters":22000,"station_id":"ce4bgqh2rcd13ifvqc4g","pricing_plan_id":"cebpf4jnsgd1na2vs0mg"},{"bike_id":"5a1919a5-f7de-48d1-b3e5-3ed0fca9ee52","system_id":"levelo_inurba_marseille","lat":43.305989,"lon":5.37225,"is_reserved":false,"is_disabled":false,"rental_uris":{"android":"levelo://app?vid=5a1919a5-f7de-48d1-b3e5-3ed0fca9ee52","ios":"levelo://app?vid=5a1919a5-f7de-48d1-b3e5-3ed0fca9ee52"},"vehicle_type_id":"4","last_reported":1717168052,"current_range_meters":4400,"station_id":"ce4bgqh2rcd13ifvqc4g","pricing_plan_id":"cebpf4jnsgd1na2vs0mg"},{"bike_id":"507c163e-cdd2-4451-8fa0-f4328a0ec16b","system_id":"levelo_inurba_marseille","lat":43.305989,"lon":5.37225,"is_reserved":false,"is_disabled":false,"rental_uris":{"android":"levelo://app?vid=507c163e-cdd2-4451-8fa0-f4328a0ec16b","ios":"levelo://app?vid=507c163e-cdd2-4451-8fa0-f4328a0ec16b"},"vehicle_type_id":"4","last_reported":1717168052,"current_range_meters":7200,"station_id":"ce4bgqh2rcd13ifvqc4g","pricing_plan_id":"cebpf4jnsgd1na2vs0mg"},{"bike_id":"cb3da9e0-cf7a-425c-8239-157387d36586","system_id":"levelo_inurba_marseille","lat":43.305989,"lon":5.37225,"is_reserved":false,"is_disabled":false,"rental_uris":{"android":"levelo://app?vid=cb3da9e0-cf7a-425c-8239-157387d36586","ios":"levelo://app?vid=cb3da9e0-cf7a-425c-8239-157387d36586"},"vehicle_type_id":"4","last_reported":1717168052,"current_range_meters":6800,"station_id":"ce4bgqh2rcd13ifvqc4g","pricing_plan_id":"cebpf4jnsgd1na2vs0mg"},{"bike_id":"543d8e28-45cf-488a-83c3-26e4e5b5aad9","system_id":"levelo_inurba_marseille","lat":43.311125,"lon":5.377624,"is_reserved":false,"is_disabled":false,"rental_uris":{"android":"levelo://app?vid=543d8e28-45cf-488a-83c3-26e4e5b5aad9","ios":"levelo://app?vid=543d8e28-45cf-488a-83c3-26e4e5b5aad9"},"vehicle_type_id":"4","last_reported":1717168052,"current_range_meters":30400,"station_id":"ce4bgt92rcd13ifvqcg0","pricing_plan_id":"cebpf4jnsgd1na2vs0mg"},{"bike_id":"03024514-78e8-412e-b96d-9e046b76c64d","system_id":"levelo_inurba_marseille","lat":43.311131,"lon":5.377651,"is_reserved":false,"is_disabled":false,"rental_uris":{"android":"levelo://app?vid=03024514-78e8-412e-b96d-9e046b76c64d","ios":"levelo://app?vid=03024514-78e8-412e-b96d-9e046b76c64d"},"vehicle_type_id":"4","last_reported":1717168052,"current_range_meters":19200,"station_id":"ce4bgt92rcd13ifvqcg0","pricing_plan_id":"cebpf4jnsgd1na2vs0mg"},{"bike_id":"d965c652-756b-4ca8-b31e-3f795593f6e1","system_id":"levelo_inurba_marseille","lat":43.31121,"lon":5.37769,"is_reserved":false,"is_disabled":false,"rental_uris":{"android":"levelo://app?vid=d965c652-756b-4ca8-b31e-3f795593f6e1","ios":"levelo://app?vid=d965c652-756b-4ca8-b31e-3f795593f6e1"},"vehicle_type_id":"4","last_reported":1717168052,"current_range_meters":5200,"station_id":"ce4bgt92rcd13ifvqcg0","pricing_plan_id":"cebpf4jnsgd1na2vs0mg"},{"bike_id":"de2e57bd-c93f-4ca4-951b-9aece23f2e7a","system_id":"levelo_inurba_marseille","lat":43.307945,"lon":5.376487,"is_reserved":false,"is_disabled":false,"rental_uris":{"android":"levelo://app?vid=de2e57bd-c93f-4ca4-951b-9aece23f2e7a","ios":"levelo://app?vid=de2e57bd-c93f-4ca4-951b-9aece23f2e7a"},"vehicle_type_id":"4","last_reported":1717168052,"current_range_meters":15200,"station_id":"ce4bgv92rcd13ifvqcq0","pricing_plan_id":"cebpf4jnsgd1na2vs0mg"},{"bike_id":"f1f18a74-ec5b-4481-9f85-44c924f61f44","system_id":"levelo_inurba_marseille","lat":43.307945,"lon":5.376487,"is_reserved":false,"is_disabled":false,"rental_uris":{"android":"levelo://app?vid=f1f18a74-ec5b-4481-9f85-44c924f61f44","ios":"levelo://app?vid=f1f18a74-ec5b-4481-9f85-44c924f61f44"},"vehicle_type_id":"4","last_reported":1717168052,"current_range_meters":10400,"station_id":"ce4bgv92rcd13ifvqcq0","pricing_plan_id":"cebpf4jnsgd1na2vs0mg"},{"bike_id":"0a15eaa9-28e8-4980-930f-d76edbf77773","system_id":"levelo_inurba_marseille","lat":43.305989,"lon":5.37225,"is_reserved":false,"is_disabled":false,"rental_uris":{"android":"levelo://app?vid=0a15eaa9-28e8-4980-930f-d76edbf77773","ios":"levelo://app?vid=0a15eaa9-28e8-4980-930f-d76edbf77773"},"vehicle_type_id":"4","last_reported":1717168052,"current_range_meters":0,"station_id":"ce4bgqh2rcd13ifvqc4g","pricing_plan_id":"cebpf4jnsgd1na2vs0mg"},{"bike_id":"76c6fac2-8c94-4f08-9ce6-ea4ffb0bf310","system_id":"levelo_inurba_marseille","lat":43.307945,"lon":5.376487,"is_reserved":false,"is_disabled":false,"rental_uris":{"android":"levelo://app?vid=76c6fac2-8c94-4f08-9ce6-ea4ffb0bf310","ios":"levelo://app?vid=76c6fac2-8c94-4f08-9ce6-ea4ffb0bf310"},"vehicle_type_id":"4","last_reported":1717168052,"current_range_meters":8400,"station_id":"ce4bgv92rcd13ifvqcq0","pricing_plan_id":"cebpf4jnsgd1na2vs0mg"},{"bike_id":"a900b286-a681-4dc0-a3ba-b9435102f378","system_id":"levelo_inurba_marseille","lat":43.317075,"lon":5.377367,"is_reserved":false,"is_disabled":false,"rental_uris":{"android":"levelo://app?vid=a900b286-a681-4dc0-a3ba-b9435102f378","ios":"levelo://app?vid=a900b286-a681-4dc0-a3ba-b9435102f378"},"vehicle_type_id":"4","last_reported":1717168052,"current_range_meters":0,"station_id":"ce4bgth2rcd13ifvqch0","pricing_plan_id":"cebpf4jnsgd1na2vs0mg"},{"bike_id":"46a1ddd1-4f42-4837-833d-677374b00a58","system_id":"levelo_inurba_marseille","lat":43.317075,"lon":5.377367,"is_reserved":false,"is_disabled":false,"rental_uris":{"android":"levelo://app?vid=46a1ddd1-4f42-4837-833d-677374b00a58","ios":"levelo://app?vid=46a1ddd1-4f42-4837-833d-677374b00a58"},"vehicle_type_id":"4","last_reported":1717168052,"current_range_meters":24000,"station_id":"ce4bgth2rcd13ifvqch0","pricing_plan_id":"cebpf4jnsgd1na2vs0mg"},{"bike_id":"8a660e1b-6ade-4126-adcc-5a343c31deca","system_id":"levelo_inurba_marseille","lat":43.303046,"lon":5.368981,"is_reserved":false,"is_disabled":false,"rental_uris":{"android":"levelo://app?vid=8a660e1b-6ade-4126-adcc-5a343c31deca","ios":"levelo://app?vid=8a660e1b-6ade-4126-adcc-5a343c31deca"},"vehicle_type_id":"4","last_reported":1717168052,"current_range_meters":0,"station_id":"ce4bgqh2rcd13ifvqc5g","pricing_plan_id":"cebpf4jnsgd1na2vs0mg"},{"bike_id":"65882825-2cfc-415c-8220-d00d9bd2ca2f","system_id":"levelo_inurba_marseille","lat":43.315289,"lon":5.380349,"is_reserved":false,"is_disabled":false,"rental_uris":{"android":"levelo://app?vid=65882825-2cfc-415c-8220-d00d9bd2ca2f","ios":"levelo://app?vid=65882825-2cfc-415c-8220-d00d9bd2ca2f"},"vehicle_type_id":"4","last_reported":1717168052,"current_range_meters":9200,"station_id":"ce4bhsp2rcd13ifvqi50","pricing_plan_id":"cebpf4jnsgd1na2vs0mg"},{"bike_id":"bb91e841-5066-4ec4-8864-5f145861694c","system_id":"levelo_inurba_marseille","lat":43.301939,"lon":5.366286,"is_reserved":false,"is_disabled":false,"rental_uris":{"android":"levelo://app?vid=bb91e841-5066-4ec4-8864-5f145861694c","ios":"levelo://app?vid=bb91e841-5066-4ec4-8864-5f145861694c"},"vehicle_type_id":"4","last_reported":1717168052,"current_range_meters":0,"station_id":"ce4bgrh2rcd13ifvqc8g","pricing_plan_id":"cebpf4jnsgd1na2vs0mg"},{"bike_id":"d623d5e9-f279-4a3c-bd9f-5b3e3b6716a5","system_id":"levelo_inurba_marseille","lat":43.308012,"lon":5.381511,"is_reserved":false,"is_disabled":false,"rental_uris":{"android":"levelo://app?vid=d623d5e9-f279-4a3c-bd9f-5b3e3b6716a5","ios":"levelo://app?vid=d623d5e9-f279-4a3c-bd9f-5b3e3b6716a5"},"vehicle_type_id":"4","last_reported":1717168052,"current_range_meters":3200,"station_id":"ce4bgt12rcd13ifvqce0","pricing_plan_id":"cebpf4jnsgd1na2vs0mg"},{"bike_id":"97fce2e1-05c8-4ec9-8b75-a83db90f9701","system_id":"levelo_inurba_marseille","lat":43.308012,"lon":5.381511,"is_reserved":false,"is_disabled":false,"rental_uris":{"android":"levelo://app?vid=97fce2e1-05c8-4ec9-8b75-a83db90f9701","ios":"levelo://app?vid=97fce2e1-05c8-4ec9-8b75-a83db90f9701"},"vehicle_type_id":"4","last_reported":1717168052,"current_range_meters":16000,"station_id":"ce4bgt12rcd13ifvqce0","pricing_plan_id":"cebpf4jnsgd1na2vs0mg"},{"bike_id":"d9188a84-ba02-4adf-8f93-33b1d91a7491","system_id":"levelo_inurba_marseille","lat":43.30807,"lon":5.38152,"is_reserved":false,"is_disabled":false,"rental_uris":{"android":"levelo://app?vid=d9188a84-ba02-4adf-8f93-33b1d91a7491","ios":"levelo://app?vid=d9188a84-ba02-4adf-8f93-33b1d91a7491"},"vehicle_type_id":"4","last_reported":1717168052,"current_range_meters":6000,"station_id":"ce4bhbh2rcd13ifvqeo0","pricing_plan_id":"cebpf4jnsgd1na2vs0mg"},{"bike_id":"7e6dcf18-96c5-4162-a29f-479fbf93b3c5","system_id":"levelo_inurba_marseille","lat":43.30798,"lon":5.3815,"is_reserved":false,"is_disabled":false,"rental_uris":{"android":"levelo://app?vid=7e6dcf18-96c5-4162-a29f-479fbf93b3c5","ios":"levelo://app?vid=7e6dcf18-96c5-4162-a29f-479fbf93b3c5"},"vehicle_type_id":"4","last_reported":1717168052,"current_range_meters":30000,"station_id":"ce4bgt12rcd13ifvqce0","pricing_plan_id":"cebpf4jnsgd1na2vs0mg"},{"bike_id":"9b55b335-ce60-4697-b179-1d1f5f239ac8","system_id":"levelo_inurba_marseille","lat":43.301939,"lon":5.366286,"is_reserved":false,"is_disabled":false,"rental_uris":{"android":"levelo://app?vid=9b55b335-ce60-4697-b179-1d1f5f239ac8","ios":"levelo://app?vid=9b55b335-ce60-4697-b179-1d1f5f239ac8"},"vehicle_type_id":"4","last_reported":1717168052,"current_range_meters":10800,"station_id":"ce4bgrh2rcd13ifvqc8g","pricing_plan_id":"cebpf4jnsgd1na2vs0mg"},{"bike_id":"e3a63dce-f165-4317-9cbc-a8a16652ad2a","system_id":"levelo_inurba_marseille","lat":43.304606,"lon":5.379026,"is_reserved":false,"is_disabled":false,"rental_uris":{"android":"levelo://app?vid=e3a63dce-f165-4317-9cbc-a8a16652ad2a","ios":"levelo://app?vid=e3a63dce-f165-4317-9cbc-a8a16652ad2a"},"vehicle_type_id":"4","last_reported":1717168052,"current_range_meters":31200,"station_id":"ce4bgup2rcd13ifvqcn0","pricing_plan_id":"cebpf4jnsgd1na2vs0mg"},{"bike_id":"b2ccb95c-a1a7-4943-960a-358efd317111","system_id":"levelo_inurba_marseille","lat":43.304606,"lon":5.379026,"is_reserved":false,"is_disabled":false,"rental_uris":{"android":"levelo://app?vid=b2ccb95c-a1a7-4943-960a-358efd317111","ios":"levelo://app?vid=b2ccb95c-a1a7-4943-960a-358efd317111"},"vehicle_type_id":"4","last_reported":1717168052,"current_range_meters":10400,"station_id":"ce4bgup2rcd13ifvqcn0","pricing_plan_id":"cebpf4jnsgd1na2vs0mg"},{"bike_id":"37249eee-f59a-420f-814d-855afeb04b01","system_id":"levelo_inurba_marseille","lat":43.304606,"lon":5.379026,"is_reserved":false,"is_disabled":false,"rental_uris":{"android":"levelo://app?vid=37249eee-f59a-420f-814d-855afeb04b01","ios":"levelo://app?vid=37249eee-f59a-420f-814d-855afeb04b01"},"vehicle_type_id":"4","last_reported":1717168052,"current_range_meters":0,"station_id":"ce4bgup2rcd13ifvqcn0","pricing_plan_id":"cebpf4jnsgd1na2vs0mg"},{"bike_id":"0b3d269c-84af-4db3-b5f0-e1ecc3996be1","system_id":"levelo_inurba_marseille","lat":43.304606,"lon":5.379026,"is_reserved":false,"is_disabled":false,"rental_uris":{"android":"levelo://app?vid=0b3d269c-84af-4db3-b5f0-e1ecc3996be1","ios":"levelo://app?vid=0b3d269c-84af-4db3-b5f0-e1ecc3996be1"},"vehicle_type_id":"4","last_reported":1717168052,"current_range_meters":0,"station_id":"ce4bgup2rcd13ifvqcn0","pricing_plan_id":"cebpf4jnsgd1na2vs0mg"},{"bike_id":"5b893b73-a2be-42fd-a4b3-9fc8db3bfa01","system_id":"levelo_inurba_marseille","lat":43.304606,"lon":5.379026,"is_reserved":false,"is_disabled":false,"rental_uris":{"android":"levelo://app?vid=5b893b73-a2be-42fd-a4b3-9fc8db3bfa01","ios":"levelo://app?vid=5b893b73-a2be-42fd-a4b3-9fc8db3bfa01"},"vehicle_type_id":"4","last_reported":1717168052,"current_range_meters":24000,"station_id":"ce4bgup2rcd13ifvqcn0","pricing_plan_id":"cebpf4jnsgd1na2vs0mg"},{"bike_id":"86dff028-dfae-49b0-ace8-74909438d31e","system_id":"levelo_inurba_marseille","lat":43.32475,"lon":5.36566,"is_reserved":false,"is_disabled":false,"rental_uris":{"android":"levelo://app?vid=86dff028-dfae-49b0-ace8-74909438d31e","ios":"levelo://app?vid=86dff028-dfae-49b0-ace8-74909438d31e"},"vehicle_type_id":"4","last_reported":1717168052,"current_range_meters":22800,"station_id":"ce4bhs12rcd13ifvqhvg","pricing_plan_id":"cebpf4jnsgd1na2vs0mg"},{"bike_id":"b3abe369-de9c-4992-ad31-8ddb8e01ed56","system_id":"levelo_inurba_marseille","lat":43.324771,"lon":5.36557,"is_reserved":false,"is_disabled":false,"rental_uris":{"android":"levelo://app?vid=b3abe369-de9c-4992-ad31-8ddb8e01ed56","ios":"levelo://app?vid=b3abe369-de9c-4992-ad31-8ddb8e01ed56"},"vehicle_type_id":"4","last_reported":1717168052,"current_range_meters":29600,"station_id":"ce4bhs12rcd13ifvqhvg","pricing_plan_id":"cebpf4jnsgd1na2vs0mg"},{"bike_id":"96777acf-ab97-4114-9a9b-1347bad319b3","system_id":"levelo_inurba_marseille","lat":43.324771,"lon":5.36557,"is_reserved":false,"is_disabled":false,"rental_uris":{"android":"levelo://app?vid=96777acf-ab97-4114-9a9b-1347bad319b3","ios":"levelo://app?vid=96777acf-ab97-4114-9a9b-1347bad319b3"},"vehicle_type_id":"4","last_reported":1717168052,"current_range_meters":22800,"station_id":"ce4bhs12rcd13ifvqhvg","pricing_plan_id":"cebpf4jnsgd1na2vs0mg"},{"bike_id":"09a23f3e-71cb-406c-a41d-682846d49308","system_id":"levelo_inurba_marseille","lat":43.324771,"lon":5.36557,"is_reserved":false,"is_disabled":false,"rental_uris":{"android":"levelo://app?vid=09a23f3e-71cb-406c-a41d-682846d49308","ios":"levelo://app?vid=09a23f3e-71cb-406c-a41d-682846d49308"},"vehicle_type_id":"4","last_reported":1717168052,"current_range_meters":23600,"station_id":"ce4bhs12rcd13ifvqhvg","pricing_plan_id":"cebpf4jnsgd1na2vs0mg"},{"bike_id":"e089bfff-0a40-4f08-bcc0-e12f9f9fa3d8","system_id":"levelo_inurba_marseille","lat":43.3248,"lon":5.36556,"is_reserved":false,"is_disabled":false,"rental_uris":{"android":"levelo://app?vid=e089bfff-0a40-4f08-bcc0-e12f9f9fa3d8","ios":"levelo://app?vid=e089bfff-0a40-4f08-bcc0-e12f9f9fa3d8"},"vehicle_type_id":"4","last_reported":1717168052,"current_range_meters":9600,"station_id":"ce4bhs12rcd13ifvqhvg","pricing_plan_id":"cebpf4jnsgd1na2vs0mg"},{"bike_id":"816a6580-7e0a-4da0-b588-e948eeb2d2a0","system_id":"levelo_inurba_marseille","lat":43.324814,"lon":5.365656,"is_reserved":false,"is_disabled":false,"rental_uris":{"android":"levelo://app?vid=816a6580-7e0a-4da0-b588-e948eeb2d2a0","ios":"levelo://app?vid=816a6580-7e0a-4da0-b588-e948eeb2d2a0"},"vehicle_type_id":"4","last_reported":1717168052,"current_range_meters":22800,"station_id":"ce4bhs12rcd13ifvqhvg","pricing_plan_id":"cebpf4jnsgd1na2vs0mg"},{"bike_id":"f30e0fd1-8588-412b-9c52-1c406c2c8fb1","system_id":"levelo_inurba_marseille","lat":43.324814,"lon":5.365595,"is_reserved":false,"is_disabled":false,"rental_uris":{"android":"levelo://app?vid=f30e0fd1-8588-412b-9c52-1c406c2c8fb1","ios":"levelo://app?vid=f30e0fd1-8588-412b-9c52-1c406c2c8fb1"},"vehicle_type_id":"4","last_reported":1717168052,"current_range_meters":16800,"station_id":"ce4bhs12rcd13ifvqhvg","pricing_plan_id":"cebpf4jnsgd1na2vs0mg"},{"bike_id":"e7b5d43e-79e3-471c-8dbb-1d88bd546cd5","system_id":"levelo_inurba_marseille","lat":43.324771,"lon":5.36557,"is_reserved":false,"is_disabled":false,"rental_uris":{"android":"levelo://app?vid=e7b5d43e-79e3-471c-8dbb-1d88bd546cd5","ios":"levelo://app?vid=e7b5d43e-79e3-471c-8dbb-1d88bd546cd5"},"vehicle_type_id":"4","last_reported":1717168052,"current_range_meters":20000,"station_id":"ce4bhs12rcd13ifvqhvg","pricing_plan_id":"cebpf4jnsgd1na2vs0mg"},{"bike_id":"973e2987-6004-449d-a603-9598cc3cff5b","system_id":"levelo_inurba_marseille","lat":43.32483,"lon":5.36569,"is_reserved":false,"is_disabled":false,"rental_uris":{"android":"levelo://app?vid=973e2987-6004-449d-a603-9598cc3cff5b","ios":"levelo://app?vid=973e2987-6004-449d-a603-9598cc3cff5b"},"vehicle_type_id":"4","last_reported":1717168052,"current_range_meters":15200,"station_id":"ce4bhs12rcd13ifvqhvg","pricing_plan_id":"cebpf4jnsgd1na2vs0mg"},{"bike_id":"3f49693f-5911-4e21-a947-e9ce994caae7","system_id":"levelo_inurba_marseille","lat":43.324852,"lon":5.365707,"is_reserved":false,"is_disabled":false,"rental_uris":{"android":"levelo://app?vid=3f49693f-5911-4e21-a947-e9ce994caae7","ios":"levelo://app?vid=3f49693f-5911-4e21-a947-e9ce994caae7"},"vehicle_type_id":"4","last_reported":1717168052,"current_range_meters":0,"station_id":"ce4bhs12rcd13ifvqhvg","pricing_plan_id":"cebpf4jnsgd1na2vs0mg"},{"bike_id":"5d578c28-7369-4112-90f7-87a07e3b4816","system_id":"levelo_inurba_marseille","lat":43.324771,"lon":5.36557,"is_reserved":false,"is_disabled":false,"rental_uris":{"android":"levelo://app?vid=5d578c28-7369-4112-90f7-87a07e3b4816","ios":"levelo://app?vid=5d578c28-7369-4112-90f7-87a07e3b4816"},"vehicle_type_id":"4","last_reported":1717168052,"current_range_meters":22400,"station_id":"ce4bhs12rcd13ifvqhvg","pricing_plan_id":"cebpf4jnsgd1na2vs0mg"},{"bike_id":"2bf5a59f-aa88-4fc9-ad3e-5e16e09bb3c8","system_id":"levelo_inurba_marseille","lat":43.302784,"lon":5.377158,"is_reserved":false,"is_disabled":false,"rental_uris":{"android":"levelo://app?vid=2bf5a59f-aa88-4fc9-ad3e-5e16e09bb3c8","ios":"levelo://app?vid=2bf5a59f-aa88-4fc9-ad3e-5e16e09bb3c8"},"vehicle_type_id":"4","last_reported":1717168052,"current_range_meters":400,"station_id":"ce4bguh2rcd13ifvqcj0","pricing_plan_id":"cebpf4jnsgd1na2vs0mg"},{"bike_id":"19f26c0d-6f6a-4480-bc85-b349492a37e7","system_id":"levelo_inurba_marseille","lat":43.301446,"lon":5.373605,"is_reserved":false,"is_disabled":false,"rental_uris":{"android":"levelo://app?vid=19f26c0d-6f6a-4480-bc85-b349492a37e7","ios":"levelo://app?vid=19f26c0d-6f6a-4480-bc85-b349492a37e7"},"vehicle_type_id":"4","last_reported":1717168052,"current_range_meters":18000,"station_id":"","pricing_plan_id":"cebpf4jnsgd1na2vs0mg"},{"bike_id":"c37cbb6a-cc10-4d71-a5f8-bafce6232d6b","system_id":"levelo_inurba_marseille","lat":43.302784,"lon":5.377158,"is_reserved":false,"is_disabled":false,"rental_uris":{"android":"levelo://app?vid=c37cbb6a-cc10-4d71-a5f8-bafce6232d6b","ios":"levelo://app?vid=c37cbb6a-cc10-4d71-a5f8-bafce6232d6b"},"vehicle_type_id":"4","last_reported":1717168052,"current_range_meters":13200,"station_id":"ce4bguh2rcd13ifvqcj0","pricing_plan_id":"cebpf4jnsgd1na2vs0mg"},{"bike_id":"b8c329f0-57bc-4e51-8f4e-5fe87584f891","system_id":"levelo_inurba_marseille","lat":43.30156,"lon":5.374135,"is_reserved":false,"is_disabled":false,"rental_uris":{"android":"levelo://app?vid=b8c329f0-57bc-4e51-8f4e-5fe87584f891","ios":"levelo://app?vid=b8c329f0-57bc-4e51-8f4e-5fe87584f891"},"vehicle_type_id":"4","last_reported":1717168052,"current_range_meters":30800,"station_id":"ce4bgs92rcd13ifvqcc0","pricing_plan_id":"cebpf4jnsgd1na2vs0mg"},{"bike_id":"b27514c3-4b6b-4b18-b2e7-6b65fcec0bde","system_id":"levelo_inurba_marseille","lat":43.301494,"lon":5.373978,"is_reserved":false,"is_disabled":false,"rental_uris":{"android":"levelo://app?vid=b27514c3-4b6b-4b18-b2e7-6b65fcec0bde","ios":"levelo://app?vid=b27514c3-4b6b-4b18-b2e7-6b65fcec0bde"},"vehicle_type_id":"4","last_reported":1717168052,"current_range_meters":30000,"station_id":"ce4bgs92rcd13ifvqcc0","pricing_plan_id":"cebpf4jnsgd1na2vs0mg"},{"bike_id":"75acd1ac-49f8-4138-a476-8ea9ec33db38","system_id":"levelo_inurba_marseille","lat":43.302784,"lon":5.377158,"is_reserved":false,"is_disabled":false,"rental_uris":{"android":"levelo://app?vid=75acd1ac-49f8-4138-a476-8ea9ec33db38","ios":"levelo://app?vid=75acd1ac-49f8-4138-a476-8ea9ec33db38"},"vehicle_type_id":"4","last_reported":1717168052,"current_range_meters":11600,"station_id":"ce4bguh2rcd13ifvqcj0","pricing_plan_id":"cebpf4jnsgd1na2vs0mg"},{"bike_id":"806a70d7-7cad-456b-b65e-1f02ba0d6388","system_id":"levelo_inurba_marseille","lat":43.302784,"lon":5.377158,"is_reserved":false,"is_disabled":false,"rental_uris":{"android":"levelo://app?vid=806a70d7-7cad-456b-b65e-1f02ba0d6388","ios":"levelo://app?vid=806a70d7-7cad-456b-b65e-1f02ba0d6388"},"vehicle_type_id":"4","last_reported":1717168052,"current_range_meters":18800,"station_id":"ce4bguh2rcd13ifvqcj0","pricing_plan_id":"cebpf4jnsgd1na2vs0mg"},{"bike_id":"f33d7584-99b2-4b40-afce-8241cbe91fe1","system_id":"levelo_inurba_marseille","lat":43.302784,"lon":5.377158,"is_reserved":false,"is_disabled":false,"rental_uris":{"android":"levelo://app?vid=f33d7584-99b2-4b40-afce-8241cbe91fe1","ios":"levelo://app?vid=f33d7584-99b2-4b40-afce-8241cbe91fe1"},"vehicle_type_id":"4","last_reported":1717168052,"current_range_meters":24800,"station_id":"ce4bguh2rcd13ifvqcj0","pricing_plan_id":"cebpf4jnsgd1na2vs0mg"},{"bike_id":"30a7a40e-782b-490a-837a-f221e71a74aa","system_id":"levelo_inurba_marseille","lat":43.302784,"lon":5.377158,"is_reserved":false,"is_disabled":false,"rental_uris":{"android":"levelo://app?vid=30a7a40e-782b-490a-837a-f221e71a74aa","ios":"levelo://app?vid=30a7a40e-782b-490a-837a-f221e71a74aa"},"vehicle_type_id":"4","last_reported":1717168052,"current_range_meters":28800,"station_id":"ce4bguh2rcd13ifvqcj0","pricing_plan_id":"cebpf4jnsgd1na2vs0mg"},{"bike_id":"8f1ce0d2-12af-4869-b432-7de3a14f1b0a","system_id":"levelo_inurba_marseille","lat":43.30147,"lon":5.37404,"is_reserved":false,"is_disabled":false,"rental_uris":{"android":"levelo://app?vid=8f1ce0d2-12af-4869-b432-7de3a14f1b0a","ios":"levelo://app?vid=8f1ce0d2-12af-4869-b432-7de3a14f1b0a"},"vehicle_type_id":"4","last_reported":1717168052,"current_range_meters":20000,"station_id":"ce4bgs92rcd13ifvqcc0","pricing_plan_id":"cebpf4jnsgd1na2vs0mg"},{"bike_id":"5c3b2089-3d06-4372-b2c1-fb5c8f57b23b","system_id":"levelo_inurba_marseille","lat":43.302784,"lon":5.377158,"is_reserved":false,"is_disabled":false,"rental_uris":{"android":"levelo://app?vid=5c3b2089-3d06-4372-b2c1-fb5c8f57b23b","ios":"levelo://app?vid=5c3b2089-3d06-4372-b2c1-fb5c8f57b23b"},"vehicle_type_id":"4","last_reported":1717168052,"current_range_meters":28800,"station_id":"ce4bguh2rcd13ifvqcj0","pricing_plan_id":"cebpf4jnsgd1na2vs0mg"},{"bike_id":"bb6a93f5-bbf4-48a3-a79f-5132c2a81d92","system_id":"levelo_inurba_marseille","lat":43.30143,"lon":5.37413,"is_reserved":false,"is_disabled":false,"rental_uris":{"android":"levelo://app?vid=bb6a93f5-bbf4-48a3-a79f-5132c2a81d92","ios":"levelo://app?vid=bb6a93f5-bbf4-48a3-a79f-5132c2a81d92"},"vehicle_type_id":"4","last_reported":1717168052,"current_range_meters":10400,"station_id":"ce4bgs92rcd13ifvqcc0","pricing_plan_id":"cebpf4jnsgd1na2vs0mg"},{"bike_id":"19e5d473-450c-4967-8092-aa07438f05b7","system_id":"levelo_inurba_marseille","lat":43.302784,"lon":5.377158,"is_reserved":false,"is_disabled":false,"rental_uris":{"android":"levelo://app?vid=19e5d473-450c-4967-8092-aa07438f05b7","ios":"levelo://app?vid=19e5d473-450c-4967-8092-aa07438f05b7"},"vehicle_type_id":"4","last_reported":1717168052,"current_range_meters":23600,"station_id":"ce4bguh2rcd13ifvqcj0","pricing_plan_id":"cebpf4jnsgd1na2vs0mg"},{"bike_id":"691c78c6-ba88-4771-9219-109d8ca16856","system_id":"levelo_inurba_marseille","lat":43.301414,"lon":5.374014,"is_reserved":false,"is_disabled":false,"rental_uris":{"android":"levelo://app?vid=691c78c6-ba88-4771-9219-109d8ca16856","ios":"levelo://app?vid=691c78c6-ba88-4771-9219-109d8ca16856"},"vehicle_type_id":"4","last_reported":1717168052,"current_range_meters":31200,"station_id":"ce4bgs92rcd13ifvqcc0","pricing_plan_id":"cebpf4jnsgd1na2vs0mg"},{"bike_id":"9cad0638-c01e-47ac-9e9f-edafd0ef5c76","system_id":"levelo_inurba_marseille","lat":43.30143,"lon":5.37413,"is_reserved":false,"is_disabled":false,"rental_uris":{"android":"levelo://app?vid=9cad0638-c01e-47ac-9e9f-edafd0ef5c76","ios":"levelo://app?vid=9cad0638-c01e-47ac-9e9f-edafd0ef5c76"},"vehicle_type_id":"4","last_reported":1717168052,"current_range_meters":28000,"station_id":"ce4bgs92rcd13ifvqcc0","pricing_plan_id":"cebpf4jnsgd1na2vs0mg"},{"bike_id":"82a763a2-da53-4c7b-904a-3c03c7dbd0d3","system_id":"levelo_inurba_marseille","lat":43.30144,"lon":5.374174,"is_reserved":false,"is_disabled":false,"rental_uris":{"android":"levelo://app?vid=82a763a2-da53-4c7b-904a-3c03c7dbd0d3","ios":"levelo://app?vid=82a763a2-da53-4c7b-904a-3c03c7dbd0d3"},"vehicle_type_id":"4","last_reported":1717168052,"current_range_meters":10000,"station_id":"ce4bgs92rcd13ifvqcc0","pricing_plan_id":"cebpf4jnsgd1na2vs0mg"},{"bike_id":"c43a830b-f0d7-43d3-85fe-f855d76461c4","system_id":"levelo_inurba_marseille","lat":43.30143,"lon":5.37413,"is_reserved":false,"is_disabled":false,"rental_uris":{"android":"levelo://app?vid=c43a830b-f0d7-43d3-85fe-f855d76461c4","ios":"levelo://app?vid=c43a830b-f0d7-43d3-85fe-f855d76461c4"},"vehicle_type_id":"4","last_reported":1717168052,"current_range_meters":31200,"station_id":"ce4bgs92rcd13ifvqcc0","pricing_plan_id":"cebpf4jnsgd1na2vs0mg"},{"bike_id":"326bfd39-741b-4645-a504-19e15b1e8048","system_id":"levelo_inurba_marseille","lat":43.30143,"lon":5.37413,"is_reserved":false,"is_disabled":false,"rental_uris":{"android":"levelo://app?vid=326bfd39-741b-4645-a504-19e15b1e8048","ios":"levelo://app?vid=326bfd39-741b-4645-a504-19e15b1e8048"},"vehicle_type_id":"4","last_reported":1717168052,"current_range_meters":16800,"station_id":"ce4bgs92rcd13ifvqcc0","pricing_plan_id":"cebpf4jnsgd1na2vs0mg"},{"bike_id":"945e0835-d78a-4652-b4ee-7dd7d59228d8","system_id":"levelo_inurba_marseille","lat":43.30141,"lon":5.37427,"is_reserved":false,"is_disabled":false,"rental_uris":{"android":"levelo://app?vid=945e0835-d78a-4652-b4ee-7dd7d59228d8","ios":"levelo://app?vid=945e0835-d78a-4652-b4ee-7dd7d59228d8"},"vehicle_type_id":"4","last_reported":1717168052,"current_range_meters":26000,"station_id":"ce4bgs92rcd13ifvqcc0","pricing_plan_id":"cebpf4jnsgd1na2vs0mg"},{"bike_id":"29c61022-9070-4dae-ba85-454356318e9d","system_id":"levelo_inurba_marseille","lat":43.30143,"lon":5.37413,"is_reserved":false,"is_disabled":false,"rental_uris":{"android":"levelo://app?vid=29c61022-9070-4dae-ba85-454356318e9d","ios":"levelo://app?vid=29c61022-9070-4dae-ba85-454356318e9d"},"vehicle_type_id":"4","last_reported":1717168052,"current_range_meters":24800,"station_id":"ce4bgs92rcd13ifvqcc0","pricing_plan_id":"cebpf4jnsgd1na2vs0mg"},{"bike_id":"e26d92b4-b3b4-4b10-b2dd-cdeea0ebf0c0","system_id":"levelo_inurba_marseille","lat":43.301382,"lon":5.374215,"is_reserved":false,"is_disabled":false,"rental_uris":{"android":"levelo://app?vid=e26d92b4-b3b4-4b10-b2dd-cdeea0ebf0c0","ios":"levelo://app?vid=e26d92b4-b3b4-4b10-b2dd-cdeea0ebf0c0"},"vehicle_type_id":"4","last_reported":1717168052,"current_range_meters":31200,"station_id":"ce4bgs92rcd13ifvqcc0","pricing_plan_id":"cebpf4jnsgd1na2vs0mg"},{"bike_id":"a16a0468-5573-46cd-b06b-8b2b7f64bb2a","system_id":"levelo_inurba_marseille","lat":43.301401,"lon":5.37429,"is_reserved":false,"is_disabled":false,"rental_uris":{"android":"levelo://app?vid=a16a0468-5573-46cd-b06b-8b2b7f64bb2a","ios":"levelo://app?vid=a16a0468-5573-46cd-b06b-8b2b7f64bb2a"},"vehicle_type_id":"4","last_reported":1717168052,"current_range_meters":10800,"station_id":"ce4bgs92rcd13ifvqcc0","pricing_plan_id":"cebpf4jnsgd1na2vs0mg"},{"bike_id":"e4eee704-2a2e-4765-8052-91649a7060a4","system_id":"levelo_inurba_marseille","lat":43.301323,"lon":5.374158,"is_reserved":false,"is_disabled":false,"rental_uris":{"android":"levelo://app?vid=e4eee704-2a2e-4765-8052-91649a7060a4","ios":"levelo://app?vid=e4eee704-2a2e-4765-8052-91649a7060a4"},"vehicle_type_id":"4","last_reported":1717168052,"current_range_meters":12400,"station_id":"ce4bgs92rcd13ifvqcc0","pricing_plan_id":"cebpf4jnsgd1na2vs0mg"},{"bike_id":"466918a5-22fa-42c5-87f7-b85a4390b165","system_id":"levelo_inurba_marseille","lat":43.301352,"lon":5.374246,"is_reserved":false,"is_disabled":false,"rental_uris":{"android":"levelo://app?vid=466918a5-22fa-42c5-87f7-b85a4390b165","ios":"levelo://app?vid=466918a5-22fa-42c5-87f7-b85a4390b165"},"vehicle_type_id":"4","last_reported":1717168052,"current_range_meters":26800,"station_id":"ce4bgs92rcd13ifvqcc0","pricing_plan_id":"cebpf4jnsgd1na2vs0mg"},{"bike_id":"c58a69bf-01df-4ee7-9a53-7ec30845f5b0","system_id":"levelo_inurba_marseille","lat":43.302784,"lon":5.377158,"is_reserved":false,"is_disabled":false,"rental_uris":{"android":"levelo://app?vid=c58a69bf-01df-4ee7-9a53-7ec30845f5b0","ios":"levelo://app?vid=c58a69bf-01df-4ee7-9a53-7ec30845f5b0"},"vehicle_type_id":"4","last_reported":1717168052,"current_range_meters":12000,"station_id":"ce4bguh2rcd13ifvqcj0","pricing_plan_id":"cebpf4jnsgd1na2vs0mg"},{"bike_id":"0553f024-94b5-488a-831d-9a21dfc4f6ed","system_id":"levelo_inurba_marseille","lat":43.31998,"lon":5.38151,"is_reserved":false,"is_disabled":false,"rental_uris":{"android":"levelo://app?vid=0553f024-94b5-488a-831d-9a21dfc4f6ed","ios":"levelo://app?vid=0553f024-94b5-488a-831d-9a21dfc4f6ed"},"vehicle_type_id":"4","last_reported":1717168052,"current_range_meters":0,"station_id":"ce4bhr12rcd13ifvqhpg","pricing_plan_id":"cebpf4jnsgd1na2vs0mg"},{"bike_id":"573b1bc5-fd22-4b6f-a1cf-c184004b3a92","system_id":"levelo_inurba_marseille","lat":43.319985,"lon":5.381548,"is_reserved":false,"is_disabled":false,"rental_uris":{"android":"levelo://app?vid=573b1bc5-fd22-4b6f-a1cf-c184004b3a92","ios":"levelo://app?vid=573b1bc5-fd22-4b6f-a1cf-c184004b3a92"},"vehicle_type_id":"4","last_reported":1717168052,"current_range_meters":17600,"station_id":"ce4bhr12rcd13ifvqhpg","pricing_plan_id":"cebpf4jnsgd1na2vs0mg"},{"bike_id":"71605c45-1be0-4933-8634-691f3383e575","system_id":"levelo_inurba_marseille","lat":43.32002,"lon":5.38169,"is_reserved":false,"is_disabled":false,"rental_uris":{"android":"levelo://app?vid=71605c45-1be0-4933-8634-691f3383e575","ios":"levelo://app?vid=71605c45-1be0-4933-8634-691f3383e575"},"vehicle_type_id":"4","last_reported":1717168052,"current_range_meters":12000,"station_id":"ce4bhr12rcd13ifvqhpg","pricing_plan_id":"cebpf4jnsgd1na2vs0mg"},{"bike_id":"c83699c8-3010-4898-aafc-06d4bef48e42","system_id":"levelo_inurba_marseille","lat":43.313571,"lon":5.384829,"is_reserved":false,"is_disabled":false,"rental_uris":{"android":"levelo://app?vid=c83699c8-3010-4898-aafc-06d4bef48e42","ios":"levelo://app?vid=c83699c8-3010-4898-aafc-06d4bef48e42"},"vehicle_type_id":"4","last_reported":1717168052,"current_range_meters":18400,"station_id":"ce4bgt92rcd13ifvqcf0","pricing_plan_id":"cebpf4jnsgd1na2vs0mg"},{"bike_id":"dbff4cc9-bc51-4493-94ad-2cc7851b13ea","system_id":"levelo_inurba_marseille","lat":43.313571,"lon":5.384829,"is_reserved":false,"is_disabled":false,"rental_uris":{"android":"levelo://app?vid=dbff4cc9-bc51-4493-94ad-2cc7851b13ea","ios":"levelo://app?vid=dbff4cc9-bc51-4493-94ad-2cc7851b13ea"},"vehicle_type_id":"4","last_reported":1717168052,"current_range_meters":7600,"station_id":"ce4bgt92rcd13ifvqcf0","pricing_plan_id":"cebpf4jnsgd1na2vs0mg"},{"bike_id":"c215d39d-afd7-4da2-a706-4c222327f9ce","system_id":"levelo_inurba_marseille","lat":43.313571,"lon":5.384829,"is_reserved":false,"is_disabled":false,"rental_uris":{"android":"levelo://app?vid=c215d39d-afd7-4da2-a706-4c222327f9ce","ios":"levelo://app?vid=c215d39d-afd7-4da2-a706-4c222327f9ce"},"vehicle_type_id":"4","last_reported":1717168052,"current_range_meters":800,"station_id":"ce4bgt92rcd13ifvqcf0","pricing_plan_id":"cebpf4jnsgd1na2vs0mg"},{"bike_id":"656d0f56-1679-41cf-99b4-76d0c1ccb8f2","system_id":"levelo_inurba_marseille","lat":43.313571,"lon":5.384829,"is_reserved":false,"is_disabled":false,"rental_uris":{"android":"levelo://app?vid=656d0f56-1679-41cf-99b4-76d0c1ccb8f2","ios":"levelo://app?vid=656d0f56-1679-41cf-99b4-76d0c1ccb8f2"},"vehicle_type_id":"4","last_reported":1717168052,"current_range_meters":12000,"station_id":"ce4bgt92rcd13ifvqcf0","pricing_plan_id":"cebpf4jnsgd1na2vs0mg"},{"bike_id":"f53f1269-5632-419a-b1cc-c3578739710b","system_id":"levelo_inurba_marseille","lat":43.313571,"lon":5.384829,"is_reserved":false,"is_disabled":false,"rental_uris":{"android":"levelo://app?vid=f53f1269-5632-419a-b1cc-c3578739710b","ios":"levelo://app?vid=f53f1269-5632-419a-b1cc-c3578739710b"},"vehicle_type_id":"4","last_reported":1717168052,"current_range_meters":14400,"station_id":"ce4bgt92rcd13ifvqcf0","pricing_plan_id":"cebpf4jnsgd1na2vs0mg"},{"bike_id":"00050f64-7701-498c-a0d0-970f11fe610a","system_id":"levelo_inurba_marseille","lat":43.299724,"lon":5.371829,"is_reserved":false,"is_disabled":false,"rental_uris":{"android":"levelo://app?vid=00050f64-7701-498c-a0d0-970f11fe610a","ios":"levelo://app?vid=00050f64-7701-498c-a0d0-970f11fe610a"},"vehicle_type_id":"4","last_reported":1717168052,"current_range_meters":13200,"station_id":"ce4bgr92rcd13ifvqc7g","pricing_plan_id":"cebpf4jnsgd1na2vs0mg"},{"bike_id":"27db1c91-1ba7-4d53-b337-83cd89f180be","system_id":"levelo_inurba_marseille","lat":43.29942,"lon":5.365413,"is_reserved":false,"is_disabled":false,"rental_uris":{"android":"levelo://app?vid=27db1c91-1ba7-4d53-b337-83cd89f180be","ios":"levelo://app?vid=27db1c91-1ba7-4d53-b337-83cd89f180be"},"vehicle_type_id":"4","last_reported":1717168052,"current_range_meters":23200,"station_id":"ce4bgm92rcd13ifvqbr0","pricing_plan_id":"cebpf4jnsgd1na2vs0mg"},{"bike_id":"f8ac06d7-d3c4-47b5-a15b-043cc2837fc9","system_id":"levelo_inurba_marseille","lat":43.299724,"lon":5.371829,"is_reserved":false,"is_disabled":false,"rental_uris":{"android":"levelo://app?vid=f8ac06d7-d3c4-47b5-a15b-043cc2837fc9","ios":"levelo://app?vid=f8ac06d7-d3c4-47b5-a15b-043cc2837fc9"},"vehicle_type_id":"4","last_reported":1717168052,"current_range_meters":18400,"station_id":"ce4bgr92rcd13ifvqc7g","pricing_plan_id":"cebpf4jnsgd1na2vs0mg"},{"bike_id":"e5428f41-fa7e-47ac-bb9a-26ffdbe4242d","system_id":"levelo_inurba_marseille","lat":43.29973,"lon":5.37175,"is_reserved":false,"is_disabled":false,"rental_uris":{"android":"levelo://app?vid=e5428f41-fa7e-47ac-bb9a-26ffdbe4242d","ios":"levelo://app?vid=e5428f41-fa7e-47ac-bb9a-26ffdbe4242d"},"vehicle_type_id":"4","last_reported":1717168052,"current_range_meters":9600,"station_id":"ce4bgr92rcd13ifvqc7g","pricing_plan_id":"cebpf4jnsgd1na2vs0mg"},{"bike_id":"c3c24d00-dfb0-4c2f-a263-92b37f96d2cc","system_id":"levelo_inurba_marseille","lat":43.29972,"lon":5.371804,"is_reserved":false,"is_disabled":false,"rental_uris":{"android":"levelo://app?vid=c3c24d00-dfb0-4c2f-a263-92b37f96d2cc","ios":"levelo://app?vid=c3c24d00-dfb0-4c2f-a263-92b37f96d2cc"},"vehicle_type_id":"4","last_reported":1717168052,"current_range_meters":27600,"station_id":"ce4bgr92rcd13ifvqc7g","pricing_plan_id":"cebpf4jnsgd1na2vs0mg"},{"bike_id":"5a641805-2f31-4343-93bf-f662a57e27e0","system_id":"levelo_inurba_marseille","lat":43.29972,"lon":5.37183,"is_reserved":false,"is_disabled":false,"rental_uris":{"android":"levelo://app?vid=5a641805-2f31-4343-93bf-f662a57e27e0","ios":"levelo://app?vid=5a641805-2f31-4343-93bf-f662a57e27e0"},"vehicle_type_id":"4","last_reported":1717168052,"current_range_meters":26400,"station_id":"ce4bgr92rcd13ifvqc7g","pricing_plan_id":"cebpf4jnsgd1na2vs0mg"},{"bike_id":"ce498678-6acb-41ed-a434-f2ccce5c921e","system_id":"levelo_inurba_marseille","lat":43.29969,"lon":5.37169,"is_reserved":false,"is_disabled":false,"rental_uris":{"android":"levelo://app?vid=ce498678-6acb-41ed-a434-f2ccce5c921e","ios":"levelo://app?vid=ce498678-6acb-41ed-a434-f2ccce5c921e"},"vehicle_type_id":"4","last_reported":1717168052,"current_range_meters":28800,"station_id":"ce4bgr92rcd13ifvqc7g","pricing_plan_id":"cebpf4jnsgd1na2vs0mg"},{"bike_id":"b32e179f-0bdb-4c2b-bedd-963bc577e29a","system_id":"levelo_inurba_marseille","lat":43.2997,"lon":5.37178,"is_reserved":false,"is_disabled":false,"rental_uris":{"android":"levelo://app?vid=b32e179f-0bdb-4c2b-bedd-963bc577e29a","ios":"levelo://app?vid=b32e179f-0bdb-4c2b-bedd-963bc577e29a"},"vehicle_type_id":"4","last_reported":1717168052,"current_range_meters":2800,"station_id":"ce4bgr92rcd13ifvqc7g","pricing_plan_id":"cebpf4jnsgd1na2vs0mg"},{"bike_id":"bc06d2b0-f531-41bf-8314-e827ae1f4aab","system_id":"levelo_inurba_marseille","lat":43.29969,"lon":5.37175,"is_reserved":false,"is_disabled":false,"rental_uris":{"android":"levelo://app?vid=bc06d2b0-f531-41bf-8314-e827ae1f4aab","ios":"levelo://app?vid=bc06d2b0-f531-41bf-8314-e827ae1f4aab"},"vehicle_type_id":"4","last_reported":1717168052,"current_range_meters":9600,"station_id":"ce4bgr92rcd13ifvqc7g","pricing_plan_id":"cebpf4jnsgd1na2vs0mg"},{"bike_id":"b09b7876-67ab-43a9-b3ba-89dd5e8a13a3","system_id":"levelo_inurba_marseille","lat":43.299724,"lon":5.371829,"is_reserved":false,"is_disabled":false,"rental_uris":{"android":"levelo://app?vid=b09b7876-67ab-43a9-b3ba-89dd5e8a13a3","ios":"levelo://app?vid=b09b7876-67ab-43a9-b3ba-89dd5e8a13a3"},"vehicle_type_id":"4","last_reported":1717168052,"current_range_meters":4400,"station_id":"ce4bgr92rcd13ifvqc7g","pricing_plan_id":"cebpf4jnsgd1na2vs0mg"},{"bike_id":"04148e7f-c62f-4c8d-90a0-6bd7fa21e3d5","system_id":"levelo_inurba_marseille","lat":43.299724,"lon":5.371829,"is_reserved":false,"is_disabled":false,"rental_uris":{"android":"levelo://app?vid=04148e7f-c62f-4c8d-90a0-6bd7fa21e3d5","ios":"levelo://app?vid=04148e7f-c62f-4c8d-90a0-6bd7fa21e3d5"},"vehicle_type_id":"4","last_reported":1717168052,"current_range_meters":9200,"station_id":"ce4bgr92rcd13ifvqc7g","pricing_plan_id":"cebpf4jnsgd1na2vs0mg"},{"bike_id":"8b518ade-311f-4a7d-9411-1c208d6cd60d","system_id":"levelo_inurba_marseille","lat":43.305364,"lon":5.384119,"is_reserved":false,"is_disabled":false,"rental_uris":{"android":"levelo://app?vid=8b518ade-311f-4a7d-9411-1c208d6cd60d","ios":"levelo://app?vid=8b518ade-311f-4a7d-9411-1c208d6cd60d"},"vehicle_type_id":"4","last_reported":1717168052,"current_range_meters":12400,"station_id":"ce4bgg92rcd13ifvqb30","pricing_plan_id":"cebpf4jnsgd1na2vs0mg"},{"bike_id":"948df6d1-c79a-44da-b73f-b396bb745749","system_id":"levelo_inurba_marseille","lat":43.305364,"lon":5.384119,"is_reserved":false,"is_disabled":false,"rental_uris":{"android":"levelo://app?vid=948df6d1-c79a-44da-b73f-b396bb745749","ios":"levelo://app?vid=948df6d1-c79a-44da-b73f-b396bb745749"},"vehicle_type_id":"4","last_reported":1717168052,"current_range_meters":10800,"station_id":"ce4bgg92rcd13ifvqb30","pricing_plan_id":"cebpf4jnsgd1na2vs0mg"},{"bike_id":"e16c85e5-0e5c-46e6-ad0b-3e0397414ad0","system_id":"levelo_inurba_marseille","lat":43.305364,"lon":5.384119,"is_reserved":false,"is_disabled":false,"rental_uris":{"android":"levelo://app?vid=e16c85e5-0e5c-46e6-ad0b-3e0397414ad0","ios":"levelo://app?vid=e16c85e5-0e5c-46e6-ad0b-3e0397414ad0"},"vehicle_type_id":"4","last_reported":1717168052,"current_range_meters":0,"station_id":"ce4bgg92rcd13ifvqb30","pricing_plan_id":"cebpf4jnsgd1na2vs0mg"},{"bike_id":"898dbe47-eda8-4d44-99ed-751e389b9104","system_id":"levelo_inurba_marseille","lat":43.305364,"lon":5.384119,"is_reserved":false,"is_disabled":false,"rental_uris":{"android":"levelo://app?vid=898dbe47-eda8-4d44-99ed-751e389b9104","ios":"levelo://app?vid=898dbe47-eda8-4d44-99ed-751e389b9104"},"vehicle_type_id":"4","last_reported":1717168052,"current_range_meters":7200,"station_id":"ce4bgg92rcd13ifvqb30","pricing_plan_id":"cebpf4jnsgd1na2vs0mg"},{"bike_id":"add110fe-767b-4196-9e9e-f4b783c228ed","system_id":"levelo_inurba_marseille","lat":43.29929,"lon":5.37462,"is_reserved":false,"is_disabled":false,"rental_uris":{"android":"levelo://app?vid=add110fe-767b-4196-9e9e-f4b783c228ed","ios":"levelo://app?vid=add110fe-767b-4196-9e9e-f4b783c228ed"},"vehicle_type_id":"4","last_reported":1717168052,"current_range_meters":28400,"station_id":"ce4bgjh2rcd13ifvqbg0","pricing_plan_id":"cebpf4jnsgd1na2vs0mg"},{"bike_id":"2a00d671-5e26-4ae4-90c3-9bc3c8c73126","system_id":"levelo_inurba_marseille","lat":43.305364,"lon":5.384119,"is_reserved":false,"is_disabled":false,"rental_uris":{"android":"levelo://app?vid=2a00d671-5e26-4ae4-90c3-9bc3c8c73126","ios":"levelo://app?vid=2a00d671-5e26-4ae4-90c3-9bc3c8c73126"},"vehicle_type_id":"4","last_reported":1717168052,"current_range_meters":29200,"station_id":"ce4bgg92rcd13ifvqb30","pricing_plan_id":"cebpf4jnsgd1na2vs0mg"},{"bike_id":"06b13570-fe81-492d-9e63-b71fb54ddd70","system_id":"levelo_inurba_marseille","lat":43.298433,"lon":5.362774,"is_reserved":false,"is_disabled":false,"rental_uris":{"android":"levelo://app?vid=06b13570-fe81-492d-9e63-b71fb54ddd70","ios":"levelo://app?vid=06b13570-fe81-492d-9e63-b71fb54ddd70"},"vehicle_type_id":"4","last_reported":1717168052,"current_range_meters":12400,"station_id":"ce4bgpp2rcd13ifvqc3g","pricing_plan_id":"cebpf4jnsgd1na2vs0mg"},{"bike_id":"25067267-fe20-4640-b279-aafcd2a8a4b1","system_id":"levelo_inurba_marseille","lat":43.305364,"lon":5.384119,"is_reserved":false,"is_disabled":false,"rental_uris":{"android":"levelo://app?vid=25067267-fe20-4640-b279-aafcd2a8a4b1","ios":"levelo://app?vid=25067267-fe20-4640-b279-aafcd2a8a4b1"},"vehicle_type_id":"4","last_reported":1717168052,"current_range_meters":22400,"station_id":"ce4bgg92rcd13ifvqb30","pricing_plan_id":"cebpf4jnsgd1na2vs0mg"},{"bike_id":"b22e7dcd-1d81-42bc-8aec-f9d845ccf718","system_id":"levelo_inurba_marseille","lat":43.305364,"lon":5.384119,"is_reserved":false,"is_disabled":false,"rental_uris":{"android":"levelo://app?vid=b22e7dcd-1d81-42bc-8aec-f9d845ccf718","ios":"levelo://app?vid=b22e7dcd-1d81-42bc-8aec-f9d845ccf718"},"vehicle_type_id":"4","last_reported":1717168052,"current_range_meters":29200,"station_id":"ce4bgg92rcd13ifvqb30","pricing_plan_id":"cebpf4jnsgd1na2vs0mg"},{"bike_id":"07a56688-ce57-4ce6-9b03-261fd5fd5dbb","system_id":"levelo_inurba_marseille","lat":43.298433,"lon":5.362774,"is_reserved":false,"is_disabled":false,"rental_uris":{"android":"levelo://app?vid=07a56688-ce57-4ce6-9b03-261fd5fd5dbb","ios":"levelo://app?vid=07a56688-ce57-4ce6-9b03-261fd5fd5dbb"},"vehicle_type_id":"4","last_reported":1717168052,"current_range_meters":5600,"station_id":"ce4bgpp2rcd13ifvqc3g","pricing_plan_id":"cebpf4jnsgd1na2vs0mg"},{"bike_id":"40174ace-aa2a-490b-b812-95699120b90b","system_id":"levelo_inurba_marseille","lat":43.29845,"lon":5.36271,"is_reserved":false,"is_disabled":false,"rental_uris":{"android":"levelo://app?vid=40174ace-aa2a-490b-b812-95699120b90b","ios":"levelo://app?vid=40174ace-aa2a-490b-b812-95699120b90b"},"vehicle_type_id":"4","last_reported":1717168052,"current_range_meters":14400,"station_id":"ce4bgpp2rcd13ifvqc3g","pricing_plan_id":"cebpf4jnsgd1na2vs0mg"},{"bike_id":"9c2b558e-cc70-49fa-aca8-7f941d791ec8","system_id":"levelo_inurba_marseille","lat":43.305319,"lon":5.384263,"is_reserved":false,"is_disabled":false,"rental_uris":{"android":"levelo://app?vid=9c2b558e-cc70-49fa-aca8-7f941d791ec8","ios":"levelo://app?vid=9c2b558e-cc70-49fa-aca8-7f941d791ec8"},"vehicle_type_id":"4","last_reported":1717168052,"current_range_meters":7200,"station_id":"ce4bgg92rcd13ifvqb30","pricing_plan_id":"cebpf4jnsgd1na2vs0mg"},{"bike_id":"406d707e-bd81-4930-93ba-e95caf0794b2","system_id":"levelo_inurba_marseille","lat":43.298433,"lon":5.362774,"is_reserved":false,"is_disabled":false,"rental_uris":{"android":"levelo://app?vid=406d707e-bd81-4930-93ba-e95caf0794b2","ios":"levelo://app?vid=406d707e-bd81-4930-93ba-e95caf0794b2"},"vehicle_type_id":"4","last_reported":1717168052,"current_range_meters":28000,"station_id":"ce4bgpp2rcd13ifvqc3g","pricing_plan_id":"cebpf4jnsgd1na2vs0mg"},{"bike_id":"5c479177-945e-4a0e-bb42-c8bc8f7817a6","system_id":"levelo_inurba_marseille","lat":43.299243,"lon":5.37481,"is_reserved":false,"is_disabled":false,"rental_uris":{"android":"levelo://app?vid=5c479177-945e-4a0e-bb42-c8bc8f7817a6","ios":"levelo://app?vid=5c479177-945e-4a0e-bb42-c8bc8f7817a6"},"vehicle_type_id":"4","last_reported":1717168052,"current_range_meters":6800,"station_id":"ce4bgjh2rcd13ifvqbg0","pricing_plan_id":"cebpf4jnsgd1na2vs0mg"},{"bike_id":"7c0279c4-785e-41cc-9875-11b1aa5697b0","system_id":"levelo_inurba_marseille","lat":43.2984,"lon":5.36258,"is_reserved":false,"is_disabled":false,"rental_uris":{"android":"levelo://app?vid=7c0279c4-785e-41cc-9875-11b1aa5697b0","ios":"levelo://app?vid=7c0279c4-785e-41cc-9875-11b1aa5697b0"},"vehicle_type_id":"4","last_reported":1717168052,"current_range_meters":29600,"station_id":"ce4bgpp2rcd13ifvqc3g","pricing_plan_id":"cebpf4jnsgd1na2vs0mg"},{"bike_id":"46dfed4f-5ed6-4cff-b1ab-a702971dbda5","system_id":"levelo_inurba_marseille","lat":43.31181,"lon":5.38711,"is_reserved":false,"is_disabled":false,"rental_uris":{"android":"levelo://app?vid=46dfed4f-5ed6-4cff-b1ab-a702971dbda5","ios":"levelo://app?vid=46dfed4f-5ed6-4cff-b1ab-a702971dbda5"},"vehicle_type_id":"4","last_reported":1717168052,"current_range_meters":28400,"station_id":"ce4bgv12rcd13ifvqcp0","pricing_plan_id":"cebpf4jnsgd1na2vs0mg"},{"bike_id":"e4cea274-9516-4fd5-b19a-38ddfd1c611c","system_id":"levelo_inurba_marseille","lat":43.305364,"lon":5.384119,"is_reserved":false,"is_disabled":false,"rental_uris":{"android":"levelo://app?vid=e4cea274-9516-4fd5-b19a-38ddfd1c611c","ios":"levelo://app?vid=e4cea274-9516-4fd5-b19a-38ddfd1c611c"},"vehicle_type_id":"4","last_reported":1717168052,"current_range_meters":7200,"station_id":"ce4bgg92rcd13ifvqb30","pricing_plan_id":"cebpf4jnsgd1na2vs0mg"},{"bike_id":"dbd4a978-d456-4695-981e-ee7b48fa93cd","system_id":"levelo_inurba_marseille","lat":43.291675,"lon":5.371583,"is_reserved":false,"is_disabled":false,"rental_uris":{"android":"levelo://app?vid=dbd4a978-d456-4695-981e-ee7b48fa93cd","ios":"levelo://app?vid=dbd4a978-d456-4695-981e-ee7b48fa93cd"},"vehicle_type_id":"4","last_reported":1717168052,"current_range_meters":12800,"station_id":"ce4bha92rcd13ifvqeh0","pricing_plan_id":"cebpf4jnsgd1na2vs0mg"},{"bike_id":"10fb4334-c940-4455-979b-d3f1ca32e262","system_id":"levelo_inurba_marseille","lat":43.297794,"lon":5.370888,"is_reserved":false,"is_disabled":false,"rental_uris":{"android":"levelo://app?vid=10fb4334-c940-4455-979b-d3f1ca32e262","ios":"levelo://app?vid=10fb4334-c940-4455-979b-d3f1ca32e262"},"vehicle_type_id":"4","last_reported":1717168052,"current_range_meters":29600,"station_id":"ce4bgop2rcd13ifvqc1g","pricing_plan_id":"cebpf4jnsgd1na2vs0mg"},{"bike_id":"1e32fc3e-9102-4bf7-abd1-4db5df007ae8","system_id":"levelo_inurba_marseille","lat":43.322872,"lon":5.382756,"is_reserved":false,"is_disabled":false,"rental_uris":{"android":"levelo://app?vid=1e32fc3e-9102-4bf7-abd1-4db5df007ae8","ios":"levelo://app?vid=1e32fc3e-9102-4bf7-abd1-4db5df007ae8"},"vehicle_type_id":"4","last_reported":1717168052,"current_range_meters":0,"station_id":"ce4bhr12rcd13ifvqhqg","pricing_plan_id":"cebpf4jnsgd1na2vs0mg"},{"bike_id":"a3b6f104-4775-48bf-8527-e6eeb708101a","system_id":"levelo_inurba_marseille","lat":43.322872,"lon":5.382756,"is_reserved":false,"is_disabled":false,"rental_uris":{"android":"levelo://app?vid=a3b6f104-4775-48bf-8527-e6eeb708101a","ios":"levelo://app?vid=a3b6f104-4775-48bf-8527-e6eeb708101a"},"vehicle_type_id":"4","last_reported":1717168052,"current_range_meters":31200,"station_id":"ce4bhr12rcd13ifvqhqg","pricing_plan_id":"cebpf4jnsgd1na2vs0mg"},{"bike_id":"2b8e0742-6db3-4b9c-91bd-c0e785a0863a","system_id":"levelo_inurba_marseille","lat":43.322872,"lon":5.382756,"is_reserved":false,"is_disabled":false,"rental_uris":{"android":"levelo://app?vid=2b8e0742-6db3-4b9c-91bd-c0e785a0863a","ios":"levelo://app?vid=2b8e0742-6db3-4b9c-91bd-c0e785a0863a"},"vehicle_type_id":"4","last_reported":1717168052,"current_range_meters":30800,"station_id":"ce4bhr12rcd13ifvqhqg","pricing_plan_id":"cebpf4jnsgd1na2vs0mg"},{"bike_id":"ca2c05af-26b8-4435-85db-3a3dfa3f5e27","system_id":"levelo_inurba_marseille","lat":43.298433,"lon":5.362774,"is_reserved":false,"is_disabled":false,"rental_uris":{"android":"levelo://app?vid=ca2c05af-26b8-4435-85db-3a3dfa3f5e27","ios":"levelo://app?vid=ca2c05af-26b8-4435-85db-3a3dfa3f5e27"},"vehicle_type_id":"4","last_reported":1717168052,"current_range_meters":0,"station_id":"ce4bgpp2rcd13ifvqc3g","pricing_plan_id":"cebpf4jnsgd1na2vs0mg"},{"bike_id":"4cc54a41-1062-412a-abb6-431ffc410da5","system_id":"levelo_inurba_marseille","lat":43.322872,"lon":5.382756,"is_reserved":false,"is_disabled":false,"rental_uris":{"android":"levelo://app?vid=4cc54a41-1062-412a-abb6-431ffc410da5","ios":"levelo://app?vid=4cc54a41-1062-412a-abb6-431ffc410da5"},"vehicle_type_id":"4","last_reported":1717168052,"current_range_meters":31200,"station_id":"ce4bhr12rcd13ifvqhqg","pricing_plan_id":"cebpf4jnsgd1na2vs0mg"},{"bike_id":"0b036b33-77c2-4b46-bda3-6b11c7f257b2","system_id":"levelo_inurba_marseille","lat":43.297163,"lon":5.365866,"is_reserved":false,"is_disabled":false,"rental_uris":{"android":"levelo://app?vid=0b036b33-77c2-4b46-bda3-6b11c7f257b2","ios":"levelo://app?vid=0b036b33-77c2-4b46-bda3-6b11c7f257b2"},"vehicle_type_id":"4","last_reported":1717168052,"current_range_meters":17600,"station_id":"ce4bgn12rcd13ifvqbt0","pricing_plan_id":"cebpf4jnsgd1na2vs0mg"},{"bike_id":"4eb6bad5-087a-472a-a275-37919a054836","system_id":"levelo_inurba_marseille","lat":43.297163,"lon":5.365866,"is_reserved":false,"is_disabled":false,"rental_uris":{"android":"levelo://app?vid=4eb6bad5-087a-472a-a275-37919a054836","ios":"levelo://app?vid=4eb6bad5-087a-472a-a275-37919a054836"},"vehicle_type_id":"4","last_reported":1717168052,"current_range_meters":17600,"station_id":"ce4bgn12rcd13ifvqbt0","pricing_plan_id":"cebpf4jnsgd1na2vs0mg"},{"bike_id":"942d15ef-11fa-4f0a-855f-9fcfad602050","system_id":"levelo_inurba_marseille","lat":43.296129,"lon":5.370777,"is_reserved":false,"is_disabled":false,"rental_uris":{"android":"levelo://app?vid=942d15ef-11fa-4f0a-855f-9fcfad602050","ios":"levelo://app?vid=942d15ef-11fa-4f0a-855f-9fcfad602050"},"vehicle_type_id":"4","last_reported":1717168052,"current_range_meters":24000,"station_id":"ce4bgnh2rcd13ifvqc0g","pricing_plan_id":"cebpf4jnsgd1na2vs0mg"},{"bike_id":"e6131acc-eb8b-4112-8a5e-89c98c788120","system_id":"levelo_inurba_marseille","lat":43.29573,"lon":5.367355,"is_reserved":false,"is_disabled":false,"rental_uris":{"android":"levelo://app?vid=e6131acc-eb8b-4112-8a5e-89c98c788120","ios":"levelo://app?vid=e6131acc-eb8b-4112-8a5e-89c98c788120"},"vehicle_type_id":"4","last_reported":1717168052,"current_range_meters":2400,"station_id":"ce4bgph2rcd13ifvqc2g","pricing_plan_id":"cebpf4jnsgd1na2vs0mg"},{"bike_id":"eb37cf16-c35d-4e79-8d33-bc2891e27888","system_id":"levelo_inurba_marseille","lat":43.296764,"lon":5.375165,"is_reserved":false,"is_disabled":false,"rental_uris":{"android":"levelo://app?vid=eb37cf16-c35d-4e79-8d33-bc2891e27888","ios":"levelo://app?vid=eb37cf16-c35d-4e79-8d33-bc2891e27888"},"vehicle_type_id":"4","last_reported":1717168052,"current_range_meters":12400,"station_id":"","pricing_plan_id":"cebpf4jnsgd1na2vs0mg"},{"bike_id":"31352a19-beb0-4c77-a68f-30d3cd754a7d","system_id":"levelo_inurba_marseille","lat":43.29729,"lon":5.37701,"is_reserved":false,"is_disabled":false,"rental_uris":{"android":"levelo://app?vid=31352a19-beb0-4c77-a68f-30d3cd754a7d","ios":"levelo://app?vid=31352a19-beb0-4c77-a68f-30d3cd754a7d"},"vehicle_type_id":"4","last_reported":1717168052,"current_range_meters":13200,"station_id":"ce4bgkh2rcd13ifvqbl0","pricing_plan_id":"cebpf4jnsgd1na2vs0mg"},{"bike_id":"917e0cc4-a84f-4a43-8e0e-3ec7d94a77ce","system_id":"levelo_inurba_marseille","lat":43.299028,"lon":5.381509,"is_reserved":false,"is_disabled":false,"rental_uris":{"android":"levelo://app?vid=917e0cc4-a84f-4a43-8e0e-3ec7d94a77ce","ios":"levelo://app?vid=917e0cc4-a84f-4a43-8e0e-3ec7d94a77ce"},"vehicle_type_id":"4","last_reported":1717168052,"current_range_meters":800,"station_id":"ce4bgj12rcd13ifvqbc0","pricing_plan_id":"cebpf4jnsgd1na2vs0mg"},{"bike_id":"8c17cd09-ca06-4001-aaaf-98f0609317cd","system_id":"levelo_inurba_marseille","lat":43.299028,"lon":5.381509,"is_reserved":false,"is_disabled":false,"rental_uris":{"android":"levelo://app?vid=8c17cd09-ca06-4001-aaaf-98f0609317cd","ios":"levelo://app?vid=8c17cd09-ca06-4001-aaaf-98f0609317cd"},"vehicle_type_id":"4","last_reported":1717168052,"current_range_meters":16000,"station_id":"ce4bgj12rcd13ifvqbc0","pricing_plan_id":"cebpf4jnsgd1na2vs0mg"},{"bike_id":"56935d0d-f47b-4bf8-b851-c599d138d991","system_id":"levelo_inurba_marseille","lat":43.296921,"lon":5.376579,"is_reserved":false,"is_disabled":false,"rental_uris":{"android":"levelo://app?vid=56935d0d-f47b-4bf8-b851-c599d138d991","ios":"levelo://app?vid=56935d0d-f47b-4bf8-b851-c599d138d991"},"vehicle_type_id":"4","last_reported":1717168052,"current_range_meters":24400,"station_id":"ce4bgkh2rcd13ifvqbl0","pricing_plan_id":"cebpf4jnsgd1na2vs0mg"},{"bike_id":"4c3bf738-0821-4028-94ff-60ae984071ee","system_id":"levelo_inurba_marseille","lat":43.299028,"lon":5.381509,"is_reserved":false,"is_disabled":false,"rental_uris":{"android":"levelo://app?vid=4c3bf738-0821-4028-94ff-60ae984071ee","ios":"levelo://app?vid=4c3bf738-0821-4028-94ff-60ae984071ee"},"vehicle_type_id":"4","last_reported":1717168052,"current_range_meters":6800,"station_id":"ce4bgj12rcd13ifvqbc0","pricing_plan_id":"cebpf4jnsgd1na2vs0mg"},{"bike_id":"f9ad02f0-e044-4bad-a882-530570b89795","system_id":"levelo_inurba_marseille","lat":43.30954,"lon":5.39026,"is_reserved":false,"is_disabled":false,"rental_uris":{"android":"levelo://app?vid=f9ad02f0-e044-4bad-a882-530570b89795","ios":"levelo://app?vid=f9ad02f0-e044-4bad-a882-530570b89795"},"vehicle_type_id":"4","last_reported":1717168052,"current_range_meters":27600,"station_id":"ce4bgup2rcd13ifvqco0","pricing_plan_id":"cebpf4jnsgd1na2vs0mg"},{"bike_id":"69c22629-75e0-4a88-b813-6c83d3d75c12","system_id":"levelo_inurba_marseille","lat":43.309589,"lon":5.390258,"is_reserved":false,"is_disabled":false,"rental_uris":{"android":"levelo://app?vid=69c22629-75e0-4a88-b813-6c83d3d75c12","ios":"levelo://app?vid=69c22629-75e0-4a88-b813-6c83d3d75c12"},"vehicle_type_id":"4","last_reported":1717168052,"current_range_meters":2000,"station_id":"ce4bgup2rcd13ifvqco0","pricing_plan_id":"cebpf4jnsgd1na2vs0mg"},{"bike_id":"73a8e86c-02fd-440d-9746-ae0f4e1193db","system_id":"levelo_inurba_marseille","lat":43.297068,"lon":5.377101,"is_reserved":false,"is_disabled":false,"rental_uris":{"android":"levelo://app?vid=73a8e86c-02fd-440d-9746-ae0f4e1193db","ios":"levelo://app?vid=73a8e86c-02fd-440d-9746-ae0f4e1193db"},"vehicle_type_id":"4","last_reported":1717168052,"current_range_meters":2800,"station_id":"ce4bgkh2rcd13ifvqbl0","pricing_plan_id":"cebpf4jnsgd1na2vs0mg"},{"bike_id":"9d946389-3781-4f0c-93a2-2fd71b4698a6","system_id":"levelo_inurba_marseille","lat":43.3095,"lon":5.39034,"is_reserved":false,"is_disabled":false,"rental_uris":{"android":"levelo://app?vid=9d946389-3781-4f0c-93a2-2fd71b4698a6","ios":"levelo://app?vid=9d946389-3781-4f0c-93a2-2fd71b4698a6"},"vehicle_type_id":"4","last_reported":1717168052,"current_range_meters":18800,"station_id":"ce4bgup2rcd13ifvqco0","pricing_plan_id":"cebpf4jnsgd1na2vs0mg"},{"bike_id":"b3bd5eeb-b675-4d4c-a91a-0e0544197cd5","system_id":"levelo_inurba_marseille","lat":43.309589,"lon":5.390258,"is_reserved":false,"is_disabled":false,"rental_uris":{"android":"levelo://app?vid=b3bd5eeb-b675-4d4c-a91a-0e0544197cd5","ios":"levelo://app?vid=b3bd5eeb-b675-4d4c-a91a-0e0544197cd5"},"vehicle_type_id":"4","last_reported":1717168052,"current_range_meters":0,"station_id":"ce4bgup2rcd13ifvqco0","pricing_plan_id":"cebpf4jnsgd1na2vs0mg"},{"bike_id":"373e40f2-5649-4764-83fc-86059028928d","system_id":"levelo_inurba_marseille","lat":43.3096,"lon":5.39041,"is_reserved":false,"is_disabled":false,"rental_uris":{"android":"levelo://app?vid=373e40f2-5649-4764-83fc-86059028928d","ios":"levelo://app?vid=373e40f2-5649-4764-83fc-86059028928d"},"vehicle_type_id":"4","last_reported":1717168052,"current_range_meters":2000,"station_id":"ce4bgup2rcd13ifvqco0","pricing_plan_id":"cebpf4jnsgd1na2vs0mg"},{"bike_id":"57567fb6-a122-47ab-8787-988bb8eb17e1","system_id":"levelo_inurba_marseille","lat":43.3095,"lon":5.39039,"is_reserved":false,"is_disabled":false,"rental_uris":{"android":"levelo://app?vid=57567fb6-a122-47ab-8787-988bb8eb17e1","ios":"levelo://app?vid=57567fb6-a122-47ab-8787-988bb8eb17e1"},"vehicle_type_id":"4","last_reported":1717168052,"current_range_meters":0,"station_id":"ce4bgup2rcd13ifvqco0","pricing_plan_id":"cebpf4jnsgd1na2vs0mg"},{"bike_id":"de3ef764-00eb-485b-a2fa-a854fbabd384","system_id":"levelo_inurba_marseille","lat":43.30944,"lon":5.39039,"is_reserved":false,"is_disabled":false,"rental_uris":{"android":"levelo://app?vid=de3ef764-00eb-485b-a2fa-a854fbabd384","ios":"levelo://app?vid=de3ef764-00eb-485b-a2fa-a854fbabd384"},"vehicle_type_id":"4","last_reported":1717168052,"current_range_meters":6800,"station_id":"ce4bgup2rcd13ifvqco0","pricing_plan_id":"cebpf4jnsgd1na2vs0mg"},{"bike_id":"4e09d43d-3b8f-461f-81f2-dda82a21d044","system_id":"levelo_inurba_marseille","lat":43.309589,"lon":5.390258,"is_reserved":false,"is_disabled":false,"rental_uris":{"android":"levelo://app?vid=4e09d43d-3b8f-461f-81f2-dda82a21d044","ios":"levelo://app?vid=4e09d43d-3b8f-461f-81f2-dda82a21d044"},"vehicle_type_id":"4","last_reported":1717168052,"current_range_meters":20400,"station_id":"ce4bgup2rcd13ifvqco0","pricing_plan_id":"cebpf4jnsgd1na2vs0mg"},{"bike_id":"284b84dd-5884-4c0b-8d1e-997f928a753a","system_id":"levelo_inurba_marseille","lat":43.309589,"lon":5.390258,"is_reserved":false,"is_disabled":false,"rental_uris":{"android":"levelo://app?vid=284b84dd-5884-4c0b-8d1e-997f928a753a","ios":"levelo://app?vid=284b84dd-5884-4c0b-8d1e-997f928a753a"},"vehicle_type_id":"4","last_reported":1717168052,"current_range_meters":17200,"station_id":"ce4bgup2rcd13ifvqco0","pricing_plan_id":"cebpf4jnsgd1na2vs0mg"},{"bike_id":"678a4c0f-52f9-44db-aedc-f55258022622","system_id":"levelo_inurba_marseille","lat":43.296413,"lon":5.375507,"is_reserved":false,"is_disabled":false,"rental_uris":{"android":"levelo://app?vid=678a4c0f-52f9-44db-aedc-f55258022622","ios":"levelo://app?vid=678a4c0f-52f9-44db-aedc-f55258022622"},"vehicle_type_id":"4","last_reported":1717168052,"current_range_meters":15200,"station_id":"","pricing_plan_id":"cebpf4jnsgd1na2vs0mg"},{"bike_id":"b3c5179e-c3ac-4e2a-9e92-a8941827c6ab","system_id":"levelo_inurba_marseille","lat":43.299028,"lon":5.381509,"is_reserved":false,"is_disabled":false,"rental_uris":{"android":"levelo://app?vid=b3c5179e-c3ac-4e2a-9e92-a8941827c6ab","ios":"levelo://app?vid=b3c5179e-c3ac-4e2a-9e92-a8941827c6ab"},"vehicle_type_id":"4","last_reported":1717168052,"current_range_meters":400,"station_id":"ce4bgj12rcd13ifvqbc0","pricing_plan_id":"cebpf4jnsgd1na2vs0mg"},{"bike_id":"8f00e1aa-ef08-46e5-845f-7cb6d2a56c37","system_id":"levelo_inurba_marseille","lat":43.317557,"lon":5.390173,"is_reserved":false,"is_disabled":false,"rental_uris":{"android":"levelo://app?vid=8f00e1aa-ef08-46e5-845f-7cb6d2a56c37","ios":"levelo://app?vid=8f00e1aa-ef08-46e5-845f-7cb6d2a56c37"},"vehicle_type_id":"4","last_reported":1717168052,"current_range_meters":18000,"station_id":"ce4bhqp2rcd13ifvqhng","pricing_plan_id":"cebpf4jnsgd1na2vs0mg"},{"bike_id":"ff31471f-89c8-4fde-ad14-88fe1b4eb86a","system_id":"levelo_inurba_marseille","lat":43.317557,"lon":5.390173,"is_reserved":false,"is_disabled":false,"rental_uris":{"android":"levelo://app?vid=ff31471f-89c8-4fde-ad14-88fe1b4eb86a","ios":"levelo://app?vid=ff31471f-89c8-4fde-ad14-88fe1b4eb86a"},"vehicle_type_id":"4","last_reported":1717168052,"current_range_meters":3200,"station_id":"ce4bhqp2rcd13ifvqhng","pricing_plan_id":"cebpf4jnsgd1na2vs0mg"},{"bike_id":"e34bd659-31de-4412-9794-3aa31399111c","system_id":"levelo_inurba_marseille","lat":43.29738,"lon":5.37897,"is_reserved":false,"is_disabled":false,"rental_uris":{"android":"levelo://app?vid=e34bd659-31de-4412-9794-3aa31399111c","ios":"levelo://app?vid=e34bd659-31de-4412-9794-3aa31399111c"},"vehicle_type_id":"4","last_reported":1717168052,"current_range_meters":29600,"station_id":"","pricing_plan_id":"cebpf4jnsgd1na2vs0mg"},{"bike_id":"9282fbd5-0fce-4c5b-a1fc-e7c4dccaa6e2","system_id":"levelo_inurba_marseille","lat":43.298037,"lon":5.381066,"is_reserved":false,"is_disabled":false,"rental_uris":{"android":"levelo://app?vid=9282fbd5-0fce-4c5b-a1fc-e7c4dccaa6e2","ios":"levelo://app?vid=9282fbd5-0fce-4c5b-a1fc-e7c4dccaa6e2"},"vehicle_type_id":"4","last_reported":1717168052,"current_range_meters":0,"station_id":"ce4bgip2rcd13ifvqbb0","pricing_plan_id":"cebpf4jnsgd1na2vs0mg"},{"bike_id":"77f2c60b-9f85-434a-99f9-c7b3287ed6f9","system_id":"levelo_inurba_marseille","lat":43.298037,"lon":5.381066,"is_reserved":false,"is_disabled":false,"rental_uris":{"android":"levelo://app?vid=77f2c60b-9f85-434a-99f9-c7b3287ed6f9","ios":"levelo://app?vid=77f2c60b-9f85-434a-99f9-c7b3287ed6f9"},"vehicle_type_id":"4","last_reported":1717168052,"current_range_meters":12800,"station_id":"ce4bgip2rcd13ifvqbb0","pricing_plan_id":"cebpf4jnsgd1na2vs0mg"},{"bike_id":"0ec8714a-dfbb-476c-ab8a-3c0d3ba5bf98","system_id":"levelo_inurba_marseille","lat":43.304278,"lon":5.388868,"is_reserved":false,"is_disabled":false,"rental_uris":{"android":"levelo://app?vid=0ec8714a-dfbb-476c-ab8a-3c0d3ba5bf98","ios":"levelo://app?vid=0ec8714a-dfbb-476c-ab8a-3c0d3ba5bf98"},"vehicle_type_id":"4","last_reported":1717168052,"current_range_meters":13600,"station_id":"ce4bgk12rcd13ifvqbi0","pricing_plan_id":"cebpf4jnsgd1na2vs0mg"},{"bike_id":"07f8949c-e171-4194-aa5a-25e07b2fce7f","system_id":"levelo_inurba_marseille","lat":43.298037,"lon":5.381066,"is_reserved":false,"is_disabled":false,"rental_uris":{"android":"levelo://app?vid=07f8949c-e171-4194-aa5a-25e07b2fce7f","ios":"levelo://app?vid=07f8949c-e171-4194-aa5a-25e07b2fce7f"},"vehicle_type_id":"4","last_reported":1717168052,"current_range_meters":0,"station_id":"ce4bgip2rcd13ifvqbb0","pricing_plan_id":"cebpf4jnsgd1na2vs0mg"},{"bike_id":"375419fc-2c59-46d3-ac7b-a2af751fdb21","system_id":"levelo_inurba_marseille","lat":43.298037,"lon":5.381066,"is_reserved":false,"is_disabled":false,"rental_uris":{"android":"levelo://app?vid=375419fc-2c59-46d3-ac7b-a2af751fdb21","ios":"levelo://app?vid=375419fc-2c59-46d3-ac7b-a2af751fdb21"},"vehicle_type_id":"4","last_reported":1717168052,"current_range_meters":17200,"station_id":"ce4bgip2rcd13ifvqbb0","pricing_plan_id":"cebpf4jnsgd1na2vs0mg"},{"bike_id":"e8bb3f6c-9bde-408b-a5c9-d3cba0867fd5","system_id":"levelo_inurba_marseille","lat":43.304274,"lon":5.388873,"is_reserved":false,"is_disabled":false,"rental_uris":{"android":"levelo://app?vid=e8bb3f6c-9bde-408b-a5c9-d3cba0867fd5","ios":"levelo://app?vid=e8bb3f6c-9bde-408b-a5c9-d3cba0867fd5"},"vehicle_type_id":"4","last_reported":1717168052,"current_range_meters":19200,"station_id":"ce4bgk12rcd13ifvqbi0","pricing_plan_id":"cebpf4jnsgd1na2vs0mg"},{"bike_id":"23d191ed-39e0-4e67-a53e-414a2d80e483","system_id":"levelo_inurba_marseille","lat":43.296263,"lon":5.377094,"is_reserved":false,"is_disabled":false,"rental_uris":{"android":"levelo://app?vid=23d191ed-39e0-4e67-a53e-414a2d80e483","ios":"levelo://app?vid=23d191ed-39e0-4e67-a53e-414a2d80e483"},"vehicle_type_id":"4","last_reported":1717168052,"current_range_meters":26800,"station_id":"ce4bgi92rcd13ifvqb90","pricing_plan_id":"cebpf4jnsgd1na2vs0mg"},{"bike_id":"d9cec343-aa07-4728-939e-49526e956a7e","system_id":"levelo_inurba_marseille","lat":43.29482,"lon":5.36229,"is_reserved":false,"is_disabled":false,"rental_uris":{"android":"levelo://app?vid=d9cec343-aa07-4728-939e-49526e956a7e","ios":"levelo://app?vid=d9cec343-aa07-4728-939e-49526e956a7e"},"vehicle_type_id":"4","last_reported":1717168052,"current_range_meters":17600,"station_id":"","pricing_plan_id":"cebpf4jnsgd1na2vs0mg"},{"bike_id":"72d4cdd6-8936-4c8f-8374-9443dd8be00d","system_id":"levelo_inurba_marseille","lat":43.296263,"lon":5.377094,"is_reserved":false,"is_disabled":false,"rental_uris":{"android":"levelo://app?vid=72d4cdd6-8936-4c8f-8374-9443dd8be00d","ios":"levelo://app?vid=72d4cdd6-8936-4c8f-8374-9443dd8be00d"},"vehicle_type_id":"4","last_reported":1717168052,"current_range_meters":18000,"station_id":"ce4bgi92rcd13ifvqb90","pricing_plan_id":"cebpf4jnsgd1na2vs0mg"},{"bike_id":"e15b923e-0a08-4186-bda4-a195ad69fc2e","system_id":"levelo_inurba_marseille","lat":43.296277,"lon":5.377108,"is_reserved":false,"is_disabled":false,"rental_uris":{"android":"levelo://app?vid=e15b923e-0a08-4186-bda4-a195ad69fc2e","ios":"levelo://app?vid=e15b923e-0a08-4186-bda4-a195ad69fc2e"},"vehicle_type_id":"4","last_reported":1717168052,"current_range_meters":29600,"station_id":"ce4bgi92rcd13ifvqb90","pricing_plan_id":"cebpf4jnsgd1na2vs0mg"},{"bike_id":"8929aefe-9a09-415b-9a39-106f2b3a9f79","system_id":"levelo_inurba_marseille","lat":43.299717,"lon":5.384845,"is_reserved":false,"is_disabled":false,"rental_uris":{"android":"levelo://app?vid=8929aefe-9a09-415b-9a39-106f2b3a9f79","ios":"levelo://app?vid=8929aefe-9a09-415b-9a39-106f2b3a9f79"},"vehicle_type_id":"4","last_reported":1717168052,"current_range_meters":13600,"station_id":"ce4bgj92rcd13ifvqbd0","pricing_plan_id":"cebpf4jnsgd1na2vs0mg"},{"bike_id":"fa657882-e4ec-4ffe-be17-bfef0e8515a4","system_id":"levelo_inurba_marseille","lat":43.295279,"lon":5.375048,"is_reserved":false,"is_disabled":false,"rental_uris":{"android":"levelo://app?vid=fa657882-e4ec-4ffe-be17-bfef0e8515a4","ios":"levelo://app?vid=fa657882-e4ec-4ffe-be17-bfef0e8515a4"},"vehicle_type_id":"4","last_reported":1717168052,"current_range_meters":12400,"station_id":"ce4bgkp2rcd13ifvqbmg","pricing_plan_id":"cebpf4jnsgd1na2vs0mg"},{"bike_id":"e7e05ce0-d9e9-4263-a0d4-7a808c64b70e","system_id":"levelo_inurba_marseille","lat":43.296263,"lon":5.377094,"is_reserved":false,"is_disabled":false,"rental_uris":{"android":"levelo://app?vid=e7e05ce0-d9e9-4263-a0d4-7a808c64b70e","ios":"levelo://app?vid=e7e05ce0-d9e9-4263-a0d4-7a808c64b70e"},"vehicle_type_id":"4","last_reported":1717168052,"current_range_meters":13200,"station_id":"ce4bgi92rcd13ifvqb90","pricing_plan_id":"cebpf4jnsgd1na2vs0mg"},{"bike_id":"6273eef1-0605-4de5-aa26-7be845908fa8","system_id":"levelo_inurba_marseille","lat":43.299717,"lon":5.384845,"is_reserved":false,"is_disabled":false,"rental_uris":{"android":"levelo://app?vid=6273eef1-0605-4de5-aa26-7be845908fa8","ios":"levelo://app?vid=6273eef1-0605-4de5-aa26-7be845908fa8"},"vehicle_type_id":"4","last_reported":1717168052,"current_range_meters":22400,"station_id":"ce4bgj92rcd13ifvqbd0","pricing_plan_id":"cebpf4jnsgd1na2vs0mg"},{"bike_id":"28aa73c0-8b96-4ddf-8ff3-fbba8d993e53","system_id":"levelo_inurba_marseille","lat":43.299707,"lon":5.384859,"is_reserved":false,"is_disabled":false,"rental_uris":{"android":"levelo://app?vid=28aa73c0-8b96-4ddf-8ff3-fbba8d993e53","ios":"levelo://app?vid=28aa73c0-8b96-4ddf-8ff3-fbba8d993e53"},"vehicle_type_id":"4","last_reported":1717168052,"current_range_meters":1200,"station_id":"ce4bgj92rcd13ifvqbd0","pricing_plan_id":"cebpf4jnsgd1na2vs0mg"},{"bike_id":"1bcd0fd6-3747-4ca8-8704-be9d50a21395","system_id":"levelo_inurba_marseille","lat":43.295279,"lon":5.375048,"is_reserved":false,"is_disabled":false,"rental_uris":{"android":"levelo://app?vid=1bcd0fd6-3747-4ca8-8704-be9d50a21395","ios":"levelo://app?vid=1bcd0fd6-3747-4ca8-8704-be9d50a21395"},"vehicle_type_id":"4","last_reported":1717168052,"current_range_meters":16000,"station_id":"ce4bgkp2rcd13ifvqbmg","pricing_plan_id":"cebpf4jnsgd1na2vs0mg"},{"bike_id":"e3af46e5-df5b-4885-870d-150481df4a71","system_id":"levelo_inurba_marseille","lat":43.299724,"lon":5.384848,"is_reserved":false,"is_disabled":false,"rental_uris":{"android":"levelo://app?vid=e3af46e5-df5b-4885-870d-150481df4a71","ios":"levelo://app?vid=e3af46e5-df5b-4885-870d-150481df4a71"},"vehicle_type_id":"4","last_reported":1717168052,"current_range_meters":30400,"station_id":"ce4bgj92rcd13ifvqbd0","pricing_plan_id":"cebpf4jnsgd1na2vs0mg"},{"bike_id":"b88e7bcf-bac9-4c53-b1ba-2670a60372a4","system_id":"levelo_inurba_marseille","lat":43.299724,"lon":5.384848,"is_reserved":false,"is_disabled":false,"rental_uris":{"android":"levelo://app?vid=b88e7bcf-bac9-4c53-b1ba-2670a60372a4","ios":"levelo://app?vid=b88e7bcf-bac9-4c53-b1ba-2670a60372a4"},"vehicle_type_id":"4","last_reported":1717168052,"current_range_meters":2000,"station_id":"ce4bgj92rcd13ifvqbd0","pricing_plan_id":"cebpf4jnsgd1na2vs0mg"},{"bike_id":"029f2206-ddf3-4951-bbe7-fcdd05f3adaa","system_id":"levelo_inurba_marseille","lat":43.29529,"lon":5.385581,"is_reserved":false,"is_disabled":false,"rental_uris":{"android":"levelo://app?vid=029f2206-ddf3-4951-bbe7-fcdd05f3adaa","ios":"levelo://app?vid=029f2206-ddf3-4951-bbe7-fcdd05f3adaa"},"vehicle_type_id":"4","last_reported":1717168052,"current_range_meters":8800,"station_id":"ce4bgih2rcd13ifvqba0","pricing_plan_id":"cebpf4jnsgd1na2vs0mg"},{"bike_id":"2d11ffb1-0334-4286-8139-d9b83b7ad02e","system_id":"levelo_inurba_marseille","lat":43.299707,"lon":5.384859,"is_reserved":false,"is_disabled":false,"rental_uris":{"android":"levelo://app?vid=2d11ffb1-0334-4286-8139-d9b83b7ad02e","ios":"levelo://app?vid=2d11ffb1-0334-4286-8139-d9b83b7ad02e"},"vehicle_type_id":"4","last_reported":1717168052,"current_range_meters":4400,"station_id":"ce4bgj92rcd13ifvqbd0","pricing_plan_id":"cebpf4jnsgd1na2vs0mg"},{"bike_id":"af733e97-042d-4148-918a-30a7eaaf0af4","system_id":"levelo_inurba_marseille","lat":43.2942,"lon":5.37408,"is_reserved":false,"is_disabled":false,"rental_uris":{"android":"levelo://app?vid=af733e97-042d-4148-918a-30a7eaaf0af4","ios":"levelo://app?vid=af733e97-042d-4148-918a-30a7eaaf0af4"},"vehicle_type_id":"4","last_reported":1717168052,"current_range_meters":22800,"station_id":"","pricing_plan_id":"cebpf4jnsgd1na2vs0mg"},{"bike_id":"eb6b753b-f910-43c2-8f0d-cf113c37824c","system_id":"levelo_inurba_marseille","lat":43.32367,"lon":5.388836,"is_reserved":false,"is_disabled":false,"rental_uris":{"android":"levelo://app?vid=eb6b753b-f910-43c2-8f0d-cf113c37824c","ios":"levelo://app?vid=eb6b753b-f910-43c2-8f0d-cf113c37824c"},"vehicle_type_id":"4","last_reported":1717168052,"current_range_meters":6400,"station_id":"ce4bhqp2rcd13ifvqhog","pricing_plan_id":"cebpf4jnsgd1na2vs0mg"},{"bike_id":"044d9483-3775-466a-854f-b4ed7b757c2d","system_id":"levelo_inurba_marseille","lat":43.293009,"lon":5.374584,"is_reserved":false,"is_disabled":false,"rental_uris":{"android":"levelo://app?vid=044d9483-3775-466a-854f-b4ed7b757c2d","ios":"levelo://app?vid=044d9483-3775-466a-854f-b4ed7b757c2d"},"vehicle_type_id":"4","last_reported":1717168052,"current_range_meters":0,"station_id":"ce4bgi12rcd13ifvqb70","pricing_plan_id":"cebpf4jnsgd1na2vs0mg"},{"bike_id":"430a43b3-e862-407a-ae81-155f9a136d5e","system_id":"levelo_inurba_marseille","lat":43.293009,"lon":5.374584,"is_reserved":false,"is_disabled":false,"rental_uris":{"android":"levelo://app?vid=430a43b3-e862-407a-ae81-155f9a136d5e","ios":"levelo://app?vid=430a43b3-e862-407a-ae81-155f9a136d5e"},"vehicle_type_id":"4","last_reported":1717168052,"current_range_meters":27600,"station_id":"ce4bgi12rcd13ifvqb70","pricing_plan_id":"cebpf4jnsgd1na2vs0mg"},{"bike_id":"3f470b48-a83f-457d-bd42-232559af9a89","system_id":"levelo_inurba_marseille","lat":43.292749,"lon":5.368398,"is_reserved":false,"is_disabled":false,"rental_uris":{"android":"levelo://app?vid=3f470b48-a83f-457d-bd42-232559af9a89","ios":"levelo://app?vid=3f470b48-a83f-457d-bd42-232559af9a89"},"vehicle_type_id":"4","last_reported":1717168052,"current_range_meters":28800,"station_id":"ce4bhbp2rcd13ifvqesg","pricing_plan_id":"cebpf4jnsgd1na2vs0mg"},{"bike_id":"df4ec189-1b73-49e9-8b7c-a83dc9181993","system_id":"levelo_inurba_marseille","lat":43.292749,"lon":5.368398,"is_reserved":false,"is_disabled":false,"rental_uris":{"android":"levelo://app?vid=df4ec189-1b73-49e9-8b7c-a83dc9181993","ios":"levelo://app?vid=df4ec189-1b73-49e9-8b7c-a83dc9181993"},"vehicle_type_id":"4","last_reported":1717168052,"current_range_meters":29200,"station_id":"ce4bhbp2rcd13ifvqesg","pricing_plan_id":"cebpf4jnsgd1na2vs0mg"},{"bike_id":"a33adbba-e528-42cc-b0cf-415478e61435","system_id":"levelo_inurba_marseille","lat":43.29306,"lon":5.37179,"is_reserved":false,"is_disabled":false,"rental_uris":{"android":"levelo://app?vid=a33adbba-e528-42cc-b0cf-415478e61435","ios":"levelo://app?vid=a33adbba-e528-42cc-b0cf-415478e61435"},"vehicle_type_id":"4","last_reported":1717168052,"current_range_meters":12800,"station_id":"ce4bgh92rcd13ifvqb40","pricing_plan_id":"cebpf4jnsgd1na2vs0mg"},{"bike_id":"b8393aa7-8e8c-4d4c-a3d2-d471826b85d0","system_id":"levelo_inurba_marseille","lat":43.29301,"lon":5.37168,"is_reserved":false,"is_disabled":false,"rental_uris":{"android":"levelo://app?vid=b8393aa7-8e8c-4d4c-a3d2-d471826b85d0","ios":"levelo://app?vid=b8393aa7-8e8c-4d4c-a3d2-d471826b85d0"},"vehicle_type_id":"4","last_reported":1717168052,"current_range_meters":5200,"station_id":"ce4bgh92rcd13ifvqb40","pricing_plan_id":"cebpf4jnsgd1na2vs0mg"},{"bike_id":"20bd3e71-4146-44c3-9113-712c63c4b738","system_id":"levelo_inurba_marseille","lat":43.292749,"lon":5.368398,"is_reserved":false,"is_disabled":false,"rental_uris":{"android":"levelo://app?vid=20bd3e71-4146-44c3-9113-712c63c4b738","ios":"levelo://app?vid=20bd3e71-4146-44c3-9113-712c63c4b738"},"vehicle_type_id":"4","last_reported":1717168052,"current_range_meters":13600,"station_id":"ce4bhbp2rcd13ifvqesg","pricing_plan_id":"cebpf4jnsgd1na2vs0mg"},{"bike_id":"96c24431-fde7-4483-91eb-1e593a515c4f","system_id":"levelo_inurba_marseille","lat":43.293009,"lon":5.374584,"is_reserved":false,"is_disabled":false,"rental_uris":{"android":"levelo://app?vid=96c24431-fde7-4483-91eb-1e593a515c4f","ios":"levelo://app?vid=96c24431-fde7-4483-91eb-1e593a515c4f"},"vehicle_type_id":"4","last_reported":1717168052,"current_range_meters":28000,"station_id":"ce4bgi12rcd13ifvqb70","pricing_plan_id":"cebpf4jnsgd1na2vs0mg"},{"bike_id":"3dbb4bfd-753e-4b40-aa8a-468b57683773","system_id":"levelo_inurba_marseille","lat":43.305994,"lon":5.393687,"is_reserved":false,"is_disabled":false,"rental_uris":{"android":"levelo://app?vid=3dbb4bfd-753e-4b40-aa8a-468b57683773","ios":"levelo://app?vid=3dbb4bfd-753e-4b40-aa8a-468b57683773"},"vehicle_type_id":"4","last_reported":1717168052,"current_range_meters":14000,"station_id":"ce4bh0p2rcd13ifvqd80","pricing_plan_id":"cebpf4jnsgd1na2vs0mg"},{"bike_id":"1df6e65a-3992-45c7-bffb-9484163477a1","system_id":"levelo_inurba_marseille","lat":43.303002,"lon":5.392142,"is_reserved":false,"is_disabled":false,"rental_uris":{"android":"levelo://app?vid=1df6e65a-3992-45c7-bffb-9484163477a1","ios":"levelo://app?vid=1df6e65a-3992-45c7-bffb-9484163477a1"},"vehicle_type_id":"4","last_reported":1717168052,"current_range_meters":19600,"station_id":"ce4bgkh2rcd13ifvqbk0","pricing_plan_id":"cebpf4jnsgd1na2vs0mg"},{"bike_id":"117acbb2-8084-498a-b901-2902a98e4e5e","system_id":"levelo_inurba_marseille","lat":43.2936,"lon":5.37835,"is_reserved":false,"is_disabled":false,"rental_uris":{"android":"levelo://app?vid=117acbb2-8084-498a-b901-2902a98e4e5e","ios":"levelo://app?vid=117acbb2-8084-498a-b901-2902a98e4e5e"},"vehicle_type_id":"4","last_reported":1717168052,"current_range_meters":22000,"station_id":"ce4bgjh2rcd13ifvqbf0","pricing_plan_id":"cebpf4jnsgd1na2vs0mg"},{"bike_id":"702703f6-0932-409c-87ef-97e1ce3ea6d9","system_id":"levelo_inurba_marseille","lat":43.292302,"lon":5.360809,"is_reserved":false,"is_disabled":false,"rental_uris":{"android":"levelo://app?vid=702703f6-0932-409c-87ef-97e1ce3ea6d9","ios":"levelo://app?vid=702703f6-0932-409c-87ef-97e1ce3ea6d9"},"vehicle_type_id":"4","last_reported":1717168052,"current_range_meters":16800,"station_id":"ce4bgh92rcd13ifvqb40","pricing_plan_id":"cebpf4jnsgd1na2vs0mg"},{"bike_id":"df0735e5-5ed9-43b6-a9a1-79b4f694aae3","system_id":"levelo_inurba_marseille","lat":43.29215,"lon":5.36046,"is_reserved":false,"is_disabled":false,"rental_uris":{"android":"levelo://app?vid=df0735e5-5ed9-43b6-a9a1-79b4f694aae3","ios":"levelo://app?vid=df0735e5-5ed9-43b6-a9a1-79b4f694aae3"},"vehicle_type_id":"4","last_reported":1717168052,"current_range_meters":30800,"station_id":"ce4bhbh2rcd13ifvqeqg","pricing_plan_id":"cebpf4jnsgd1na2vs0mg"},{"bike_id":"19ac7a8d-e229-4855-ae18-044818524bfd","system_id":"levelo_inurba_marseille","lat":43.30085,"lon":5.390856,"is_reserved":false,"is_disabled":false,"rental_uris":{"android":"levelo://app?vid=19ac7a8d-e229-4855-ae18-044818524bfd","ios":"levelo://app?vid=19ac7a8d-e229-4855-ae18-044818524bfd"},"vehicle_type_id":"4","last_reported":1717168052,"current_range_meters":9600,"station_id":"ce4bh192rcd13ifvqdb0","pricing_plan_id":"cebpf4jnsgd1na2vs0mg"},{"bike_id":"bb190349-c674-4d6a-a973-eb6d0b78ab4a","system_id":"levelo_inurba_marseille","lat":43.304296,"lon":5.397513,"is_reserved":false,"is_disabled":false,"rental_uris":{"android":"levelo://app?vid=bb190349-c674-4d6a-a973-eb6d0b78ab4a","ios":"levelo://app?vid=bb190349-c674-4d6a-a973-eb6d0b78ab4a"},"vehicle_type_id":"4","last_reported":1717168052,"current_range_meters":31200,"station_id":"ce4bh092rcd13ifvqd20","pricing_plan_id":"cebpf4jnsgd1na2vs0mg"},{"bike_id":"047a5bbe-5016-4e4c-b1cf-297b29709666","system_id":"levelo_inurba_marseille","lat":43.291675,"lon":5.371583,"is_reserved":false,"is_disabled":false,"rental_uris":{"android":"levelo://app?vid=047a5bbe-5016-4e4c-b1cf-297b29709666","ios":"levelo://app?vid=047a5bbe-5016-4e4c-b1cf-297b29709666"},"vehicle_type_id":"4","last_reported":1717168052,"current_range_meters":14000,"station_id":"ce4bha92rcd13ifvqeh0","pricing_plan_id":"cebpf4jnsgd1na2vs0mg"},{"bike_id":"6f2a3832-aba1-4825-8814-0cdda60305a7","system_id":"levelo_inurba_marseille","lat":43.295279,"lon":5.375048,"is_reserved":false,"is_disabled":false,"rental_uris":{"android":"levelo://app?vid=6f2a3832-aba1-4825-8814-0cdda60305a7","ios":"levelo://app?vid=6f2a3832-aba1-4825-8814-0cdda60305a7"},"vehicle_type_id":"4","last_reported":1717168052,"current_range_meters":6800,"station_id":"ce4bgkp2rcd13ifvqbmg","pricing_plan_id":"cebpf4jnsgd1na2vs0mg"},{"bike_id":"ad3c2d5d-36ad-44cb-9120-d3da089cd4b3","system_id":"levelo_inurba_marseille","lat":43.291675,"lon":5.371583,"is_reserved":false,"is_disabled":false,"rental_uris":{"android":"levelo://app?vid=ad3c2d5d-36ad-44cb-9120-d3da089cd4b3","ios":"levelo://app?vid=ad3c2d5d-36ad-44cb-9120-d3da089cd4b3"},"vehicle_type_id":"4","last_reported":1717168052,"current_range_meters":1200,"station_id":"ce4bha92rcd13ifvqeh0","pricing_plan_id":"cebpf4jnsgd1na2vs0mg"},{"bike_id":"99ee4c53-7637-4f87-9422-7f645d8ecdfb","system_id":"levelo_inurba_marseille","lat":43.298764,"lon":5.388973,"is_reserved":false,"is_disabled":false,"rental_uris":{"android":"levelo://app?vid=99ee4c53-7637-4f87-9422-7f645d8ecdfb","ios":"levelo://app?vid=99ee4c53-7637-4f87-9422-7f645d8ecdfb"},"vehicle_type_id":"4","last_reported":1717168052,"current_range_meters":10000,"station_id":"ce4bh392rcd13ifvqdl0","pricing_plan_id":"cebpf4jnsgd1na2vs0mg"},{"bike_id":"65d905dd-da0c-4b4c-8832-05858382a3cc","system_id":"levelo_inurba_marseille","lat":43.291671,"lon":5.371575,"is_reserved":false,"is_disabled":false,"rental_uris":{"android":"levelo://app?vid=65d905dd-da0c-4b4c-8832-05858382a3cc","ios":"levelo://app?vid=65d905dd-da0c-4b4c-8832-05858382a3cc"},"vehicle_type_id":"4","last_reported":1717168052,"current_range_meters":20400,"station_id":"ce4bha92rcd13ifvqeh0","pricing_plan_id":"cebpf4jnsgd1na2vs0mg"},{"bike_id":"44b6ad3a-ff94-4f3a-bd8c-062a18f3fe09","system_id":"levelo_inurba_marseille","lat":43.291675,"lon":5.371583,"is_reserved":false,"is_disabled":false,"rental_uris":{"android":"levelo://app?vid=44b6ad3a-ff94-4f3a-bd8c-062a18f3fe09","ios":"levelo://app?vid=44b6ad3a-ff94-4f3a-bd8c-062a18f3fe09"},"vehicle_type_id":"4","last_reported":1717168052,"current_range_meters":13600,"station_id":"ce4bha92rcd13ifvqeh0","pricing_plan_id":"cebpf4jnsgd1na2vs0mg"},{"bike_id":"ece6d3d6-6e88-4c3a-8377-a123f1cef973","system_id":"levelo_inurba_marseille","lat":43.309038,"lon":5.396546,"is_reserved":false,"is_disabled":false,"rental_uris":{"android":"levelo://app?vid=ece6d3d6-6e88-4c3a-8377-a123f1cef973","ios":"levelo://app?vid=ece6d3d6-6e88-4c3a-8377-a123f1cef973"},"vehicle_type_id":"4","last_reported":1717168052,"current_range_meters":28400,"station_id":"ce4bh012rcd13ifvqcv0","pricing_plan_id":"cebpf4jnsgd1na2vs0mg"},{"bike_id":"ad047cc1-9f72-4c53-8dac-826fa9a8705d","system_id":"levelo_inurba_marseille","lat":43.309038,"lon":5.396546,"is_reserved":false,"is_disabled":false,"rental_uris":{"android":"levelo://app?vid=ad047cc1-9f72-4c53-8dac-826fa9a8705d","ios":"levelo://app?vid=ad047cc1-9f72-4c53-8dac-826fa9a8705d"},"vehicle_type_id":"4","last_reported":1717168052,"current_range_meters":0,"station_id":"ce4bh012rcd13ifvqcv0","pricing_plan_id":"cebpf4jnsgd1na2vs0mg"},