{"last_updated":1712862364,"ttl":30,"version":"2.2","data":{"bikes":[{"bike_id":"fb4d0607-7b20-497c-9d30-4026c7abffa0","system_id":"levelo_inurba_marseille","lat":43.312239,"lon":5.368562,"is_reserved":false,"is_disabled":false,"rental_uris":{"android":"levelo://app?vid=fb4d0607-7b20-497c-9d30-4026c7abffa0","ios":"levelo://app?vid=fb4d0607-7b20-497c-9d30-4026c7abffa0"},"vehicle_type_id":"4","last_reported":1712862364,"current_range_meters":8800,"station_id":"ce4bgl92rcd13ifvqbq0","pricing_plan_id":"cebpf4jnsgd1na2vs0mg"},{"bike_id":"df2cbebd-f5b2-465d-9608-ebfc9c85dcf5","system_id":"levelo_inurba_marseille","lat":43.312239,"lon":5.368562,"is_reserved":false,"is_disabled":false,"rental_uris":{"android":"levelo://app?vid=df2cbebd-f5b2-465d-9608-ebfc9c85dcf5","ios":"levelo://app?vid=df2cbebd-f5b2-465d-9608-ebfc9c85dcf5"},"vehicle_type_id":"4","last_reported":1712862364,"current_range_meters":4800,"station_id":"ce4bgl92rcd13ifvqbq0","pricing_plan_id":"cebpf4jnsgd1na2vs0mg"},{"bike_id":"3f8e4bb5-9085-4641-b9c1-33297adb32c8","system_id":"levelo_inurba_marseille","lat":43.312239,"lon":5.368562,"is_reserved":false,"is_disabled":false,"rental_uris":{"android":"levelo://app?vid=3f8e4bb5-9085-4641-b9c1-33297adb32c8","ios":"levelo://app?vid=3f8e4bb5-9085-4641-b9c1-33297adb32c8"},"vehicle_type_id":"4","last_reported":1712862364,"current_range_meters":4800,"station_id":"ce4bgl92rcd13ifvqbq0","pricing_plan_id":"cebpf4jnsgd1na2vs0mg"},{"bike_id":"101dd50f-591f-4efa-9789-741e5acfd83d","system_id":"levelo_inurba_marseille","lat":43.312239,"lon":5.368562,"is_reserved":false,"is_disabled":false,"rental_uris":{"android":"levelo://app?vid=101dd50f-591f-4efa-9789-741e5acfd83d","ios":"levelo://app?vid=101dd50f-591f-4efa-9789-741e5acfd83d"},"vehicle_type_id":"4","last_reported":1712862364,"current_range_meters":9200,"station_id":"ce4bgl92rcd13ifvqbq0","pricing_plan_id":"cebpf4jnsgd1na2vs0mg"},{"bike_id":"b538f319-85a8-4a4b-bfa4-64eee9a332a7","system_id":"levelo_inurba_marseille","lat":43.312239,"lon":5.368562,"is_reserved":false,"is_disabled":false,"rental_uris":{"android":"levelo://app?vid=b538f319-85a8-4a4b-bfa4-64eee9a332a7","ios":"levelo://app?vid=b538f319-85a8-4a4b-bfa4-64eee9a332a7"},"vehicle_type_id":"4","last_reported":1712862364,"current_range_meters":12400,"station_id":"ce4bgl92rcd13ifvqbq0","pricing_plan_id":"cebpf4jnsgd1na2vs0mg"},{"bike_id":"10ee19b9-733e-48ac-bd57-aafc06541612","system_id":"levelo_inurba_marseille","lat":43.312239,"lon":5.368562,"is_reserved":false,"is_disabled":false,"rental_uris":{"android":"levelo://app?vid=10ee19b9-733e-48ac-bd57-aafc06541612","ios":"levelo://app?vid=10ee19b9-733e-48ac-bd57-aafc06541612"},"vehicle_type_id":"4","last_reported":1712862364,"current_range_meters":0,"station_id":"ce4bgl92rcd13ifvqbq0","pricing_plan_id":"cebpf4jnsgd1na2vs0mg"},{"bike_id":"97c305c5-8435-4b15-ae4a-fad64f5206a4","system_id":"levelo_inurba_marseille","lat":43.309076,"lon":5.368465,"is_reserved":false,"is_disabled":false,"rental_uris":{"android":"levelo://app?vid=97c305c5-8435-4b15-ae4a-fad64f5206a4","ios":"levelo://app?vid=97c305c5-8435-4b15-ae4a-fad64f5206a4"},"vehicle_type_id":"4","last_reported":1712862364,"current_range_meters":0,"station_id":"ce4bgn92rcd13ifvqbvg","pricing_plan_id":"cebpf4jnsgd1na2vs0mg"},{"bike_id":"5ce57496-a8f6-4fa4-9596-4a8ecf385d37","system_id":"levelo_inurba_marseille","lat":43.314811,"lon":5.373103,"is_reserved":false,"is_disabled":false,"rental_uris":{"android":"levelo://app?vid=5ce57496-a8f6-4fa4-9596-4a8ecf385d37","ios":"levelo://app?vid=5ce57496-a8f6-4fa4-9596-4a8ecf385d37"},"vehicle_type_id":"4","last_reported":1712862364,"current_range_meters":0,"station_id":"ce4bgt12rcd13ifvqcd0","pricing_plan_id":"cebpf4jnsgd1na2vs0mg"},{"bike_id":"01f7a027-d61f-4d51-b618-cd35a09a733b","system_id":"levelo_inurba_marseille","lat":43.314811,"lon":5.373104,"is_reserved":false,"is_disabled":false,"rental_uris":{"android":"levelo://app?vid=01f7a027-d61f-4d51-b618-cd35a09a733b","ios":"levelo://app?vid=01f7a027-d61f-4d51-b618-cd35a09a733b"},"vehicle_type_id":"4","last_reported":1712862364,"current_range_meters":400,"station_id":"ce4bgt12rcd13ifvqcd0","pricing_plan_id":"cebpf4jnsgd1na2vs0mg"},{"bike_id":"ea56d6ea-4341-4227-9cf4-a14e77778e6b","system_id":"levelo_inurba_marseille","lat":43.309039,"lon":5.371797,"is_reserved":false,"is_disabled":false,"rental_uris":{"android":"levelo://app?vid=ea56d6ea-4341-4227-9cf4-a14e77778e6b","ios":"levelo://app?vid=ea56d6ea-4341-4227-9cf4-a14e77778e6b"},"vehicle_type_id":"4","last_reported":1712862364,"current_range_meters":6000,"station_id":"ce4bguh2rcd13ifvqckg","pricing_plan_id":"cebpf4jnsgd1na2vs0mg"},{"bike_id":"5f5cab59-e2e7-4e58-b00f-067424e285a3","system_id":"levelo_inurba_marseille","lat":43.30886,"lon":5.37194,"is_reserved":false,"is_disabled":false,"rental_uris":{"android":"levelo://app?vid=5f5cab59-e2e7-4e58-b00f-067424e285a3","ios":"levelo://app?vid=5f5cab59-e2e7-4e58-b00f-067424e285a3"},"vehicle_type_id":"4","last_reported":1712862364,"current_range_meters":7600,"station_id":"ce4bh2h2rcd13ifvqdh0","pricing_plan_id":"cebpf4jnsgd1na2vs0mg"},{"bike_id":"54b4375c-0eec-4038-8b45-e7e8ce27a697","system_id":"levelo_inurba_marseille","lat":43.309039,"lon":5.371797,"is_reserved":false,"is_disabled":false,"rental_uris":{"android":"levelo://app?vid=54b4375c-0eec-4038-8b45-e7e8ce27a697","ios":"levelo://app?vid=54b4375c-0eec-4038-8b45-e7e8ce27a697"},"vehicle_type_id":"4","last_reported":1712862364,"current_range_meters":0,"station_id":"ce4bguh2rcd13ifvqckg","pricing_plan_id":"cebpf4jnsgd1na2vs0mg"},{"bike_id":"3db4ce2b-1fcd-4ff2-9b80-ccb0f487c6ee","system_id":"levelo_inurba_marseille","lat":43.305712,"lon":5.365641,"is_reserved":false,"is_disabled":false,"rental_uris":{"android":"levelo://app?vid=3db4ce2b-1fcd-4ff2-9b80-ccb0f487c6ee","ios":"levelo://app?vid=3db4ce2b-1fcd-4ff2-9b80-ccb0f487c6ee"},"vehicle_type_id":"4","last_reported":1712862364,"current_range_meters":0,"station_id":"ce4bgs12rcd13ifvqcag","pricing_plan_id":"cebpf4jnsgd1na2vs0mg"},{"bike_id":"3974da49-bac6-4a9c-b032-ca572b595d3a","system_id":"levelo_inurba_marseille","lat":43.30537,"lon":5.367345,"is_reserved":false,"is_disabled":false,"rental_uris":{"android":"levelo://app?vid=3974da49-bac6-4a9c-b032-ca572b595d3a","ios":"levelo://app?vid=3974da49-bac6-4a9c-b032-ca572b595d3a"},"vehicle_type_id":"4","last_reported":1712862364,"current_range_meters":2000,"station_id":"ce4bgrp2rcd13ifvqc9g","pricing_plan_id":"cebpf4jnsgd1na2vs0mg"},{"bike_id":"27c5d2c1-157f-462f-a7c9-89cd3cf8fb5d","system_id":"levelo_inurba_marseille","lat":43.30537,"lon":5.367345,"is_reserved":false,"is_disabled":false,"rental_uris":{"android":"levelo://app?vid=27c5d2c1-157f-462f-a7c9-89cd3cf8fb5d","ios":"levelo://app?vid=27c5d2c1-157f-462f-a7c9-89cd3cf8fb5d"},"vehicle_type_id":"4","last_reported":1712862364,"current_range_meters":0,"station_id":"ce4bgrp2rcd13ifvqc9g","pricing_plan_id":"cebpf4jnsgd1na2vs0mg"},{"bike_id":"150a577b-d3eb-4be1-b3d6-278f581c7d71","system_id":"levelo_inurba_marseille","lat":43.30547,"lon":5.36557,"is_reserved":false,"is_disabled":false,"rental_uris":{"android":"levelo://app?vid=150a577b-d3eb-4be1-b3d6-278f581c7d71","ios":"levelo://app?vid=150a577b-d3eb-4be1-b3d6-278f581c7d71"},"vehicle_type_id":"4","last_reported":1712862364,"current_range_meters":0,"station_id":"ce4bgs12rcd13ifvqcag","pricing_plan_id":"cebpf4jnsgd1na2vs0mg"},{"bike_id":"2db5f0fe-9add-4a82-af85-49bd903549ff","system_id":"levelo_inurba_marseille","lat":43.305714,"lon":5.365633,"is_reserved":false,"is_disabled":false,"rental_uris":{"android":"levelo://app?vid=2db5f0fe-9add-4a82-af85-49bd903549ff","ios":"levelo://app?vid=2db5f0fe-9add-4a82-af85-49bd903549ff"},"vehicle_type_id":"4","last_reported":1712862364,"current_range_meters":3200,"station_id":"ce4bgs12rcd13ifvqcag","pricing_plan_id":"cebpf4jnsgd1na2vs0mg"},{"bike_id":"1706376d-5de7-422a-956e-8fcdbec7abe9","system_id":"levelo_inurba_marseille","lat":43.30721,"lon":5.37379,"is_reserved":false,"is_disabled":false,"rental_uris":{"android":"levelo://app?vid=1706376d-5de7-422a-956e-8fcdbec7abe9","ios":"levelo://app?vid=1706376d-5de7-422a-956e-8fcdbec7abe9"},"vehicle_type_id":"4","last_reported":1712862364,"current_range_meters":0,"station_id":"","pricing_plan_id":"cebpf4jnsgd1na2vs0mg"},{"bike_id":"ae9ee34c-5b8a-4758-b876-0c6fcab1252b","system_id":"levelo_inurba_marseille","lat":43.305989,"lon":5.37225,"is_reserved":false,"is_disabled":false,"rental_uris":{"android":"levelo://app?vid=ae9ee34c-5b8a-4758-b876-0c6fcab1252b","ios":"levelo://app?vid=ae9ee34c-5b8a-4758-b876-0c6fcab1252b"},"vehicle_type_id":"4","last_reported":1712862364,"current_range_meters":800,"station_id":"ce4bgqh2rcd13ifvqc4g","pricing_plan_id":"cebpf4jnsgd1na2vs0mg"},{"bike_id":"d86c5d88-8f1e-42f6-acf2-5ef0166d00df","system_id":"levelo_inurba_marseille","lat":43.30594,"lon":5.372203,"is_reserved":false,"is_disabled":false,"rental_uris":{"android":"levelo://app?vid=d86c5d88-8f1e-42f6-acf2-5ef0166d00df","ios":"levelo://app?vid=d86c5d88-8f1e-42f6-acf2-5ef0166d00df"},"vehicle_type_id":"4","last_reported":1712862364,"current_range_meters":0,"station_id":"ce4bgqh2rcd13ifvqc4g","pricing_plan_id":"cebpf4jnsgd1na2vs0mg"},{"bike_id":"71e36775-8f54-4a2a-9359-74a358744fd2","system_id":"levelo_inurba_marseille","lat":43.305713,"lon":5.372489,"is_reserved":false,"is_disabled":false,"rental_uris":{"android":"levelo://app?vid=71e36775-8f54-4a2a-9359-74a358744fd2","ios":"levelo://app?vid=71e36775-8f54-4a2a-9359-74a358744fd2"},"vehicle_type_id":"4","last_reported":1712862364,"current_range_meters":800,"station_id":"ce4bgqh2rcd13ifvqc4g","pricing_plan_id":"cebpf4jnsgd1na2vs0mg"},{"bike_id":"f20269bd-e20f-43f3-ad39-aa2715394cd2","system_id":"levelo_inurba_marseille","lat":43.295279,"lon":5.375048,"is_reserved":false,"is_disabled":false,"rental_uris":{"android":"levelo://app?vid=f20269bd-e20f-43f3-ad39-aa2715394cd2","ios":"levelo://app?vid=f20269bd-e20f-43f3-ad39-aa2715394cd2"},"vehicle_type_id":"4","last_reported":1712862364,"current_range_meters":10400,"station_id":"ce4bgkp2rcd13ifvqbmg","pricing_plan_id":"cebpf4jnsgd1na2vs0mg"},{"bike_id":"de5292f6-f14a-4b05-880a-77062bced492","system_id":"levelo_inurba_marseille","lat":43.305706,"lon":5.365654,"is_reserved":false,"is_disabled":false,"rental_uris":{"android":"levelo://app?vid=de5292f6-f14a-4b05-880a-77062bced492","ios":"levelo://app?vid=de5292f6-f14a-4b05-880a-77062bced492"},"vehicle_type_id":"4","last_reported":1712862364,"current_range_meters":400,"station_id":"ce4bgs12rcd13ifvqcag","pricing_plan_id":"cebpf4jnsgd1na2vs0mg"},{"bike_id":"4d2b3cac-556c-4ff8-83e8-728d67439944","system_id":"levelo_inurba_marseille","lat":43.307945,"lon":5.376487,"is_reserved":false,"is_disabled":false,"rental_uris":{"android":"levelo://app?vid=4d2b3cac-556c-4ff8-83e8-728d67439944","ios":"levelo://app?vid=4d2b3cac-556c-4ff8-83e8-728d67439944"},"vehicle_type_id":"4","last_reported":1712862364,"current_range_meters":14000,"station_id":"ce4bgv92rcd13ifvqcq0","pricing_plan_id":"cebpf4jnsgd1na2vs0mg"},{"bike_id":"5ac17b3b-d013-4c28-813c-e2e714055aa6","system_id":"levelo_inurba_marseille","lat":43.305256,"lon":5.372716,"is_reserved":false,"is_disabled":false,"rental_uris":{"android":"levelo://app?vid=5ac17b3b-d013-4c28-813c-e2e714055aa6","ios":"levelo://app?vid=5ac17b3b-d013-4c28-813c-e2e714055aa6"},"vehicle_type_id":"4","last_reported":1712862364,"current_range_meters":0,"station_id":"","pricing_plan_id":"cebpf4jnsgd1na2vs0mg"},{"bike_id":"42198aef-0088-45f4-974b-e6ce8666c90a","system_id":"levelo_inurba_marseille","lat":43.317075,"lon":5.377367,"is_reserved":false,"is_disabled":false,"rental_uris":{"android":"levelo://app?vid=42198aef-0088-45f4-974b-e6ce8666c90a","ios":"levelo://app?vid=42198aef-0088-45f4-974b-e6ce8666c90a"},"vehicle_type_id":"4","last_reported":1712862364,"current_range_meters":2000,"station_id":"ce4bgth2rcd13ifvqch0","pricing_plan_id":"cebpf4jnsgd1na2vs0mg"},{"bike_id":"595bdbb3-3352-49d4-9bcb-48c0a80be858","system_id":"levelo_inurba_marseille","lat":43.303046,"lon":5.368981,"is_reserved":false,"is_disabled":false,"rental_uris":{"android":"levelo://app?vid=595bdbb3-3352-49d4-9bcb-48c0a80be858","ios":"levelo://app?vid=595bdbb3-3352-49d4-9bcb-48c0a80be858"},"vehicle_type_id":"4","last_reported":1712862364,"current_range_meters":0,"station_id":"ce4bgqh2rcd13ifvqc5g","pricing_plan_id":"cebpf4jnsgd1na2vs0mg"},{"bike_id":"9c89579c-cf0e-45f4-af83-374862c32168","system_id":"levelo_inurba_marseille","lat":43.305368,"lon":5.367343,"is_reserved":false,"is_disabled":false,"rental_uris":{"android":"levelo://app?vid=9c89579c-cf0e-45f4-af83-374862c32168","ios":"levelo://app?vid=9c89579c-cf0e-45f4-af83-374862c32168"},"vehicle_type_id":"4","last_reported":1712862364,"current_range_meters":0,"station_id":"ce4bgrp2rcd13ifvqc9g","pricing_plan_id":"cebpf4jnsgd1na2vs0mg"},{"bike_id":"9e8f65df-b93b-4774-8bb1-f5a3fc46dffa","system_id":"levelo_inurba_marseille","lat":43.303046,"lon":5.368981,"is_reserved":false,"is_disabled":false,"rental_uris":{"android":"levelo://app?vid=9e8f65df-b93b-4774-8bb1-f5a3fc46dffa","ios":"levelo://app?vid=9e8f65df-b93b-4774-8bb1-f5a3fc46dffa"},"vehicle_type_id":"4","last_reported":1712862364,"current_range_meters":10000,"station_id":"ce4bgqh2rcd13ifvqc5g","pricing_plan_id":"cebpf4jnsgd1na2vs0mg"},{"bike_id":"2cff9093-d1ab-4d1e-816e-36d18748eeac","system_id":"levelo_inurba_marseille","lat":43.30304,"lon":5.368987,"is_reserved":false,"is_disabled":false,"rental_uris":{"android":"levelo://app?vid=2cff9093-d1ab-4d1e-816e-36d18748eeac","ios":"levelo://app?vid=2cff9093-d1ab-4d1e-816e-36d18748eeac"},"vehicle_type_id":"4","last_reported":1712862364,"current_range_meters":0,"station_id":"ce4bgqh2rcd13ifvqc5g","pricing_plan_id":"cebpf4jnsgd1na2vs0mg"},{"bike_id":"4bf3e8e1-ad0e-4232-97ee-7ec98c8f7b1a","system_id":"levelo_inurba_marseille","lat":43.31535,"lon":5.38036,"is_reserved":false,"is_disabled":false,"rental_uris":{"android":"levelo://app?vid=4bf3e8e1-ad0e-4232-97ee-7ec98c8f7b1a","ios":"levelo://app?vid=4bf3e8e1-ad0e-4232-97ee-7ec98c8f7b1a"},"vehicle_type_id":"4","last_reported":1712862364,"current_range_meters":0,"station_id":"ce4bhsp2rcd13ifvqi50","pricing_plan_id":"cebpf4jnsgd1na2vs0mg"},{"bike_id":"4656a213-e1bf-437b-b9a9-5cf846ec50ce","system_id":"levelo_inurba_marseille","lat":43.291675,"lon":5.371583,"is_reserved":false,"is_disabled":false,"rental_uris":{"android":"levelo://app?vid=4656a213-e1bf-437b-b9a9-5cf846ec50ce","ios":"levelo://app?vid=4656a213-e1bf-437b-b9a9-5cf846ec50ce"},"vehicle_type_id":"4","last_reported":1712862364,"current_range_meters":3600,"station_id":"ce4bha92rcd13ifvqeh0","pricing_plan_id":"cebpf4jnsgd1na2vs0mg"},{"bike_id":"603fa77f-0eba-4a52-b353-54050b497b03","system_id":"levelo_inurba_marseille","lat":43.30203,"lon":5.36606,"is_reserved":false,"is_disabled":false,"rental_uris":{"android":"levelo://app?vid=603fa77f-0eba-4a52-b353-54050b497b03","ios":"levelo://app?vid=603fa77f-0eba-4a52-b353-54050b497b03"},"vehicle_type_id":"4","last_reported":1712862364,"current_range_meters":0,"station_id":"ce4bgrh2rcd13ifvqc8g","pricing_plan_id":"cebpf4jnsgd1na2vs0mg"},{"bike_id":"9f9fc1b0-5148-42cf-832c-e7aab00c5fbb","system_id":"levelo_inurba_marseille","lat":43.301939,"lon":5.366286,"is_reserved":false,"is_disabled":false,"rental_uris":{"android":"levelo://app?vid=9f9fc1b0-5148-42cf-832c-e7aab00c5fbb","ios":"levelo://app?vid=9f9fc1b0-5148-42cf-832c-e7aab00c5fbb"},"vehicle_type_id":"4","last_reported":1712862364,"current_range_meters":14000,"station_id":"ce4bgrh2rcd13ifvqc8g","pricing_plan_id":"cebpf4jnsgd1na2vs0mg"},{"bike_id":"30280cfd-f111-481b-bd4b-19dbe9f73377","system_id":"levelo_inurba_marseille","lat":43.301939,"lon":5.366286,"is_reserved":false,"is_disabled":false,"rental_uris":{"android":"levelo://app?vid=30280cfd-f111-481b-bd4b-19dbe9f73377","ios":"levelo://app?vid=30280cfd-f111-481b-bd4b-19dbe9f73377"},"vehicle_type_id":"4","last_reported":1712862364,"current_range_meters":2800,"station_id":"ce4bgrh2rcd13ifvqc8g","pricing_plan_id":"cebpf4jnsgd1na2vs0mg"},{"bike_id":"b59f41db-90cd-4558-b47a-5af60abec512","system_id":"levelo_inurba_marseille","lat":43.304353,"lon":5.377937,"is_reserved":false,"is_disabled":false,"rental_uris":{"android":"levelo://app?vid=b59f41db-90cd-4558-b47a-5af60abec512","ios":"levelo://app?vid=b59f41db-90cd-4558-b47a-5af60abec512"},"vehicle_type_id":"4","last_reported":1712862364,"current_range_meters":0,"station_id":"","pricing_plan_id":"cebpf4jnsgd1na2vs0mg"},{"bike_id":"b9d582cb-11d0-458b-8182-89f2aec289e4","system_id":"levelo_inurba_marseille","lat":43.308012,"lon":5.381511,"is_reserved":false,"is_disabled":false,"rental_uris":{"android":"levelo://app?vid=b9d582cb-11d0-458b-8182-89f2aec289e4","ios":"levelo://app?vid=b9d582cb-11d0-458b-8182-89f2aec289e4"},"vehicle_type_id":"4","last_reported":1712862364,"current_range_meters":4000,"station_id":"ce4bgt12rcd13ifvqce0","pricing_plan_id":"cebpf4jnsgd1na2vs0mg"},{"bike_id":"754bbb57-46c6-43ca-8767-fb86f614f152","system_id":"levelo_inurba_marseille","lat":43.298037,"lon":5.381066,"is_reserved":false,"is_disabled":false,"rental_uris":{"android":"levelo://app?vid=754bbb57-46c6-43ca-8767-fb86f614f152","ios":"levelo://app?vid=754bbb57-46c6-43ca-8767-fb86f614f152"},"vehicle_type_id":"4","last_reported":1712862364,"current_range_meters":12000,"station_id":"ce4bgip2rcd13ifvqbb0","pricing_plan_id":"cebpf4jnsgd1na2vs0mg"},{"bike_id":"550f63cc-aa4d-4b17-b813-e33e795e32e0","system_id":"levelo_inurba_marseille","lat":43.304606,"lon":5.379026,"is_reserved":false,"is_disabled":false,"rental_uris":{"android":"levelo://app?vid=550f63cc-aa4d-4b17-b813-e33e795e32e0","ios":"levelo://app?vid=550f63cc-aa4d-4b17-b813-e33e795e32e0"},"vehicle_type_id":"4","last_reported":1712862364,"current_range_meters":0,"station_id":"ce4bgup2rcd13ifvqcn0","pricing_plan_id":"cebpf4jnsgd1na2vs0mg"},{"bike_id":"d0779fdc-d0e8-4eed-9974-19a43374d165","system_id":"levelo_inurba_marseille","lat":43.324771,"lon":5.36557,"is_reserved":false,"is_disabled":false,"rental_uris":{"android":"levelo://app?vid=d0779fdc-d0e8-4eed-9974-19a43374d165","ios":"levelo://app?vid=d0779fdc-d0e8-4eed-9974-19a43374d165"},"vehicle_type_id":"4","last_reported":1712862364,"current_range_meters":5200,"station_id":"ce4bhs12rcd13ifvqhvg","pricing_plan_id":"cebpf4jnsgd1na2vs0mg"},{"bike_id":"c92ff043-d5a7-42bc-835b-987cc7ba50fc","system_id":"levelo_inurba_marseille","lat":43.324771,"lon":5.36557,"is_reserved":false,"is_disabled":false,"rental_uris":{"android":"levelo://app?vid=c92ff043-d5a7-42bc-835b-987cc7ba50fc","ios":"levelo://app?vid=c92ff043-d5a7-42bc-835b-987cc7ba50fc"},"vehicle_type_id":"4","last_reported":1712862364,"current_range_meters":0,"station_id":"ce4bhs12rcd13ifvqhvg","pricing_plan_id":"cebpf4jnsgd1na2vs0mg"},{"bike_id":"792b9384-5d6d-4c11-bce9-76cd158eec7a","system_id":"levelo_inurba_marseille","lat":43.31053,"lon":5.3834,"is_reserved":false,"is_disabled":false,"rental_uris":{"android":"levelo://app?vid=792b9384-5d6d-4c11-bce9-76cd158eec7a","ios":"levelo://app?vid=792b9384-5d6d-4c11-bce9-76cd158eec7a"},"vehicle_type_id":"4","last_reported":1712862364,"current_range_meters":6400,"station_id":"ce4bgv92rcd13ifvqcr0","pricing_plan_id":"cebpf4jnsgd1na2vs0mg"},{"bike_id":"2d60e52a-fed1-41e1-bff5-bcbd3cd74431","system_id":"levelo_inurba_marseille","lat":43.31066,"lon":5.38362,"is_reserved":false,"is_disabled":false,"rental_uris":{"android":"levelo://app?vid=2d60e52a-fed1-41e1-bff5-bcbd3cd74431","ios":"levelo://app?vid=2d60e52a-fed1-41e1-bff5-bcbd3cd74431"},"vehicle_type_id":"4","last_reported":1712862364,"current_range_meters":0,"station_id":"ce4bgv92rcd13ifvqcr0","pricing_plan_id":"cebpf4jnsgd1na2vs0mg"},{"bike_id":"689804b0-6821-4d98-9685-9f55e6cbf693","system_id":"levelo_inurba_marseille","lat":43.30144,"lon":5.374082,"is_reserved":false,"is_disabled":false,"rental_uris":{"android":"levelo://app?vid=689804b0-6821-4d98-9685-9f55e6cbf693","ios":"levelo://app?vid=689804b0-6821-4d98-9685-9f55e6cbf693"},"vehicle_type_id":"4","last_reported":1712862364,"current_range_meters":0,"station_id":"ce4bgs92rcd13ifvqcc0","pricing_plan_id":"cebpf4jnsgd1na2vs0mg"},{"bike_id":"0353eeb9-ab99-444b-89b1-127978c70357","system_id":"levelo_inurba_marseille","lat":43.30147,"lon":5.37425,"is_reserved":false,"is_disabled":false,"rental_uris":{"android":"levelo://app?vid=0353eeb9-ab99-444b-89b1-127978c70357","ios":"levelo://app?vid=0353eeb9-ab99-444b-89b1-127978c70357"},"vehicle_type_id":"4","last_reported":1712862364,"current_range_meters":0,"station_id":"ce4bgs92rcd13ifvqcc0","pricing_plan_id":"cebpf4jnsgd1na2vs0mg"},{"bike_id":"182aeea9-f452-498d-bad9-237f59f7b41e","system_id":"levelo_inurba_marseille","lat":43.299222,"lon":5.365554,"is_reserved":false,"is_disabled":false,"rental_uris":{"android":"levelo://app?vid=182aeea9-f452-498d-bad9-237f59f7b41e","ios":"levelo://app?vid=182aeea9-f452-498d-bad9-237f59f7b41e"},"vehicle_type_id":"4","last_reported":1712862364,"current_range_meters":400,"station_id":"ce4bgm92rcd13ifvqbr0","pricing_plan_id":"cebpf4jnsgd1na2vs0mg"},{"bike_id":"55e39ee5-ccc8-4659-b011-2a6fa20dfadf","system_id":"levelo_inurba_marseille","lat":43.319935,"lon":5.381699,"is_reserved":false,"is_disabled":false,"rental_uris":{"android":"levelo://app?vid=55e39ee5-ccc8-4659-b011-2a6fa20dfadf","ios":"levelo://app?vid=55e39ee5-ccc8-4659-b011-2a6fa20dfadf"},"vehicle_type_id":"4","last_reported":1712862364,"current_range_meters":800,"station_id":"ce4bhr12rcd13ifvqhpg","pricing_plan_id":"cebpf4jnsgd1na2vs0mg"},{"bike_id":"ef8e089c-533d-428f-bbe5-3d3a008fc10c","system_id":"levelo_inurba_marseille","lat":43.313571,"lon":5.384829,"is_reserved":false,"is_disabled":false,"rental_uris":{"android":"levelo://app?vid=ef8e089c-533d-428f-bbe5-3d3a008fc10c","ios":"levelo://app?vid=ef8e089c-533d-428f-bbe5-3d3a008fc10c"},"vehicle_type_id":"4","last_reported":1712862364,"current_range_meters":4800,"station_id":"ce4bgt92rcd13ifvqcf0","pricing_plan_id":"cebpf4jnsgd1na2vs0mg"},{"bike_id":"48b57d22-4f6d-4cb6-b627-5a5a80aeaecd","system_id":"levelo_inurba_marseille","lat":43.31369,"lon":5.38492,"is_reserved":false,"is_disabled":false,"rental_uris":{"android":"levelo://app?vid=48b57d22-4f6d-4cb6-b627-5a5a80aeaecd","ios":"levelo://app?vid=48b57d22-4f6d-4cb6-b627-5a5a80aeaecd"},"vehicle_type_id":"4","last_reported":1712862364,"current_range_meters":0,"station_id":"ce4bgt92rcd13ifvqcf0","pricing_plan_id":"cebpf4jnsgd1na2vs0mg"},{"bike_id":"39c81f3f-09c3-4cb8-8a66-6ff0b5f121a2","system_id":"levelo_inurba_marseille","lat":43.299724,"lon":5.371829,"is_reserved":false,"is_disabled":false,"rental_uris":{"android":"levelo://app?vid=39c81f3f-09c3-4cb8-8a66-6ff0b5f121a2","ios":"levelo://app?vid=39c81f3f-09c3-4cb8-8a66-6ff0b5f121a2"},"vehicle_type_id":"4","last_reported":1712862364,"current_range_meters":0,"station_id":"ce4bgr92rcd13ifvqc7g","pricing_plan_id":"cebpf4jnsgd1na2vs0mg"},{"bike_id":"107df3dc-3067-42db-ae81-5a3ed728bdf2","system_id":"levelo_inurba_marseille","lat":43.299724,"lon":5.371829,"is_reserved":false,"is_disabled":false,"rental_uris":{"android":"levelo://app?vid=107df3dc-3067-42db-ae81-5a3ed728bdf2","ios":"levelo://app?vid=107df3dc-3067-42db-ae81-5a3ed728bdf2"},"vehicle_type_id":"4","last_reported":1712862364,"current_range_meters":0,"station_id":"ce4bgr92rcd13ifvqc7g","pricing_plan_id":"cebpf4jnsgd1na2vs0mg"},{"bike_id":"61070cdd-412c-4075-b15e-3c42430c64c4","system_id":"levelo_inurba_marseille","lat":43.29946,"lon":5.3653,"is_reserved":false,"is_disabled":false,"rental_uris":{"android":"levelo://app?vid=61070cdd-412c-4075-b15e-3c42430c64c4","ios":"levelo://app?vid=61070cdd-412c-4075-b15e-3c42430c64c4"},"vehicle_type_id":"4","last_reported":1712862364,"current_range_meters":0,"station_id":"","pricing_plan_id":"cebpf4jnsgd1na2vs0mg"},{"bike_id":"03cd5055-1d34-4362-a248-ef1f96f910f6","system_id":"levelo_inurba_marseille","lat":43.299724,"lon":5.371829,"is_reserved":false,"is_disabled":false,"rental_uris":{"android":"levelo://app?vid=03cd5055-1d34-4362-a248-ef1f96f910f6","ios":"levelo://app?vid=03cd5055-1d34-4362-a248-ef1f96f910f6"},"vehicle_type_id":"4","last_reported":1712862364,"current_range_meters":31200,"station_id":"ce4bgr92rcd13ifvqc7g","pricing_plan_id":"cebpf4jnsgd1na2vs0mg"},{"bike_id":"4c950486-5289-4e0a-9066-60c00d120359","system_id":"levelo_inurba_marseille","lat":43.29971,"lon":5.37153,"is_reserved":false,"is_disabled":false,"rental_uris":{"android":"levelo://app?vid=4c950486-5289-4e0a-9066-60c00d120359","ios":"levelo://app?vid=4c950486-5289-4e0a-9066-60c00d120359"},"vehicle_type_id":"4","last_reported":1712862364,"current_range_meters":0,"station_id":"ce4bgr92rcd13ifvqc7g","pricing_plan_id":"cebpf4jnsgd1na2vs0mg"},{"bike_id":"ba1e87e2-a352-4e64-9214-156e31e4ac33","system_id":"levelo_inurba_marseille","lat":43.259013,"lon":5.409301,"is_reserved":false,"is_disabled":false,"rental_uris":{"android":"levelo://app?vid=ba1e87e2-a352-4e64-9214-156e31e4ac33","ios":"levelo://app?vid=ba1e87e2-a352-4e64-9214-156e31e4ac33"},"vehicle_type_id":"4","last_reported":1712862364,"current_range_meters":1600,"station_id":"ce4bhm92rcd13ifvqglg","pricing_plan_id":"cebpf4jnsgd1na2vs0mg"},{"bike_id":"27efb912-9644-43ca-a8e8-fae29214289d","system_id":"levelo_inurba_marseille","lat":43.299724,"lon":5.371829,"is_reserved":false,"is_disabled":false,"rental_uris":{"android":"levelo://app?vid=27efb912-9644-43ca-a8e8-fae29214289d","ios":"levelo://app?vid=27efb912-9644-43ca-a8e8-fae29214289d"},"vehicle_type_id":"4","last_reported":1712862364,"current_range_meters":1600,"station_id":"ce4bgr92rcd13ifvqc7g","pricing_plan_id":"cebpf4jnsgd1na2vs0mg"},{"bike_id":"645f546c-8326-404b-98b3-54044d447783","system_id":"levelo_inurba_marseille","lat":43.29854,"lon":5.36276,"is_reserved":false,"is_disabled":false,"rental_uris":{"android":"levelo://app?vid=645f546c-8326-404b-98b3-54044d447783","ios":"levelo://app?vid=645f546c-8326-404b-98b3-54044d447783"},"vehicle_type_id":"4","last_reported":1712862364,"current_range_meters":0,"station_id":"ce4bgpp2rcd13ifvqc3g","pricing_plan_id":"cebpf4jnsgd1na2vs0mg"},{"bike_id":"2b5cb94f-3ab6-4a68-a382-2821f6e01859","system_id":"levelo_inurba_marseille","lat":43.29849,"lon":5.36274,"is_reserved":false,"is_disabled":false,"rental_uris":{"android":"levelo://app?vid=2b5cb94f-3ab6-4a68-a382-2821f6e01859","ios":"levelo://app?vid=2b5cb94f-3ab6-4a68-a382-2821f6e01859"},"vehicle_type_id":"4","last_reported":1712862364,"current_range_meters":0,"station_id":"ce4bgpp2rcd13ifvqc3g","pricing_plan_id":"cebpf4jnsgd1na2vs0mg"},{"bike_id":"924843cf-9876-4ce5-b2ad-79d2e6bc2874","system_id":"levelo_inurba_marseille","lat":43.298433,"lon":5.362774,"is_reserved":false,"is_disabled":false,"rental_uris":{"android":"levelo://app?vid=924843cf-9876-4ce5-b2ad-79d2e6bc2874","ios":"levelo://app?vid=924843cf-9876-4ce5-b2ad-79d2e6bc2874"},"vehicle_type_id":"4","last_reported":1712862364,"current_range_meters":18800,"station_id":"ce4bgpp2rcd13ifvqc3g","pricing_plan_id":"cebpf4jnsgd1na2vs0mg"},{"bike_id":"4b39cea0-c624-43ad-9418-02586a3af8cd","system_id":"levelo_inurba_marseille","lat":43.299243,"lon":5.374807,"is_reserved":false,"is_disabled":false,"rental_uris":{"android":"levelo://app?vid=4b39cea0-c624-43ad-9418-02586a3af8cd","ios":"levelo://app?vid=4b39cea0-c624-43ad-9418-02586a3af8cd"},"vehicle_type_id":"4","last_reported":1712862364,"current_range_meters":400,"station_id":"ce4bgjh2rcd13ifvqbg0","pricing_plan_id":"cebpf4jnsgd1na2vs0mg"},{"bike_id":"902351cd-616b-487e-a065-a34f8ba0e215","system_id":"levelo_inurba_marseille","lat":43.311722,"lon":5.387247,"is_reserved":false,"is_disabled":false,"rental_uris":{"android":"levelo://app?vid=902351cd-616b-487e-a065-a34f8ba0e215","ios":"levelo://app?vid=902351cd-616b-487e-a065-a34f8ba0e215"},"vehicle_type_id":"4","last_reported":1712862364,"current_range_meters":4800,"station_id":"ce4bgv12rcd13ifvqcp0","pricing_plan_id":"cebpf4jnsgd1na2vs0mg"},{"bike_id":"419ecc75-d9b1-411a-8326-108c7f7dc838","system_id":"levelo_inurba_marseille","lat":43.322872,"lon":5.382756,"is_reserved":false,"is_disabled":false,"rental_uris":{"android":"levelo://app?vid=419ecc75-d9b1-411a-8326-108c7f7dc838","ios":"levelo://app?vid=419ecc75-d9b1-411a-8326-108c7f7dc838"},"vehicle_type_id":"4","last_reported":1712862364,"current_range_meters":27600,"station_id":"ce4bhr12rcd13ifvqhqg","pricing_plan_id":"cebpf4jnsgd1na2vs0mg"},{"bike_id":"622889ea-8ffc-4dcb-8d4f-a257ac52e57c","system_id":"levelo_inurba_marseille","lat":43.322872,"lon":5.382756,"is_reserved":false,"is_disabled":false,"rental_uris":{"android":"levelo://app?vid=622889ea-8ffc-4dcb-8d4f-a257ac52e57c","ios":"levelo://app?vid=622889ea-8ffc-4dcb-8d4f-a257ac52e57c"},"vehicle_type_id":"4","last_reported":1712862364,"current_range_meters":6800,"station_id":"ce4bhr12rcd13ifvqhqg","pricing_plan_id":"cebpf4jnsgd1na2vs0mg"},{"bike_id":"df83776a-bfc5-47e7-9b22-6f070ff90bc4","system_id":"levelo_inurba_marseille","lat":43.322872,"lon":5.382756,"is_reserved":false,"is_disabled":false,"rental_uris":{"android":"levelo://app?vid=df83776a-bfc5-47e7-9b22-6f070ff90bc4","ios":"levelo://app?vid=df83776a-bfc5-47e7-9b22-6f070ff90bc4"},"vehicle_type_id":"4","last_reported":1712862364,"current_range_meters":30000,"station_id":"ce4bhr12rcd13ifvqhqg","pricing_plan_id":"cebpf4jnsgd1na2vs0mg"},{"bike_id":"1a17f07d-3bbb-43ee-9ef1-3f1629aa7092","system_id":"levelo_inurba_marseille","lat":43.32695,"lon":5.37491,"is_reserved":false,"is_disabled":false,"rental_uris":{"android":"levelo://app?vid=1a17f07d-3bbb-43ee-9ef1-3f1629aa7092","ios":"levelo://app?vid=1a17f07d-3bbb-43ee-9ef1-3f1629aa7092"},"vehicle_type_id":"4","last_reported":1712862364,"current_range_meters":20000,"station_id":"","pricing_plan_id":"cebpf4jnsgd1na2vs0mg"},{"bike_id":"f79d6430-be84-4f48-ba1a-add4b9636989","system_id":"levelo_inurba_marseille","lat":43.297794,"lon":5.370888,"is_reserved":false,"is_disabled":false,"rental_uris":{"android":"levelo://app?vid=f79d6430-be84-4f48-ba1a-add4b9636989","ios":"levelo://app?vid=f79d6430-be84-4f48-ba1a-add4b9636989"},"vehicle_type_id":"4","last_reported":1712862364,"current_range_meters":3200,"station_id":"ce4bgop2rcd13ifvqc1g","pricing_plan_id":"cebpf4jnsgd1na2vs0mg"},{"bike_id":"0e73c717-7d72-4151-8b9a-6405cfc2f068","system_id":"levelo_inurba_marseille","lat":43.322872,"lon":5.382756,"is_reserved":false,"is_disabled":false,"rental_uris":{"android":"levelo://app?vid=0e73c717-7d72-4151-8b9a-6405cfc2f068","ios":"levelo://app?vid=0e73c717-7d72-4151-8b9a-6405cfc2f068"},"vehicle_type_id":"4","last_reported":1712862364,"current_range_meters":22000,"station_id":"ce4bhr12rcd13ifvqhqg","pricing_plan_id":"cebpf4jnsgd1na2vs0mg"},{"bike_id":"b67e91dd-8490-4613-8c03-8dc96cca9a9d","system_id":"levelo_inurba_marseille","lat":43.297163,"lon":5.365866,"is_reserved":false,"is_disabled":false,"rental_uris":{"android":"levelo://app?vid=b67e91dd-8490-4613-8c03-8dc96cca9a9d","ios":"levelo://app?vid=b67e91dd-8490-4613-8c03-8dc96cca9a9d"},"vehicle_type_id":"4","last_reported":1712862364,"current_range_meters":27600,"station_id":"ce4bgn12rcd13ifvqbt0","pricing_plan_id":"cebpf4jnsgd1na2vs0mg"},{"bike_id":"88e32fe8-ea30-464e-bb16-9622b886d988","system_id":"levelo_inurba_marseille","lat":43.297163,"lon":5.365866,"is_reserved":false,"is_disabled":false,"rental_uris":{"android":"levelo://app?vid=88e32fe8-ea30-464e-bb16-9622b886d988","ios":"levelo://app?vid=88e32fe8-ea30-464e-bb16-9622b886d988"},"vehicle_type_id":"4","last_reported":1712862364,"current_range_meters":29200,"station_id":"ce4bgn12rcd13ifvqbt0","pricing_plan_id":"cebpf4jnsgd1na2vs0mg"},{"bike_id":"c9066989-5263-4d81-8ff2-b43735cc905e","system_id":"levelo_inurba_marseille","lat":43.297071,"lon":5.366303,"is_reserved":false,"is_disabled":false,"rental_uris":{"android":"levelo://app?vid=c9066989-5263-4d81-8ff2-b43735cc905e","ios":"levelo://app?vid=c9066989-5263-4d81-8ff2-b43735cc905e"},"vehicle_type_id":"4","last_reported":1712862364,"current_range_meters":6000,"station_id":"ce4bgn12rcd13ifvqbt0","pricing_plan_id":"cebpf4jnsgd1na2vs0mg"},{"bike_id":"9424f6dd-ede3-47a3-af09-99d281b159c7","system_id":"levelo_inurba_marseille","lat":43.317575,"lon":5.388235,"is_reserved":false,"is_disabled":false,"rental_uris":{"android":"levelo://app?vid=9424f6dd-ede3-47a3-af09-99d281b159c7","ios":"levelo://app?vid=9424f6dd-ede3-47a3-af09-99d281b159c7"},"vehicle_type_id":"4","last_reported":1712862364,"current_range_meters":30000,"station_id":"","pricing_plan_id":"cebpf4jnsgd1na2vs0mg"},{"bike_id":"1e6515c3-f202-4706-aac4-1bdb441f082f","system_id":"levelo_inurba_marseille","lat":43.308012,"lon":5.381511,"is_reserved":false,"is_disabled":false,"rental_uris":{"android":"levelo://app?vid=1e6515c3-f202-4706-aac4-1bdb441f082f","ios":"levelo://app?vid=1e6515c3-f202-4706-aac4-1bdb441f082f"},"vehicle_type_id":"4","last_reported":1712862364,"current_range_meters":2400,"station_id":"ce4bgt12rcd13ifvqce0","pricing_plan_id":"cebpf4jnsgd1na2vs0mg"},{"bike_id":"ca3bf091-e7b9-4240-a038-a5bcc8dc0b0c","system_id":"levelo_inurba_marseille","lat":43.296131,"lon":5.370791,"is_reserved":false,"is_disabled":false,"rental_uris":{"android":"levelo://app?vid=ca3bf091-e7b9-4240-a038-a5bcc8dc0b0c","ios":"levelo://app?vid=ca3bf091-e7b9-4240-a038-a5bcc8dc0b0c"},"vehicle_type_id":"4","last_reported":1712862364,"current_range_meters":31200,"station_id":"ce4bgnh2rcd13ifvqc0g","pricing_plan_id":"cebpf4jnsgd1na2vs0mg"},{"bike_id":"ea945385-52ac-4e2f-877d-7a23db562dd8","system_id":"levelo_inurba_marseille","lat":43.29573,"lon":5.367355,"is_reserved":false,"is_disabled":false,"rental_uris":{"android":"levelo://app?vid=ea945385-52ac-4e2f-877d-7a23db562dd8","ios":"levelo://app?vid=ea945385-52ac-4e2f-877d-7a23db562dd8"},"vehicle_type_id":"4","last_reported":1712862364,"current_range_meters":26800,"station_id":"ce4bgph2rcd13ifvqc2g","pricing_plan_id":"cebpf4jnsgd1na2vs0mg"},{"bike_id":"c1cedd02-a4b9-4d67-a4c9-3f381e3d22a1","system_id":"levelo_inurba_marseille","lat":43.31757,"lon":5.38939,"is_reserved":false,"is_disabled":false,"rental_uris":{"android":"levelo://app?vid=c1cedd02-a4b9-4d67-a4c9-3f381e3d22a1","ios":"levelo://app?vid=c1cedd02-a4b9-4d67-a4c9-3f381e3d22a1"},"vehicle_type_id":"4","last_reported":1712862364,"current_range_meters":6400,"station_id":"ce4bhqp2rcd13ifvqhng","pricing_plan_id":"cebpf4jnsgd1na2vs0mg"},{"bike_id":"16925f1e-623c-40a9-ba04-f657a8440b71","system_id":"levelo_inurba_marseille","lat":43.299028,"lon":5.381509,"is_reserved":false,"is_disabled":false,"rental_uris":{"android":"levelo://app?vid=16925f1e-623c-40a9-ba04-f657a8440b71","ios":"levelo://app?vid=16925f1e-623c-40a9-ba04-f657a8440b71"},"vehicle_type_id":"4","last_reported":1712862364,"current_range_meters":24400,"station_id":"ce4bgj12rcd13ifvqbc0","pricing_plan_id":"cebpf4jnsgd1na2vs0mg"},{"bike_id":"f71612c0-0e55-42f8-abac-0facc67e7413","system_id":"levelo_inurba_marseille","lat":43.30959,"lon":5.39022,"is_reserved":false,"is_disabled":false,"rental_uris":{"android":"levelo://app?vid=f71612c0-0e55-42f8-abac-0facc67e7413","ios":"levelo://app?vid=f71612c0-0e55-42f8-abac-0facc67e7413"},"vehicle_type_id":"4","last_reported":1712862364,"current_range_meters":0,"station_id":"ce4bgup2rcd13ifvqco0","pricing_plan_id":"cebpf4jnsgd1na2vs0mg"},{"bike_id":"afe42556-cef0-4e3d-a5b2-6271a3ad3ff5","system_id":"levelo_inurba_marseille","lat":43.30951,"lon":5.39024,"is_reserved":false,"is_disabled":false,"rental_uris":{"android":"levelo://app?vid=afe42556-cef0-4e3d-a5b2-6271a3ad3ff5","ios":"levelo://app?vid=afe42556-cef0-4e3d-a5b2-6271a3ad3ff5"},"vehicle_type_id":"4","last_reported":1712862364,"current_range_meters":0,"station_id":"ce4bgup2rcd13ifvqco0","pricing_plan_id":"cebpf4jnsgd1na2vs0mg"},{"bike_id":"f60fc650-2af9-47fd-abd8-bfc249620ef2","system_id":"levelo_inurba_marseille","lat":43.295748,"lon":5.37522,"is_reserved":false,"is_disabled":false,"rental_uris":{"android":"levelo://app?vid=f60fc650-2af9-47fd-abd8-bfc249620ef2","ios":"levelo://app?vid=f60fc650-2af9-47fd-abd8-bfc249620ef2"},"vehicle_type_id":"4","last_reported":1712862364,"current_range_meters":0,"station_id":"ce4bgh92rcd13ifvqb50","pricing_plan_id":"cebpf4jnsgd1na2vs0mg"},{"bike_id":"57bcdc19-b476-4f6e-9ce2-f3cdd388ba41","system_id":"levelo_inurba_marseille","lat":43.30963,"lon":5.39043,"is_reserved":false,"is_disabled":false,"rental_uris":{"android":"levelo://app?vid=57bcdc19-b476-4f6e-9ce2-f3cdd388ba41","ios":"levelo://app?vid=57bcdc19-b476-4f6e-9ce2-f3cdd388ba41"},"vehicle_type_id":"4","last_reported":1712862364,"current_range_meters":0,"station_id":"ce4bgup2rcd13ifvqco0","pricing_plan_id":"cebpf4jnsgd1na2vs0mg"},{"bike_id":"7fee823b-f451-4dd9-89d2-ef11e12aef1d","system_id":"levelo_inurba_marseille","lat":43.31755,"lon":5.39011,"is_reserved":false,"is_disabled":false,"rental_uris":{"android":"levelo://app?vid=7fee823b-f451-4dd9-89d2-ef11e12aef1d","ios":"levelo://app?vid=7fee823b-f451-4dd9-89d2-ef11e12aef1d"},"vehicle_type_id":"4","last_reported":1712862364,"current_range_meters":0,"station_id":"ce4bhqp2rcd13ifvqhng","pricing_plan_id":"cebpf4jnsgd1na2vs0mg"},{"bike_id":"c6a2a7e8-4a54-4733-bbcb-47a85a127b51","system_id":"levelo_inurba_marseille","lat":43.317585,"lon":5.3901,"is_reserved":false,"is_disabled":false,"rental_uris":{"android":"levelo://app?vid=c6a2a7e8-4a54-4733-bbcb-47a85a127b51","ios":"levelo://app?vid=c6a2a7e8-4a54-4733-bbcb-47a85a127b51"},"vehicle_type_id":"4","last_reported":1712862364,"current_range_meters":22800,"station_id":"ce4bhqp2rcd13ifvqhng","pricing_plan_id":"cebpf4jnsgd1na2vs0mg"},{"bike_id":"ee0ea967-a1f5-41b3-9f4c-a37ff6a2c357","system_id":"levelo_inurba_marseille","lat":43.31758,"lon":5.39012,"is_reserved":false,"is_disabled":false,"rental_uris":{"android":"levelo://app?vid=ee0ea967-a1f5-41b3-9f4c-a37ff6a2c357","ios":"levelo://app?vid=ee0ea967-a1f5-41b3-9f4c-a37ff6a2c357"},"vehicle_type_id":"4","last_reported":1712862364,"current_range_meters":4400,"station_id":"ce4bhqp2rcd13ifvqhng","pricing_plan_id":"cebpf4jnsgd1na2vs0mg"},{"bike_id":"bb171d16-60fe-47a4-a636-0b4cacea4cb6","system_id":"levelo_inurba_marseille","lat":43.31758,"lon":5.39013,"is_reserved":false,"is_disabled":false,"rental_uris":{"android":"levelo://app?vid=bb171d16-60fe-47a4-a636-0b4cacea4cb6","ios":"levelo://app?vid=bb171d16-60fe-47a4-a636-0b4cacea4cb6"},"vehicle_type_id":"4","last_reported":1712862364,"current_range_meters":9600,"station_id":"ce4bhqp2rcd13ifvqhng","pricing_plan_id":"cebpf4jnsgd1na2vs0mg"},{"bike_id":"4c3d7472-024c-4c22-b3d2-4bd4ac3cdeb8","system_id":"levelo_inurba_marseille","lat":43.3176,"lon":5.39015,"is_reserved":false,"is_disabled":false,"rental_uris":{"android":"levelo://app?vid=4c3d7472-024c-4c22-b3d2-4bd4ac3cdeb8","ios":"levelo://app?vid=4c3d7472-024c-4c22-b3d2-4bd4ac3cdeb8"},"vehicle_type_id":"4","last_reported":1712862364,"current_range_meters":17600,"station_id":"ce4bhqp2rcd13ifvqhng","pricing_plan_id":"cebpf4jnsgd1na2vs0mg"},{"bike_id":"43cc7bad-ac8c-4a78-b1f0-1265d17d32a8","system_id":"levelo_inurba_marseille","lat":43.29786,"lon":5.38078,"is_reserved":false,"is_disabled":false,"rental_uris":{"android":"levelo://app?vid=43cc7bad-ac8c-4a78-b1f0-1265d17d32a8","ios":"levelo://app?vid=43cc7bad-ac8c-4a78-b1f0-1265d17d32a8"},"vehicle_type_id":"4","last_reported":1712862364,"current_range_meters":0,"station_id":"ce4bgip2rcd13ifvqbb0","pricing_plan_id":"cebpf4jnsgd1na2vs0mg"},{"bike_id":"f22603cf-9539-42b8-b712-27a33907953f","system_id":"levelo_inurba_marseille","lat":43.298037,"lon":5.381066,"is_reserved":false,"is_disabled":false,"rental_uris":{"android":"levelo://app?vid=f22603cf-9539-42b8-b712-27a33907953f","ios":"levelo://app?vid=f22603cf-9539-42b8-b712-27a33907953f"},"vehicle_type_id":"4","last_reported":1712862364,"current_range_meters":400,"station_id":"ce4bgip2rcd13ifvqbb0","pricing_plan_id":"cebpf4jnsgd1na2vs0mg"},{"bike_id":"4e15dbef-a013-4377-8d9f-549847c889f4","system_id":"levelo_inurba_marseille","lat":43.30439,"lon":5.38883,"is_reserved":false,"is_disabled":false,"rental_uris":{"android":"levelo://app?vid=4e15dbef-a013-4377-8d9f-549847c889f4","ios":"levelo://app?vid=4e15dbef-a013-4377-8d9f-549847c889f4"},"vehicle_type_id":"4","last_reported":1712862364,"current_range_meters":0,"station_id":"ce4bgk12rcd13ifvqbi0","pricing_plan_id":"cebpf4jnsgd1na2vs0mg"},{"bike_id":"af5055c0-f7dc-4fc9-afaf-0c14266a3d0f","system_id":"levelo_inurba_marseille","lat":43.29789,"lon":5.3809,"is_reserved":false,"is_disabled":false,"rental_uris":{"android":"levelo://app?vid=af5055c0-f7dc-4fc9-afaf-0c14266a3d0f","ios":"levelo://app?vid=af5055c0-f7dc-4fc9-afaf-0c14266a3d0f"},"vehicle_type_id":"4","last_reported":1712862364,"current_range_meters":17200,"station_id":"ce4bgip2rcd13ifvqbb0","pricing_plan_id":"cebpf4jnsgd1na2vs0mg"},{"bike_id":"95057499-676f-47f7-89dc-e17accea87bd","system_id":"levelo_inurba_marseille","lat":43.304274,"lon":5.388873,"is_reserved":false,"is_disabled":false,"rental_uris":{"android":"levelo://app?vid=95057499-676f-47f7-89dc-e17accea87bd","ios":"levelo://app?vid=95057499-676f-47f7-89dc-e17accea87bd"},"vehicle_type_id":"4","last_reported":1712862364,"current_range_meters":0,"station_id":"ce4bgk12rcd13ifvqbi0","pricing_plan_id":"cebpf4jnsgd1na2vs0mg"},{"bike_id":"ae146bb5-78ba-47a4-a5bc-56124879a6ae","system_id":"levelo_inurba_marseille","lat":43.295933,"lon":5.376277,"is_reserved":false,"is_disabled":false,"rental_uris":{"android":"levelo://app?vid=ae146bb5-78ba-47a4-a5bc-56124879a6ae","ios":"levelo://app?vid=ae146bb5-78ba-47a4-a5bc-56124879a6ae"},"vehicle_type_id":"4","last_reported":1712862364,"current_range_meters":18400,"station_id":"ce4bgi92rcd13ifvqb90","pricing_plan_id":"cebpf4jnsgd1na2vs0mg"},{"bike_id":"4d546a99-5755-4920-9e09-22c7dfb3119d","system_id":"levelo_inurba_marseille","lat":43.297734,"lon":5.380984,"is_reserved":false,"is_disabled":false,"rental_uris":{"android":"levelo://app?vid=4d546a99-5755-4920-9e09-22c7dfb3119d","ios":"levelo://app?vid=4d546a99-5755-4920-9e09-22c7dfb3119d"},"vehicle_type_id":"4","last_reported":1712862364,"current_range_meters":0,"station_id":"ce4bgip2rcd13ifvqbb0","pricing_plan_id":"cebpf4jnsgd1na2vs0mg"},{"bike_id":"9cc68469-7672-4860-ba8f-4775547a9101","system_id":"levelo_inurba_marseille","lat":43.29609,"lon":5.37721,"is_reserved":false,"is_disabled":false,"rental_uris":{"android":"levelo://app?vid=9cc68469-7672-4860-ba8f-4775547a9101","ios":"levelo://app?vid=9cc68469-7672-4860-ba8f-4775547a9101"},"vehicle_type_id":"4","last_reported":1712862364,"current_range_meters":400,"station_id":"ce4bgi92rcd13ifvqb90","pricing_plan_id":"cebpf4jnsgd1na2vs0mg"},{"bike_id":"3d3e66fb-0409-4f9a-9246-50570fceddd0","system_id":"levelo_inurba_marseille","lat":43.299788,"lon":5.384846,"is_reserved":false,"is_disabled":false,"rental_uris":{"android":"levelo://app?vid=3d3e66fb-0409-4f9a-9246-50570fceddd0","ios":"levelo://app?vid=3d3e66fb-0409-4f9a-9246-50570fceddd0"},"vehicle_type_id":"4","last_reported":1712862364,"current_range_meters":0,"station_id":"ce4bgj92rcd13ifvqbd0","pricing_plan_id":"cebpf4jnsgd1na2vs0mg"},{"bike_id":"3efd4f10-68a7-485e-8df5-ebc651ae6273","system_id":"levelo_inurba_marseille","lat":43.295279,"lon":5.375048,"is_reserved":false,"is_disabled":false,"rental_uris":{"android":"levelo://app?vid=3efd4f10-68a7-485e-8df5-ebc651ae6273","ios":"levelo://app?vid=3efd4f10-68a7-485e-8df5-ebc651ae6273"},"vehicle_type_id":"4","last_reported":1712862364,"current_range_meters":0,"station_id":"ce4bgkp2rcd13ifvqbmg","pricing_plan_id":"cebpf4jnsgd1na2vs0mg"},{"bike_id":"0e301c03-8acc-4090-a435-daf090b7a333","system_id":"levelo_inurba_marseille","lat":43.29982,"lon":5.38494,"is_reserved":false,"is_disabled":false,"rental_uris":{"android":"levelo://app?vid=0e301c03-8acc-4090-a435-daf090b7a333","ios":"levelo://app?vid=0e301c03-8acc-4090-a435-daf090b7a333"},"vehicle_type_id":"4","last_reported":1712862364,"current_range_meters":0,"station_id":"ce4bgj92rcd13ifvqbd0","pricing_plan_id":"cebpf4jnsgd1na2vs0mg"},{"bike_id":"5e5330a6-d7e2-4d06-a324-413df8ae7200","system_id":"levelo_inurba_marseille","lat":43.265571,"lon":5.390032,"is_reserved":false,"is_disabled":false,"rental_uris":{"android":"levelo://app?vid=5e5330a6-d7e2-4d06-a324-413df8ae7200","ios":"levelo://app?vid=5e5330a6-d7e2-4d06-a324-413df8ae7200"},"vehicle_type_id":"4","last_reported":1712862364,"current_range_meters":1600,"station_id":"ce4bhe12rcd13ifvqf30","pricing_plan_id":"cebpf4jnsgd1na2vs0mg"},{"bike_id":"932917b6-430f-46d5-be25-58b94a660858","system_id":"levelo_inurba_marseille","lat":43.295248,"lon":5.374921,"is_reserved":false,"is_disabled":false,"rental_uris":{"android":"levelo://app?vid=932917b6-430f-46d5-be25-58b94a660858","ios":"levelo://app?vid=932917b6-430f-46d5-be25-58b94a660858"},"vehicle_type_id":"4","last_reported":1712862364,"current_range_meters":0,"station_id":"ce4bgkp2rcd13ifvqbmg","pricing_plan_id":"cebpf4jnsgd1na2vs0mg"},{"bike_id":"414700fa-06b5-4a10-8cc0-2a590bc71f45","system_id":"levelo_inurba_marseille","lat":43.295279,"lon":5.375048,"is_reserved":false,"is_disabled":false,"rental_uris":{"android":"levelo://app?vid=414700fa-06b5-4a10-8cc0-2a590bc71f45","ios":"levelo://app?vid=414700fa-06b5-4a10-8cc0-2a590bc71f45"},"vehicle_type_id":"4","last_reported":1712862364,"current_range_meters":0,"station_id":"ce4bgkp2rcd13ifvqbmg","pricing_plan_id":"cebpf4jnsgd1na2vs0mg"},{"bike_id":"76891f1a-ee32-4423-ad13-00077909dc7f","system_id":"levelo_inurba_marseille","lat":43.299707,"lon":5.384859,"is_reserved":false,"is_disabled":false,"rental_uris":{"android":"levelo://app?vid=76891f1a-ee32-4423-ad13-00077909dc7f","ios":"levelo://app?vid=76891f1a-ee32-4423-ad13-00077909dc7f"},"vehicle_type_id":"4","last_reported":1712862364,"current_range_meters":0,"station_id":"ce4bgj92rcd13ifvqbd0","pricing_plan_id":"cebpf4jnsgd1na2vs0mg"},{"bike_id":"476dbb01-0f50-4ad9-bc3a-204aecd2f512","system_id":"levelo_inurba_marseille","lat":43.295279,"lon":5.375048,"is_reserved":false,"is_disabled":false,"rental_uris":{"android":"levelo://app?vid=476dbb01-0f50-4ad9-bc3a-204aecd2f512","ios":"levelo://app?vid=476dbb01-0f50-4ad9-bc3a-204aecd2f512"},"vehicle_type_id":"4","last_reported":1712862364,"current_range_meters":0,"station_id":"ce4bgkp2rcd13ifvqbmg","pricing_plan_id":"cebpf4jnsgd1na2vs0mg"},{"bike_id":"03b3eaae-325c-4b79-a1f3-98ea2f06578a","system_id":"levelo_inurba_marseille","lat":43.299745,"lon":5.384942,"is_reserved":false,"is_disabled":false,"rental_uris":{"android":"levelo://app?vid=03b3eaae-325c-4b79-a1f3-98ea2f06578a","ios":"levelo://app?vid=03b3eaae-325c-4b79-a1f3-98ea2f06578a"},"vehicle_type_id":"4","last_reported":1712862364,"current_range_meters":0,"station_id":"ce4bgj92rcd13ifvqbd0","pricing_plan_id":"cebpf4jnsgd1na2vs0mg"},{"bike_id":"b661ebe6-4923-4137-9d3e-46ef2b80f783","system_id":"levelo_inurba_marseille","lat":43.293009,"lon":5.374584,"is_reserved":false,"is_disabled":false,"rental_uris":{"android":"levelo://app?vid=b661ebe6-4923-4137-9d3e-46ef2b80f783","ios":"levelo://app?vid=b661ebe6-4923-4137-9d3e-46ef2b80f783"},"vehicle_type_id":"4","last_reported":1712862364,"current_range_meters":22400,"station_id":"ce4bgi12rcd13ifvqb70","pricing_plan_id":"cebpf4jnsgd1na2vs0mg"},{"bike_id":"d885e8cb-1224-4861-937c-9fdba731083f","system_id":"levelo_inurba_marseille","lat":43.299678,"lon":5.384934,"is_reserved":false,"is_disabled":false,"rental_uris":{"android":"levelo://app?vid=d885e8cb-1224-4861-937c-9fdba731083f","ios":"levelo://app?vid=d885e8cb-1224-4861-937c-9fdba731083f"},"vehicle_type_id":"4","last_reported":1712862364,"current_range_meters":0,"station_id":"ce4bgj92rcd13ifvqbd0","pricing_plan_id":"cebpf4jnsgd1na2vs0mg"},{"bike_id":"816e36a9-61e6-47d1-b2ca-dd954661f2a0","system_id":"levelo_inurba_marseille","lat":43.295279,"lon":5.375048,"is_reserved":false,"is_disabled":false,"rental_uris":{"android":"levelo://app?vid=816e36a9-61e6-47d1-b2ca-dd954661f2a0","ios":"levelo://app?vid=816e36a9-61e6-47d1-b2ca-dd954661f2a0"},"vehicle_type_id":"4","last_reported":1712862364,"current_range_meters":3600,"station_id":"ce4bgkp2rcd13ifvqbmg","pricing_plan_id":"cebpf4jnsgd1na2vs0mg"},{"bike_id":"fa08c1ac-791b-4596-8c92-4744afc9e012","system_id":"levelo_inurba_marseille","lat":43.29969,"lon":5.38497,"is_reserved":false,"is_disabled":false,"rental_uris":{"android":"levelo://app?vid=fa08c1ac-791b-4596-8c92-4744afc9e012","ios":"levelo://app?vid=fa08c1ac-791b-4596-8c92-4744afc9e012"},"vehicle_type_id":"4","last_reported":1712862364,"current_range_meters":0,"station_id":"ce4bgj92rcd13ifvqbd0","pricing_plan_id":"cebpf4jnsgd1na2vs0mg"},{"bike_id":"250bc681-b8cc-420e-a9f6-5f786bae0adb","system_id":"levelo_inurba_marseille","lat":43.304657,"lon":5.389841,"is_reserved":false,"is_disabled":false,"rental_uris":{"android":"levelo://app?vid=250bc681-b8cc-420e-a9f6-5f786bae0adb","ios":"levelo://app?vid=250bc681-b8cc-420e-a9f6-5f786bae0adb"},"vehicle_type_id":"4","last_reported":1712862364,"current_range_meters":0,"station_id":"ce4bgk12rcd13ifvqbi0","pricing_plan_id":"cebpf4jnsgd1na2vs0mg"},{"bike_id":"7b640736-9eea-40aa-9f8a-14725f5b19e4","system_id":"levelo_inurba_marseille","lat":43.302759,"lon":5.400793,"is_reserved":false,"is_disabled":false,"rental_uris":{"android":"levelo://app?vid=7b640736-9eea-40aa-9f8a-14725f5b19e4","ios":"levelo://app?vid=7b640736-9eea-40aa-9f8a-14725f5b19e4"},"vehicle_type_id":"4","last_reported":1712862364,"current_range_meters":0,"station_id":"ce4bgvh2rcd13ifvqcs0","pricing_plan_id":"cebpf4jnsgd1na2vs0mg"},{"bike_id":"afe57054-1ff1-4cba-82d3-1ec5632bce5e","system_id":"levelo_inurba_marseille","lat":43.299669,"lon":5.38499,"is_reserved":false,"is_disabled":false,"rental_uris":{"android":"levelo://app?vid=afe57054-1ff1-4cba-82d3-1ec5632bce5e","ios":"levelo://app?vid=afe57054-1ff1-4cba-82d3-1ec5632bce5e"},"vehicle_type_id":"4","last_reported":1712862364,"current_range_meters":0,"station_id":"ce4bgj92rcd13ifvqbd0","pricing_plan_id":"cebpf4jnsgd1na2vs0mg"},{"bike_id":"1fa40973-bee1-414c-acb5-08a45b803319","system_id":"levelo_inurba_marseille","lat":43.302992,"lon":5.392136,"is_reserved":false,"is_disabled":false,"rental_uris":{"android":"levelo://app?vid=1fa40973-bee1-414c-acb5-08a45b803319","ios":"levelo://app?vid=1fa40973-bee1-414c-acb5-08a45b803319"},"vehicle_type_id":"4","last_reported":1712862364,"current_range_meters":0,"station_id":"ce4bgkh2rcd13ifvqbk0","pricing_plan_id":"cebpf4jnsgd1na2vs0mg"},{"bike_id":"fc5cbf16-ea4c-49c2-a365-cbd103ca1040","system_id":"levelo_inurba_marseille","lat":43.32366,"lon":5.38867,"is_reserved":false,"is_disabled":false,"rental_uris":{"android":"levelo://app?vid=fc5cbf16-ea4c-49c2-a365-cbd103ca1040","ios":"levelo://app?vid=fc5cbf16-ea4c-49c2-a365-cbd103ca1040"},"vehicle_type_id":"4","last_reported":1712862364,"current_range_meters":6400,"station_id":"ce4bhqp2rcd13ifvqhog","pricing_plan_id":"cebpf4jnsgd1na2vs0mg"},{"bike_id":"1d5a3237-552f-4176-a474-2cfb55f167c7","system_id":"levelo_inurba_marseille","lat":43.323668,"lon":5.388734,"is_reserved":false,"is_disabled":false,"rental_uris":{"android":"levelo://app?vid=1d5a3237-552f-4176-a474-2cfb55f167c7","ios":"levelo://app?vid=1d5a3237-552f-4176-a474-2cfb55f167c7"},"vehicle_type_id":"4","last_reported":1712862364,"current_range_meters":0,"station_id":"ce4bhqp2rcd13ifvqhog","pricing_plan_id":"cebpf4jnsgd1na2vs0mg"},{"bike_id":"d38449fc-bc1f-4d55-81c1-82379281d6a7","system_id":"levelo_inurba_marseille","lat":43.32367,"lon":5.38874,"is_reserved":false,"is_disabled":false,"rental_uris":{"android":"levelo://app?vid=d38449fc-bc1f-4d55-81c1-82379281d6a7","ios":"levelo://app?vid=d38449fc-bc1f-4d55-81c1-82379281d6a7"},"vehicle_type_id":"4","last_reported":1712862364,"current_range_meters":0,"station_id":"ce4bhqp2rcd13ifvqhog","pricing_plan_id":"cebpf4jnsgd1na2vs0mg"},{"bike_id":"4ecca596-7e76-4381-968e-fa8e6b1737ca","system_id":"levelo_inurba_marseille","lat":43.32364,"lon":5.38884,"is_reserved":false,"is_disabled":false,"rental_uris":{"android":"levelo://app?vid=4ecca596-7e76-4381-968e-fa8e6b1737ca","ios":"levelo://app?vid=4ecca596-7e76-4381-968e-fa8e6b1737ca"},"vehicle_type_id":"4","last_reported":1712862364,"current_range_meters":0,"station_id":"ce4bhqp2rcd13ifvqhog","pricing_plan_id":"cebpf4jnsgd1na2vs0mg"},{"bike_id":"3ddb0762-77ab-4ea2-9050-e7c05c9c9264","system_id":"levelo_inurba_marseille","lat":43.32367,"lon":5.388836,"is_reserved":false,"is_disabled":false,"rental_uris":{"android":"levelo://app?vid=3ddb0762-77ab-4ea2-9050-e7c05c9c9264","ios":"levelo://app?vid=3ddb0762-77ab-4ea2-9050-e7c05c9c9264"},"vehicle_type_id":"4","last_reported":1712862364,"current_range_meters":400,"station_id":"ce4bhqp2rcd13ifvqhog","pricing_plan_id":"cebpf4jnsgd1na2vs0mg"},{"bike_id":"05788d2e-5225-44d5-b4e0-9bff2333600a","system_id":"levelo_inurba_marseille","lat":43.32367,"lon":5.388836,"is_reserved":false,"is_disabled":false,"rental_uris":{"android":"levelo://app?vid=05788d2e-5225-44d5-b4e0-9bff2333600a","ios":"levelo://app?vid=05788d2e-5225-44d5-b4e0-9bff2333600a"},"vehicle_type_id":"4","last_reported":1712862364,"current_range_meters":17600,"station_id":"ce4bhqp2rcd13ifvqhog","pricing_plan_id":"cebpf4jnsgd1na2vs0mg"},{"bike_id":"80442433-8126-474a-954b-db6709f3d1da","system_id":"levelo_inurba_marseille","lat":43.32367,"lon":5.388836,"is_reserved":false,"is_disabled":false,"rental_uris":{"android":"levelo://app?vid=80442433-8126-474a-954b-db6709f3d1da","ios":"levelo://app?vid=80442433-8126-474a-954b-db6709f3d1da"},"vehicle_type_id":"4","last_reported":1712862364,"current_range_meters":1600,"station_id":"ce4bhqp2rcd13ifvqhog","pricing_plan_id":"cebpf4jnsgd1na2vs0mg"},{"bike_id":"0031ce53-b770-4bde-b8fc-835eff80d941","system_id":"levelo_inurba_marseille","lat":43.32366,"lon":5.388907,"is_reserved":false,"is_disabled":false,"rental_uris":{"android":"levelo://app?vid=0031ce53-b770-4bde-b8fc-835eff80d941","ios":"levelo://app?vid=0031ce53-b770-4bde-b8fc-835eff80d941"},"vehicle_type_id":"4","last_reported":1712862364,"current_range_meters":7600,"station_id":"ce4bhqp2rcd13ifvqhog","pricing_plan_id":"cebpf4jnsgd1na2vs0mg"},{"bike_id":"f4111c77-06a3-4494-818c-995adc7c2c3d","system_id":"levelo_inurba_marseille","lat":43.32367,"lon":5.388836,"is_reserved":false,"is_disabled":false,"rental_uris":{"android":"levelo://app?vid=f4111c77-06a3-4494-818c-995adc7c2c3d","ios":"levelo://app?vid=f4111c77-06a3-4494-818c-995adc7c2c3d"},"vehicle_type_id":"4","last_reported":1712862364,"current_range_meters":800,"station_id":"ce4bhqp2rcd13ifvqhog","pricing_plan_id":"cebpf4jnsgd1na2vs0mg"},{"bike_id":"ebac26a4-2465-44af-adcb-5fb4082aaae9","system_id":"levelo_inurba_marseille","lat":43.293259,"lon":5.371586,"is_reserved":false,"is_disabled":false,"rental_uris":{"android":"levelo://app?vid=ebac26a4-2465-44af-adcb-5fb4082aaae9","ios":"levelo://app?vid=ebac26a4-2465-44af-adcb-5fb4082aaae9"},"vehicle_type_id":"4","last_reported":1712862364,"current_range_meters":7600,"station_id":"ce4bgh92rcd13ifvqb40","pricing_plan_id":"cebpf4jnsgd1na2vs0mg"},{"bike_id":"cefea746-4c9a-4b96-8422-7588adedbbed","system_id":"levelo_inurba_marseille","lat":43.29602,"lon":5.381084,"is_reserved":false,"is_disabled":false,"rental_uris":{"android":"levelo://app?vid=cefea746-4c9a-4b96-8422-7588adedbbed","ios":"levelo://app?vid=cefea746-4c9a-4b96-8422-7588adedbbed"},"vehicle_type_id":"4","last_reported":1712862364,"current_range_meters":4000,"station_id":"ce4bgl12rcd13ifvqbo0","pricing_plan_id":"cebpf4jnsgd1na2vs0mg"},{"bike_id":"20e10e66-8560-47f9-9592-ec30c98f0157","system_id":"levelo_inurba_marseille","lat":43.29602,"lon":5.381084,"is_reserved":false,"is_disabled":false,"rental_uris":{"android":"levelo://app?vid=20e10e66-8560-47f9-9592-ec30c98f0157","ios":"levelo://app?vid=20e10e66-8560-47f9-9592-ec30c98f0157"},"vehicle_type_id":"4","last_reported":1712862364,"current_range_meters":800,"station_id":"ce4bgl12rcd13ifvqbo0","pricing_plan_id":"cebpf4jnsgd1na2vs0mg"},{"bike_id":"0f2aeea3-9210-4511-80ac-1dcc0305f327","system_id":"levelo_inurba_marseille","lat":43.296021,"lon":5.381019,"is_reserved":false,"is_disabled":false,"rental_uris":{"android":"levelo://app?vid=0f2aeea3-9210-4511-80ac-1dcc0305f327","ios":"levelo://app?vid=0f2aeea3-9210-4511-80ac-1dcc0305f327"},"vehicle_type_id":"4","last_reported":1712862364,"current_range_meters":9200,"station_id":"ce4bgl12rcd13ifvqbo0","pricing_plan_id":"cebpf4jnsgd1na2vs0mg"},{"bike_id":"6816e7a9-064a-4a8c-b3be-fbfa90a28771","system_id":"levelo_inurba_marseille","lat":43.293259,"lon":5.371586,"is_reserved":false,"is_disabled":false,"rental_uris":{"android":"levelo://app?vid=6816e7a9-064a-4a8c-b3be-fbfa90a28771","ios":"levelo://app?vid=6816e7a9-064a-4a8c-b3be-fbfa90a28771"},"vehicle_type_id":"4","last_reported":1712862364,"current_range_meters":13200,"station_id":"ce4bgh92rcd13ifvqb40","pricing_plan_id":"cebpf4jnsgd1na2vs0mg"},{"bike_id":"b5060c0b-39b8-4280-803d-ff8d230e3f6b","system_id":"levelo_inurba_marseille","lat":43.2931,"lon":5.37164,"is_reserved":false,"is_disabled":false,"rental_uris":{"android":"levelo://app?vid=b5060c0b-39b8-4280-803d-ff8d230e3f6b","ios":"levelo://app?vid=b5060c0b-39b8-4280-803d-ff8d230e3f6b"},"vehicle_type_id":"4","last_reported":1712862364,"current_range_meters":400,"station_id":"ce4bgh92rcd13ifvqb40","pricing_plan_id":"cebpf4jnsgd1na2vs0mg"},{"bike_id":"a7cb39ca-b8a2-461a-a272-7c61a3d84f50","system_id":"levelo_inurba_marseille","lat":43.293259,"lon":5.371586,"is_reserved":false,"is_disabled":false,"rental_uris":{"android":"levelo://app?vid=a7cb39ca-b8a2-461a-a272-7c61a3d84f50","ios":"levelo://app?vid=a7cb39ca-b8a2-461a-a272-7c61a3d84f50"},"vehicle_type_id":"4","last_reported":1712862364,"current_range_meters":8000,"station_id":"ce4bgh92rcd13ifvqb40","pricing_plan_id":"cebpf4jnsgd1na2vs0mg"},{"bike_id":"adab649c-d149-470e-9e5c-449562f8c07a","system_id":"levelo_inurba_marseille","lat":43.29308,"lon":5.37184,"is_reserved":false,"is_disabled":false,"rental_uris":{"android":"levelo://app?vid=adab649c-d149-470e-9e5c-449562f8c07a","ios":"levelo://app?vid=adab649c-d149-470e-9e5c-449562f8c07a"},"vehicle_type_id":"4","last_reported":1712862364,"current_range_meters":8000,"station_id":"ce4bgh92rcd13ifvqb40","pricing_plan_id":"cebpf4jnsgd1na2vs0mg"},{"bike_id":"5e944878-e50c-42d1-8591-3ce78ee4e1b9","system_id":"levelo_inurba_marseille","lat":43.29307,"lon":5.37178,"is_reserved":false,"is_disabled":false,"rental_uris":{"android":"levelo://app?vid=5e944878-e50c-42d1-8591-3ce78ee4e1b9","ios":"levelo://app?vid=5e944878-e50c-42d1-8591-3ce78ee4e1b9"},"vehicle_type_id":"4","last_reported":1712862364,"current_range_meters":4400,"station_id":"ce4bgh92rcd13ifvqb40","pricing_plan_id":"cebpf4jnsgd1na2vs0mg"},{"bike_id":"34ef8aa4-5e74-4cad-bf08-7d49e09aedb1","system_id":"levelo_inurba_marseille","lat":43.293055,"lon":5.371809,"is_reserved":false,"is_disabled":false,"rental_uris":{"android":"levelo://app?vid=34ef8aa4-5e74-4cad-bf08-7d49e09aedb1","ios":"levelo://app?vid=34ef8aa4-5e74-4cad-bf08-7d49e09aedb1"},"vehicle_type_id":"4","last_reported":1712862364,"current_range_meters":17600,"station_id":"ce4bgh92rcd13ifvqb40","pricing_plan_id":"cebpf4jnsgd1na2vs0mg"},{"bike_id":"f11e9879-5252-48c3-9fa1-bf4dda1451ed","system_id":"levelo_inurba_marseille","lat":43.293249,"lon":5.371578,"is_reserved":false,"is_disabled":false,"rental_uris":{"android":"levelo://app?vid=f11e9879-5252-48c3-9fa1-bf4dda1451ed","ios":"levelo://app?vid=f11e9879-5252-48c3-9fa1-bf4dda1451ed"},"vehicle_type_id":"4","last_reported":1712862364,"current_range_meters":3600,"station_id":"ce4bgh92rcd13ifvqb40","pricing_plan_id":"cebpf4jnsgd1na2vs0mg"},{"bike_id":"7f875cbd-00f7-4e1f-8a4b-3e21ef0eff05","system_id":"levelo_inurba_marseille","lat":43.293249,"lon":5.371578,"is_reserved":false,"is_disabled":false,"rental_uris":{"android":"levelo://app?vid=7f875cbd-00f7-4e1f-8a4b-3e21ef0eff05","ios":"levelo://app?vid=7f875cbd-00f7-4e1f-8a4b-3e21ef0eff05"},"vehicle_type_id":"4","last_reported":1712862364,"current_range_meters":0,"station_id":"ce4bgh92rcd13ifvqb40","pricing_plan_id":"cebpf4jnsgd1na2vs0mg"},{"bike_id":"40400d2e-bc84-42da-b3f3-e498b7a7257d","system_id":"levelo_inurba_marseille","lat":43.29275,"lon":5.36841,"is_reserved":false,"is_disabled":false,"rental_uris":{"android":"levelo://app?vid=40400d2e-bc84-42da-b3f3-e498b7a7257d","ios":"levelo://app?vid=40400d2e-bc84-42da-b3f3-e498b7a7257d"},"vehicle_type_id":"4","last_reported":1712862364,"current_range_meters":18800,"station_id":"ce4bhbp2rcd13ifvqesg","pricing_plan_id":"cebpf4jnsgd1na2vs0mg"},{"bike_id":"641396cf-2b71-43fa-b0cc-129a76cd6beb","system_id":"levelo_inurba_marseille","lat":43.292749,"lon":5.368398,"is_reserved":false,"is_disabled":false,"rental_uris":{"android":"levelo://app?vid=641396cf-2b71-43fa-b0cc-129a76cd6beb","ios":"levelo://app?vid=641396cf-2b71-43fa-b0cc-129a76cd6beb"},"vehicle_type_id":"4","last_reported":1712862364,"current_range_meters":0,"station_id":"ce4bhbp2rcd13ifvqesg","pricing_plan_id":"cebpf4jnsgd1na2vs0mg"},{"bike_id":"7800c37b-779a-4501-9c87-4ecbc53f71ea","system_id":"levelo_inurba_marseille","lat":43.293259,"lon":5.371586,"is_reserved":false,"is_disabled":false,"rental_uris":{"android":"levelo://app?vid=7800c37b-779a-4501-9c87-4ecbc53f71ea","ios":"levelo://app?vid=7800c37b-779a-4501-9c87-4ecbc53f71ea"},"vehicle_type_id":"4","last_reported":1712862364,"current_range_meters":23200,"station_id":"ce4bgh92rcd13ifvqb40","pricing_plan_id":"cebpf4jnsgd1na2vs0mg"},{"bike_id":"707ed238-0af2-433f-b0f0-333f36af2e63","system_id":"levelo_inurba_marseille","lat":43.293009,"lon":5.374584,"is_reserved":false,"is_disabled":false,"rental_uris":{"android":"levelo://app?vid=707ed238-0af2-433f-b0f0-333f36af2e63","ios":"levelo://app?vid=707ed238-0af2-433f-b0f0-333f36af2e63"},"vehicle_type_id":"4","last_reported":1712862364,"current_range_meters":4000,"station_id":"ce4bgi12rcd13ifvqb70","pricing_plan_id":"cebpf4jnsgd1na2vs0mg"},{"bike_id":"5cfe6278-1034-45a5-b462-ec08fe3a241c","system_id":"levelo_inurba_marseille","lat":43.295447,"lon":5.38145,"is_reserved":false,"is_disabled":false,"rental_uris":{"android":"levelo://app?vid=5cfe6278-1034-45a5-b462-ec08fe3a241c","ios":"levelo://app?vid=5cfe6278-1034-45a5-b462-ec08fe3a241c"},"vehicle_type_id":"4","last_reported":1712862364,"current_range_meters":0,"station_id":"","pricing_plan_id":"cebpf4jnsgd1na2vs0mg"},{"bike_id":"7675b248-980e-4b56-8213-1d1959cbe9a3","system_id":"levelo_inurba_marseille","lat":43.293009,"lon":5.374584,"is_reserved":false,"is_disabled":false,"rental_uris":{"android":"levelo://app?vid=7675b248-980e-4b56-8213-1d1959cbe9a3","ios":"levelo://app?vid=7675b248-980e-4b56-8213-1d1959cbe9a3"},"vehicle_type_id":"4","last_reported":1712862364,"current_range_meters":10800,"station_id":"ce4bgi12rcd13ifvqb70","pricing_plan_id":"cebpf4jnsgd1na2vs0mg"},{"bike_id":"a226d34b-e50e-4847-bb87-06d0689168c8","system_id":"levelo_inurba_marseille","lat":43.293009,"lon":5.374584,"is_reserved":false,"is_disabled":false,"rental_uris":{"android":"levelo://app?vid=a226d34b-e50e-4847-bb87-06d0689168c8","ios":"levelo://app?vid=a226d34b-e50e-4847-bb87-06d0689168c8"},"vehicle_type_id":"4","last_reported":1712862364,"current_range_meters":6000,"station_id":"ce4bgi12rcd13ifvqb70","pricing_plan_id":"cebpf4jnsgd1na2vs0mg"},{"bike_id":"8a35fa1b-7f2b-4834-bcbc-ca570b13c49c","system_id":"levelo_inurba_marseille","lat":43.29231,"lon":5.36457,"is_reserved":false,"is_disabled":false,"rental_uris":{"android":"levelo://app?vid=8a35fa1b-7f2b-4834-bcbc-ca570b13c49c","ios":"levelo://app?vid=8a35fa1b-7f2b-4834-bcbc-ca570b13c49c"},"vehicle_type_id":"4","last_reported":1712862364,"current_range_meters":0,"station_id":"","pricing_plan_id":"cebpf4jnsgd1na2vs0mg"},{"bike_id":"332fb6a3-b3bd-43f0-86a5-07b7061d1eeb","system_id":"levelo_inurba_marseille","lat":43.293009,"lon":5.374584,"is_reserved":false,"is_disabled":false,"rental_uris":{"android":"levelo://app?vid=332fb6a3-b3bd-43f0-86a5-07b7061d1eeb","ios":"levelo://app?vid=332fb6a3-b3bd-43f0-86a5-07b7061d1eeb"},"vehicle_type_id":"4","last_reported":1712862364,"current_range_meters":8400,"station_id":"ce4bgi12rcd13ifvqb70","pricing_plan_id":"cebpf4jnsgd1na2vs0mg"},{"bike_id":"dd12b119-2576-4b63-b14b-24fe891db815","system_id":"levelo_inurba_marseille","lat":43.293009,"lon":5.374584,"is_reserved":false,"is_disabled":false,"rental_uris":{"android":"levelo://app?vid=dd12b119-2576-4b63-b14b-24fe891db815","ios":"levelo://app?vid=dd12b119-2576-4b63-b14b-24fe891db815"},"vehicle_type_id":"4","last_reported":1712862364,"current_range_meters":400,"station_id":"ce4bgi12rcd13ifvqb70","pricing_plan_id":"cebpf4jnsgd1na2vs0mg"},{"bike_id":"ab5c090e-0659-4c30-8f0d-8b22d7927b13","system_id":"levelo_inurba_marseille","lat":43.293009,"lon":5.374584,"is_reserved":false,"is_disabled":false,"rental_uris":{"android":"levelo://app?vid=ab5c090e-0659-4c30-8f0d-8b22d7927b13","ios":"levelo://app?vid=ab5c090e-0659-4c30-8f0d-8b22d7927b13"},"vehicle_type_id":"4","last_reported":1712862364,"current_range_meters":5200,"station_id":"ce4bgi12rcd13ifvqb70","pricing_plan_id":"cebpf4jnsgd1na2vs0mg"},{"bike_id":"2c563ccd-bc8b-4f98-a181-1bdb3636ae28","system_id":"levelo_inurba_marseille","lat":43.293009,"lon":5.374584,"is_reserved":false,"is_disabled":false,"rental_uris":{"android":"levelo://app?vid=2c563ccd-bc8b-4f98-a181-1bdb3636ae28","ios":"levelo://app?vid=2c563ccd-bc8b-4f98-a181-1bdb3636ae28"},"vehicle_type_id":"4","last_reported":1712862364,"current_range_meters":23200,"station_id":"ce4bgi12rcd13ifvqb70","pricing_plan_id":"cebpf4jnsgd1na2vs0mg"},{"bike_id":"4a533d30-3636-4eb1-ac07-0d58e865b865","system_id":"levelo_inurba_marseille","lat":43.293009,"lon":5.374584,"is_reserved":false,"is_disabled":false,"rental_uris":{"android":"levelo://app?vid=4a533d30-3636-4eb1-ac07-0d58e865b865","ios":"levelo://app?vid=4a533d30-3636-4eb1-ac07-0d58e865b865"},"vehicle_type_id":"4","last_reported":1712862364,"current_range_meters":24800,"station_id":"ce4bgi12rcd13ifvqb70","pricing_plan_id":"cebpf4jnsgd1na2vs0mg"},{"bike_id":"f7b69f22-5b63-4a46-ac1b-8c84c3f36c3f","system_id":"levelo_inurba_marseille","lat":43.293009,"lon":5.374584,"is_reserved":false,"is_disabled":false,"rental_uris":{"android":"levelo://app?vid=f7b69f22-5b63-4a46-ac1b-8c84c3f36c3f","ios":"levelo://app?vid=f7b69f22-5b63-4a46-ac1b-8c84c3f36c3f"},"vehicle_type_id":"4","last_reported":1712862364,"current_range_meters":16400,"station_id":"ce4bgi12rcd13ifvqb70","pricing_plan_id":"cebpf4jnsgd1na2vs0mg"},{"bike_id":"528c0c95-3573-4336-b34f-01cd2cd042a4","system_id":"levelo_inurba_marseille","lat":43.293009,"lon":5.374584,"is_reserved":false,"is_disabled":false,"rental_uris":{"android":"levelo://app?vid=528c0c95-3573-4336-b34f-01cd2cd042a4","ios":"levelo://app?vid=528c0c95-3573-4336-b34f-01cd2cd042a4"},"vehicle_type_id":"4","last_reported":1712862364,"current_range_meters":18400,"station_id":"ce4bgi12rcd13ifvqb70","pricing_plan_id":"cebpf4jnsgd1na2vs0mg"},{"bike_id":"44cf9c68-cae3-4e8d-aab0-c0e83c43e366","system_id":"levelo_inurba_marseille","lat":43.293009,"lon":5.374584,"is_reserved":false,"is_disabled":false,"rental_uris":{"android":"levelo://app?vid=44cf9c68-cae3-4e8d-aab0-c0e83c43e366","ios":"levelo://app?vid=44cf9c68-cae3-4e8d-aab0-c0e83c43e366"},"vehicle_type_id":"4","last_reported":1712862364,"current_range_meters":24000,"station_id":"ce4bgi12rcd13ifvqb70","pricing_plan_id":"cebpf4jnsgd1na2vs0mg"},{"bike_id":"7713000c-7657-4f6c-890e-323b951db142","system_id":"levelo_inurba_marseille","lat":43.302992,"lon":5.392136,"is_reserved":false,"is_disabled":false,"rental_uris":{"android":"levelo://app?vid=7713000c-7657-4f6c-890e-323b951db142","ios":"levelo://app?vid=7713000c-7657-4f6c-890e-323b951db142"},"vehicle_type_id":"4","last_reported":1712862364,"current_range_meters":2400,"station_id":"ce4bgkh2rcd13ifvqbk0","pricing_plan_id":"cebpf4jnsgd1na2vs0mg"},{"bike_id":"d2154fde-6f7e-4d3b-a873-c4111f4c0bbd","system_id":"levelo_inurba_marseille","lat":43.30299,"lon":5.39202,"is_reserved":false,"is_disabled":false,"rental_uris":{"android":"levelo://app?vid=d2154fde-6f7e-4d3b-a873-c4111f4c0bbd","ios":"levelo://app?vid=d2154fde-6f7e-4d3b-a873-c4111f4c0bbd"},"vehicle_type_id":"4","last_reported":1712862364,"current_range_meters":0,"station_id":"ce4bgkh2rcd13ifvqbk0","pricing_plan_id":"cebpf4jnsgd1na2vs0mg"},{"bike_id":"c9ffcdcd-e83a-48e7-b4cd-0fcfeed19592","system_id":"levelo_inurba_marseille","lat":43.303019,"lon":5.392091,"is_reserved":false,"is_disabled":false,"rental_uris":{"android":"levelo://app?vid=c9ffcdcd-e83a-48e7-b4cd-0fcfeed19592","ios":"levelo://app?vid=c9ffcdcd-e83a-48e7-b4cd-0fcfeed19592"},"vehicle_type_id":"4","last_reported":1712862364,"current_range_meters":0,"station_id":"ce4bgkh2rcd13ifvqbk0","pricing_plan_id":"cebpf4jnsgd1na2vs0mg"},{"bike_id":"d56a597a-0b15-48d5-accd-70a1b54c8d5e","system_id":"levelo_inurba_marseille","lat":43.303002,"lon":5.392142,"is_reserved":false,"is_disabled":false,"rental_uris":{"android":"levelo://app?vid=d56a597a-0b15-48d5-accd-70a1b54c8d5e","ios":"levelo://app?vid=d56a597a-0b15-48d5-accd-70a1b54c8d5e"},"vehicle_type_id":"4","last_reported":1712862364,"current_range_meters":0,"station_id":"ce4bgkh2rcd13ifvqbk0","pricing_plan_id":"cebpf4jnsgd1na2vs0mg"},{"bike_id":"1fc5097b-0d88-4469-9e85-9a3d09859090","system_id":"levelo_inurba_marseille","lat":43.2936,"lon":5.37835,"is_reserved":false,"is_disabled":false,"rental_uris":{"android":"levelo://app?vid=1fc5097b-0d88-4469-9e85-9a3d09859090","ios":"levelo://app?vid=1fc5097b-0d88-4469-9e85-9a3d09859090"},"vehicle_type_id":"4","last_reported":1712862364,"current_range_meters":4000,"station_id":"ce4bgjh2rcd13ifvqbf0","pricing_plan_id":"cebpf4jnsgd1na2vs0mg"},{"bike_id":"76b4d81a-8828-45ff-8482-5abac4c4f730","system_id":"levelo_inurba_marseille","lat":43.30296,"lon":5.39216,"is_reserved":false,"is_disabled":false,"rental_uris":{"android":"levelo://app?vid=76b4d81a-8828-45ff-8482-5abac4c4f730","ios":"levelo://app?vid=76b4d81a-8828-45ff-8482-5abac4c4f730"},"vehicle_type_id":"4","last_reported":1712862364,"current_range_meters":14800,"station_id":"ce4bh2h2rcd13ifvqdh0","pricing_plan_id":"cebpf4jnsgd1na2vs0mg"},{"bike_id":"f13319cf-83e7-49e4-8a20-ee637f4da311","system_id":"levelo_inurba_marseille","lat":43.2936,"lon":5.37835,"is_reserved":false,"is_disabled":false,"rental_uris":{"android":"levelo://app?vid=f13319cf-83e7-49e4-8a20-ee637f4da311","ios":"levelo://app?vid=f13319cf-83e7-49e4-8a20-ee637f4da311"},"vehicle_type_id":"4","last_reported":1712862364,"current_range_meters":5600,"station_id":"ce4bgjh2rcd13ifvqbf0","pricing_plan_id":"cebpf4jnsgd1na2vs0mg"},{"bike_id":"0550917d-e06b-4dac-9c0d-2747c7dd2f14","system_id":"levelo_inurba_marseille","lat":43.30085,"lon":5.390856,"is_reserved":false,"is_disabled":false,"rental_uris":{"android":"levelo://app?vid=0550917d-e06b-4dac-9c0d-2747c7dd2f14","ios":"levelo://app?vid=0550917d-e06b-4dac-9c0d-2747c7dd2f14"},"vehicle_type_id":"4","last_reported":1712862364,"current_range_meters":0,"station_id":"ce4bh192rcd13ifvqdb0","pricing_plan_id":"cebpf4jnsgd1na2vs0mg"},{"bike_id":"c4b76e37-cb15-49f3-a25d-f33bae9d3e8a","system_id":"levelo_inurba_marseille","lat":43.30353,"lon":5.3928,"is_reserved":false,"is_disabled":false,"rental_uris":{"android":"levelo://app?vid=c4b76e37-cb15-49f3-a25d-f33bae9d3e8a","ios":"levelo://app?vid=c4b76e37-cb15-49f3-a25d-f33bae9d3e8a"},"vehicle_type_id":"4","last_reported":1712862364,"current_range_meters":0,"station_id":"","pricing_plan_id":"cebpf4jnsgd1na2vs0mg"},{"bike_id":"43927e35-6910-41a3-83aa-71df2ae7578f","system_id":"levelo_inurba_marseille","lat":43.292311,"lon":5.360731,"is_reserved":false,"is_disabled":false,"rental_uris":{"android":"levelo://app?vid=43927e35-6910-41a3-83aa-71df2ae7578f","ios":"levelo://app?vid=43927e35-6910-41a3-83aa-71df2ae7578f"},"vehicle_type_id":"4","last_reported":1712862364,"current_range_meters":0,"station_id":"ce4bhbh2rcd13ifvqeqg","pricing_plan_id":"cebpf4jnsgd1na2vs0mg"},{"bike_id":"cf462546-cc5f-4c43-896a-eb421e121993","system_id":"levelo_inurba_marseille","lat":43.292311,"lon":5.360731,"is_reserved":false,"is_disabled":false,"rental_uris":{"android":"levelo://app?vid=cf462546-cc5f-4c43-896a-eb421e121993","ios":"levelo://app?vid=cf462546-cc5f-4c43-896a-eb421e121993"},"vehicle_type_id":"4","last_reported":1712862364,"current_range_meters":1600,"station_id":"ce4bhbh2rcd13ifvqeqg","pricing_plan_id":"cebpf4jnsgd1na2vs0mg"},{"bike_id":"8aa3ad9c-d194-4b27-b44e-4607b681edce","system_id":"levelo_inurba_marseille","lat":43.29224,"lon":5.36063,"is_reserved":false,"is_disabled":false,"rental_uris":{"android":"levelo://app?vid=8aa3ad9c-d194-4b27-b44e-4607b681edce","ios":"levelo://app?vid=8aa3ad9c-d194-4b27-b44e-4607b681edce"},"vehicle_type_id":"4","last_reported":1712862364,"current_range_meters":17600,"station_id":"ce4bhbh2rcd13ifvqeqg","pricing_plan_id":"cebpf4jnsgd1na2vs0mg"},{"bike_id":"2d10518e-edfa-4469-9863-c6bfcd2dc8e7","system_id":"levelo_inurba_marseille","lat":43.292311,"lon":5.360731,"is_reserved":false,"is_disabled":false,"rental_uris":{"android":"levelo://app?vid=2d10518e-edfa-4469-9863-c6bfcd2dc8e7","ios":"levelo://app?vid=2d10518e-edfa-4469-9863-c6bfcd2dc8e7"},"vehicle_type_id":"4","last_reported":1712862364,"current_range_meters":31200,"station_id":"ce4bhbh2rcd13ifvqeqg","pricing_plan_id":"cebpf4jnsgd1na2vs0mg"},{"bike_id":"0fd7637e-5ed2-48d8-9829-e5460c1c9adc","system_id":"levelo_inurba_marseille","lat":43.29223,"lon":5.36054,"is_reserved":false,"is_disabled":false,"rental_uris":{"android":"levelo://app?vid=0fd7637e-5ed2-48d8-9829-e5460c1c9adc","ios":"levelo://app?vid=0fd7637e-5ed2-48d8-9829-e5460c1c9adc"},"vehicle_type_id":"4","last_reported":1712862364,"current_range_meters":31200,"station_id":"ce4bhbh2rcd13ifvqeqg","pricing_plan_id":"cebpf4jnsgd1na2vs0mg"},{"bike_id":"6ccc12dd-304c-4067-a905-fe1cd8ea0ec7","system_id":"levelo_inurba_marseille","lat":43.298764,"lon":5.388973,"is_reserved":false,"is_disabled":false,"rental_uris":{"android":"levelo://app?vid=6ccc12dd-304c-4067-a905-fe1cd8ea0ec7","ios":"levelo://app?vid=6ccc12dd-304c-4067-a905-fe1cd8ea0ec7"},"vehicle_type_id":"4","last_reported":1712862364,"current_range_meters":0,"station_id":"ce4bh392rcd13ifvqdl0","pricing_plan_id":"cebpf4jnsgd1na2vs0mg"},{"bike_id":"68e5f0bd-c181-4ac3-991d-f1f16a2fa17f","system_id":"levelo_inurba_marseille","lat":43.29221,"lon":5.36056,"is_reserved":false,"is_disabled":false,"rental_uris":{"android":"levelo://app?vid=68e5f0bd-c181-4ac3-991d-f1f16a2fa17f","ios":"levelo://app?vid=68e5f0bd-c181-4ac3-991d-f1f16a2fa17f"},"vehicle_type_id":"4","last_reported":1712862364,"current_range_meters":28800,"station_id":"ce4bhbh2rcd13ifvqeqg","pricing_plan_id":"cebpf4jnsgd1na2vs0mg"},{"bike_id":"106a0e09-bbe9-4066-b636-3ead895d552c","system_id":"levelo_inurba_marseille","lat":43.29221,"lon":5.36051,"is_reserved":false,"is_disabled":false,"rental_uris":{"android":"levelo://app?vid=106a0e09-bbe9-4066-b636-3ead895d552c","ios":"levelo://app?vid=106a0e09-bbe9-4066-b636-3ead895d552c"},"vehicle_type_id":"4","last_reported":1712862364,"current_range_meters":31200,"station_id":"ce4bhbh2rcd13ifvqeqg","pricing_plan_id":"cebpf4jnsgd1na2vs0mg"},{"bike_id":"80cd0540-ce29-4a1d-be32-62dc23e83b58","system_id":"levelo_inurba_marseille","lat":43.312609,"lon":5.401662,"is_reserved":false,"is_disabled":false,"rental_uris":{"android":"levelo://app?vid=80cd0540-ce29-4a1d-be32-62dc23e83b58","ios":"levelo://app?vid=80cd0540-ce29-4a1d-be32-62dc23e83b58"},"vehicle_type_id":"4","last_reported":1712862364,"current_range_meters":0,"station_id":"ce4bh092rcd13ifvqd30","pricing_plan_id":"cebpf4jnsgd1na2vs0mg"},{"bike_id":"be34c299-daab-4687-8e3a-adc823178964","system_id":"levelo_inurba_marseille","lat":43.291675,"lon":5.371583,"is_reserved":false,"is_disabled":false,"rental_uris":{"android":"levelo://app?vid=be34c299-daab-4687-8e3a-adc823178964","ios":"levelo://app?vid=be34c299-daab-4687-8e3a-adc823178964"},"vehicle_type_id":"4","last_reported":1712862364,"current_range_meters":16800,"station_id":"ce4bha92rcd13ifvqeh0","pricing_plan_id":"cebpf4jnsgd1na2vs0mg"},{"bike_id":"bb991eab-50e4-4414-9fbd-82007aadc34f","system_id":"levelo_inurba_marseille","lat":43.298764,"lon":5.388973,"is_reserved":false,"is_disabled":false,"rental_uris":{"android":"levelo://app?vid=bb991eab-50e4-4414-9fbd-82007aadc34f","ios":"levelo://app?vid=bb991eab-50e4-4414-9fbd-82007aadc34f"},"vehicle_type_id":"4","last_reported":1712862364,"current_range_meters":3200,"station_id":"ce4bh392rcd13ifvqdl0","pricing_plan_id":"cebpf4jnsgd1na2vs0mg"},{"bike_id":"dc4a4357-405f-4ea3-a48a-c4acf5f3d0d5","system_id":"levelo_inurba_marseille","lat":43.29529,"lon":5.385581,"is_reserved":false,"is_disabled":false,"rental_uris":{"android":"levelo://app?vid=dc4a4357-405f-4ea3-a48a-c4acf5f3d0d5","ios":"levelo://app?vid=dc4a4357-405f-4ea3-a48a-c4acf5f3d0d5"},"vehicle_type_id":"4","last_reported":1712862364,"current_range_meters":31200,"station_id":"ce4bgih2rcd13ifvqba0","pricing_plan_id":"cebpf4jnsgd1na2vs0mg"},{"bike_id":"2c712715-82b7-4b7f-850a-b30f7aeb177b","system_id":"levelo_inurba_marseille","lat":43.29529,"lon":5.385581,"is_reserved":false,"is_disabled":false,"rental_uris":{"android":"levelo://app?vid=2c712715-82b7-4b7f-850a-b30f7aeb177b","ios":"levelo://app?vid=2c712715-82b7-4b7f-850a-b30f7aeb177b"},"vehicle_type_id":"4","last_reported":1712862364,"current_range_meters":28400,"station_id":"ce4bgih2rcd13ifvqba0","pricing_plan_id":"cebpf4jnsgd1na2vs0mg"},{"bike_id":"64abe3ab-eb4f-4aa7-a407-081340158b12","system_id":"levelo_inurba_marseille","lat":43.30895,"lon":5.39634,"is_reserved":false,"is_disabled":false,"rental_uris":{"android":"levelo://app?vid=64abe3ab-eb4f-4aa7-a407-081340158b12","ios":"levelo://app?vid=64abe3ab-eb4f-4aa7-a407-081340158b12"},"vehicle_type_id":"4","last_reported":1712862364,"current_range_meters":0,"station_id":"ce4bh012rcd13ifvqcv0","pricing_plan_id":"cebpf4jnsgd1na2vs0mg"},{"bike_id":"0c47005e-6c5b-4e7a-9cf5-d213c67b9ffd","system_id":"levelo_inurba_marseille","lat":43.309038,"lon":5.396546,"is_reserved":false,"is_disabled":false,"rental_uris":{"android":"levelo://app?vid=0c47005e-6c5b-4e7a-9cf5-d213c67b9ffd","ios":"levelo://app?vid=0c47005e-6c5b-4e7a-9cf5-d213c67b9ffd"},"vehicle_type_id":"4","last_reported":1712862364,"current_range_meters":800,"station_id":"ce4bh012rcd13ifvqcv0","pricing_plan_id":"cebpf4jnsgd1na2vs0mg"},{"bike_id":"fb4868a4-1358-45bc-b6aa-10cc91e4d5ee","system_id":"levelo_inurba_marseille","lat":43.31331,"lon":5.39686,"is_reserved":false,"is_disabled":false,"rental_uris":{"android":"levelo://app?vid=fb4868a4-1358-45bc-b6aa-10cc91e4d5ee","ios":"levelo://app?vid=fb4868a4-1358-45bc-b6aa-10cc91e4d5ee"},"vehicle_type_id":"4","last_reported":1712862364,"current_range_meters":15600,"station_id":"ce4bgvp2rcd13ifvqcu0","pricing_plan_id":"cebpf4jnsgd1na2vs0mg"},{"bike_id":"6c9f87ab-0517-42f7-968f-3b64a8f1232a","system_id":"levelo_inurba_marseille","lat":43.313291,"lon":5.396838,"is_reserved":false,"is_disabled":false,"rental_uris":{"android":"levelo://app?vid=6c9f87ab-0517-42f7-968f-3b64a8f1232a","ios":"levelo://app?vid=6c9f87ab-0517-42f7-968f-3b64a8f1232a"},"vehicle_type_id":"4","last_reported":1712862364,"current_range_meters":0,"station_id":"ce4bgvp2rcd13ifvqcu0","pricing_plan_id":"cebpf4jnsgd1na2vs0mg"},{"bike_id":"bce40a0e-db74-470a-aeb9-4f93026bb439","system_id":"levelo_inurba_marseille","lat":43.292005,"lon":5.357875,"is_reserved":false,"is_disabled":false,"rental_uris":{"android":"levelo://app?vid=bce40a0e-db74-470a-aeb9-4f93026bb439","ios":"levelo://app?vid=bce40a0e-db74-470a-aeb9-4f93026bb439"},"vehicle_type_id":"4","last_reported":1712862364,"current_range_meters":0,"station_id":"ce4bhb12rcd13ifvqel0","pricing_plan_id":"cebpf4jnsgd1na2vs0mg"},{"bike_id":"025580c1-4405-45a4-84e1-a36489cd0461","system_id":"levelo_inurba_marseille","lat":43.313291,"lon":5.396838,"is_reserved":false,"is_disabled":false,"rental_uris":{"android":"levelo://app?vid=025580c1-4405-45a4-84e1-a36489cd0461","ios":"levelo://app?vid=025580c1-4405-45a4-84e1-a36489cd0461"},"vehicle_type_id":"4","last_reported":1712862364,"current_range_meters":0,"station_id":"ce4bgvp2rcd13ifvqcu0","pricing_plan_id":"cebpf4jnsgd1na2vs0mg"},{"bike_id":"427bc24d-eb19-4f32-ba56-380b4ab48ef8","system_id":"levelo_inurba_marseille","lat":43.313291,"lon":5.396838,"is_reserved":false,"is_disabled":false,"rental_uris":{"android":"levelo://app?vid=427bc24d-eb19-4f32-ba56-380b4ab48ef8","ios":"levelo://app?vid=427bc24d-eb19-4f32-ba56-380b4ab48ef8"},"vehicle_type_id":"4","last_reported":1712862364,"current_range_meters":0,"station_id":"ce4bgvp2rcd13ifvqcu0","pricing_plan_id":"cebpf4jnsgd1na2vs0mg"},{"bike_id":"b82f5e8f-a955-48c6-8992-693c880ecdc1","system_id":"levelo_inurba_marseille","lat":43.29539,"lon":5.3854,"is_reserved":false,"is_disabled":false,"rental_uris":{"android":"levelo://app?vid=b82f5e8f-a955-48c6-8992-693c880ecdc1","ios":"levelo://app?vid=b82f5e8f-a955-48c6-8992-693c880ecdc1"},"vehicle_type_id":"4","last_reported":1712862364,"current_range_meters":0,"station_id":"ce4bgih2rcd13ifvqba0","pricing_plan_id":"cebpf4jnsgd1na2vs0mg"},{"bike_id":"40289d88-f10a-497d-9b8d-1ce81b3b88b2","system_id":"levelo_inurba_marseille","lat":43.29529,"lon":5.385581,"is_reserved":false,"is_disabled":false,"rental_uris":{"android":"levelo://app?vid=40289d88-f10a-497d-9b8d-1ce81b3b88b2","ios":"levelo://app?vid=40289d88-f10a-497d-9b8d-1ce81b3b88b2"},"vehicle_type_id":"4","last_reported":1712862364,"current_range_meters":3600,"station_id":"ce4bgih2rcd13ifvqba0","pricing_plan_id":"cebpf4jnsgd1na2vs0mg"},{"bike_id":"bba34456-e37e-4723-97c1-9c205a9fd73d","system_id":"levelo_inurba_marseille","lat":43.29537,"lon":5.38546,"is_reserved":false,"is_disabled":false,"rental_uris":{"android":"levelo://app?vid=bba34456-e37e-4723-97c1-9c205a9fd73d","ios":"levelo://app?vid=bba34456-e37e-4723-97c1-9c205a9fd73d"},"vehicle_type_id":"4","last_reported":1712862364,"current_range_meters":0,"station_id":"ce4bgih2rcd13ifvqba0","pricing_plan_id":"cebpf4jnsgd1na2vs0mg"},{"bike_id":"13901437-8493-4ebe-b826-f1dfe73314df","system_id":"levelo_inurba_marseille","lat":43.29529,"lon":5.385581,"is_reserved":false,"is_disabled":false,"rental_uris":{"android":"levelo://app?vid=13901437-8493-4ebe-b826-f1dfe73314df","ios":"levelo://app?vid=13901437-8493-4ebe-b826-f1dfe73314df"},"vehicle_type_id":"4","last_reported":1712862364,"current_range_meters":0,"station_id":"ce4bgih2rcd13ifvqba0","pricing_plan_id":"cebpf4jnsgd1na2vs0mg"},{"bike_id":"5776435d-0860-4590-94bd-cc3e4f090b7a","system_id":"levelo_inurba_marseille","lat":43.29529,"lon":5.385581,"is_reserved":false,"is_disabled":false,"rental_uris":{"android":"levelo://app?vid=5776435d-0860-4590-94bd-cc3e4f090b7a","ios":"levelo://app?vid=5776435d-0860-4590-94bd-cc3e4f090b7a"},"vehicle_type_id":"4","last_reported":1712862364,"current_range_meters":2400,"station_id":"ce4bgih2rcd13ifvqba0","pricing_plan_id":"cebpf4jnsgd1na2vs0mg"},{"bike_id":"7c8bcf28-0a2b-4938-9d77-d5f04c451ff7","system_id":"levelo_inurba_marseille","lat":43.29529,"lon":5.385581,"is_reserved":false,"is_disabled":false,"rental_uris":{"android":"levelo://app?vid=7c8bcf28-0a2b-4938-9d77-d5f04c451ff7","ios":"levelo://app?vid=7c8bcf28-0a2b-4938-9d77-d5f04c451ff7"},"vehicle_type_id":"4","last_reported":1712862364,"current_range_meters":15200,"station_id":"ce4bgih2rcd13ifvqba0","pricing_plan_id":"cebpf4jnsgd1na2vs0mg"},{"bike_id":"34e4f819-02fe-43a8-886a-715fd02260f6","system_id":"levelo_inurba_marseille","lat":43.29529,"lon":5.385581,"is_reserved":false,"is_disabled":false,"rental_uris":{"android":"levelo://app?vid=34e4f819-02fe-43a8-886a-715fd02260f6","ios":"levelo://app?vid=34e4f819-02fe-43a8-886a-715fd02260f6"},"vehicle_type_id":"4","last_reported":1712862364,"current_range_meters":3600,"station_id":"ce4bgih2rcd13ifvqba0","pricing_plan_id":"cebpf4jnsgd1na2vs0mg"},{"bike_id":"beaf7c00-7e62-4992-970f-afc9f377bb98","system_id":"levelo_inurba_marseille","lat":43.29529,"lon":5.385581,"is_reserved":false,"is_disabled":false,"rental_uris":{"android":"levelo://app?vid=beaf7c00-7e62-4992-970f-afc9f377bb98","ios":"levelo://app?vid=beaf7c00-7e62-4992-970f-afc9f377bb98"},"vehicle_type_id":"4","last_reported":1712862364,"current_range_meters":2400,"station_id":"ce4bgih2rcd13ifvqba0","pricing_plan_id":"cebpf4jnsgd1na2vs0mg"},{"bike_id":"8799c22c-fa9d-436b-b997-c46829124033","system_id":"levelo_inurba_marseille","lat":43.29529,"lon":5.385581,"is_reserved":false,"is_disabled":false,"rental_uris":{"android":"levelo://app?vid=8799c22c-fa9d-436b-b997-c46829124033","ios":"levelo://app?vid=8799c22c-fa9d-436b-b997-c46829124033"},"vehicle_type_id":"4","last_reported":1712862364,"current_range_meters":10000,"station_id":"ce4bgih2rcd13ifvqba0","pricing_plan_id":"cebpf4jnsgd1na2vs0mg"},{"bike_id":"057ad37d-d7d8-4ec9-8dcf-c990e8f8299d","system_id":"levelo_inurba_marseille","lat":43.29529,"lon":5.385581,"is_reserved":false,"is_disabled":false,"rental_uris":{"android":"levelo://app?vid=057ad37d-d7d8-4ec9-8dcf-c990e8f8299d","ios":"levelo://app?vid=057ad37d-d7d8-4ec9-8dcf-c990e8f8299d"},"vehicle_type_id":"4","last_reported":1712862364,"current_range_meters":3600,"station_id":"ce4bgih2rcd13ifvqba0","pricing_plan_id":"cebpf4jnsgd1na2vs0mg"},{"bike_id":"00c1ab39-0908-44fd-874e-a0ad2353f8b0","system_id":"levelo_inurba_marseille","lat":43.29529,"lon":5.385581,"is_reserved":false,"is_disabled":false,"rental_uris":{"android":"levelo://app?vid=00c1ab39-0908-44fd-874e-a0ad2353f8b0","ios":"levelo://app?vid=00c1ab39-0908-44fd-874e-a0ad2353f8b0"},"vehicle_type_id":"4","last_reported":1712862364,"current_range_meters":5200,"station_id":"ce4bgih2rcd13ifvqba0","pricing_plan_id":"cebpf4jnsgd1na2vs0mg"},{"bike_id":"a3017edd-51e7-4718-ad63-08394e990390","system_id":"levelo_inurba_marseille","lat":43.290779,"lon":5.371482,"is_reserved":false,"is_disabled":false,"rental_uris":{"android":"levelo://app?vid=a3017edd-51e7-4718-ad63-08394e990390","ios":"levelo://app?vid=a3017edd-51e7-4718-ad63-08394e990390"},"vehicle_type_id":"4","last_reported":1712862364,"current_range_meters":11200,"station_id":"ce4bh5p2rcd13ifvqe4g","pricing_plan_id":"cebpf4jnsgd1na2vs0mg"},{"bike_id":"156418ca-8eee-43d4-9395-7c393a8b3b2d","system_id":"levelo_inurba_marseille","lat":43.30217,"lon":5.39463,"is_reserved":false,"is_disabled":false,"rental_uris":{"android":"levelo://app?vid=156418ca-8eee-43d4-9395-7c393a8b3b2d","ios":"levelo://app?vid=156418ca-8eee-43d4-9395-7c393a8b3b2d"},"vehicle_type_id":"4","last_reported":1712862364,"current_range_meters":0,"station_id":"ce4bh0p2rcd13ifvqd70","pricing_plan_id":"cebpf4jnsgd1na2vs0mg"},{"bike_id":"52ddbbbf-18a8-4203-9f1c-7c998d3c04e2","system_id":"levelo_inurba_marseille","lat":43.29529,"lon":5.385581,"is_reserved":false,"is_disabled":false,"rental_uris":{"android":"levelo://app?vid=52ddbbbf-18a8-4203-9f1c-7c998d3c04e2","ios":"levelo://app?vid=52ddbbbf-18a8-4203-9f1c-7c998d3c04e2"},"vehicle_type_id":"4","last_reported":1712862364,"current_range_meters":10000,"station_id":"ce4bgih2rcd13ifvqba0","pricing_plan_id":"cebpf4jnsgd1na2vs0mg"},{"bike_id":"099872af-973e-4a17-90e0-a8de7d06c3db","system_id":"levelo_inurba_marseille","lat":43.302008,"lon":5.394694,"is_reserved":false,"is_disabled":false,"rental_uris":{"android":"levelo://app?vid=099872af-973e-4a17-90e0-a8de7d06c3db","ios":"levelo://app?vid=099872af-973e-4a17-90e0-a8de7d06c3db"},"vehicle_type_id":"4","last_reported":1712862364,"current_range_meters":2800,"station_id":"ce4bh0p2rcd13ifvqd70","pricing_plan_id":"cebpf4jnsgd1na2vs0mg"},{"bike_id":"d7e75bea-671b-4372-821c-b3087d975548","system_id":"levelo_inurba_marseille","lat":43.290624,"lon":5.359245,"is_reserved":false,"is_disabled":false,"rental_uris":{"android":"levelo://app?vid=d7e75bea-671b-4372-821c-b3087d975548","ios":"levelo://app?vid=d7e75bea-671b-4372-821c-b3087d975548"},"vehicle_type_id":"4","last_reported":1712862364,"current_range_meters":14400,"station_id":"ce4bha92rcd13ifvqeg0","pricing_plan_id":"cebpf4jnsgd1na2vs0mg"},{"bike_id":"8c00d94b-3927-4aad-b101-0b80154e0ecd","system_id":"levelo_inurba_marseille","lat":43.289184,"lon":5.366408,"is_reserved":false,"is_disabled":false,"rental_uris":{"android":"levelo://app?vid=8c00d94b-3927-4aad-b101-0b80154e0ecd","ios":"levelo://app?vid=8c00d94b-3927-4aad-b101-0b80154e0ecd"},"vehicle_type_id":"4","last_reported":1712862364,"current_range_meters":17600,"station_id":"ce4bhap2rcd13ifvqek0","pricing_plan_id":"cebpf4jnsgd1na2vs0mg"},{"bike_id":"f8901e0a-4096-4039-bba7-8ac1264731ec","system_id":"levelo_inurba_marseille","lat":43.289184,"lon":5.366408,"is_reserved":false,"is_disabled":false,"rental_uris":{"android":"levelo://app?vid=f8901e0a-4096-4039-bba7-8ac1264731ec","ios":"levelo://app?vid=f8901e0a-4096-4039-bba7-8ac1264731ec"},"vehicle_type_id":"4","last_reported":1712862364,"current_range_meters":4000,"station_id":"ce4bhap2rcd13ifvqek0","pricing_plan_id":"cebpf4jnsgd1na2vs0mg"},{"bike_id":"e217bcc0-3371-4ca7-887c-32db526caa15","system_id":"levelo_inurba_marseille","lat":43.29424,"lon":5.38616,"is_reserved":false,"is_disabled":false,"rental_uris":{"android":"levelo://app?vid=e217bcc0-3371-4ca7-887c-32db526caa15","ios":"levelo://app?vid=e217bcc0-3371-4ca7-887c-32db526caa15"},"vehicle_type_id":"4","last_reported":1712862364,"current_range_meters":25600,"station_id":"ce4bh2h2rcd13ifvqdh0","pricing_plan_id":"cebpf4jnsgd1na2vs0mg"},{"bike_id":"0e0fe91a-7170-4dc0-8bbd-51cc7e8a3737","system_id":"levelo_inurba_marseille","lat":43.29422,"lon":5.38617,"is_reserved":false,"is_disabled":false,"rental_uris":{"android":"levelo://app?vid=0e0fe91a-7170-4dc0-8bbd-51cc7e8a3737","ios":"levelo://app?vid=0e0fe91a-7170-4dc0-8bbd-51cc7e8a3737"},"vehicle_type_id":"4","last_reported":1712862364,"current_range_meters":20400,"station_id":"ce4bh2h2rcd13ifvqdh0","pricing_plan_id":"cebpf4jnsgd1na2vs0mg"},{"bike_id":"b39ef848-23b5-4339-a39b-28b7ca2d96a7","system_id":"levelo_inurba_marseille","lat":43.294153,"lon":5.386305,"is_reserved":false,"is_disabled":false,"rental_uris":{"android":"levelo://app?vid=b39ef848-23b5-4339-a39b-28b7ca2d96a7","ios":"levelo://app?vid=b39ef848-23b5-4339-a39b-28b7ca2d96a7"},"vehicle_type_id":"4","last_reported":1712862364,"current_range_meters":7600,"station_id":"ce4bh2h2rcd13ifvqdh0","pricing_plan_id":"cebpf4jnsgd1na2vs0mg"},{"bike_id":"7f650142-0e4c-4d52-a88d-6d901bde7d65","system_id":"levelo_inurba_marseille","lat":43.29422,"lon":5.3862,"is_reserved":false,"is_disabled":false,"rental_uris":{"android":"levelo://app?vid=7f650142-0e4c-4d52-a88d-6d901bde7d65","ios":"levelo://app?vid=7f650142-0e4c-4d52-a88d-6d901bde7d65"},"vehicle_type_id":"4","last_reported":1712862364,"current_range_meters":11600,"station_id":"ce4bh2h2rcd13ifvqdh0","pricing_plan_id":"cebpf4jnsgd1na2vs0mg"},{"bike_id":"6c2a04ab-290e-445c-aaf5-38ae005a476f","system_id":"levelo_inurba_marseille","lat":43.29419,"lon":5.38617,"is_reserved":false,"is_disabled":false,"rental_uris":{"android":"levelo://app?vid=6c2a04ab-290e-445c-aaf5-38ae005a476f","ios":"levelo://app?vid=6c2a04ab-290e-445c-aaf5-38ae005a476f"},"vehicle_type_id":"4","last_reported":1712862364,"current_range_meters":13200,"station_id":"ce4bh2h2rcd13ifvqdh0","pricing_plan_id":"cebpf4jnsgd1na2vs0mg"},{"bike_id":"ce4b76fc-cae0-4549-8e29-11f6febaca65","system_id":"levelo_inurba_marseille","lat":43.29423,"lon":5.38625,"is_reserved":false,"is_disabled":false,"rental_uris":{"android":"levelo://app?vid=ce4b76fc-cae0-4549-8e29-11f6febaca65","ios":"levelo://app?vid=ce4b76fc-cae0-4549-8e29-11f6febaca65"},"vehicle_type_id":"4","last_reported":1712862364,"current_range_meters":6000,"station_id":"ce4bh2h2rcd13ifvqdh0","pricing_plan_id":"cebpf4jnsgd1na2vs0mg"},{"bike_id":"b9646429-7162-4d32-afca-1dc4d4118194","system_id":"levelo_inurba_marseille","lat":43.294182,"lon":5.386166,"is_reserved":false,"is_disabled":false,"rental_uris":{"android":"levelo://app?vid=b9646429-7162-4d32-afca-1dc4d4118194","ios":"levelo://app?vid=b9646429-7162-4d32-afca-1dc4d4118194"},"vehicle_type_id":"4","last_reported":1712862364,"current_range_meters":28400,"station_id":"ce4bh2h2rcd13ifvqdh0","pricing_plan_id":"cebpf4jnsgd1na2vs0mg"},{"bike_id":"b2c60730-9c8f-4cb5-acda-057809941580","system_id":"levelo_inurba_marseille","lat":43.290327,"lon":5.375711,"is_reserved":false,"is_disabled":false,"rental_uris":{"android":"levelo://app?vid=b2c60730-9c8f-4cb5-acda-057809941580","ios":"levelo://app?vid=b2c60730-9c8f-4cb5-acda-057809941580"},"vehicle_type_id":"4","last_reported":1712862364,"current_range_meters":0,"station_id":"ce4bh692rcd13ifvqe90","pricing_plan_id":"cebpf4jnsgd1na2vs0mg"},{"bike_id":"8e711003-e24c-424d-9b7d-4986c1046b00","system_id":"levelo_inurba_marseille","lat":43.290319,"lon":5.375732,"is_reserved":false,"is_disabled":false,"rental_uris":{"android":"levelo://app?vid=8e711003-e24c-424d-9b7d-4986c1046b00","ios":"levelo://app?vid=8e711003-e24c-424d-9b7d-4986c1046b00"},"vehicle_type_id":"4","last_reported":1712862364,"current_range_meters":2400,"station_id":"ce4bh692rcd13ifvqe90","pricing_plan_id":"cebpf4jnsgd1na2vs0mg"},{"bike_id":"9ad509e2-e81e-4ae1-b67a-8dbf5f283fc0","system_id":"levelo_inurba_marseille","lat":43.29421,"lon":5.38624,"is_reserved":false,"is_disabled":false,"rental_uris":{"android":"levelo://app?vid=9ad509e2-e81e-4ae1-b67a-8dbf5f283fc0","ios":"levelo://app?vid=9ad509e2-e81e-4ae1-b67a-8dbf5f283fc0"},"vehicle_type_id":"4","last_reported":1712862364,"current_range_meters":21200,"station_id":"ce4bh2h2rcd13ifvqdh0","pricing_plan_id":"cebpf4jnsgd1na2vs0mg"},{"bike_id":"379f0e03-9dcc-42e0-8dc4-d31f74bd2dff","system_id":"levelo_inurba_marseille","lat":43.29419,"lon":5.38621,"is_reserved":false,"is_disabled":false,"rental_uris":{"android":"levelo://app?vid=379f0e03-9dcc-42e0-8dc4-d31f74bd2dff","ios":"levelo://app?vid=379f0e03-9dcc-42e0-8dc4-d31f74bd2dff"},"vehicle_type_id":"4","last_reported":1712862364,"current_range_meters":7600,"station_id":"ce4bh2h2rcd13ifvqdh0","pricing_plan_id":"cebpf4jnsgd1na2vs0mg"},{"bike_id":"c86b8a4f-92bf-4c41-951f-980a9de072f3","system_id":"levelo_inurba_marseille","lat":43.284538,"lon":5.358657,"is_reserved":false,"is_disabled":false,"rental_uris":{"android":"levelo://app?vid=c86b8a4f-92bf-4c41-951f-980a9de072f3","ios":"levelo://app?vid=c86b8a4f-92bf-4c41-951f-980a9de072f3"},"vehicle_type_id":"4","last_reported":1712862364,"current_range_meters":0,"station_id":"ce4bhah2rcd13ifvqei0","pricing_plan_id":"cebpf4jnsgd1na2vs0mg"},{"bike_id":"3a93ee1c-f91e-4e10-837e-825096cf0e60","system_id":"levelo_inurba_marseille","lat":43.29035,"lon":5.37563,"is_reserved":false,"is_disabled":false,"rental_uris":{"android":"levelo://app?vid=3a93ee1c-f91e-4e10-837e-825096cf0e60","ios":"levelo://app?vid=3a93ee1c-f91e-4e10-837e-825096cf0e60"},"vehicle_type_id":"4","last_reported":1712862364,"current_range_meters":0,"station_id":"ce4bh692rcd13ifvqe90","pricing_plan_id":"cebpf4jnsgd1na2vs0mg"},{"bike_id":"7ffa6386-1499-49cb-89e1-201437953b79","system_id":"levelo_inurba_marseille","lat":43.294179,"lon":5.386213,"is_reserved":false,"is_disabled":false,"rental_uris":{"android":"levelo://app?vid=7ffa6386-1499-49cb-89e1-201437953b79","ios":"levelo://app?vid=7ffa6386-1499-49cb-89e1-201437953b79"},"vehicle_type_id":"4","last_reported":1712862364,"current_range_meters":16800,"station_id":"ce4bh2h2rcd13ifvqdh0","pricing_plan_id":"cebpf4jnsgd1na2vs0mg"},{"bike_id":"a5a856f9-f5dd-4380-ab02-4e9f73d99f11","system_id":"levelo_inurba_marseille","lat":43.29419,"lon":5.38624,"is_reserved":false,"is_disabled":false,"rental_uris":{"android":"levelo://app?vid=a5a856f9-f5dd-4380-ab02-4e9f73d99f11","ios":"levelo://app?vid=a5a856f9-f5dd-4380-ab02-4e9f73d99f11"},"vehicle_type_id":"4","last_reported":1712862364,"current_range_meters":10800,"station_id":"ce4bh2h2rcd13ifvqdh0","pricing_plan_id":"cebpf4jnsgd1na2vs0mg"},{"bike_id":"a5b1a8b1-38c6-4288-8cf0-4ddf02fb9fdb","system_id":"levelo_inurba_marseille","lat":43.29418,"lon":5.386227,"is_reserved":false,"is_disabled":false,"rental_uris":{"android":"levelo://app?vid=a5b1a8b1-38c6-4288-8cf0-4ddf02fb9fdb","ios":"levelo://app?vid=a5b1a8b1-38c6-4288-8cf0-4ddf02fb9fdb"},"vehicle_type_id":"4","last_reported":1712862364,"current_range_meters":12800,"station_id":"ce4bh2h2rcd13ifvqdh0","pricing_plan_id":"cebpf4jnsgd1na2vs0mg"},{"bike_id":"56b0cd09-06c9-4760-a27e-ddd716f67151","system_id":"levelo_inurba_marseille","lat":43.2942,"lon":5.38627,"is_reserved":false,"is_disabled":false,"rental_uris":{"android":"levelo://app?vid=56b0cd09-06c9-4760-a27e-ddd716f67151","ios":"levelo://app?vid=56b0cd09-06c9-4760-a27e-ddd716f67151"},"vehicle_type_id":"4","last_reported":1712862364,"current_range_meters":13600,"station_id":"ce4bh2h2rcd13ifvqdh0","pricing_plan_id":"cebpf4jnsgd1na2vs0mg"},{"bike_id":"ad8413ff-c997-4698-a181-d4c6e3b67d54","system_id":"levelo_inurba_marseille","lat":43.294246,"lon":5.386354,"is_reserved":false,"is_disabled":false,"rental_uris":{"android":"levelo://app?vid=ad8413ff-c997-4698-a181-d4c6e3b67d54","ios":"levelo://app?vid=ad8413ff-c997-4698-a181-d4c6e3b67d54"},"vehicle_type_id":"4","last_reported":1712862364,"current_range_meters":26800,"station_id":"ce4bh2h2rcd13ifvqdh0","pricing_plan_id":"cebpf4jnsgd1na2vs0mg"},{"bike_id":"6232533b-4043-4c95-a76b-3fe266cebe14","system_id":"levelo_inurba_marseille","lat":43.29421,"lon":5.38629,"is_reserved":false,"is_disabled":false,"rental_uris":{"android":"levelo://app?vid=6232533b-4043-4c95-a76b-3fe266cebe14","ios":"levelo://app?vid=6232533b-4043-4c95-a76b-3fe266cebe14"},"vehicle_type_id":"4","last_reported":1712862364,"current_range_meters":29200,"station_id":"ce4bh2h2rcd13ifvqdh0","pricing_plan_id":"cebpf4jnsgd1na2vs0mg"},{"bike_id":"9ebfbeee-f36c-4a28-85b8-630e084b2692","system_id":"levelo_inurba_marseille","lat":43.29419,"lon":5.38626,"is_reserved":false,"is_disabled":false,"rental_uris":{"android":"levelo://app?vid=9ebfbeee-f36c-4a28-85b8-630e084b2692","ios":"levelo://app?vid=9ebfbeee-f36c-4a28-85b8-630e084b2692"},"vehicle_type_id":"4","last_reported":1712862364,"current_range_meters":31200,"station_id":"ce4bh2h2rcd13ifvqdh0","pricing_plan_id":"cebpf4jnsgd1na2vs0mg"},{"bike_id":"12acd6e7-0519-48e7-998d-e400db480af8","system_id":"levelo_inurba_marseille","lat":43.2942,"lon":5.38628,"is_reserved":false,"is_disabled":false,"rental_uris":{"android":"levelo://app?vid=12acd6e7-0519-48e7-998d-e400db480af8","ios":"levelo://app?vid=12acd6e7-0519-48e7-998d-e400db480af8"},"vehicle_type_id":"4","last_reported":1712862364,"current_range_meters":20400,"station_id":"ce4bh2h2rcd13ifvqdh0","pricing_plan_id":"cebpf4jnsgd1na2vs0mg"},{"bike_id":"fb2b0c56-2c00-48f0-b803-7ed3b97cd612","system_id":"levelo_inurba_marseille","lat":43.29418,"lon":5.38625,"is_reserved":false,"is_disabled":false,"rental_uris":{"android":"levelo://app?vid=fb2b0c56-2c00-48f0-b803-7ed3b97cd612","ios":"levelo://app?vid=fb2b0c56-2c00-48f0-b803-7ed3b97cd612"},"vehicle_type_id":"4","last_reported":1712862364,"current_range_meters":7600,"station_id":"ce4bh2h2rcd13ifvqdh0","pricing_plan_id":"cebpf4jnsgd1na2vs0mg"},{"bike_id":"138bc6d1-e6ed-4aad-9493-bdd8a5aafe48","system_id":"levelo_inurba_marseille","lat":43.29413,"lon":5.38616,"is_reserved":false,"is_disabled":false,"rental_uris":{"android":"levelo://app?vid=138bc6d1-e6ed-4aad-9493-bdd8a5aafe48","ios":"levelo://app?vid=138bc6d1-e6ed-4aad-9493-bdd8a5aafe48"},"vehicle_type_id":"4","last_reported":1712862364,"current_range_meters":16400,"station_id":"ce4bh2h2rcd13ifvqdh0","pricing_plan_id":"cebpf4jnsgd1na2vs0mg"},{"bike_id":"a888e49a-c89d-488f-b91d-df873d03aed2","system_id":"levelo_inurba_marseille","lat":43.294174,"lon":5.386257,"is_reserved":false,"is_disabled":false,"rental_uris":{"android":"levelo://app?vid=a888e49a-c89d-488f-b91d-df873d03aed2","ios":"levelo://app?vid=a888e49a-c89d-488f-b91d-df873d03aed2"},"vehicle_type_id":"4","last_reported":1712862364,"current_range_meters":29200,"station_id":"ce4bh2h2rcd13ifvqdh0","pricing_plan_id":"cebpf4jnsgd1na2vs0mg"},{"bike_id":"cfe0af64-a50c-42db-903e-5b80ab35509e","system_id":"levelo_inurba_marseille","lat":43.292724,"lon":5.401131,"is_reserved":false,"is_disabled":false,"rental_uris":{"android":"levelo://app?vid=cfe0af64-a50c-42db-903e-5b80ab35509e","ios":"levelo://app?vid=cfe0af64-a50c-42db-903e-5b80ab35509e"},"vehicle_type_id":"4","last_reported":1712862364,"current_range_meters":4000,"station_id":"ce4bh312rcd13ifvqdk0","pricing_plan_id":"cebpf4jnsgd1na2vs0mg"},