{"last_updated":1757833714,"ttl":60,"version":"2.2","data":{"bikes":[{"bike_id":"cc29d5c3-199e-4920-ac5d-6cf457c8a8ef","system_id":"levelo_inurba_marseille","lat":43.33377,"lon":5.39847,"is_reserved":false,"is_disabled":false,"rental_uris":{"android":"levelo://app?vid=cc29d5c3-199e-4920-ac5d-6cf457c8a8ef","ios":"levelo://app?vid=cc29d5c3-199e-4920-ac5d-6cf457c8a8ef"},"vehicle_type_id":"4","last_reported":1757833715,"current_range_meters":2800,"station_id":"","pricing_plan_id":"cebpf4jnsgd1na2vs0mg"},{"bike_id":"8fb02c31-b078-44e9-b72b-5e66b5abfa9c","system_id":"levelo_inurba_marseille","lat":43.30475,"lon":5.37912,"is_reserved":false,"is_disabled":false,"rental_uris":{"android":"levelo://app?vid=8fb02c31-b078-44e9-b72b-5e66b5abfa9c","ios":"levelo://app?vid=8fb02c31-b078-44e9-b72b-5e66b5abfa9c"},"vehicle_type_id":"4","last_reported":1757833715,"current_range_meters":2800,"station_id":"ce4bgup2rcd13ifvqcn0","pricing_plan_id":"cebpf4jnsgd1na2vs0mg"},{"bike_id":"c39fad0d-ac6e-496e-a9c0-d06aafdb664f","system_id":"levelo_inurba_marseille","lat":43.3108,"lon":5.38353,"is_reserved":false,"is_disabled":true,"rental_uris":{"android":"levelo://app?vid=c39fad0d-ac6e-496e-a9c0-d06aafdb664f","ios":"levelo://app?vid=c39fad0d-ac6e-496e-a9c0-d06aafdb664f"},"vehicle_type_id":"4","last_reported":1757833715,"current_range_meters":2800,"station_id":"ce4bgv92rcd13ifvqcr0","pricing_plan_id":"cebpf4jnsgd1na2vs0mg"},{"bike_id":"3258e62d-d54e-423a-82f8-b3e66399dbec","system_id":"levelo_inurba_marseille","lat":43.29807,"lon":5.3809,"is_reserved":false,"is_disabled":true,"rental_uris":{"android":"levelo://app?vid=3258e62d-d54e-423a-82f8-b3e66399dbec","ios":"levelo://app?vid=3258e62d-d54e-423a-82f8-b3e66399dbec"},"vehicle_type_id":"4","last_reported":1757833715,"current_range_meters":2800,"station_id":"ce4bgip2rcd13ifvqbb0","pricing_plan_id":"cebpf4jnsgd1na2vs0mg"},{"bike_id":"b10ca0dd-9e39-4b62-a493-9142be54880b","system_id":"levelo_inurba_marseille","lat":43.30246,"lon":5.40064,"is_reserved":false,"is_disabled":false,"rental_uris":{"android":"levelo://app?vid=b10ca0dd-9e39-4b62-a493-9142be54880b","ios":"levelo://app?vid=b10ca0dd-9e39-4b62-a493-9142be54880b"},"vehicle_type_id":"4","last_reported":1757833715,"current_range_meters":2800,"station_id":"ce4bgvh2rcd13ifvqcs0","pricing_plan_id":"cebpf4jnsgd1na2vs0mg"},{"bike_id":"f69e8392-10e0-4164-ab78-d51493fc94ea","system_id":"levelo_inurba_marseille","lat":43.30893,"lon":5.39638,"is_reserved":false,"is_disabled":false,"rental_uris":{"android":"levelo://app?vid=f69e8392-10e0-4164-ab78-d51493fc94ea","ios":"levelo://app?vid=f69e8392-10e0-4164-ab78-d51493fc94ea"},"vehicle_type_id":"4","last_reported":1757833715,"current_range_meters":3200,"station_id":"ce4bh012rcd13ifvqcv0","pricing_plan_id":"cebpf4jnsgd1na2vs0mg"},{"bike_id":"92e6d496-1c77-4692-81f5-394014d57567","system_id":"levelo_inurba_marseille","lat":43.28561,"lon":5.39976,"is_reserved":false,"is_disabled":false,"rental_uris":{"android":"levelo://app?vid=92e6d496-1c77-4692-81f5-394014d57567","ios":"levelo://app?vid=92e6d496-1c77-4692-81f5-394014d57567"},"vehicle_type_id":"4","last_reported":1757833715,"current_range_meters":3600,"station_id":"","pricing_plan_id":"cebpf4jnsgd1na2vs0mg"},{"bike_id":"62d2d2ab-0447-427d-ad80-51089fb2167f","system_id":"levelo_inurba_marseille","lat":43.24403,"lon":5.37097,"is_reserved":false,"is_disabled":false,"rental_uris":{"android":"levelo://app?vid=62d2d2ab-0447-427d-ad80-51089fb2167f","ios":"levelo://app?vid=62d2d2ab-0447-427d-ad80-51089fb2167f"},"vehicle_type_id":"4","last_reported":1757833715,"current_range_meters":4000,"station_id":"","pricing_plan_id":"cebpf4jnsgd1na2vs0mg"},{"bike_id":"c5b09212-f146-4704-b036-ef3f489b58e8","system_id":"levelo_inurba_marseille","lat":43.23067,"lon":5.35495,"is_reserved":false,"is_disabled":false,"rental_uris":{"android":"levelo://app?vid=c5b09212-f146-4704-b036-ef3f489b58e8","ios":"levelo://app?vid=c5b09212-f146-4704-b036-ef3f489b58e8"},"vehicle_type_id":"4","last_reported":1757833715,"current_range_meters":4000,"station_id":"cpo3342slgdg3j2ifvpg","pricing_plan_id":"cebpf4jnsgd1na2vs0mg"},{"bike_id":"dbbfb935-0bb0-4588-9598-d952a992d421","system_id":"levelo_inurba_marseille","lat":43.30903,"lon":5.37202,"is_reserved":false,"is_disabled":false,"rental_uris":{"android":"levelo://app?vid=dbbfb935-0bb0-4588-9598-d952a992d421","ios":"levelo://app?vid=dbbfb935-0bb0-4588-9598-d952a992d421"},"vehicle_type_id":"4","last_reported":1757833715,"current_range_meters":4800,"station_id":"ce4bguh2rcd13ifvqckg","pricing_plan_id":"cebpf4jnsgd1na2vs0mg"},{"bike_id":"2b25bd70-f7aa-4d52-af4d-70bc195bf595","system_id":"levelo_inurba_marseille","lat":43.284945,"lon":5.384203,"is_reserved":false,"is_disabled":false,"rental_uris":{"android":"levelo://app?vid=2b25bd70-f7aa-4d52-af4d-70bc195bf595","ios":"levelo://app?vid=2b25bd70-f7aa-4d52-af4d-70bc195bf595"},"vehicle_type_id":"4","last_reported":1757833715,"current_range_meters":4800,"station_id":"ce4bh3p2rcd13ifvqdp0","pricing_plan_id":"cebpf4jnsgd1na2vs0mg"},{"bike_id":"972b4c5f-3a00-4bb2-9116-b81f2cecc9f2","system_id":"levelo_inurba_marseille","lat":43.33764,"lon":5.37483,"is_reserved":false,"is_disabled":false,"rental_uris":{"android":"levelo://app?vid=972b4c5f-3a00-4bb2-9116-b81f2cecc9f2","ios":"levelo://app?vid=972b4c5f-3a00-4bb2-9116-b81f2cecc9f2"},"vehicle_type_id":"4","last_reported":1757833715,"current_range_meters":5600,"station_id":"","pricing_plan_id":"cebpf4jnsgd1na2vs0mg"},{"bike_id":"6a5ca146-0047-4a1a-a54c-3fad7a2a1821","system_id":"levelo_inurba_marseille","lat":43.32354,"lon":5.3675,"is_reserved":false,"is_disabled":false,"rental_uris":{"android":"levelo://app?vid=6a5ca146-0047-4a1a-a54c-3fad7a2a1821","ios":"levelo://app?vid=6a5ca146-0047-4a1a-a54c-3fad7a2a1821"},"vehicle_type_id":"4","last_reported":1757833715,"current_range_meters":5600,"station_id":"ce4bhsh2rcd13ifvqi2g","pricing_plan_id":"cebpf4jnsgd1na2vs0mg"},{"bike_id":"69d28989-0189-497f-be07-1f48052b3ebb","system_id":"levelo_inurba_marseille","lat":43.29094,"lon":5.38131,"is_reserved":false,"is_disabled":false,"rental_uris":{"android":"levelo://app?vid=69d28989-0189-497f-be07-1f48052b3ebb","ios":"levelo://app?vid=69d28989-0189-497f-be07-1f48052b3ebb"},"vehicle_type_id":"4","last_reported":1757833715,"current_range_meters":6000,"station_id":"ce4bh512rcd13ifvqe2g","pricing_plan_id":"cebpf4jnsgd1na2vs0mg"},{"bike_id":"a05fdb49-e038-4a84-8ea1-52f3eaaf07b1","system_id":"levelo_inurba_marseille","lat":43.22553,"lon":5.41627,"is_reserved":false,"is_disabled":false,"rental_uris":{"android":"levelo://app?vid=a05fdb49-e038-4a84-8ea1-52f3eaaf07b1","ios":"levelo://app?vid=a05fdb49-e038-4a84-8ea1-52f3eaaf07b1"},"vehicle_type_id":"4","last_reported":1757833715,"current_range_meters":6000,"station_id":"st_d2o4gvlbi1j2169b742g","pricing_plan_id":"cebpf4jnsgd1na2vs0mg"},{"bike_id":"3bd595b7-af3b-43b1-8697-1bcb2a61af6f","system_id":"levelo_inurba_marseille","lat":43.280015,"lon":5.400015,"is_reserved":false,"is_disabled":true,"rental_uris":{"android":"levelo://app?vid=3bd595b7-af3b-43b1-8697-1bcb2a61af6f","ios":"levelo://app?vid=3bd595b7-af3b-43b1-8697-1bcb2a61af6f"},"vehicle_type_id":"4","last_reported":1757833715,"current_range_meters":6000,"station_id":"ce4bho92rcd13ifvqh4g","pricing_plan_id":"cebpf4jnsgd1na2vs0mg"},{"bike_id":"2c19a37a-6c9a-46fc-8301-7a6bf4f22a69","system_id":"levelo_inurba_marseille","lat":43.23153,"lon":5.43714,"is_reserved":false,"is_disabled":false,"rental_uris":{"android":"levelo://app?vid=2c19a37a-6c9a-46fc-8301-7a6bf4f22a69","ios":"levelo://app?vid=2c19a37a-6c9a-46fc-8301-7a6bf4f22a69"},"vehicle_type_id":"4","last_reported":1757833715,"current_range_meters":6000,"station_id":"ce4bhmp2rcd13ifvqgog","pricing_plan_id":"cebpf4jnsgd1na2vs0mg"},{"bike_id":"69db2024-eed1-4b9c-91f4-9df3e04b7f0e","system_id":"levelo_inurba_marseille","lat":43.29618,"lon":5.37152,"is_reserved":false,"is_disabled":false,"rental_uris":{"android":"levelo://app?vid=69db2024-eed1-4b9c-91f4-9df3e04b7f0e","ios":"levelo://app?vid=69db2024-eed1-4b9c-91f4-9df3e04b7f0e"},"vehicle_type_id":"4","last_reported":1757833715,"current_range_meters":6000,"station_id":"ce4bgnh2rcd13ifvqc0g","pricing_plan_id":"cebpf4jnsgd1na2vs0mg"},{"bike_id":"a3977072-5f91-4a68-b0d6-dc3cb909a337","system_id":"levelo_inurba_marseille","lat":43.33774,"lon":5.37476,"is_reserved":false,"is_disabled":false,"rental_uris":{"android":"levelo://app?vid=a3977072-5f91-4a68-b0d6-dc3cb909a337","ios":"levelo://app?vid=a3977072-5f91-4a68-b0d6-dc3cb909a337"},"vehicle_type_id":"4","last_reported":1757833715,"current_range_meters":6400,"station_id":"","pricing_plan_id":"cebpf4jnsgd1na2vs0mg"},{"bike_id":"775af279-8ac9-4585-9121-809be9b13265","system_id":"levelo_inurba_marseille","lat":43.337775,"lon":5.374412,"is_reserved":false,"is_disabled":false,"rental_uris":{"android":"levelo://app?vid=775af279-8ac9-4585-9121-809be9b13265","ios":"levelo://app?vid=775af279-8ac9-4585-9121-809be9b13265"},"vehicle_type_id":"4","last_reported":1757833715,"current_range_meters":6800,"station_id":"","pricing_plan_id":"cebpf4jnsgd1na2vs0mg"},{"bike_id":"4891d751-b66c-4a3d-89d5-78926b795844","system_id":"levelo_inurba_marseille","lat":43.29524,"lon":5.42565,"is_reserved":false,"is_disabled":false,"rental_uris":{"android":"levelo://app?vid=4891d751-b66c-4a3d-89d5-78926b795844","ios":"levelo://app?vid=4891d751-b66c-4a3d-89d5-78926b795844"},"vehicle_type_id":"4","last_reported":1757833715,"current_range_meters":6800,"station_id":"","pricing_plan_id":"cebpf4jnsgd1na2vs0mg"},{"bike_id":"ae2200e0-55fa-4d16-87bf-72ca65d67371","system_id":"levelo_inurba_marseille","lat":43.28379,"lon":5.38464,"is_reserved":false,"is_disabled":true,"rental_uris":{"android":"levelo://app?vid=ae2200e0-55fa-4d16-87bf-72ca65d67371","ios":"levelo://app?vid=ae2200e0-55fa-4d16-87bf-72ca65d67371"},"vehicle_type_id":"4","last_reported":1757833715,"current_range_meters":7200,"station_id":"","pricing_plan_id":"cebpf4jnsgd1na2vs0mg"},{"bike_id":"eaa220fb-5349-44c0-849a-e1e199bab0e0","system_id":"levelo_inurba_marseille","lat":43.30457,"lon":5.36701,"is_reserved":false,"is_disabled":true,"rental_uris":{"android":"levelo://app?vid=eaa220fb-5349-44c0-849a-e1e199bab0e0","ios":"levelo://app?vid=eaa220fb-5349-44c0-849a-e1e199bab0e0"},"vehicle_type_id":"4","last_reported":1757833715,"current_range_meters":8000,"station_id":"","pricing_plan_id":"cebpf4jnsgd1na2vs0mg"},{"bike_id":"f0956c98-9f2e-4478-bb98-cb393088d322","system_id":"levelo_inurba_marseille","lat":43.30169,"lon":5.38089,"is_reserved":false,"is_disabled":false,"rental_uris":{"android":"levelo://app?vid=f0956c98-9f2e-4478-bb98-cb393088d322","ios":"levelo://app?vid=f0956c98-9f2e-4478-bb98-cb393088d322"},"vehicle_type_id":"4","last_reported":1757833715,"current_range_meters":8000,"station_id":"ce4bgjp2rcd13ifvqbh0","pricing_plan_id":"cebpf4jnsgd1na2vs0mg"},{"bike_id":"19b6587f-56e8-4751-bee5-5d0e33b6156f","system_id":"levelo_inurba_marseille","lat":43.28698,"lon":5.39979,"is_reserved":false,"is_disabled":false,"rental_uris":{"android":"levelo://app?vid=19b6587f-56e8-4751-bee5-5d0e33b6156f","ios":"levelo://app?vid=19b6587f-56e8-4751-bee5-5d0e33b6156f"},"vehicle_type_id":"4","last_reported":1757833715,"current_range_meters":8000,"station_id":"ce4bho92rcd13ifvqh3g","pricing_plan_id":"cebpf4jnsgd1na2vs0mg"},{"bike_id":"c5d0a267-63b8-45b1-8db4-f64d80554eb4","system_id":"levelo_inurba_marseille","lat":43.28622,"lon":5.37082,"is_reserved":false,"is_disabled":true,"rental_uris":{"android":"levelo://app?vid=c5d0a267-63b8-45b1-8db4-f64d80554eb4","ios":"levelo://app?vid=c5d0a267-63b8-45b1-8db4-f64d80554eb4"},"vehicle_type_id":"4","last_reported":1757833715,"current_range_meters":8000,"station_id":"ce4bht12rcd13ifvqi60","pricing_plan_id":"cebpf4jnsgd1na2vs0mg"},{"bike_id":"9db058ec-204f-4a52-be3f-a7cc49e5212f","system_id":"levelo_inurba_marseille","lat":43.30934,"lon":5.40141,"is_reserved":false,"is_disabled":false,"rental_uris":{"android":"levelo://app?vid=9db058ec-204f-4a52-be3f-a7cc49e5212f","ios":"levelo://app?vid=9db058ec-204f-4a52-be3f-a7cc49e5212f"},"vehicle_type_id":"4","last_reported":1757833715,"current_range_meters":8000,"station_id":"ce4bgvp2rcd13ifvqct0","pricing_plan_id":"cebpf4jnsgd1na2vs0mg"},{"bike_id":"fd023a40-d69c-4361-9109-4126162693f0","system_id":"levelo_inurba_marseille","lat":43.27774,"lon":5.37833,"is_reserved":false,"is_disabled":false,"rental_uris":{"android":"levelo://app?vid=fd023a40-d69c-4361-9109-4126162693f0","ios":"levelo://app?vid=fd023a40-d69c-4361-9109-4126162693f0"},"vehicle_type_id":"4","last_reported":1757833715,"current_range_meters":8400,"station_id":"","pricing_plan_id":"cebpf4jnsgd1na2vs0mg"},{"bike_id":"fbcaa5be-76d1-41b1-8be1-f8ff6820e3ae","system_id":"levelo_inurba_marseille","lat":43.32324,"lon":5.40617,"is_reserved":false,"is_disabled":false,"rental_uris":{"android":"levelo://app?vid=fbcaa5be-76d1-41b1-8be1-f8ff6820e3ae","ios":"levelo://app?vid=fbcaa5be-76d1-41b1-8be1-f8ff6820e3ae"},"vehicle_type_id":"4","last_reported":1757833715,"current_range_meters":8400,"station_id":"ce4bhq92rcd13ifvqhjg","pricing_plan_id":"cebpf4jnsgd1na2vs0mg"},{"bike_id":"a24c4696-920b-4645-847f-87e0b46915a6","system_id":"levelo_inurba_marseille","lat":43.32433,"lon":5.42465,"is_reserved":false,"is_disabled":false,"rental_uris":{"android":"levelo://app?vid=a24c4696-920b-4645-847f-87e0b46915a6","ios":"levelo://app?vid=a24c4696-920b-4645-847f-87e0b46915a6"},"vehicle_type_id":"4","last_reported":1757833715,"current_range_meters":8400,"station_id":"","pricing_plan_id":"cebpf4jnsgd1na2vs0mg"},{"bike_id":"0eac0c05-dbf1-4c0b-af6d-53c5df91e290","system_id":"levelo_inurba_marseille","lat":43.29676,"lon":5.37156,"is_reserved":false,"is_disabled":false,"rental_uris":{"android":"levelo://app?vid=0eac0c05-dbf1-4c0b-af6d-53c5df91e290","ios":"levelo://app?vid=0eac0c05-dbf1-4c0b-af6d-53c5df91e290"},"vehicle_type_id":"4","last_reported":1757833715,"current_range_meters":8400,"station_id":"","pricing_plan_id":"cebpf4jnsgd1na2vs0mg"},{"bike_id":"fe8ea19a-9452-430b-9391-4bd937dd3622","system_id":"levelo_inurba_marseille","lat":43.28154,"lon":5.39035,"is_reserved":false,"is_disabled":false,"rental_uris":{"android":"levelo://app?vid=fe8ea19a-9452-430b-9391-4bd937dd3622","ios":"levelo://app?vid=fe8ea19a-9452-430b-9391-4bd937dd3622"},"vehicle_type_id":"4","last_reported":1757833715,"current_range_meters":8400,"station_id":"","pricing_plan_id":"cebpf4jnsgd1na2vs0mg"},{"bike_id":"d1c37d77-3640-4d77-b7c0-f3b679129f86","system_id":"levelo_inurba_marseille","lat":43.29535,"lon":5.38545,"is_reserved":false,"is_disabled":false,"rental_uris":{"android":"levelo://app?vid=d1c37d77-3640-4d77-b7c0-f3b679129f86","ios":"levelo://app?vid=d1c37d77-3640-4d77-b7c0-f3b679129f86"},"vehicle_type_id":"4","last_reported":1757833715,"current_range_meters":8400,"station_id":"ce4bgih2rcd13ifvqba0","pricing_plan_id":"cebpf4jnsgd1na2vs0mg"},{"bike_id":"89724e0f-d6a6-4e81-9dc8-40ed9db09b04","system_id":"levelo_inurba_marseille","lat":43.28608,"lon":5.37077,"is_reserved":false,"is_disabled":false,"rental_uris":{"android":"levelo://app?vid=89724e0f-d6a6-4e81-9dc8-40ed9db09b04","ios":"levelo://app?vid=89724e0f-d6a6-4e81-9dc8-40ed9db09b04"},"vehicle_type_id":"4","last_reported":1757833715,"current_range_meters":8400,"station_id":"ce4bht12rcd13ifvqi60","pricing_plan_id":"cebpf4jnsgd1na2vs0mg"},{"bike_id":"c50abdd5-291b-4939-a921-e220d7da5098","system_id":"levelo_inurba_marseille","lat":43.29797,"lon":5.38104,"is_reserved":false,"is_disabled":true,"rental_uris":{"android":"levelo://app?vid=c50abdd5-291b-4939-a921-e220d7da5098","ios":"levelo://app?vid=c50abdd5-291b-4939-a921-e220d7da5098"},"vehicle_type_id":"4","last_reported":1757833715,"current_range_meters":8800,"station_id":"ce4bgip2rcd13ifvqbb0","pricing_plan_id":"cebpf4jnsgd1na2vs0mg"},{"bike_id":"8c2c4ca1-e2d8-4cf6-94d6-963467695610","system_id":"levelo_inurba_marseille","lat":43.31107,"lon":5.38578,"is_reserved":false,"is_disabled":false,"rental_uris":{"android":"levelo://app?vid=8c2c4ca1-e2d8-4cf6-94d6-963467695610","ios":"levelo://app?vid=8c2c4ca1-e2d8-4cf6-94d6-963467695610"},"vehicle_type_id":"4","last_reported":1757833715,"current_range_meters":8800,"station_id":"","pricing_plan_id":"cebpf4jnsgd1na2vs0mg"},{"bike_id":"463345a6-2d4f-4448-8488-9cab1efda713","system_id":"levelo_inurba_marseille","lat":43.25443,"lon":5.40139,"is_reserved":false,"is_disabled":false,"rental_uris":{"android":"levelo://app?vid=463345a6-2d4f-4448-8488-9cab1efda713","ios":"levelo://app?vid=463345a6-2d4f-4448-8488-9cab1efda713"},"vehicle_type_id":"4","last_reported":1757833715,"current_range_meters":8800,"station_id":"","pricing_plan_id":"cebpf4jnsgd1na2vs0mg"},{"bike_id":"c241f22d-c6d0-45d9-aa23-e011febccc16","system_id":"levelo_inurba_marseille","lat":43.282664,"lon":5.350559,"is_reserved":false,"is_disabled":false,"rental_uris":{"android":"levelo://app?vid=c241f22d-c6d0-45d9-aa23-e011febccc16","ios":"levelo://app?vid=c241f22d-c6d0-45d9-aa23-e011febccc16"},"vehicle_type_id":"4","last_reported":1757833715,"current_range_meters":8800,"station_id":"ce4bhbp2rcd13ifvqerg","pricing_plan_id":"cebpf4jnsgd1na2vs0mg"},{"bike_id":"a6fcff6c-c9f4-4d65-aaac-33a1035939d1","system_id":"levelo_inurba_marseille","lat":43.24398,"lon":5.37054,"is_reserved":false,"is_disabled":false,"rental_uris":{"android":"levelo://app?vid=a6fcff6c-c9f4-4d65-aaac-33a1035939d1","ios":"levelo://app?vid=a6fcff6c-c9f4-4d65-aaac-33a1035939d1"},"vehicle_type_id":"4","last_reported":1757833715,"current_range_meters":8800,"station_id":"ce4bhhh2rcd13ifvqfk0","pricing_plan_id":"cebpf4jnsgd1na2vs0mg"},{"bike_id":"84c8fb15-5b5b-46a3-b92a-7de6406f90b3","system_id":"levelo_inurba_marseille","lat":43.26786,"lon":5.39412,"is_reserved":false,"is_disabled":true,"rental_uris":{"android":"levelo://app?vid=84c8fb15-5b5b-46a3-b92a-7de6406f90b3","ios":"levelo://app?vid=84c8fb15-5b5b-46a3-b92a-7de6406f90b3"},"vehicle_type_id":"4","last_reported":1757833715,"current_range_meters":9200,"station_id":"ce4bhh12rcd13ifvqfg0","pricing_plan_id":"cebpf4jnsgd1na2vs0mg"},{"bike_id":"72ecfdf4-24e1-4d21-b6f0-ea4846497a4f","system_id":"levelo_inurba_marseille","lat":43.28685,"lon":5.40002,"is_reserved":false,"is_disabled":false,"rental_uris":{"android":"levelo://app?vid=72ecfdf4-24e1-4d21-b6f0-ea4846497a4f","ios":"levelo://app?vid=72ecfdf4-24e1-4d21-b6f0-ea4846497a4f"},"vehicle_type_id":"4","last_reported":1757833715,"current_range_meters":9200,"station_id":"ce4bho92rcd13ifvqh3g","pricing_plan_id":"cebpf4jnsgd1na2vs0mg"},{"bike_id":"08dd149f-234d-4257-9742-8ea8a2f2658d","system_id":"levelo_inurba_marseille","lat":43.28425,"lon":5.37511,"is_reserved":false,"is_disabled":true,"rental_uris":{"android":"levelo://app?vid=08dd149f-234d-4257-9742-8ea8a2f2658d","ios":"levelo://app?vid=08dd149f-234d-4257-9742-8ea8a2f2658d"},"vehicle_type_id":"4","last_reported":1757833715,"current_range_meters":9600,"station_id":"ce4bh412rcd13ifvqds0","pricing_plan_id":"cebpf4jnsgd1na2vs0mg"},{"bike_id":"d5c98035-fc72-4062-a3ec-13203f68e8ed","system_id":"levelo_inurba_marseille","lat":43.28865,"lon":5.42509,"is_reserved":false,"is_disabled":false,"rental_uris":{"android":"levelo://app?vid=d5c98035-fc72-4062-a3ec-13203f68e8ed","ios":"levelo://app?vid=d5c98035-fc72-4062-a3ec-13203f68e8ed"},"vehicle_type_id":"4","last_reported":1757833715,"current_range_meters":9600,"station_id":"","pricing_plan_id":"cebpf4jnsgd1na2vs0mg"},{"bike_id":"62f771b2-4873-460c-a103-d249fe08d9a3","system_id":"levelo_inurba_marseille","lat":43.28461,"lon":5.35886,"is_reserved":false,"is_disabled":true,"rental_uris":{"android":"levelo://app?vid=62f771b2-4873-460c-a103-d249fe08d9a3","ios":"levelo://app?vid=62f771b2-4873-460c-a103-d249fe08d9a3"},"vehicle_type_id":"4","last_reported":1757833715,"current_range_meters":10000,"station_id":"ce4bhah2rcd13ifvqei0","pricing_plan_id":"cebpf4jnsgd1na2vs0mg"},{"bike_id":"beb6189c-c21e-4836-b631-6b5c31a632d8","system_id":"levelo_inurba_marseille","lat":43.22561,"lon":5.41621,"is_reserved":false,"is_disabled":false,"rental_uris":{"android":"levelo://app?vid=beb6189c-c21e-4836-b631-6b5c31a632d8","ios":"levelo://app?vid=beb6189c-c21e-4836-b631-6b5c31a632d8"},"vehicle_type_id":"4","last_reported":1757833715,"current_range_meters":10000,"station_id":"st_d2o4gvlbi1j2169b742g","pricing_plan_id":"cebpf4jnsgd1na2vs0mg"},{"bike_id":"b68d3ec6-309a-49f8-95d8-f452d348bf7f","system_id":"levelo_inurba_marseille","lat":43.32352,"lon":5.38906,"is_reserved":false,"is_disabled":false,"rental_uris":{"android":"levelo://app?vid=b68d3ec6-309a-49f8-95d8-f452d348bf7f","ios":"levelo://app?vid=b68d3ec6-309a-49f8-95d8-f452d348bf7f"},"vehicle_type_id":"4","last_reported":1757833715,"current_range_meters":10000,"station_id":"ce4bhqp2rcd13ifvqhog","pricing_plan_id":"cebpf4jnsgd1na2vs0mg"},{"bike_id":"d5fe8587-d577-4927-9f03-bf5f1fa338f3","system_id":"levelo_inurba_marseille","lat":43.32576,"lon":5.376,"is_reserved":false,"is_disabled":false,"rental_uris":{"android":"levelo://app?vid=d5fe8587-d577-4927-9f03-bf5f1fa338f3","ios":"levelo://app?vid=d5fe8587-d577-4927-9f03-bf5f1fa338f3"},"vehicle_type_id":"4","last_reported":1757833715,"current_range_meters":10000,"station_id":"","pricing_plan_id":"cebpf4jnsgd1na2vs0mg"},{"bike_id":"84be000e-b186-4e60-8aaa-b7a0f42a7175","system_id":"levelo_inurba_marseille","lat":43.337616,"lon":5.374353,"is_reserved":false,"is_disabled":false,"rental_uris":{"android":"levelo://app?vid=84be000e-b186-4e60-8aaa-b7a0f42a7175","ios":"levelo://app?vid=84be000e-b186-4e60-8aaa-b7a0f42a7175"},"vehicle_type_id":"4","last_reported":1757833715,"current_range_meters":10000,"station_id":"","pricing_plan_id":"cebpf4jnsgd1na2vs0mg"},{"bike_id":"2a7bc07a-c148-4a25-b2c5-5233e29560f5","system_id":"levelo_inurba_marseille","lat":43.28603,"lon":5.37067,"is_reserved":false,"is_disabled":false,"rental_uris":{"android":"levelo://app?vid=2a7bc07a-c148-4a25-b2c5-5233e29560f5","ios":"levelo://app?vid=2a7bc07a-c148-4a25-b2c5-5233e29560f5"},"vehicle_type_id":"4","last_reported":1757833715,"current_range_meters":10000,"station_id":"ce4bht12rcd13ifvqi60","pricing_plan_id":"cebpf4jnsgd1na2vs0mg"},{"bike_id":"77882dd1-4c95-455c-b658-db43e266015a","system_id":"levelo_inurba_marseille","lat":43.3031,"lon":5.40439,"is_reserved":false,"is_disabled":false,"rental_uris":{"android":"levelo://app?vid=77882dd1-4c95-455c-b658-db43e266015a","ios":"levelo://app?vid=77882dd1-4c95-455c-b658-db43e266015a"},"vehicle_type_id":"4","last_reported":1757833715,"current_range_meters":10800,"station_id":"ce4bh012rcd13ifvqd10","pricing_plan_id":"cebpf4jnsgd1na2vs0mg"},{"bike_id":"f8ffd399-b74b-428b-b8c5-652d37f4b22c","system_id":"levelo_inurba_marseille","lat":43.24929,"lon":5.40496,"is_reserved":false,"is_disabled":false,"rental_uris":{"android":"levelo://app?vid=f8ffd399-b74b-428b-b8c5-652d37f4b22c","ios":"levelo://app?vid=f8ffd399-b74b-428b-b8c5-652d37f4b22c"},"vehicle_type_id":"4","last_reported":1757833715,"current_range_meters":10800,"station_id":"st_d2ngiaodas8pm72gd1h0","pricing_plan_id":"cebpf4jnsgd1na2vs0mg"},{"bike_id":"fae448af-2608-45a2-a21f-b99e4f33f0a2","system_id":"levelo_inurba_marseille","lat":43.24391,"lon":5.37077,"is_reserved":false,"is_disabled":false,"rental_uris":{"android":"levelo://app?vid=fae448af-2608-45a2-a21f-b99e4f33f0a2","ios":"levelo://app?vid=fae448af-2608-45a2-a21f-b99e4f33f0a2"},"vehicle_type_id":"4","last_reported":1757833715,"current_range_meters":10800,"station_id":"ce4bhhh2rcd13ifvqfk0","pricing_plan_id":"cebpf4jnsgd1na2vs0mg"},{"bike_id":"c3b4dccc-add5-40c4-a432-c4598a9e9b9e","system_id":"levelo_inurba_marseille","lat":43.296001,"lon":5.380963,"is_reserved":false,"is_disabled":false,"rental_uris":{"android":"levelo://app?vid=c3b4dccc-add5-40c4-a432-c4598a9e9b9e","ios":"levelo://app?vid=c3b4dccc-add5-40c4-a432-c4598a9e9b9e"},"vehicle_type_id":"4","last_reported":1757833715,"current_range_meters":10800,"station_id":"ce4bgl12rcd13ifvqbo0","pricing_plan_id":"cebpf4jnsgd1na2vs0mg"},{"bike_id":"6515536f-56de-4109-b7a1-24c742aed225","system_id":"levelo_inurba_marseille","lat":43.31997,"lon":5.37234,"is_reserved":false,"is_disabled":false,"rental_uris":{"android":"levelo://app?vid=6515536f-56de-4109-b7a1-24c742aed225","ios":"levelo://app?vid=6515536f-56de-4109-b7a1-24c742aed225"},"vehicle_type_id":"4","last_reported":1757833715,"current_range_meters":10800,"station_id":"","pricing_plan_id":"cebpf4jnsgd1na2vs0mg"},{"bike_id":"3510d789-ae1f-4c67-ae2b-5d51a86b5480","system_id":"levelo_inurba_marseille","lat":43.31111,"lon":5.37786,"is_reserved":false,"is_disabled":false,"rental_uris":{"android":"levelo://app?vid=3510d789-ae1f-4c67-ae2b-5d51a86b5480","ios":"levelo://app?vid=3510d789-ae1f-4c67-ae2b-5d51a86b5480"},"vehicle_type_id":"4","last_reported":1757833715,"current_range_meters":10800,"station_id":"ce4bgt92rcd13ifvqcg0","pricing_plan_id":"cebpf4jnsgd1na2vs0mg"},{"bike_id":"55d59e02-f5a5-4e1a-9360-556e842fa2a4","system_id":"levelo_inurba_marseille","lat":43.33764,"lon":5.37496,"is_reserved":false,"is_disabled":false,"rental_uris":{"android":"levelo://app?vid=55d59e02-f5a5-4e1a-9360-556e842fa2a4","ios":"levelo://app?vid=55d59e02-f5a5-4e1a-9360-556e842fa2a4"},"vehicle_type_id":"4","last_reported":1757833715,"current_range_meters":10800,"station_id":"","pricing_plan_id":"cebpf4jnsgd1na2vs0mg"},{"bike_id":"d9c11a94-d122-4240-b95b-24fdee8810ac","system_id":"levelo_inurba_marseille","lat":43.2827,"lon":5.39911,"is_reserved":false,"is_disabled":false,"rental_uris":{"android":"levelo://app?vid=d9c11a94-d122-4240-b95b-24fdee8810ac","ios":"levelo://app?vid=d9c11a94-d122-4240-b95b-24fdee8810ac"},"vehicle_type_id":"4","last_reported":1757833715,"current_range_meters":10800,"station_id":"","pricing_plan_id":"cebpf4jnsgd1na2vs0mg"},{"bike_id":"928c957f-17a5-42ee-a648-ab00c2b226ed","system_id":"levelo_inurba_marseille","lat":43.30159,"lon":5.38077,"is_reserved":false,"is_disabled":false,"rental_uris":{"android":"levelo://app?vid=928c957f-17a5-42ee-a648-ab00c2b226ed","ios":"levelo://app?vid=928c957f-17a5-42ee-a648-ab00c2b226ed"},"vehicle_type_id":"4","last_reported":1757833715,"current_range_meters":10800,"station_id":"ce4bgjp2rcd13ifvqbh0","pricing_plan_id":"cebpf4jnsgd1na2vs0mg"},{"bike_id":"02dbb44c-70e3-4a7a-b86e-6159cc35ba47","system_id":"levelo_inurba_marseille","lat":43.29587,"lon":5.38689,"is_reserved":false,"is_disabled":false,"rental_uris":{"android":"levelo://app?vid=02dbb44c-70e3-4a7a-b86e-6159cc35ba47","ios":"levelo://app?vid=02dbb44c-70e3-4a7a-b86e-6159cc35ba47"},"vehicle_type_id":"4","last_reported":1757833715,"current_range_meters":10800,"station_id":"ce4bgih2rcd13ifvqba0","pricing_plan_id":"cebpf4jnsgd1na2vs0mg"},{"bike_id":"f5b946ec-dacc-4a02-a208-2f8125926c56","system_id":"levelo_inurba_marseille","lat":43.266718,"lon":5.382558,"is_reserved":false,"is_disabled":false,"rental_uris":{"android":"levelo://app?vid=f5b946ec-dacc-4a02-a208-2f8125926c56","ios":"levelo://app?vid=f5b946ec-dacc-4a02-a208-2f8125926c56"},"vehicle_type_id":"4","last_reported":1757833715,"current_range_meters":10800,"station_id":"ce4bhg92rcd13ifvqf90","pricing_plan_id":"cebpf4jnsgd1na2vs0mg"},{"bike_id":"54756892-40fc-40da-862a-36f475f86070","system_id":"levelo_inurba_marseille","lat":43.29688,"lon":5.37166,"is_reserved":false,"is_disabled":false,"rental_uris":{"android":"levelo://app?vid=54756892-40fc-40da-862a-36f475f86070","ios":"levelo://app?vid=54756892-40fc-40da-862a-36f475f86070"},"vehicle_type_id":"4","last_reported":1757833715,"current_range_meters":10800,"station_id":"","pricing_plan_id":"cebpf4jnsgd1na2vs0mg"},{"bike_id":"57f09884-6448-4ba6-987b-468bdc1e4c8a","system_id":"levelo_inurba_marseille","lat":43.25088,"lon":5.39502,"is_reserved":false,"is_disabled":false,"rental_uris":{"android":"levelo://app?vid=57f09884-6448-4ba6-987b-468bdc1e4c8a","ios":"levelo://app?vid=57f09884-6448-4ba6-987b-468bdc1e4c8a"},"vehicle_type_id":"4","last_reported":1757833715,"current_range_meters":11200,"station_id":"ce4bhm12rcd13ifvqgkg","pricing_plan_id":"cebpf4jnsgd1na2vs0mg"},{"bike_id":"67a46200-96e7-4b1b-a046-4f776b681e7a","system_id":"levelo_inurba_marseille","lat":43.30255,"lon":5.37652,"is_reserved":false,"is_disabled":false,"rental_uris":{"android":"levelo://app?vid=67a46200-96e7-4b1b-a046-4f776b681e7a","ios":"levelo://app?vid=67a46200-96e7-4b1b-a046-4f776b681e7a"},"vehicle_type_id":"4","last_reported":1757833715,"current_range_meters":11200,"station_id":"","pricing_plan_id":"cebpf4jnsgd1na2vs0mg"},{"bike_id":"cd104b68-7370-4e88-ba9c-1edeee0f6c77","system_id":"levelo_inurba_marseille","lat":43.25236,"lon":5.4257,"is_reserved":false,"is_disabled":false,"rental_uris":{"android":"levelo://app?vid=cd104b68-7370-4e88-ba9c-1edeee0f6c77","ios":"levelo://app?vid=cd104b68-7370-4e88-ba9c-1edeee0f6c77"},"vehicle_type_id":"4","last_reported":1757833715,"current_range_meters":11200,"station_id":"","pricing_plan_id":"cebpf4jnsgd1na2vs0mg"},{"bike_id":"2f3eaba9-3f91-4a26-a414-0c3425ac3531","system_id":"levelo_inurba_marseille","lat":43.30139,"lon":5.39888,"is_reserved":false,"is_disabled":false,"rental_uris":{"android":"levelo://app?vid=2f3eaba9-3f91-4a26-a414-0c3425ac3531","ios":"levelo://app?vid=2f3eaba9-3f91-4a26-a414-0c3425ac3531"},"vehicle_type_id":"4","last_reported":1757833715,"current_range_meters":11200,"station_id":"ce4bh0h2rcd13ifvqd40","pricing_plan_id":"cebpf4jnsgd1na2vs0mg"},{"bike_id":"7e6f8834-af2a-4c33-8175-0cff373c8e02","system_id":"levelo_inurba_marseille","lat":43.28371,"lon":5.38642,"is_reserved":false,"is_disabled":true,"rental_uris":{"android":"levelo://app?vid=7e6f8834-af2a-4c33-8175-0cff373c8e02","ios":"levelo://app?vid=7e6f8834-af2a-4c33-8175-0cff373c8e02"},"vehicle_type_id":"4","last_reported":1757833715,"current_range_meters":11200,"station_id":"ce4bh492rcd13ifvqdvg","pricing_plan_id":"cebpf4jnsgd1na2vs0mg"},{"bike_id":"ee42c31a-b74b-4b2d-917a-cd50dc10c6ce","system_id":"levelo_inurba_marseille","lat":43.33062,"lon":5.39058,"is_reserved":false,"is_disabled":false,"rental_uris":{"android":"levelo://app?vid=ee42c31a-b74b-4b2d-917a-cd50dc10c6ce","ios":"levelo://app?vid=ee42c31a-b74b-4b2d-917a-cd50dc10c6ce"},"vehicle_type_id":"4","last_reported":1757833715,"current_range_meters":11200,"station_id":"ce4bhr92rcd13ifvqhrg","pricing_plan_id":"cebpf4jnsgd1na2vs0mg"},{"bike_id":"f4fe432a-fe46-448d-8752-16a22ddb59c8","system_id":"levelo_inurba_marseille","lat":43.25581,"lon":5.38238,"is_reserved":false,"is_disabled":false,"rental_uris":{"android":"levelo://app?vid=f4fe432a-fe46-448d-8752-16a22ddb59c8","ios":"levelo://app?vid=f4fe432a-fe46-448d-8752-16a22ddb59c8"},"vehicle_type_id":"4","last_reported":1757833715,"current_range_meters":10800,"station_id":"ce4bhih2rcd13ifvqfs0","pricing_plan_id":"cebpf4jnsgd1na2vs0mg"},{"bike_id":"31f4578e-18c6-48fb-9fec-123fce0578f9","system_id":"levelo_inurba_marseille","lat":43.337588,"lon":5.374405,"is_reserved":false,"is_disabled":false,"rental_uris":{"android":"levelo://app?vid=31f4578e-18c6-48fb-9fec-123fce0578f9","ios":"levelo://app?vid=31f4578e-18c6-48fb-9fec-123fce0578f9"},"vehicle_type_id":"4","last_reported":1757833715,"current_range_meters":11200,"station_id":"","pricing_plan_id":"cebpf4jnsgd1na2vs0mg"},{"bike_id":"40207740-3997-48f7-a3a9-b19ccf0a0c3b","system_id":"levelo_inurba_marseille","lat":43.30415,"lon":5.41283,"is_reserved":false,"is_disabled":false,"rental_uris":{"android":"levelo://app?vid=40207740-3997-48f7-a3a9-b19ccf0a0c3b","ios":"levelo://app?vid=40207740-3997-48f7-a3a9-b19ccf0a0c3b"},"vehicle_type_id":"4","last_reported":1757833715,"current_range_meters":11200,"station_id":"ce4bhop2rcd13ifvqh8g","pricing_plan_id":"cebpf4jnsgd1na2vs0mg"},{"bike_id":"31195751-bbc1-4ea5-8068-c21d8881b649","system_id":"levelo_inurba_marseille","lat":43.24089,"lon":5.3774,"is_reserved":false,"is_disabled":false,"rental_uris":{"android":"levelo://app?vid=31195751-bbc1-4ea5-8068-c21d8881b649","ios":"levelo://app?vid=31195751-bbc1-4ea5-8068-c21d8881b649"},"vehicle_type_id":"4","last_reported":1757833715,"current_range_meters":11600,"station_id":"ce4bhnp2rcd13ifvqgvg","pricing_plan_id":"cebpf4jnsgd1na2vs0mg"},{"bike_id":"e9ee13b6-cdb7-464a-b41c-3f407be862de","system_id":"levelo_inurba_marseille","lat":43.21757,"lon":5.34619,"is_reserved":false,"is_disabled":false,"rental_uris":{"android":"levelo://app?vid=e9ee13b6-cdb7-464a-b41c-3f407be862de","ios":"levelo://app?vid=e9ee13b6-cdb7-464a-b41c-3f407be862de"},"vehicle_type_id":"4","last_reported":1757833715,"current_range_meters":11600,"station_id":"st_cvj6r9ubvosntc0bgbag","pricing_plan_id":"cebpf4jnsgd1na2vs0mg"},{"bike_id":"b5e6492f-c6f6-4862-a7a2-5eb9440d5281","system_id":"levelo_inurba_marseille","lat":43.27996,"lon":5.39993,"is_reserved":false,"is_disabled":false,"rental_uris":{"android":"levelo://app?vid=b5e6492f-c6f6-4862-a7a2-5eb9440d5281","ios":"levelo://app?vid=b5e6492f-c6f6-4862-a7a2-5eb9440d5281"},"vehicle_type_id":"4","last_reported":1757833715,"current_range_meters":11600,"station_id":"ce4bho92rcd13ifvqh4g","pricing_plan_id":"cebpf4jnsgd1na2vs0mg"},{"bike_id":"085edb60-d839-48e0-b8de-631ca8722e6a","system_id":"levelo_inurba_marseille","lat":43.24076,"lon":5.3776,"is_reserved":false,"is_disabled":false,"rental_uris":{"android":"levelo://app?vid=085edb60-d839-48e0-b8de-631ca8722e6a","ios":"levelo://app?vid=085edb60-d839-48e0-b8de-631ca8722e6a"},"vehicle_type_id":"4","last_reported":1757833715,"current_range_meters":11600,"station_id":"ce4bhnp2rcd13ifvqgvg","pricing_plan_id":"cebpf4jnsgd1na2vs0mg"},{"bike_id":"f07d1a34-6972-4c1d-8ed8-100dd0fc1e78","system_id":"levelo_inurba_marseille","lat":43.32985,"lon":5.39052,"is_reserved":false,"is_disabled":false,"rental_uris":{"android":"levelo://app?vid=f07d1a34-6972-4c1d-8ed8-100dd0fc1e78","ios":"levelo://app?vid=f07d1a34-6972-4c1d-8ed8-100dd0fc1e78"},"vehicle_type_id":"4","last_reported":1757833715,"current_range_meters":11600,"station_id":"ce4bhr92rcd13ifvqhrg","pricing_plan_id":"cebpf4jnsgd1na2vs0mg"},{"bike_id":"b287ce9a-b527-4bfd-b13f-54fd5186ce32","system_id":"levelo_inurba_marseille","lat":43.2439,"lon":5.37058,"is_reserved":false,"is_disabled":false,"rental_uris":{"android":"levelo://app?vid=b287ce9a-b527-4bfd-b13f-54fd5186ce32","ios":"levelo://app?vid=b287ce9a-b527-4bfd-b13f-54fd5186ce32"},"vehicle_type_id":"4","last_reported":1757833715,"current_range_meters":11600,"station_id":"ce4bhhh2rcd13ifvqfk0","pricing_plan_id":"cebpf4jnsgd1na2vs0mg"},{"bike_id":"df41bfb5-751e-4d4d-9862-e3f77512c772","system_id":"levelo_inurba_marseille","lat":43.29558,"lon":5.42288,"is_reserved":false,"is_disabled":false,"rental_uris":{"android":"levelo://app?vid=df41bfb5-751e-4d4d-9862-e3f77512c772","ios":"levelo://app?vid=df41bfb5-751e-4d4d-9862-e3f77512c772"},"vehicle_type_id":"4","last_reported":1757833715,"current_range_meters":12000,"station_id":"ce4bhph2rcd13ifvqhdg","pricing_plan_id":"cebpf4jnsgd1na2vs0mg"},{"bike_id":"c86afea0-8a19-46b1-9ed7-c5ebf3e07efc","system_id":"levelo_inurba_marseille","lat":43.24351,"lon":5.37066,"is_reserved":false,"is_disabled":false,"rental_uris":{"android":"levelo://app?vid=c86afea0-8a19-46b1-9ed7-c5ebf3e07efc","ios":"levelo://app?vid=c86afea0-8a19-46b1-9ed7-c5ebf3e07efc"},"vehicle_type_id":"4","last_reported":1757833715,"current_range_meters":12000,"station_id":"ce4bhhh2rcd13ifvqfk0","pricing_plan_id":"cebpf4jnsgd1na2vs0mg"},{"bike_id":"5fe87731-1b8a-45b1-8589-883abc0509f6","system_id":"levelo_inurba_marseille","lat":43.29605,"lon":5.37723,"is_reserved":false,"is_disabled":false,"rental_uris":{"android":"levelo://app?vid=5fe87731-1b8a-45b1-8589-883abc0509f6","ios":"levelo://app?vid=5fe87731-1b8a-45b1-8589-883abc0509f6"},"vehicle_type_id":"4","last_reported":1757833715,"current_range_meters":12000,"station_id":"ce4bgi92rcd13ifvqb90","pricing_plan_id":"cebpf4jnsgd1na2vs0mg"},{"bike_id":"3edab8b5-08ab-4bd7-a8e3-46e14fec2b69","system_id":"levelo_inurba_marseille","lat":43.22563,"lon":5.41651,"is_reserved":false,"is_disabled":false,"rental_uris":{"android":"levelo://app?vid=3edab8b5-08ab-4bd7-a8e3-46e14fec2b69","ios":"levelo://app?vid=3edab8b5-08ab-4bd7-a8e3-46e14fec2b69"},"vehicle_type_id":"4","last_reported":1757833715,"current_range_meters":12000,"station_id":"st_d2o4gvlbi1j2169b742g","pricing_plan_id":"cebpf4jnsgd1na2vs0mg"},{"bike_id":"9613ee4d-bd84-40ec-a183-9abb4af6a1b6","system_id":"levelo_inurba_marseille","lat":43.32386,"lon":5.36758,"is_reserved":false,"is_disabled":false,"rental_uris":{"android":"levelo://app?vid=9613ee4d-bd84-40ec-a183-9abb4af6a1b6","ios":"levelo://app?vid=9613ee4d-bd84-40ec-a183-9abb4af6a1b6"},"vehicle_type_id":"4","last_reported":1757833715,"current_range_meters":12000,"station_id":"ce4bhsh2rcd13ifvqi2g","pricing_plan_id":"cebpf4jnsgd1na2vs0mg"},{"bike_id":"1fd0839a-5871-4f14-8b02-5a5126ced4cd","system_id":"levelo_inurba_marseille","lat":43.23186,"lon":5.40011,"is_reserved":false,"is_disabled":false,"rental_uris":{"android":"levelo://app?vid=1fd0839a-5871-4f14-8b02-5a5126ced4cd","ios":"levelo://app?vid=1fd0839a-5871-4f14-8b02-5a5126ced4cd"},"vehicle_type_id":"4","last_reported":1757833715,"current_range_meters":12000,"station_id":"ce4bhn12rcd13ifvqgqg","pricing_plan_id":"cebpf4jnsgd1na2vs0mg"},{"bike_id":"c5cba6d7-e282-4417-a818-5fc0802dcb08","system_id":"levelo_inurba_marseille","lat":43.33761,"lon":5.3745,"is_reserved":false,"is_disabled":false,"rental_uris":{"android":"levelo://app?vid=c5cba6d7-e282-4417-a818-5fc0802dcb08","ios":"levelo://app?vid=c5cba6d7-e282-4417-a818-5fc0802dcb08"},"vehicle_type_id":"4","last_reported":1757833715,"current_range_meters":12000,"station_id":"","pricing_plan_id":"cebpf4jnsgd1na2vs0mg"},{"bike_id":"139506cc-2351-41d9-b7e8-2e5bc5e67b4f","system_id":"levelo_inurba_marseille","lat":43.26228,"lon":5.40443,"is_reserved":false,"is_disabled":false,"rental_uris":{"android":"levelo://app?vid=139506cc-2351-41d9-b7e8-2e5bc5e67b4f","ios":"levelo://app?vid=139506cc-2351-41d9-b7e8-2e5bc5e67b4f"},"vehicle_type_id":"4","last_reported":1757833715,"current_range_meters":12000,"station_id":"ce4bhmh2rcd13ifvqgmg","pricing_plan_id":"cebpf4jnsgd1na2vs0mg"},{"bike_id":"7970a715-5b02-4b3d-8748-3f1c4b7d6148","system_id":"levelo_inurba_marseille","lat":43.30778,"lon":5.37643,"is_reserved":false,"is_disabled":false,"rental_uris":{"android":"levelo://app?vid=7970a715-5b02-4b3d-8748-3f1c4b7d6148","ios":"levelo://app?vid=7970a715-5b02-4b3d-8748-3f1c4b7d6148"},"vehicle_type_id":"4","last_reported":1757833715,"current_range_meters":12000,"station_id":"ce4bgv92rcd13ifvqcq0","pricing_plan_id":"cebpf4jnsgd1na2vs0mg"},{"bike_id":"085d1fc3-832e-4bb8-9dab-596c869e48fd","system_id":"levelo_inurba_marseille","lat":43.282125,"lon":5.390428,"is_reserved":false,"is_disabled":false,"rental_uris":{"android":"levelo://app?vid=085d1fc3-832e-4bb8-9dab-596c869e48fd","ios":"levelo://app?vid=085d1fc3-832e-4bb8-9dab-596c869e48fd"},"vehicle_type_id":"4","last_reported":1757833715,"current_range_meters":12400,"station_id":"ce4bhn92rcd13ifvqgsg","pricing_plan_id":"cebpf4jnsgd1na2vs0mg"},{"bike_id":"caf53f8c-1e9b-4db6-af55-60d37d7282d2","system_id":"levelo_inurba_marseille","lat":43.30599,"lon":5.39363,"is_reserved":false,"is_disabled":false,"rental_uris":{"android":"levelo://app?vid=caf53f8c-1e9b-4db6-af55-60d37d7282d2","ios":"levelo://app?vid=caf53f8c-1e9b-4db6-af55-60d37d7282d2"},"vehicle_type_id":"4","last_reported":1757833715,"current_range_meters":12400,"station_id":"ce4bh0p2rcd13ifvqd80","pricing_plan_id":"cebpf4jnsgd1na2vs0mg"},{"bike_id":"0418ed23-d4c6-49db-b310-d4f985bd3bc3","system_id":"levelo_inurba_marseille","lat":43.321149,"lon":5.367695,"is_reserved":false,"is_disabled":false,"rental_uris":{"android":"levelo://app?vid=0418ed23-d4c6-49db-b310-d4f985bd3bc3","ios":"levelo://app?vid=0418ed23-d4c6-49db-b310-d4f985bd3bc3"},"vehicle_type_id":"4","last_reported":1757833715,"current_range_meters":12400,"station_id":"ce4bhrh2rcd13ifvqhug","pricing_plan_id":"cebpf4jnsgd1na2vs0mg"},{"bike_id":"e7a329bd-ed66-4ac7-aaba-63f2810ddd86","system_id":"levelo_inurba_marseille","lat":43.31917,"lon":5.37203,"is_reserved":false,"is_disabled":false,"rental_uris":{"android":"levelo://app?vid=e7a329bd-ed66-4ac7-aaba-63f2810ddd86","ios":"levelo://app?vid=e7a329bd-ed66-4ac7-aaba-63f2810ddd86"},"vehicle_type_id":"4","last_reported":1757833715,"current_range_meters":12400,"station_id":"","pricing_plan_id":"cebpf4jnsgd1na2vs0mg"},{"bike_id":"16572620-16f0-40a6-8afc-79d0b1846f64","system_id":"levelo_inurba_marseille","lat":43.281528,"lon":5.426414,"is_reserved":false,"is_disabled":false,"rental_uris":{"android":"levelo://app?vid=16572620-16f0-40a6-8afc-79d0b1846f64","ios":"levelo://app?vid=16572620-16f0-40a6-8afc-79d0b1846f64"},"vehicle_type_id":"4","last_reported":1757833715,"current_range_meters":12400,"station_id":"ce4bhnh2rcd13ifvqgug","pricing_plan_id":"cebpf4jnsgd1na2vs0mg"},{"bike_id":"d16230ff-2955-426b-a6aa-84f8e2e13648","system_id":"levelo_inurba_marseille","lat":43.2889,"lon":5.42539,"is_reserved":false,"is_disabled":false,"rental_uris":{"android":"levelo://app?vid=d16230ff-2955-426b-a6aa-84f8e2e13648","ios":"levelo://app?vid=d16230ff-2955-426b-a6aa-84f8e2e13648"},"vehicle_type_id":"4","last_reported":1757833715,"current_range_meters":12400,"station_id":"","pricing_plan_id":"cebpf4jnsgd1na2vs0mg"},{"bike_id":"c682ef70-00bc-4415-9b10-9a35bd5ddcc1","system_id":"levelo_inurba_marseille","lat":43.27492,"lon":5.42444,"is_reserved":false,"is_disabled":false,"rental_uris":{"android":"levelo://app?vid=c682ef70-00bc-4415-9b10-9a35bd5ddcc1","ios":"levelo://app?vid=c682ef70-00bc-4415-9b10-9a35bd5ddcc1"},"vehicle_type_id":"4","last_reported":1757833715,"current_range_meters":12800,"station_id":"ce4bhn92rcd13ifvqgrg","pricing_plan_id":"cebpf4jnsgd1na2vs0mg"},{"bike_id":"1fa9cf8a-cbc2-4f66-a5af-49139eedcffa","system_id":"levelo_inurba_marseille","lat":43.31718,"lon":5.40484,"is_reserved":false,"is_disabled":false,"rental_uris":{"android":"levelo://app?vid=1fa9cf8a-cbc2-4f66-a5af-49139eedcffa","ios":"levelo://app?vid=1fa9cf8a-cbc2-4f66-a5af-49139eedcffa"},"vehicle_type_id":"4","last_reported":1757833715,"current_range_meters":12800,"station_id":"ce4bh012rcd13ifvqd00","pricing_plan_id":"cebpf4jnsgd1na2vs0mg"},{"bike_id":"96fe0828-14a5-48de-9d76-144a90217a1c","system_id":"levelo_inurba_marseille","lat":43.30121,"lon":5.37709,"is_reserved":false,"is_disabled":false,"rental_uris":{"android":"levelo://app?vid=96fe0828-14a5-48de-9d76-144a90217a1c","ios":"levelo://app?vid=96fe0828-14a5-48de-9d76-144a90217a1c"},"vehicle_type_id":"4","last_reported":1757833715,"current_range_meters":12800,"station_id":"ce4bguh2rcd13ifvqcj0","pricing_plan_id":"cebpf4jnsgd1na2vs0mg"},{"bike_id":"3bc338fd-b3c5-4caa-b6e6-3c70a52689ba","system_id":"levelo_inurba_marseille","lat":43.3162,"lon":5.38961,"is_reserved":false,"is_disabled":false,"rental_uris":{"android":"levelo://app?vid=3bc338fd-b3c5-4caa-b6e6-3c70a52689ba","ios":"levelo://app?vid=3bc338fd-b3c5-4caa-b6e6-3c70a52689ba"},"vehicle_type_id":"4","last_reported":1757833715,"current_range_meters":12800,"station_id":"","pricing_plan_id":"cebpf4jnsgd1na2vs0mg"},{"bike_id":"01a80de3-b347-4bc0-9dc1-cd2584ffc339","system_id":"levelo_inurba_marseille","lat":43.31995,"lon":5.38139,"is_reserved":false,"is_disabled":false,"rental_uris":{"android":"levelo://app?vid=01a80de3-b347-4bc0-9dc1-cd2584ffc339","ios":"levelo://app?vid=01a80de3-b347-4bc0-9dc1-cd2584ffc339"},"vehicle_type_id":"4","last_reported":1757833715,"current_range_meters":12800,"station_id":"ce4bhr12rcd13ifvqhpg","pricing_plan_id":"cebpf4jnsgd1na2vs0mg"},{"bike_id":"ffab450d-4c81-4d44-8256-678a72cf8297","system_id":"levelo_inurba_marseille","lat":43.31715,"lon":5.40474,"is_reserved":false,"is_disabled":false,"rental_uris":{"android":"levelo://app?vid=ffab450d-4c81-4d44-8256-678a72cf8297","ios":"levelo://app?vid=ffab450d-4c81-4d44-8256-678a72cf8297"},"vehicle_type_id":"4","last_reported":1757833715,"current_range_meters":13600,"station_id":"ce4bh012rcd13ifvqd00","pricing_plan_id":"cebpf4jnsgd1na2vs0mg"},{"bike_id":"76044b47-22ff-4054-b180-0d72b52b8bee","system_id":"levelo_inurba_marseille","lat":43.24633,"lon":5.4315,"is_reserved":false,"is_disabled":false,"rental_uris":{"android":"levelo://app?vid=76044b47-22ff-4054-b180-0d72b52b8bee","ios":"levelo://app?vid=76044b47-22ff-4054-b180-0d72b52b8bee"},"vehicle_type_id":"4","last_reported":1757833715,"current_range_meters":13600,"station_id":"st_d2m6c4gdas8pm72e190g","pricing_plan_id":"cebpf4jnsgd1na2vs0mg"},{"bike_id":"5b08033c-e596-407a-ada4-49eb3a516099","system_id":"levelo_inurba_marseille","lat":43.25826,"lon":5.39471,"is_reserved":false,"is_disabled":false,"rental_uris":{"android":"levelo://app?vid=5b08033c-e596-407a-ada4-49eb3a516099","ios":"levelo://app?vid=5b08033c-e596-407a-ada4-49eb3a516099"},"vehicle_type_id":"4","last_reported":1757833715,"current_range_meters":14000,"station_id":"ce4bhip2rcd13ifvqft0","pricing_plan_id":"cebpf4jnsgd1na2vs0mg"},{"bike_id":"8edfe76f-af25-4a21-a4d5-120dc07bd9f2","system_id":"levelo_inurba_marseille","lat":43.28679,"lon":5.36337,"is_reserved":false,"is_disabled":false,"rental_uris":{"android":"levelo://app?vid=8edfe76f-af25-4a21-a4d5-120dc07bd9f2","ios":"levelo://app?vid=8edfe76f-af25-4a21-a4d5-120dc07bd9f2"},"vehicle_type_id":"4","last_reported":1757833715,"current_range_meters":14000,"station_id":"ce4bhah2rcd13ifvqej0","pricing_plan_id":"cebpf4jnsgd1na2vs0mg"},{"bike_id":"0bbe3047-fb7e-4c9c-a92f-f8991d515662","system_id":"levelo_inurba_marseille","lat":43.27914,"lon":5.39593,"is_reserved":false,"is_disabled":false,"rental_uris":{"android":"levelo://app?vid=0bbe3047-fb7e-4c9c-a92f-f8991d515662","ios":"levelo://app?vid=0bbe3047-fb7e-4c9c-a92f-f8991d515662"},"vehicle_type_id":"4","last_reported":1757833715,"current_range_meters":14000,"station_id":"ce4bhf92rcd13ifvqf40","pricing_plan_id":"cebpf4jnsgd1na2vs0mg"},{"bike_id":"9a82a076-639f-4293-9983-5ad5f42712a6","system_id":"levelo_inurba_marseille","lat":43.31489,"lon":5.37279,"is_reserved":false,"is_disabled":false,"rental_uris":{"android":"levelo://app?vid=9a82a076-639f-4293-9983-5ad5f42712a6","ios":"levelo://app?vid=9a82a076-639f-4293-9983-5ad5f42712a6"},"vehicle_type_id":"4","last_reported":1757833715,"current_range_meters":14000,"station_id":"ce4bgt12rcd13ifvqcd0","pricing_plan_id":"cebpf4jnsgd1na2vs0mg"},{"bike_id":"95460cbd-17ab-4565-982a-640d24ee3c43","system_id":"levelo_inurba_marseille","lat":43.24816,"lon":5.37483,"is_reserved":false,"is_disabled":false,"rental_uris":{"android":"levelo://app?vid=95460cbd-17ab-4565-982a-640d24ee3c43","ios":"levelo://app?vid=95460cbd-17ab-4565-982a-640d24ee3c43"},"vehicle_type_id":"4","last_reported":1757833715,"current_range_meters":14000,"station_id":"ce4bhgh2rcd13ifvqfb0","pricing_plan_id":"cebpf4jnsgd1na2vs0mg"},{"bike_id":"c75bfa20-483b-42f7-8a25-5f10e08a57b0","system_id":"levelo_inurba_marseille","lat":43.3214,"lon":5.3687,"is_reserved":false,"is_disabled":false,"rental_uris":{"android":"levelo://app?vid=c75bfa20-483b-42f7-8a25-5f10e08a57b0","ios":"levelo://app?vid=c75bfa20-483b-42f7-8a25-5f10e08a57b0"},"vehicle_type_id":"4","last_reported":1757833715,"current_range_meters":14000,"station_id":"","pricing_plan_id":"cebpf4jnsgd1na2vs0mg"},{"bike_id":"9b510e25-b2cd-4bdf-b477-cbed4b4de462","system_id":"levelo_inurba_marseille","lat":43.25104,"lon":5.40336,"is_reserved":false,"is_disabled":false,"rental_uris":{"android":"levelo://app?vid=9b510e25-b2cd-4bdf-b477-cbed4b4de462","ios":"levelo://app?vid=9b510e25-b2cd-4bdf-b477-cbed4b4de462"},"vehicle_type_id":"4","last_reported":1757833715,"current_range_meters":14400,"station_id":"ce4bhlh2rcd13ifvqgig","pricing_plan_id":"cebpf4jnsgd1na2vs0mg"},{"bike_id":"f9a413fc-abd0-4826-90ca-b410eb105b79","system_id":"levelo_inurba_marseille","lat":43.304672,"lon":5.379122,"is_reserved":false,"is_disabled":false,"rental_uris":{"android":"levelo://app?vid=f9a413fc-abd0-4826-90ca-b410eb105b79","ios":"levelo://app?vid=f9a413fc-abd0-4826-90ca-b410eb105b79"},"vehicle_type_id":"4","last_reported":1757833715,"current_range_meters":14000,"station_id":"ce4bgup2rcd13ifvqcn0","pricing_plan_id":"cebpf4jnsgd1na2vs0mg"},{"bike_id":"5476d906-b0c2-4d37-81e0-6fc56d7abe48","system_id":"levelo_inurba_marseille","lat":43.31723,"lon":5.37669,"is_reserved":false,"is_disabled":false,"rental_uris":{"android":"levelo://app?vid=5476d906-b0c2-4d37-81e0-6fc56d7abe48","ios":"levelo://app?vid=5476d906-b0c2-4d37-81e0-6fc56d7abe48"},"vehicle_type_id":"4","last_reported":1757833715,"current_range_meters":14400,"station_id":"","pricing_plan_id":"cebpf4jnsgd1na2vs0mg"},{"bike_id":"5a67a5ef-a36f-43e9-84a2-5d4a28ced83e","system_id":"levelo_inurba_marseille","lat":43.292996,"lon":5.37458,"is_reserved":false,"is_disabled":false,"rental_uris":{"android":"levelo://app?vid=5a67a5ef-a36f-43e9-84a2-5d4a28ced83e","ios":"levelo://app?vid=5a67a5ef-a36f-43e9-84a2-5d4a28ced83e"},"vehicle_type_id":"4","last_reported":1757833715,"current_range_meters":14400,"station_id":"ce4bgi12rcd13ifvqb70","pricing_plan_id":"cebpf4jnsgd1na2vs0mg"},{"bike_id":"ad692218-e8f6-4ef9-85c2-0d7631a20b6d","system_id":"levelo_inurba_marseille","lat":43.24955,"lon":5.40509,"is_reserved":false,"is_disabled":false,"rental_uris":{"android":"levelo://app?vid=ad692218-e8f6-4ef9-85c2-0d7631a20b6d","ios":"levelo://app?vid=ad692218-e8f6-4ef9-85c2-0d7631a20b6d"},"vehicle_type_id":"4","last_reported":1757833715,"current_range_meters":14800,"station_id":"st_d2ngiaodas8pm72gd1h0","pricing_plan_id":"cebpf4jnsgd1na2vs0mg"},{"bike_id":"0db1212c-b38c-47f5-8e41-37749d8fc729","system_id":"levelo_inurba_marseille","lat":43.2899,"lon":5.38665,"is_reserved":false,"is_disabled":false,"rental_uris":{"android":"levelo://app?vid=0db1212c-b38c-47f5-8e41-37749d8fc729","ios":"levelo://app?vid=0db1212c-b38c-47f5-8e41-37749d8fc729"},"vehicle_type_id":"4","last_reported":1757833715,"current_range_meters":14800,"station_id":"","pricing_plan_id":"cebpf4jnsgd1na2vs0mg"},{"bike_id":"b404de30-d322-4500-841b-ba6ec39653f0","system_id":"levelo_inurba_marseille","lat":43.26562,"lon":5.37293,"is_reserved":false,"is_disabled":false,"rental_uris":{"android":"levelo://app?vid=b404de30-d322-4500-841b-ba6ec39653f0","ios":"levelo://app?vid=b404de30-d322-4500-841b-ba6ec39653f0"},"vehicle_type_id":"4","last_reported":1757833715,"current_range_meters":14800,"station_id":"ce4bhg12rcd13ifvqf70","pricing_plan_id":"cebpf4jnsgd1na2vs0mg"},{"bike_id":"13e5e90e-2e60-4df6-89b4-53ab89874a0b","system_id":"levelo_inurba_marseille","lat":43.23197,"lon":5.35555,"is_reserved":false,"is_disabled":false,"rental_uris":{"android":"levelo://app?vid=13e5e90e-2e60-4df6-89b4-53ab89874a0b","ios":"levelo://app?vid=13e5e90e-2e60-4df6-89b4-53ab89874a0b"},"vehicle_type_id":"4","last_reported":1757833715,"current_range_meters":14800,"station_id":"ce4bhu92rcd13ifvqi70","pricing_plan_id":"cebpf4jnsgd1na2vs0mg"},{"bike_id":"8531afdb-32d4-4c53-8b7d-1730982d0eec","system_id":"levelo_inurba_marseille","lat":43.21751,"lon":5.34594,"is_reserved":false,"is_disabled":false,"rental_uris":{"android":"levelo://app?vid=8531afdb-32d4-4c53-8b7d-1730982d0eec","ios":"levelo://app?vid=8531afdb-32d4-4c53-8b7d-1730982d0eec"},"vehicle_type_id":"4","last_reported":1757833715,"current_range_meters":15200,"station_id":"st_cvj6r9ubvosntc0bgbag","pricing_plan_id":"cebpf4jnsgd1na2vs0mg"},{"bike_id":"2500752c-16d5-4447-b628-690ad7fdd253","system_id":"levelo_inurba_marseille","lat":43.21732,"lon":5.34616,"is_reserved":false,"is_disabled":false,"rental_uris":{"android":"levelo://app?vid=2500752c-16d5-4447-b628-690ad7fdd253","ios":"levelo://app?vid=2500752c-16d5-4447-b628-690ad7fdd253"},"vehicle_type_id":"4","last_reported":1757833715,"current_range_meters":15200,"station_id":"st_cvj6r9ubvosntc0bgbag","pricing_plan_id":"cebpf4jnsgd1na2vs0mg"},{"bike_id":"85db8ab9-6b24-4c23-8762-109e948df9cd","system_id":"levelo_inurba_marseille","lat":43.255157,"lon":5.409391,"is_reserved":false,"is_disabled":false,"rental_uris":{"android":"levelo://app?vid=85db8ab9-6b24-4c23-8762-109e948df9cd","ios":"levelo://app?vid=85db8ab9-6b24-4c23-8762-109e948df9cd"},"vehicle_type_id":"4","last_reported":1757833715,"current_range_meters":15200,"station_id":"","pricing_plan_id":"cebpf4jnsgd1na2vs0mg"},{"bike_id":"d579cc07-d434-46af-b565-a505c0c022ce","system_id":"levelo_inurba_marseille","lat":43.311191,"lon":5.377788,"is_reserved":false,"is_disabled":false,"rental_uris":{"android":"levelo://app?vid=d579cc07-d434-46af-b565-a505c0c022ce","ios":"levelo://app?vid=d579cc07-d434-46af-b565-a505c0c022ce"},"vehicle_type_id":"4","last_reported":1757833715,"current_range_meters":15200,"station_id":"ce4bgt92rcd13ifvqcg0","pricing_plan_id":"cebpf4jnsgd1na2vs0mg"},{"bike_id":"9430a623-3080-4769-93cf-337c04d6e75f","system_id":"levelo_inurba_marseille","lat":43.28701,"lon":5.39996,"is_reserved":false,"is_disabled":false,"rental_uris":{"android":"levelo://app?vid=9430a623-3080-4769-93cf-337c04d6e75f","ios":"levelo://app?vid=9430a623-3080-4769-93cf-337c04d6e75f"},"vehicle_type_id":"4","last_reported":1757833715,"current_range_meters":15200,"station_id":"ce4bho92rcd13ifvqh3g","pricing_plan_id":"cebpf4jnsgd1na2vs0mg"},{"bike_id":"8ab60a89-bd14-40d7-b359-020ea126cfef","system_id":"levelo_inurba_marseille","lat":43.32368,"lon":5.3676,"is_reserved":false,"is_disabled":false,"rental_uris":{"android":"levelo://app?vid=8ab60a89-bd14-40d7-b359-020ea126cfef","ios":"levelo://app?vid=8ab60a89-bd14-40d7-b359-020ea126cfef"},"vehicle_type_id":"4","last_reported":1757833715,"current_range_meters":15200,"station_id":"","pricing_plan_id":"cebpf4jnsgd1na2vs0mg"},{"bike_id":"d0a1739a-c22f-4203-9f71-a089f4b367e4","system_id":"levelo_inurba_marseille","lat":43.32013,"lon":5.38121,"is_reserved":false,"is_disabled":true,"rental_uris":{"android":"levelo://app?vid=d0a1739a-c22f-4203-9f71-a089f4b367e4","ios":"levelo://app?vid=d0a1739a-c22f-4203-9f71-a089f4b367e4"},"vehicle_type_id":"4","last_reported":1757833715,"current_range_meters":16000,"station_id":"ce4bhr12rcd13ifvqhpg","pricing_plan_id":"cebpf4jnsgd1na2vs0mg"},{"bike_id":"d9c4202c-de13-4428-8c40-40d90faf1618","system_id":"levelo_inurba_marseille","lat":43.31356,"lon":5.3707,"is_reserved":false,"is_disabled":false,"rental_uris":{"android":"levelo://app?vid=d9c4202c-de13-4428-8c40-40d90faf1618","ios":"levelo://app?vid=d9c4202c-de13-4428-8c40-40d90faf1618"},"vehicle_type_id":"4","last_reported":1757833715,"current_range_meters":16000,"station_id":"","pricing_plan_id":"cebpf4jnsgd1na2vs0mg"},{"bike_id":"4d6e6605-7f16-44fa-a19a-c138ee7cb360","system_id":"levelo_inurba_marseille","lat":43.33799,"lon":5.37446,"is_reserved":false,"is_disabled":false,"rental_uris":{"android":"levelo://app?vid=4d6e6605-7f16-44fa-a19a-c138ee7cb360","ios":"levelo://app?vid=4d6e6605-7f16-44fa-a19a-c138ee7cb360"},"vehicle_type_id":"4","last_reported":1757833715,"current_range_meters":16000,"station_id":"","pricing_plan_id":"cebpf4jnsgd1na2vs0mg"},{"bike_id":"8e3a9e83-812e-4b5d-8c7b-5119699e81be","system_id":"levelo_inurba_marseille","lat":43.31578,"lon":5.40591,"is_reserved":false,"is_disabled":false,"rental_uris":{"android":"levelo://app?vid=8e3a9e83-812e-4b5d-8c7b-5119699e81be","ios":"levelo://app?vid=8e3a9e83-812e-4b5d-8c7b-5119699e81be"},"vehicle_type_id":"4","last_reported":1757833715,"current_range_meters":16000,"station_id":"","pricing_plan_id":"cebpf4jnsgd1na2vs0mg"},{"bike_id":"ef94e107-b5fd-44f7-a023-fb0854a2be56","system_id":"levelo_inurba_marseille","lat":43.28625,"lon":5.3512,"is_reserved":false,"is_disabled":false,"rental_uris":{"android":"levelo://app?vid=ef94e107-b5fd-44f7-a023-fb0854a2be56","ios":"levelo://app?vid=ef94e107-b5fd-44f7-a023-fb0854a2be56"},"vehicle_type_id":"4","last_reported":1757833715,"current_range_meters":16000,"station_id":"ce4bhch2rcd13ifvqeug","pricing_plan_id":"cebpf4jnsgd1na2vs0mg"},{"bike_id":"d1ad9e74-b19f-4662-8f79-c32c6974f30e","system_id":"levelo_inurba_marseille","lat":43.33601,"lon":5.4101,"is_reserved":false,"is_disabled":false,"rental_uris":{"android":"levelo://app?vid=d1ad9e74-b19f-4662-8f79-c32c6974f30e","ios":"levelo://app?vid=d1ad9e74-b19f-4662-8f79-c32c6974f30e"},"vehicle_type_id":"4","last_reported":1757833715,"current_range_meters":16000,"station_id":"ce4bhqh2rcd13ifvqhmg","pricing_plan_id":"cebpf4jnsgd1na2vs0mg"},{"bike_id":"c02c8a2c-8146-4676-a4b6-4f6f8645f6c0","system_id":"levelo_inurba_marseille","lat":43.28708,"lon":5.39941,"is_reserved":false,"is_disabled":false,"rental_uris":{"android":"levelo://app?vid=c02c8a2c-8146-4676-a4b6-4f6f8645f6c0","ios":"levelo://app?vid=c02c8a2c-8146-4676-a4b6-4f6f8645f6c0"},"vehicle_type_id":"4","last_reported":1757833715,"current_range_meters":16000,"station_id":"ce4bho92rcd13ifvqh3g","pricing_plan_id":"cebpf4jnsgd1na2vs0mg"},{"bike_id":"fe15a549-1ad3-4f28-a028-5a06d9fb4748","system_id":"levelo_inurba_marseille","lat":43.2799,"lon":5.41669,"is_reserved":false,"is_disabled":false,"rental_uris":{"android":"levelo://app?vid=fe15a549-1ad3-4f28-a028-5a06d9fb4748","ios":"levelo://app?vid=fe15a549-1ad3-4f28-a028-5a06d9fb4748"},"vehicle_type_id":"4","last_reported":1757833715,"current_range_meters":16400,"station_id":"ce4bho12rcd13ifvqh1g","pricing_plan_id":"cebpf4jnsgd1na2vs0mg"},{"bike_id":"1f397755-19fc-4a35-90c0-d44ee03af488","system_id":"levelo_inurba_marseille","lat":43.26557,"lon":5.37288,"is_reserved":false,"is_disabled":false,"rental_uris":{"android":"levelo://app?vid=1f397755-19fc-4a35-90c0-d44ee03af488","ios":"levelo://app?vid=1f397755-19fc-4a35-90c0-d44ee03af488"},"vehicle_type_id":"4","last_reported":1757833715,"current_range_meters":16400,"station_id":"ce4bhg12rcd13ifvqf70","pricing_plan_id":"cebpf4jnsgd1na2vs0mg"},{"bike_id":"d1731a83-7a7c-4d3c-860c-4905c89713d6","system_id":"levelo_inurba_marseille","lat":43.28856,"lon":5.35873,"is_reserved":false,"is_disabled":false,"rental_uris":{"android":"levelo://app?vid=d1731a83-7a7c-4d3c-860c-4905c89713d6","ios":"levelo://app?vid=d1731a83-7a7c-4d3c-860c-4905c89713d6"},"vehicle_type_id":"4","last_reported":1757833715,"current_range_meters":16400,"station_id":"ce4bhb12rcd13ifvqem0","pricing_plan_id":"cebpf4jnsgd1na2vs0mg"},{"bike_id":"e06d2e94-3ae2-4b4b-9d7e-05d3f806365a","system_id":"levelo_inurba_marseille","lat":43.25827,"lon":5.39426,"is_reserved":false,"is_disabled":false,"rental_uris":{"android":"levelo://app?vid=e06d2e94-3ae2-4b4b-9d7e-05d3f806365a","ios":"levelo://app?vid=e06d2e94-3ae2-4b4b-9d7e-05d3f806365a"},"vehicle_type_id":"4","last_reported":1757833715,"current_range_meters":16400,"station_id":"ce4bhip2rcd13ifvqft0","pricing_plan_id":"cebpf4jnsgd1na2vs0mg"},{"bike_id":"f75319f4-d3a6-440f-9c89-5af7f4acd041","system_id":"levelo_inurba_marseille","lat":43.22559,"lon":5.41628,"is_reserved":false,"is_disabled":false,"rental_uris":{"android":"levelo://app?vid=f75319f4-d3a6-440f-9c89-5af7f4acd041","ios":"levelo://app?vid=f75319f4-d3a6-440f-9c89-5af7f4acd041"},"vehicle_type_id":"4","last_reported":1757833715,"current_range_meters":16800,"station_id":"st_d2o4gvlbi1j2169b742g","pricing_plan_id":"cebpf4jnsgd1na2vs0mg"},{"bike_id":"c79f98a5-b132-4d8b-b050-5e48074dc6fe","system_id":"levelo_inurba_marseille","lat":43.31695,"lon":5.40474,"is_reserved":false,"is_disabled":false,"rental_uris":{"android":"levelo://app?vid=c79f98a5-b132-4d8b-b050-5e48074dc6fe","ios":"levelo://app?vid=c79f98a5-b132-4d8b-b050-5e48074dc6fe"},"vehicle_type_id":"4","last_reported":1757833715,"current_range_meters":16800,"station_id":"ce4bh012rcd13ifvqd00","pricing_plan_id":"cebpf4jnsgd1na2vs0mg"},{"bike_id":"6709a939-6666-49a9-9a64-2085ae5300c6","system_id":"levelo_inurba_marseille","lat":43.28192,"lon":5.39035,"is_reserved":false,"is_disabled":false,"rental_uris":{"android":"levelo://app?vid=6709a939-6666-49a9-9a64-2085ae5300c6","ios":"levelo://app?vid=6709a939-6666-49a9-9a64-2085ae5300c6"},"vehicle_type_id":"4","last_reported":1757833715,"current_range_meters":16800,"station_id":"ce4bhn92rcd13ifvqgsg","pricing_plan_id":"cebpf4jnsgd1na2vs0mg"},{"bike_id":"16ef31c1-2e5b-4605-8b2a-c02c4f7600b2","system_id":"levelo_inurba_marseille","lat":43.24178,"lon":5.39737,"is_reserved":false,"is_disabled":false,"rental_uris":{"android":"levelo://app?vid=16ef31c1-2e5b-4605-8b2a-c02c4f7600b2","ios":"levelo://app?vid=16ef31c1-2e5b-4605-8b2a-c02c4f7600b2"},"vehicle_type_id":"4","last_reported":1757833715,"current_range_meters":16800,"station_id":"ce4bhn12rcd13ifvqgpg","pricing_plan_id":"cebpf4jnsgd1na2vs0mg"},{"bike_id":"192659f7-4223-444d-8ff2-c405098492e5","system_id":"levelo_inurba_marseille","lat":43.33611,"lon":5.41009,"is_reserved":false,"is_disabled":false,"rental_uris":{"android":"levelo://app?vid=192659f7-4223-444d-8ff2-c405098492e5","ios":"levelo://app?vid=192659f7-4223-444d-8ff2-c405098492e5"},"vehicle_type_id":"4","last_reported":1757833715,"current_range_meters":17200,"station_id":"ce4bhqh2rcd13ifvqhmg","pricing_plan_id":"cebpf4jnsgd1na2vs0mg"},{"bike_id":"b002a392-08fa-4b2e-b212-3e002cd96c5d","system_id":"levelo_inurba_marseille","lat":43.23971,"lon":5.36631,"is_reserved":false,"is_disabled":false,"rental_uris":{"android":"levelo://app?vid=b002a392-08fa-4b2e-b212-3e002cd96c5d","ios":"levelo://app?vid=b002a392-08fa-4b2e-b212-3e002cd96c5d"},"vehicle_type_id":"4","last_reported":1757833715,"current_range_meters":17200,"station_id":"ce4bhi12rcd13ifvqfp0","pricing_plan_id":"cebpf4jnsgd1na2vs0mg"},{"bike_id":"b6e71227-cf24-477c-a6b4-dcaf891c7903","system_id":"levelo_inurba_marseille","lat":43.25586,"lon":5.38255,"is_reserved":false,"is_disabled":false,"rental_uris":{"android":"levelo://app?vid=b6e71227-cf24-477c-a6b4-dcaf891c7903","ios":"levelo://app?vid=b6e71227-cf24-477c-a6b4-dcaf891c7903"},"vehicle_type_id":"4","last_reported":1757833715,"current_range_meters":17200,"station_id":"ce4bhih2rcd13ifvqfs0","pricing_plan_id":"cebpf4jnsgd1na2vs0mg"},{"bike_id":"14e2496b-54f5-4a71-8a7b-f668d23f2674","system_id":"levelo_inurba_marseille","lat":43.25715,"lon":5.41113,"is_reserved":false,"is_disabled":false,"rental_uris":{"android":"levelo://app?vid=14e2496b-54f5-4a71-8a7b-f668d23f2674","ios":"levelo://app?vid=14e2496b-54f5-4a71-8a7b-f668d23f2674"},"vehicle_type_id":"4","last_reported":1757833715,"current_range_meters":17200,"station_id":"ce4bhkp2rcd13ifvqgd0","pricing_plan_id":"cebpf4jnsgd1na2vs0mg"},{"bike_id":"d9a7c4bd-53f2-4cde-a7f4-552208dff846","system_id":"levelo_inurba_marseille","lat":43.25095,"lon":5.3953,"is_reserved":false,"is_disabled":false,"rental_uris":{"android":"levelo://app?vid=d9a7c4bd-53f2-4cde-a7f4-552208dff846","ios":"levelo://app?vid=d9a7c4bd-53f2-4cde-a7f4-552208dff846"},"vehicle_type_id":"4","last_reported":1757833715,"current_range_meters":17200,"station_id":"ce4bhm12rcd13ifvqgkg","pricing_plan_id":"cebpf4jnsgd1na2vs0mg"},{"bike_id":"871fd36f-5ca0-4520-b423-0e9255c62bfb","system_id":"levelo_inurba_marseille","lat":43.26204,"lon":5.37933,"is_reserved":false,"is_disabled":false,"rental_uris":{"android":"levelo://app?vid=871fd36f-5ca0-4520-b423-0e9255c62bfb","ios":"levelo://app?vid=871fd36f-5ca0-4520-b423-0e9255c62bfb"},"vehicle_type_id":"4","last_reported":1757833715,"current_range_meters":16800,"station_id":"ce4bhjp2rcd13ifvqg90","pricing_plan_id":"cebpf4jnsgd1na2vs0mg"},{"bike_id":"3a30db7b-d1eb-42d4-9449-c377bfd998a0","system_id":"levelo_inurba_marseille","lat":43.31765,"lon":5.39011,"is_reserved":false,"is_disabled":false,"rental_uris":{"android":"levelo://app?vid=3a30db7b-d1eb-42d4-9449-c377bfd998a0","ios":"levelo://app?vid=3a30db7b-d1eb-42d4-9449-c377bfd998a0"},"vehicle_type_id":"4","last_reported":1757833715,"current_range_meters":17200,"station_id":"ce4bhqp2rcd13ifvqhng","pricing_plan_id":"cebpf4jnsgd1na2vs0mg"},{"bike_id":"2285a77d-e572-43a6-a219-f35b836d0546","system_id":"levelo_inurba_marseille","lat":43.28609,"lon":5.37079,"is_reserved":false,"is_disabled":false,"rental_uris":{"android":"levelo://app?vid=2285a77d-e572-43a6-a219-f35b836d0546","ios":"levelo://app?vid=2285a77d-e572-43a6-a219-f35b836d0546"},"vehicle_type_id":"4","last_reported":1757833715,"current_range_meters":17200,"station_id":"ce4bht12rcd13ifvqi60","pricing_plan_id":"cebpf4jnsgd1na2vs0mg"},{"bike_id":"4abcfd1f-d5ba-40bf-8216-a47803a52e59","system_id":"levelo_inurba_marseille","lat":43.24631,"lon":5.43154,"is_reserved":false,"is_disabled":false,"rental_uris":{"android":"levelo://app?vid=4abcfd1f-d5ba-40bf-8216-a47803a52e59","ios":"levelo://app?vid=4abcfd1f-d5ba-40bf-8216-a47803a52e59"},"vehicle_type_id":"4","last_reported":1757833715,"current_range_meters":17200,"station_id":"st_d2m6c4gdas8pm72e190g","pricing_plan_id":"cebpf4jnsgd1na2vs0mg"},{"bike_id":"f03fb3dd-c685-48e8-8854-b35b25816b04","system_id":"levelo_inurba_marseille","lat":43.21746,"lon":5.34604,"is_reserved":false,"is_disabled":false,"rental_uris":{"android":"levelo://app?vid=f03fb3dd-c685-48e8-8854-b35b25816b04","ios":"levelo://app?vid=f03fb3dd-c685-48e8-8854-b35b25816b04"},"vehicle_type_id":"4","last_reported":1757833715,"current_range_meters":17200,"station_id":"st_cvj6r9ubvosntc0bgbag","pricing_plan_id":"cebpf4jnsgd1na2vs0mg"},{"bike_id":"950a5f0c-6122-4d8d-a42b-4763023d14f2","system_id":"levelo_inurba_marseille","lat":43.25479,"lon":5.37653,"is_reserved":false,"is_disabled":true,"rental_uris":{"android":"levelo://app?vid=950a5f0c-6122-4d8d-a42b-4763023d14f2","ios":"levelo://app?vid=950a5f0c-6122-4d8d-a42b-4763023d14f2"},"vehicle_type_id":"4","last_reported":1757833715,"current_range_meters":17600,"station_id":"ce4bhh12rcd13ifvqff0","pricing_plan_id":"cebpf4jnsgd1na2vs0mg"},{"bike_id":"15c12f1b-150c-43be-9134-ac05fb9a1bef","system_id":"levelo_inurba_marseille","lat":43.29108,"lon":5.3717,"is_reserved":false,"is_disabled":true,"rental_uris":{"android":"levelo://app?vid=15c12f1b-150c-43be-9134-ac05fb9a1bef","ios":"levelo://app?vid=15c12f1b-150c-43be-9134-ac05fb9a1bef"},"vehicle_type_id":"4","last_reported":1757833715,"current_range_meters":17600,"station_id":"ce4bh5p2rcd13ifvqe4g","pricing_plan_id":"cebpf4jnsgd1na2vs0mg"},{"bike_id":"fc59cc99-c778-4d76-aabe-1a633232d6bf","system_id":"levelo_inurba_marseille","lat":43.24075,"lon":5.37766,"is_reserved":false,"is_disabled":false,"rental_uris":{"android":"levelo://app?vid=fc59cc99-c778-4d76-aabe-1a633232d6bf","ios":"levelo://app?vid=fc59cc99-c778-4d76-aabe-1a633232d6bf"},"vehicle_type_id":"4","last_reported":1757833715,"current_range_meters":17600,"station_id":"ce4bhnp2rcd13ifvqgvg","pricing_plan_id":"cebpf4jnsgd1na2vs0mg"},{"bike_id":"5a99ee1e-45f4-4641-890f-b103493481c0","system_id":"levelo_inurba_marseille","lat":43.31695,"lon":5.40478,"is_reserved":false,"is_disabled":false,"rental_uris":{"android":"levelo://app?vid=5a99ee1e-45f4-4641-890f-b103493481c0","ios":"levelo://app?vid=5a99ee1e-45f4-4641-890f-b103493481c0"},"vehicle_type_id":"4","last_reported":1757833715,"current_range_meters":17600,"station_id":"ce4bh012rcd13ifvqd00","pricing_plan_id":"cebpf4jnsgd1na2vs0mg"},{"bike_id":"d218c5c8-561a-4a42-b2aa-19b6c9da74fb","system_id":"levelo_inurba_marseille","lat":43.316978,"lon":5.404788,"is_reserved":false,"is_disabled":false,"rental_uris":{"android":"levelo://app?vid=d218c5c8-561a-4a42-b2aa-19b6c9da74fb","ios":"levelo://app?vid=d218c5c8-561a-4a42-b2aa-19b6c9da74fb"},"vehicle_type_id":"4","last_reported":1757833715,"current_range_meters":17600,"station_id":"ce4bh012rcd13ifvqd00","pricing_plan_id":"cebpf4jnsgd1na2vs0mg"},{"bike_id":"31e88e14-dfaa-4825-a2f3-eacc5e0dfd5a","system_id":"levelo_inurba_marseille","lat":43.24634,"lon":5.43149,"is_reserved":false,"is_disabled":false,"rental_uris":{"android":"levelo://app?vid=31e88e14-dfaa-4825-a2f3-eacc5e0dfd5a","ios":"levelo://app?vid=31e88e14-dfaa-4825-a2f3-eacc5e0dfd5a"},"vehicle_type_id":"4","last_reported":1757833715,"current_range_meters":17600,"station_id":"st_d2m6c4gdas8pm72e190g","pricing_plan_id":"cebpf4jnsgd1na2vs0mg"},{"bike_id":"d4872768-29b4-4a0c-af32-7e886d10eff6","system_id":"levelo_inurba_marseille","lat":43.32349,"lon":5.40623,"is_reserved":false,"is_disabled":false,"rental_uris":{"android":"levelo://app?vid=d4872768-29b4-4a0c-af32-7e886d10eff6","ios":"levelo://app?vid=d4872768-29b4-4a0c-af32-7e886d10eff6"},"vehicle_type_id":"4","last_reported":1757833715,"current_range_meters":17600,"station_id":"ce4bhq92rcd13ifvqhjg","pricing_plan_id":"cebpf4jnsgd1na2vs0mg"},{"bike_id":"e54a1e7f-72fe-4f72-999a-0b938621ab02","system_id":"levelo_inurba_marseille","lat":43.23155,"lon":5.43689,"is_reserved":false,"is_disabled":false,"rental_uris":{"android":"levelo://app?vid=e54a1e7f-72fe-4f72-999a-0b938621ab02","ios":"levelo://app?vid=e54a1e7f-72fe-4f72-999a-0b938621ab02"},"vehicle_type_id":"4","last_reported":1757833715,"current_range_meters":17600,"station_id":"ce4bhmp2rcd13ifvqgog","pricing_plan_id":"cebpf4jnsgd1na2vs0mg"},{"bike_id":"3970b1ae-b9ce-4046-bb45-e207423d2c07","system_id":"levelo_inurba_marseille","lat":43.24807,"lon":5.37454,"is_reserved":false,"is_disabled":false,"rental_uris":{"android":"levelo://app?vid=3970b1ae-b9ce-4046-bb45-e207423d2c07","ios":"levelo://app?vid=3970b1ae-b9ce-4046-bb45-e207423d2c07"},"vehicle_type_id":"4","last_reported":1757833715,"current_range_meters":17600,"station_id":"ce4bhgh2rcd13ifvqfb0","pricing_plan_id":"cebpf4jnsgd1na2vs0mg"},{"bike_id":"02594d6e-8b3a-46a1-9a87-cb6dfa238731","system_id":"levelo_inurba_marseille","lat":43.30149,"lon":5.3809,"is_reserved":false,"is_disabled":false,"rental_uris":{"android":"levelo://app?vid=02594d6e-8b3a-46a1-9a87-cb6dfa238731","ios":"levelo://app?vid=02594d6e-8b3a-46a1-9a87-cb6dfa238731"},"vehicle_type_id":"4","last_reported":1757833715,"current_range_meters":18000,"station_id":"ce4bgjp2rcd13ifvqbh0","pricing_plan_id":"cebpf4jnsgd1na2vs0mg"},{"bike_id":"d27a5be8-d7fd-4827-a8b4-c4cbf1e10c7d","system_id":"levelo_inurba_marseille","lat":43.27385,"lon":5.3626,"is_reserved":false,"is_disabled":false,"rental_uris":{"android":"levelo://app?vid=d27a5be8-d7fd-4827-a8b4-c4cbf1e10c7d","ios":"levelo://app?vid=d27a5be8-d7fd-4827-a8b4-c4cbf1e10c7d"},"vehicle_type_id":"4","last_reported":1757833715,"current_range_meters":18000,"station_id":"ce4bhbh2rcd13ifvqeo0","pricing_plan_id":"cebpf4jnsgd1na2vs0mg"},{"bike_id":"175c8e73-b36d-466c-9a0e-cf702b6c036a","system_id":"levelo_inurba_marseille","lat":43.32331,"lon":5.38897,"is_reserved":false,"is_disabled":false,"rental_uris":{"android":"levelo://app?vid=175c8e73-b36d-466c-9a0e-cf702b6c036a","ios":"levelo://app?vid=175c8e73-b36d-466c-9a0e-cf702b6c036a"},"vehicle_type_id":"4","last_reported":1757833715,"current_range_meters":18000,"station_id":"ce4bhqp2rcd13ifvqhog","pricing_plan_id":"cebpf4jnsgd1na2vs0mg"},{"bike_id":"178061fd-e4eb-4dfc-96d8-121e16b194de","system_id":"levelo_inurba_marseille","lat":43.3017,"lon":5.38077,"is_reserved":false,"is_disabled":false,"rental_uris":{"android":"levelo://app?vid=178061fd-e4eb-4dfc-96d8-121e16b194de","ios":"levelo://app?vid=178061fd-e4eb-4dfc-96d8-121e16b194de"},"vehicle_type_id":"4","last_reported":1757833715,"current_range_meters":18000,"station_id":"ce4bgjp2rcd13ifvqbh0","pricing_plan_id":"cebpf4jnsgd1na2vs0mg"},{"bike_id":"95251c11-6699-4aa0-8909-a444151e2dc9","system_id":"levelo_inurba_marseille","lat":43.24086,"lon":5.37772,"is_reserved":false,"is_disabled":false,"rental_uris":{"android":"levelo://app?vid=95251c11-6699-4aa0-8909-a444151e2dc9","ios":"levelo://app?vid=95251c11-6699-4aa0-8909-a444151e2dc9"},"vehicle_type_id":"4","last_reported":1757833715,"current_range_meters":18000,"station_id":"ce4bhnp2rcd13ifvqgvg","pricing_plan_id":"cebpf4jnsgd1na2vs0mg"},{"bike_id":"c9f82b86-7ced-43c5-8bc4-fa83f1b9c33c","system_id":"levelo_inurba_marseille","lat":43.24653,"lon":5.3817,"is_reserved":false,"is_disabled":false,"rental_uris":{"android":"levelo://app?vid=c9f82b86-7ced-43c5-8bc4-fa83f1b9c33c","ios":"levelo://app?vid=c9f82b86-7ced-43c5-8bc4-fa83f1b9c33c"},"vehicle_type_id":"4","last_reported":1757833715,"current_range_meters":18000,"station_id":"ce4bhih2rcd13ifvqfr0","pricing_plan_id":"cebpf4jnsgd1na2vs0mg"},{"bike_id":"317135fc-9036-47fe-bb4c-f0c058437b80","system_id":"levelo_inurba_marseille","lat":43.30144,"lon":5.38066,"is_reserved":false,"is_disabled":false,"rental_uris":{"android":"levelo://app?vid=317135fc-9036-47fe-bb4c-f0c058437b80","ios":"levelo://app?vid=317135fc-9036-47fe-bb4c-f0c058437b80"},"vehicle_type_id":"4","last_reported":1757833715,"current_range_meters":18000,"station_id":"ce4bgjp2rcd13ifvqbh0","pricing_plan_id":"cebpf4jnsgd1na2vs0mg"},{"bike_id":"777ff417-3a86-45a9-9277-be4920b499e5","system_id":"levelo_inurba_marseille","lat":43.24813,"lon":5.37453,"is_reserved":false,"is_disabled":false,"rental_uris":{"android":"levelo://app?vid=777ff417-3a86-45a9-9277-be4920b499e5","ios":"levelo://app?vid=777ff417-3a86-45a9-9277-be4920b499e5"},"vehicle_type_id":"4","last_reported":1757833715,"current_range_meters":18000,"station_id":"ce4bhgh2rcd13ifvqfb0","pricing_plan_id":"cebpf4jnsgd1na2vs0mg"},{"bike_id":"40b93dab-e6b1-40d5-9133-e6db4ba694b1","system_id":"levelo_inurba_marseille","lat":43.28157,"lon":5.42651,"is_reserved":false,"is_disabled":false,"rental_uris":{"android":"levelo://app?vid=40b93dab-e6b1-40d5-9133-e6db4ba694b1","ios":"levelo://app?vid=40b93dab-e6b1-40d5-9133-e6db4ba694b1"},"vehicle_type_id":"4","last_reported":1757833715,"current_range_meters":18000,"station_id":"ce4bhnh2rcd13ifvqgug","pricing_plan_id":"cebpf4jnsgd1na2vs0mg"},{"bike_id":"0bba1876-97de-4136-a6fe-cc9547e6fe55","system_id":"levelo_inurba_marseille","lat":43.29056,"lon":5.39979,"is_reserved":false,"is_disabled":true,"rental_uris":{"android":"levelo://app?vid=0bba1876-97de-4136-a6fe-cc9547e6fe55","ios":"levelo://app?vid=0bba1876-97de-4136-a6fe-cc9547e6fe55"},"vehicle_type_id":"4","last_reported":1757833715,"current_range_meters":18000,"station_id":"ce4bh392rcd13ifvqdm0","pricing_plan_id":"cebpf4jnsgd1na2vs0mg"},{"bike_id":"b3fa632c-773d-4fb2-93ab-dcb607df31e6","system_id":"levelo_inurba_marseille","lat":43.28407,"lon":5.37517,"is_reserved":false,"is_disabled":false,"rental_uris":{"android":"levelo://app?vid=b3fa632c-773d-4fb2-93ab-dcb607df31e6","ios":"levelo://app?vid=b3fa632c-773d-4fb2-93ab-dcb607df31e6"},"vehicle_type_id":"4","last_reported":1757833715,"current_range_meters":18000,"station_id":"ce4bh412rcd13ifvqds0","pricing_plan_id":"cebpf4jnsgd1na2vs0mg"},{"bike_id":"b0ab0859-f423-4140-863b-75f28e2bd622","system_id":"levelo_inurba_marseille","lat":43.32367,"lon":5.38894,"is_reserved":false,"is_disabled":false,"rental_uris":{"android":"levelo://app?vid=b0ab0859-f423-4140-863b-75f28e2bd622","ios":"levelo://app?vid=b0ab0859-f423-4140-863b-75f28e2bd622"},"vehicle_type_id":"4","last_reported":1757833715,"current_range_meters":18800,"station_id":"ce4bhqp2rcd13ifvqhog","pricing_plan_id":"cebpf4jnsgd1na2vs0mg"},{"bike_id":"cf66a869-3e1a-4e03-ab83-74d7d635d0b8","system_id":"levelo_inurba_marseille","lat":43.29265,"lon":5.40916,"is_reserved":false,"is_disabled":true,"rental_uris":{"android":"levelo://app?vid=cf66a869-3e1a-4e03-ab83-74d7d635d0b8","ios":"levelo://app?vid=cf66a869-3e1a-4e03-ab83-74d7d635d0b8"},"vehicle_type_id":"4","last_reported":1757833715,"current_range_meters":18800,"station_id":"ce4bh192rcd13ifvqdc0","pricing_plan_id":"cebpf4jnsgd1na2vs0mg"},{"bike_id":"0c6fe877-1024-4901-84e8-0fbaefe45584","system_id":"levelo_inurba_marseille","lat":43.334055,"lon":5.400862,"is_reserved":false,"is_disabled":false,"rental_uris":{"android":"levelo://app?vid=0c6fe877-1024-4901-84e8-0fbaefe45584","ios":"levelo://app?vid=0c6fe877-1024-4901-84e8-0fbaefe45584"},"vehicle_type_id":"4","last_reported":1757833715,"current_range_meters":18800,"station_id":"","pricing_plan_id":"cebpf4jnsgd1na2vs0mg"},{"bike_id":"ebc28d3f-48e0-4c19-84dd-0c3a04a1ca62","system_id":"levelo_inurba_marseille","lat":43.25858,"lon":5.39883,"is_reserved":false,"is_disabled":true,"rental_uris":{"android":"levelo://app?vid=ebc28d3f-48e0-4c19-84dd-0c3a04a1ca62","ios":"levelo://app?vid=ebc28d3f-48e0-4c19-84dd-0c3a04a1ca62"},"vehicle_type_id":"4","last_reported":1757833715,"current_range_meters":18800,"station_id":"ce4bhl92rcd13ifvqghg","pricing_plan_id":"cebpf4jnsgd1na2vs0mg"},{"bike_id":"322c1f5a-85db-4ef6-bcd4-1b5c417c8ee0","system_id":"levelo_inurba_marseille","lat":43.3377,"lon":5.37488,"is_reserved":false,"is_disabled":false,"rental_uris":{"android":"levelo://app?vid=322c1f5a-85db-4ef6-bcd4-1b5c417c8ee0","ios":"levelo://app?vid=322c1f5a-85db-4ef6-bcd4-1b5c417c8ee0"},"vehicle_type_id":"4","last_reported":1757833715,"current_range_meters":18800,"station_id":"","pricing_plan_id":"cebpf4jnsgd1na2vs0mg"},{"bike_id":"d820b9ba-6d75-45da-b3d3-123f12057990","system_id":"levelo_inurba_marseille","lat":43.30479,"lon":5.3789,"is_reserved":false,"is_disabled":true,"rental_uris":{"android":"levelo://app?vid=d820b9ba-6d75-45da-b3d3-123f12057990","ios":"levelo://app?vid=d820b9ba-6d75-45da-b3d3-123f12057990"},"vehicle_type_id":"4","last_reported":1757833715,"current_range_meters":18800,"station_id":"ce4bgup2rcd13ifvqcn0","pricing_plan_id":"cebpf4jnsgd1na2vs0mg"},{"bike_id":"ab973cd0-f8d9-4f81-9162-1e483e23280b","system_id":"levelo_inurba_marseille","lat":43.2407,"lon":5.37761,"is_reserved":false,"is_disabled":false,"rental_uris":{"android":"levelo://app?vid=ab973cd0-f8d9-4f81-9162-1e483e23280b","ios":"levelo://app?vid=ab973cd0-f8d9-4f81-9162-1e483e23280b"},"vehicle_type_id":"4","last_reported":1757833715,"current_range_meters":18800,"station_id":"ce4bhnp2rcd13ifvqgvg","pricing_plan_id":"cebpf4jnsgd1na2vs0mg"},{"bike_id":"17417908-6f31-4153-becd-a65062c04d72","system_id":"levelo_inurba_marseille","lat":43.31716,"lon":5.40467,"is_reserved":false,"is_disabled":false,"rental_uris":{"android":"levelo://app?vid=17417908-6f31-4153-becd-a65062c04d72","ios":"levelo://app?vid=17417908-6f31-4153-becd-a65062c04d72"},"vehicle_type_id":"4","last_reported":1757833715,"current_range_meters":19200,"station_id":"ce4bh012rcd13ifvqd00","pricing_plan_id":"cebpf4jnsgd1na2vs0mg"},{"bike_id":"8111d312-f652-436e-963c-4c6d7f148d64","system_id":"levelo_inurba_marseille","lat":43.2904,"lon":5.38643,"is_reserved":false,"is_disabled":true,"rental_uris":{"android":"levelo://app?vid=8111d312-f652-436e-963c-4c6d7f148d64","ios":"levelo://app?vid=8111d312-f652-436e-963c-4c6d7f148d64"},"vehicle_type_id":"4","last_reported":1757833715,"current_range_meters":19200,"station_id":"ce4bh4p2rcd13ifvqe0g","pricing_plan_id":"cebpf4jnsgd1na2vs0mg"},{"bike_id":"7725cd0d-2dbc-4d16-a079-87c99a373660","system_id":"levelo_inurba_marseille","lat":43.301961,"lon":5.380725,"is_reserved":false,"is_disabled":false,"rental_uris":{"android":"levelo://app?vid=7725cd0d-2dbc-4d16-a079-87c99a373660","ios":"levelo://app?vid=7725cd0d-2dbc-4d16-a079-87c99a373660"},"vehicle_type_id":"4","last_reported":1757833715,"current_range_meters":19200,"station_id":"","pricing_plan_id":"cebpf4jnsgd1na2vs0mg"},{"bike_id":"a8ea547b-3ee3-4aaf-b7c3-ad4d8d632aaf","system_id":"levelo_inurba_marseille","lat":43.23197,"lon":5.35551,"is_reserved":false,"is_disabled":false,"rental_uris":{"android":"levelo://app?vid=a8ea547b-3ee3-4aaf-b7c3-ad4d8d632aaf","ios":"levelo://app?vid=a8ea547b-3ee3-4aaf-b7c3-ad4d8d632aaf"},"vehicle_type_id":"4","last_reported":1757833715,"current_range_meters":19600,"station_id":"ce4bhu92rcd13ifvqi70","pricing_plan_id":"cebpf4jnsgd1na2vs0mg"},{"bike_id":"def1e7a7-2c16-4391-a76d-ae56e5b7d6b3","system_id":"levelo_inurba_marseille","lat":43.24075,"lon":5.37748,"is_reserved":false,"is_disabled":false,"rental_uris":{"android":"levelo://app?vid=def1e7a7-2c16-4391-a76d-ae56e5b7d6b3","ios":"levelo://app?vid=def1e7a7-2c16-4391-a76d-ae56e5b7d6b3"},"vehicle_type_id":"4","last_reported":1757833715,"current_range_meters":19600,"station_id":"ce4bhnp2rcd13ifvqgvg","pricing_plan_id":"cebpf4jnsgd1na2vs0mg"},{"bike_id":"a155e67d-bec0-4326-ae57-c035ef5e1c81","system_id":"levelo_inurba_marseille","lat":43.29901,"lon":5.43678,"is_reserved":false,"is_disabled":false,"rental_uris":{"android":"levelo://app?vid=a155e67d-bec0-4326-ae57-c035ef5e1c81","ios":"levelo://app?vid=a155e67d-bec0-4326-ae57-c035ef5e1c81"},"vehicle_type_id":"4","last_reported":1757833715,"current_range_meters":19600,"station_id":"ce4bhpp2rcd13ifvqhfg","pricing_plan_id":"cebpf4jnsgd1na2vs0mg"},{"bike_id":"a4b8a481-76d2-4e6f-9c40-3ea71209e251","system_id":"levelo_inurba_marseille","lat":43.28617,"lon":5.37063,"is_reserved":false,"is_disabled":false,"rental_uris":{"android":"levelo://app?vid=a4b8a481-76d2-4e6f-9c40-3ea71209e251","ios":"levelo://app?vid=a4b8a481-76d2-4e6f-9c40-3ea71209e251"},"vehicle_type_id":"4","last_reported":1757833715,"current_range_meters":19600,"station_id":"ce4bht12rcd13ifvqi60","pricing_plan_id":"cebpf4jnsgd1na2vs0mg"},{"bike_id":"e73470b2-f46f-4f87-989f-53f8372e4317","system_id":"levelo_inurba_marseille","lat":43.3334,"lon":5.39871,"is_reserved":false,"is_disabled":false,"rental_uris":{"android":"levelo://app?vid=e73470b2-f46f-4f87-989f-53f8372e4317","ios":"levelo://app?vid=e73470b2-f46f-4f87-989f-53f8372e4317"},"vehicle_type_id":"4","last_reported":1757833715,"current_range_meters":19600,"station_id":"","pricing_plan_id":"cebpf4jnsgd1na2vs0mg"},{"bike_id":"84a5505b-1c70-4fbd-8713-1aeafa411c7d","system_id":"levelo_inurba_marseille","lat":43.23194,"lon":5.35599,"is_reserved":false,"is_disabled":false,"rental_uris":{"android":"levelo://app?vid=84a5505b-1c70-4fbd-8713-1aeafa411c7d","ios":"levelo://app?vid=84a5505b-1c70-4fbd-8713-1aeafa411c7d"},"vehicle_type_id":"4","last_reported":1757833715,"current_range_meters":19600,"station_id":"ce4bhu92rcd13ifvqi70","pricing_plan_id":"cebpf4jnsgd1na2vs0mg"},{"bike_id":"5b91bc4e-a1b5-4272-831e-e9fa9c45180c","system_id":"levelo_inurba_marseille","lat":43.28471,"lon":5.35873,"is_reserved":false,"is_disabled":false,"rental_uris":{"android":"levelo://app?vid=5b91bc4e-a1b5-4272-831e-e9fa9c45180c","ios":"levelo://app?vid=5b91bc4e-a1b5-4272-831e-e9fa9c45180c"},"vehicle_type_id":"4","last_reported":1757833715,"current_range_meters":19600,"station_id":"ce4bhah2rcd13ifvqei0","pricing_plan_id":"cebpf4jnsgd1na2vs0mg"},{"bike_id":"d27a3574-c668-415b-ad3b-c0a1e10e6cf4","system_id":"levelo_inurba_marseille","lat":43.337444,"lon":5.374475,"is_reserved":false,"is_disabled":false,"rental_uris":{"android":"levelo://app?vid=d27a3574-c668-415b-ad3b-c0a1e10e6cf4","ios":"levelo://app?vid=d27a3574-c668-415b-ad3b-c0a1e10e6cf4"},"vehicle_type_id":"4","last_reported":1757833715,"current_range_meters":19600,"station_id":"","pricing_plan_id":"cebpf4jnsgd1na2vs0mg"},{"bike_id":"2d79e5b7-f9cd-4880-a3ef-9ec8934cdc30","system_id":"levelo_inurba_marseille","lat":43.27951,"lon":5.4105,"is_reserved":false,"is_disabled":false,"rental_uris":{"android":"levelo://app?vid=2d79e5b7-f9cd-4880-a3ef-9ec8934cdc30","ios":"levelo://app?vid=2d79e5b7-f9cd-4880-a3ef-9ec8934cdc30"},"vehicle_type_id":"4","last_reported":1757833715,"current_range_meters":20000,"station_id":"ce4bhnp2rcd13ifvqh0g","pricing_plan_id":"cebpf4jnsgd1na2vs0mg"},{"bike_id":"1fabe08c-b6a1-4886-add1-e574eeb91a0e","system_id":"levelo_inurba_marseille","lat":43.28619,"lon":5.35103,"is_reserved":false,"is_disabled":false,"rental_uris":{"android":"levelo://app?vid=1fabe08c-b6a1-4886-add1-e574eeb91a0e","ios":"levelo://app?vid=1fabe08c-b6a1-4886-add1-e574eeb91a0e"},"vehicle_type_id":"4","last_reported":1757833715,"current_range_meters":20000,"station_id":"ce4bhch2rcd13ifvqeug","pricing_plan_id":"cebpf4jnsgd1na2vs0mg"},{"bike_id":"9b39cc2c-ee25-4333-bf59-82bc19412b2f","system_id":"levelo_inurba_marseille","lat":43.30908,"lon":5.39686,"is_reserved":false,"is_disabled":false,"rental_uris":{"android":"levelo://app?vid=9b39cc2c-ee25-4333-bf59-82bc19412b2f","ios":"levelo://app?vid=9b39cc2c-ee25-4333-bf59-82bc19412b2f"},"vehicle_type_id":"4","last_reported":1757833715,"current_range_meters":20000,"station_id":"ce4bh012rcd13ifvqcv0","pricing_plan_id":"cebpf4jnsgd1na2vs0mg"},{"bike_id":"3bd0fb81-f566-4f20-a54b-baa7d0407b07","system_id":"levelo_inurba_marseille","lat":43.24953,"lon":5.40491,"is_reserved":false,"is_disabled":false,"rental_uris":{"android":"levelo://app?vid=3bd0fb81-f566-4f20-a54b-baa7d0407b07","ios":"levelo://app?vid=3bd0fb81-f566-4f20-a54b-baa7d0407b07"},"vehicle_type_id":"4","last_reported":1757833715,"current_range_meters":20000,"station_id":"st_d2ngiaodas8pm72gd1h0","pricing_plan_id":"cebpf4jnsgd1na2vs0mg"},{"bike_id":"41de12a2-5382-4da2-9751-1300a8df4dc1","system_id":"levelo_inurba_marseille","lat":43.2256,"lon":5.41632,"is_reserved":false,"is_disabled":false,"rental_uris":{"android":"levelo://app?vid=41de12a2-5382-4da2-9751-1300a8df4dc1","ios":"levelo://app?vid=41de12a2-5382-4da2-9751-1300a8df4dc1"},"vehicle_type_id":"4","last_reported":1757833715,"current_range_meters":20000,"station_id":"st_d2o4gvlbi1j2169b742g","pricing_plan_id":"cebpf4jnsgd1na2vs0mg"},{"bike_id":"58d71a00-a5b6-41c1-aa45-bb39b623aaa8","system_id":"levelo_inurba_marseille","lat":43.28838,"lon":5.3932,"is_reserved":false,"is_disabled":false,"rental_uris":{"android":"levelo://app?vid=58d71a00-a5b6-41c1-aa45-bb39b623aaa8","ios":"levelo://app?vid=58d71a00-a5b6-41c1-aa45-bb39b623aaa8"},"vehicle_type_id":"4","last_reported":1757833715,"current_range_meters":20000,"station_id":"ce4bh2p2rcd13ifvqdi0","pricing_plan_id":"cebpf4jnsgd1na2vs0mg"},{"bike_id":"aa4b53a8-2e7c-474f-9996-ae7453a7f6df","system_id":"levelo_inurba_marseille","lat":43.28665,"lon":5.36336,"is_reserved":false,"is_disabled":false,"rental_uris":{"android":"levelo://app?vid=aa4b53a8-2e7c-474f-9996-ae7453a7f6df","ios":"levelo://app?vid=aa4b53a8-2e7c-474f-9996-ae7453a7f6df"},"vehicle_type_id":"4","last_reported":1757833715,"current_range_meters":20000,"station_id":"ce4bhah2rcd13ifvqej0","pricing_plan_id":"cebpf4jnsgd1na2vs0mg"},{"bike_id":"c5603eaf-2478-48ee-abe3-30c44bd59d5c","system_id":"levelo_inurba_marseille","lat":43.30749,"lon":5.42457,"is_reserved":false,"is_disabled":false,"rental_uris":{"android":"levelo://app?vid=c5603eaf-2478-48ee-abe3-30c44bd59d5c","ios":"levelo://app?vid=c5603eaf-2478-48ee-abe3-30c44bd59d5c"},"vehicle_type_id":"4","last_reported":1757833715,"current_range_meters":20400,"station_id":"st_cvj6ca6bvosntc0bfgr0","pricing_plan_id":"cebpf4jnsgd1na2vs0mg"},{"bike_id":"71f161a8-210e-4cf1-9153-fc96dfd2e575","system_id":"levelo_inurba_marseille","lat":43.28604,"lon":5.37079,"is_reserved":false,"is_disabled":false,"rental_uris":{"android":"levelo://app?vid=71f161a8-210e-4cf1-9153-fc96dfd2e575","ios":"levelo://app?vid=71f161a8-210e-4cf1-9153-fc96dfd2e575"},"vehicle_type_id":"4","last_reported":1757833715,"current_range_meters":20400,"station_id":"ce4bht12rcd13ifvqi60","pricing_plan_id":"cebpf4jnsgd1na2vs0mg"},{"bike_id":"f7f2c16e-e822-4dc2-b70c-6f01b7378fc4","system_id":"levelo_inurba_marseille","lat":43.24764,"lon":5.39473,"is_reserved":false,"is_disabled":false,"rental_uris":{"android":"levelo://app?vid=f7f2c16e-e822-4dc2-b70c-6f01b7378fc4","ios":"levelo://app?vid=f7f2c16e-e822-4dc2-b70c-6f01b7378fc4"},"vehicle_type_id":"4","last_reported":1757833715,"current_range_meters":20400,"station_id":"","pricing_plan_id":"cebpf4jnsgd1na2vs0mg"},{"bike_id":"794c91e4-6f33-4b25-8a26-66396e427ad0","system_id":"levelo_inurba_marseille","lat":43.24179,"lon":5.39735,"is_reserved":false,"is_disabled":false,"rental_uris":{"android":"levelo://app?vid=794c91e4-6f33-4b25-8a26-66396e427ad0","ios":"levelo://app?vid=794c91e4-6f33-4b25-8a26-66396e427ad0"},"vehicle_type_id":"4","last_reported":1757833715,"current_range_meters":20400,"station_id":"ce4bhn12rcd13ifvqgpg","pricing_plan_id":"cebpf4jnsgd1na2vs0mg"},{"bike_id":"5baf0693-d476-4134-83ef-e50ec6a4f360","system_id":"levelo_inurba_marseille","lat":43.29713,"lon":5.3662,"is_reserved":false,"is_disabled":false,"rental_uris":{"android":"levelo://app?vid=5baf0693-d476-4134-83ef-e50ec6a4f360","ios":"levelo://app?vid=5baf0693-d476-4134-83ef-e50ec6a4f360"},"vehicle_type_id":"4","last_reported":1757833715,"current_range_meters":20400,"station_id":"ce4bgn12rcd13ifvqbt0","pricing_plan_id":"cebpf4jnsgd1na2vs0mg"},{"bike_id":"2d6aad19-6aca-4a34-bbb2-22f8c64b6a1e","system_id":"levelo_inurba_marseille","lat":43.31886,"lon":5.40752,"is_reserved":false,"is_disabled":false,"rental_uris":{"android":"levelo://app?vid=2d6aad19-6aca-4a34-bbb2-22f8c64b6a1e","ios":"levelo://app?vid=2d6aad19-6aca-4a34-bbb2-22f8c64b6a1e"},"vehicle_type_id":"4","last_reported":1757833715,"current_range_meters":20800,"station_id":"ce4bhq12rcd13ifvqhig","pricing_plan_id":"cebpf4jnsgd1na2vs0mg"},{"bike_id":"2c1fcf59-7309-4ce2-b05e-21630f6df671","system_id":"levelo_inurba_marseille","lat":43.3092,"lon":5.40143,"is_reserved":false,"is_disabled":false,"rental_uris":{"android":"levelo://app?vid=2c1fcf59-7309-4ce2-b05e-21630f6df671","ios":"levelo://app?vid=2c1fcf59-7309-4ce2-b05e-21630f6df671"},"vehicle_type_id":"4","last_reported":1757833715,"current_range_meters":20800,"station_id":"ce4bgvp2rcd13ifvqct0","pricing_plan_id":"cebpf4jnsgd1na2vs0mg"},{"bike_id":"0917123f-eb39-4d24-8521-5d9a2c55a4bd","system_id":"levelo_inurba_marseille","lat":43.28147,"lon":5.42722,"is_reserved":false,"is_disabled":false,"rental_uris":{"android":"levelo://app?vid=0917123f-eb39-4d24-8521-5d9a2c55a4bd","ios":"levelo://app?vid=0917123f-eb39-4d24-8521-5d9a2c55a4bd"},"vehicle_type_id":"4","last_reported":1757833715,"current_range_meters":20800,"station_id":"","pricing_plan_id":"cebpf4jnsgd1na2vs0mg"},{"bike_id":"7713b745-a0fd-493e-b2f2-ad45f6607a76","system_id":"levelo_inurba_marseille","lat":43.28867,"lon":5.42524,"is_reserved":false,"is_disabled":false,"rental_uris":{"android":"levelo://app?vid=7713b745-a0fd-493e-b2f2-ad45f6607a76","ios":"levelo://app?vid=7713b745-a0fd-493e-b2f2-ad45f6607a76"},"vehicle_type_id":"4","last_reported":1757833715,"current_range_meters":20800,"station_id":"","pricing_plan_id":"cebpf4jnsgd1na2vs0mg"},{"bike_id":"5c41d517-3ad2-4101-a729-0e18d8ac940e","system_id":"levelo_inurba_marseille","lat":43.272037,"lon":5.391855,"is_reserved":false,"is_disabled":true,"rental_uris":{"android":"levelo://app?vid=5c41d517-3ad2-4101-a729-0e18d8ac940e","ios":"levelo://app?vid=5c41d517-3ad2-4101-a729-0e18d8ac940e"},"vehicle_type_id":"4","last_reported":1757833715,"current_range_meters":20800,"station_id":"","pricing_plan_id":"cebpf4jnsgd1na2vs0mg"},{"bike_id":"5b1cd7c8-c08f-4756-b385-bacba5c452b5","system_id":"levelo_inurba_marseille","lat":43.28431,"lon":5.34992,"is_reserved":false,"is_disabled":false,"rental_uris":{"android":"levelo://app?vid=5b1cd7c8-c08f-4756-b385-bacba5c452b5","ios":"levelo://app?vid=5b1cd7c8-c08f-4756-b385-bacba5c452b5"},"vehicle_type_id":"4","last_reported":1757833715,"current_range_meters":20800,"station_id":"ce4bhbh2rcd13ifvqepg","pricing_plan_id":"cebpf4jnsgd1na2vs0mg"},{"bike_id":"a5aa7ed1-3ddd-4ef9-92b6-adcfff9878c2","system_id":"levelo_inurba_marseille","lat":43.29788,"lon":5.38164,"is_reserved":false,"is_disabled":true,"rental_uris":{"android":"levelo://app?vid=a5aa7ed1-3ddd-4ef9-92b6-adcfff9878c2","ios":"levelo://app?vid=a5aa7ed1-3ddd-4ef9-92b6-adcfff9878c2"},"vehicle_type_id":"4","last_reported":1757833715,"current_range_meters":21600,"station_id":"ce4bgip2rcd13ifvqbb0","pricing_plan_id":"cebpf4jnsgd1na2vs0mg"},{"bike_id":"d433f65c-48c2-4aa1-b7a0-61a992e3054a","system_id":"levelo_inurba_marseille","lat":43.29194,"lon":5.393047,"is_reserved":false,"is_disabled":true,"rental_uris":{"android":"levelo://app?vid=d433f65c-48c2-4aa1-b7a0-61a992e3054a","ios":"levelo://app?vid=d433f65c-48c2-4aa1-b7a0-61a992e3054a"},"vehicle_type_id":"4","last_reported":1757833715,"current_range_meters":21600,"station_id":"ce4bh192rcd13ifvqdd0","pricing_plan_id":"cebpf4jnsgd1na2vs0mg"},{"bike_id":"8aebb10a-5930-403f-bb63-dcfb323a4493","system_id":"levelo_inurba_marseille","lat":43.305421,"lon":5.384256,"is_reserved":false,"is_disabled":false,"rental_uris":{"android":"levelo://app?vid=8aebb10a-5930-403f-bb63-dcfb323a4493","ios":"levelo://app?vid=8aebb10a-5930-403f-bb63-dcfb323a4493"},"vehicle_type_id":"4","last_reported":1757833715,"current_range_meters":21600,"station_id":"ce4bgg92rcd13ifvqb30","pricing_plan_id":"cebpf4jnsgd1na2vs0mg"},{"bike_id":"343da20b-c4e5-468a-bede-bf16e639f469","system_id":"levelo_inurba_marseille","lat":43.24545,"lon":5.39537,"is_reserved":false,"is_disabled":false,"rental_uris":{"android":"levelo://app?vid=343da20b-c4e5-468a-bede-bf16e639f469","ios":"levelo://app?vid=343da20b-c4e5-468a-bede-bf16e639f469"},"vehicle_type_id":"4","last_reported":1757833715,"current_range_meters":21600,"station_id":"ce4bhlp2rcd13ifvqgjg","pricing_plan_id":"cebpf4jnsgd1na2vs0mg"},{"bike_id":"1aafb4a9-8da4-4784-bd05-53fa610f2fcb","system_id":"levelo_inurba_marseille","lat":43.25109,"lon":5.40326,"is_reserved":false,"is_disabled":false,"rental_uris":{"android":"levelo://app?vid=1aafb4a9-8da4-4784-bd05-53fa610f2fcb","ios":"levelo://app?vid=1aafb4a9-8da4-4784-bd05-53fa610f2fcb"},"vehicle_type_id":"4","last_reported":1757833715,"current_range_meters":21600,"station_id":"ce4bhlh2rcd13ifvqgig","pricing_plan_id":"cebpf4jnsgd1na2vs0mg"},{"bike_id":"b1d4770d-ecf9-4c2e-8826-a87a82e2e1de","system_id":"levelo_inurba_marseille","lat":43.29882,"lon":5.39781,"is_reserved":false,"is_disabled":true,"rental_uris":{"android":"levelo://app?vid=b1d4770d-ecf9-4c2e-8826-a87a82e2e1de","ios":"levelo://app?vid=b1d4770d-ecf9-4c2e-8826-a87a82e2e1de"},"vehicle_type_id":"4","last_reported":1757833715,"current_range_meters":22000,"station_id":"ce4bh0h2rcd13ifvqd50","pricing_plan_id":"cebpf4jnsgd1na2vs0mg"},{"bike_id":"3b5c65fd-2177-4f9a-86ff-3d98441fca04","system_id":"levelo_inurba_marseille","lat":43.290222,"lon":5.381313,"is_reserved":false,"is_disabled":false,"rental_uris":{"android":"levelo://app?vid=3b5c65fd-2177-4f9a-86ff-3d98441fca04","ios":"levelo://app?vid=3b5c65fd-2177-4f9a-86ff-3d98441fca04"},"vehicle_type_id":"4","last_reported":1757833715,"current_range_meters":22000,"station_id":"ce4bh4p2rcd13ifvqe1g","pricing_plan_id":"cebpf4jnsgd1na2vs0mg"},{"bike_id":"93c9e7c8-c678-48a7-a171-b6b1179ddd0e","system_id":"levelo_inurba_marseille","lat":43.23962,"lon":5.36635,"is_reserved":false,"is_disabled":false,"rental_uris":{"android":"levelo://app?vid=93c9e7c8-c678-48a7-a171-b6b1179ddd0e","ios":"levelo://app?vid=93c9e7c8-c678-48a7-a171-b6b1179ddd0e"},"vehicle_type_id":"4","last_reported":1757833715,"current_range_meters":21600,"station_id":"ce4bhi12rcd13ifvqfp0","pricing_plan_id":"cebpf4jnsgd1na2vs0mg"},{"bike_id":"6954d745-c0b3-4f6f-b09f-a891ee8ecf66","system_id":"levelo_inurba_marseille","lat":43.31688,"lon":5.40475,"is_reserved":false,"is_disabled":false,"rental_uris":{"android":"levelo://app?vid=6954d745-c0b3-4f6f-b09f-a891ee8ecf66","ios":"levelo://app?vid=6954d745-c0b3-4f6f-b09f-a891ee8ecf66"},"vehicle_type_id":"4","last_reported":1757833715,"current_range_meters":22000,"station_id":"ce4bh012rcd13ifvqd00","pricing_plan_id":"cebpf4jnsgd1na2vs0mg"},{"bike_id":"ec237f0f-d751-4b66-88b5-1354f5179305","system_id":"levelo_inurba_marseille","lat":43.25944,"lon":5.40904,"is_reserved":false,"is_disabled":false,"rental_uris":{"android":"levelo://app?vid=ec237f0f-d751-4b66-88b5-1354f5179305","ios":"levelo://app?vid=ec237f0f-d751-4b66-88b5-1354f5179305"},"vehicle_type_id":"4","last_reported":1757833715,"current_range_meters":22000,"station_id":"ce4bhm92rcd13ifvqglg","pricing_plan_id":"cebpf4jnsgd1na2vs0mg"},{"bike_id":"ed9cd55d-db1b-4ea4-a427-079776b26f66","system_id":"levelo_inurba_marseille","lat":43.24801,"lon":5.3746,"is_reserved":false,"is_disabled":false,"rental_uris":{"android":"levelo://app?vid=ed9cd55d-db1b-4ea4-a427-079776b26f66","ios":"levelo://app?vid=ed9cd55d-db1b-4ea4-a427-079776b26f66"},"vehicle_type_id":"4","last_reported":1757833715,"current_range_meters":22000,"station_id":"ce4bhgh2rcd13ifvqfb0","pricing_plan_id":"cebpf4jnsgd1na2vs0mg"},{"bike_id":"2e3637cf-f74b-4917-a4ca-97231656118e","system_id":"levelo_inurba_marseille","lat":43.33764,"lon":5.37495,"is_reserved":false,"is_disabled":false,"rental_uris":{"android":"levelo://app?vid=2e3637cf-f74b-4917-a4ca-97231656118e","ios":"levelo://app?vid=2e3637cf-f74b-4917-a4ca-97231656118e"},"vehicle_type_id":"4","last_reported":1757833715,"current_range_meters":22400,"station_id":"","pricing_plan_id":"cebpf4jnsgd1na2vs0mg"},{"bike_id":"d5a6cce7-5ba9-49db-9021-30c2fd04026a","system_id":"levelo_inurba_marseille","lat":43.3203,"lon":5.40938,"is_reserved":false,"is_disabled":false,"rental_uris":{"android":"levelo://app?vid=d5a6cce7-5ba9-49db-9021-30c2fd04026a","ios":"levelo://app?vid=d5a6cce7-5ba9-49db-9021-30c2fd04026a"},"vehicle_type_id":"4","last_reported":1757833715,"current_range_meters":22400,"station_id":"","pricing_plan_id":"cebpf4jnsgd1na2vs0mg"},{"bike_id":"27fbfeae-e6b7-4fdd-accb-fff8b7bc8745","system_id":"levelo_inurba_marseille","lat":43.28155,"lon":5.42635,"is_reserved":false,"is_disabled":false,"rental_uris":{"android":"levelo://app?vid=27fbfeae-e6b7-4fdd-accb-fff8b7bc8745","ios":"levelo://app?vid=27fbfeae-e6b7-4fdd-accb-fff8b7bc8745"},"vehicle_type_id":"4","last_reported":1757833715,"current_range_meters":22400,"station_id":"ce4bhnh2rcd13ifvqgug","pricing_plan_id":"cebpf4jnsgd1na2vs0mg"},{"bike_id":"d73ebff0-d957-41dc-a638-29b88edc4926","system_id":"levelo_inurba_marseille","lat":43.2256,"lon":5.41628,"is_reserved":false,"is_disabled":false,"rental_uris":{"android":"levelo://app?vid=d73ebff0-d957-41dc-a638-29b88edc4926","ios":"levelo://app?vid=d73ebff0-d957-41dc-a638-29b88edc4926"},"vehicle_type_id":"4","last_reported":1757833715,"current_range_meters":22400,"station_id":"st_d2o4gvlbi1j2169b742g","pricing_plan_id":"cebpf4jnsgd1na2vs0mg"},{"bike_id":"cc6ad583-b5e2-4162-a2f6-ef6230b71b66","system_id":"levelo_inurba_marseille","lat":43.28482,"lon":5.38417,"is_reserved":false,"is_disabled":false,"rental_uris":{"android":"levelo://app?vid=cc6ad583-b5e2-4162-a2f6-ef6230b71b66","ios":"levelo://app?vid=cc6ad583-b5e2-4162-a2f6-ef6230b71b66"},"vehicle_type_id":"4","last_reported":1757833715,"current_range_meters":22400,"station_id":"ce4bh512rcd13ifvqe3g","pricing_plan_id":"cebpf4jnsgd1na2vs0mg"},{"bike_id":"28a0b5c6-c61d-4c20-947d-31bcb80343f5","system_id":"levelo_inurba_marseille","lat":43.2494,"lon":5.40489,"is_reserved":false,"is_disabled":false,"rental_uris":{"android":"levelo://app?vid=28a0b5c6-c61d-4c20-947d-31bcb80343f5","ios":"levelo://app?vid=28a0b5c6-c61d-4c20-947d-31bcb80343f5"},"vehicle_type_id":"4","last_reported":1757833715,"current_range_meters":22400,"station_id":"st_d2ngiaodas8pm72gd1h0","pricing_plan_id":"cebpf4jnsgd1na2vs0mg"},{"bike_id":"00769fb4-f8e5-45af-bc12-f8f4b0007c0d","system_id":"levelo_inurba_marseille","lat":43.287116,"lon":5.400069,"is_reserved":false,"is_disabled":true,"rental_uris":{"android":"levelo://app?vid=00769fb4-f8e5-45af-bc12-f8f4b0007c0d","ios":"levelo://app?vid=00769fb4-f8e5-45af-bc12-f8f4b0007c0d"},"vehicle_type_id":"4","last_reported":1757833715,"current_range_meters":22400,"station_id":"ce4bho92rcd13ifvqh3g","pricing_plan_id":"cebpf4jnsgd1na2vs0mg"},{"bike_id":"6bcb245c-11b1-447b-8afc-f33df6703715","system_id":"levelo_inurba_marseille","lat":43.27069,"lon":5.42272,"is_reserved":false,"is_disabled":false,"rental_uris":{"android":"levelo://app?vid=6bcb245c-11b1-447b-8afc-f33df6703715","ios":"levelo://app?vid=6bcb245c-11b1-447b-8afc-f33df6703715"},"vehicle_type_id":"4","last_reported":1757833715,"current_range_meters":22400,"station_id":"ce4bhk92rcd13ifvqgb0","pricing_plan_id":"cebpf4jnsgd1na2vs0mg"},{"bike_id":"44b06d27-b38f-4db0-b059-b6a958b47766","system_id":"levelo_inurba_marseille","lat":43.24045,"lon":5.37776,"is_reserved":false,"is_disabled":false,"rental_uris":{"android":"levelo://app?vid=44b06d27-b38f-4db0-b059-b6a958b47766","ios":"levelo://app?vid=44b06d27-b38f-4db0-b059-b6a958b47766"},"vehicle_type_id":"4","last_reported":1757833715,"current_range_meters":22400,"station_id":"ce4bhnp2rcd13ifvqgvg","pricing_plan_id":"cebpf4jnsgd1na2vs0mg"},{"bike_id":"aab4d48d-f98c-4688-a39d-8fffc7698ee1","system_id":"levelo_inurba_marseille","lat":43.25112,"lon":5.4032,"is_reserved":false,"is_disabled":false,"rental_uris":{"android":"levelo://app?vid=aab4d48d-f98c-4688-a39d-8fffc7698ee1","ios":"levelo://app?vid=aab4d48d-f98c-4688-a39d-8fffc7698ee1"},"vehicle_type_id":"4","last_reported":1757833715,"current_range_meters":22400,"station_id":"ce4bhlh2rcd13ifvqgig","pricing_plan_id":"cebpf4jnsgd1na2vs0mg"},{"bike_id":"046ba709-b940-4fa3-9690-1d81db536e4b","system_id":"levelo_inurba_marseille","lat":43.22554,"lon":5.41649,"is_reserved":false,"is_disabled":false,"rental_uris":{"android":"levelo://app?vid=046ba709-b940-4fa3-9690-1d81db536e4b","ios":"levelo://app?vid=046ba709-b940-4fa3-9690-1d81db536e4b"},