{"last_updated":1760185072,"ttl":60,"version":"2.2","data":{"bikes":[{"bike_id":"5516e87b-8441-4871-bd1c-dcd0126e113d","system_id":"levelo_inurba_marseille","lat":43.337444,"lon":5.374475,"is_reserved":false,"is_disabled":true,"rental_uris":{"android":"levelo://app?vid=5516e87b-8441-4871-bd1c-dcd0126e113d","ios":"levelo://app?vid=5516e87b-8441-4871-bd1c-dcd0126e113d"},"vehicle_type_id":"4","last_reported":1760185072,"current_range_meters":0,"station_id":"","pricing_plan_id":"cebpf4jnsgd1na2vs0mg"},{"bike_id":"f9ef6a8c-cc82-49e4-96c2-f46e0950a0fc","system_id":"levelo_inurba_marseille","lat":43.33771,"lon":5.37424,"is_reserved":false,"is_disabled":true,"rental_uris":{"android":"levelo://app?vid=f9ef6a8c-cc82-49e4-96c2-f46e0950a0fc","ios":"levelo://app?vid=f9ef6a8c-cc82-49e4-96c2-f46e0950a0fc"},"vehicle_type_id":"4","last_reported":1760185072,"current_range_meters":0,"station_id":"","pricing_plan_id":"cebpf4jnsgd1na2vs0mg"},{"bike_id":"f92995dc-d2e7-4f2e-bcaf-27995c98a1de","system_id":"levelo_inurba_marseille","lat":43.33751,"lon":5.37456,"is_reserved":false,"is_disabled":true,"rental_uris":{"android":"levelo://app?vid=f92995dc-d2e7-4f2e-bcaf-27995c98a1de","ios":"levelo://app?vid=f92995dc-d2e7-4f2e-bcaf-27995c98a1de"},"vehicle_type_id":"4","last_reported":1760185072,"current_range_meters":0,"station_id":"","pricing_plan_id":"cebpf4jnsgd1na2vs0mg"},{"bike_id":"092183e8-1e36-4ece-a29a-68743a5820f6","system_id":"levelo_inurba_marseille","lat":43.33747,"lon":5.37463,"is_reserved":false,"is_disabled":true,"rental_uris":{"android":"levelo://app?vid=092183e8-1e36-4ece-a29a-68743a5820f6","ios":"levelo://app?vid=092183e8-1e36-4ece-a29a-68743a5820f6"},"vehicle_type_id":"1","last_reported":1760185072,"current_range_meters":0,"station_id":"","pricing_plan_id":"cebpf4jnsgd1na2vs0mg"},{"bike_id":"268f0f13-c790-4518-9f6a-1fe45b445342","system_id":"levelo_inurba_marseille","lat":43.33737,"lon":5.37465,"is_reserved":false,"is_disabled":true,"rental_uris":{"android":"levelo://app?vid=268f0f13-c790-4518-9f6a-1fe45b445342","ios":"levelo://app?vid=268f0f13-c790-4518-9f6a-1fe45b445342"},"vehicle_type_id":"4","last_reported":1760185072,"current_range_meters":0,"station_id":"","pricing_plan_id":"cebpf4jnsgd1na2vs0mg"},{"bike_id":"844de8fa-b1ed-4b48-bbb0-8ea30f04e6fa","system_id":"levelo_inurba_marseille","lat":43.33755,"lon":5.37468,"is_reserved":false,"is_disabled":false,"rental_uris":{"android":"levelo://app?vid=844de8fa-b1ed-4b48-bbb0-8ea30f04e6fa","ios":"levelo://app?vid=844de8fa-b1ed-4b48-bbb0-8ea30f04e6fa"},"vehicle_type_id":"4","last_reported":1760185072,"current_range_meters":5600,"station_id":"","pricing_plan_id":"cebpf4jnsgd1na2vs0mg"},{"bike_id":"affea08d-2e61-49ad-9018-2db734fe38fb","system_id":"levelo_inurba_marseille","lat":43.337444,"lon":5.374475,"is_reserved":false,"is_disabled":true,"rental_uris":{"android":"levelo://app?vid=affea08d-2e61-49ad-9018-2db734fe38fb","ios":"levelo://app?vid=affea08d-2e61-49ad-9018-2db734fe38fb"},"vehicle_type_id":"4","last_reported":1760185072,"current_range_meters":0,"station_id":"","pricing_plan_id":"cebpf4jnsgd1na2vs0mg"},{"bike_id":"c80be3e3-26c1-4fd2-ab94-730bb8638bdc","system_id":"levelo_inurba_marseille","lat":43.337444,"lon":5.374475,"is_reserved":false,"is_disabled":true,"rental_uris":{"android":"levelo://app?vid=c80be3e3-26c1-4fd2-ab94-730bb8638bdc","ios":"levelo://app?vid=c80be3e3-26c1-4fd2-ab94-730bb8638bdc"},"vehicle_type_id":"4","last_reported":1760185072,"current_range_meters":0,"station_id":"","pricing_plan_id":"cebpf4jnsgd1na2vs0mg"},{"bike_id":"1c560a38-7ef3-4e44-b456-36993b5ca4af","system_id":"levelo_inurba_marseille","lat":43.337444,"lon":5.374475,"is_reserved":false,"is_disabled":true,"rental_uris":{"android":"levelo://app?vid=1c560a38-7ef3-4e44-b456-36993b5ca4af","ios":"levelo://app?vid=1c560a38-7ef3-4e44-b456-36993b5ca4af"},"vehicle_type_id":"4","last_reported":1760185072,"current_range_meters":0,"station_id":"","pricing_plan_id":"cebpf4jnsgd1na2vs0mg"},{"bike_id":"f8726700-64d6-4ff8-acc0-9adfce94dbe9","system_id":"levelo_inurba_marseille","lat":43.278509,"lon":5.383089,"is_reserved":false,"is_disabled":true,"rental_uris":{"android":"levelo://app?vid=f8726700-64d6-4ff8-acc0-9adfce94dbe9","ios":"levelo://app?vid=f8726700-64d6-4ff8-acc0-9adfce94dbe9"},"vehicle_type_id":"4","last_reported":1760185072,"current_range_meters":0,"station_id":"","pricing_plan_id":"cebpf4jnsgd1na2vs0mg"},{"bike_id":"b4e7ef10-af79-4cf8-a207-60ed0a922607","system_id":"levelo_inurba_marseille","lat":43.337444,"lon":5.374475,"is_reserved":false,"is_disabled":true,"rental_uris":{"android":"levelo://app?vid=b4e7ef10-af79-4cf8-a207-60ed0a922607","ios":"levelo://app?vid=b4e7ef10-af79-4cf8-a207-60ed0a922607"},"vehicle_type_id":"4","last_reported":1760185072,"current_range_meters":0,"station_id":"","pricing_plan_id":"cebpf4jnsgd1na2vs0mg"},{"bike_id":"c1fa3fe2-a922-4c1f-bbda-a0552e9afc54","system_id":"levelo_inurba_marseille","lat":43.297742,"lon":5.372466,"is_reserved":false,"is_disabled":true,"rental_uris":{"android":"levelo://app?vid=c1fa3fe2-a922-4c1f-bbda-a0552e9afc54","ios":"levelo://app?vid=c1fa3fe2-a922-4c1f-bbda-a0552e9afc54"},"vehicle_type_id":"4","last_reported":1760185072,"current_range_meters":0,"station_id":"","pricing_plan_id":"cebpf4jnsgd1na2vs0mg"},{"bike_id":"4ccf7a59-029f-457f-b839-dc6f11286326","system_id":"levelo_inurba_marseille","lat":43.31771,"lon":5.42205,"is_reserved":false,"is_disabled":true,"rental_uris":{"android":"levelo://app?vid=4ccf7a59-029f-457f-b839-dc6f11286326","ios":"levelo://app?vid=4ccf7a59-029f-457f-b839-dc6f11286326"},"vehicle_type_id":"4","last_reported":1760185072,"current_range_meters":0,"station_id":"","pricing_plan_id":"cebpf4jnsgd1na2vs0mg"},{"bike_id":"bf0cd1f5-4a2b-4aae-9f11-cde060414574","system_id":"levelo_inurba_marseille","lat":43.2254,"lon":5.34825,"is_reserved":false,"is_disabled":true,"rental_uris":{"android":"levelo://app?vid=bf0cd1f5-4a2b-4aae-9f11-cde060414574","ios":"levelo://app?vid=bf0cd1f5-4a2b-4aae-9f11-cde060414574"},"vehicle_type_id":"4","last_reported":1760185072,"current_range_meters":0,"station_id":"","pricing_plan_id":"cebpf4jnsgd1na2vs0mg"},{"bike_id":"faf21e59-73fe-43ba-965b-23c7230d33c8","system_id":"levelo_inurba_marseille","lat":43.270557,"lon":5.392632,"is_reserved":false,"is_disabled":true,"rental_uris":{"android":"levelo://app?vid=faf21e59-73fe-43ba-965b-23c7230d33c8","ios":"levelo://app?vid=faf21e59-73fe-43ba-965b-23c7230d33c8"},"vehicle_type_id":"4","last_reported":1760185072,"current_range_meters":0,"station_id":"","pricing_plan_id":"cebpf4jnsgd1na2vs0mg"},{"bike_id":"ec39affe-5e48-4259-a225-7a0d248d923e","system_id":"levelo_inurba_marseille","lat":43.29677,"lon":5.38015,"is_reserved":false,"is_disabled":true,"rental_uris":{"android":"levelo://app?vid=ec39affe-5e48-4259-a225-7a0d248d923e","ios":"levelo://app?vid=ec39affe-5e48-4259-a225-7a0d248d923e"},"vehicle_type_id":"4","last_reported":1760185072,"current_range_meters":0,"station_id":"","pricing_plan_id":"cebpf4jnsgd1na2vs0mg"},{"bike_id":"71adf011-375e-40dc-9f02-5f5866d7a20c","system_id":"levelo_inurba_marseille","lat":43.213685,"lon":5.349716,"is_reserved":false,"is_disabled":true,"rental_uris":{"android":"levelo://app?vid=71adf011-375e-40dc-9f02-5f5866d7a20c","ios":"levelo://app?vid=71adf011-375e-40dc-9f02-5f5866d7a20c"},"vehicle_type_id":"4","last_reported":1760185072,"current_range_meters":0,"station_id":"","pricing_plan_id":"cebpf4jnsgd1na2vs0mg"},{"bike_id":"7dda0a36-9ac4-4c85-88bd-d79f4d4dc056","system_id":"levelo_inurba_marseille","lat":43.2926,"lon":5.37606,"is_reserved":false,"is_disabled":true,"rental_uris":{"android":"levelo://app?vid=7dda0a36-9ac4-4c85-88bd-d79f4d4dc056","ios":"levelo://app?vid=7dda0a36-9ac4-4c85-88bd-d79f4d4dc056"},"vehicle_type_id":"4","last_reported":1760185072,"current_range_meters":0,"station_id":"ce4bgi12rcd13ifvqb80","pricing_plan_id":"cebpf4jnsgd1na2vs0mg"},{"bike_id":"56067302-a89f-4b50-b106-e744626d84de","system_id":"levelo_inurba_marseille","lat":43.31072,"lon":5.38351,"is_reserved":false,"is_disabled":true,"rental_uris":{"android":"levelo://app?vid=56067302-a89f-4b50-b106-e744626d84de","ios":"levelo://app?vid=56067302-a89f-4b50-b106-e744626d84de"},"vehicle_type_id":"4","last_reported":1760185072,"current_range_meters":0,"station_id":"ce4bgv92rcd13ifvqcr0","pricing_plan_id":"cebpf4jnsgd1na2vs0mg"},{"bike_id":"90bee144-32cd-4cdf-922d-2257ff3b894f","system_id":"levelo_inurba_marseille","lat":43.31338,"lon":5.3971,"is_reserved":false,"is_disabled":true,"rental_uris":{"android":"levelo://app?vid=90bee144-32cd-4cdf-922d-2257ff3b894f","ios":"levelo://app?vid=90bee144-32cd-4cdf-922d-2257ff3b894f"},"vehicle_type_id":"4","last_reported":1760185072,"current_range_meters":0,"station_id":"ce4bgvp2rcd13ifvqcu0","pricing_plan_id":"cebpf4jnsgd1na2vs0mg"},{"bike_id":"c899cea1-1887-4962-a32a-d9f481b940cb","system_id":"levelo_inurba_marseille","lat":43.29194,"lon":5.39306,"is_reserved":false,"is_disabled":true,"rental_uris":{"android":"levelo://app?vid=c899cea1-1887-4962-a32a-d9f481b940cb","ios":"levelo://app?vid=c899cea1-1887-4962-a32a-d9f481b940cb"},"vehicle_type_id":"4","last_reported":1760185072,"current_range_meters":0,"station_id":"ce4bh192rcd13ifvqdd0","pricing_plan_id":"cebpf4jnsgd1na2vs0mg"},{"bike_id":"11a6bcfd-93b6-429c-b71f-a74a433424b0","system_id":"levelo_inurba_marseille","lat":43.28037,"lon":5.3695,"is_reserved":false,"is_disabled":true,"rental_uris":{"android":"levelo://app?vid=11a6bcfd-93b6-429c-b71f-a74a433424b0","ios":"levelo://app?vid=11a6bcfd-93b6-429c-b71f-a74a433424b0"},"vehicle_type_id":"4","last_reported":1760185072,"current_range_meters":0,"station_id":"ce4bha12rcd13ifvqef0","pricing_plan_id":"cebpf4jnsgd1na2vs0mg"},{"bike_id":"1e217379-81fc-498c-ab5f-050b06faee8c","system_id":"levelo_inurba_marseille","lat":43.28036,"lon":5.36928,"is_reserved":false,"is_disabled":true,"rental_uris":{"android":"levelo://app?vid=1e217379-81fc-498c-ab5f-050b06faee8c","ios":"levelo://app?vid=1e217379-81fc-498c-ab5f-050b06faee8c"},"vehicle_type_id":"4","last_reported":1760185072,"current_range_meters":0,"station_id":"ce4bha12rcd13ifvqef0","pricing_plan_id":"cebpf4jnsgd1na2vs0mg"},{"bike_id":"f20fbfb6-e1b0-4ffd-8763-43868ab77107","system_id":"levelo_inurba_marseille","lat":43.27369,"lon":5.36256,"is_reserved":false,"is_disabled":true,"rental_uris":{"android":"levelo://app?vid=f20fbfb6-e1b0-4ffd-8763-43868ab77107","ios":"levelo://app?vid=f20fbfb6-e1b0-4ffd-8763-43868ab77107"},"vehicle_type_id":"4","last_reported":1760185072,"current_range_meters":0,"station_id":"ce4bhbh2rcd13ifvqeo0","pricing_plan_id":"cebpf4jnsgd1na2vs0mg"},{"bike_id":"90e4afee-1068-4220-8f99-8e71f771cdcd","system_id":"levelo_inurba_marseille","lat":43.27376,"lon":5.36256,"is_reserved":false,"is_disabled":true,"rental_uris":{"android":"levelo://app?vid=90e4afee-1068-4220-8f99-8e71f771cdcd","ios":"levelo://app?vid=90e4afee-1068-4220-8f99-8e71f771cdcd"},"vehicle_type_id":"4","last_reported":1760185072,"current_range_meters":0,"station_id":"ce4bhbh2rcd13ifvqeo0","pricing_plan_id":"cebpf4jnsgd1na2vs0mg"},{"bike_id":"9a4429d1-232c-4519-8ed9-312533b588c9","system_id":"levelo_inurba_marseille","lat":43.26222,"lon":5.40475,"is_reserved":false,"is_disabled":true,"rental_uris":{"android":"levelo://app?vid=9a4429d1-232c-4519-8ed9-312533b588c9","ios":"levelo://app?vid=9a4429d1-232c-4519-8ed9-312533b588c9"},"vehicle_type_id":"4","last_reported":1760185072,"current_range_meters":0,"station_id":"ce4bhmh2rcd13ifvqgmg","pricing_plan_id":"cebpf4jnsgd1na2vs0mg"},{"bike_id":"fd0a7fda-c3d4-46af-8ce9-7e1101bb223a","system_id":"levelo_inurba_marseille","lat":43.305368,"lon":5.367286,"is_reserved":false,"is_disabled":true,"rental_uris":{"android":"levelo://app?vid=fd0a7fda-c3d4-46af-8ce9-7e1101bb223a","ios":"levelo://app?vid=fd0a7fda-c3d4-46af-8ce9-7e1101bb223a"},"vehicle_type_id":"4","last_reported":1760185072,"current_range_meters":0,"station_id":"ce4bho92rcd13ifvqh4g","pricing_plan_id":"cebpf4jnsgd1na2vs0mg"},{"bike_id":"0ff28379-d69e-46fd-a711-ef84b1b06a74","system_id":"levelo_inurba_marseille","lat":43.21743,"lon":5.34587,"is_reserved":false,"is_disabled":true,"rental_uris":{"android":"levelo://app?vid=0ff28379-d69e-46fd-a711-ef84b1b06a74","ios":"levelo://app?vid=0ff28379-d69e-46fd-a711-ef84b1b06a74"},"vehicle_type_id":"4","last_reported":1760185072,"current_range_meters":0,"station_id":"st_cvj6r9ubvosntc0bgbag","pricing_plan_id":"cebpf4jnsgd1na2vs0mg"},{"bike_id":"133d7506-6317-4410-9fd4-a13902f83db9","system_id":"levelo_inurba_marseille","lat":43.21749,"lon":5.346,"is_reserved":false,"is_disabled":true,"rental_uris":{"android":"levelo://app?vid=133d7506-6317-4410-9fd4-a13902f83db9","ios":"levelo://app?vid=133d7506-6317-4410-9fd4-a13902f83db9"},"vehicle_type_id":"4","last_reported":1760185072,"current_range_meters":0,"station_id":"st_cvj6r9ubvosntc0bgbag","pricing_plan_id":"cebpf4jnsgd1na2vs0mg"},{"bike_id":"fc87f29b-9c8d-4328-a892-37bcf1edda9b","system_id":"levelo_inurba_marseille","lat":43.21752,"lon":5.34597,"is_reserved":false,"is_disabled":true,"rental_uris":{"android":"levelo://app?vid=fc87f29b-9c8d-4328-a892-37bcf1edda9b","ios":"levelo://app?vid=fc87f29b-9c8d-4328-a892-37bcf1edda9b"},"vehicle_type_id":"4","last_reported":1760185072,"current_range_meters":0,"station_id":"st_cvj6r9ubvosntc0bgbag","pricing_plan_id":"cebpf4jnsgd1na2vs0mg"},{"bike_id":"86eca012-edfb-4c20-9aef-d37ce3cadbda","system_id":"levelo_inurba_marseille","lat":43.211863,"lon":5.350691,"is_reserved":false,"is_disabled":true,"rental_uris":{"android":"levelo://app?vid=86eca012-edfb-4c20-9aef-d37ce3cadbda","ios":"levelo://app?vid=86eca012-edfb-4c20-9aef-d37ce3cadbda"},"vehicle_type_id":"4","last_reported":1760185072,"current_range_meters":0,"station_id":"st_cvj6sg6p6f1abm77japg","pricing_plan_id":"cebpf4jnsgd1na2vs0mg"},{"bike_id":"5206f34d-5c08-42bd-b24d-21b13734d2e6","system_id":"levelo_inurba_marseille","lat":43.21196,"lon":5.35069,"is_reserved":false,"is_disabled":true,"rental_uris":{"android":"levelo://app?vid=5206f34d-5c08-42bd-b24d-21b13734d2e6","ios":"levelo://app?vid=5206f34d-5c08-42bd-b24d-21b13734d2e6"},"vehicle_type_id":"4","last_reported":1760185072,"current_range_meters":0,"station_id":"st_cvj6sg6p6f1abm77japg","pricing_plan_id":"cebpf4jnsgd1na2vs0mg"},{"bike_id":"5a1f50b1-f1f9-4f02-a3c5-363250f2c45b","system_id":"levelo_inurba_marseille","lat":43.2119,"lon":5.35069,"is_reserved":false,"is_disabled":true,"rental_uris":{"android":"levelo://app?vid=5a1f50b1-f1f9-4f02-a3c5-363250f2c45b","ios":"levelo://app?vid=5a1f50b1-f1f9-4f02-a3c5-363250f2c45b"},"vehicle_type_id":"4","last_reported":1760185072,"current_range_meters":0,"station_id":"st_cvj6sg6p6f1abm77japg","pricing_plan_id":"cebpf4jnsgd1na2vs0mg"},{"bike_id":"9b38626a-c092-4ef3-89f6-ce0a28e7daf5","system_id":"levelo_inurba_marseille","lat":43.25333,"lon":5.42174,"is_reserved":false,"is_disabled":true,"rental_uris":{"android":"levelo://app?vid=9b38626a-c092-4ef3-89f6-ce0a28e7daf5","ios":"levelo://app?vid=9b38626a-c092-4ef3-89f6-ce0a28e7daf5"},"vehicle_type_id":"4","last_reported":1760185072,"current_range_meters":0,"station_id":"st_d2m65c5bi1j21697t3ng","pricing_plan_id":"cebpf4jnsgd1na2vs0mg"},{"bike_id":"5033aa7c-b4ff-46c3-8063-9a70f908ee32","system_id":"levelo_inurba_marseille","lat":43.29227,"lon":5.36068,"is_reserved":false,"is_disabled":true,"rental_uris":{"android":"levelo://app?vid=5033aa7c-b4ff-46c3-8063-9a70f908ee32","ios":"levelo://app?vid=5033aa7c-b4ff-46c3-8063-9a70f908ee32"},"vehicle_type_id":"4","last_reported":1760185072,"current_range_meters":400,"station_id":"ce4bhbh2rcd13ifvqeqg","pricing_plan_id":"cebpf4jnsgd1na2vs0mg"},{"bike_id":"0e07ddf4-8416-4fba-bb48-81a4bbd0a05e","system_id":"levelo_inurba_marseille","lat":43.26208,"lon":5.37442,"is_reserved":false,"is_disabled":true,"rental_uris":{"android":"levelo://app?vid=0e07ddf4-8416-4fba-bb48-81a4bbd0a05e","ios":"levelo://app?vid=0e07ddf4-8416-4fba-bb48-81a4bbd0a05e"},"vehicle_type_id":"4","last_reported":1760185072,"current_range_meters":400,"station_id":"ce4bhgp2rcd13ifvqfc0","pricing_plan_id":"cebpf4jnsgd1na2vs0mg"},{"bike_id":"72ffe01d-71cc-4106-a02b-823a7320009f","system_id":"levelo_inurba_marseille","lat":43.23155,"lon":5.43713,"is_reserved":false,"is_disabled":true,"rental_uris":{"android":"levelo://app?vid=72ffe01d-71cc-4106-a02b-823a7320009f","ios":"levelo://app?vid=72ffe01d-71cc-4106-a02b-823a7320009f"},"vehicle_type_id":"4","last_reported":1760185072,"current_range_meters":400,"station_id":"ce4bhmp2rcd13ifvqgog","pricing_plan_id":"cebpf4jnsgd1na2vs0mg"},{"bike_id":"dce2d7c9-35e3-472e-89e4-fb1265f1ff45","system_id":"levelo_inurba_marseille","lat":43.279963,"lon":5.416687,"is_reserved":false,"is_disabled":true,"rental_uris":{"android":"levelo://app?vid=dce2d7c9-35e3-472e-89e4-fb1265f1ff45","ios":"levelo://app?vid=dce2d7c9-35e3-472e-89e4-fb1265f1ff45"},"vehicle_type_id":"4","last_reported":1760185072,"current_range_meters":400,"station_id":"ce4bho12rcd13ifvqh1g","pricing_plan_id":"cebpf4jnsgd1na2vs0mg"},{"bike_id":"9d0fad03-63a6-494f-9149-4682b4930204","system_id":"levelo_inurba_marseille","lat":43.22932,"lon":5.35374,"is_reserved":false,"is_disabled":true,"rental_uris":{"android":"levelo://app?vid=9d0fad03-63a6-494f-9149-4682b4930204","ios":"levelo://app?vid=9d0fad03-63a6-494f-9149-4682b4930204"},"vehicle_type_id":"4","last_reported":1760185072,"current_range_meters":400,"station_id":"cpo3532slgdg3j2ikp40","pricing_plan_id":"cebpf4jnsgd1na2vs0mg"},{"bike_id":"82b0553b-f7b4-409c-ab54-dda4530897ce","system_id":"levelo_inurba_marseille","lat":43.29528,"lon":5.39045,"is_reserved":false,"is_disabled":true,"rental_uris":{"android":"levelo://app?vid=82b0553b-f7b4-409c-ab54-dda4530897ce","ios":"levelo://app?vid=82b0553b-f7b4-409c-ab54-dda4530897ce"},"vehicle_type_id":"4","last_reported":1760185072,"current_range_meters":800,"station_id":"ce4bh3p2rcd13ifvqdp0","pricing_plan_id":"cebpf4jnsgd1na2vs0mg"},{"bike_id":"c57504e9-3e22-455c-a7b5-4a14bdc0f4f5","system_id":"levelo_inurba_marseille","lat":43.27672,"lon":5.38867,"is_reserved":false,"is_disabled":true,"rental_uris":{"android":"levelo://app?vid=c57504e9-3e22-455c-a7b5-4a14bdc0f4f5","ios":"levelo://app?vid=c57504e9-3e22-455c-a7b5-4a14bdc0f4f5"},"vehicle_type_id":"4","last_reported":1760185072,"current_range_meters":800,"station_id":"ce4bhi12rcd13ifvqfo0","pricing_plan_id":"cebpf4jnsgd1na2vs0mg"},{"bike_id":"b2e2b38d-36f4-4e15-986e-723132819a60","system_id":"levelo_inurba_marseille","lat":43.30842,"lon":5.43531,"is_reserved":false,"is_disabled":true,"rental_uris":{"android":"levelo://app?vid=b2e2b38d-36f4-4e15-986e-723132819a60","ios":"levelo://app?vid=b2e2b38d-36f4-4e15-986e-723132819a60"},"vehicle_type_id":"4","last_reported":1760185072,"current_range_meters":800,"station_id":"ce4bhph2rcd13ifvqheg","pricing_plan_id":"cebpf4jnsgd1na2vs0mg"},{"bike_id":"a9dd0207-4537-4709-9252-789d1dd6f16e","system_id":"levelo_inurba_marseille","lat":43.21746,"lon":5.34604,"is_reserved":false,"is_disabled":true,"rental_uris":{"android":"levelo://app?vid=a9dd0207-4537-4709-9252-789d1dd6f16e","ios":"levelo://app?vid=a9dd0207-4537-4709-9252-789d1dd6f16e"},"vehicle_type_id":"4","last_reported":1760185072,"current_range_meters":800,"station_id":"st_cvj6r9ubvosntc0bgbag","pricing_plan_id":"cebpf4jnsgd1na2vs0mg"},{"bike_id":"bc3f26e6-e751-4b6b-963c-dde1fcea9387","system_id":"levelo_inurba_marseille","lat":43.298405,"lon":5.362763,"is_reserved":false,"is_disabled":true,"rental_uris":{"android":"levelo://app?vid=bc3f26e6-e751-4b6b-963c-dde1fcea9387","ios":"levelo://app?vid=bc3f26e6-e751-4b6b-963c-dde1fcea9387"},"vehicle_type_id":"4","last_reported":1760185072,"current_range_meters":1200,"station_id":"ce4bgpp2rcd13ifvqc3g","pricing_plan_id":"cebpf4jnsgd1na2vs0mg"},{"bike_id":"4de9bb2c-153d-477b-bb89-ff8edd4891d6","system_id":"levelo_inurba_marseille","lat":43.31363,"lon":5.38492,"is_reserved":false,"is_disabled":true,"rental_uris":{"android":"levelo://app?vid=4de9bb2c-153d-477b-bb89-ff8edd4891d6","ios":"levelo://app?vid=4de9bb2c-153d-477b-bb89-ff8edd4891d6"},"vehicle_type_id":"4","last_reported":1760185072,"current_range_meters":1200,"station_id":"ce4bgt92rcd13ifvqcf0","pricing_plan_id":"cebpf4jnsgd1na2vs0mg"},{"bike_id":"3cb3b895-7d43-49f2-83e0-440a3067236e","system_id":"levelo_inurba_marseille","lat":43.301403,"lon":5.398537,"is_reserved":false,"is_disabled":true,"rental_uris":{"android":"levelo://app?vid=3cb3b895-7d43-49f2-83e0-440a3067236e","ios":"levelo://app?vid=3cb3b895-7d43-49f2-83e0-440a3067236e"},"vehicle_type_id":"4","last_reported":1760185072,"current_range_meters":1200,"station_id":"ce4bh0h2rcd13ifvqd40","pricing_plan_id":"cebpf4jnsgd1na2vs0mg"},{"bike_id":"2eb9f51b-7328-483d-8572-c61e7a9615a1","system_id":"levelo_inurba_marseille","lat":43.272085,"lon":5.391855,"is_reserved":false,"is_disabled":true,"rental_uris":{"android":"levelo://app?vid=2eb9f51b-7328-483d-8572-c61e7a9615a1","ios":"levelo://app?vid=2eb9f51b-7328-483d-8572-c61e7a9615a1"},"vehicle_type_id":"4","last_reported":1760185072,"current_range_meters":1200,"station_id":"ce4bhhp2rcd13ifvqfm0","pricing_plan_id":"cebpf4jnsgd1na2vs0mg"},{"bike_id":"a62a1b1d-812e-4c39-a28a-d207a1f6cef4","system_id":"levelo_inurba_marseille","lat":43.27677,"lon":5.38875,"is_reserved":false,"is_disabled":true,"rental_uris":{"android":"levelo://app?vid=a62a1b1d-812e-4c39-a28a-d207a1f6cef4","ios":"levelo://app?vid=a62a1b1d-812e-4c39-a28a-d207a1f6cef4"},"vehicle_type_id":"4","last_reported":1760185072,"current_range_meters":1200,"station_id":"ce4bhi12rcd13ifvqfo0","pricing_plan_id":"cebpf4jnsgd1na2vs0mg"},{"bike_id":"628dac6a-da53-4824-bd92-db1d12907602","system_id":"levelo_inurba_marseille","lat":43.23186,"lon":5.399826,"is_reserved":false,"is_disabled":true,"rental_uris":{"android":"levelo://app?vid=628dac6a-da53-4824-bd92-db1d12907602","ios":"levelo://app?vid=628dac6a-da53-4824-bd92-db1d12907602"},"vehicle_type_id":"4","last_reported":1760185072,"current_range_meters":1200,"station_id":"ce4bhn12rcd13ifvqgqg","pricing_plan_id":"cebpf4jnsgd1na2vs0mg"},{"bike_id":"37418df8-68f9-4a45-aecb-6486a0dd8e02","system_id":"levelo_inurba_marseille","lat":43.276172,"lon":5.361014,"is_reserved":false,"is_disabled":true,"rental_uris":{"android":"levelo://app?vid=37418df8-68f9-4a45-aecb-6486a0dd8e02","ios":"levelo://app?vid=37418df8-68f9-4a45-aecb-6486a0dd8e02"},"vehicle_type_id":"4","last_reported":1760185072,"current_range_meters":1600,"station_id":"ce4bgj92rcd13ifvqbe0","pricing_plan_id":"cebpf4jnsgd1na2vs0mg"},{"bike_id":"973d8d5f-ceaf-4023-aa9c-d8193b78b2e7","system_id":"levelo_inurba_marseille","lat":43.22557,"lon":5.41625,"is_reserved":false,"is_disabled":true,"rental_uris":{"android":"levelo://app?vid=973d8d5f-ceaf-4023-aa9c-d8193b78b2e7","ios":"levelo://app?vid=973d8d5f-ceaf-4023-aa9c-d8193b78b2e7"},"vehicle_type_id":"4","last_reported":1760185072,"current_range_meters":1600,"station_id":"st_d2o4gvlbi1j2169b742g","pricing_plan_id":"cebpf4jnsgd1na2vs0mg"},{"bike_id":"994a33a7-2943-4903-ba33-8f0d3daafc22","system_id":"levelo_inurba_marseille","lat":43.337444,"lon":5.374475,"is_reserved":false,"is_disabled":true,"rental_uris":{"android":"levelo://app?vid=994a33a7-2943-4903-ba33-8f0d3daafc22","ios":"levelo://app?vid=994a33a7-2943-4903-ba33-8f0d3daafc22"},"vehicle_type_id":"4","last_reported":1760185072,"current_range_meters":2000,"station_id":"","pricing_plan_id":"cebpf4jnsgd1na2vs0mg"},{"bike_id":"4cfdd58f-6bc3-4170-b6c1-cf499a0999ba","system_id":"levelo_inurba_marseille","lat":43.28403,"lon":5.34982,"is_reserved":false,"is_disabled":false,"rental_uris":{"android":"levelo://app?vid=4cfdd58f-6bc3-4170-b6c1-cf499a0999ba","ios":"levelo://app?vid=4cfdd58f-6bc3-4170-b6c1-cf499a0999ba"},"vehicle_type_id":"4","last_reported":1760185072,"current_range_meters":2800,"station_id":"","pricing_plan_id":"cebpf4jnsgd1na2vs0mg"},{"bike_id":"9a9f181b-3cce-4cb3-b8f6-be1762c120ec","system_id":"levelo_inurba_marseille","lat":43.22562,"lon":5.41626,"is_reserved":false,"is_disabled":false,"rental_uris":{"android":"levelo://app?vid=9a9f181b-3cce-4cb3-b8f6-be1762c120ec","ios":"levelo://app?vid=9a9f181b-3cce-4cb3-b8f6-be1762c120ec"},"vehicle_type_id":"4","last_reported":1760185072,"current_range_meters":2800,"station_id":"st_d2o4gvlbi1j2169b742g","pricing_plan_id":"cebpf4jnsgd1na2vs0mg"},{"bike_id":"b2bc387f-5555-4aa7-b514-56d343fe7e08","system_id":"levelo_inurba_marseille","lat":43.28258,"lon":5.35066,"is_reserved":false,"is_disabled":false,"rental_uris":{"android":"levelo://app?vid=b2bc387f-5555-4aa7-b514-56d343fe7e08","ios":"levelo://app?vid=b2bc387f-5555-4aa7-b514-56d343fe7e08"},"vehicle_type_id":"4","last_reported":1760185072,"current_range_meters":3200,"station_id":"ce4bhbp2rcd13ifvqerg","pricing_plan_id":"cebpf4jnsgd1na2vs0mg"},{"bike_id":"7dccdebd-13d7-42ae-8c63-b78f4d99b0df","system_id":"levelo_inurba_marseille","lat":43.26784,"lon":5.39417,"is_reserved":false,"is_disabled":false,"rental_uris":{"android":"levelo://app?vid=7dccdebd-13d7-42ae-8c63-b78f4d99b0df","ios":"levelo://app?vid=7dccdebd-13d7-42ae-8c63-b78f4d99b0df"},"vehicle_type_id":"4","last_reported":1760185072,"current_range_meters":3200,"station_id":"ce4bhh12rcd13ifvqfg0","pricing_plan_id":"cebpf4jnsgd1na2vs0mg"},{"bike_id":"5c68b6ac-1d4e-4142-8bfc-dcacc09ea511","system_id":"levelo_inurba_marseille","lat":43.27207,"lon":5.39178,"is_reserved":false,"is_disabled":false,"rental_uris":{"android":"levelo://app?vid=5c68b6ac-1d4e-4142-8bfc-dcacc09ea511","ios":"levelo://app?vid=5c68b6ac-1d4e-4142-8bfc-dcacc09ea511"},"vehicle_type_id":"4","last_reported":1760185072,"current_range_meters":3200,"station_id":"ce4bhhp2rcd13ifvqfm0","pricing_plan_id":"cebpf4jnsgd1na2vs0mg"},{"bike_id":"664faec9-5f68-4042-993e-7ae512c53c66","system_id":"levelo_inurba_marseille","lat":43.28419,"lon":5.34971,"is_reserved":false,"is_disabled":false,"rental_uris":{"android":"levelo://app?vid=664faec9-5f68-4042-993e-7ae512c53c66","ios":"levelo://app?vid=664faec9-5f68-4042-993e-7ae512c53c66"},"vehicle_type_id":"4","last_reported":1760185072,"current_range_meters":3600,"station_id":"","pricing_plan_id":"cebpf4jnsgd1na2vs0mg"},{"bike_id":"2524b8bf-06d4-42c5-8057-739ffde19453","system_id":"levelo_inurba_marseille","lat":43.30376,"lon":5.42485,"is_reserved":false,"is_disabled":false,"rental_uris":{"android":"levelo://app?vid=2524b8bf-06d4-42c5-8057-739ffde19453","ios":"levelo://app?vid=2524b8bf-06d4-42c5-8057-739ffde19453"},"vehicle_type_id":"4","last_reported":1760185072,"current_range_meters":3600,"station_id":"ce4bhoh2rcd13ifvqh6g","pricing_plan_id":"cebpf4jnsgd1na2vs0mg"},{"bike_id":"42500951-210f-4506-b37d-e5f9ed0848c8","system_id":"levelo_inurba_marseille","lat":43.23193,"lon":5.35549,"is_reserved":false,"is_disabled":false,"rental_uris":{"android":"levelo://app?vid=42500951-210f-4506-b37d-e5f9ed0848c8","ios":"levelo://app?vid=42500951-210f-4506-b37d-e5f9ed0848c8"},"vehicle_type_id":"4","last_reported":1760185072,"current_range_meters":4000,"station_id":"ce4bhu92rcd13ifvqi70","pricing_plan_id":"cebpf4jnsgd1na2vs0mg"},{"bike_id":"23f15c4d-3aab-43e2-8825-d491160ecaf9","system_id":"levelo_inurba_marseille","lat":43.211914,"lon":5.350741,"is_reserved":false,"is_disabled":false,"rental_uris":{"android":"levelo://app?vid=23f15c4d-3aab-43e2-8825-d491160ecaf9","ios":"levelo://app?vid=23f15c4d-3aab-43e2-8825-d491160ecaf9"},"vehicle_type_id":"4","last_reported":1760185072,"current_range_meters":4000,"station_id":"st_cvj6sg6p6f1abm77japg","pricing_plan_id":"cebpf4jnsgd1na2vs0mg"},{"bike_id":"1508e37c-ddee-4fca-a836-8777a02263a4","system_id":"levelo_inurba_marseille","lat":43.297229,"lon":5.380115,"is_reserved":false,"is_disabled":false,"rental_uris":{"android":"levelo://app?vid=1508e37c-ddee-4fca-a836-8777a02263a4","ios":"levelo://app?vid=1508e37c-ddee-4fca-a836-8777a02263a4"},"vehicle_type_id":"4","last_reported":1760185072,"current_range_meters":4400,"station_id":"","pricing_plan_id":"cebpf4jnsgd1na2vs0mg"},{"bike_id":"06be83c8-8ac5-4f98-8ac7-bb1b3797f72c","system_id":"levelo_inurba_marseille","lat":43.28945,"lon":5.36387,"is_reserved":false,"is_disabled":false,"rental_uris":{"android":"levelo://app?vid=06be83c8-8ac5-4f98-8ac7-bb1b3797f72c","ios":"levelo://app?vid=06be83c8-8ac5-4f98-8ac7-bb1b3797f72c"},"vehicle_type_id":"4","last_reported":1760185072,"current_range_meters":4400,"station_id":"ce4bhc92rcd13ifvqetg","pricing_plan_id":"cebpf4jnsgd1na2vs0mg"},{"bike_id":"5e529ba1-3783-41af-86fa-a5f3a77a378b","system_id":"levelo_inurba_marseille","lat":43.26037,"lon":5.37535,"is_reserved":false,"is_disabled":false,"rental_uris":{"android":"levelo://app?vid=5e529ba1-3783-41af-86fa-a5f3a77a378b","ios":"levelo://app?vid=5e529ba1-3783-41af-86fa-a5f3a77a378b"},"vehicle_type_id":"4","last_reported":1760185072,"current_range_meters":4400,"station_id":"ce4bhgh2rcd13ifvqfa0","pricing_plan_id":"cebpf4jnsgd1na2vs0mg"},{"bike_id":"7c36759a-3eea-44a6-afd7-70fe9fd88e1c","system_id":"levelo_inurba_marseille","lat":43.25501,"lon":5.37652,"is_reserved":false,"is_disabled":false,"rental_uris":{"android":"levelo://app?vid=7c36759a-3eea-44a6-afd7-70fe9fd88e1c","ios":"levelo://app?vid=7c36759a-3eea-44a6-afd7-70fe9fd88e1c"},"vehicle_type_id":"4","last_reported":1760185072,"current_range_meters":4400,"station_id":"ce4bhh12rcd13ifvqff0","pricing_plan_id":"cebpf4jnsgd1na2vs0mg"},{"bike_id":"66ebf68c-5915-4632-ac85-ad168186e4f8","system_id":"levelo_inurba_marseille","lat":43.21745,"lon":5.34589,"is_reserved":false,"is_disabled":false,"rental_uris":{"android":"levelo://app?vid=66ebf68c-5915-4632-ac85-ad168186e4f8","ios":"levelo://app?vid=66ebf68c-5915-4632-ac85-ad168186e4f8"},"vehicle_type_id":"4","last_reported":1760185072,"current_range_meters":4400,"station_id":"st_cvj6r9ubvosntc0bgbag","pricing_plan_id":"cebpf4jnsgd1na2vs0mg"},{"bike_id":"c19915a3-9d36-4556-bafe-c7863ff90ad4","system_id":"levelo_inurba_marseille","lat":43.2175,"lon":5.346,"is_reserved":false,"is_disabled":false,"rental_uris":{"android":"levelo://app?vid=c19915a3-9d36-4556-bafe-c7863ff90ad4","ios":"levelo://app?vid=c19915a3-9d36-4556-bafe-c7863ff90ad4"},"vehicle_type_id":"4","last_reported":1760185072,"current_range_meters":4400,"station_id":"st_cvj6r9ubvosntc0bgbag","pricing_plan_id":"cebpf4jnsgd1na2vs0mg"},{"bike_id":"b8f3bcbc-1d6b-4189-8094-53faf1264cb7","system_id":"levelo_inurba_marseille","lat":43.27374,"lon":5.36249,"is_reserved":false,"is_disabled":false,"rental_uris":{"android":"levelo://app?vid=b8f3bcbc-1d6b-4189-8094-53faf1264cb7","ios":"levelo://app?vid=b8f3bcbc-1d6b-4189-8094-53faf1264cb7"},"vehicle_type_id":"4","last_reported":1760185072,"current_range_meters":4800,"station_id":"ce4bhbh2rcd13ifvqeo0","pricing_plan_id":"cebpf4jnsgd1na2vs0mg"},{"bike_id":"5fce82fb-37e5-4a8a-a1c9-7d7c13d27c16","system_id":"levelo_inurba_marseille","lat":43.27054,"lon":5.40263,"is_reserved":false,"is_disabled":false,"rental_uris":{"android":"levelo://app?vid=5fce82fb-37e5-4a8a-a1c9-7d7c13d27c16","ios":"levelo://app?vid=5fce82fb-37e5-4a8a-a1c9-7d7c13d27c16"},"vehicle_type_id":"4","last_reported":1760185072,"current_range_meters":4800,"station_id":"ce4bhk92rcd13ifvqgc0","pricing_plan_id":"cebpf4jnsgd1na2vs0mg"},{"bike_id":"9c21035b-9b50-4bb1-8919-56941c269d10","system_id":"levelo_inurba_marseille","lat":43.28415,"lon":5.34975,"is_reserved":false,"is_disabled":false,"rental_uris":{"android":"levelo://app?vid=9c21035b-9b50-4bb1-8919-56941c269d10","ios":"levelo://app?vid=9c21035b-9b50-4bb1-8919-56941c269d10"},"vehicle_type_id":"4","last_reported":1760185072,"current_range_meters":5600,"station_id":"ce4bhbh2rcd13ifvqepg","pricing_plan_id":"cebpf4jnsgd1na2vs0mg"},{"bike_id":"f417a2cb-1693-43b3-84db-0f0b541b896b","system_id":"levelo_inurba_marseille","lat":43.2656,"lon":5.37284,"is_reserved":false,"is_disabled":false,"rental_uris":{"android":"levelo://app?vid=f417a2cb-1693-43b3-84db-0f0b541b896b","ios":"levelo://app?vid=f417a2cb-1693-43b3-84db-0f0b541b896b"},"vehicle_type_id":"4","last_reported":1760185072,"current_range_meters":5600,"station_id":"ce4bhg12rcd13ifvqf70","pricing_plan_id":"cebpf4jnsgd1na2vs0mg"},{"bike_id":"5ccc7909-a5b3-4035-995d-3377d5b9c3fc","system_id":"levelo_inurba_marseille","lat":43.22934,"lon":5.353784,"is_reserved":false,"is_disabled":false,"rental_uris":{"android":"levelo://app?vid=5ccc7909-a5b3-4035-995d-3377d5b9c3fc","ios":"levelo://app?vid=5ccc7909-a5b3-4035-995d-3377d5b9c3fc"},"vehicle_type_id":"4","last_reported":1760185072,"current_range_meters":5600,"station_id":"st_cvj6r9ubvosntc0bgbag","pricing_plan_id":"cebpf4jnsgd1na2vs0mg"},{"bike_id":"1de09a72-2355-4388-b836-cf8ce2f15a4a","system_id":"levelo_inurba_marseille","lat":43.29629,"lon":5.4059,"is_reserved":false,"is_disabled":false,"rental_uris":{"android":"levelo://app?vid=1de09a72-2355-4388-b836-cf8ce2f15a4a","ios":"levelo://app?vid=1de09a72-2355-4388-b836-cf8ce2f15a4a"},"vehicle_type_id":"4","last_reported":1760185072,"current_range_meters":6000,"station_id":"ce4bh0h2rcd13ifvqd60","pricing_plan_id":"cebpf4jnsgd1na2vs0mg"},{"bike_id":"1314e79e-5591-4e42-8b3f-2d71c61290a9","system_id":"levelo_inurba_marseille","lat":43.27625,"lon":5.36113,"is_reserved":false,"is_disabled":false,"rental_uris":{"android":"levelo://app?vid=1314e79e-5591-4e42-8b3f-2d71c61290a9","ios":"levelo://app?vid=1314e79e-5591-4e42-8b3f-2d71c61290a9"},"vehicle_type_id":"4","last_reported":1760185072,"current_range_meters":6400,"station_id":"ce4bgj92rcd13ifvqbe0","pricing_plan_id":"cebpf4jnsgd1na2vs0mg"},{"bike_id":"21af16be-c184-450d-aca8-08089f3624c4","system_id":"levelo_inurba_marseille","lat":43.30186,"lon":5.36604,"is_reserved":false,"is_disabled":false,"rental_uris":{"android":"levelo://app?vid=21af16be-c184-450d-aca8-08089f3624c4","ios":"levelo://app?vid=21af16be-c184-450d-aca8-08089f3624c4"},"vehicle_type_id":"4","last_reported":1760185072,"current_range_meters":6400,"station_id":"ce4bgrh2rcd13ifvqc8g","pricing_plan_id":"cebpf4jnsgd1na2vs0mg"},{"bike_id":"c8aaf1a5-10b0-4816-909b-6deaa433e467","system_id":"levelo_inurba_marseille","lat":43.28706,"lon":5.3999,"is_reserved":false,"is_disabled":false,"rental_uris":{"android":"levelo://app?vid=c8aaf1a5-10b0-4816-909b-6deaa433e467","ios":"levelo://app?vid=c8aaf1a5-10b0-4816-909b-6deaa433e467"},"vehicle_type_id":"4","last_reported":1760185072,"current_range_meters":6400,"station_id":"ce4bho92rcd13ifvqh3g","pricing_plan_id":"cebpf4jnsgd1na2vs0mg"},{"bike_id":"286e15cd-84d2-453c-94e7-d09eaa8c91d3","system_id":"levelo_inurba_marseille","lat":43.21192,"lon":5.3507,"is_reserved":false,"is_disabled":false,"rental_uris":{"android":"levelo://app?vid=286e15cd-84d2-453c-94e7-d09eaa8c91d3","ios":"levelo://app?vid=286e15cd-84d2-453c-94e7-d09eaa8c91d3"},"vehicle_type_id":"4","last_reported":1760185072,"current_range_meters":6400,"station_id":"st_cvj6sg6p6f1abm77japg","pricing_plan_id":"cebpf4jnsgd1na2vs0mg"},{"bike_id":"8733dc42-6582-4ac8-b44e-58d8c7aa19d4","system_id":"levelo_inurba_marseille","lat":43.30548,"lon":5.36547,"is_reserved":false,"is_disabled":false,"rental_uris":{"android":"levelo://app?vid=8733dc42-6582-4ac8-b44e-58d8c7aa19d4","ios":"levelo://app?vid=8733dc42-6582-4ac8-b44e-58d8c7aa19d4"},"vehicle_type_id":"4","last_reported":1760185072,"current_range_meters":6800,"station_id":"ce4bgs12rcd13ifvqcag","pricing_plan_id":"cebpf4jnsgd1na2vs0mg"},{"bike_id":"2bc038b1-519b-42b1-9bd4-7d2b97044996","system_id":"levelo_inurba_marseille","lat":43.292825,"lon":5.410477,"is_reserved":false,"is_disabled":false,"rental_uris":{"android":"levelo://app?vid=2bc038b1-519b-42b1-9bd4-7d2b97044996","ios":"levelo://app?vid=2bc038b1-519b-42b1-9bd4-7d2b97044996"},"vehicle_type_id":"4","last_reported":1760185072,"current_range_meters":7200,"station_id":"","pricing_plan_id":"cebpf4jnsgd1na2vs0mg"},{"bike_id":"6522fee7-85be-4d82-b7a4-8fa2a757b4f1","system_id":"levelo_inurba_marseille","lat":43.30414,"lon":5.41282,"is_reserved":false,"is_disabled":false,"rental_uris":{"android":"levelo://app?vid=6522fee7-85be-4d82-b7a4-8fa2a757b4f1","ios":"levelo://app?vid=6522fee7-85be-4d82-b7a4-8fa2a757b4f1"},"vehicle_type_id":"4","last_reported":1760185072,"current_range_meters":7200,"station_id":"ce4bhop2rcd13ifvqh8g","pricing_plan_id":"cebpf4jnsgd1na2vs0mg"},{"bike_id":"e9e42d2d-7e53-4efc-b575-031b106766c7","system_id":"levelo_inurba_marseille","lat":43.297386,"lon":5.36875,"is_reserved":false,"is_disabled":false,"rental_uris":{"android":"levelo://app?vid=e9e42d2d-7e53-4efc-b575-031b106766c7","ios":"levelo://app?vid=e9e42d2d-7e53-4efc-b575-031b106766c7"},"vehicle_type_id":"4","last_reported":1760185072,"current_range_meters":8000,"station_id":"","pricing_plan_id":"cebpf4jnsgd1na2vs0mg"},{"bike_id":"a2353e3a-e154-414d-9035-a9d819e94dfb","system_id":"levelo_inurba_marseille","lat":43.29527,"lon":5.37544,"is_reserved":false,"is_disabled":false,"rental_uris":{"android":"levelo://app?vid=a2353e3a-e154-414d-9035-a9d819e94dfb","ios":"levelo://app?vid=a2353e3a-e154-414d-9035-a9d819e94dfb"},"vehicle_type_id":"4","last_reported":1760185072,"current_range_meters":8000,"station_id":"ce4bgkp2rcd13ifvqbmg","pricing_plan_id":"cebpf4jnsgd1na2vs0mg"},{"bike_id":"7dc5b240-b9de-4f33-b47d-6b744db33aed","system_id":"levelo_inurba_marseille","lat":43.28417,"lon":5.34984,"is_reserved":false,"is_disabled":false,"rental_uris":{"android":"levelo://app?vid=7dc5b240-b9de-4f33-b47d-6b744db33aed","ios":"levelo://app?vid=7dc5b240-b9de-4f33-b47d-6b744db33aed"},"vehicle_type_id":"4","last_reported":1760185072,"current_range_meters":8000,"station_id":"ce4bhbh2rcd13ifvqepg","pricing_plan_id":"cebpf4jnsgd1na2vs0mg"},{"bike_id":"bc5c5f03-b394-4ae9-9fee-dbbc22ef88dd","system_id":"levelo_inurba_marseille","lat":43.27672,"lon":5.38877,"is_reserved":false,"is_disabled":false,"rental_uris":{"android":"levelo://app?vid=bc5c5f03-b394-4ae9-9fee-dbbc22ef88dd","ios":"levelo://app?vid=bc5c5f03-b394-4ae9-9fee-dbbc22ef88dd"},"vehicle_type_id":"4","last_reported":1760185072,"current_range_meters":8000,"station_id":"ce4bhi12rcd13ifvqfo0","pricing_plan_id":"cebpf4jnsgd1na2vs0mg"},{"bike_id":"c3167860-7424-49bb-afc2-1dbcc32173ee","system_id":"levelo_inurba_marseille","lat":43.273842,"lon":5.362646,"is_reserved":false,"is_disabled":false,"rental_uris":{"android":"levelo://app?vid=c3167860-7424-49bb-afc2-1dbcc32173ee","ios":"levelo://app?vid=c3167860-7424-49bb-afc2-1dbcc32173ee"},"vehicle_type_id":"4","last_reported":1760185072,"current_range_meters":8000,"station_id":"cki0cbj6b192h4jlfktg","pricing_plan_id":"cebpf4jnsgd1na2vs0mg"},{"bike_id":"323a446d-5c88-414e-918e-316bf7a4abb3","system_id":"levelo_inurba_marseille","lat":43.26558,"lon":5.37284,"is_reserved":false,"is_disabled":false,"rental_uris":{"android":"levelo://app?vid=323a446d-5c88-414e-918e-316bf7a4abb3","ios":"levelo://app?vid=323a446d-5c88-414e-918e-316bf7a4abb3"},"vehicle_type_id":"4","last_reported":1760185072,"current_range_meters":8400,"station_id":"ce4bhg12rcd13ifvqf70","pricing_plan_id":"cebpf4jnsgd1na2vs0mg"},{"bike_id":"12073df2-017e-4415-89ee-ea6c575eaac0","system_id":"levelo_inurba_marseille","lat":43.231546,"lon":5.437255,"is_reserved":false,"is_disabled":false,"rental_uris":{"android":"levelo://app?vid=12073df2-017e-4415-89ee-ea6c575eaac0","ios":"levelo://app?vid=12073df2-017e-4415-89ee-ea6c575eaac0"},"vehicle_type_id":"4","last_reported":1760185072,"current_range_meters":8400,"station_id":"ce4bhmp2rcd13ifvqgog","pricing_plan_id":"cebpf4jnsgd1na2vs0mg"},{"bike_id":"ab39e7be-c709-417b-8585-a40c41c27372","system_id":"levelo_inurba_marseille","lat":43.225759,"lon":5.41636,"is_reserved":false,"is_disabled":false,"rental_uris":{"android":"levelo://app?vid=ab39e7be-c709-417b-8585-a40c41c27372","ios":"levelo://app?vid=ab39e7be-c709-417b-8585-a40c41c27372"},"vehicle_type_id":"4","last_reported":1760185072,"current_range_meters":8400,"station_id":"st_d2o4gvlbi1j2169b742g","pricing_plan_id":"cebpf4jnsgd1na2vs0mg"},{"bike_id":"7ecce9b3-6d8a-4b46-9e3e-06d9c28c905f","system_id":"levelo_inurba_marseille","lat":43.2891,"lon":5.39079,"is_reserved":false,"is_disabled":false,"rental_uris":{"android":"levelo://app?vid=7ecce9b3-6d8a-4b46-9e3e-06d9c28c905f","ios":"levelo://app?vid=7ecce9b3-6d8a-4b46-9e3e-06d9c28c905f"},"vehicle_type_id":"4","last_reported":1760185072,"current_range_meters":8800,"station_id":"","pricing_plan_id":"cebpf4jnsgd1na2vs0mg"},{"bike_id":"7b6794ab-8a28-49d1-903f-57a093902d81","system_id":"levelo_inurba_marseille","lat":43.29914,"lon":5.37474,"is_reserved":false,"is_disabled":false,"rental_uris":{"android":"levelo://app?vid=7b6794ab-8a28-49d1-903f-57a093902d81","ios":"levelo://app?vid=7b6794ab-8a28-49d1-903f-57a093902d81"},"vehicle_type_id":"4","last_reported":1760185072,"current_range_meters":8800,"station_id":"ce4bgjh2rcd13ifvqbg0","pricing_plan_id":"cebpf4jnsgd1na2vs0mg"},{"bike_id":"e69857b2-722c-4d3e-ba60-818b5ac8a550","system_id":"levelo_inurba_marseille","lat":43.22526,"lon":5.34816,"is_reserved":false,"is_disabled":false,"rental_uris":{"android":"levelo://app?vid=e69857b2-722c-4d3e-ba60-818b5ac8a550","ios":"levelo://app?vid=e69857b2-722c-4d3e-ba60-818b5ac8a550"},"vehicle_type_id":"4","last_reported":1760185072,"current_range_meters":8800,"station_id":"st_cvj5dfep6f1abm77gieg","pricing_plan_id":"cebpf4jnsgd1na2vs0mg"},{"bike_id":"0441e376-2474-4e63-8e92-4ac8940765be","system_id":"levelo_inurba_marseille","lat":43.21748,"lon":5.345948,"is_reserved":false,"is_disabled":false,"rental_uris":{"android":"levelo://app?vid=0441e376-2474-4e63-8e92-4ac8940765be","ios":"levelo://app?vid=0441e376-2474-4e63-8e92-4ac8940765be"},"vehicle_type_id":"4","last_reported":1760185072,"current_range_meters":8800,"station_id":"st_cvj6r9ubvosntc0bgbag","pricing_plan_id":"cebpf4jnsgd1na2vs0mg"},{"bike_id":"92a30c30-f0b8-473f-9db4-cad408eac6b7","system_id":"levelo_inurba_marseille","lat":43.21749,"lon":5.34606,"is_reserved":false,"is_disabled":false,"rental_uris":{"android":"levelo://app?vid=92a30c30-f0b8-473f-9db4-cad408eac6b7","ios":"levelo://app?vid=92a30c30-f0b8-473f-9db4-cad408eac6b7"},"vehicle_type_id":"4","last_reported":1760185072,"current_range_meters":8800,"station_id":"st_cvj6r9ubvosntc0bgbag","pricing_plan_id":"cebpf4jnsgd1na2vs0mg"},{"bike_id":"de7fe69b-047c-4fe9-8d8c-7f9147568258","system_id":"levelo_inurba_marseille","lat":43.22566,"lon":5.4162,"is_reserved":false,"is_disabled":false,"rental_uris":{"android":"levelo://app?vid=de7fe69b-047c-4fe9-8d8c-7f9147568258","ios":"levelo://app?vid=de7fe69b-047c-4fe9-8d8c-7f9147568258"},"vehicle_type_id":"4","last_reported":1760185072,"current_range_meters":8800,"station_id":"st_d2o4gvlbi1j2169b742g","pricing_plan_id":"cebpf4jnsgd1na2vs0mg"},{"bike_id":"0458f03b-1910-440f-9167-c00670fba699","system_id":"levelo_inurba_marseille","lat":43.337444,"lon":5.374475,"is_reserved":false,"is_disabled":false,"rental_uris":{"android":"levelo://app?vid=0458f03b-1910-440f-9167-c00670fba699","ios":"levelo://app?vid=0458f03b-1910-440f-9167-c00670fba699"},"vehicle_type_id":"4","last_reported":1760185072,"current_range_meters":9200,"station_id":"","pricing_plan_id":"cebpf4jnsgd1na2vs0mg"},{"bike_id":"840f5367-4a8b-4bf8-aed3-ddf295d75be0","system_id":"levelo_inurba_marseille","lat":43.30428,"lon":5.371896,"is_reserved":false,"is_disabled":false,"rental_uris":{"android":"levelo://app?vid=840f5367-4a8b-4bf8-aed3-ddf295d75be0","ios":"levelo://app?vid=840f5367-4a8b-4bf8-aed3-ddf295d75be0"},"vehicle_type_id":"4","last_reported":1760185072,"current_range_meters":9200,"station_id":"","pricing_plan_id":"cebpf4jnsgd1na2vs0mg"},{"bike_id":"433b1680-0a66-40b0-ab7a-d26708b916c2","system_id":"levelo_inurba_marseille","lat":43.28399,"lon":5.34981,"is_reserved":false,"is_disabled":false,"rental_uris":{"android":"levelo://app?vid=433b1680-0a66-40b0-ab7a-d26708b916c2","ios":"levelo://app?vid=433b1680-0a66-40b0-ab7a-d26708b916c2"},"vehicle_type_id":"4","last_reported":1760185072,"current_range_meters":9200,"station_id":"","pricing_plan_id":"cebpf4jnsgd1na2vs0mg"},{"bike_id":"0bc5e10f-4e30-42b3-a44c-874fd4bd78ac","system_id":"levelo_inurba_marseille","lat":43.31271,"lon":5.40159,"is_reserved":false,"is_disabled":false,"rental_uris":{"android":"levelo://app?vid=0bc5e10f-4e30-42b3-a44c-874fd4bd78ac","ios":"levelo://app?vid=0bc5e10f-4e30-42b3-a44c-874fd4bd78ac"},"vehicle_type_id":"4","last_reported":1760185072,"current_range_meters":9200,"station_id":"ce4bh092rcd13ifvqd30","pricing_plan_id":"cebpf4jnsgd1na2vs0mg"},{"bike_id":"65de34ce-6450-4e56-a6fe-251627e07b88","system_id":"levelo_inurba_marseille","lat":43.217419,"lon":5.346111,"is_reserved":false,"is_disabled":false,"rental_uris":{"android":"levelo://app?vid=65de34ce-6450-4e56-a6fe-251627e07b88","ios":"levelo://app?vid=65de34ce-6450-4e56-a6fe-251627e07b88"},"vehicle_type_id":"4","last_reported":1760185072,"current_range_meters":9200,"station_id":"st_cvj6r9ubvosntc0bgbag","pricing_plan_id":"cebpf4jnsgd1na2vs0mg"},{"bike_id":"567535da-e28c-4727-a5a6-665654600220","system_id":"levelo_inurba_marseille","lat":43.21748,"lon":5.34592,"is_reserved":false,"is_disabled":false,"rental_uris":{"android":"levelo://app?vid=567535da-e28c-4727-a5a6-665654600220","ios":"levelo://app?vid=567535da-e28c-4727-a5a6-665654600220"},"vehicle_type_id":"4","last_reported":1760185072,"current_range_meters":9200,"station_id":"st_cvj6r9ubvosntc0bgbag","pricing_plan_id":"cebpf4jnsgd1na2vs0mg"},{"bike_id":"e78c2604-e21f-422f-b80a-2add4d62e5bd","system_id":"levelo_inurba_marseille","lat":43.328822,"lon":5.38146,"is_reserved":false,"is_disabled":false,"rental_uris":{"android":"levelo://app?vid=e78c2604-e21f-422f-b80a-2add4d62e5bd","ios":"levelo://app?vid=e78c2604-e21f-422f-b80a-2add4d62e5bd"},"vehicle_type_id":"4","last_reported":1760185072,"current_range_meters":9600,"station_id":"","pricing_plan_id":"cebpf4jnsgd1na2vs0mg"},{"bike_id":"d1bf98ef-f1b6-4472-b394-1a08568f7bb2","system_id":"levelo_inurba_marseille","lat":43.295417,"lon":5.374652,"is_reserved":false,"is_disabled":false,"rental_uris":{"android":"levelo://app?vid=d1bf98ef-f1b6-4472-b394-1a08568f7bb2","ios":"levelo://app?vid=d1bf98ef-f1b6-4472-b394-1a08568f7bb2"},"vehicle_type_id":"4","last_reported":1760185072,"current_range_meters":9600,"station_id":"","pricing_plan_id":"cebpf4jnsgd1na2vs0mg"},{"bike_id":"226f9861-d66c-4c69-b23f-48aa5532ae82","system_id":"levelo_inurba_marseille","lat":43.2815,"lon":5.42643,"is_reserved":false,"is_disabled":false,"rental_uris":{"android":"levelo://app?vid=226f9861-d66c-4c69-b23f-48aa5532ae82","ios":"levelo://app?vid=226f9861-d66c-4c69-b23f-48aa5532ae82"},"vehicle_type_id":"4","last_reported":1760185072,"current_range_meters":9600,"station_id":"ce4bhnh2rcd13ifvqgug","pricing_plan_id":"cebpf4jnsgd1na2vs0mg"},{"bike_id":"560c1c0d-d837-4a08-96e8-eb68e76cbed7","system_id":"levelo_inurba_marseille","lat":43.3237,"lon":5.3888,"is_reserved":false,"is_disabled":false,"rental_uris":{"android":"levelo://app?vid=560c1c0d-d837-4a08-96e8-eb68e76cbed7","ios":"levelo://app?vid=560c1c0d-d837-4a08-96e8-eb68e76cbed7"},"vehicle_type_id":"4","last_reported":1760185072,"current_range_meters":9600,"station_id":"ce4bhqp2rcd13ifvqhog","pricing_plan_id":"cebpf4jnsgd1na2vs0mg"},{"bike_id":"f84db39b-1588-467c-a7d6-3417c55d68b1","system_id":"levelo_inurba_marseille","lat":43.293683,"lon":5.375298,"is_reserved":false,"is_disabled":false,"rental_uris":{"android":"levelo://app?vid=f84db39b-1588-467c-a7d6-3417c55d68b1","ios":"levelo://app?vid=f84db39b-1588-467c-a7d6-3417c55d68b1"},"vehicle_type_id":"4","last_reported":1760185072,"current_range_meters":10000,"station_id":"","pricing_plan_id":"cebpf4jnsgd1na2vs0mg"},{"bike_id":"431c2e70-433d-4af0-acf4-957ec8670f40","system_id":"levelo_inurba_marseille","lat":43.2954,"lon":5.383068,"is_reserved":false,"is_disabled":false,"rental_uris":{"android":"levelo://app?vid=431c2e70-433d-4af0-acf4-957ec8670f40","ios":"levelo://app?vid=431c2e70-433d-4af0-acf4-957ec8670f40"},"vehicle_type_id":"4","last_reported":1760185072,"current_range_meters":10000,"station_id":"","pricing_plan_id":"cebpf4jnsgd1na2vs0mg"},{"bike_id":"0671798a-4890-4956-a3d7-0707733157fb","system_id":"levelo_inurba_marseille","lat":43.290185,"lon":5.38143,"is_reserved":false,"is_disabled":false,"rental_uris":{"android":"levelo://app?vid=0671798a-4890-4956-a3d7-0707733157fb","ios":"levelo://app?vid=0671798a-4890-4956-a3d7-0707733157fb"},"vehicle_type_id":"4","last_reported":1760185072,"current_range_meters":10000,"station_id":"ce4bh4p2rcd13ifvqe1g","pricing_plan_id":"cebpf4jnsgd1na2vs0mg"},{"bike_id":"2db21882-a1e0-4d6b-b73c-c2fb702b160c","system_id":"levelo_inurba_marseille","lat":43.27381,"lon":5.36262,"is_reserved":false,"is_disabled":false,"rental_uris":{"android":"levelo://app?vid=2db21882-a1e0-4d6b-b73c-c2fb702b160c","ios":"levelo://app?vid=2db21882-a1e0-4d6b-b73c-c2fb702b160c"},"vehicle_type_id":"4","last_reported":1760185072,"current_range_meters":10000,"station_id":"ce4bhbh2rcd13ifvqeo0","pricing_plan_id":"cebpf4jnsgd1na2vs0mg"},{"bike_id":"69cf4469-3bb1-4821-ba8a-1b3e65220d23","system_id":"levelo_inurba_marseille","lat":43.2465,"lon":5.38893,"is_reserved":false,"is_disabled":false,"rental_uris":{"android":"levelo://app?vid=69cf4469-3bb1-4821-ba8a-1b3e65220d23","ios":"levelo://app?vid=69cf4469-3bb1-4821-ba8a-1b3e65220d23"},"vehicle_type_id":"4","last_reported":1760185072,"current_range_meters":10000,"station_id":"ce4bhg12rcd13ifvqf60","pricing_plan_id":"cebpf4jnsgd1na2vs0mg"},{"bike_id":"9f9edaa2-34b7-4837-8925-898705819e49","system_id":"levelo_inurba_marseille","lat":43.323604,"lon":5.367607,"is_reserved":false,"is_disabled":false,"rental_uris":{"android":"levelo://app?vid=9f9edaa2-34b7-4837-8925-898705819e49","ios":"levelo://app?vid=9f9edaa2-34b7-4837-8925-898705819e49"},"vehicle_type_id":"4","last_reported":1760185072,"current_range_meters":10000,"station_id":"ce4bhsh2rcd13ifvqi2g","pricing_plan_id":"cebpf4jnsgd1na2vs0mg"},{"bike_id":"a0751e22-b05e-4f86-8571-0bd1d0cb6aca","system_id":"levelo_inurba_marseille","lat":43.22566,"lon":5.41622,"is_reserved":false,"is_disabled":false,"rental_uris":{"android":"levelo://app?vid=a0751e22-b05e-4f86-8571-0bd1d0cb6aca","ios":"levelo://app?vid=a0751e22-b05e-4f86-8571-0bd1d0cb6aca"},"vehicle_type_id":"4","last_reported":1760185072,"current_range_meters":10000,"station_id":"st_d2o4gvlbi1j2169b742g","pricing_plan_id":"cebpf4jnsgd1na2vs0mg"},{"bike_id":"a091fa2a-de07-4635-870e-3375376348fb","system_id":"levelo_inurba_marseille","lat":43.30055,"lon":5.3864,"is_reserved":false,"is_disabled":false,"rental_uris":{"android":"levelo://app?vid=a091fa2a-de07-4635-870e-3375376348fb","ios":"levelo://app?vid=a091fa2a-de07-4635-870e-3375376348fb"},"vehicle_type_id":"4","last_reported":1760185072,"current_range_meters":10800,"station_id":"","pricing_plan_id":"cebpf4jnsgd1na2vs0mg"},{"bike_id":"20e7364f-c4d1-4d5e-bcec-2bdb948dd40a","system_id":"levelo_inurba_marseille","lat":43.31238,"lon":5.36887,"is_reserved":false,"is_disabled":false,"rental_uris":{"android":"levelo://app?vid=20e7364f-c4d1-4d5e-bcec-2bdb948dd40a","ios":"levelo://app?vid=20e7364f-c4d1-4d5e-bcec-2bdb948dd40a"},"vehicle_type_id":"4","last_reported":1760185072,"current_range_meters":10800,"station_id":"ce4bgl92rcd13ifvqbq0","pricing_plan_id":"cebpf4jnsgd1na2vs0mg"},{"bike_id":"28c6def6-a4ef-4614-ac43-28327f38b658","system_id":"levelo_inurba_marseille","lat":43.26193,"lon":5.37446,"is_reserved":false,"is_disabled":false,"rental_uris":{"android":"levelo://app?vid=28c6def6-a4ef-4614-ac43-28327f38b658","ios":"levelo://app?vid=28c6def6-a4ef-4614-ac43-28327f38b658"},"vehicle_type_id":"4","last_reported":1760185072,"current_range_meters":10800,"station_id":"ce4bhgp2rcd13ifvqfc0","pricing_plan_id":"cebpf4jnsgd1na2vs0mg"},{"bike_id":"d0541185-1ae0-4b7a-85f0-f156ffc178f8","system_id":"levelo_inurba_marseille","lat":43.32016,"lon":5.41553,"is_reserved":false,"is_disabled":false,"rental_uris":{"android":"levelo://app?vid=d0541185-1ae0-4b7a-85f0-f156ffc178f8","ios":"levelo://app?vid=d0541185-1ae0-4b7a-85f0-f156ffc178f8"},"vehicle_type_id":"4","last_reported":1760185072,"current_range_meters":10800,"station_id":"ce4bhq92rcd13ifvqhkg","pricing_plan_id":"cebpf4jnsgd1na2vs0mg"},{"bike_id":"f19cf118-c296-4314-98d6-fa453397e7c6","system_id":"levelo_inurba_marseille","lat":43.28898,"lon":5.36638,"is_reserved":false,"is_disabled":false,"rental_uris":{"android":"levelo://app?vid=f19cf118-c296-4314-98d6-fa453397e7c6","ios":"levelo://app?vid=f19cf118-c296-4314-98d6-fa453397e7c6"},"vehicle_type_id":"4","last_reported":1760185072,"current_range_meters":11200,"station_id":"ce4bhap2rcd13ifvqek0","pricing_plan_id":"cebpf4jnsgd1na2vs0mg"},{"bike_id":"f78d123d-7d4b-4bc4-9e80-072d59154f57","system_id":"levelo_inurba_marseille","lat":43.26219,"lon":5.37448,"is_reserved":false,"is_disabled":false,"rental_uris":{"android":"levelo://app?vid=f78d123d-7d4b-4bc4-9e80-072d59154f57","ios":"levelo://app?vid=f78d123d-7d4b-4bc4-9e80-072d59154f57"},"vehicle_type_id":"4","last_reported":1760185072,"current_range_meters":11200,"station_id":"ce4bhgp2rcd13ifvqfc0","pricing_plan_id":"cebpf4jnsgd1na2vs0mg"},{"bike_id":"1e3adb23-ca90-4fd2-a039-d5c01fd02274","system_id":"levelo_inurba_marseille","lat":43.2281,"lon":5.35287,"is_reserved":false,"is_disabled":false,"rental_uris":{"android":"levelo://app?vid=1e3adb23-ca90-4fd2-a039-d5c01fd02274","ios":"levelo://app?vid=1e3adb23-ca90-4fd2-a039-d5c01fd02274"},"vehicle_type_id":"4","last_reported":1760185072,"current_range_meters":11600,"station_id":"","pricing_plan_id":"cebpf4jnsgd1na2vs0mg"},{"bike_id":"a301e0f2-321c-40e4-bce9-2fca52035756","system_id":"levelo_inurba_marseille","lat":43.21757,"lon":5.34606,"is_reserved":false,"is_disabled":false,"rental_uris":{"android":"levelo://app?vid=a301e0f2-321c-40e4-bce9-2fca52035756","ios":"levelo://app?vid=a301e0f2-321c-40e4-bce9-2fca52035756"},"vehicle_type_id":"4","last_reported":1760185072,"current_range_meters":11600,"station_id":"","pricing_plan_id":"cebpf4jnsgd1na2vs0mg"},{"bike_id":"cb7a87e1-161d-40c0-b72d-0992f07c0c46","system_id":"levelo_inurba_marseille","lat":43.211916,"lon":5.350756,"is_reserved":false,"is_disabled":false,"rental_uris":{"android":"levelo://app?vid=cb7a87e1-161d-40c0-b72d-0992f07c0c46","ios":"levelo://app?vid=cb7a87e1-161d-40c0-b72d-0992f07c0c46"},"vehicle_type_id":"4","last_reported":1760185072,"current_range_meters":11600,"station_id":"","pricing_plan_id":"cebpf4jnsgd1na2vs0mg"},{"bike_id":"dc5bcc6a-e3ef-40ef-b8ba-df025101c6f9","system_id":"levelo_inurba_marseille","lat":43.29373,"lon":5.37846,"is_reserved":false,"is_disabled":false,"rental_uris":{"android":"levelo://app?vid=dc5bcc6a-e3ef-40ef-b8ba-df025101c6f9","ios":"levelo://app?vid=dc5bcc6a-e3ef-40ef-b8ba-df025101c6f9"},"vehicle_type_id":"4","last_reported":1760185072,"current_range_meters":11600,"station_id":"ce4bgjh2rcd13ifvqbf0","pricing_plan_id":"cebpf4jnsgd1na2vs0mg"},{"bike_id":"85a1ee1d-dda2-4de7-81f8-a5546f79bc76","system_id":"levelo_inurba_marseille","lat":43.23965,"lon":5.36632,"is_reserved":false,"is_disabled":false,"rental_uris":{"android":"levelo://app?vid=85a1ee1d-dda2-4de7-81f8-a5546f79bc76","ios":"levelo://app?vid=85a1ee1d-dda2-4de7-81f8-a5546f79bc76"},"vehicle_type_id":"4","last_reported":1760185072,"current_range_meters":11600,"station_id":"ce4bhi12rcd13ifvqfp0","pricing_plan_id":"cebpf4jnsgd1na2vs0mg"},{"bike_id":"8482c7fc-cae1-421d-909c-59f847f96804","system_id":"levelo_inurba_marseille","lat":43.22928,"lon":5.35378,"is_reserved":false,"is_disabled":false,"rental_uris":{"android":"levelo://app?vid=8482c7fc-cae1-421d-909c-59f847f96804","ios":"levelo://app?vid=8482c7fc-cae1-421d-909c-59f847f96804"},"vehicle_type_id":"4","last_reported":1760185072,"current_range_meters":11600,"station_id":"cpo3532slgdg3j2ikp40","pricing_plan_id":"cebpf4jnsgd1na2vs0mg"},{"bike_id":"68c0b6a3-a9d2-47a1-bccd-2b46e24f2696","system_id":"levelo_inurba_marseille","lat":43.22574,"lon":5.41626,"is_reserved":false,"is_disabled":false,"rental_uris":{"android":"levelo://app?vid=68c0b6a3-a9d2-47a1-bccd-2b46e24f2696","ios":"levelo://app?vid=68c0b6a3-a9d2-47a1-bccd-2b46e24f2696"},"vehicle_type_id":"4","last_reported":1760185072,"current_range_meters":11600,"station_id":"st_d2o4gvlbi1j2169b742g","pricing_plan_id":"cebpf4jnsgd1na2vs0mg"},{"bike_id":"80b5fdd6-8044-4280-9733-7a4992e6b8f6","system_id":"levelo_inurba_marseille","lat":43.292676,"lon":5.376168,"is_reserved":false,"is_disabled":false,"rental_uris":{"android":"levelo://app?vid=80b5fdd6-8044-4280-9733-7a4992e6b8f6","ios":"levelo://app?vid=80b5fdd6-8044-4280-9733-7a4992e6b8f6"},"vehicle_type_id":"4","last_reported":1760185072,"current_range_meters":12000,"station_id":"","pricing_plan_id":"cebpf4jnsgd1na2vs0mg"},{"bike_id":"3850c306-57a7-47fb-93ad-e9e444fdbd70","system_id":"levelo_inurba_marseille","lat":43.28409,"lon":5.34977,"is_reserved":false,"is_disabled":false,"rental_uris":{"android":"levelo://app?vid=3850c306-57a7-47fb-93ad-e9e444fdbd70","ios":"levelo://app?vid=3850c306-57a7-47fb-93ad-e9e444fdbd70"},"vehicle_type_id":"4","last_reported":1760185072,"current_range_meters":12000,"station_id":"ce4bhbh2rcd13ifvqepg","pricing_plan_id":"cebpf4jnsgd1na2vs0mg"},{"bike_id":"2a6d155b-7a31-49a1-8333-5e3e8610e54e","system_id":"levelo_inurba_marseille","lat":43.25497,"lon":5.37647,"is_reserved":false,"is_disabled":false,"rental_uris":{"android":"levelo://app?vid=2a6d155b-7a31-49a1-8333-5e3e8610e54e","ios":"levelo://app?vid=2a6d155b-7a31-49a1-8333-5e3e8610e54e"},"vehicle_type_id":"4","last_reported":1760185072,"current_range_meters":12000,"station_id":"ce4bhh12rcd13ifvqff0","pricing_plan_id":"cebpf4jnsgd1na2vs0mg"},{"bike_id":"5e54706e-af2c-45d8-a475-72eec0161635","system_id":"levelo_inurba_marseille","lat":43.24074,"lon":5.3776,"is_reserved":false,"is_disabled":false,"rental_uris":{"android":"levelo://app?vid=5e54706e-af2c-45d8-a475-72eec0161635","ios":"levelo://app?vid=5e54706e-af2c-45d8-a475-72eec0161635"},"vehicle_type_id":"4","last_reported":1760185072,"current_range_meters":12000,"station_id":"ce4bhnp2rcd13ifvqgvg","pricing_plan_id":"cebpf4jnsgd1na2vs0mg"},{"bike_id":"d1a54783-e0e1-4cc9-b0e2-5a7720c6a813","system_id":"levelo_inurba_marseille","lat":43.217391,"lon":5.346066,"is_reserved":false,"is_disabled":false,"rental_uris":{"android":"levelo://app?vid=d1a54783-e0e1-4cc9-b0e2-5a7720c6a813","ios":"levelo://app?vid=d1a54783-e0e1-4cc9-b0e2-5a7720c6a813"},"vehicle_type_id":"4","last_reported":1760185072,"current_range_meters":12000,"station_id":"st_cvj6r9ubvosntc0bgbag","pricing_plan_id":"cebpf4jnsgd1na2vs0mg"},{"bike_id":"50bf0a2f-b814-4321-80ad-65988cb39a0f","system_id":"levelo_inurba_marseille","lat":43.284106,"lon":5.375065,"is_reserved":false,"is_disabled":false,"rental_uris":{"android":"levelo://app?vid=50bf0a2f-b814-4321-80ad-65988cb39a0f","ios":"levelo://app?vid=50bf0a2f-b814-4321-80ad-65988cb39a0f"},"vehicle_type_id":"4","last_reported":1760185072,"current_range_meters":12400,"station_id":"ce4bh412rcd13ifvqds0","pricing_plan_id":"cebpf4jnsgd1na2vs0mg"},{"bike_id":"e3aa9db7-5177-43d7-8ef6-f790149f0ca0","system_id":"levelo_inurba_marseille","lat":43.3037,"lon":5.42474,"is_reserved":false,"is_disabled":false,"rental_uris":{"android":"levelo://app?vid=e3aa9db7-5177-43d7-8ef6-f790149f0ca0","ios":"levelo://app?vid=e3aa9db7-5177-43d7-8ef6-f790149f0ca0"},"vehicle_type_id":"4","last_reported":1760185072,"current_range_meters":12400,"station_id":"ce4bhoh2rcd13ifvqh6g","pricing_plan_id":"cebpf4jnsgd1na2vs0mg"},{"bike_id":"ea868bbe-d842-4598-a21a-c803746ce7ee","system_id":"levelo_inurba_marseille","lat":43.21185,"lon":5.3508,"is_reserved":false,"is_disabled":false,"rental_uris":{"android":"levelo://app?vid=ea868bbe-d842-4598-a21a-c803746ce7ee","ios":"levelo://app?vid=ea868bbe-d842-4598-a21a-c803746ce7ee"},"vehicle_type_id":"4","last_reported":1760185072,"current_range_meters":12400,"station_id":"st_cvj6sg6p6f1abm77japg","pricing_plan_id":"cebpf4jnsgd1na2vs0mg"},{"bike_id":"c61c0287-d7fa-4f42-b707-e7b889dbee3d","system_id":"levelo_inurba_marseille","lat":43.33774,"lon":5.37424,"is_reserved":false,"is_disabled":false,"rental_uris":{"android":"levelo://app?vid=c61c0287-d7fa-4f42-b707-e7b889dbee3d","ios":"levelo://app?vid=c61c0287-d7fa-4f42-b707-e7b889dbee3d"},"vehicle_type_id":"4","last_reported":1760185072,"current_range_meters":12800,"station_id":"","pricing_plan_id":"cebpf4jnsgd1na2vs0mg"},{"bike_id":"54aab29b-b822-4f38-bda8-7ca583f39fd5","system_id":"levelo_inurba_marseille","lat":43.22344,"lon":5.34646,"is_reserved":false,"is_disabled":false,"rental_uris":{"android":"levelo://app?vid=54aab29b-b822-4f38-bda8-7ca583f39fd5","ios":"levelo://app?vid=54aab29b-b822-4f38-bda8-7ca583f39fd5"},"vehicle_type_id":"4","last_reported":1760185072,"current_range_meters":12800,"station_id":"","pricing_plan_id":"cebpf4jnsgd1na2vs0mg"},{"bike_id":"a2ba9428-225c-43fd-b62a-f4b35ac498d1","system_id":"levelo_inurba_marseille","lat":43.26569,"lon":5.39007,"is_reserved":false,"is_disabled":false,"rental_uris":{"android":"levelo://app?vid=a2ba9428-225c-43fd-b62a-f4b35ac498d1","ios":"levelo://app?vid=a2ba9428-225c-43fd-b62a-f4b35ac498d1"},"vehicle_type_id":"4","last_reported":1760185072,"current_range_meters":12800,"station_id":"ce4bhe12rcd13ifvqf30","pricing_plan_id":"cebpf4jnsgd1na2vs0mg"},{"bike_id":"30bd0872-4a7a-4238-b145-b5b9792dc539","system_id":"levelo_inurba_marseille","lat":43.26203,"lon":5.3745,"is_reserved":false,"is_disabled":false,"rental_uris":{"android":"levelo://app?vid=30bd0872-4a7a-4238-b145-b5b9792dc539","ios":"levelo://app?vid=30bd0872-4a7a-4238-b145-b5b9792dc539"},"vehicle_type_id":"4","last_reported":1760185072,"current_range_meters":12800,"station_id":"ce4bhgp2rcd13ifvqfc0","pricing_plan_id":"cebpf4jnsgd1na2vs0mg"},{"bike_id":"bf1c32ec-4b1e-446a-8fc9-79604254dc54","system_id":"levelo_inurba_marseille","lat":43.23177,"lon":5.39983,"is_reserved":false,"is_disabled":false,"rental_uris":{"android":"levelo://app?vid=bf1c32ec-4b1e-446a-8fc9-79604254dc54","ios":"levelo://app?vid=bf1c32ec-4b1e-446a-8fc9-79604254dc54"},"vehicle_type_id":"4","last_reported":1760185072,"current_range_meters":12800,"station_id":"ce4bhn12rcd13ifvqgqg","pricing_plan_id":"cebpf4jnsgd1na2vs0mg"},{"bike_id":"3aee201c-eced-4867-b84a-9c76c962f6e2","system_id":"levelo_inurba_marseille","lat":43.24178,"lon":5.36385,"is_reserved":false,"is_disabled":false,"rental_uris":{"android":"levelo://app?vid=3aee201c-eced-4867-b84a-9c76c962f6e2","ios":"levelo://app?vid=3aee201c-eced-4867-b84a-9c76c962f6e2"},"vehicle_type_id":"4","last_reported":1760185072,"current_range_meters":12800,"station_id":"cpo36qri1sfpv3e86is0","pricing_plan_id":"cebpf4jnsgd1na2vs0mg"},{"bike_id":"4c2ea989-f363-4d09-a5d9-340a713e1403","system_id":"levelo_inurba_marseille","lat":43.28419,"lon":5.34976,"is_reserved":false,"is_disabled":false,"rental_uris":{"android":"levelo://app?vid=4c2ea989-f363-4d09-a5d9-340a713e1403","ios":"levelo://app?vid=4c2ea989-f363-4d09-a5d9-340a713e1403"},"vehicle_type_id":"4","last_reported":1760185072,"current_range_meters":13600,"station_id":"ce4bhbh2rcd13ifvqepg","pricing_plan_id":"cebpf4jnsgd1na2vs0mg"},{"bike_id":"dbb6a070-4a5f-4a89-b12f-142f35017809","system_id":"levelo_inurba_marseille","lat":43.28944,"lon":5.36387,"is_reserved":false,"is_disabled":false,"rental_uris":{"android":"levelo://app?vid=dbb6a070-4a5f-4a89-b12f-142f35017809","ios":"levelo://app?vid=dbb6a070-4a5f-4a89-b12f-142f35017809"},"vehicle_type_id":"4","last_reported":1760185072,"current_range_meters":13600,"station_id":"ce4bhc92rcd13ifvqetg","pricing_plan_id":"cebpf4jnsgd1na2vs0mg"},{"bike_id":"27e1dbd1-ce1d-4d5e-8391-d56d839927af","system_id":"levelo_inurba_marseille","lat":43.246704,"lon":5.381631,"is_reserved":false,"is_disabled":false,"rental_uris":{"android":"levelo://app?vid=27e1dbd1-ce1d-4d5e-8391-d56d839927af","ios":"levelo://app?vid=27e1dbd1-ce1d-4d5e-8391-d56d839927af"},"vehicle_type_id":"4","last_reported":1760185072,"current_range_meters":13600,"station_id":"ce4bhih2rcd13ifvqfr0","pricing_plan_id":"cebpf4jnsgd1na2vs0mg"},{"bike_id":"4711f9e5-4326-4eef-ade6-fdf0b441c720","system_id":"levelo_inurba_marseille","lat":43.24165,"lon":5.36409,"is_reserved":false,"is_disabled":false,"rental_uris":{"android":"levelo://app?vid=4711f9e5-4326-4eef-ade6-fdf0b441c720","ios":"levelo://app?vid=4711f9e5-4326-4eef-ade6-fdf0b441c720"},"vehicle_type_id":"4","last_reported":1760185072,"current_range_meters":13600,"station_id":"cpo36qri1sfpv3e86is0","pricing_plan_id":"cebpf4jnsgd1na2vs0mg"},{"bike_id":"96189567-9f56-4467-99e1-85c33efa20b5","system_id":"levelo_inurba_marseille","lat":43.22572,"lon":5.4163,"is_reserved":false,"is_disabled":false,"rental_uris":{"android":"levelo://app?vid=96189567-9f56-4467-99e1-85c33efa20b5","ios":"levelo://app?vid=96189567-9f56-4467-99e1-85c33efa20b5"},"vehicle_type_id":"4","last_reported":1760185072,"current_range_meters":13600,"station_id":"st_d2o4gvlbi1j2169b742g","pricing_plan_id":"cebpf4jnsgd1na2vs0mg"},{"bike_id":"a40953c0-a574-463c-a967-68a628d50823","system_id":"levelo_inurba_marseille","lat":43.29001,"lon":5.35603,"is_reserved":false,"is_disabled":false,"rental_uris":{"android":"levelo://app?vid=a40953c0-a574-463c-a967-68a628d50823","ios":"levelo://app?vid=a40953c0-a574-463c-a967-68a628d50823"},"vehicle_type_id":"4","last_reported":1760185072,"current_range_meters":14000,"station_id":"ce4bhb92rcd13ifvqen0","pricing_plan_id":"cebpf4jnsgd1na2vs0mg"},{"bike_id":"bba518c9-6b41-4f52-bbd2-7ca9cdbd7c63","system_id":"levelo_inurba_marseille","lat":43.28262,"lon":5.35061,"is_reserved":false,"is_disabled":false,"rental_uris":{"android":"levelo://app?vid=bba518c9-6b41-4f52-bbd2-7ca9cdbd7c63","ios":"levelo://app?vid=bba518c9-6b41-4f52-bbd2-7ca9cdbd7c63"},"vehicle_type_id":"4","last_reported":1760185072,"current_range_meters":14000,"station_id":"ce4bhbp2rcd13ifvqerg","pricing_plan_id":"cebpf4jnsgd1na2vs0mg"},{"bike_id":"d23ed4de-07de-4bb0-8861-b8ee51bbc2ef","system_id":"levelo_inurba_marseille","lat":43.25495,"lon":5.37653,"is_reserved":false,"is_disabled":false,"rental_uris":{"android":"levelo://app?vid=d23ed4de-07de-4bb0-8861-b8ee51bbc2ef","ios":"levelo://app?vid=d23ed4de-07de-4bb0-8861-b8ee51bbc2ef"},"vehicle_type_id":"4","last_reported":1760185072,"current_range_meters":14000,"station_id":"ce4bhh12rcd13ifvqff0","pricing_plan_id":"cebpf4jnsgd1na2vs0mg"},{"bike_id":"cc731a5b-ec15-4e39-8ce8-518c53a81ef3","system_id":"levelo_inurba_marseille","lat":43.21754,"lon":5.34602,"is_reserved":false,"is_disabled":false,"rental_uris":{"android":"levelo://app?vid=cc731a5b-ec15-4e39-8ce8-518c53a81ef3","ios":"levelo://app?vid=cc731a5b-ec15-4e39-8ce8-518c53a81ef3"},"vehicle_type_id":"4","last_reported":1760185072,"current_range_meters":14000,"station_id":"st_cvj6r9ubvosntc0bgbag","pricing_plan_id":"cebpf4jnsgd1na2vs0mg"},{"bike_id":"2c4b2638-6ca0-492d-ba12-8da2147de5c2","system_id":"levelo_inurba_marseille","lat":43.21755,"lon":5.34603,"is_reserved":false,"is_disabled":false,"rental_uris":{"android":"levelo://app?vid=2c4b2638-6ca0-492d-ba12-8da2147de5c2","ios":"levelo://app?vid=2c4b2638-6ca0-492d-ba12-8da2147de5c2"},"vehicle_type_id":"4","last_reported":1760185072,"current_range_meters":14400,"station_id":"","pricing_plan_id":"cebpf4jnsgd1na2vs0mg"},{"bike_id":"08fcdb32-2bb9-48aa-82a9-a8f703dd0269","system_id":"levelo_inurba_marseille","lat":43.25398,"lon":5.41915,"is_reserved":false,"is_disabled":false,"rental_uris":{"android":"levelo://app?vid=08fcdb32-2bb9-48aa-82a9-a8f703dd0269","ios":"levelo://app?vid=08fcdb32-2bb9-48aa-82a9-a8f703dd0269"},"vehicle_type_id":"4","last_reported":1760185072,"current_range_meters":14400,"station_id":"","pricing_plan_id":"cebpf4jnsgd1na2vs0mg"},{"bike_id":"30ff5f8f-8aa4-4093-a720-f7cba9837184","system_id":"levelo_inurba_marseille","lat":43.30729,"lon":5.42437,"is_reserved":false,"is_disabled":false,"rental_uris":{"android":"levelo://app?vid=30ff5f8f-8aa4-4093-a720-f7cba9837184","ios":"levelo://app?vid=30ff5f8f-8aa4-4093-a720-f7cba9837184"},"vehicle_type_id":"4","last_reported":1760185072,"current_range_meters":14400,"station_id":"st_cvj6ca6bvosntc0bfgr0","pricing_plan_id":"cebpf4jnsgd1na2vs0mg"},{"bike_id":"d4586d5d-b262-4ea9-a4c9-375e36340c0e","system_id":"levelo_inurba_marseille","lat":43.28456,"lon":5.35879,"is_reserved":false,"is_disabled":false,"rental_uris":{"android":"levelo://app?vid=d4586d5d-b262-4ea9-a4c9-375e36340c0e","ios":"levelo://app?vid=d4586d5d-b262-4ea9-a4c9-375e36340c0e"},"vehicle_type_id":"4","last_reported":1760185072,"current_range_meters":14800,"station_id":"ce4bhah2rcd13ifvqei0","pricing_plan_id":"cebpf4jnsgd1na2vs0mg"},{"bike_id":"31cbae60-e876-41bd-845c-2b0974c997e5","system_id":"levelo_inurba_marseille","lat":43.28461,"lon":5.35883,"is_reserved":false,"is_disabled":false,"rental_uris":{"android":"levelo://app?vid=31cbae60-e876-41bd-845c-2b0974c997e5","ios":"levelo://app?vid=31cbae60-e876-41bd-845c-2b0974c997e5"},"vehicle_type_id":"4","last_reported":1760185072,"current_range_meters":14800,"station_id":"ce4bhah2rcd13ifvqei0","pricing_plan_id":"cebpf4jnsgd1na2vs0mg"},{"bike_id":"7070434e-b52e-45d9-ac03-f8c6f118a9a8","system_id":"levelo_inurba_marseille","lat":43.282623,"lon":5.350635,"is_reserved":false,"is_disabled":false,"rental_uris":{"android":"levelo://app?vid=7070434e-b52e-45d9-ac03-f8c6f118a9a8","ios":"levelo://app?vid=7070434e-b52e-45d9-ac03-f8c6f118a9a8"},"vehicle_type_id":"4","last_reported":1760185072,"current_range_meters":14800,"station_id":"ce4bhbp2rcd13ifvqerg","pricing_plan_id":"cebpf4jnsgd1na2vs0mg"},{"bike_id":"9a3f78ca-b0c6-4f72-8a79-592b18fbedf7","system_id":"levelo_inurba_marseille","lat":43.24071,"lon":5.37737,"is_reserved":false,"is_disabled":false,"rental_uris":{"android":"levelo://app?vid=9a3f78ca-b0c6-4f72-8a79-592b18fbedf7","ios":"levelo://app?vid=9a3f78ca-b0c6-4f72-8a79-592b18fbedf7"},"vehicle_type_id":"4","last_reported":1760185072,"current_range_meters":14800,"station_id":"ce4bhnp2rcd13ifvqgvg","pricing_plan_id":"cebpf4jnsgd1na2vs0mg"},{"bike_id":"78515990-e130-442f-89ff-0a6fd150a9e5","system_id":"levelo_inurba_marseille","lat":43.307319,"lon":5.424356,"is_reserved":false,"is_disabled":false,"rental_uris":{"android":"levelo://app?vid=78515990-e130-442f-89ff-0a6fd150a9e5","ios":"levelo://app?vid=78515990-e130-442f-89ff-0a6fd150a9e5"},"vehicle_type_id":"4","last_reported":1760185072,"current_range_meters":14800,"station_id":"st_cvj6ca6bvosntc0bfgr0","pricing_plan_id":"cebpf4jnsgd1na2vs0mg"},{"bike_id":"963f2540-5fa7-4d25-bcfd-b0e2fd2ae75d","system_id":"levelo_inurba_marseille","lat":43.21748,"lon":5.34602,"is_reserved":false,"is_disabled":false,"rental_uris":{"android":"levelo://app?vid=963f2540-5fa7-4d25-bcfd-b0e2fd2ae75d","ios":"levelo://app?vid=963f2540-5fa7-4d25-bcfd-b0e2fd2ae75d"},"vehicle_type_id":"4","last_reported":1760185072,"current_range_meters":14800,"station_id":"st_cvj6r9ubvosntc0bgbag","pricing_plan_id":"cebpf4jnsgd1na2vs0mg"},{"bike_id":"8dc0c13a-1042-4c67-b7b2-fb8ee98dc388","system_id":"levelo_inurba_marseille","lat":43.21751,"lon":5.34596,"is_reserved":false,"is_disabled":false,"rental_uris":{"android":"levelo://app?vid=8dc0c13a-1042-4c67-b7b2-fb8ee98dc388","ios":"levelo://app?vid=8dc0c13a-1042-4c67-b7b2-fb8ee98dc388"},"vehicle_type_id":"4","last_reported":1760185072,"current_range_meters":14800,"station_id":"st_cvj6r9ubvosntc0bgbag","pricing_plan_id":"cebpf4jnsgd1na2vs0mg"},{"bike_id":"187cf0d8-0607-43fc-8eaa-6af12fda0dee","system_id":"levelo_inurba_marseille","lat":43.22428,"lon":5.34657,"is_reserved":false,"is_disabled":false,"rental_uris":{"android":"levelo://app?vid=187cf0d8-0607-43fc-8eaa-6af12fda0dee","ios":"levelo://app?vid=187cf0d8-0607-43fc-8eaa-6af12fda0dee"},"vehicle_type_id":"4","last_reported":1760185072,"current_range_meters":15200,"station_id":"","pricing_plan_id":"cebpf4jnsgd1na2vs0mg"},{"bike_id":"36852a13-f383-442f-9a01-f153febeeef2","system_id":"levelo_inurba_marseille","lat":43.30184,"lon":5.36852,"is_reserved":false,"is_disabled":false,"rental_uris":{"android":"levelo://app?vid=36852a13-f383-442f-9a01-f153febeeef2","ios":"levelo://app?vid=36852a13-f383-442f-9a01-f153febeeef2"},"vehicle_type_id":"4","last_reported":1760185072,"current_range_meters":15200,"station_id":"","pricing_plan_id":"cebpf4jnsgd1na2vs0mg"},{"bike_id":"9bcf6dd0-a595-4595-b7e2-e34823cfa138","system_id":"levelo_inurba_marseille","lat":43.29919,"lon":5.37487,"is_reserved":false,"is_disabled":false,"rental_uris":{"android":"levelo://app?vid=9bcf6dd0-a595-4595-b7e2-e34823cfa138","ios":"levelo://app?vid=9bcf6dd0-a595-4595-b7e2-e34823cfa138"},"vehicle_type_id":"4","last_reported":1760185072,"current_range_meters":15200,"station_id":"ce4bgjh2rcd13ifvqbg0","pricing_plan_id":"cebpf4jnsgd1na2vs0mg"},{"bike_id":"fefc6588-c27c-4a9b-be84-7477059b6c3b","system_id":"levelo_inurba_marseille","lat":43.27211,"lon":5.3917,"is_reserved":false,"is_disabled":false,"rental_uris":{"android":"levelo://app?vid=fefc6588-c27c-4a9b-be84-7477059b6c3b","ios":"levelo://app?vid=fefc6588-c27c-4a9b-be84-7477059b6c3b"},"vehicle_type_id":"4","last_reported":1760185072,"current_range_meters":15200,"station_id":"ce4bhhp2rcd13ifvqfm0","pricing_plan_id":"cebpf4jnsgd1na2vs0mg"},{"bike_id":"5f2f1c1c-aae9-42d9-9683-aee6c96dc20e","system_id":"levelo_inurba_marseille","lat":43.31761,"lon":5.39,"is_reserved":false,"is_disabled":false,"rental_uris":{"android":"levelo://app?vid=5f2f1c1c-aae9-42d9-9683-aee6c96dc20e","ios":"levelo://app?vid=5f2f1c1c-aae9-42d9-9683-aee6c96dc20e"},"vehicle_type_id":"4","last_reported":1760185072,"current_range_meters":15200,"station_id":"ce4bhqp2rcd13ifvqhng","pricing_plan_id":"cebpf4jnsgd1na2vs0mg"},{"bike_id":"b6bb6b7a-5b62-4eea-bdcd-350fb33f76e6","system_id":"levelo_inurba_marseille","lat":43.23203,"lon":5.35536,"is_reserved":false,"is_disabled":false,"rental_uris":{"android":"levelo://app?vid=b6bb6b7a-5b62-4eea-bdcd-350fb33f76e6","ios":"levelo://app?vid=b6bb6b7a-5b62-4eea-bdcd-350fb33f76e6"},"vehicle_type_id":"4","last_reported":1760185072,"current_range_meters":15200,"station_id":"ce4bhu92rcd13ifvqi70","pricing_plan_id":"cebpf4jnsgd1na2vs0mg"},{"bike_id":"daca0046-00af-4c3d-97a3-9a04d8ad7588","system_id":"levelo_inurba_marseille","lat":43.22555,"lon":5.4163,"is_reserved":false,"is_disabled":false,"rental_uris":{"android":"levelo://app?vid=daca0046-00af-4c3d-97a3-9a04d8ad7588","ios":"levelo://app?vid=daca0046-00af-4c3d-97a3-9a04d8ad7588"},"vehicle_type_id":"4","last_reported":1760185072,"current_range_meters":15200,"station_id":"st_d2o4gvlbi1j2169b742g","pricing_plan_id":"cebpf4jnsgd1na2vs0mg"},{"bike_id":"17c12004-9ed4-4b1f-b1bf-3cb4f120663b","system_id":"levelo_inurba_marseille","lat":43.22564,"lon":5.41604,"is_reserved":false,"is_disabled":false,"rental_uris":{"android":"levelo://app?vid=17c12004-9ed4-4b1f-b1bf-3cb4f120663b","ios":"levelo://app?vid=17c12004-9ed4-4b1f-b1bf-3cb4f120663b"},"vehicle_type_id":"4","last_reported":1760185072,"current_range_meters":15200,"station_id":"st_d2o4gvlbi1j2169b742g","pricing_plan_id":"cebpf4jnsgd1na2vs0mg"},{"bike_id":"d450faec-bf95-41b5-bd5a-258b856397d3","system_id":"levelo_inurba_marseille","lat":43.337444,"lon":5.374475,"is_reserved":false,"is_disabled":false,"rental_uris":{"android":"levelo://app?vid=d450faec-bf95-41b5-bd5a-258b856397d3","ios":"levelo://app?vid=d450faec-bf95-41b5-bd5a-258b856397d3"},"vehicle_type_id":"4","last_reported":1760185072,"current_range_meters":16000,"station_id":"","pricing_plan_id":"cebpf4jnsgd1na2vs0mg"},{"bike_id":"f643732a-737c-4023-9ce1-91073dd626a3","system_id":"levelo_inurba_marseille","lat":43.31598,"lon":5.38135,"is_reserved":false,"is_disabled":false,"rental_uris":{"android":"levelo://app?vid=f643732a-737c-4023-9ce1-91073dd626a3","ios":"levelo://app?vid=f643732a-737c-4023-9ce1-91073dd626a3"},"vehicle_type_id":"4","last_reported":1760185072,"current_range_meters":16000,"station_id":"","pricing_plan_id":"cebpf4jnsgd1na2vs0mg"},{"bike_id":"ac126244-2e00-4589-a00e-b9ffa772eb22","system_id":"levelo_inurba_marseille","lat":43.31155,"lon":5.39744,"is_reserved":false,"is_disabled":false,"rental_uris":{"android":"levelo://app?vid=ac126244-2e00-4589-a00e-b9ffa772eb22","ios":"levelo://app?vid=ac126244-2e00-4589-a00e-b9ffa772eb22"},"vehicle_type_id":"4","last_reported":1760185072,"current_range_meters":16000,"station_id":"","pricing_plan_id":"cebpf4jnsgd1na2vs0mg"},{"bike_id":"5e4756f6-aa2e-4e9c-8d81-bf49120a4145","system_id":"levelo_inurba_marseille","lat":43.28392,"lon":5.34984,"is_reserved":false,"is_disabled":false,"rental_uris":{"android":"levelo://app?vid=5e4756f6-aa2e-4e9c-8d81-bf49120a4145","ios":"levelo://app?vid=5e4756f6-aa2e-4e9c-8d81-bf49120a4145"},"vehicle_type_id":"4","last_reported":1760185072,"current_range_meters":16000,"station_id":"","pricing_plan_id":"cebpf4jnsgd1na2vs0mg"},{"bike_id":"b78fc6de-8c66-40b1-bc7e-1794eacc6804","system_id":"levelo_inurba_marseille","lat":43.28163,"lon":5.35035,"is_reserved":false,"is_disabled":false,"rental_uris":{"android":"levelo://app?vid=b78fc6de-8c66-40b1-bc7e-1794eacc6804","ios":"levelo://app?vid=b78fc6de-8c66-40b1-bc7e-1794eacc6804"},"vehicle_type_id":"4","last_reported":1760185072,"current_range_meters":16000,"station_id":"","pricing_plan_id":"cebpf4jnsgd1na2vs0mg"},{"bike_id":"c00674c4-dc8f-4416-80fe-053b87608b60","system_id":"levelo_inurba_marseille","lat":43.28938,"lon":5.39617,"is_reserved":false,"is_disabled":false,"rental_uris":{"android":"levelo://app?vid=c00674c4-dc8f-4416-80fe-053b87608b60","ios":"levelo://app?vid=c00674c4-dc8f-4416-80fe-053b87608b60"},"vehicle_type_id":"4","last_reported":1760185072,"current_range_meters":16000,"station_id":"ce4bh3h2rcd13ifvqdn0","pricing_plan_id":"cebpf4jnsgd1na2vs0mg"},{"bike_id":"f92716c4-7d61-4a44-a003-4f53ce5444b2","system_id":"levelo_inurba_marseille","lat":43.24806,"lon":5.37441,"is_reserved":false,"is_disabled":false,"rental_uris":{"android":"levelo://app?vid=f92716c4-7d61-4a44-a003-4f53ce5444b2","ios":"levelo://app?vid=f92716c4-7d61-4a44-a003-4f53ce5444b2"},"vehicle_type_id":"4","last_reported":1760185072,"current_range_meters":16000,"station_id":"ce4bhgh2rcd13ifvqfb0","pricing_plan_id":"cebpf4jnsgd1na2vs0mg"},{"bike_id":"2bdb7c59-faa0-48ec-ab79-66807e4df075","system_id":"levelo_inurba_marseille","lat":43.26209,"lon":5.3794,"is_reserved":false,"is_disabled":false,"rental_uris":{"android":"levelo://app?vid=2bdb7c59-faa0-48ec-ab79-66807e4df075","ios":"levelo://app?vid=2bdb7c59-faa0-48ec-ab79-66807e4df075"},"vehicle_type_id":"4","last_reported":1760185072,"current_range_meters":16000,"station_id":"ce4bhjp2rcd13ifvqg90","pricing_plan_id":"cebpf4jnsgd1na2vs0mg"},{"bike_id":"4fe8ebe8-dc7a-4dde-a9ea-f665f98c5b37","system_id":"levelo_inurba_marseille","lat":43.23152,"lon":5.43716,"is_reserved":false,"is_disabled":false,"rental_uris":{"android":"levelo://app?vid=4fe8ebe8-dc7a-4dde-a9ea-f665f98c5b37","ios":"levelo://app?vid=4fe8ebe8-dc7a-4dde-a9ea-f665f98c5b37"},"vehicle_type_id":"4","last_reported":1760185072,"current_range_meters":16000,"station_id":"ce4bhmp2rcd13ifvqgog","pricing_plan_id":"cebpf4jnsgd1na2vs0mg"},{"bike_id":"1274341e-f484-48bd-95e5-e905ccbea7d0","system_id":"levelo_inurba_marseille","lat":43.28006,"lon":5.41653,"is_reserved":false,"is_disabled":false,"rental_uris":{"android":"levelo://app?vid=1274341e-f484-48bd-95e5-e905ccbea7d0","ios":"levelo://app?vid=1274341e-f484-48bd-95e5-e905ccbea7d0"},"vehicle_type_id":"4","last_reported":1760185072,"current_range_meters":16000,"station_id":"ce4bho12rcd13ifvqh1g","pricing_plan_id":"cebpf4jnsgd1na2vs0mg"},{"bike_id":"bf3e6031-a4b5-4d11-9089-ea468e967475","system_id":"levelo_inurba_marseille","lat":43.24179,"lon":5.36383,"is_reserved":false,"is_disabled":false,"rental_uris":{"android":"levelo://app?vid=bf3e6031-a4b5-4d11-9089-ea468e967475","ios":"levelo://app?vid=bf3e6031-a4b5-4d11-9089-ea468e967475"},"vehicle_type_id":"4","last_reported":1760185072,"current_range_meters":16000,"station_id":"cpo36qri1sfpv3e86is0","pricing_plan_id":"cebpf4jnsgd1na2vs0mg"},{"bike_id":"338d22d1-d917-41b0-bd23-0264004b2593","system_id":"levelo_inurba_marseille","lat":43.22561,"lon":5.416434,"is_reserved":false,"is_disabled":false,"rental_uris":{"android":"levelo://app?vid=338d22d1-d917-41b0-bd23-0264004b2593","ios":"levelo://app?vid=338d22d1-d917-41b0-bd23-0264004b2593"},"vehicle_type_id":"4","last_reported":1760185072,"current_range_meters":16000,"station_id":"st_d2o4gvlbi1j2169b742g","pricing_plan_id":"cebpf4jnsgd1na2vs0mg"},{"bike_id":"2d47de9e-e33d-477c-8917-7d91ac05947a","system_id":"levelo_inurba_marseille","lat":43.29711,"lon":5.39824,"is_reserved":false,"is_disabled":false,"rental_uris":{"android":"levelo://app?vid=2d47de9e-e33d-477c-8917-7d91ac05947a","ios":"levelo://app?vid=2d47de9e-e33d-477c-8917-7d91ac05947a"},"vehicle_type_id":"4","last_reported":1760185072,"current_range_meters":16400,"station_id":"","pricing_plan_id":"cebpf4jnsgd1na2vs0mg"},{"bike_id":"9ce3e5c4-7ce6-4001-adaf-39e8c855adfd","system_id":"levelo_inurba_marseille","lat":43.293671,"lon":5.378363,"is_reserved":false,"is_disabled":false,"rental_uris":{"android":"levelo://app?vid=9ce3e5c4-7ce6-4001-adaf-39e8c855adfd","ios":"levelo://app?vid=9ce3e5c4-7ce6-4001-adaf-39e8c855adfd"},"vehicle_type_id":"4","last_reported":1760185072,"current_range_meters":16400,"station_id":"ce4bgjh2rcd13ifvqbf0","pricing_plan_id":"cebpf4jnsgd1na2vs0mg"},{"bike_id":"261a3eeb-f4b7-48d4-a8dd-b1d2b673dd88","system_id":"levelo_inurba_marseille","lat":43.28853,"lon":5.35854,"is_reserved":false,"is_disabled":false,"rental_uris":{"android":"levelo://app?vid=261a3eeb-f4b7-48d4-a8dd-b1d2b673dd88","ios":"levelo://app?vid=261a3eeb-f4b7-48d4-a8dd-b1d2b673dd88"},"vehicle_type_id":"4","last_reported":1760185072,"current_range_meters":16400,"station_id":"ce4bhb12rcd13ifvqem0","pricing_plan_id":"cebpf4jnsgd1na2vs0mg"},{"bike_id":"d19efdd3-66d8-42ae-a449-3e7e828f2334","system_id":"levelo_inurba_marseille","lat":43.26216,"lon":5.37439,"is_reserved":false,"is_disabled":false,"rental_uris":{"android":"levelo://app?vid=d19efdd3-66d8-42ae-a449-3e7e828f2334","ios":"levelo://app?vid=d19efdd3-66d8-42ae-a449-3e7e828f2334"},"vehicle_type_id":"4","last_reported":1760185072,"current_range_meters":16400,"station_id":"ce4bhgp2rcd13ifvqfc0","pricing_plan_id":"cebpf4jnsgd1na2vs0mg"},{"bike_id":"b7beb4e8-058e-45b5-ba9a-d411cd9da5a0","system_id":"levelo_inurba_marseille","lat":43.239639,"lon":5.366295,"is_reserved":false,"is_disabled":false,"rental_uris":{"android":"levelo://app?vid=b7beb4e8-058e-45b5-ba9a-d411cd9da5a0","ios":"levelo://app?vid=b7beb4e8-058e-45b5-ba9a-d411cd9da5a0"},"vehicle_type_id":"4","last_reported":1760185072,"current_range_meters":16400,"station_id":"ce4bhi12rcd13ifvqfp0","pricing_plan_id":"cebpf4jnsgd1na2vs0mg"},{"bike_id":"132bbb81-f6b5-4160-8904-f6529da5fb3e","system_id":"levelo_inurba_marseille","lat":43.317155,"lon":5.437111,"is_reserved":false,"is_disabled":false,"rental_uris":{"android":"levelo://app?vid=132bbb81-f6b5-4160-8904-f6529da5fb3e","ios":"levelo://app?vid=132bbb81-f6b5-4160-8904-f6529da5fb3e"},"vehicle_type_id":"4","last_reported":1760185072,"current_range_meters":16400,"station_id":"ce4bhp92rcd13ifvqhcg","pricing_plan_id":"cebpf4jnsgd1na2vs0mg"},{"bike_id":"d4ed67f2-3a9e-438d-ad0b-30409e2c2f30","system_id":"levelo_inurba_marseille","lat":43.31765,"lon":5.39012,"is_reserved":false,"is_disabled":false,"rental_uris":{"android":"levelo://app?vid=d4ed67f2-3a9e-438d-ad0b-30409e2c2f30","ios":"levelo://app?vid=d4ed67f2-3a9e-438d-ad0b-30409e2c2f30"},"vehicle_type_id":"4","last_reported":1760185072,"current_range_meters":16400,"station_id":"ce4bhqp2rcd13ifvqhng","pricing_plan_id":"cebpf4jnsgd1na2vs0mg"},{"bike_id":"694547b5-a972-4858-8070-97658603f337","system_id":"levelo_inurba_marseille","lat":43.23193,"lon":5.35559,"is_reserved":false,"is_disabled":false,"rental_uris":{"android":"levelo://app?vid=694547b5-a972-4858-8070-97658603f337","ios":"levelo://app?vid=694547b5-a972-4858-8070-97658603f337"},"vehicle_type_id":"4","last_reported":1760185072,"current_range_meters":16400,"station_id":"ce4bhu92rcd13ifvqi70","pricing_plan_id":"cebpf4jnsgd1na2vs0mg"},{"bike_id":"0d125caf-5238-4006-bbc8-77c21e114e38","system_id":"levelo_inurba_marseille","lat":43.24172,"lon":5.36398,"is_reserved":false,"is_disabled":false,"rental_uris":{"android":"levelo://app?vid=0d125caf-5238-4006-bbc8-77c21e114e38","ios":"levelo://app?vid=0d125caf-5238-4006-bbc8-77c21e114e38"},"vehicle_type_id":"4","last_reported":1760185072,"current_range_meters":16400,"station_id":"cpo36qri1sfpv3e86is0","pricing_plan_id":"cebpf4jnsgd1na2vs0mg"},{"bike_id":"83e214c2-0ada-4351-8a27-d8d9e569d46f","system_id":"levelo_inurba_marseille","lat":43.241631,"lon":5.363896,"is_reserved":false,"is_disabled":false,"rental_uris":{"android":"levelo://app?vid=83e214c2-0ada-4351-8a27-d8d9e569d46f","ios":"levelo://app?vid=83e214c2-0ada-4351-8a27-d8d9e569d46f"},"vehicle_type_id":"4","last_reported":1760185072,"current_range_meters":16400,"station_id":"cpo36qri1sfpv3e86is0","pricing_plan_id":"cebpf4jnsgd1na2vs0mg"},{"bike_id":"4834a710-f242-4b0f-9ef7-9d6d9f7a4b7b","system_id":"levelo_inurba_marseille","lat":43.22581,"lon":5.41627,"is_reserved":false,"is_disabled":false,"rental_uris":{"android":"levelo://app?vid=4834a710-f242-4b0f-9ef7-9d6d9f7a4b7b","ios":"levelo://app?vid=4834a710-f242-4b0f-9ef7-9d6d9f7a4b7b"},"vehicle_type_id":"4","last_reported":1760185072,"current_range_meters":16400,"station_id":"st_d2o4gvlbi1j2169b742g","pricing_plan_id":"cebpf4jnsgd1na2vs0mg"},{"bike_id":"d5aa1ce2-c6fd-4a6f-b955-7d8d35750943","system_id":"levelo_inurba_marseille","lat":43.225614,"lon":5.416255,"is_reserved":false,"is_disabled":false,"rental_uris":{"android":"levelo://app?vid=d5aa1ce2-c6fd-4a6f-b955-7d8d35750943","ios":"levelo://app?vid=d5aa1ce2-c6fd-4a6f-b955-7d8d35750943"},"vehicle_type_id":"4","last_reported":1760185072,"current_range_meters":16400,"station_id":"st_d2o4gvlbi1j2169b742g","pricing_plan_id":"cebpf4jnsgd1na2vs0mg"},{"bike_id":"6656c734-8332-4f94-98f0-47ce6a54afab","system_id":"levelo_inurba_marseille","lat":43.22936,"lon":5.35384,"is_reserved":false,"is_disabled":false,"rental_uris":{"android":"levelo://app?vid=6656c734-8332-4f94-98f0-47ce6a54afab","ios":"levelo://app?vid=6656c734-8332-4f94-98f0-47ce6a54afab"},"vehicle_type_id":"4","last_reported":1760185072,"current_range_meters":16800,"station_id":"","pricing_plan_id":"cebpf4jnsgd1na2vs0mg"},{"bike_id":"d75ae3ce-0d8e-45dc-816e-c4e76f5229e2","system_id":"levelo_inurba_marseille","lat":43.296206,"lon":5.381053,"is_reserved":false,"is_disabled":false,"rental_uris":{"android":"levelo://app?vid=d75ae3ce-0d8e-45dc-816e-c4e76f5229e2","ios":"levelo://app?vid=d75ae3ce-0d8e-45dc-816e-c4e76f5229e2"},"vehicle_type_id":"4","last_reported":1760185072,"current_range_meters":16800,"station_id":"ce4bh192rcd13ifvqdb0","pricing_plan_id":"cebpf4jnsgd1na2vs0mg"},{"bike_id":"b3b175b3-9ace-4786-8288-7c6b49015ff4","system_id":"levelo_inurba_marseille","lat":43.28462,"lon":5.35881,"is_reserved":false,"is_disabled":false,"rental_uris":{"android":"levelo://app?vid=b3b175b3-9ace-4786-8288-7c6b49015ff4","ios":"levelo://app?vid=b3b175b3-9ace-4786-8288-7c6b49015ff4"},"vehicle_type_id":"4","last_reported":1760185072,"current_range_meters":16800,"station_id":"ce4bhah2rcd13ifvqei0","pricing_plan_id":"cebpf4jnsgd1na2vs0mg"},{"bike_id":"c91577a1-1459-45b5-8d7d-b594581d143d","system_id":"levelo_inurba_marseille","lat":43.292029,"lon":5.358218,"is_reserved":false,"is_disabled":false,"rental_uris":{"android":"levelo://app?vid=c91577a1-1459-45b5-8d7d-b594581d143d","ios":"levelo://app?vid=c91577a1-1459-45b5-8d7d-b594581d143d"},"vehicle_type_id":"4","last_reported":1760185072,"current_range_meters":16800,"station_id":"ce4bhb12rcd13ifvqel0","pricing_plan_id":"cebpf4jnsgd1na2vs0mg"},{"bike_id":"b9412d5e-4596-49df-a7b8-ad00a32fdc02","system_id":"levelo_inurba_marseille","lat":43.2621,"lon":5.37442,"is_reserved":false,"is_disabled":false,"rental_uris":{"android":"levelo://app?vid=b9412d5e-4596-49df-a7b8-ad00a32fdc02","ios":"levelo://app?vid=b9412d5e-4596-49df-a7b8-ad00a32fdc02"},"vehicle_type_id":"4","last_reported":1760185072,"current_range_meters":16800,"station_id":"ce4bhgp2rcd13ifvqfc0","pricing_plan_id":"cebpf4jnsgd1na2vs0mg"},{"bike_id":"a0b1f95c-fc33-48bc-b8ee-2c6f42d5e304","system_id":"levelo_inurba_marseille","lat":43.24393,"lon":5.37051,"is_reserved":false,"is_disabled":false,"rental_uris":{"android":"levelo://app?vid=a0b1f95c-fc33-48bc-b8ee-2c6f42d5e304","ios":"levelo://app?vid=a0b1f95c-fc33-48bc-b8ee-2c6f42d5e304"},"vehicle_type_id":"4","last_reported":1760185072,"current_range_meters":16800,"station_id":"ce4bhhh2rcd13ifvqfk0","pricing_plan_id":"cebpf4jnsgd1na2vs0mg"},{"bike_id":"33f89483-ce28-4491-a3c7-f0cdbc13e3ff","system_id":"levelo_inurba_marseille","lat":43.26507,"lon":5.39551,"is_reserved":false,"is_disabled":false,"rental_uris":{"android":"levelo://app?vid=33f89483-ce28-4491-a3c7-f0cdbc13e3ff","ios":"levelo://app?vid=33f89483-ce28-4491-a3c7-f0cdbc13e3ff"},"vehicle_type_id":"4","last_reported":1760185072,"current_range_meters":16800,"station_id":"ce4bhi12rcd13ifvqfq0","pricing_plan_id":"cebpf4jnsgd1na2vs0mg"},{"bike_id":"08cc852f-ee49-4b4b-a62d-7b527cc0fac3","system_id":"levelo_inurba_marseille","lat":43.242803,"lon":5.375578,"is_reserved":false,"is_disabled":false,"rental_uris":{"android":"levelo://app?vid=08cc852f-ee49-4b4b-a62d-7b527cc0fac3","ios":"levelo://app?vid=08cc852f-ee49-4b4b-a62d-7b527cc0fac3"},"vehicle_type_id":"4","last_reported":1760185072,"current_range_meters":16800,"station_id":"ce4bhnp2rcd13ifvqgvg","pricing_plan_id":"cebpf4jnsgd1na2vs0mg"},{"bike_id":"90a7399f-67eb-4ed6-8265-2126a88abadc","system_id":"levelo_inurba_marseille","lat":43.22558,"lon":5.41621,"is_reserved":false,"is_disabled":false,"rental_uris":{"android":"levelo://app?vid=90a7399f-67eb-4ed6-8265-2126a88abadc","ios":"levelo://app?vid=90a7399f-67eb-4ed6-8265-2126a88abadc"},"vehicle_type_id":"4","last_reported":1760185072,"current_range_meters":16800,"station_id":"st_d2o4gvlbi1j2169b742g","pricing_plan_id":"cebpf4jnsgd1na2vs0mg"},{"bike_id":"f3443bda-c9d9-4feb-9331-d11573f54378","system_id":"levelo_inurba_marseille","lat":43.28402,"lon":5.34993,"is_reserved":false,"is_disabled":false,"rental_uris":{"android":"levelo://app?vid=f3443bda-c9d9-4feb-9331-d11573f54378","ios":"levelo://app?vid=f3443bda-c9d9-4feb-9331-d11573f54378"},"vehicle_type_id":"4","last_reported":1760185072,"current_range_meters":17200,"station_id":"","pricing_plan_id":"cebpf4jnsgd1na2vs0mg"},{"bike_id":"a6ca21c5-ccde-4547-856c-b2770da367df","system_id":"levelo_inurba_marseille","lat":43.23068,"lon":5.35498,"is_reserved":false,"is_disabled":false,"rental_uris":{"android":"levelo://app?vid=a6ca21c5-ccde-4547-856c-b2770da367df","ios":"levelo://app?vid=a6ca21c5-ccde-4547-856c-b2770da367df"},"vehicle_type_id":"4","last_reported":1760185072,"current_range_meters":17200,"station_id":"","pricing_plan_id":"cebpf4jnsgd1na2vs0mg"},{"bike_id":"f0b4756b-0c20-48e3-bb34-cbfe929c8094","system_id":"levelo_inurba_marseille","lat":43.28457,"lon":5.35891,"is_reserved":false,"is_disabled":false,"rental_uris":{"android":"levelo://app?vid=f0b4756b-0c20-48e3-bb34-cbfe929c8094","ios":"levelo://app?vid=f0b4756b-0c20-48e3-bb34-cbfe929c8094"},"vehicle_type_id":"4","last_reported":1760185072,"current_range_meters":17200,"station_id":"ce4bhah2rcd13ifvqei0","pricing_plan_id":"cebpf4jnsgd1na2vs0mg"},{"bike_id":"3c296a21-fc7f-4ea1-b63f-bab951af21f7","system_id":"levelo_inurba_marseille","lat":43.26554,"lon":5.37284,"is_reserved":false,"is_disabled":false,"rental_uris":{"android":"levelo://app?vid=3c296a21-fc7f-4ea1-b63f-bab951af21f7","ios":"levelo://app?vid=3c296a21-fc7f-4ea1-b63f-bab951af21f7"},"vehicle_type_id":"4","last_reported":1760185072,"current_range_meters":17200,"station_id":"ce4bhg12rcd13ifvqf70","pricing_plan_id":"cebpf4jnsgd1na2vs0mg"},{"bike_id":"fecedf8e-e76a-462a-89b1-b16abd90f988","system_id":"levelo_inurba_marseille","lat":43.23084,"lon":5.35466,"is_reserved":false,"is_disabled":false,"rental_uris":{"android":"levelo://app?vid=fecedf8e-e76a-462a-89b1-b16abd90f988","ios":"levelo://app?vid=fecedf8e-e76a-462a-89b1-b16abd90f988"},"vehicle_type_id":"4","last_reported":1760185072,"current_range_meters":17200,"station_id":"cpo3342slgdg3j2ifvpg","pricing_plan_id":"cebpf4jnsgd1na2vs0mg"},{"bike_id":"3017431a-1237-4842-a66d-718891ed2371","system_id":"levelo_inurba_marseille","lat":43.2175,"lon":5.34588,"is_reserved":false,"is_disabled":false,"rental_uris":{"android":"levelo://app?vid=3017431a-1237-4842-a66d-718891ed2371","ios":"levelo://app?vid=3017431a-1237-4842-a66d-718891ed2371"},"vehicle_type_id":"4","last_reported":1760185072,"current_range_meters":17200,"station_id":"st_cvj6r9ubvosntc0bgbag","pricing_plan_id":"cebpf4jnsgd1na2vs0mg"},{"bike_id":"a10dabe4-e9de-4ff3-9dc9-8a21e2d7ddb0","system_id":"levelo_inurba_marseille","lat":43.21192,"lon":5.350707,"is_reserved":false,"is_disabled":false,"rental_uris":{"android":"levelo://app?vid=a10dabe4-e9de-4ff3-9dc9-8a21e2d7ddb0","ios":"levelo://app?vid=a10dabe4-e9de-4ff3-9dc9-8a21e2d7ddb0"},"vehicle_type_id":"4","last_reported":1760185072,"current_range_meters":17600,"station_id":"","pricing_plan_id":"cebpf4jnsgd1na2vs0mg"},{"bike_id":"bf1566bd-22f9-416e-98dc-04b2c8f4ead7","system_id":"levelo_inurba_marseille","lat":43.21193,"lon":5.35073,"is_reserved":false,"is_disabled":false,"rental_uris":{"android":"levelo://app?vid=bf1566bd-22f9-416e-98dc-04b2c8f4ead7","ios":"levelo://app?vid=bf1566bd-22f9-416e-98dc-04b2c8f4ead7"},"vehicle_type_id":"4","last_reported":1760185072,"current_range_meters":17600,"station_id":"","pricing_plan_id":"cebpf4jnsgd1na2vs0mg"},{"bike_id":"ebc2f1f5-055c-4d3b-93be-adef8d61a85d","system_id":"levelo_inurba_marseille","lat":43.29869,"lon":5.39727,"is_reserved":false,"is_disabled":false,"rental_uris":{"android":"levelo://app?vid=ebc2f1f5-055c-4d3b-93be-adef8d61a85d","ios":"levelo://app?vid=ebc2f1f5-055c-4d3b-93be-adef8d61a85d"},"vehicle_type_id":"4","last_reported":1760185072,"current_range_meters":17600,"station_id":"ce4bh0h2rcd13ifvqd50","pricing_plan_id":"cebpf4jnsgd1na2vs0mg"},{"bike_id":"7591e1b9-39da-4bb9-bfef-91d026a9b9cc","system_id":"levelo_inurba_marseille","lat":43.28414,"lon":5.3497,"is_reserved":false,"is_disabled":false,"rental_uris":{"android":"levelo://app?vid=7591e1b9-39da-4bb9-bfef-91d026a9b9cc","ios":"levelo://app?vid=7591e1b9-39da-4bb9-bfef-91d026a9b9cc"},"vehicle_type_id":"4","last_reported":1760185072,"current_range_meters":17600,"station_id":"ce4bhbh2rcd13ifvqepg","pricing_plan_id":"cebpf4jnsgd1na2vs0mg"},{"bike_id":"87a2afbe-65eb-4f71-b21e-40efbb59899e","system_id":"levelo_inurba_marseille","lat":43.27914,"lon":5.39579,"is_reserved":false,"is_disabled":false,"rental_uris":{"android":"levelo://app?vid=87a2afbe-65eb-4f71-b21e-40efbb59899e","ios":"levelo://app?vid=87a2afbe-65eb-4f71-b21e-40efbb59899e"},"vehicle_type_id":"4","last_reported":1760185072,"current_range_meters":17600,"station_id":"ce4bhf92rcd13ifvqf40","pricing_plan_id":"cebpf4jnsgd1na2vs0mg"},{"bike_id":"fdca1f07-adcd-4be1-adaf-021612064854","system_id":"levelo_inurba_marseille","lat":43.23151,"lon":5.43715,"is_reserved":false,"is_disabled":false,"rental_uris":{"android":"levelo://app?vid=fdca1f07-adcd-4be1-adaf-021612064854","ios":"levelo://app?vid=fdca1f07-adcd-4be1-adaf-021612064854"},"vehicle_type_id":"4","last_reported":1760185072,"current_range_meters":17600,"station_id":"ce4bhmp2rcd13ifvqgog","pricing_plan_id":"cebpf4jnsgd1na2vs0mg"},{"bike_id":"4dd08bc7-3257-460c-bb89-edc9b57dc12a","system_id":"levelo_inurba_marseille","lat":43.23188,"lon":5.39976,"is_reserved":false,"is_disabled":false,"rental_uris":{"android":"levelo://app?vid=4dd08bc7-3257-460c-bb89-edc9b57dc12a","ios":"levelo://app?vid=4dd08bc7-3257-460c-bb89-edc9b57dc12a"},"vehicle_type_id":"4","last_reported":1760185072,"current_range_meters":17600,"station_id":"ce4bhn12rcd13ifvqgqg","pricing_plan_id":"cebpf4jnsgd1na2vs0mg"},{"bike_id":"cf1135e3-e8d8-4d00-996c-b8aafc2e60e3","system_id":"levelo_inurba_marseille","lat":43.24064,"lon":5.37743,"is_reserved":false,"is_disabled":false,"rental_uris":{"android":"levelo://app?vid=cf1135e3-e8d8-4d00-996c-b8aafc2e60e3","ios":"levelo://app?vid=cf1135e3-e8d8-4d00-996c-b8aafc2e60e3"},"vehicle_type_id":"4","last_reported":1760185072,"current_range_meters":17600,"station_id":"ce4bhnp2rcd13ifvqgvg","pricing_plan_id":"cebpf4jnsgd1na2vs0mg"},{"bike_id":"3272e5cb-e544-4bac-866a-624239b9225a","system_id":"levelo_inurba_marseille","lat":43.217475,"lon":5.346024,"is_reserved":false,"is_disabled":false,"rental_uris":{"android":"levelo://app?vid=3272e5cb-e544-4bac-866a-624239b9225a","ios":"levelo://app?vid=3272e5cb-e544-4bac-866a-624239b9225a"},"vehicle_type_id":"4","last_reported":1760185072,"current_range_meters":17600,"station_id":"st_cvj6r9ubvosntc0bgbag","pricing_plan_id":"cebpf4jnsgd1na2vs0mg"},{"bike_id":"d6961ec5-7510-42c0-b9f5-2a20bfb26aa5","system_id":"levelo_inurba_marseille","lat":43.21746,"lon":5.34602,"is_reserved":false,"is_disabled":false,"rental_uris":{"android":"levelo://app?vid=d6961ec5-7510-42c0-b9f5-2a20bfb26aa5","ios":"levelo://app?vid=d6961ec5-7510-42c0-b9f5-2a20bfb26aa5"},"vehicle_type_id":"4","last_reported":1760185072,"current_range_meters":17600,"station_id":"st_cvj6r9ubvosntc0bgbag","pricing_plan_id":"cebpf4jnsgd1na2vs0mg"},{"bike_id":"db3185ee-7676-4a75-a3ad-fa94ee02a092","system_id":"levelo_inurba_marseille","lat":43.21185,"lon":5.35069,"is_reserved":false,"is_disabled":false,"rental_uris":{"android":"levelo://app?vid=db3185ee-7676-4a75-a3ad-fa94ee02a092","ios":"levelo://app?vid=db3185ee-7676-4a75-a3ad-fa94ee02a092"},"vehicle_type_id":"4","last_reported":1760185072,"current_range_meters":17600,"station_id":"st_cvj6sg6p6f1abm77japg","pricing_plan_id":"cebpf4jnsgd1na2vs0mg"},{"bike_id":"b10d96bd-cfc0-4f48-ab6e-c4c72ef0cbc3","system_id":"levelo_inurba_marseille","lat":43.29733,"lon":5.37077,"is_reserved":false,"is_disabled":false,"rental_uris":{"android":"levelo://app?vid=b10d96bd-cfc0-4f48-ab6e-c4c72ef0cbc3","ios":"levelo://app?vid=b10d96bd-cfc0-4f48-ab6e-c4c72ef0cbc3"},"vehicle_type_id":"4","last_reported":1760185072,"current_range_meters":18000,"station_id":"","pricing_plan_id":"cebpf4jnsgd1na2vs0mg"},{"bike_id":"ec7b70b6-1085-4624-8fca-47cb085e4b17","system_id":"levelo_inurba_marseille","lat":43.27437,"lon":5.3941,"is_reserved":false,"is_disabled":false,"rental_uris":{"android":"levelo://app?vid=ec7b70b6-1085-4624-8fca-47cb085e4b17","ios":"levelo://app?vid=ec7b70b6-1085-4624-8fca-47cb085e4b17"},"vehicle_type_id":"4","last_reported":1760185072,"current_range_meters":18000,"station_id":"ce4bhdp2rcd13ifvqf20","pricing_plan_id":"cebpf4jnsgd1na2vs0mg"},{"bike_id":"5e484363-88b7-4ed8-a2bc-57c9de887653","system_id":"levelo_inurba_marseille","lat":43.24646,"lon":5.38888,"is_reserved":false,"is_disabled":false,"rental_uris":{"android":"levelo://app?vid=5e484363-88b7-4ed8-a2bc-57c9de887653","ios":"levelo://app?vid=5e484363-88b7-4ed8-a2bc-57c9de887653"},"vehicle_type_id":"4","last_reported":1760185072,"current_range_meters":18000,"station_id":"ce4bhg12rcd13ifvqf60","pricing_plan_id":"cebpf4jnsgd1na2vs0mg"},{"bike_id":"8ce263e4-194a-4012-96d5-d6eec0f65350","system_id":"levelo_inurba_marseille","lat":43.24184,"lon":5.39728,"is_reserved":false,"is_disabled":false,"rental_uris":{"android":"levelo://app?vid=8ce263e4-194a-4012-96d5-d6eec0f65350","ios":"levelo://app?vid=8ce263e4-194a-4012-96d5-d6eec0f65350"},"vehicle_type_id":"4","last_reported":1760185072,"current_range_meters":18000,"station_id":"ce4bhn12rcd13ifvqgpg","pricing_plan_id":"cebpf4jnsgd1na2vs0mg"},{"bike_id":"6a32bd5a-ec5f-43e3-8835-b725b186586f","system_id":"levelo_inurba_marseille","lat":43.232396,"lon":5.399918,"is_reserved":false,"is_disabled":false,"rental_uris":{"android":"levelo://app?vid=6a32bd5a-ec5f-43e3-8835-b725b186586f","ios":"levelo://app?vid=6a32bd5a-ec5f-43e3-8835-b725b186586f"},"vehicle_type_id":"4","last_reported":1760185072,"current_range_meters":18000,"station_id":"ce4bhn12rcd13ifvqgqg","pricing_plan_id":"cebpf4jnsgd1na2vs0mg"},{"bike_id":"6c025132-2362-4f68-a05c-0507a8f75bfb","system_id":"levelo_inurba_marseille","lat":43.2681,"lon":5.40264,"is_reserved":false,"is_disabled":false,"rental_uris":{"android":"levelo://app?vid=6c025132-2362-4f68-a05c-0507a8f75bfb","ios":"levelo://app?vid=6c025132-2362-4f68-a05c-0507a8f75bfb"},"vehicle_type_id":"4","last_reported":1760185072,"current_range_meters":18000,"station_id":"ce501612rcd8frsf0b60","pricing_plan_id":"cebpf4jnsgd1na2vs0mg"},