{"last_updated":1728230958,"ttl":60,"version":"2.2","data":{"bikes":[{"bike_id":"89c36d13-66e4-4eb0-ac7c-41df1f159475","system_id":"levelo_inurba_marseille","lat":43.28726,"lon":5.37952,"is_reserved":false,"is_disabled":false,"rental_uris":{"android":"levelo://app?vid=89c36d13-66e4-4eb0-ac7c-41df1f159475","ios":"levelo://app?vid=89c36d13-66e4-4eb0-ac7c-41df1f159475"},"vehicle_type_id":"4","last_reported":1728230958,"current_range_meters":17600,"station_id":"ce4bh9p2rcd13ifvqec0","pricing_plan_id":"cebpf4jnsgd1na2vs0mg"},{"bike_id":"2955edf1-4638-4ce0-a70a-86b2575f09a2","system_id":"levelo_inurba_marseille","lat":43.28004,"lon":5.4001,"is_reserved":false,"is_disabled":false,"rental_uris":{"android":"levelo://app?vid=2955edf1-4638-4ce0-a70a-86b2575f09a2","ios":"levelo://app?vid=2955edf1-4638-4ce0-a70a-86b2575f09a2"},"vehicle_type_id":"4","last_reported":1728230958,"current_range_meters":4800,"station_id":"ce4bho92rcd13ifvqh4g","pricing_plan_id":"cebpf4jnsgd1na2vs0mg"},{"bike_id":"8f0f85ee-85e9-4700-bb00-0c2391210551","system_id":"levelo_inurba_marseille","lat":43.24073,"lon":5.3776,"is_reserved":false,"is_disabled":false,"rental_uris":{"android":"levelo://app?vid=8f0f85ee-85e9-4700-bb00-0c2391210551","ios":"levelo://app?vid=8f0f85ee-85e9-4700-bb00-0c2391210551"},"vehicle_type_id":"4","last_reported":1728230958,"current_range_meters":20800,"station_id":"ce4bhnp2rcd13ifvqgvg","pricing_plan_id":"cebpf4jnsgd1na2vs0mg"},{"bike_id":"9671f252-4906-4ded-9eb9-fd7886dcac1f","system_id":"levelo_inurba_marseille","lat":43.3177,"lon":5.39017,"is_reserved":false,"is_disabled":false,"rental_uris":{"android":"levelo://app?vid=9671f252-4906-4ded-9eb9-fd7886dcac1f","ios":"levelo://app?vid=9671f252-4906-4ded-9eb9-fd7886dcac1f"},"vehicle_type_id":"4","last_reported":1728230958,"current_range_meters":37600,"station_id":"ce4bhqp2rcd13ifvqhng","pricing_plan_id":"cebpf4jnsgd1na2vs0mg"},{"bike_id":"fcc56730-3c72-4870-849a-77c8955fe703","system_id":"levelo_inurba_marseille","lat":43.26548,"lon":5.39048,"is_reserved":false,"is_disabled":false,"rental_uris":{"android":"levelo://app?vid=fcc56730-3c72-4870-849a-77c8955fe703","ios":"levelo://app?vid=fcc56730-3c72-4870-849a-77c8955fe703"},"vehicle_type_id":"4","last_reported":1728230958,"current_range_meters":38800,"station_id":"ce4bhe12rcd13ifvqf30","pricing_plan_id":"cebpf4jnsgd1na2vs0mg"},{"bike_id":"940cde9c-6243-4a9e-89af-97831cb9ac45","system_id":"levelo_inurba_marseille","lat":43.24392,"lon":5.37054,"is_reserved":false,"is_disabled":false,"rental_uris":{"android":"levelo://app?vid=940cde9c-6243-4a9e-89af-97831cb9ac45","ios":"levelo://app?vid=940cde9c-6243-4a9e-89af-97831cb9ac45"},"vehicle_type_id":"4","last_reported":1728230958,"current_range_meters":32400,"station_id":"ce4bhhh2rcd13ifvqfk0","pricing_plan_id":"cebpf4jnsgd1na2vs0mg"},{"bike_id":"3edccbad-c604-40df-acb2-6e9d91b67298","system_id":"levelo_inurba_marseille","lat":43.21342,"lon":5.34942,"is_reserved":false,"is_disabled":false,"rental_uris":{"android":"levelo://app?vid=3edccbad-c604-40df-acb2-6e9d91b67298","ios":"levelo://app?vid=3edccbad-c604-40df-acb2-6e9d91b67298"},"vehicle_type_id":"4","last_reported":1728230958,"current_range_meters":28400,"station_id":"crv51consjfaj9uu89c0","pricing_plan_id":"cebpf4jnsgd1na2vs0mg"},{"bike_id":"32d7b9f5-d037-433e-bd1e-bac8e4de3da8","system_id":"levelo_inurba_marseille","lat":43.26566,"lon":5.39011,"is_reserved":false,"is_disabled":false,"rental_uris":{"android":"levelo://app?vid=32d7b9f5-d037-433e-bd1e-bac8e4de3da8","ios":"levelo://app?vid=32d7b9f5-d037-433e-bd1e-bac8e4de3da8"},"vehicle_type_id":"4","last_reported":1728230958,"current_range_meters":36400,"station_id":"ce4bhe12rcd13ifvqf30","pricing_plan_id":"cebpf4jnsgd1na2vs0mg"},{"bike_id":"5ebdd39c-1faa-48bb-b34e-20793e0aa7ff","system_id":"levelo_inurba_marseille","lat":43.23064,"lon":5.35487,"is_reserved":false,"is_disabled":false,"rental_uris":{"android":"levelo://app?vid=5ebdd39c-1faa-48bb-b34e-20793e0aa7ff","ios":"levelo://app?vid=5ebdd39c-1faa-48bb-b34e-20793e0aa7ff"},"vehicle_type_id":"4","last_reported":1728230958,"current_range_meters":34000,"station_id":"cpo3342slgdg3j2ifvpg","pricing_plan_id":"cebpf4jnsgd1na2vs0mg"},{"bike_id":"53aed260-8a8b-48a9-a9a5-ec999fb04e11","system_id":"levelo_inurba_marseille","lat":43.25118,"lon":5.40321,"is_reserved":false,"is_disabled":false,"rental_uris":{"android":"levelo://app?vid=53aed260-8a8b-48a9-a9a5-ec999fb04e11","ios":"levelo://app?vid=53aed260-8a8b-48a9-a9a5-ec999fb04e11"},"vehicle_type_id":"4","last_reported":1728230958,"current_range_meters":38800,"station_id":"ce4bhlh2rcd13ifvqgig","pricing_plan_id":"cebpf4jnsgd1na2vs0mg"},{"bike_id":"82ff87f7-ee60-4c6a-8996-0f1369bab36c","system_id":"levelo_inurba_marseille","lat":43.24068,"lon":5.3776,"is_reserved":false,"is_disabled":false,"rental_uris":{"android":"levelo://app?vid=82ff87f7-ee60-4c6a-8996-0f1369bab36c","ios":"levelo://app?vid=82ff87f7-ee60-4c6a-8996-0f1369bab36c"},"vehicle_type_id":"4","last_reported":1728230958,"current_range_meters":38800,"station_id":"ce4bhnp2rcd13ifvqgvg","pricing_plan_id":"cebpf4jnsgd1na2vs0mg"},{"bike_id":"693f5330-b4ae-4f20-87ce-fe9241da8529","system_id":"levelo_inurba_marseille","lat":43.24665,"lon":5.38176,"is_reserved":false,"is_disabled":false,"rental_uris":{"android":"levelo://app?vid=693f5330-b4ae-4f20-87ce-fe9241da8529","ios":"levelo://app?vid=693f5330-b4ae-4f20-87ce-fe9241da8529"},"vehicle_type_id":"4","last_reported":1728230958,"current_range_meters":12000,"station_id":"ce4bhih2rcd13ifvqfr0","pricing_plan_id":"cebpf4jnsgd1na2vs0mg"},{"bike_id":"3d3e93be-8a67-4628-9af2-2661c9a0daa4","system_id":"levelo_inurba_marseille","lat":43.22936,"lon":5.35381,"is_reserved":false,"is_disabled":false,"rental_uris":{"android":"levelo://app?vid=3d3e93be-8a67-4628-9af2-2661c9a0daa4","ios":"levelo://app?vid=3d3e93be-8a67-4628-9af2-2661c9a0daa4"},"vehicle_type_id":"4","last_reported":1728230958,"current_range_meters":36000,"station_id":"cpo3532slgdg3j2ikp40","pricing_plan_id":"cebpf4jnsgd1na2vs0mg"},{"bike_id":"83bd8e08-648e-4fc6-8901-05219804adac","system_id":"levelo_inurba_marseille","lat":43.22936,"lon":5.35378,"is_reserved":false,"is_disabled":false,"rental_uris":{"android":"levelo://app?vid=83bd8e08-648e-4fc6-8901-05219804adac","ios":"levelo://app?vid=83bd8e08-648e-4fc6-8901-05219804adac"},"vehicle_type_id":"4","last_reported":1728230958,"current_range_meters":30000,"station_id":"cpo3532slgdg3j2ikp40","pricing_plan_id":"cebpf4jnsgd1na2vs0mg"},{"bike_id":"95019989-938a-46c5-aef4-03b36340381f","system_id":"levelo_inurba_marseille","lat":43.275757,"lon":5.384328,"is_reserved":false,"is_disabled":false,"rental_uris":{"android":"levelo://app?vid=95019989-938a-46c5-aef4-03b36340381f","ios":"levelo://app?vid=95019989-938a-46c5-aef4-03b36340381f"},"vehicle_type_id":"4","last_reported":1728230958,"current_range_meters":18000,"station_id":"ce4bhh92rcd13ifvqfi0","pricing_plan_id":"cebpf4jnsgd1na2vs0mg"},{"bike_id":"6266ab0d-036e-4351-aec4-c2f2013119e5","system_id":"levelo_inurba_marseille","lat":43.32487,"lon":5.36567,"is_reserved":false,"is_disabled":false,"rental_uris":{"android":"levelo://app?vid=6266ab0d-036e-4351-aec4-c2f2013119e5","ios":"levelo://app?vid=6266ab0d-036e-4351-aec4-c2f2013119e5"},"vehicle_type_id":"4","last_reported":1728230958,"current_range_meters":38800,"station_id":"ce4bhs12rcd13ifvqhvg","pricing_plan_id":"cebpf4jnsgd1na2vs0mg"},{"bike_id":"8f3ccfe0-5ed9-414f-bbb5-91147ae4bab9","system_id":"levelo_inurba_marseille","lat":43.26567,"lon":5.39015,"is_reserved":false,"is_disabled":false,"rental_uris":{"android":"levelo://app?vid=8f3ccfe0-5ed9-414f-bbb5-91147ae4bab9","ios":"levelo://app?vid=8f3ccfe0-5ed9-414f-bbb5-91147ae4bab9"},"vehicle_type_id":"4","last_reported":1728230958,"current_range_meters":33600,"station_id":"ce4bhe12rcd13ifvqf30","pricing_plan_id":"cebpf4jnsgd1na2vs0mg"},{"bike_id":"7aa13bc4-5815-446b-9e30-58d8aceef9f4","system_id":"levelo_inurba_marseille","lat":43.269296,"lon":5.389166,"is_reserved":false,"is_disabled":false,"rental_uris":{"android":"levelo://app?vid=7aa13bc4-5815-446b-9e30-58d8aceef9f4","ios":"levelo://app?vid=7aa13bc4-5815-446b-9e30-58d8aceef9f4"},"vehicle_type_id":"4","last_reported":1728230958,"current_range_meters":32400,"station_id":"ce4bhhh2rcd13ifvqfl0","pricing_plan_id":"cebpf4jnsgd1na2vs0mg"},{"bike_id":"25e81eef-b9ea-4b4d-bf5f-af41e3b53100","system_id":"levelo_inurba_marseille","lat":43.29961,"lon":5.41323,"is_reserved":false,"is_disabled":false,"rental_uris":{"android":"levelo://app?vid=25e81eef-b9ea-4b4d-bf5f-af41e3b53100","ios":"levelo://app?vid=25e81eef-b9ea-4b4d-bf5f-af41e3b53100"},"vehicle_type_id":"4","last_reported":1728230958,"current_range_meters":38800,"station_id":"ce4bhp12rcd13ifvqh9g","pricing_plan_id":"cebpf4jnsgd1na2vs0mg"},{"bike_id":"249ba857-c21a-4cf9-b612-6eace3a3311f","system_id":"levelo_inurba_marseille","lat":43.27069,"lon":5.42283,"is_reserved":false,"is_disabled":false,"rental_uris":{"android":"levelo://app?vid=249ba857-c21a-4cf9-b612-6eace3a3311f","ios":"levelo://app?vid=249ba857-c21a-4cf9-b612-6eace3a3311f"},"vehicle_type_id":"4","last_reported":1728230958,"current_range_meters":25600,"station_id":"ce4bhk92rcd13ifvqgb0","pricing_plan_id":"cebpf4jnsgd1na2vs0mg"},{"bike_id":"32ab325a-0e98-4bb3-809c-c26d46577549","system_id":"levelo_inurba_marseille","lat":43.22936,"lon":5.35375,"is_reserved":false,"is_disabled":false,"rental_uris":{"android":"levelo://app?vid=32ab325a-0e98-4bb3-809c-c26d46577549","ios":"levelo://app?vid=32ab325a-0e98-4bb3-809c-c26d46577549"},"vehicle_type_id":"4","last_reported":1728230958,"current_range_meters":26000,"station_id":"cpo3532slgdg3j2ikp40","pricing_plan_id":"cebpf4jnsgd1na2vs0mg"},{"bike_id":"21814611-01da-4a56-bde2-76253f0cdaa1","system_id":"levelo_inurba_marseille","lat":43.27074,"lon":5.42284,"is_reserved":false,"is_disabled":false,"rental_uris":{"android":"levelo://app?vid=21814611-01da-4a56-bde2-76253f0cdaa1","ios":"levelo://app?vid=21814611-01da-4a56-bde2-76253f0cdaa1"},"vehicle_type_id":"4","last_reported":1728230958,"current_range_meters":38400,"station_id":"ce4bhk92rcd13ifvqgb0","pricing_plan_id":"cebpf4jnsgd1na2vs0mg"},{"bike_id":"2c50a4c3-cac0-4218-a3be-a52a5167ebb7","system_id":"levelo_inurba_marseille","lat":43.26941,"lon":5.4025,"is_reserved":false,"is_disabled":false,"rental_uris":{"android":"levelo://app?vid=2c50a4c3-cac0-4218-a3be-a52a5167ebb7","ios":"levelo://app?vid=2c50a4c3-cac0-4218-a3be-a52a5167ebb7"},"vehicle_type_id":"4","last_reported":1728230958,"current_range_meters":22000,"station_id":"cjm6bp8fraef2m0cb0m0","pricing_plan_id":"cebpf4jnsgd1na2vs0mg"},{"bike_id":"fc801fd2-af3a-4f79-99fd-5372acf2acdf","system_id":"levelo_inurba_marseille","lat":43.295746,"lon":5.375692,"is_reserved":false,"is_disabled":false,"rental_uris":{"android":"levelo://app?vid=fc801fd2-af3a-4f79-99fd-5372acf2acdf","ios":"levelo://app?vid=fc801fd2-af3a-4f79-99fd-5372acf2acdf"},"vehicle_type_id":"4","last_reported":1728230958,"current_range_meters":27600,"station_id":"","pricing_plan_id":"cebpf4jnsgd1na2vs0mg"},{"bike_id":"d2f85b30-478a-4577-b508-4bd743f75360","system_id":"levelo_inurba_marseille","lat":43.30885,"lon":5.39658,"is_reserved":false,"is_disabled":false,"rental_uris":{"android":"levelo://app?vid=d2f85b30-478a-4577-b508-4bd743f75360","ios":"levelo://app?vid=d2f85b30-478a-4577-b508-4bd743f75360"},"vehicle_type_id":"4","last_reported":1728230958,"current_range_meters":23200,"station_id":"ce4bh012rcd13ifvqcv0","pricing_plan_id":"cebpf4jnsgd1na2vs0mg"},{"bike_id":"03ebdfef-60b9-4383-b780-f6e10ef5dff9","system_id":"levelo_inurba_marseille","lat":43.33757,"lon":5.37449,"is_reserved":false,"is_disabled":false,"rental_uris":{"android":"levelo://app?vid=03ebdfef-60b9-4383-b780-f6e10ef5dff9","ios":"levelo://app?vid=03ebdfef-60b9-4383-b780-f6e10ef5dff9"},"vehicle_type_id":"4","last_reported":1728230958,"current_range_meters":26800,"station_id":"","pricing_plan_id":"cebpf4jnsgd1na2vs0mg"},{"bike_id":"11be9968-522e-4bb7-9690-6e0c90931ef9","system_id":"levelo_inurba_marseille","lat":43.27834,"lon":5.3921,"is_reserved":false,"is_disabled":false,"rental_uris":{"android":"levelo://app?vid=11be9968-522e-4bb7-9690-6e0c90931ef9","ios":"levelo://app?vid=11be9968-522e-4bb7-9690-6e0c90931ef9"},"vehicle_type_id":"4","last_reported":1728230958,"current_range_meters":32400,"station_id":"ce4bhjp2rcd13ifvqga0","pricing_plan_id":"cebpf4jnsgd1na2vs0mg"},{"bike_id":"8c4ede2a-8479-4951-912b-e9104b176599","system_id":"levelo_inurba_marseille","lat":43.337258,"lon":5.39191,"is_reserved":false,"is_disabled":false,"rental_uris":{"android":"levelo://app?vid=8c4ede2a-8479-4951-912b-e9104b176599","ios":"levelo://app?vid=8c4ede2a-8479-4951-912b-e9104b176599"},"vehicle_type_id":"4","last_reported":1728230958,"current_range_meters":7200,"station_id":"ce4bhr92rcd13ifvqhsg","pricing_plan_id":"cebpf4jnsgd1na2vs0mg"},{"bike_id":"fa6990f7-f9d1-4438-86c4-30a63f8f7c1c","system_id":"levelo_inurba_marseille","lat":43.31686,"lon":5.40479,"is_reserved":false,"is_disabled":false,"rental_uris":{"android":"levelo://app?vid=fa6990f7-f9d1-4438-86c4-30a63f8f7c1c","ios":"levelo://app?vid=fa6990f7-f9d1-4438-86c4-30a63f8f7c1c"},"vehicle_type_id":"4","last_reported":1728230958,"current_range_meters":8400,"station_id":"ce4bh012rcd13ifvqd00","pricing_plan_id":"cebpf4jnsgd1na2vs0mg"},{"bike_id":"8b262396-935e-4bfd-8f82-89973617675b","system_id":"levelo_inurba_marseille","lat":43.30078,"lon":5.38145,"is_reserved":false,"is_disabled":false,"rental_uris":{"android":"levelo://app?vid=8b262396-935e-4bfd-8f82-89973617675b","ios":"levelo://app?vid=8b262396-935e-4bfd-8f82-89973617675b"},"vehicle_type_id":"4","last_reported":1728230958,"current_range_meters":6800,"station_id":"ce4bh3h2rcd13ifvqdo0","pricing_plan_id":"cebpf4jnsgd1na2vs0mg"},{"bike_id":"4018fa26-9a2a-4214-af21-76b3667a940b","system_id":"levelo_inurba_marseille","lat":43.337622,"lon":5.374314,"is_reserved":false,"is_disabled":false,"rental_uris":{"android":"levelo://app?vid=4018fa26-9a2a-4214-af21-76b3667a940b","ios":"levelo://app?vid=4018fa26-9a2a-4214-af21-76b3667a940b"},"vehicle_type_id":"4","last_reported":1728230958,"current_range_meters":27600,"station_id":"","pricing_plan_id":"cebpf4jnsgd1na2vs0mg"},{"bike_id":"47eac1fe-2ca6-4418-8b2f-3564461491d6","system_id":"levelo_inurba_marseille","lat":43.27918,"lon":5.39582,"is_reserved":false,"is_disabled":false,"rental_uris":{"android":"levelo://app?vid=47eac1fe-2ca6-4418-8b2f-3564461491d6","ios":"levelo://app?vid=47eac1fe-2ca6-4418-8b2f-3564461491d6"},"vehicle_type_id":"4","last_reported":1728230958,"current_range_meters":30000,"station_id":"ce4bhf92rcd13ifvqf40","pricing_plan_id":"cebpf4jnsgd1na2vs0mg"},{"bike_id":"35db5aab-a536-4286-87d7-90ec43783f24","system_id":"levelo_inurba_marseille","lat":43.23194,"lon":5.35551,"is_reserved":false,"is_disabled":false,"rental_uris":{"android":"levelo://app?vid=35db5aab-a536-4286-87d7-90ec43783f24","ios":"levelo://app?vid=35db5aab-a536-4286-87d7-90ec43783f24"},"vehicle_type_id":"4","last_reported":1728230958,"current_range_meters":38800,"station_id":"ce4bhu92rcd13ifvqi70","pricing_plan_id":"cebpf4jnsgd1na2vs0mg"},{"bike_id":"ac7477e2-647f-4698-b2f1-05ac6bd7ca79","system_id":"levelo_inurba_marseille","lat":43.27378,"lon":5.36254,"is_reserved":false,"is_disabled":false,"rental_uris":{"android":"levelo://app?vid=ac7477e2-647f-4698-b2f1-05ac6bd7ca79","ios":"levelo://app?vid=ac7477e2-647f-4698-b2f1-05ac6bd7ca79"},"vehicle_type_id":"4","last_reported":1728230958,"current_range_meters":32800,"station_id":"ce4bhbh2rcd13ifvqeo0","pricing_plan_id":"cebpf4jnsgd1na2vs0mg"},{"bike_id":"a27e270e-e10f-4078-9047-05a905df54d1","system_id":"levelo_inurba_marseille","lat":43.31498,"lon":5.37312,"is_reserved":false,"is_disabled":false,"rental_uris":{"android":"levelo://app?vid=a27e270e-e10f-4078-9047-05a905df54d1","ios":"levelo://app?vid=a27e270e-e10f-4078-9047-05a905df54d1"},"vehicle_type_id":"4","last_reported":1728230958,"current_range_meters":39200,"station_id":"ce4bgt12rcd13ifvqcd0","pricing_plan_id":"cebpf4jnsgd1na2vs0mg"},{"bike_id":"4c24498e-e1c7-43cd-90f9-6ec2c3353db0","system_id":"levelo_inurba_marseille","lat":43.29718,"lon":5.37701,"is_reserved":false,"is_disabled":false,"rental_uris":{"android":"levelo://app?vid=4c24498e-e1c7-43cd-90f9-6ec2c3353db0","ios":"levelo://app?vid=4c24498e-e1c7-43cd-90f9-6ec2c3353db0"},"vehicle_type_id":"4","last_reported":1728230958,"current_range_meters":38000,"station_id":"ce4bgkh2rcd13ifvqbl0","pricing_plan_id":"cebpf4jnsgd1na2vs0mg"},{"bike_id":"491813ec-5bcd-4eda-acb2-c01ccb4e9894","system_id":"levelo_inurba_marseille","lat":43.33766,"lon":5.37457,"is_reserved":false,"is_disabled":false,"rental_uris":{"android":"levelo://app?vid=491813ec-5bcd-4eda-acb2-c01ccb4e9894","ios":"levelo://app?vid=491813ec-5bcd-4eda-acb2-c01ccb4e9894"},"vehicle_type_id":"4","last_reported":1728230958,"current_range_meters":26000,"station_id":"","pricing_plan_id":"cebpf4jnsgd1na2vs0mg"},{"bike_id":"9b6558ee-0ab2-4010-b903-b043faab4b6a","system_id":"levelo_inurba_marseille","lat":43.24993,"lon":5.38936,"is_reserved":false,"is_disabled":false,"rental_uris":{"android":"levelo://app?vid=9b6558ee-0ab2-4010-b903-b043faab4b6a","ios":"levelo://app?vid=9b6558ee-0ab2-4010-b903-b043faab4b6a"},"vehicle_type_id":"4","last_reported":1728230958,"current_range_meters":39200,"station_id":"ce4bhgp2rcd13ifvqfd0","pricing_plan_id":"cebpf4jnsgd1na2vs0mg"},{"bike_id":"8066cbd9-6f5f-4c8b-82e0-670217342883","system_id":"levelo_inurba_marseille","lat":43.21345,"lon":5.34938,"is_reserved":false,"is_disabled":false,"rental_uris":{"android":"levelo://app?vid=8066cbd9-6f5f-4c8b-82e0-670217342883","ios":"levelo://app?vid=8066cbd9-6f5f-4c8b-82e0-670217342883"},"vehicle_type_id":"4","last_reported":1728230958,"current_range_meters":32800,"station_id":"crv51consjfaj9uu89c0","pricing_plan_id":"cebpf4jnsgd1na2vs0mg"},{"bike_id":"870ecdbf-3528-4277-82a5-269de3374c1c","system_id":"levelo_inurba_marseille","lat":43.27069,"lon":5.42274,"is_reserved":false,"is_disabled":false,"rental_uris":{"android":"levelo://app?vid=870ecdbf-3528-4277-82a5-269de3374c1c","ios":"levelo://app?vid=870ecdbf-3528-4277-82a5-269de3374c1c"},"vehicle_type_id":"4","last_reported":1728230958,"current_range_meters":38800,"station_id":"ce4bhk92rcd13ifvqgb0","pricing_plan_id":"cebpf4jnsgd1na2vs0mg"},{"bike_id":"ad2a5051-4779-40e4-8e34-41c7ffe61fa4","system_id":"levelo_inurba_marseille","lat":43.286109,"lon":5.350882,"is_reserved":false,"is_disabled":false,"rental_uris":{"android":"levelo://app?vid=ad2a5051-4779-40e4-8e34-41c7ffe61fa4","ios":"levelo://app?vid=ad2a5051-4779-40e4-8e34-41c7ffe61fa4"},"vehicle_type_id":"4","last_reported":1728230958,"current_range_meters":22000,"station_id":"ce4bhch2rcd13ifvqeug","pricing_plan_id":"cebpf4jnsgd1na2vs0mg"},{"bike_id":"baba7691-81ff-4c7d-90d9-c89eba9696cb","system_id":"levelo_inurba_marseille","lat":43.25929,"lon":5.40921,"is_reserved":false,"is_disabled":false,"rental_uris":{"android":"levelo://app?vid=baba7691-81ff-4c7d-90d9-c89eba9696cb","ios":"levelo://app?vid=baba7691-81ff-4c7d-90d9-c89eba9696cb"},"vehicle_type_id":"4","last_reported":1728230958,"current_range_meters":30800,"station_id":"ce4bhm92rcd13ifvqglg","pricing_plan_id":"cebpf4jnsgd1na2vs0mg"},{"bike_id":"880204fb-6a95-43f3-9fad-7309bbccc2d2","system_id":"levelo_inurba_marseille","lat":43.29256,"lon":5.36814,"is_reserved":false,"is_disabled":false,"rental_uris":{"android":"levelo://app?vid=880204fb-6a95-43f3-9fad-7309bbccc2d2","ios":"levelo://app?vid=880204fb-6a95-43f3-9fad-7309bbccc2d2"},"vehicle_type_id":"4","last_reported":1728230958,"current_range_meters":18800,"station_id":"ce4bhbp2rcd13ifvqesg","pricing_plan_id":"cebpf4jnsgd1na2vs0mg"},{"bike_id":"b1a3ef60-5247-44ce-a767-17e924b03558","system_id":"levelo_inurba_marseille","lat":43.27379,"lon":5.36263,"is_reserved":false,"is_disabled":false,"rental_uris":{"android":"levelo://app?vid=b1a3ef60-5247-44ce-a767-17e924b03558","ios":"levelo://app?vid=b1a3ef60-5247-44ce-a767-17e924b03558"},"vehicle_type_id":"4","last_reported":1728230958,"current_range_meters":28000,"station_id":"ce4bhbh2rcd13ifvqeo0","pricing_plan_id":"cebpf4jnsgd1na2vs0mg"},{"bike_id":"d23ddbe4-840b-4d6d-8e13-a20922334a77","system_id":"levelo_inurba_marseille","lat":43.32478,"lon":5.36557,"is_reserved":false,"is_disabled":false,"rental_uris":{"android":"levelo://app?vid=d23ddbe4-840b-4d6d-8e13-a20922334a77","ios":"levelo://app?vid=d23ddbe4-840b-4d6d-8e13-a20922334a77"},"vehicle_type_id":"4","last_reported":1728230958,"current_range_meters":39200,"station_id":"ce4bhs12rcd13ifvqhvg","pricing_plan_id":"cebpf4jnsgd1na2vs0mg"},{"bike_id":"6ae7d0e0-1623-4439-8d68-fec3c5db110c","system_id":"levelo_inurba_marseille","lat":43.22932,"lon":5.35378,"is_reserved":false,"is_disabled":false,"rental_uris":{"android":"levelo://app?vid=6ae7d0e0-1623-4439-8d68-fec3c5db110c","ios":"levelo://app?vid=6ae7d0e0-1623-4439-8d68-fec3c5db110c"},"vehicle_type_id":"4","last_reported":1728230958,"current_range_meters":36400,"station_id":"cpo3532slgdg3j2ikp40","pricing_plan_id":"cebpf4jnsgd1na2vs0mg"},{"bike_id":"4af55307-045f-4c66-a045-a91d88bb4c16","system_id":"levelo_inurba_marseille","lat":43.22931,"lon":5.35376,"is_reserved":false,"is_disabled":false,"rental_uris":{"android":"levelo://app?vid=4af55307-045f-4c66-a045-a91d88bb4c16","ios":"levelo://app?vid=4af55307-045f-4c66-a045-a91d88bb4c16"},"vehicle_type_id":"4","last_reported":1728230958,"current_range_meters":30000,"station_id":"cpo3532slgdg3j2ikp40","pricing_plan_id":"cebpf4jnsgd1na2vs0mg"},{"bike_id":"b6defbdc-b411-4acf-9c7c-b1e04b468c16","system_id":"levelo_inurba_marseille","lat":43.29228,"lon":5.36075,"is_reserved":false,"is_disabled":false,"rental_uris":{"android":"levelo://app?vid=b6defbdc-b411-4acf-9c7c-b1e04b468c16","ios":"levelo://app?vid=b6defbdc-b411-4acf-9c7c-b1e04b468c16"},"vehicle_type_id":"4","last_reported":1728230958,"current_range_meters":29600,"station_id":"ce4bhbh2rcd13ifvqeqg","pricing_plan_id":"cebpf4jnsgd1na2vs0mg"},{"bike_id":"13a35d1a-1c21-4cdd-9282-17040c700716","system_id":"levelo_inurba_marseille","lat":43.325431,"lon":5.414409,"is_reserved":false,"is_disabled":false,"rental_uris":{"android":"levelo://app?vid=13a35d1a-1c21-4cdd-9282-17040c700716","ios":"levelo://app?vid=13a35d1a-1c21-4cdd-9282-17040c700716"},"vehicle_type_id":"4","last_reported":1728230958,"current_range_meters":34000,"station_id":"ce4bhq12rcd13ifvqhhg","pricing_plan_id":"cebpf4jnsgd1na2vs0mg"},{"bike_id":"e31a018d-ca7b-4e1a-b4ca-b3c48f1b98ae","system_id":"levelo_inurba_marseille","lat":43.30282,"lon":5.37705,"is_reserved":false,"is_disabled":false,"rental_uris":{"android":"levelo://app?vid=e31a018d-ca7b-4e1a-b4ca-b3c48f1b98ae","ios":"levelo://app?vid=e31a018d-ca7b-4e1a-b4ca-b3c48f1b98ae"},"vehicle_type_id":"4","last_reported":1728230958,"current_range_meters":34000,"station_id":"ce4bguh2rcd13ifvqcj0","pricing_plan_id":"cebpf4jnsgd1na2vs0mg"},{"bike_id":"1f519ae4-f2f3-41a0-a6cc-b72e408ac56a","system_id":"levelo_inurba_marseille","lat":43.28003,"lon":5.40011,"is_reserved":false,"is_disabled":false,"rental_uris":{"android":"levelo://app?vid=1f519ae4-f2f3-41a0-a6cc-b72e408ac56a","ios":"levelo://app?vid=1f519ae4-f2f3-41a0-a6cc-b72e408ac56a"},"vehicle_type_id":"4","last_reported":1728230958,"current_range_meters":38000,"station_id":"ce4bho92rcd13ifvqh4g","pricing_plan_id":"cebpf4jnsgd1na2vs0mg"},{"bike_id":"265b6257-cac5-4700-be81-5022c39ebf02","system_id":"levelo_inurba_marseille","lat":43.21346,"lon":5.3494,"is_reserved":false,"is_disabled":false,"rental_uris":{"android":"levelo://app?vid=265b6257-cac5-4700-be81-5022c39ebf02","ios":"levelo://app?vid=265b6257-cac5-4700-be81-5022c39ebf02"},"vehicle_type_id":"4","last_reported":1728230958,"current_range_meters":31200,"station_id":"crv51consjfaj9uu89c0","pricing_plan_id":"cebpf4jnsgd1na2vs0mg"},{"bike_id":"845eb292-d108-42a1-8410-2aa14fe8c960","system_id":"levelo_inurba_marseille","lat":43.31698,"lon":5.40475,"is_reserved":false,"is_disabled":false,"rental_uris":{"android":"levelo://app?vid=845eb292-d108-42a1-8410-2aa14fe8c960","ios":"levelo://app?vid=845eb292-d108-42a1-8410-2aa14fe8c960"},"vehicle_type_id":"4","last_reported":1728230958,"current_range_meters":8000,"station_id":"ce4bh012rcd13ifvqd00","pricing_plan_id":"cebpf4jnsgd1na2vs0mg"},{"bike_id":"79a30a07-81d5-4fba-9bdc-0528f8f010ae","system_id":"levelo_inurba_marseille","lat":43.25108,"lon":5.40318,"is_reserved":false,"is_disabled":false,"rental_uris":{"android":"levelo://app?vid=79a30a07-81d5-4fba-9bdc-0528f8f010ae","ios":"levelo://app?vid=79a30a07-81d5-4fba-9bdc-0528f8f010ae"},"vehicle_type_id":"4","last_reported":1728230958,"current_range_meters":20400,"station_id":"ce4bhlh2rcd13ifvqgig","pricing_plan_id":"cebpf4jnsgd1na2vs0mg"},{"bike_id":"97ef281f-c717-429c-a078-d6a368902950","system_id":"levelo_inurba_marseille","lat":43.21347,"lon":5.34941,"is_reserved":false,"is_disabled":false,"rental_uris":{"android":"levelo://app?vid=97ef281f-c717-429c-a078-d6a368902950","ios":"levelo://app?vid=97ef281f-c717-429c-a078-d6a368902950"},"vehicle_type_id":"4","last_reported":1728230958,"current_range_meters":24400,"station_id":"crv51consjfaj9uu89c0","pricing_plan_id":"cebpf4jnsgd1na2vs0mg"},{"bike_id":"cd086fcc-253c-44ed-9525-085b564f9a4e","system_id":"levelo_inurba_marseille","lat":43.3028,"lon":5.37706,"is_reserved":false,"is_disabled":false,"rental_uris":{"android":"levelo://app?vid=cd086fcc-253c-44ed-9525-085b564f9a4e","ios":"levelo://app?vid=cd086fcc-253c-44ed-9525-085b564f9a4e"},"vehicle_type_id":"4","last_reported":1728230958,"current_range_meters":8400,"station_id":"ce4bguh2rcd13ifvqcj0","pricing_plan_id":"cebpf4jnsgd1na2vs0mg"},{"bike_id":"a2f3ad24-a1b9-4ff9-8d55-220247fd22c8","system_id":"levelo_inurba_marseille","lat":43.31711,"lon":5.43714,"is_reserved":false,"is_disabled":false,"rental_uris":{"android":"levelo://app?vid=a2f3ad24-a1b9-4ff9-8d55-220247fd22c8","ios":"levelo://app?vid=a2f3ad24-a1b9-4ff9-8d55-220247fd22c8"},"vehicle_type_id":"4","last_reported":1728230958,"current_range_meters":28800,"station_id":"ce4bhp92rcd13ifvqhcg","pricing_plan_id":"cebpf4jnsgd1na2vs0mg"},{"bike_id":"23860757-7352-4f6d-bd82-08ba559867c5","system_id":"levelo_inurba_marseille","lat":43.24804,"lon":5.37459,"is_reserved":false,"is_disabled":false,"rental_uris":{"android":"levelo://app?vid=23860757-7352-4f6d-bd82-08ba559867c5","ios":"levelo://app?vid=23860757-7352-4f6d-bd82-08ba559867c5"},"vehicle_type_id":"4","last_reported":1728230958,"current_range_meters":20800,"station_id":"ce4bhgh2rcd13ifvqfb0","pricing_plan_id":"cebpf4jnsgd1na2vs0mg"},{"bike_id":"a7a7407c-8443-44ce-b4a7-88a5a677fa54","system_id":"levelo_inurba_marseille","lat":43.22922,"lon":5.35384,"is_reserved":false,"is_disabled":false,"rental_uris":{"android":"levelo://app?vid=a7a7407c-8443-44ce-b4a7-88a5a677fa54","ios":"levelo://app?vid=a7a7407c-8443-44ce-b4a7-88a5a677fa54"},"vehicle_type_id":"4","last_reported":1728230958,"current_range_meters":38800,"station_id":"cpo3532slgdg3j2ikp40","pricing_plan_id":"cebpf4jnsgd1na2vs0mg"},{"bike_id":"3e9f98a7-18ef-49d9-b5ca-6951c882b7c6","system_id":"levelo_inurba_marseille","lat":43.297,"lon":5.37305,"is_reserved":false,"is_disabled":false,"rental_uris":{"android":"levelo://app?vid=3e9f98a7-18ef-49d9-b5ca-6951c882b7c6","ios":"levelo://app?vid=3e9f98a7-18ef-49d9-b5ca-6951c882b7c6"},"vehicle_type_id":"4","last_reported":1728230958,"current_range_meters":38800,"station_id":"ce4bgk12rcd13ifvqbj0","pricing_plan_id":"cebpf4jnsgd1na2vs0mg"},{"bike_id":"190548a0-05d5-4bdb-bc1f-d4a1ad9e157a","system_id":"levelo_inurba_marseille","lat":43.27997,"lon":5.41663,"is_reserved":false,"is_disabled":false,"rental_uris":{"android":"levelo://app?vid=190548a0-05d5-4bdb-bc1f-d4a1ad9e157a","ios":"levelo://app?vid=190548a0-05d5-4bdb-bc1f-d4a1ad9e157a"},"vehicle_type_id":"4","last_reported":1728230958,"current_range_meters":12400,"station_id":"ce4bho12rcd13ifvqh1g","pricing_plan_id":"cebpf4jnsgd1na2vs0mg"},{"bike_id":"304f0f46-778c-4448-8270-d4d4de7ea60c","system_id":"levelo_inurba_marseille","lat":43.2792,"lon":5.39578,"is_reserved":false,"is_disabled":false,"rental_uris":{"android":"levelo://app?vid=304f0f46-778c-4448-8270-d4d4de7ea60c","ios":"levelo://app?vid=304f0f46-778c-4448-8270-d4d4de7ea60c"},"vehicle_type_id":"4","last_reported":1728230958,"current_range_meters":14000,"station_id":"ce4bhf92rcd13ifvqf40","pricing_plan_id":"cebpf4jnsgd1na2vs0mg"},{"bike_id":"f10bcf9c-7781-43e3-be22-9f945d1ddcd6","system_id":"levelo_inurba_marseille","lat":43.31702,"lon":5.4372,"is_reserved":false,"is_disabled":false,"rental_uris":{"android":"levelo://app?vid=f10bcf9c-7781-43e3-be22-9f945d1ddcd6","ios":"levelo://app?vid=f10bcf9c-7781-43e3-be22-9f945d1ddcd6"},"vehicle_type_id":"4","last_reported":1728230958,"current_range_meters":30000,"station_id":"ce4bhp92rcd13ifvqhcg","pricing_plan_id":"cebpf4jnsgd1na2vs0mg"},{"bike_id":"b115519d-43be-4b63-afb0-d6371cff0a3c","system_id":"levelo_inurba_marseille","lat":43.21349,"lon":5.34935,"is_reserved":false,"is_disabled":false,"rental_uris":{"android":"levelo://app?vid=b115519d-43be-4b63-afb0-d6371cff0a3c","ios":"levelo://app?vid=b115519d-43be-4b63-afb0-d6371cff0a3c"},"vehicle_type_id":"4","last_reported":1728230958,"current_range_meters":12400,"station_id":"crv51consjfaj9uu89c0","pricing_plan_id":"cebpf4jnsgd1na2vs0mg"},{"bike_id":"05ddab4b-2219-453e-b9f6-9211ae63c830","system_id":"levelo_inurba_marseille","lat":43.21343,"lon":5.34943,"is_reserved":false,"is_disabled":false,"rental_uris":{"android":"levelo://app?vid=05ddab4b-2219-453e-b9f6-9211ae63c830","ios":"levelo://app?vid=05ddab4b-2219-453e-b9f6-9211ae63c830"},"vehicle_type_id":"4","last_reported":1728230958,"current_range_meters":32400,"station_id":"crv51consjfaj9uu89c0","pricing_plan_id":"cebpf4jnsgd1na2vs0mg"},{"bike_id":"361546cf-9b37-4b9e-9763-22d7bd69524d","system_id":"levelo_inurba_marseille","lat":43.28452,"lon":5.39211,"is_reserved":false,"is_disabled":false,"rental_uris":{"android":"levelo://app?vid=361546cf-9b37-4b9e-9763-22d7bd69524d","ios":"levelo://app?vid=361546cf-9b37-4b9e-9763-22d7bd69524d"},"vehicle_type_id":"4","last_reported":1728230958,"current_range_meters":28800,"station_id":"ce4bhoh2rcd13ifvqh5g","pricing_plan_id":"cebpf4jnsgd1na2vs0mg"},{"bike_id":"80c331e4-ddae-4f6a-8a37-cb7d243af756","system_id":"levelo_inurba_marseille","lat":43.305989,"lon":5.372271,"is_reserved":false,"is_disabled":false,"rental_uris":{"android":"levelo://app?vid=80c331e4-ddae-4f6a-8a37-cb7d243af756","ios":"levelo://app?vid=80c331e4-ddae-4f6a-8a37-cb7d243af756"},"vehicle_type_id":"4","last_reported":1728230958,"current_range_meters":20800,"station_id":"ce4bgqh2rcd13ifvqc4g","pricing_plan_id":"cebpf4jnsgd1na2vs0mg"},{"bike_id":"d0ca1193-12e8-4ac2-9a60-4ae6e0040151","system_id":"levelo_inurba_marseille","lat":43.2294,"lon":5.35379,"is_reserved":false,"is_disabled":false,"rental_uris":{"android":"levelo://app?vid=d0ca1193-12e8-4ac2-9a60-4ae6e0040151","ios":"levelo://app?vid=d0ca1193-12e8-4ac2-9a60-4ae6e0040151"},"vehicle_type_id":"4","last_reported":1728230958,"current_range_meters":27600,"station_id":"cpo3532slgdg3j2ikp40","pricing_plan_id":"cebpf4jnsgd1na2vs0mg"},{"bike_id":"6407b479-b396-4c54-b65c-1df4d77faf38","system_id":"levelo_inurba_marseille","lat":43.25084,"lon":5.3952,"is_reserved":false,"is_disabled":false,"rental_uris":{"android":"levelo://app?vid=6407b479-b396-4c54-b65c-1df4d77faf38","ios":"levelo://app?vid=6407b479-b396-4c54-b65c-1df4d77faf38"},"vehicle_type_id":"4","last_reported":1728230958,"current_range_meters":28000,"station_id":"ce4bhm12rcd13ifvqgkg","pricing_plan_id":"cebpf4jnsgd1na2vs0mg"},{"bike_id":"8fd0d921-f5fc-47ca-be87-b3dc008f8f4b","system_id":"levelo_inurba_marseille","lat":43.298423,"lon":5.362696,"is_reserved":false,"is_disabled":false,"rental_uris":{"android":"levelo://app?vid=8fd0d921-f5fc-47ca-be87-b3dc008f8f4b","ios":"levelo://app?vid=8fd0d921-f5fc-47ca-be87-b3dc008f8f4b"},"vehicle_type_id":"4","last_reported":1728230958,"current_range_meters":24400,"station_id":"ce4bgpp2rcd13ifvqc3g","pricing_plan_id":"cebpf4jnsgd1na2vs0mg"},{"bike_id":"c4e08c0b-0419-45fc-bc60-4c53105424cb","system_id":"levelo_inurba_marseille","lat":43.29786,"lon":5.37103,"is_reserved":false,"is_disabled":false,"rental_uris":{"android":"levelo://app?vid=c4e08c0b-0419-45fc-bc60-4c53105424cb","ios":"levelo://app?vid=c4e08c0b-0419-45fc-bc60-4c53105424cb"},"vehicle_type_id":"4","last_reported":1728230958,"current_range_meters":17600,"station_id":"ce4bgop2rcd13ifvqc1g","pricing_plan_id":"cebpf4jnsgd1na2vs0mg"},{"bike_id":"4f922fe2-4489-4b54-a5b1-7835b0165608","system_id":"levelo_inurba_marseille","lat":43.26937,"lon":5.4026,"is_reserved":false,"is_disabled":false,"rental_uris":{"android":"levelo://app?vid=4f922fe2-4489-4b54-a5b1-7835b0165608","ios":"levelo://app?vid=4f922fe2-4489-4b54-a5b1-7835b0165608"},"vehicle_type_id":"4","last_reported":1728230958,"current_range_meters":24000,"station_id":"cjm6bp8fraef2m0cb0m0","pricing_plan_id":"cebpf4jnsgd1na2vs0mg"},{"bike_id":"1bd2f7ec-d06e-4723-b3c8-18546fc91d7d","system_id":"levelo_inurba_marseille","lat":43.31272,"lon":5.40166,"is_reserved":false,"is_disabled":false,"rental_uris":{"android":"levelo://app?vid=1bd2f7ec-d06e-4723-b3c8-18546fc91d7d","ios":"levelo://app?vid=1bd2f7ec-d06e-4723-b3c8-18546fc91d7d"},"vehicle_type_id":"4","last_reported":1728230958,"current_range_meters":6800,"station_id":"ce4bh092rcd13ifvqd30","pricing_plan_id":"cebpf4jnsgd1na2vs0mg"},{"bike_id":"18cab30f-71a4-424c-a58a-1028931912e7","system_id":"levelo_inurba_marseille","lat":43.27812,"lon":5.40702,"is_reserved":false,"is_disabled":false,"rental_uris":{"android":"levelo://app?vid=18cab30f-71a4-424c-a58a-1028931912e7","ios":"levelo://app?vid=18cab30f-71a4-424c-a58a-1028931912e7"},"vehicle_type_id":"4","last_reported":1728230958,"current_range_meters":30000,"station_id":"ce4bhnh2rcd13ifvqgtg","pricing_plan_id":"cebpf4jnsgd1na2vs0mg"},{"bike_id":"2f31fe4f-03e5-4eaa-8ab9-c876dc6ecfde","system_id":"levelo_inurba_marseille","lat":43.2732,"lon":5.39085,"is_reserved":false,"is_disabled":false,"rental_uris":{"android":"levelo://app?vid=2f31fe4f-03e5-4eaa-8ab9-c876dc6ecfde","ios":"levelo://app?vid=2f31fe4f-03e5-4eaa-8ab9-c876dc6ecfde"},"vehicle_type_id":"4","last_reported":1728230958,"current_range_meters":18000,"station_id":"ce4bhgp2rcd13ifvqfe0","pricing_plan_id":"cebpf4jnsgd1na2vs0mg"},{"bike_id":"1c6e8542-0efa-43bd-a17b-1a8ffeb5acdf","system_id":"levelo_inurba_marseille","lat":43.26565,"lon":5.39001,"is_reserved":false,"is_disabled":false,"rental_uris":{"android":"levelo://app?vid=1c6e8542-0efa-43bd-a17b-1a8ffeb5acdf","ios":"levelo://app?vid=1c6e8542-0efa-43bd-a17b-1a8ffeb5acdf"},"vehicle_type_id":"4","last_reported":1728230958,"current_range_meters":36400,"station_id":"ce4bhe12rcd13ifvqf30","pricing_plan_id":"cebpf4jnsgd1na2vs0mg"},{"bike_id":"e032b82a-9079-4539-8774-f553e40f8aab","system_id":"levelo_inurba_marseille","lat":43.30953,"lon":5.39031,"is_reserved":false,"is_disabled":false,"rental_uris":{"android":"levelo://app?vid=e032b82a-9079-4539-8774-f553e40f8aab","ios":"levelo://app?vid=e032b82a-9079-4539-8774-f553e40f8aab"},"vehicle_type_id":"4","last_reported":1728230958,"current_range_meters":28800,"station_id":"ce4bgup2rcd13ifvqco0","pricing_plan_id":"cebpf4jnsgd1na2vs0mg"},{"bike_id":"fbe2db3f-9b7b-451a-ad48-131ae931cad3","system_id":"levelo_inurba_marseille","lat":43.2572,"lon":5.41115,"is_reserved":false,"is_disabled":false,"rental_uris":{"android":"levelo://app?vid=fbe2db3f-9b7b-451a-ad48-131ae931cad3","ios":"levelo://app?vid=fbe2db3f-9b7b-451a-ad48-131ae931cad3"},"vehicle_type_id":"4","last_reported":1728230958,"current_range_meters":14000,"station_id":"ce4bhkp2rcd13ifvqgd0","pricing_plan_id":"cebpf4jnsgd1na2vs0mg"},{"bike_id":"490889b1-cee9-4892-9db5-299333956c90","system_id":"levelo_inurba_marseille","lat":43.34143,"lon":5.40906,"is_reserved":false,"is_disabled":false,"rental_uris":{"android":"levelo://app?vid=490889b1-cee9-4892-9db5-299333956c90","ios":"levelo://app?vid=490889b1-cee9-4892-9db5-299333956c90"},"vehicle_type_id":"4","last_reported":1728230958,"current_range_meters":36400,"station_id":"ce4bhqh2rcd13ifvqhlg","pricing_plan_id":"cebpf4jnsgd1na2vs0mg"},{"bike_id":"e330d688-9c95-44d4-9b2f-7edbb0bf9e00","system_id":"levelo_inurba_marseille","lat":43.29844,"lon":5.36277,"is_reserved":false,"is_disabled":false,"rental_uris":{"android":"levelo://app?vid=e330d688-9c95-44d4-9b2f-7edbb0bf9e00","ios":"levelo://app?vid=e330d688-9c95-44d4-9b2f-7edbb0bf9e00"},"vehicle_type_id":"4","last_reported":1728230958,"current_range_meters":3200,"station_id":"ce4bgpp2rcd13ifvqc3g","pricing_plan_id":"cebpf4jnsgd1na2vs0mg"},{"bike_id":"4378a0dd-7ddd-4246-9294-1e2af02e0700","system_id":"levelo_inurba_marseille","lat":43.23196,"lon":5.35552,"is_reserved":false,"is_disabled":false,"rental_uris":{"android":"levelo://app?vid=4378a0dd-7ddd-4246-9294-1e2af02e0700","ios":"levelo://app?vid=4378a0dd-7ddd-4246-9294-1e2af02e0700"},"vehicle_type_id":"4","last_reported":1728230958,"current_range_meters":9200,"station_id":"ce4bhu92rcd13ifvqi70","pricing_plan_id":"cebpf4jnsgd1na2vs0mg"},{"bike_id":"adc48d0d-153f-4f8c-8944-b69e30302954","system_id":"levelo_inurba_marseille","lat":43.29258,"lon":5.38447,"is_reserved":false,"is_disabled":false,"rental_uris":{"android":"levelo://app?vid=adc48d0d-153f-4f8c-8944-b69e30302954","ios":"levelo://app?vid=adc48d0d-153f-4f8c-8944-b69e30302954"},"vehicle_type_id":"4","last_reported":1728230958,"current_range_meters":35200,"station_id":"ce4bh692rcd13ifvqea0","pricing_plan_id":"cebpf4jnsgd1na2vs0mg"},{"bike_id":"cdc917cd-8609-4bab-8a00-197d50b2daa3","system_id":"levelo_inurba_marseille","lat":43.28609,"lon":5.37061,"is_reserved":false,"is_disabled":false,"rental_uris":{"android":"levelo://app?vid=cdc917cd-8609-4bab-8a00-197d50b2daa3","ios":"levelo://app?vid=cdc917cd-8609-4bab-8a00-197d50b2daa3"},"vehicle_type_id":"4","last_reported":1728230958,"current_range_meters":38800,"station_id":"ce4bht12rcd13ifvqi60","pricing_plan_id":"cebpf4jnsgd1na2vs0mg"},{"bike_id":"256fa177-60ee-45a2-a2aa-de47baeac3b4","system_id":"levelo_inurba_marseille","lat":43.32207,"lon":5.41353,"is_reserved":false,"is_disabled":false,"rental_uris":{"android":"levelo://app?vid=256fa177-60ee-45a2-a2aa-de47baeac3b4","ios":"levelo://app?vid=256fa177-60ee-45a2-a2aa-de47baeac3b4"},"vehicle_type_id":"4","last_reported":1728230958,"current_range_meters":36800,"station_id":"","pricing_plan_id":"cebpf4jnsgd1na2vs0mg"},{"bike_id":"d1ac741d-b0f4-4931-830a-3ccc5899336a","system_id":"levelo_inurba_marseille","lat":43.269539,"lon":5.386227,"is_reserved":false,"is_disabled":false,"rental_uris":{"android":"levelo://app?vid=d1ac741d-b0f4-4931-830a-3ccc5899336a","ios":"levelo://app?vid=d1ac741d-b0f4-4931-830a-3ccc5899336a"},"vehicle_type_id":"4","last_reported":1728230958,"current_range_meters":35600,"station_id":"ce4bhh92rcd13ifvqfh0","pricing_plan_id":"cebpf4jnsgd1na2vs0mg"},{"bike_id":"98fab8a1-a284-40da-8df2-14f71a37d57b","system_id":"levelo_inurba_marseille","lat":43.21344,"lon":5.34943,"is_reserved":false,"is_disabled":false,"rental_uris":{"android":"levelo://app?vid=98fab8a1-a284-40da-8df2-14f71a37d57b","ios":"levelo://app?vid=98fab8a1-a284-40da-8df2-14f71a37d57b"},"vehicle_type_id":"4","last_reported":1728230958,"current_range_meters":31200,"station_id":"crv51consjfaj9uu89c0","pricing_plan_id":"cebpf4jnsgd1na2vs0mg"},{"bike_id":"0ee98934-b4bc-4a40-ba5d-e6d4ace0f378","system_id":"levelo_inurba_marseille","lat":43.2655,"lon":5.37286,"is_reserved":false,"is_disabled":false,"rental_uris":{"android":"levelo://app?vid=0ee98934-b4bc-4a40-ba5d-e6d4ace0f378","ios":"levelo://app?vid=0ee98934-b4bc-4a40-ba5d-e6d4ace0f378"},"vehicle_type_id":"4","last_reported":1728230958,"current_range_meters":3600,"station_id":"ce4bhg12rcd13ifvqf70","pricing_plan_id":"cebpf4jnsgd1na2vs0mg"},{"bike_id":"b135ee40-6477-422d-9bd1-96d43bdabccb","system_id":"levelo_inurba_marseille","lat":43.27815,"lon":5.40718,"is_reserved":false,"is_disabled":false,"rental_uris":{"android":"levelo://app?vid=b135ee40-6477-422d-9bd1-96d43bdabccb","ios":"levelo://app?vid=b135ee40-6477-422d-9bd1-96d43bdabccb"},"vehicle_type_id":"4","last_reported":1728230958,"current_range_meters":1600,"station_id":"ce4bhnh2rcd13ifvqgtg","pricing_plan_id":"cebpf4jnsgd1na2vs0mg"},{"bike_id":"93d45870-2e1c-4ed1-9664-7b219a4ed443","system_id":"levelo_inurba_marseille","lat":43.22926,"lon":5.3538,"is_reserved":false,"is_disabled":false,"rental_uris":{"android":"levelo://app?vid=93d45870-2e1c-4ed1-9664-7b219a4ed443","ios":"levelo://app?vid=93d45870-2e1c-4ed1-9664-7b219a4ed443"},"vehicle_type_id":"4","last_reported":1728230958,"current_range_meters":38800,"station_id":"cpo3532slgdg3j2ikp40","pricing_plan_id":"cebpf4jnsgd1na2vs0mg"},{"bike_id":"5aeff25a-4d20-416a-9046-72428cabc49c","system_id":"levelo_inurba_marseille","lat":43.32373,"lon":5.38889,"is_reserved":false,"is_disabled":false,"rental_uris":{"android":"levelo://app?vid=5aeff25a-4d20-416a-9046-72428cabc49c","ios":"levelo://app?vid=5aeff25a-4d20-416a-9046-72428cabc49c"},"vehicle_type_id":"4","last_reported":1728230958,"current_range_meters":13600,"station_id":"ce4bhqp2rcd13ifvqhog","pricing_plan_id":"cebpf4jnsgd1na2vs0mg"},{"bike_id":"acbd4c66-15d5-4c61-b3dd-6cb3a57fffae","system_id":"levelo_inurba_marseille","lat":43.29259,"lon":5.36845,"is_reserved":false,"is_disabled":false,"rental_uris":{"android":"levelo://app?vid=acbd4c66-15d5-4c61-b3dd-6cb3a57fffae","ios":"levelo://app?vid=acbd4c66-15d5-4c61-b3dd-6cb3a57fffae"},"vehicle_type_id":"4","last_reported":1728230958,"current_range_meters":16000,"station_id":"","pricing_plan_id":"cebpf4jnsgd1na2vs0mg"},{"bike_id":"3329e3af-8f45-4b90-b26f-16e03d6b54a6","system_id":"levelo_inurba_marseille","lat":43.30299,"lon":5.36875,"is_reserved":false,"is_disabled":false,"rental_uris":{"android":"levelo://app?vid=3329e3af-8f45-4b90-b26f-16e03d6b54a6","ios":"levelo://app?vid=3329e3af-8f45-4b90-b26f-16e03d6b54a6"},"vehicle_type_id":"4","last_reported":1728230958,"current_range_meters":37600,"station_id":"ce4bgqh2rcd13ifvqc5g","pricing_plan_id":"cebpf4jnsgd1na2vs0mg"},{"bike_id":"467f4dad-860b-40f5-b4ca-9e05ccc20611","system_id":"levelo_inurba_marseille","lat":43.30916,"lon":5.40146,"is_reserved":false,"is_disabled":false,"rental_uris":{"android":"levelo://app?vid=467f4dad-860b-40f5-b4ca-9e05ccc20611","ios":"levelo://app?vid=467f4dad-860b-40f5-b4ca-9e05ccc20611"},"vehicle_type_id":"4","last_reported":1728230958,"current_range_meters":36800,"station_id":"ce4bgvp2rcd13ifvqct0","pricing_plan_id":"cebpf4jnsgd1na2vs0mg"},{"bike_id":"f98ee42c-9eea-4eee-8487-52bcee03bde6","system_id":"levelo_inurba_marseille","lat":43.26781,"lon":5.39415,"is_reserved":false,"is_disabled":false,"rental_uris":{"android":"levelo://app?vid=f98ee42c-9eea-4eee-8487-52bcee03bde6","ios":"levelo://app?vid=f98ee42c-9eea-4eee-8487-52bcee03bde6"},"vehicle_type_id":"4","last_reported":1728230958,"current_range_meters":25600,"station_id":"ce4bhh12rcd13ifvqfg0","pricing_plan_id":"cebpf4jnsgd1na2vs0mg"},{"bike_id":"d171cd51-85e8-49f3-b223-7ac1c9e47e0b","system_id":"levelo_inurba_marseille","lat":43.29932,"lon":5.36549,"is_reserved":false,"is_disabled":false,"rental_uris":{"android":"levelo://app?vid=d171cd51-85e8-49f3-b223-7ac1c9e47e0b","ios":"levelo://app?vid=d171cd51-85e8-49f3-b223-7ac1c9e47e0b"},"vehicle_type_id":"4","last_reported":1728230958,"current_range_meters":19600,"station_id":"ce4bgm92rcd13ifvqbr0","pricing_plan_id":"cebpf4jnsgd1na2vs0mg"},{"bike_id":"e6f3280f-6dec-48f5-b564-5362bc54ce7a","system_id":"levelo_inurba_marseille","lat":43.29526,"lon":5.37502,"is_reserved":false,"is_disabled":false,"rental_uris":{"android":"levelo://app?vid=e6f3280f-6dec-48f5-b564-5362bc54ce7a","ios":"levelo://app?vid=e6f3280f-6dec-48f5-b564-5362bc54ce7a"},"vehicle_type_id":"4","last_reported":1728230958,"current_range_meters":34000,"station_id":"ce4bgkp2rcd13ifvqbmg","pricing_plan_id":"cebpf4jnsgd1na2vs0mg"},{"bike_id":"270b90ca-7521-4165-af49-e1c727e5fa34","system_id":"levelo_inurba_marseille","lat":43.21346,"lon":5.34939,"is_reserved":false,"is_disabled":false,"rental_uris":{"android":"levelo://app?vid=270b90ca-7521-4165-af49-e1c727e5fa34","ios":"levelo://app?vid=270b90ca-7521-4165-af49-e1c727e5fa34"},"vehicle_type_id":"4","last_reported":1728230958,"current_range_meters":33600,"station_id":"crv51consjfaj9uu89c0","pricing_plan_id":"cebpf4jnsgd1na2vs0mg"},{"bike_id":"611d6115-26cb-4221-ba38-d0cfdcb796c1","system_id":"levelo_inurba_marseille","lat":43.26729,"lon":5.37219,"is_reserved":false,"is_disabled":false,"rental_uris":{"android":"levelo://app?vid=611d6115-26cb-4221-ba38-d0cfdcb796c1","ios":"levelo://app?vid=611d6115-26cb-4221-ba38-d0cfdcb796c1"},"vehicle_type_id":"4","last_reported":1728230958,"current_range_meters":20000,"station_id":"ce4bha12rcd13ifvqef0","pricing_plan_id":"cebpf4jnsgd1na2vs0mg"},{"bike_id":"6922c992-e75d-4fe0-b75a-3b3f5317428f","system_id":"levelo_inurba_marseille","lat":43.29005,"lon":5.35617,"is_reserved":false,"is_disabled":false,"rental_uris":{"android":"levelo://app?vid=6922c992-e75d-4fe0-b75a-3b3f5317428f","ios":"levelo://app?vid=6922c992-e75d-4fe0-b75a-3b3f5317428f"},"vehicle_type_id":"4","last_reported":1728230958,"current_range_meters":33200,"station_id":"ce4bhb92rcd13ifvqen0","pricing_plan_id":"cebpf4jnsgd1na2vs0mg"},{"bike_id":"7ce691ba-b77e-43a9-900a-568ab634cdad","system_id":"levelo_inurba_marseille","lat":43.296326,"lon":5.371572,"is_reserved":false,"is_disabled":false,"rental_uris":{"android":"levelo://app?vid=7ce691ba-b77e-43a9-900a-568ab634cdad","ios":"levelo://app?vid=7ce691ba-b77e-43a9-900a-568ab634cdad"},"vehicle_type_id":"4","last_reported":1728230958,"current_range_meters":38000,"station_id":"ce4bgnh2rcd13ifvqc0g","pricing_plan_id":"cebpf4jnsgd1na2vs0mg"},{"bike_id":"318da996-c1ef-4262-acf5-80feb7b743b4","system_id":"levelo_inurba_marseille","lat":43.30186,"lon":5.36638,"is_reserved":false,"is_disabled":false,"rental_uris":{"android":"levelo://app?vid=318da996-c1ef-4262-acf5-80feb7b743b4","ios":"levelo://app?vid=318da996-c1ef-4262-acf5-80feb7b743b4"},"vehicle_type_id":"4","last_reported":1728230958,"current_range_meters":22000,"station_id":"ce4bgrh2rcd13ifvqc8g","pricing_plan_id":"cebpf4jnsgd1na2vs0mg"},{"bike_id":"b35e80e5-085c-4f46-a52a-11692416c1a9","system_id":"levelo_inurba_marseille","lat":43.29301,"lon":5.37178,"is_reserved":false,"is_disabled":false,"rental_uris":{"android":"levelo://app?vid=b35e80e5-085c-4f46-a52a-11692416c1a9","ios":"levelo://app?vid=b35e80e5-085c-4f46-a52a-11692416c1a9"},"vehicle_type_id":"4","last_reported":1728230958,"current_range_meters":22800,"station_id":"ce4bgh92rcd13ifvqb40","pricing_plan_id":"cebpf4jnsgd1na2vs0mg"},{"bike_id":"e08f001d-cdd4-406b-abcb-d86ce2c0ccb0","system_id":"levelo_inurba_marseille","lat":43.29887,"lon":5.36522,"is_reserved":false,"is_disabled":false,"rental_uris":{"android":"levelo://app?vid=e08f001d-cdd4-406b-abcb-d86ce2c0ccb0","ios":"levelo://app?vid=e08f001d-cdd4-406b-abcb-d86ce2c0ccb0"},"vehicle_type_id":"4","last_reported":1728230958,"current_range_meters":34800,"station_id":"ce4bgm92rcd13ifvqbr0","pricing_plan_id":"cebpf4jnsgd1na2vs0mg"},{"bike_id":"3edbc444-be55-4f06-b001-2e99882f8c0b","system_id":"levelo_inurba_marseille","lat":43.32647,"lon":5.41003,"is_reserved":false,"is_disabled":false,"rental_uris":{"android":"levelo://app?vid=3edbc444-be55-4f06-b001-2e99882f8c0b","ios":"levelo://app?vid=3edbc444-be55-4f06-b001-2e99882f8c0b"},"vehicle_type_id":"4","last_reported":1728230958,"current_range_meters":2800,"station_id":"ce4bhpp2rcd13ifvqhgg","pricing_plan_id":"cebpf4jnsgd1na2vs0mg"},{"bike_id":"85081b74-3c48-4b75-b6b6-b181683e784a","system_id":"levelo_inurba_marseille","lat":43.25727,"lon":5.41117,"is_reserved":false,"is_disabled":false,"rental_uris":{"android":"levelo://app?vid=85081b74-3c48-4b75-b6b6-b181683e784a","ios":"levelo://app?vid=85081b74-3c48-4b75-b6b6-b181683e784a"},"vehicle_type_id":"4","last_reported":1728230958,"current_range_meters":38000,"station_id":"ce4bhkp2rcd13ifvqgd0","pricing_plan_id":"cebpf4jnsgd1na2vs0mg"},{"bike_id":"d5bd4fc9-b596-4a66-8faa-61c6a5dce860","system_id":"levelo_inurba_marseille","lat":43.29895,"lon":5.43657,"is_reserved":false,"is_disabled":false,"rental_uris":{"android":"levelo://app?vid=d5bd4fc9-b596-4a66-8faa-61c6a5dce860","ios":"levelo://app?vid=d5bd4fc9-b596-4a66-8faa-61c6a5dce860"},"vehicle_type_id":"4","last_reported":1728230958,"current_range_meters":38800,"station_id":"ce4bhpp2rcd13ifvqhfg","pricing_plan_id":"cebpf4jnsgd1na2vs0mg"},{"bike_id":"70c4a9da-4081-4c90-b1d1-c6a56789d553","system_id":"levelo_inurba_marseille","lat":43.26553,"lon":5.37296,"is_reserved":false,"is_disabled":false,"rental_uris":{"android":"levelo://app?vid=70c4a9da-4081-4c90-b1d1-c6a56789d553","ios":"levelo://app?vid=70c4a9da-4081-4c90-b1d1-c6a56789d553"},"vehicle_type_id":"4","last_reported":1728230958,"current_range_meters":28800,"station_id":"ce4bhg12rcd13ifvqf70","pricing_plan_id":"cebpf4jnsgd1na2vs0mg"},{"bike_id":"88bc79bc-000a-4a43-8d3b-868b14963c8c","system_id":"levelo_inurba_marseille","lat":43.27814,"lon":5.40727,"is_reserved":false,"is_disabled":false,"rental_uris":{"android":"levelo://app?vid=88bc79bc-000a-4a43-8d3b-868b14963c8c","ios":"levelo://app?vid=88bc79bc-000a-4a43-8d3b-868b14963c8c"},"vehicle_type_id":"4","last_reported":1728230958,"current_range_meters":20800,"station_id":"ce4bhnh2rcd13ifvqgtg","pricing_plan_id":"cebpf4jnsgd1na2vs0mg"},{"bike_id":"86c3e6fb-971f-4048-9d08-20ca6ff9df5c","system_id":"levelo_inurba_marseille","lat":43.29978,"lon":5.38508,"is_reserved":false,"is_disabled":false,"rental_uris":{"android":"levelo://app?vid=86c3e6fb-971f-4048-9d08-20ca6ff9df5c","ios":"levelo://app?vid=86c3e6fb-971f-4048-9d08-20ca6ff9df5c"},"vehicle_type_id":"4","last_reported":1728230958,"current_range_meters":36800,"station_id":"ce4bgj92rcd13ifvqbd0","pricing_plan_id":"cebpf4jnsgd1na2vs0mg"},{"bike_id":"7cba0374-be77-4d49-8476-e0da3cccc891","system_id":"levelo_inurba_marseille","lat":43.21347,"lon":5.34938,"is_reserved":false,"is_disabled":false,"rental_uris":{"android":"levelo://app?vid=7cba0374-be77-4d49-8476-e0da3cccc891","ios":"levelo://app?vid=7cba0374-be77-4d49-8476-e0da3cccc891"},"vehicle_type_id":"4","last_reported":1728230958,"current_range_meters":31200,"station_id":"crv51consjfaj9uu89c0","pricing_plan_id":"cebpf4jnsgd1na2vs0mg"},{"bike_id":"de7b61ce-9a77-48b8-b281-c8a3b04be6be","system_id":"levelo_inurba_marseille","lat":43.30649,"lon":5.36603,"is_reserved":false,"is_disabled":false,"rental_uris":{"android":"levelo://app?vid=de7b61ce-9a77-48b8-b281-c8a3b04be6be","ios":"levelo://app?vid=de7b61ce-9a77-48b8-b281-c8a3b04be6be"},"vehicle_type_id":"4","last_reported":1728230958,"current_range_meters":28400,"station_id":"","pricing_plan_id":"cebpf4jnsgd1na2vs0mg"},{"bike_id":"563a118b-c74e-49ef-a219-0e461b080718","system_id":"levelo_inurba_marseille","lat":43.29859,"lon":5.36282,"is_reserved":false,"is_disabled":false,"rental_uris":{"android":"levelo://app?vid=563a118b-c74e-49ef-a219-0e461b080718","ios":"levelo://app?vid=563a118b-c74e-49ef-a219-0e461b080718"},"vehicle_type_id":"4","last_reported":1728230958,"current_range_meters":38800,"station_id":"ce4bgpp2rcd13ifvqc3g","pricing_plan_id":"cebpf4jnsgd1na2vs0mg"},{"bike_id":"24741916-9a19-4c9f-b82f-689e154008bc","system_id":"levelo_inurba_marseille","lat":43.2135,"lon":5.34926,"is_reserved":false,"is_disabled":false,"rental_uris":{"android":"levelo://app?vid=24741916-9a19-4c9f-b82f-689e154008bc","ios":"levelo://app?vid=24741916-9a19-4c9f-b82f-689e154008bc"},"vehicle_type_id":"4","last_reported":1728230958,"current_range_meters":3600,"station_id":"crv51consjfaj9uu89c0","pricing_plan_id":"cebpf4jnsgd1na2vs0mg"},{"bike_id":"8e94c158-3450-4d74-9a10-086db250f48e","system_id":"levelo_inurba_marseille","lat":43.27147,"lon":5.3904,"is_reserved":false,"is_disabled":false,"rental_uris":{"android":"levelo://app?vid=8e94c158-3450-4d74-9a10-086db250f48e","ios":"levelo://app?vid=8e94c158-3450-4d74-9a10-086db250f48e"},"vehicle_type_id":"4","last_reported":1728230958,"current_range_meters":32000,"station_id":"","pricing_plan_id":"cebpf4jnsgd1na2vs0mg"},{"bike_id":"52040213-e2a0-4c29-ad5c-23f287c96e58","system_id":"levelo_inurba_marseille","lat":43.25722,"lon":5.41108,"is_reserved":false,"is_disabled":false,"rental_uris":{"android":"levelo://app?vid=52040213-e2a0-4c29-ad5c-23f287c96e58","ios":"levelo://app?vid=52040213-e2a0-4c29-ad5c-23f287c96e58"},"vehicle_type_id":"4","last_reported":1728230958,"current_range_meters":38400,"station_id":"ce4bhkp2rcd13ifvqgd0","pricing_plan_id":"cebpf4jnsgd1na2vs0mg"},{"bike_id":"09fb0b57-2324-4bd9-a741-e90822f89c25","system_id":"levelo_inurba_marseille","lat":43.24071,"lon":5.37768,"is_reserved":false,"is_disabled":false,"rental_uris":{"android":"levelo://app?vid=09fb0b57-2324-4bd9-a741-e90822f89c25","ios":"levelo://app?vid=09fb0b57-2324-4bd9-a741-e90822f89c25"},"vehicle_type_id":"4","last_reported":1728230958,"current_range_meters":10800,"station_id":"ce4bhnp2rcd13ifvqgvg","pricing_plan_id":"cebpf4jnsgd1na2vs0mg"},{"bike_id":"46a76753-a5a3-407f-a059-193447141070","system_id":"levelo_inurba_marseille","lat":43.29846,"lon":5.36266,"is_reserved":false,"is_disabled":false,"rental_uris":{"android":"levelo://app?vid=46a76753-a5a3-407f-a059-193447141070","ios":"levelo://app?vid=46a76753-a5a3-407f-a059-193447141070"},"vehicle_type_id":"4","last_reported":1728230958,"current_range_meters":24400,"station_id":"ce4bgpp2rcd13ifvqc3g","pricing_plan_id":"cebpf4jnsgd1na2vs0mg"},{"bike_id":"3755603a-a684-40a4-ad9a-5b10befda173","system_id":"levelo_inurba_marseille","lat":43.33745,"lon":5.37454,"is_reserved":false,"is_disabled":false,"rental_uris":{"android":"levelo://app?vid=3755603a-a684-40a4-ad9a-5b10befda173","ios":"levelo://app?vid=3755603a-a684-40a4-ad9a-5b10befda173"},"vehicle_type_id":"4","last_reported":1728230958,"current_range_meters":37600,"station_id":"","pricing_plan_id":"cebpf4jnsgd1na2vs0mg"},{"bike_id":"7a348d21-f2e8-43e7-9c15-c14bb9bb72a2","system_id":"levelo_inurba_marseille","lat":43.29956,"lon":5.41324,"is_reserved":false,"is_disabled":false,"rental_uris":{"android":"levelo://app?vid=7a348d21-f2e8-43e7-9c15-c14bb9bb72a2","ios":"levelo://app?vid=7a348d21-f2e8-43e7-9c15-c14bb9bb72a2"},"vehicle_type_id":"4","last_reported":1728230958,"current_range_meters":23200,"station_id":"ce4bhp12rcd13ifvqh9g","pricing_plan_id":"cebpf4jnsgd1na2vs0mg"},{"bike_id":"c6d60b46-0a25-47a9-9142-a7e326409e02","system_id":"levelo_inurba_marseille","lat":43.26232,"lon":5.3752,"is_reserved":false,"is_disabled":false,"rental_uris":{"android":"levelo://app?vid=c6d60b46-0a25-47a9-9142-a7e326409e02","ios":"levelo://app?vid=c6d60b46-0a25-47a9-9142-a7e326409e02"},"vehicle_type_id":"4","last_reported":1728230958,"current_range_meters":38800,"station_id":"","pricing_plan_id":"cebpf4jnsgd1na2vs0mg"},{"bike_id":"cf147c0f-0da7-4e56-920f-79f403ec95c7","system_id":"levelo_inurba_marseille","lat":43.30888,"lon":5.37197,"is_reserved":false,"is_disabled":false,"rental_uris":{"android":"levelo://app?vid=cf147c0f-0da7-4e56-920f-79f403ec95c7","ios":"levelo://app?vid=cf147c0f-0da7-4e56-920f-79f403ec95c7"},"vehicle_type_id":"4","last_reported":1728230958,"current_range_meters":36400,"station_id":"ce4bguh2rcd13ifvqckg","pricing_plan_id":"cebpf4jnsgd1na2vs0mg"},{"bike_id":"7ea2f4b4-e87b-4cd4-8fb3-091b7591398d","system_id":"levelo_inurba_marseille","lat":43.29196,"lon":5.35811,"is_reserved":false,"is_disabled":false,"rental_uris":{"android":"levelo://app?vid=7ea2f4b4-e87b-4cd4-8fb3-091b7591398d","ios":"levelo://app?vid=7ea2f4b4-e87b-4cd4-8fb3-091b7591398d"},"vehicle_type_id":"4","last_reported":1728230958,"current_range_meters":16000,"station_id":"ce4bhb12rcd13ifvqel0","pricing_plan_id":"cebpf4jnsgd1na2vs0mg"},{"bike_id":"de418b94-658a-4cf4-80c0-81d87cf7e675","system_id":"levelo_inurba_marseille","lat":43.29259,"lon":5.4092,"is_reserved":false,"is_disabled":false,"rental_uris":{"android":"levelo://app?vid=de418b94-658a-4cf4-80c0-81d87cf7e675","ios":"levelo://app?vid=de418b94-658a-4cf4-80c0-81d87cf7e675"},"vehicle_type_id":"4","last_reported":1728230958,"current_range_meters":6400,"station_id":"ce4bh192rcd13ifvqdc0","pricing_plan_id":"cebpf4jnsgd1na2vs0mg"},{"bike_id":"5571bd61-ca5c-4808-babd-52978e40b3b7","system_id":"levelo_inurba_marseille","lat":43.24997,"lon":5.38937,"is_reserved":false,"is_disabled":false,"rental_uris":{"android":"levelo://app?vid=5571bd61-ca5c-4808-babd-52978e40b3b7","ios":"levelo://app?vid=5571bd61-ca5c-4808-babd-52978e40b3b7"},"vehicle_type_id":"4","last_reported":1728230958,"current_range_meters":19200,"station_id":"ce4bhgp2rcd13ifvqfd0","pricing_plan_id":"cebpf4jnsgd1na2vs0mg"},{"bike_id":"51cece74-c2a0-4ab3-bced-3cdf93f805c5","system_id":"levelo_inurba_marseille","lat":43.26945,"lon":5.40259,"is_reserved":false,"is_disabled":false,"rental_uris":{"android":"levelo://app?vid=51cece74-c2a0-4ab3-bced-3cdf93f805c5","ios":"levelo://app?vid=51cece74-c2a0-4ab3-bced-3cdf93f805c5"},"vehicle_type_id":"4","last_reported":1728230958,"current_range_meters":10800,"station_id":"cjm6bp8fraef2m0cb0m0","pricing_plan_id":"cebpf4jnsgd1na2vs0mg"},{"bike_id":"f86e86e2-e4ea-408f-920a-e343256c8f5e","system_id":"levelo_inurba_marseille","lat":43.24389,"lon":5.37063,"is_reserved":false,"is_disabled":false,"rental_uris":{"android":"levelo://app?vid=f86e86e2-e4ea-408f-920a-e343256c8f5e","ios":"levelo://app?vid=f86e86e2-e4ea-408f-920a-e343256c8f5e"},"vehicle_type_id":"4","last_reported":1728230958,"current_range_meters":37600,"station_id":"ce4bhhh2rcd13ifvqfk0","pricing_plan_id":"cebpf4jnsgd1na2vs0mg"},{"bike_id":"b15507aa-9663-460a-acd3-1d919ec55220","system_id":"levelo_inurba_marseille","lat":43.2318,"lon":5.3999,"is_reserved":false,"is_disabled":false,"rental_uris":{"android":"levelo://app?vid=b15507aa-9663-460a-acd3-1d919ec55220","ios":"levelo://app?vid=b15507aa-9663-460a-acd3-1d919ec55220"},"vehicle_type_id":"4","last_reported":1728230958,"current_range_meters":22400,"station_id":"ce4bhn12rcd13ifvqgqg","pricing_plan_id":"cebpf4jnsgd1na2vs0mg"},{"bike_id":"1c6ced08-6c65-4e22-a8e3-0734c3156234","system_id":"levelo_inurba_marseille","lat":43.25723,"lon":5.41114,"is_reserved":false,"is_disabled":false,"rental_uris":{"android":"levelo://app?vid=1c6ced08-6c65-4e22-a8e3-0734c3156234","ios":"levelo://app?vid=1c6ced08-6c65-4e22-a8e3-0734c3156234"},"vehicle_type_id":"4","last_reported":1728230958,"current_range_meters":39200,"station_id":"ce4bhkp2rcd13ifvqgd0","pricing_plan_id":"cebpf4jnsgd1na2vs0mg"},{"bike_id":"d36cff41-162b-4352-96e5-28e247b397c8","system_id":"levelo_inurba_marseille","lat":43.28481,"lon":5.35886,"is_reserved":false,"is_disabled":false,"rental_uris":{"android":"levelo://app?vid=d36cff41-162b-4352-96e5-28e247b397c8","ios":"levelo://app?vid=d36cff41-162b-4352-96e5-28e247b397c8"},"vehicle_type_id":"4","last_reported":1728230958,"current_range_meters":23200,"station_id":"ce4bhah2rcd13ifvqei0","pricing_plan_id":"cebpf4jnsgd1na2vs0mg"},{"bike_id":"b0dadbcb-af29-4c0e-bc2b-d93b2ede50d4","system_id":"levelo_inurba_marseille","lat":43.28457,"lon":5.35887,"is_reserved":false,"is_disabled":false,"rental_uris":{"android":"levelo://app?vid=b0dadbcb-af29-4c0e-bc2b-d93b2ede50d4","ios":"levelo://app?vid=b0dadbcb-af29-4c0e-bc2b-d93b2ede50d4"},"vehicle_type_id":"4","last_reported":1728230958,"current_range_meters":24400,"station_id":"ce4bhah2rcd13ifvqei0","pricing_plan_id":"cebpf4jnsgd1na2vs0mg"},{"bike_id":"4e7a0d78-1456-41fe-b221-477bebc75d44","system_id":"levelo_inurba_marseille","lat":43.28976,"lon":5.37838,"is_reserved":false,"is_disabled":false,"rental_uris":{"android":"levelo://app?vid=4e7a0d78-1456-41fe-b221-477bebc75d44","ios":"levelo://app?vid=4e7a0d78-1456-41fe-b221-477bebc75d44"},"vehicle_type_id":"4","last_reported":1728230958,"current_range_meters":36800,"station_id":"ce4bh9p2rcd13ifvqed0","pricing_plan_id":"cebpf4jnsgd1na2vs0mg"},{"bike_id":"fd15e38c-a080-4d8d-be94-6f7330d4ebed","system_id":"levelo_inurba_marseille","lat":43.26558,"lon":5.37285,"is_reserved":false,"is_disabled":false,"rental_uris":{"android":"levelo://app?vid=fd15e38c-a080-4d8d-be94-6f7330d4ebed","ios":"levelo://app?vid=fd15e38c-a080-4d8d-be94-6f7330d4ebed"},"vehicle_type_id":"4","last_reported":1728230958,"current_range_meters":10000,"station_id":"ce4bhg12rcd13ifvqf70","pricing_plan_id":"cebpf4jnsgd1na2vs0mg"},{"bike_id":"68b77a88-2067-422a-ab7b-e29094a40dcc","system_id":"levelo_inurba_marseille","lat":43.25116,"lon":5.40315,"is_reserved":false,"is_disabled":false,"rental_uris":{"android":"levelo://app?vid=68b77a88-2067-422a-ab7b-e29094a40dcc","ios":"levelo://app?vid=68b77a88-2067-422a-ab7b-e29094a40dcc"},"vehicle_type_id":"4","last_reported":1728230958,"current_range_meters":38800,"station_id":"ce4bhlh2rcd13ifvqgig","pricing_plan_id":"cebpf4jnsgd1na2vs0mg"},{"bike_id":"ed98a01c-b3a0-4f81-afd4-22b313a48bc5","system_id":"levelo_inurba_marseille","lat":43.26554,"lon":5.37287,"is_reserved":false,"is_disabled":false,"rental_uris":{"android":"levelo://app?vid=ed98a01c-b3a0-4f81-afd4-22b313a48bc5","ios":"levelo://app?vid=ed98a01c-b3a0-4f81-afd4-22b313a48bc5"},"vehicle_type_id":"4","last_reported":1728230958,"current_range_meters":38800,"station_id":"ce4bhg12rcd13ifvqf70","pricing_plan_id":"cebpf4jnsgd1na2vs0mg"},{"bike_id":"26cdc765-5d70-4367-aca4-3e830f80c8d4","system_id":"levelo_inurba_marseille","lat":43.28266,"lon":5.35066,"is_reserved":false,"is_disabled":false,"rental_uris":{"android":"levelo://app?vid=26cdc765-5d70-4367-aca4-3e830f80c8d4","ios":"levelo://app?vid=26cdc765-5d70-4367-aca4-3e830f80c8d4"},"vehicle_type_id":"4","last_reported":1728230958,"current_range_meters":6000,"station_id":"ce4bhbp2rcd13ifvqerg","pricing_plan_id":"cebpf4jnsgd1na2vs0mg"},{"bike_id":"c8d4f509-a272-4b24-82b4-a1aee41423a8","system_id":"levelo_inurba_marseille","lat":43.31173,"lon":5.38718,"is_reserved":false,"is_disabled":false,"rental_uris":{"android":"levelo://app?vid=c8d4f509-a272-4b24-82b4-a1aee41423a8","ios":"levelo://app?vid=c8d4f509-a272-4b24-82b4-a1aee41423a8"},"vehicle_type_id":"4","last_reported":1728230958,"current_range_meters":20000,"station_id":"ce4bgv12rcd13ifvqcp0","pricing_plan_id":"cebpf4jnsgd1na2vs0mg"},{"bike_id":"d0e81cdf-b5a0-44e2-a36b-805202ade773","system_id":"levelo_inurba_marseille","lat":43.24384,"lon":5.3706,"is_reserved":false,"is_disabled":false,"rental_uris":{"android":"levelo://app?vid=d0e81cdf-b5a0-44e2-a36b-805202ade773","ios":"levelo://app?vid=d0e81cdf-b5a0-44e2-a36b-805202ade773"},"vehicle_type_id":"4","last_reported":1728230958,"current_range_meters":38800,"station_id":"ce4bhhh2rcd13ifvqfk0","pricing_plan_id":"cebpf4jnsgd1na2vs0mg"},{"bike_id":"0ad57600-b3de-4dcf-b432-0543365d6853","system_id":"levelo_inurba_marseille","lat":43.29559,"lon":5.42284,"is_reserved":false,"is_disabled":false,"rental_uris":{"android":"levelo://app?vid=0ad57600-b3de-4dcf-b432-0543365d6853","ios":"levelo://app?vid=0ad57600-b3de-4dcf-b432-0543365d6853"},"vehicle_type_id":"4","last_reported":1728230958,"current_range_meters":38800,"station_id":"ce4bhph2rcd13ifvqhdg","pricing_plan_id":"cebpf4jnsgd1na2vs0mg"},{"bike_id":"7d80c5b2-4fbe-4114-8e34-04bfcdf61999","system_id":"levelo_inurba_marseille","lat":43.3015,"lon":5.38102,"is_reserved":false,"is_disabled":false,"rental_uris":{"android":"levelo://app?vid=7d80c5b2-4fbe-4114-8e34-04bfcdf61999","ios":"levelo://app?vid=7d80c5b2-4fbe-4114-8e34-04bfcdf61999"},"vehicle_type_id":"4","last_reported":1728230958,"current_range_meters":30400,"station_id":"ce4bgjp2rcd13ifvqbh0","pricing_plan_id":"cebpf4jnsgd1na2vs0mg"},{"bike_id":"4035516c-88a9-4fc8-a60c-d8dc0a7e84e9","system_id":"levelo_inurba_marseille","lat":43.29842,"lon":5.36268,"is_reserved":false,"is_disabled":false,"rental_uris":{"android":"levelo://app?vid=4035516c-88a9-4fc8-a60c-d8dc0a7e84e9","ios":"levelo://app?vid=4035516c-88a9-4fc8-a60c-d8dc0a7e84e9"},"vehicle_type_id":"4","last_reported":1728230958,"current_range_meters":38800,"station_id":"ce4bgpp2rcd13ifvqc3g","pricing_plan_id":"cebpf4jnsgd1na2vs0mg"},{"bike_id":"a5bc39ef-e173-4446-a0f5-b1dd185d29e9","system_id":"levelo_inurba_marseille","lat":43.30541,"lon":5.36713,"is_reserved":false,"is_disabled":false,"rental_uris":{"android":"levelo://app?vid=a5bc39ef-e173-4446-a0f5-b1dd185d29e9","ios":"levelo://app?vid=a5bc39ef-e173-4446-a0f5-b1dd185d29e9"},"vehicle_type_id":"4","last_reported":1728230958,"current_range_meters":34000,"station_id":"ce4bgrp2rcd13ifvqc9g","pricing_plan_id":"cebpf4jnsgd1na2vs0mg"},{"bike_id":"27c5f2a9-8158-45c6-b742-4db159c5f60d","system_id":"levelo_inurba_marseille","lat":43.31328,"lon":5.397,"is_reserved":false,"is_disabled":false,"rental_uris":{"android":"levelo://app?vid=27c5f2a9-8158-45c6-b742-4db159c5f60d","ios":"levelo://app?vid=27c5f2a9-8158-45c6-b742-4db159c5f60d"},"vehicle_type_id":"4","last_reported":1728230958,"current_range_meters":30400,"station_id":"ce4bgvp2rcd13ifvqcu0","pricing_plan_id":"cebpf4jnsgd1na2vs0mg"},{"bike_id":"7b370d99-5247-45ef-a303-548109cf04e4","system_id":"levelo_inurba_marseille","lat":43.25723,"lon":5.41106,"is_reserved":false,"is_disabled":false,"rental_uris":{"android":"levelo://app?vid=7b370d99-5247-45ef-a303-548109cf04e4","ios":"levelo://app?vid=7b370d99-5247-45ef-a303-548109cf04e4"},"vehicle_type_id":"4","last_reported":1728230958,"current_range_meters":7200,"station_id":"ce4bhkp2rcd13ifvqgd0","pricing_plan_id":"cebpf4jnsgd1na2vs0mg"},{"bike_id":"1d0e3faa-ee78-4da5-a96f-abfd136c29bb","system_id":"levelo_inurba_marseille","lat":43.32484,"lon":5.3657,"is_reserved":false,"is_disabled":false,"rental_uris":{"android":"levelo://app?vid=1d0e3faa-ee78-4da5-a96f-abfd136c29bb","ios":"levelo://app?vid=1d0e3faa-ee78-4da5-a96f-abfd136c29bb"},"vehicle_type_id":"4","last_reported":1728230958,"current_range_meters":24400,"station_id":"ce4bhs12rcd13ifvqhvg","pricing_plan_id":"cebpf4jnsgd1na2vs0mg"},{"bike_id":"e489c358-7b80-435c-9791-896fdf72ad38","system_id":"levelo_inurba_marseille","lat":43.30884,"lon":5.37202,"is_reserved":false,"is_disabled":false,"rental_uris":{"android":"levelo://app?vid=e489c358-7b80-435c-9791-896fdf72ad38","ios":"levelo://app?vid=e489c358-7b80-435c-9791-896fdf72ad38"},"vehicle_type_id":"4","last_reported":1728230958,"current_range_meters":37600,"station_id":"ce4bguh2rcd13ifvqckg","pricing_plan_id":"cebpf4jnsgd1na2vs0mg"},{"bike_id":"594ae50d-4ac4-4ece-94e9-45db12f43dba","system_id":"levelo_inurba_marseille","lat":43.25116,"lon":5.403165,"is_reserved":false,"is_disabled":false,"rental_uris":{"android":"levelo://app?vid=594ae50d-4ac4-4ece-94e9-45db12f43dba","ios":"levelo://app?vid=594ae50d-4ac4-4ece-94e9-45db12f43dba"},"vehicle_type_id":"4","last_reported":1728230958,"current_range_meters":9600,"station_id":"ce4bhlh2rcd13ifvqgig","pricing_plan_id":"cebpf4jnsgd1na2vs0mg"},{"bike_id":"3af48eb3-1d1f-4a32-a948-7cc05add2405","system_id":"levelo_inurba_marseille","lat":43.21346,"lon":5.34936,"is_reserved":false,"is_disabled":false,"rental_uris":{"android":"levelo://app?vid=3af48eb3-1d1f-4a32-a948-7cc05add2405","ios":"levelo://app?vid=3af48eb3-1d1f-4a32-a948-7cc05add2405"},"vehicle_type_id":"4","last_reported":1728230958,"current_range_meters":30800,"station_id":"crv51consjfaj9uu89c0","pricing_plan_id":"cebpf4jnsgd1na2vs0mg"},{"bike_id":"77e44f96-8992-4ec5-ba2c-5e51b9e5b288","system_id":"levelo_inurba_marseille","lat":43.270568,"lon":5.38785,"is_reserved":false,"is_disabled":false,"rental_uris":{"android":"levelo://app?vid=77e44f96-8992-4ec5-ba2c-5e51b9e5b288","ios":"levelo://app?vid=77e44f96-8992-4ec5-ba2c-5e51b9e5b288"},"vehicle_type_id":"4","last_reported":1728230958,"current_range_meters":36000,"station_id":"","pricing_plan_id":"cebpf4jnsgd1na2vs0mg"},{"bike_id":"b51ee6d2-4574-4587-a7f0-3852397ae634","system_id":"levelo_inurba_marseille","lat":43.22931,"lon":5.3538,"is_reserved":false,"is_disabled":false,"rental_uris":{"android":"levelo://app?vid=b51ee6d2-4574-4587-a7f0-3852397ae634","ios":"levelo://app?vid=b51ee6d2-4574-4587-a7f0-3852397ae634"},"vehicle_type_id":"4","last_reported":1728230958,"current_range_meters":36000,"station_id":"cpo3532slgdg3j2ikp40","pricing_plan_id":"cebpf4jnsgd1na2vs0mg"},{"bike_id":"4f5038fe-9ccd-4d04-a6cd-afe04d9be89f","system_id":"levelo_inurba_marseille","lat":43.27382,"lon":5.36256,"is_reserved":false,"is_disabled":false,"rental_uris":{"android":"levelo://app?vid=4f5038fe-9ccd-4d04-a6cd-afe04d9be89f","ios":"levelo://app?vid=4f5038fe-9ccd-4d04-a6cd-afe04d9be89f"},"vehicle_type_id":"4","last_reported":1728230958,"current_range_meters":31200,"station_id":"ce4bhbh2rcd13ifvqeo0","pricing_plan_id":"cebpf4jnsgd1na2vs0mg"},{"bike_id":"f10306c3-ec31-41e1-a20d-221d1d766d11","system_id":"levelo_inurba_marseille","lat":43.28917,"lon":5.36214,"is_reserved":false,"is_disabled":false,"rental_uris":{"android":"levelo://app?vid=f10306c3-ec31-41e1-a20d-221d1d766d11","ios":"levelo://app?vid=f10306c3-ec31-41e1-a20d-221d1d766d11"},"vehicle_type_id":"4","last_reported":1728230958,"current_range_meters":38400,"station_id":"ce4bhc92rcd13ifvqetg","pricing_plan_id":"cebpf4jnsgd1na2vs0mg"},{"bike_id":"83d15b34-a1ff-4876-8a03-13201861b005","system_id":"levelo_inurba_marseille","lat":43.291626,"lon":5.371447,"is_reserved":false,"is_disabled":false,"rental_uris":{"android":"levelo://app?vid=83d15b34-a1ff-4876-8a03-13201861b005","ios":"levelo://app?vid=83d15b34-a1ff-4876-8a03-13201861b005"},"vehicle_type_id":"4","last_reported":1728230958,"current_range_meters":14000,"station_id":"ce4bha92rcd13ifvqeh0","pricing_plan_id":"cebpf4jnsgd1na2vs0mg"},{"bike_id":"4e0c83a2-b0c3-4894-8559-e509681998d3","system_id":"levelo_inurba_marseille","lat":43.31117,"lon":5.38326,"is_reserved":false,"is_disabled":false,"rental_uris":{"android":"levelo://app?vid=4e0c83a2-b0c3-4894-8559-e509681998d3","ios":"levelo://app?vid=4e0c83a2-b0c3-4894-8559-e509681998d3"},"vehicle_type_id":"4","last_reported":1728230958,"current_range_meters":8400,"station_id":"ce4bgv92rcd13ifvqcr0","pricing_plan_id":"cebpf4jnsgd1na2vs0mg"},{"bike_id":"a76ee3fd-363a-4d57-9618-b37ded534ce5","system_id":"levelo_inurba_marseille","lat":43.24392,"lon":5.37068,"is_reserved":false,"is_disabled":false,"rental_uris":{"android":"levelo://app?vid=a76ee3fd-363a-4d57-9618-b37ded534ce5","ios":"levelo://app?vid=a76ee3fd-363a-4d57-9618-b37ded534ce5"},"vehicle_type_id":"4","last_reported":1728230958,"current_range_meters":38400,"station_id":"ce4bhhh2rcd13ifvqfk0","pricing_plan_id":"cebpf4jnsgd1na2vs0mg"},{"bike_id":"ae53a9d1-01ac-447b-a4c7-269e1c5ac403","system_id":"levelo_inurba_marseille","lat":43.31822,"lon":5.40632,"is_reserved":false,"is_disabled":false,"rental_uris":{"android":"levelo://app?vid=ae53a9d1-01ac-447b-a4c7-269e1c5ac403","ios":"levelo://app?vid=ae53a9d1-01ac-447b-a4c7-269e1c5ac403"},"vehicle_type_id":"4","last_reported":1728230958,"current_range_meters":11200,"station_id":"","pricing_plan_id":"cebpf4jnsgd1na2vs0mg"},{"bike_id":"583707f1-0e79-4991-97d9-91493229adea","system_id":"levelo_inurba_marseille","lat":43.32658,"lon":5.40995,"is_reserved":false,"is_disabled":false,"rental_uris":{"android":"levelo://app?vid=583707f1-0e79-4991-97d9-91493229adea","ios":"levelo://app?vid=583707f1-0e79-4991-97d9-91493229adea"},"vehicle_type_id":"4","last_reported":1728230958,"current_range_meters":36400,"station_id":"ce4bhpp2rcd13ifvqhgg","pricing_plan_id":"cebpf4jnsgd1na2vs0mg"},{"bike_id":"424834e8-2af8-42c4-9569-d6f537a55895","system_id":"levelo_inurba_marseille","lat":43.28612,"lon":5.35104,"is_reserved":false,"is_disabled":false,"rental_uris":{"android":"levelo://app?vid=424834e8-2af8-42c4-9569-d6f537a55895","ios":"levelo://app?vid=424834e8-2af8-42c4-9569-d6f537a55895"},"vehicle_type_id":"4","last_reported":1728230958,"current_range_meters":6800,"station_id":"ce4bhch2rcd13ifvqeug","pricing_plan_id":"cebpf4jnsgd1na2vs0mg"},{"bike_id":"a0487502-cfda-49f9-81dd-9571e537f40f","system_id":"levelo_inurba_marseille","lat":43.29626,"lon":5.40596,"is_reserved":false,"is_disabled":false,"rental_uris":{"android":"levelo://app?vid=a0487502-cfda-49f9-81dd-9571e537f40f","ios":"levelo://app?vid=a0487502-cfda-49f9-81dd-9571e537f40f"},"vehicle_type_id":"4","last_reported":1728230958,"current_range_meters":3600,"station_id":"ce4bh0h2rcd13ifvqd60","pricing_plan_id":"cebpf4jnsgd1na2vs0mg"},{"bike_id":"28ea761c-324f-43b6-b812-1ac0214aae7c","system_id":"levelo_inurba_marseille","lat":43.29848,"lon":5.36286,"is_reserved":false,"is_disabled":false,"rental_uris":{"android":"levelo://app?vid=28ea761c-324f-43b6-b812-1ac0214aae7c","ios":"levelo://app?vid=28ea761c-324f-43b6-b812-1ac0214aae7c"},"vehicle_type_id":"4","last_reported":1728230958,"current_range_meters":29600,"station_id":"ce4bgpp2rcd13ifvqc3g","pricing_plan_id":"cebpf4jnsgd1na2vs0mg"},{"bike_id":"50e4cb87-cf8d-4d3c-925b-f0e79f8932f2","system_id":"levelo_inurba_marseille","lat":43.29975,"lon":5.38487,"is_reserved":false,"is_disabled":false,"rental_uris":{"android":"levelo://app?vid=50e4cb87-cf8d-4d3c-925b-f0e79f8932f2","ios":"levelo://app?vid=50e4cb87-cf8d-4d3c-925b-f0e79f8932f2"},"vehicle_type_id":"4","last_reported":1728230958,"current_range_meters":34800,"station_id":"ce4bgj92rcd13ifvqbd0","pricing_plan_id":"cebpf4jnsgd1na2vs0mg"},{"bike_id":"0799dd84-ec86-4743-ad18-370f21b4b4c5","system_id":"levelo_inurba_marseille","lat":43.3133,"lon":5.39697,"is_reserved":false,"is_disabled":false,"rental_uris":{"android":"levelo://app?vid=0799dd84-ec86-4743-ad18-370f21b4b4c5","ios":"levelo://app?vid=0799dd84-ec86-4743-ad18-370f21b4b4c5"},"vehicle_type_id":"4","last_reported":1728230958,"current_range_meters":22000,"station_id":"ce4bgvp2rcd13ifvqcu0","pricing_plan_id":"cebpf4jnsgd1na2vs0mg"},{"bike_id":"c50e441c-d247-4c47-85e3-c59071bb20fa","system_id":"levelo_inurba_marseille","lat":43.21344,"lon":5.34938,"is_reserved":false,"is_disabled":false,"rental_uris":{"android":"levelo://app?vid=c50e441c-d247-4c47-85e3-c59071bb20fa","ios":"levelo://app?vid=c50e441c-d247-4c47-85e3-c59071bb20fa"},"vehicle_type_id":"4","last_reported":1728230958,"current_range_meters":28800,"station_id":"crv51consjfaj9uu89c0","pricing_plan_id":"cebpf4jnsgd1na2vs0mg"},{"bike_id":"c527bbca-2f2a-41c7-9494-5368ebb41c3b","system_id":"levelo_inurba_marseille","lat":43.29625,"lon":5.37722,"is_reserved":false,"is_disabled":false,"rental_uris":{"android":"levelo://app?vid=c527bbca-2f2a-41c7-9494-5368ebb41c3b","ios":"levelo://app?vid=c527bbca-2f2a-41c7-9494-5368ebb41c3b"},"vehicle_type_id":"4","last_reported":1728230958,"current_range_meters":38000,"station_id":"ce4bgi92rcd13ifvqb90","pricing_plan_id":"cebpf4jnsgd1na2vs0mg"},{"bike_id":"13ddd84a-c17d-4ff4-97c0-d9330910ac53","system_id":"levelo_inurba_marseille","lat":43.26803,"lon":5.40273,"is_reserved":false,"is_disabled":false,"rental_uris":{"android":"levelo://app?vid=13ddd84a-c17d-4ff4-97c0-d9330910ac53","ios":"levelo://app?vid=13ddd84a-c17d-4ff4-97c0-d9330910ac53"},"vehicle_type_id":"4","last_reported":1728230958,"current_range_meters":3600,"station_id":"ce501612rcd8frsf0b60","pricing_plan_id":"cebpf4jnsgd1na2vs0mg"},{"bike_id":"b1838a8a-5724-48f4-8b08-ccb2775a3430","system_id":"levelo_inurba_marseille","lat":43.30552,"lon":5.36537,"is_reserved":false,"is_disabled":false,"rental_uris":{"android":"levelo://app?vid=b1838a8a-5724-48f4-8b08-ccb2775a3430","ios":"levelo://app?vid=b1838a8a-5724-48f4-8b08-ccb2775a3430"},"vehicle_type_id":"4","last_reported":1728230958,"current_range_meters":14000,"station_id":"ce4bgs12rcd13ifvqcag","pricing_plan_id":"cebpf4jnsgd1na2vs0mg"},{"bike_id":"91605665-f5dd-4531-b9fd-1413326ef0f9","system_id":"levelo_inurba_marseille","lat":43.24169,"lon":5.36402,"is_reserved":false,"is_disabled":false,"rental_uris":{"android":"levelo://app?vid=91605665-f5dd-4531-b9fd-1413326ef0f9","ios":"levelo://app?vid=91605665-f5dd-4531-b9fd-1413326ef0f9"},"vehicle_type_id":"4","last_reported":1728230958,"current_range_meters":9200,"station_id":"cpo36qri1sfpv3e86is0","pricing_plan_id":"cebpf4jnsgd1na2vs0mg"},{"bike_id":"5b497dc2-4829-45b8-8807-04106a120c18","system_id":"levelo_inurba_marseille","lat":43.29767,"lon":5.37105,"is_reserved":false,"is_disabled":false,"rental_uris":{"android":"levelo://app?vid=5b497dc2-4829-45b8-8807-04106a120c18","ios":"levelo://app?vid=5b497dc2-4829-45b8-8807-04106a120c18"},"vehicle_type_id":"4","last_reported":1728230958,"current_range_meters":24400,"station_id":"ce4bgop2rcd13ifvqc1g","pricing_plan_id":"cebpf4jnsgd1na2vs0mg"},{"bike_id":"d2ed31e2-5790-48d2-a0a1-5a3a129b1957","system_id":"levelo_inurba_marseille","lat":43.26561,"lon":5.39017,"is_reserved":false,"is_disabled":false,"rental_uris":{"android":"levelo://app?vid=d2ed31e2-5790-48d2-a0a1-5a3a129b1957","ios":"levelo://app?vid=d2ed31e2-5790-48d2-a0a1-5a3a129b1957"},"vehicle_type_id":"4","last_reported":1728230958,"current_range_meters":15200,"station_id":"ce4bhe12rcd13ifvqf30","pricing_plan_id":"cebpf4jnsgd1na2vs0mg"},{"bike_id":"bdefae95-7cc5-4880-bfcb-b1af39586be0","system_id":"levelo_inurba_marseille","lat":43.32654,"lon":5.4099,"is_reserved":false,"is_disabled":false,"rental_uris":{"android":"levelo://app?vid=bdefae95-7cc5-4880-bfcb-b1af39586be0","ios":"levelo://app?vid=bdefae95-7cc5-4880-bfcb-b1af39586be0"},"vehicle_type_id":"4","last_reported":1728230958,"current_range_meters":36400,"station_id":"ce4bhpp2rcd13ifvqhgg","pricing_plan_id":"cebpf4jnsgd1na2vs0mg"},{"bike_id":"7f2584c3-186b-4ca9-b416-bee639b50e12","system_id":"levelo_inurba_marseille","lat":43.22935,"lon":5.35379,"is_reserved":false,"is_disabled":false,"rental_uris":{"android":"levelo://app?vid=7f2584c3-186b-4ca9-b416-bee639b50e12","ios":"levelo://app?vid=7f2584c3-186b-4ca9-b416-bee639b50e12"},"vehicle_type_id":"4","last_reported":1728230958,"current_range_meters":28400,"station_id":"cpo3532slgdg3j2ikp40","pricing_plan_id":"cebpf4jnsgd1na2vs0mg"},{"bike_id":"e549f149-6777-48a3-a526-ae2a1009e696","system_id":"levelo_inurba_marseille","lat":43.30316,"lon":5.36911,"is_reserved":false,"is_disabled":false,"rental_uris":{"android":"levelo://app?vid=e549f149-6777-48a3-a526-ae2a1009e696","ios":"levelo://app?vid=e549f149-6777-48a3-a526-ae2a1009e696"},"vehicle_type_id":"4","last_reported":1728230958,"current_range_meters":38800,"station_id":"ce4bgqh2rcd13ifvqc5g","pricing_plan_id":"cebpf4jnsgd1na2vs0mg"},{"bike_id":"1d152269-c2fa-4900-bfa9-f20a095e29df","system_id":"levelo_inurba_marseille","lat":43.25721,"lon":5.41107,"is_reserved":false,"is_disabled":false,"rental_uris":{"android":"levelo://app?vid=1d152269-c2fa-4900-bfa9-f20a095e29df","ios":"levelo://app?vid=1d152269-c2fa-4900-bfa9-f20a095e29df"},"vehicle_type_id":"4","last_reported":1728230958,"current_range_meters":38800,"station_id":"ce4bhkp2rcd13ifvqgd0","pricing_plan_id":"cebpf4jnsgd1na2vs0mg"},{"bike_id":"a1659ee6-4606-43f6-b47f-383fb3b1fe6d","system_id":"levelo_inurba_marseille","lat":43.33025,"lon":5.39044,"is_reserved":false,"is_disabled":false,"rental_uris":{"android":"levelo://app?vid=a1659ee6-4606-43f6-b47f-383fb3b1fe6d","ios":"levelo://app?vid=a1659ee6-4606-43f6-b47f-383fb3b1fe6d"},"vehicle_type_id":"4","last_reported":1728230958,"current_range_meters":38800,"station_id":"ce4bhr92rcd13ifvqhrg","pricing_plan_id":"cebpf4jnsgd1na2vs0mg"},{"bike_id":"5182113f-8908-4825-903e-5a46e19bca5b","system_id":"levelo_inurba_marseille","lat":43.324731,"lon":5.365693,"is_reserved":false,"is_disabled":false,"rental_uris":{"android":"levelo://app?vid=5182113f-8908-4825-903e-5a46e19bca5b","ios":"levelo://app?vid=5182113f-8908-4825-903e-5a46e19bca5b"},"vehicle_type_id":"4","last_reported":1728230958,"current_range_meters":5600,"station_id":"ce4bhs12rcd13ifvqhvg","pricing_plan_id":"cebpf4jnsgd1na2vs0mg"},{"bike_id":"e03c9d0c-17ae-4003-b903-fd8aa9951041","system_id":"levelo_inurba_marseille","lat":43.33742,"lon":5.37455,"is_reserved":false,"is_disabled":false,"rental_uris":{"android":"levelo://app?vid=e03c9d0c-17ae-4003-b903-fd8aa9951041","ios":"levelo://app?vid=e03c9d0c-17ae-4003-b903-fd8aa9951041"},"vehicle_type_id":"4","last_reported":1728230958,"current_range_meters":33200,"station_id":"","pricing_plan_id":"cebpf4jnsgd1na2vs0mg"},{"bike_id":"4db12d0b-c535-4181-b562-455a7fd577b1","system_id":"levelo_inurba_marseille","lat":43.25866,"lon":5.39898,"is_reserved":false,"is_disabled":false,"rental_uris":{"android":"levelo://app?vid=4db12d0b-c535-4181-b562-455a7fd577b1","ios":"levelo://app?vid=4db12d0b-c535-4181-b562-455a7fd577b1"},"vehicle_type_id":"4","last_reported":1728230958,"current_range_meters":2800,"station_id":"ce4bhl92rcd13ifvqghg","pricing_plan_id":"cebpf4jnsgd1na2vs0mg"},{"bike_id":"fadcf6aa-e1cf-44d1-88d8-678c1291d969","system_id":"levelo_inurba_marseille","lat":43.32346,"lon":5.40636,"is_reserved":false,"is_disabled":false,"rental_uris":{"android":"levelo://app?vid=fadcf6aa-e1cf-44d1-88d8-678c1291d969","ios":"levelo://app?vid=fadcf6aa-e1cf-44d1-88d8-678c1291d969"},"vehicle_type_id":"4","last_reported":1728230958,"current_range_meters":36800,"station_id":"ce4bhq92rcd13ifvqhjg","pricing_plan_id":"cebpf4jnsgd1na2vs0mg"},{"bike_id":"a485b0d4-2721-435c-b41c-eed272d33850","system_id":"levelo_inurba_marseille","lat":43.25937,"lon":5.40909,"is_reserved":false,"is_disabled":false,"rental_uris":{"android":"levelo://app?vid=a485b0d4-2721-435c-b41c-eed272d33850","ios":"levelo://app?vid=a485b0d4-2721-435c-b41c-eed272d33850"},"vehicle_type_id":"4","last_reported":1728230958,"current_range_meters":26800,"station_id":"ce4bhm92rcd13ifvqglg","pricing_plan_id":"cebpf4jnsgd1na2vs0mg"},{"bike_id":"fbec104b-cb10-4ee6-8280-b085019e42b0","system_id":"levelo_inurba_marseille","lat":43.22934,"lon":5.35381,"is_reserved":false,"is_disabled":false,"rental_uris":{"android":"levelo://app?vid=fbec104b-cb10-4ee6-8280-b085019e42b0","ios":"levelo://app?vid=fbec104b-cb10-4ee6-8280-b085019e42b0"},"vehicle_type_id":"4","last_reported":1728230958,"current_range_meters":31200,"station_id":"cpo3532slgdg3j2ikp40","pricing_plan_id":"cebpf4jnsgd1na2vs0mg"},{"bike_id":"30acaa88-e12e-4d12-a7b9-294a98e3761a","system_id":"levelo_inurba_marseille","lat":43.291675,"lon":5.371459,"is_reserved":false,"is_disabled":false,"rental_uris":{"android":"levelo://app?vid=30acaa88-e12e-4d12-a7b9-294a98e3761a","ios":"levelo://app?vid=30acaa88-e12e-4d12-a7b9-294a98e3761a"},"vehicle_type_id":"4","last_reported":1728230958,"current_range_meters":37600,"station_id":"ce4bha92rcd13ifvqeh0","pricing_plan_id":"cebpf4jnsgd1na2vs0mg"},{"bike_id":"9997213a-8435-46ae-b160-928ebe19ea9a","system_id":"levelo_inurba_marseille","lat":43.304504,"lon":5.388949,"is_reserved":false,"is_disabled":false,"rental_uris":{"android":"levelo://app?vid=9997213a-8435-46ae-b160-928ebe19ea9a","ios":"levelo://app?vid=9997213a-8435-46ae-b160-928ebe19ea9a"},"vehicle_type_id":"4","last_reported":1728230958,"current_range_meters":36400,"station_id":"ce4bh012rcd13ifvqcv0","pricing_plan_id":"cebpf4jnsgd1na2vs0mg"},{"bike_id":"24963a71-29fc-4b78-bc58-245c9bead978","system_id":"levelo_inurba_marseille","lat":43.33024,"lon":5.3904,"is_reserved":false,"is_disabled":false,"rental_uris":{"android":"levelo://app?vid=24963a71-29fc-4b78-bc58-245c9bead978","ios":"levelo://app?vid=24963a71-29fc-4b78-bc58-245c9bead978"},"vehicle_type_id":"4","last_reported":1728230958,"current_range_meters":38800,"station_id":"ce4bhr92rcd13ifvqhrg","pricing_plan_id":"cebpf4jnsgd1na2vs0mg"},{"bike_id":"0e19ddb6-6b85-4f53-a309-557f590b598b","system_id":"levelo_inurba_marseille","lat":43.337444,"lon":5.374475,"is_reserved":false,"is_disabled":false,"rental_uris":{"android":"levelo://app?vid=0e19ddb6-6b85-4f53-a309-557f590b598b","ios":"levelo://app?vid=0e19ddb6-6b85-4f53-a309-557f590b598b"},"vehicle_type_id":"4","last_reported":1728230958,"current_range_meters":31200,"station_id":"ce4bhu92rcd13ifvqi70","pricing_plan_id":"cebpf4jnsgd1na2vs0mg"},{"bike_id":"0c286ce9-acd3-4cad-859b-2337fd33d83b","system_id":"levelo_inurba_marseille","lat":43.31532,"lon":5.38033,"is_reserved":false,"is_disabled":false,"rental_uris":{"android":"levelo://app?vid=0c286ce9-acd3-4cad-859b-2337fd33d83b","ios":"levelo://app?vid=0c286ce9-acd3-4cad-859b-2337fd33d83b"},"vehicle_type_id":"4","last_reported":1728230958,"current_range_meters":8800,"station_id":"ce4bhsp2rcd13ifvqi50","pricing_plan_id":"cebpf4jnsgd1na2vs0mg"},{"bike_id":"7060af44-386c-4c2f-938c-52584e6dd539","system_id":"levelo_inurba_marseille","lat":43.28611,"lon":5.35108,"is_reserved":false,"is_disabled":false,"rental_uris":{"android":"levelo://app?vid=7060af44-386c-4c2f-938c-52584e6dd539","ios":"levelo://app?vid=7060af44-386c-4c2f-938c-52584e6dd539"},"vehicle_type_id":"4","last_reported":1728230958,"current_range_meters":17200,"station_id":"ce4bhch2rcd13ifvqeug","pricing_plan_id":"cebpf4jnsgd1na2vs0mg"},{"bike_id":"e7b8aaf0-0288-475a-a597-c740c558d3f0","system_id":"levelo_inurba_marseille","lat":43.29931,"lon":5.3656,"is_reserved":false,"is_disabled":false,"rental_uris":{"android":"levelo://app?vid=e7b8aaf0-0288-475a-a597-c740c558d3f0","ios":"levelo://app?vid=e7b8aaf0-0288-475a-a597-c740c558d3f0"},"vehicle_type_id":"4","last_reported":1728230958,"current_range_meters":24000,"station_id":"ce4bgm92rcd13ifvqbr0","pricing_plan_id":"cebpf4jnsgd1na2vs0mg"},{"bike_id":"6856d22e-440d-40d9-809f-3167dacdbdc3","system_id":"levelo_inurba_marseille","lat":43.337444,"lon":5.374475,"is_reserved":false,"is_disabled":false,"rental_uris":{"android":"levelo://app?vid=6856d22e-440d-40d9-809f-3167dacdbdc3","ios":"levelo://app?vid=6856d22e-440d-40d9-809f-3167dacdbdc3"},"vehicle_type_id":"4","last_reported":1728230958,"current_range_meters":14000,"station_id":"","pricing_plan_id":"cebpf4jnsgd1na2vs0mg"},{"bike_id":"423ff085-2925-4053-bf85-613169d9e437","system_id":"levelo_inurba_marseille","lat":43.28246,"lon":5.37285,"is_reserved":false,"is_disabled":false,"rental_uris":{"android":"levelo://app?vid=423ff085-2925-4053-bf85-613169d9e437","ios":"levelo://app?vid=423ff085-2925-4053-bf85-613169d9e437"},"vehicle_type_id":"4","last_reported":1728230958,"current_range_meters":34800,"station_id":"","pricing_plan_id":"cebpf4jnsgd1na2vs0mg"},{"bike_id":"64bd957e-b978-44cb-a85c-928d627d24ec","system_id":"levelo_inurba_marseille","lat":43.35424,"lon":5.35869,"is_reserved":false,"is_disabled":false,"rental_uris":{"android":"levelo://app?vid=64bd957e-b978-44cb-a85c-928d627d24ec","ios":"levelo://app?vid=64bd957e-b978-44cb-a85c-928d627d24ec"},"vehicle_type_id":"4","last_reported":1728230958,"current_range_meters":2800,"station_id":"","pricing_plan_id":"cebpf4jnsgd1na2vs0mg"},{"bike_id":"d775113e-f7e6-44b4-b8b3-d0f5ddaf4963","system_id":"levelo_inurba_marseille","lat":43.29037,"lon":5.3756,"is_reserved":false,"is_disabled":false,"rental_uris":{"android":"levelo://app?vid=d775113e-f7e6-44b4-b8b3-d0f5ddaf4963","ios":"levelo://app?vid=d775113e-f7e6-44b4-b8b3-d0f5ddaf4963"},"vehicle_type_id":"4","last_reported":1728230958,"current_range_meters":19600,"station_id":"ce4bh692rcd13ifvqe90","pricing_plan_id":"cebpf4jnsgd1na2vs0mg"},{"bike_id":"10eff50e-1e46-4688-9221-55b5d7f76fae","system_id":"levelo_inurba_marseille","lat":43.294067,"lon":5.377939,"is_reserved":false,"is_disabled":false,"rental_uris":{"android":"levelo://app?vid=10eff50e-1e46-4688-9221-55b5d7f76fae","ios":"levelo://app?vid=10eff50e-1e46-4688-9221-55b5d7f76fae"},"vehicle_type_id":"4","last_reported":1728230958,"current_range_meters":25200,"station_id":"ce4bgjh2rcd13ifvqbf0","pricing_plan_id":"cebpf4jnsgd1na2vs0mg"},{"bike_id":"79d4ce44-dde0-4856-adfb-9d048612b764","system_id":"levelo_inurba_marseille","lat":43.2134,"lon":5.34942,"is_reserved":false,"is_disabled":false,"rental_uris":{"android":"levelo://app?vid=79d4ce44-dde0-4856-adfb-9d048612b764","ios":"levelo://app?vid=79d4ce44-dde0-4856-adfb-9d048612b764"},"vehicle_type_id":"4","last_reported":1728230958,"current_range_meters":33200,"station_id":"crv51consjfaj9uu89c0","pricing_plan_id":"cebpf4jnsgd1na2vs0mg"},{"bike_id":"6362dd7e-711b-4b82-af8e-291ea8f6ea1e","system_id":"levelo_inurba_marseille","lat":43.21342,"lon":5.34946,"is_reserved":false,"is_disabled":false,"rental_uris":{"android":"levelo://app?vid=6362dd7e-711b-4b82-af8e-291ea8f6ea1e","ios":"levelo://app?vid=6362dd7e-711b-4b82-af8e-291ea8f6ea1e"},"vehicle_type_id":"4","last_reported":1728230958,"current_range_meters":30400,"station_id":"crv51consjfaj9uu89c0","pricing_plan_id":"cebpf4jnsgd1na2vs0mg"},{"bike_id":"9f8202da-1767-4639-be1a-058a6ad96a61","system_id":"levelo_inurba_marseille","lat":43.32111,"lon":5.36779,"is_reserved":false,"is_disabled":false,"rental_uris":{"android":"levelo://app?vid=9f8202da-1767-4639-be1a-058a6ad96a61","ios":"levelo://app?vid=9f8202da-1767-4639-be1a-058a6ad96a61"},"vehicle_type_id":"4","last_reported":1728230958,"current_range_meters":20000,"station_id":"ce4bhrh2rcd13ifvqhug","pricing_plan_id":"cebpf4jnsgd1na2vs0mg"},{"bike_id":"63a295d5-ccee-4f60-bccd-f695698ce0bb","system_id":"levelo_inurba_marseille","lat":43.26559,"lon":5.37305,"is_reserved":false,"is_disabled":false,"rental_uris":{"android":"levelo://app?vid=63a295d5-ccee-4f60-bccd-f695698ce0bb","ios":"levelo://app?vid=63a295d5-ccee-4f60-bccd-f695698ce0bb"},"vehicle_type_id":"4","last_reported":1728230958,"current_range_meters":20000,"station_id":"ce4bhg12rcd13ifvqf70","pricing_plan_id":"cebpf4jnsgd1na2vs0mg"},{"bike_id":"aecd39b0-25c1-4970-97e1-7c0a07657f51","system_id":"levelo_inurba_marseille","lat":43.32336,"lon":5.40618,"is_reserved":false,"is_disabled":false,"rental_uris":{"android":"levelo://app?vid=aecd39b0-25c1-4970-97e1-7c0a07657f51","ios":"levelo://app?vid=aecd39b0-25c1-4970-97e1-7c0a07657f51"},"vehicle_type_id":"4","last_reported":1728230958,"current_range_meters":19200,"station_id":"ce4bhq92rcd13ifvqhjg","pricing_plan_id":"cebpf4jnsgd1na2vs0mg"},{"bike_id":"2635360e-2b1e-4a55-94e8-170ce835a25b","system_id":"levelo_inurba_marseille","lat":43.29937,"lon":5.36542,"is_reserved":false,"is_disabled":false,"rental_uris":{"android":"levelo://app?vid=2635360e-2b1e-4a55-94e8-170ce835a25b","ios":"levelo://app?vid=2635360e-2b1e-4a55-94e8-170ce835a25b"},"vehicle_type_id":"4","last_reported":1728230958,"current_range_meters":36000,"station_id":"ce4bgm92rcd13ifvqbr0","pricing_plan_id":"cebpf4jnsgd1na2vs0mg"},{"bike_id":"b2b7bcf4-a9a4-4384-b2c6-3b978727cf23","system_id":"levelo_inurba_marseille","lat":43.2707,"lon":5.42281,"is_reserved":false,"is_disabled":false,"rental_uris":{"android":"levelo://app?vid=b2b7bcf4-a9a4-4384-b2c6-3b978727cf23","ios":"levelo://app?vid=b2b7bcf4-a9a4-4384-b2c6-3b978727cf23"},"vehicle_type_id":"4","last_reported":1728230958,"current_range_meters":29600,"station_id":"ce4bhk92rcd13ifvqgb0","pricing_plan_id":"cebpf4jnsgd1na2vs0mg"},{"bike_id":"580adea3-ab85-47c1-a773-4fed356d0340","system_id":"levelo_inurba_marseille","lat":43.23192,"lon":5.35552,"is_reserved":false,"is_disabled":false,"rental_uris":{"android":"levelo://app?vid=580adea3-ab85-47c1-a773-4fed356d0340","ios":"levelo://app?vid=580adea3-ab85-47c1-a773-4fed356d0340"},"vehicle_type_id":"4","last_reported":1728230958,"current_range_meters":19200,"station_id":"ce4bhu92rcd13ifvqi70","pricing_plan_id":"cebpf4jnsgd1na2vs0mg"},{"bike_id":"5db9eaf8-e4f5-4ac4-87ee-abb45a57b17e","system_id":"levelo_inurba_marseille","lat":43.31276,"lon":5.4017,"is_reserved":false,"is_disabled":false,"rental_uris":{"android":"levelo://app?vid=5db9eaf8-e4f5-4ac4-87ee-abb45a57b17e","ios":"levelo://app?vid=5db9eaf8-e4f5-4ac4-87ee-abb45a57b17e"},"vehicle_type_id":"4","last_reported":1728230958,"current_range_meters":27600,"station_id":"ce4bh092rcd13ifvqd30","pricing_plan_id":"cebpf4jnsgd1na2vs0mg"},{"bike_id":"6c59aa10-80ff-44cd-94c8-f93de96ac8f4","system_id":"levelo_inurba_marseille","lat":43.2972,"lon":5.37693,"is_reserved":false,"is_disabled":false,"rental_uris":{"android":"levelo://app?vid=6c59aa10-80ff-44cd-94c8-f93de96ac8f4","ios":"levelo://app?vid=6c59aa10-80ff-44cd-94c8-f93de96ac8f4"},"vehicle_type_id":"4","last_reported":1728230958,"current_range_meters":38800,"station_id":"ce4bgkh2rcd13ifvqbl0","pricing_plan_id":"cebpf4jnsgd1na2vs0mg"},{"bike_id":"fbab334e-6568-46ac-88f7-b856d9d2d598","system_id":"levelo_inurba_marseille","lat":43.23194,"lon":5.35548,"is_reserved":false,"is_disabled":false,"rental_uris":{"android":"levelo://app?vid=fbab334e-6568-46ac-88f7-b856d9d2d598","ios":"levelo://app?vid=fbab334e-6568-46ac-88f7-b856d9d2d598"},"vehicle_type_id":"4","last_reported":1728230958,"current_range_meters":27600,"station_id":"ce4bhu92rcd13ifvqi70","pricing_plan_id":"cebpf4jnsgd1na2vs0mg"},{"bike_id":"2e65e941-2e03-4da5-8588-9b4a41cc23af","system_id":"levelo_inurba_marseille","lat":43.27173,"lon":5.40994,"is_reserved":false,"is_disabled":false,"rental_uris":{"android":"levelo://app?vid=2e65e941-2e03-4da5-8588-9b4a41cc23af","ios":"levelo://app?vid=2e65e941-2e03-4da5-8588-9b4a41cc23af"},"vehicle_type_id":"4","last_reported":1728230958,"current_range_meters":35200,"station_id":"ce4bhl12rcd13ifvqgf0","pricing_plan_id":"cebpf4jnsgd1na2vs0mg"},{"bike_id":"9c027386-42ce-43dc-852c-9acee0c937f1","system_id":"levelo_inurba_marseille","lat":43.23196,"lon":5.35555,"is_reserved":false,"is_disabled":false,"rental_uris":{"android":"levelo://app?vid=9c027386-42ce-43dc-852c-9acee0c937f1","ios":"levelo://app?vid=9c027386-42ce-43dc-852c-9acee0c937f1"},"vehicle_type_id":"4","last_reported":1728230958,"current_range_meters":22800,"station_id":"ce4bhu92rcd13ifvqi70","pricing_plan_id":"cebpf4jnsgd1na2vs0mg"},{"bike_id":"8caf0cdd-d9f9-412c-9b33-63f2ab56e7f8","system_id":"levelo_inurba_marseille","lat":43.25117,"lon":5.40324,"is_reserved":false,"is_disabled":false,"rental_uris":{"android":"levelo://app?vid=8caf0cdd-d9f9-412c-9b33-63f2ab56e7f8","ios":"levelo://app?vid=8caf0cdd-d9f9-412c-9b33-63f2ab56e7f8"},"vehicle_type_id":"4","last_reported":1728230958,"current_range_meters":14000,"station_id":"ce4bhlh2rcd13ifvqgig","pricing_plan_id":"cebpf4jnsgd1na2vs0mg"},{"bike_id":"20faca8e-a204-4066-94de-0b8e6f26940f","system_id":"levelo_inurba_marseille","lat":43.30962,"lon":5.40489,"is_reserved":false,"is_disabled":false,"rental_uris":{"android":"levelo://app?vid=20faca8e-a204-4066-94de-0b8e6f26940f","ios":"levelo://app?vid=20faca8e-a204-4066-94de-0b8e6f26940f"},"vehicle_type_id":"4","last_reported":1728230958,"current_range_meters":24400,"station_id":"","pricing_plan_id":"cebpf4jnsgd1na2vs0mg"},{"bike_id":"0dfd9a8d-4bcc-4506-b2fd-20c83c1f790d","system_id":"levelo_inurba_marseille","lat":43.26953,"lon":5.38635,"is_reserved":false,"is_disabled":false,"rental_uris":{"android":"levelo://app?vid=0dfd9a8d-4bcc-4506-b2fd-20c83c1f790d","ios":"levelo://app?vid=0dfd9a8d-4bcc-4506-b2fd-20c83c1f790d"},"vehicle_type_id":"4","last_reported":1728230958,"current_range_meters":38800,"station_id":"ce4bhh92rcd13ifvqfh0","pricing_plan_id":"cebpf4jnsgd1na2vs0mg"},{"bike_id":"257a20df-cbb8-400a-882a-4fa2f87ec604","system_id":"levelo_inurba_marseille","lat":43.29711,"lon":5.37693,"is_reserved":false,"is_disabled":false,"rental_uris":{"android":"levelo://app?vid=257a20df-cbb8-400a-882a-4fa2f87ec604","ios":"levelo://app?vid=257a20df-cbb8-400a-882a-4fa2f87ec604"},"vehicle_type_id":"4","last_reported":1728230958,"current_range_meters":27600,"station_id":"ce4bgkh2rcd13ifvqbl0","pricing_plan_id":"cebpf4jnsgd1na2vs0mg"},{"bike_id":"0646eb45-421a-4d0d-9dc2-e263e0d46e58","system_id":"levelo_inurba_marseille","lat":43.29959,"lon":5.37169,"is_reserved":false,"is_disabled":false,"rental_uris":{"android":"levelo://app?vid=0646eb45-421a-4d0d-9dc2-e263e0d46e58","ios":"levelo://app?vid=0646eb45-421a-4d0d-9dc2-e263e0d46e58"},"vehicle_type_id":"4","last_reported":1728230958,"current_range_meters":6400,"station_id":"ce4bgr92rcd13ifvqc7g","pricing_plan_id":"cebpf4jnsgd1na2vs0mg"},{"bike_id":"9cba5621-3161-4434-b4b5-36153d237687","system_id":"levelo_inurba_marseille","lat":43.3042,"lon":5.41286,"is_reserved":false,"is_disabled":false,"rental_uris":{"android":"levelo://app?vid=9cba5621-3161-4434-b4b5-36153d237687","ios":"levelo://app?vid=9cba5621-3161-4434-b4b5-36153d237687"},"vehicle_type_id":"4","last_reported":1728230958,"current_range_meters":38800,"station_id":"ce4bhop2rcd13ifvqh8g","pricing_plan_id":"cebpf4jnsgd1na2vs0mg"},{"bike_id":"d70d1bd0-400c-448d-b804-5ebc83a1e570","system_id":"levelo_inurba_marseille","lat":43.26928,"lon":5.38914,"is_reserved":false,"is_disabled":false,"rental_uris":{"android":"levelo://app?vid=d70d1bd0-400c-448d-b804-5ebc83a1e570","ios":"levelo://app?vid=d70d1bd0-400c-448d-b804-5ebc83a1e570"},"vehicle_type_id":"4","last_reported":1728230958,"current_range_meters":38000,"station_id":"ce4bhhh2rcd13ifvqfl0","pricing_plan_id":"cebpf4jnsgd1na2vs0mg"},{"bike_id":"096c3c52-ea66-4fc7-aedf-0f68535ced1d","system_id":"levelo_inurba_marseille","lat":43.23877,"lon":5.3953,"is_reserved":false,"is_disabled":false,"rental_uris":{"android":"levelo://app?vid=096c3c52-ea66-4fc7-aedf-0f68535ced1d","ios":"levelo://app?vid=096c3c52-ea66-4fc7-aedf-0f68535ced1d"},"vehicle_type_id":"4","last_reported":1728230958,"current_range_meters":10000,"station_id":"","pricing_plan_id":"cebpf4jnsgd1na2vs0mg"},{"bike_id":"ec26a86e-3352-4a4c-b2c5-07fdffd0a763","system_id":"levelo_inurba_marseille","lat":43.30531,"lon":5.36715,"is_reserved":false,"is_disabled":false,"rental_uris":{"android":"levelo://app?vid=ec26a86e-3352-4a4c-b2c5-07fdffd0a763","ios":"levelo://app?vid=ec26a86e-3352-4a4c-b2c5-07fdffd0a763"},"vehicle_type_id":"4","last_reported":1728230958,"current_range_meters":13600,"station_id":"ce4bgrp2rcd13ifvqc9g","pricing_plan_id":"cebpf4jnsgd1na2vs0mg"},{"bike_id":"ac63b881-53ef-4e4b-b5e6-9f4914bcf168","system_id":"levelo_inurba_marseille","lat":43.23055,"lon":5.35489,"is_reserved":false,"is_disabled":false,"rental_uris":{"android":"levelo://app?vid=ac63b881-53ef-4e4b-b5e6-9f4914bcf168","ios":"levelo://app?vid=ac63b881-53ef-4e4b-b5e6-9f4914bcf168"},"vehicle_type_id":"4","last_reported":1728230958,"current_range_meters":38800,"station_id":"cpo3342slgdg3j2ifvpg","pricing_plan_id":"cebpf4jnsgd1na2vs0mg"},{"bike_id":"10e2cad8-5b87-4361-a750-816e7c888c91","system_id":"levelo_inurba_marseille","lat":43.21342,"lon":5.34944,"is_reserved":false,"is_disabled":false,"rental_uris":{"android":"levelo://app?vid=10e2cad8-5b87-4361-a750-816e7c888c91","ios":"levelo://app?vid=10e2cad8-5b87-4361-a750-816e7c888c91"},"vehicle_type_id":"4","last_reported":1728230958,"current_range_meters":30000,"station_id":"crv51consjfaj9uu89c0","pricing_plan_id":"cebpf4jnsgd1na2vs0mg"},{"bike_id":"a513ccaa-0c27-439e-bc69-84cf7ff60039","system_id":"levelo_inurba_marseille","lat":43.337444,"lon":5.374475,"is_reserved":false,"is_disabled":false,"rental_uris":{"android":"levelo://app?vid=a513ccaa-0c27-439e-bc69-84cf7ff60039","ios":"levelo://app?vid=a513ccaa-0c27-439e-bc69-84cf7ff60039"},"vehicle_type_id":"4","last_reported":1728230958,"current_range_meters":28800,"station_id":"","pricing_plan_id":"cebpf4jnsgd1na2vs0mg"},{"bike_id":"73f23f91-1a66-4404-b1af-d5ada62174d3","system_id":"levelo_inurba_marseille","lat":43.26552,"lon":5.37288,"is_reserved":false,"is_disabled":false,"rental_uris":{"android":"levelo://app?vid=73f23f91-1a66-4404-b1af-d5ada62174d3","ios":"levelo://app?vid=73f23f91-1a66-4404-b1af-d5ada62174d3"},"vehicle_type_id":"4","last_reported":1728230958,"current_range_meters":19200,"station_id":"ce4bhg12rcd13ifvqf70","pricing_plan_id":"cebpf4jnsgd1na2vs0mg"},{"bike_id":"1f051470-94a4-4881-ab48-08232e0e948e","system_id":"levelo_inurba_marseille","lat":43.23193,"lon":5.35553,"is_reserved":false,"is_disabled":false,"rental_uris":{"android":"levelo://app?vid=1f051470-94a4-4881-ab48-08232e0e948e","ios":"levelo://app?vid=1f051470-94a4-4881-ab48-08232e0e948e"},"vehicle_type_id":"4","last_reported":1728230958,"current_range_meters":17600,"station_id":"ce4bhu92rcd13ifvqi70","pricing_plan_id":"cebpf4jnsgd1na2vs0mg"},{"bike_id":"9e3fe2e1-eca8-4201-b615-2eaf2b4dc3f2","system_id":"levelo_inurba_marseille","lat":43.23191,"lon":5.35552,"is_reserved":false,"is_disabled":false,"rental_uris":{"android":"levelo://app?vid=9e3fe2e1-eca8-4201-b615-2eaf2b4dc3f2","ios":"levelo://app?vid=9e3fe2e1-eca8-4201-b615-2eaf2b4dc3f2"},"vehicle_type_id":"4","last_reported":1728230958,"current_range_meters":9600,"station_id":"ce4bhu92rcd13ifvqi70","pricing_plan_id":"cebpf4jnsgd1na2vs0mg"},