{"last_updated":1741453585,"ttl":60,"version":"2.2","data":{"bikes":[{"bike_id":"1bc5ae92-00ea-4e16-93c8-a4f98375087f","system_id":"levelo_inurba_marseille","lat":43.3009,"lon":5.39062,"is_reserved":false,"is_disabled":false,"rental_uris":{"android":"levelo://app?vid=1bc5ae92-00ea-4e16-93c8-a4f98375087f","ios":"levelo://app?vid=1bc5ae92-00ea-4e16-93c8-a4f98375087f"},"vehicle_type_id":"4","last_reported":1741453585,"current_range_meters":2800,"station_id":"ce4bh192rcd13ifvqdb0","pricing_plan_id":"cebpf4jnsgd1na2vs0mg"},{"bike_id":"e92857a7-ec57-4aba-98c6-a294befb369b","system_id":"levelo_inurba_marseille","lat":43.28687,"lon":5.38651,"is_reserved":false,"is_disabled":false,"rental_uris":{"android":"levelo://app?vid=e92857a7-ec57-4aba-98c6-a294befb369b","ios":"levelo://app?vid=e92857a7-ec57-4aba-98c6-a294befb369b"},"vehicle_type_id":"4","last_reported":1741453585,"current_range_meters":2800,"station_id":"ce4bh492rcd13ifvqdug","pricing_plan_id":"cebpf4jnsgd1na2vs0mg"},{"bike_id":"43bc5e18-7bfb-4e30-b758-942e653f0d5a","system_id":"levelo_inurba_marseille","lat":43.24643,"lon":5.40266,"is_reserved":false,"is_disabled":false,"rental_uris":{"android":"levelo://app?vid=43bc5e18-7bfb-4e30-b758-942e653f0d5a","ios":"levelo://app?vid=43bc5e18-7bfb-4e30-b758-942e653f0d5a"},"vehicle_type_id":"4","last_reported":1741453585,"current_range_meters":2800,"station_id":"","pricing_plan_id":"cebpf4jnsgd1na2vs0mg"},{"bike_id":"5c9b2b2c-e91e-4a8c-b0ae-80296d5893b1","system_id":"levelo_inurba_marseille","lat":43.29215,"lon":5.35785,"is_reserved":false,"is_disabled":false,"rental_uris":{"android":"levelo://app?vid=5c9b2b2c-e91e-4a8c-b0ae-80296d5893b1","ios":"levelo://app?vid=5c9b2b2c-e91e-4a8c-b0ae-80296d5893b1"},"vehicle_type_id":"4","last_reported":1741453585,"current_range_meters":2800,"station_id":"ce4bhb12rcd13ifvqel0","pricing_plan_id":"cebpf4jnsgd1na2vs0mg"},{"bike_id":"cef9851f-6a33-462b-bcd0-6d01765c61ee","system_id":"levelo_inurba_marseille","lat":43.28155,"lon":5.426405,"is_reserved":false,"is_disabled":false,"rental_uris":{"android":"levelo://app?vid=cef9851f-6a33-462b-bcd0-6d01765c61ee","ios":"levelo://app?vid=cef9851f-6a33-462b-bcd0-6d01765c61ee"},"vehicle_type_id":"4","last_reported":1741453585,"current_range_meters":2800,"station_id":"ce4bhnh2rcd13ifvqgug","pricing_plan_id":"cebpf4jnsgd1na2vs0mg"},{"bike_id":"244e7542-c25e-479f-8036-0f351f77bf8f","system_id":"levelo_inurba_marseille","lat":43.28342,"lon":5.38104,"is_reserved":false,"is_disabled":false,"rental_uris":{"android":"levelo://app?vid=244e7542-c25e-479f-8036-0f351f77bf8f","ios":"levelo://app?vid=244e7542-c25e-479f-8036-0f351f77bf8f"},"vehicle_type_id":"4","last_reported":1741453585,"current_range_meters":2800,"station_id":"ce4bh412rcd13ifvqdr0","pricing_plan_id":"cebpf4jnsgd1na2vs0mg"},{"bike_id":"d7f4f057-0937-45eb-90ae-2e7a3bd871ed","system_id":"levelo_inurba_marseille","lat":43.30397,"lon":5.41868,"is_reserved":false,"is_disabled":false,"rental_uris":{"android":"levelo://app?vid=d7f4f057-0937-45eb-90ae-2e7a3bd871ed","ios":"levelo://app?vid=d7f4f057-0937-45eb-90ae-2e7a3bd871ed"},"vehicle_type_id":"4","last_reported":1741453585,"current_range_meters":2800,"station_id":"ce4bhop2rcd13ifvqh7g","pricing_plan_id":"cebpf4jnsgd1na2vs0mg"},{"bike_id":"6b1a203d-7325-4539-b06b-4e91d31b1186","system_id":"levelo_inurba_marseille","lat":43.30406,"lon":5.41299,"is_reserved":false,"is_disabled":false,"rental_uris":{"android":"levelo://app?vid=6b1a203d-7325-4539-b06b-4e91d31b1186","ios":"levelo://app?vid=6b1a203d-7325-4539-b06b-4e91d31b1186"},"vehicle_type_id":"4","last_reported":1741453585,"current_range_meters":3200,"station_id":"ce4bhop2rcd13ifvqh8g","pricing_plan_id":"cebpf4jnsgd1na2vs0mg"},{"bike_id":"71b97289-d517-49a1-8c55-539e5a8554d3","system_id":"levelo_inurba_marseille","lat":43.26227,"lon":5.40445,"is_reserved":false,"is_disabled":false,"rental_uris":{"android":"levelo://app?vid=71b97289-d517-49a1-8c55-539e5a8554d3","ios":"levelo://app?vid=71b97289-d517-49a1-8c55-539e5a8554d3"},"vehicle_type_id":"4","last_reported":1741453585,"current_range_meters":3200,"station_id":"ce4bhmh2rcd13ifvqgmg","pricing_plan_id":"cebpf4jnsgd1na2vs0mg"},{"bike_id":"e5b6ae21-d700-4754-825b-0594cc6002a5","system_id":"levelo_inurba_marseille","lat":43.26687,"lon":5.38267,"is_reserved":false,"is_disabled":false,"rental_uris":{"android":"levelo://app?vid=e5b6ae21-d700-4754-825b-0594cc6002a5","ios":"levelo://app?vid=e5b6ae21-d700-4754-825b-0594cc6002a5"},"vehicle_type_id":"4","last_reported":1741453585,"current_range_meters":3200,"station_id":"ce4bhg92rcd13ifvqf90","pricing_plan_id":"cebpf4jnsgd1na2vs0mg"},{"bike_id":"daae548d-8aa9-4e8a-9811-1bbde31541e9","system_id":"levelo_inurba_marseille","lat":43.26811,"lon":5.40213,"is_reserved":false,"is_disabled":false,"rental_uris":{"android":"levelo://app?vid=daae548d-8aa9-4e8a-9811-1bbde31541e9","ios":"levelo://app?vid=daae548d-8aa9-4e8a-9811-1bbde31541e9"},"vehicle_type_id":"4","last_reported":1741453585,"current_range_meters":3200,"station_id":"ce501612rcd8frsf0b60","pricing_plan_id":"cebpf4jnsgd1na2vs0mg"},{"bike_id":"216b9206-f67b-4762-b3be-c0c8996a2694","system_id":"levelo_inurba_marseille","lat":43.31354,"lon":5.38608,"is_reserved":false,"is_disabled":false,"rental_uris":{"android":"levelo://app?vid=216b9206-f67b-4762-b3be-c0c8996a2694","ios":"levelo://app?vid=216b9206-f67b-4762-b3be-c0c8996a2694"},"vehicle_type_id":"4","last_reported":1741453585,"current_range_meters":3200,"station_id":"","pricing_plan_id":"cebpf4jnsgd1na2vs0mg"},{"bike_id":"53ba06d6-3b6c-4f49-bc80-8f7e1937ded3","system_id":"levelo_inurba_marseille","lat":43.27904,"lon":5.41227,"is_reserved":false,"is_disabled":false,"rental_uris":{"android":"levelo://app?vid=53ba06d6-3b6c-4f49-bc80-8f7e1937ded3","ios":"levelo://app?vid=53ba06d6-3b6c-4f49-bc80-8f7e1937ded3"},"vehicle_type_id":"4","last_reported":1741453585,"current_range_meters":3200,"station_id":"","pricing_plan_id":"cebpf4jnsgd1na2vs0mg"},{"bike_id":"b0b9a29b-e2f5-48ce-bb6a-acfe44b52f35","system_id":"levelo_inurba_marseille","lat":43.2978,"lon":5.38105,"is_reserved":false,"is_disabled":false,"rental_uris":{"android":"levelo://app?vid=b0b9a29b-e2f5-48ce-bb6a-acfe44b52f35","ios":"levelo://app?vid=b0b9a29b-e2f5-48ce-bb6a-acfe44b52f35"},"vehicle_type_id":"4","last_reported":1741453585,"current_range_meters":3200,"station_id":"ce4bgip2rcd13ifvqbb0","pricing_plan_id":"cebpf4jnsgd1na2vs0mg"},{"bike_id":"fc089557-4c00-4b9a-a4a7-731f1b38c585","system_id":"levelo_inurba_marseille","lat":43.28693,"lon":5.38663,"is_reserved":false,"is_disabled":false,"rental_uris":{"android":"levelo://app?vid=fc089557-4c00-4b9a-a4a7-731f1b38c585","ios":"levelo://app?vid=fc089557-4c00-4b9a-a4a7-731f1b38c585"},"vehicle_type_id":"4","last_reported":1741453585,"current_range_meters":3600,"station_id":"ce4bh492rcd13ifvqdug","pricing_plan_id":"cebpf4jnsgd1na2vs0mg"},{"bike_id":"e22591e1-2666-4462-bf66-727bd9b5cf4a","system_id":"levelo_inurba_marseille","lat":43.25497,"lon":5.37648,"is_reserved":false,"is_disabled":false,"rental_uris":{"android":"levelo://app?vid=e22591e1-2666-4462-bf66-727bd9b5cf4a","ios":"levelo://app?vid=e22591e1-2666-4462-bf66-727bd9b5cf4a"},"vehicle_type_id":"4","last_reported":1741453585,"current_range_meters":3600,"station_id":"ce4bhh12rcd13ifvqff0","pricing_plan_id":"cebpf4jnsgd1na2vs0mg"},{"bike_id":"889005a7-47da-469d-aa9f-9d64379d2f3e","system_id":"levelo_inurba_marseille","lat":43.30113,"lon":5.38759,"is_reserved":false,"is_disabled":false,"rental_uris":{"android":"levelo://app?vid=889005a7-47da-469d-aa9f-9d64379d2f3e","ios":"levelo://app?vid=889005a7-47da-469d-aa9f-9d64379d2f3e"},"vehicle_type_id":"4","last_reported":1741453585,"current_range_meters":3600,"station_id":"ce4bgih2rcd13ifvqba0","pricing_plan_id":"cebpf4jnsgd1na2vs0mg"},{"bike_id":"55012969-37fe-4649-af74-d30dae93bbd3","system_id":"levelo_inurba_marseille","lat":43.26926,"lon":5.40245,"is_reserved":false,"is_disabled":false,"rental_uris":{"android":"levelo://app?vid=55012969-37fe-4649-af74-d30dae93bbd3","ios":"levelo://app?vid=55012969-37fe-4649-af74-d30dae93bbd3"},"vehicle_type_id":"4","last_reported":1741453585,"current_range_meters":3600,"station_id":"cjm6bp8fraef2m0cb0m0","pricing_plan_id":"cebpf4jnsgd1na2vs0mg"},{"bike_id":"1d36d4d4-3201-48ff-b86e-17c2e2ea42d8","system_id":"levelo_inurba_marseille","lat":43.2706,"lon":5.40258,"is_reserved":false,"is_disabled":false,"rental_uris":{"android":"levelo://app?vid=1d36d4d4-3201-48ff-b86e-17c2e2ea42d8","ios":"levelo://app?vid=1d36d4d4-3201-48ff-b86e-17c2e2ea42d8"},"vehicle_type_id":"4","last_reported":1741453585,"current_range_meters":3600,"station_id":"ce4bhk92rcd13ifvqgc0","pricing_plan_id":"cebpf4jnsgd1na2vs0mg"},{"bike_id":"0f9a4c07-0a22-4358-a8a9-320a0de6c005","system_id":"levelo_inurba_marseille","lat":43.32361,"lon":5.38876,"is_reserved":false,"is_disabled":false,"rental_uris":{"android":"levelo://app?vid=0f9a4c07-0a22-4358-a8a9-320a0de6c005","ios":"levelo://app?vid=0f9a4c07-0a22-4358-a8a9-320a0de6c005"},"vehicle_type_id":"4","last_reported":1741453585,"current_range_meters":4000,"station_id":"ce4bhqp2rcd13ifvqhog","pricing_plan_id":"cebpf4jnsgd1na2vs0mg"},{"bike_id":"89856d32-7478-4542-9f20-f97d95486155","system_id":"levelo_inurba_marseille","lat":43.29363,"lon":5.37847,"is_reserved":false,"is_disabled":false,"rental_uris":{"android":"levelo://app?vid=89856d32-7478-4542-9f20-f97d95486155","ios":"levelo://app?vid=89856d32-7478-4542-9f20-f97d95486155"},"vehicle_type_id":"4","last_reported":1741453585,"current_range_meters":4000,"station_id":"ce4bhop2rcd13ifvqh7g","pricing_plan_id":"cebpf4jnsgd1na2vs0mg"},{"bike_id":"3af6dbd0-f0d8-4450-a555-09f18f6f810d","system_id":"levelo_inurba_marseille","lat":43.28917,"lon":5.38402,"is_reserved":false,"is_disabled":false,"rental_uris":{"android":"levelo://app?vid=3af6dbd0-f0d8-4450-a555-09f18f6f810d","ios":"levelo://app?vid=3af6dbd0-f0d8-4450-a555-09f18f6f810d"},"vehicle_type_id":"4","last_reported":1741453585,"current_range_meters":4000,"station_id":"ce4bh612rcd13ifvqe6g","pricing_plan_id":"cebpf4jnsgd1na2vs0mg"},{"bike_id":"8f60d7d0-7cdc-48b3-a763-4552a7d55ea3","system_id":"levelo_inurba_marseille","lat":43.26844,"lon":5.40221,"is_reserved":false,"is_disabled":false,"rental_uris":{"android":"levelo://app?vid=8f60d7d0-7cdc-48b3-a763-4552a7d55ea3","ios":"levelo://app?vid=8f60d7d0-7cdc-48b3-a763-4552a7d55ea3"},"vehicle_type_id":"4","last_reported":1741453585,"current_range_meters":4000,"station_id":"","pricing_plan_id":"cebpf4jnsgd1na2vs0mg"},{"bike_id":"47c0671a-1b48-4e75-a020-f0ad28e65ff6","system_id":"levelo_inurba_marseille","lat":43.28698,"lon":5.37383,"is_reserved":false,"is_disabled":false,"rental_uris":{"android":"levelo://app?vid=47c0671a-1b48-4e75-a020-f0ad28e65ff6","ios":"levelo://app?vid=47c0671a-1b48-4e75-a020-f0ad28e65ff6"},"vehicle_type_id":"4","last_reported":1741453585,"current_range_meters":4000,"station_id":"ce4bh3p2rcd13ifvqdq0","pricing_plan_id":"cebpf4jnsgd1na2vs0mg"},{"bike_id":"0b22c446-d77f-4610-b9c4-ae9c25ac2177","system_id":"levelo_inurba_marseille","lat":43.28939,"lon":5.39621,"is_reserved":false,"is_disabled":false,"rental_uris":{"android":"levelo://app?vid=0b22c446-d77f-4610-b9c4-ae9c25ac2177","ios":"levelo://app?vid=0b22c446-d77f-4610-b9c4-ae9c25ac2177"},"vehicle_type_id":"4","last_reported":1741453585,"current_range_meters":4400,"station_id":"ce4bh3h2rcd13ifvqdn0","pricing_plan_id":"cebpf4jnsgd1na2vs0mg"},{"bike_id":"37f757a0-cf3d-43be-95f4-71c7fc88ae82","system_id":"levelo_inurba_marseille","lat":43.29454,"lon":5.39735,"is_reserved":false,"is_disabled":false,"rental_uris":{"android":"levelo://app?vid=37f757a0-cf3d-43be-95f4-71c7fc88ae82","ios":"levelo://app?vid=37f757a0-cf3d-43be-95f4-71c7fc88ae82"},"vehicle_type_id":"4","last_reported":1741453585,"current_range_meters":4400,"station_id":"ce4bh3h2rcd13ifvqdo0","pricing_plan_id":"cebpf4jnsgd1na2vs0mg"},{"bike_id":"4979a7ac-82d3-4ed5-81e5-b61d4c60ae8e","system_id":"levelo_inurba_marseille","lat":43.272045,"lon":5.391836,"is_reserved":false,"is_disabled":false,"rental_uris":{"android":"levelo://app?vid=4979a7ac-82d3-4ed5-81e5-b61d4c60ae8e","ios":"levelo://app?vid=4979a7ac-82d3-4ed5-81e5-b61d4c60ae8e"},"vehicle_type_id":"4","last_reported":1741453585,"current_range_meters":4400,"station_id":"ce4bhhp2rcd13ifvqfm0","pricing_plan_id":"cebpf4jnsgd1na2vs0mg"},{"bike_id":"a0bd272c-b349-4b8d-8f86-e2d4e2edea7f","system_id":"levelo_inurba_marseille","lat":43.27309,"lon":5.39071,"is_reserved":false,"is_disabled":false,"rental_uris":{"android":"levelo://app?vid=a0bd272c-b349-4b8d-8f86-e2d4e2edea7f","ios":"levelo://app?vid=a0bd272c-b349-4b8d-8f86-e2d4e2edea7f"},"vehicle_type_id":"4","last_reported":1741453585,"current_range_meters":4400,"station_id":"ce4bhgp2rcd13ifvqfe0","pricing_plan_id":"cebpf4jnsgd1na2vs0mg"},{"bike_id":"bb05d6ad-c65b-4b79-8d1c-2a638b915663","system_id":"levelo_inurba_marseille","lat":43.31691,"lon":5.40472,"is_reserved":false,"is_disabled":false,"rental_uris":{"android":"levelo://app?vid=bb05d6ad-c65b-4b79-8d1c-2a638b915663","ios":"levelo://app?vid=bb05d6ad-c65b-4b79-8d1c-2a638b915663"},"vehicle_type_id":"4","last_reported":1741453585,"current_range_meters":4400,"station_id":"ce4bh012rcd13ifvqd00","pricing_plan_id":"cebpf4jnsgd1na2vs0mg"},{"bike_id":"c3ace0f1-258a-473f-bbca-705d4d023f18","system_id":"levelo_inurba_marseille","lat":43.25707,"lon":5.41118,"is_reserved":false,"is_disabled":false,"rental_uris":{"android":"levelo://app?vid=c3ace0f1-258a-473f-bbca-705d4d023f18","ios":"levelo://app?vid=c3ace0f1-258a-473f-bbca-705d4d023f18"},"vehicle_type_id":"4","last_reported":1741453585,"current_range_meters":4400,"station_id":"ce4bhkp2rcd13ifvqgd0","pricing_plan_id":"cebpf4jnsgd1na2vs0mg"},{"bike_id":"b5fd918f-6543-4c71-a954-a70af5318160","system_id":"levelo_inurba_marseille","lat":43.29196,"lon":5.35796,"is_reserved":false,"is_disabled":false,"rental_uris":{"android":"levelo://app?vid=b5fd918f-6543-4c71-a954-a70af5318160","ios":"levelo://app?vid=b5fd918f-6543-4c71-a954-a70af5318160"},"vehicle_type_id":"4","last_reported":1741453585,"current_range_meters":4400,"station_id":"ce4bhb12rcd13ifvqel0","pricing_plan_id":"cebpf4jnsgd1na2vs0mg"},{"bike_id":"3236490d-652a-45d8-9907-850a2660f1c7","system_id":"levelo_inurba_marseille","lat":43.29849,"lon":5.37633,"is_reserved":false,"is_disabled":false,"rental_uris":{"android":"levelo://app?vid=3236490d-652a-45d8-9907-850a2660f1c7","ios":"levelo://app?vid=3236490d-652a-45d8-9907-850a2660f1c7"},"vehicle_type_id":"4","last_reported":1741453585,"current_range_meters":4400,"station_id":"","pricing_plan_id":"cebpf4jnsgd1na2vs0mg"},{"bike_id":"072a8254-0021-47e3-a682-f1712370aed0","system_id":"levelo_inurba_marseille","lat":43.289446,"lon":5.363801,"is_reserved":false,"is_disabled":false,"rental_uris":{"android":"levelo://app?vid=072a8254-0021-47e3-a682-f1712370aed0","ios":"levelo://app?vid=072a8254-0021-47e3-a682-f1712370aed0"},"vehicle_type_id":"4","last_reported":1741453585,"current_range_meters":4400,"station_id":"ce4bha92rcd13ifvqeg0","pricing_plan_id":"cebpf4jnsgd1na2vs0mg"},{"bike_id":"1fee6973-e38d-4ace-bdac-29acc87ed0ab","system_id":"levelo_inurba_marseille","lat":43.29905,"lon":5.43648,"is_reserved":false,"is_disabled":false,"rental_uris":{"android":"levelo://app?vid=1fee6973-e38d-4ace-bdac-29acc87ed0ab","ios":"levelo://app?vid=1fee6973-e38d-4ace-bdac-29acc87ed0ab"},"vehicle_type_id":"4","last_reported":1741453585,"current_range_meters":4800,"station_id":"ce4bhpp2rcd13ifvqhfg","pricing_plan_id":"cebpf4jnsgd1na2vs0mg"},{"bike_id":"f569fa99-647d-43a6-b792-42bd0b9ab2ae","system_id":"levelo_inurba_marseille","lat":43.25862,"lon":5.39902,"is_reserved":false,"is_disabled":false,"rental_uris":{"android":"levelo://app?vid=f569fa99-647d-43a6-b792-42bd0b9ab2ae","ios":"levelo://app?vid=f569fa99-647d-43a6-b792-42bd0b9ab2ae"},"vehicle_type_id":"4","last_reported":1741453585,"current_range_meters":4800,"station_id":"ce4bhl92rcd13ifvqghg","pricing_plan_id":"cebpf4jnsgd1na2vs0mg"},{"bike_id":"89b9b55a-1392-498d-b8a5-8520a39c9a74","system_id":"levelo_inurba_marseille","lat":43.29266,"lon":5.40132,"is_reserved":false,"is_disabled":true,"rental_uris":{"android":"levelo://app?vid=89b9b55a-1392-498d-b8a5-8520a39c9a74","ios":"levelo://app?vid=89b9b55a-1392-498d-b8a5-8520a39c9a74"},"vehicle_type_id":"4","last_reported":1741453585,"current_range_meters":4800,"station_id":"ce4bh312rcd13ifvqdk0","pricing_plan_id":"cebpf4jnsgd1na2vs0mg"},{"bike_id":"ef841903-cdc0-4227-af7f-cb9f26dc3c9b","system_id":"levelo_inurba_marseille","lat":43.31411,"lon":5.39256,"is_reserved":false,"is_disabled":false,"rental_uris":{"android":"levelo://app?vid=ef841903-cdc0-4227-af7f-cb9f26dc3c9b","ios":"levelo://app?vid=ef841903-cdc0-4227-af7f-cb9f26dc3c9b"},"vehicle_type_id":"4","last_reported":1741453585,"current_range_meters":4800,"station_id":"","pricing_plan_id":"cebpf4jnsgd1na2vs0mg"},{"bike_id":"c5bbd815-5456-4e53-a826-0e51084ed977","system_id":"levelo_inurba_marseille","lat":43.29422,"lon":5.3863,"is_reserved":false,"is_disabled":false,"rental_uris":{"android":"levelo://app?vid=c5bbd815-5456-4e53-a826-0e51084ed977","ios":"levelo://app?vid=c5bbd815-5456-4e53-a826-0e51084ed977"},"vehicle_type_id":"4","last_reported":1741453585,"current_range_meters":4400,"station_id":"ce4bh2h2rcd13ifvqdh0","pricing_plan_id":"cebpf4jnsgd1na2vs0mg"},{"bike_id":"30af4b38-17f9-4eae-85ca-9d0045cd4d6d","system_id":"levelo_inurba_marseille","lat":43.25719,"lon":5.41107,"is_reserved":false,"is_disabled":false,"rental_uris":{"android":"levelo://app?vid=30af4b38-17f9-4eae-85ca-9d0045cd4d6d","ios":"levelo://app?vid=30af4b38-17f9-4eae-85ca-9d0045cd4d6d"},"vehicle_type_id":"4","last_reported":1741453585,"current_range_meters":4800,"station_id":"ce4bhkp2rcd13ifvqgd0","pricing_plan_id":"cebpf4jnsgd1na2vs0mg"},{"bike_id":"c9d8f222-6d22-450c-91a1-97503c650bd7","system_id":"levelo_inurba_marseille","lat":43.29534,"lon":5.38544,"is_reserved":false,"is_disabled":false,"rental_uris":{"android":"levelo://app?vid=c9d8f222-6d22-450c-91a1-97503c650bd7","ios":"levelo://app?vid=c9d8f222-6d22-450c-91a1-97503c650bd7"},"vehicle_type_id":"4","last_reported":1741453585,"current_range_meters":4800,"station_id":"ce4bgih2rcd13ifvqba0","pricing_plan_id":"cebpf4jnsgd1na2vs0mg"},{"bike_id":"107a8079-0bae-4dd4-b787-0eb1551f63fa","system_id":"levelo_inurba_marseille","lat":43.23062,"lon":5.35488,"is_reserved":false,"is_disabled":false,"rental_uris":{"android":"levelo://app?vid=107a8079-0bae-4dd4-b787-0eb1551f63fa","ios":"levelo://app?vid=107a8079-0bae-4dd4-b787-0eb1551f63fa"},"vehicle_type_id":"4","last_reported":1741453585,"current_range_meters":5600,"station_id":"cpo3342slgdg3j2ifvpg","pricing_plan_id":"cebpf4jnsgd1na2vs0mg"},{"bike_id":"4abda32c-76ee-494e-84db-6fcf0d030575","system_id":"levelo_inurba_marseille","lat":43.29042,"lon":5.3997,"is_reserved":false,"is_disabled":false,"rental_uris":{"android":"levelo://app?vid=4abda32c-76ee-494e-84db-6fcf0d030575","ios":"levelo://app?vid=4abda32c-76ee-494e-84db-6fcf0d030575"},"vehicle_type_id":"4","last_reported":1741453585,"current_range_meters":4800,"station_id":"ce4bh392rcd13ifvqdm0","pricing_plan_id":"cebpf4jnsgd1na2vs0mg"},{"bike_id":"945e23dd-c141-4520-a3b0-2aa9d845c91b","system_id":"levelo_inurba_marseille","lat":43.31892,"lon":5.40733,"is_reserved":false,"is_disabled":false,"rental_uris":{"android":"levelo://app?vid=945e23dd-c141-4520-a3b0-2aa9d845c91b","ios":"levelo://app?vid=945e23dd-c141-4520-a3b0-2aa9d845c91b"},"vehicle_type_id":"4","last_reported":1741453585,"current_range_meters":4800,"station_id":"ce4bhq12rcd13ifvqhig","pricing_plan_id":"cebpf4jnsgd1na2vs0mg"},{"bike_id":"03ca9652-e919-4afd-b2d9-a6136b78ad2d","system_id":"levelo_inurba_marseille","lat":43.24808,"lon":5.37456,"is_reserved":false,"is_disabled":false,"rental_uris":{"android":"levelo://app?vid=03ca9652-e919-4afd-b2d9-a6136b78ad2d","ios":"levelo://app?vid=03ca9652-e919-4afd-b2d9-a6136b78ad2d"},"vehicle_type_id":"4","last_reported":1741453585,"current_range_meters":5600,"station_id":"ce4bhgh2rcd13ifvqfb0","pricing_plan_id":"cebpf4jnsgd1na2vs0mg"},{"bike_id":"466d63e4-332a-4988-88d2-5e76f35a3e4b","system_id":"levelo_inurba_marseille","lat":43.28267,"lon":5.35066,"is_reserved":false,"is_disabled":false,"rental_uris":{"android":"levelo://app?vid=466d63e4-332a-4988-88d2-5e76f35a3e4b","ios":"levelo://app?vid=466d63e4-332a-4988-88d2-5e76f35a3e4b"},"vehicle_type_id":"4","last_reported":1741453585,"current_range_meters":2000,"station_id":"ce4bhbp2rcd13ifvqerg","pricing_plan_id":"cebpf4jnsgd1na2vs0mg"},{"bike_id":"c086275e-1d9e-430c-bb58-8c4da01ebb64","system_id":"levelo_inurba_marseille","lat":43.28684,"lon":5.38672,"is_reserved":false,"is_disabled":false,"rental_uris":{"android":"levelo://app?vid=c086275e-1d9e-430c-bb58-8c4da01ebb64","ios":"levelo://app?vid=c086275e-1d9e-430c-bb58-8c4da01ebb64"},"vehicle_type_id":"4","last_reported":1741453585,"current_range_meters":5600,"station_id":"ce4bh492rcd13ifvqdug","pricing_plan_id":"cebpf4jnsgd1na2vs0mg"},{"bike_id":"46548a9d-f40e-40bc-a9d5-3577197fd9c7","system_id":"levelo_inurba_marseille","lat":43.28319,"lon":5.38499,"is_reserved":false,"is_disabled":false,"rental_uris":{"android":"levelo://app?vid=46548a9d-f40e-40bc-a9d5-3577197fd9c7","ios":"levelo://app?vid=46548a9d-f40e-40bc-a9d5-3577197fd9c7"},"vehicle_type_id":"4","last_reported":1741453585,"current_range_meters":6000,"station_id":"","pricing_plan_id":"cebpf4jnsgd1na2vs0mg"},{"bike_id":"8310cde6-c1e7-4f34-9185-55193707cf9d","system_id":"levelo_inurba_marseille","lat":43.27817,"lon":5.40716,"is_reserved":false,"is_disabled":false,"rental_uris":{"android":"levelo://app?vid=8310cde6-c1e7-4f34-9185-55193707cf9d","ios":"levelo://app?vid=8310cde6-c1e7-4f34-9185-55193707cf9d"},"vehicle_type_id":"4","last_reported":1741453585,"current_range_meters":6000,"station_id":"ce4bhnh2rcd13ifvqgtg","pricing_plan_id":"cebpf4jnsgd1na2vs0mg"},{"bike_id":"51510a95-54e3-4b84-9b22-bfa3391426f3","system_id":"levelo_inurba_marseille","lat":43.23191,"lon":5.35544,"is_reserved":false,"is_disabled":false,"rental_uris":{"android":"levelo://app?vid=51510a95-54e3-4b84-9b22-bfa3391426f3","ios":"levelo://app?vid=51510a95-54e3-4b84-9b22-bfa3391426f3"},"vehicle_type_id":"4","last_reported":1741453585,"current_range_meters":6000,"station_id":"ce4bhu92rcd13ifvqi70","pricing_plan_id":"cebpf4jnsgd1na2vs0mg"},{"bike_id":"936e46b8-ae8f-4e92-9048-2a5d2229a1b9","system_id":"levelo_inurba_marseille","lat":43.26551,"lon":5.37286,"is_reserved":false,"is_disabled":false,"rental_uris":{"android":"levelo://app?vid=936e46b8-ae8f-4e92-9048-2a5d2229a1b9","ios":"levelo://app?vid=936e46b8-ae8f-4e92-9048-2a5d2229a1b9"},"vehicle_type_id":"4","last_reported":1741453585,"current_range_meters":6000,"station_id":"ce4bhg12rcd13ifvqf70","pricing_plan_id":"cebpf4jnsgd1na2vs0mg"},{"bike_id":"66652894-cbfa-4d5c-8f7e-b3f64b4dad12","system_id":"levelo_inurba_marseille","lat":43.28909,"lon":5.38407,"is_reserved":false,"is_disabled":false,"rental_uris":{"android":"levelo://app?vid=66652894-cbfa-4d5c-8f7e-b3f64b4dad12","ios":"levelo://app?vid=66652894-cbfa-4d5c-8f7e-b3f64b4dad12"},"vehicle_type_id":"4","last_reported":1741453585,"current_range_meters":6000,"station_id":"ce4bh612rcd13ifvqe6g","pricing_plan_id":"cebpf4jnsgd1na2vs0mg"},{"bike_id":"1dfdd336-0ac5-4b76-9e1b-c6062c189b37","system_id":"levelo_inurba_marseille","lat":43.29538,"lon":5.39395,"is_reserved":false,"is_disabled":false,"rental_uris":{"android":"levelo://app?vid=1dfdd336-0ac5-4b76-9e1b-c6062c189b37","ios":"levelo://app?vid=1dfdd336-0ac5-4b76-9e1b-c6062c189b37"},"vehicle_type_id":"4","last_reported":1741453585,"current_range_meters":6000,"station_id":"ce4bh292rcd13ifvqdf0","pricing_plan_id":"cebpf4jnsgd1na2vs0mg"},{"bike_id":"a8f559ec-76cc-4840-b8b3-b0efbfa29d26","system_id":"levelo_inurba_marseille","lat":43.316976,"lon":5.377444,"is_reserved":false,"is_disabled":false,"rental_uris":{"android":"levelo://app?vid=a8f559ec-76cc-4840-b8b3-b0efbfa29d26","ios":"levelo://app?vid=a8f559ec-76cc-4840-b8b3-b0efbfa29d26"},"vehicle_type_id":"4","last_reported":1741453585,"current_range_meters":5600,"station_id":"ce4bgth2rcd13ifvqch0","pricing_plan_id":"cebpf4jnsgd1na2vs0mg"},{"bike_id":"db361612-8186-4e1c-a8a1-a778740c3e27","system_id":"levelo_inurba_marseille","lat":43.26068,"lon":5.39374,"is_reserved":false,"is_disabled":false,"rental_uris":{"android":"levelo://app?vid=db361612-8186-4e1c-a8a1-a778740c3e27","ios":"levelo://app?vid=db361612-8186-4e1c-a8a1-a778740c3e27"},"vehicle_type_id":"4","last_reported":1741453585,"current_range_meters":6000,"station_id":"ce4bhh92rcd13ifvqfj0","pricing_plan_id":"cebpf4jnsgd1na2vs0mg"},{"bike_id":"eef5ec15-5766-456c-b910-199003c096e6","system_id":"levelo_inurba_marseille","lat":43.27205,"lon":5.39185,"is_reserved":false,"is_disabled":false,"rental_uris":{"android":"levelo://app?vid=eef5ec15-5766-456c-b910-199003c096e6","ios":"levelo://app?vid=eef5ec15-5766-456c-b910-199003c096e6"},"vehicle_type_id":"4","last_reported":1741453585,"current_range_meters":6000,"station_id":"ce4bhhp2rcd13ifvqfm0","pricing_plan_id":"cebpf4jnsgd1na2vs0mg"},{"bike_id":"aff3998a-f13c-4188-9cbb-5f71462d400a","system_id":"levelo_inurba_marseille","lat":43.2927,"lon":5.38434,"is_reserved":false,"is_disabled":false,"rental_uris":{"android":"levelo://app?vid=aff3998a-f13c-4188-9cbb-5f71462d400a","ios":"levelo://app?vid=aff3998a-f13c-4188-9cbb-5f71462d400a"},"vehicle_type_id":"4","last_reported":1741453585,"current_range_meters":6000,"station_id":"ce4bh692rcd13ifvqea0","pricing_plan_id":"cebpf4jnsgd1na2vs0mg"},{"bike_id":"7909e97e-8c5b-49c5-8504-205237b9a14b","system_id":"levelo_inurba_marseille","lat":43.2962,"lon":5.37718,"is_reserved":false,"is_disabled":false,"rental_uris":{"android":"levelo://app?vid=7909e97e-8c5b-49c5-8504-205237b9a14b","ios":"levelo://app?vid=7909e97e-8c5b-49c5-8504-205237b9a14b"},"vehicle_type_id":"4","last_reported":1741453585,"current_range_meters":6400,"station_id":"ce4bgi92rcd13ifvqb90","pricing_plan_id":"cebpf4jnsgd1na2vs0mg"},{"bike_id":"6e5c1ec0-55c7-428f-ab14-fe8ef478e880","system_id":"levelo_inurba_marseille","lat":43.31878,"lon":5.40282,"is_reserved":false,"is_disabled":false,"rental_uris":{"android":"levelo://app?vid=6e5c1ec0-55c7-428f-ab14-fe8ef478e880","ios":"levelo://app?vid=6e5c1ec0-55c7-428f-ab14-fe8ef478e880"},"vehicle_type_id":"4","last_reported":1741453585,"current_range_meters":6800,"station_id":"","pricing_plan_id":"cebpf4jnsgd1na2vs0mg"},{"bike_id":"845da8ea-cd42-4d73-b4f5-826635f5caf5","system_id":"levelo_inurba_marseille","lat":43.26213,"lon":5.37929,"is_reserved":false,"is_disabled":false,"rental_uris":{"android":"levelo://app?vid=845da8ea-cd42-4d73-b4f5-826635f5caf5","ios":"levelo://app?vid=845da8ea-cd42-4d73-b4f5-826635f5caf5"},"vehicle_type_id":"4","last_reported":1741453585,"current_range_meters":6400,"station_id":"ce4bhjp2rcd13ifvqg90","pricing_plan_id":"cebpf4jnsgd1na2vs0mg"},{"bike_id":"7d295ec4-9c0e-4850-9c53-dd65645b97b2","system_id":"levelo_inurba_marseille","lat":43.26064,"lon":5.39393,"is_reserved":false,"is_disabled":false,"rental_uris":{"android":"levelo://app?vid=7d295ec4-9c0e-4850-9c53-dd65645b97b2","ios":"levelo://app?vid=7d295ec4-9c0e-4850-9c53-dd65645b97b2"},"vehicle_type_id":"4","last_reported":1741453585,"current_range_meters":6800,"station_id":"ce4bhh92rcd13ifvqfj0","pricing_plan_id":"cebpf4jnsgd1na2vs0mg"},{"bike_id":"080fa913-6241-4ec5-b301-6a7ab2548c57","system_id":"levelo_inurba_marseille","lat":43.29572,"lon":5.39977,"is_reserved":false,"is_disabled":false,"rental_uris":{"android":"levelo://app?vid=080fa913-6241-4ec5-b301-6a7ab2548c57","ios":"levelo://app?vid=080fa913-6241-4ec5-b301-6a7ab2548c57"},"vehicle_type_id":"4","last_reported":1741453585,"current_range_meters":6800,"station_id":"ce4bh312rcd13ifvqdj0","pricing_plan_id":"cebpf4jnsgd1na2vs0mg"},{"bike_id":"5f8cc0bc-599f-48cc-a187-9a6be9243724","system_id":"levelo_inurba_marseille","lat":43.24651,"lon":5.38889,"is_reserved":false,"is_disabled":false,"rental_uris":{"android":"levelo://app?vid=5f8cc0bc-599f-48cc-a187-9a6be9243724","ios":"levelo://app?vid=5f8cc0bc-599f-48cc-a187-9a6be9243724"},"vehicle_type_id":"4","last_reported":1741453585,"current_range_meters":6800,"station_id":"ce4bhg12rcd13ifvqf60","pricing_plan_id":"cebpf4jnsgd1na2vs0mg"},{"bike_id":"800c206e-cd4e-4714-a7cb-9f9a6a9f917f","system_id":"levelo_inurba_marseille","lat":43.2861,"lon":5.37063,"is_reserved":false,"is_disabled":false,"rental_uris":{"android":"levelo://app?vid=800c206e-cd4e-4714-a7cb-9f9a6a9f917f","ios":"levelo://app?vid=800c206e-cd4e-4714-a7cb-9f9a6a9f917f"},"vehicle_type_id":"4","last_reported":1741453585,"current_range_meters":6800,"station_id":"ce4bht12rcd13ifvqi60","pricing_plan_id":"cebpf4jnsgd1na2vs0mg"},{"bike_id":"e5c2f9a0-d065-4e10-9bff-a9a02c7dbc80","system_id":"levelo_inurba_marseille","lat":43.29897,"lon":5.43663,"is_reserved":false,"is_disabled":false,"rental_uris":{"android":"levelo://app?vid=e5c2f9a0-d065-4e10-9bff-a9a02c7dbc80","ios":"levelo://app?vid=e5c2f9a0-d065-4e10-9bff-a9a02c7dbc80"},"vehicle_type_id":"4","last_reported":1741453585,"current_range_meters":6800,"station_id":"ce4bhpp2rcd13ifvqhfg","pricing_plan_id":"cebpf4jnsgd1na2vs0mg"},{"bike_id":"46ec6d4d-9a7d-457f-88d3-aefd23cad086","system_id":"levelo_inurba_marseille","lat":43.28266,"lon":5.35073,"is_reserved":false,"is_disabled":false,"rental_uris":{"android":"levelo://app?vid=46ec6d4d-9a7d-457f-88d3-aefd23cad086","ios":"levelo://app?vid=46ec6d4d-9a7d-457f-88d3-aefd23cad086"},"vehicle_type_id":"4","last_reported":1741453585,"current_range_meters":6800,"station_id":"ce4bhbp2rcd13ifvqerg","pricing_plan_id":"cebpf4jnsgd1na2vs0mg"},{"bike_id":"24b53cf3-dec6-4be7-9d68-c6045db11a62","system_id":"levelo_inurba_marseille","lat":43.29879,"lon":5.39744,"is_reserved":false,"is_disabled":false,"rental_uris":{"android":"levelo://app?vid=24b53cf3-dec6-4be7-9d68-c6045db11a62","ios":"levelo://app?vid=24b53cf3-dec6-4be7-9d68-c6045db11a62"},"vehicle_type_id":"4","last_reported":1741453585,"current_range_meters":6800,"station_id":"ce4bh0h2rcd13ifvqd50","pricing_plan_id":"cebpf4jnsgd1na2vs0mg"},{"bike_id":"4297ebe5-0f26-41b5-b652-258fce6afc73","system_id":"levelo_inurba_marseille","lat":43.25503,"lon":5.37653,"is_reserved":false,"is_disabled":false,"rental_uris":{"android":"levelo://app?vid=4297ebe5-0f26-41b5-b652-258fce6afc73","ios":"levelo://app?vid=4297ebe5-0f26-41b5-b652-258fce6afc73"},"vehicle_type_id":"4","last_reported":1741453585,"current_range_meters":7200,"station_id":"ce4bhh12rcd13ifvqff0","pricing_plan_id":"cebpf4jnsgd1na2vs0mg"},{"bike_id":"3761a61a-25ae-47b1-b1d5-ff18d536f9ce","system_id":"levelo_inurba_marseille","lat":43.25306,"lon":5.38207,"is_reserved":false,"is_disabled":false,"rental_uris":{"android":"levelo://app?vid=3761a61a-25ae-47b1-b1d5-ff18d536f9ce","ios":"levelo://app?vid=3761a61a-25ae-47b1-b1d5-ff18d536f9ce"},"vehicle_type_id":"4","last_reported":1741453585,"current_range_meters":7200,"station_id":"","pricing_plan_id":"cebpf4jnsgd1na2vs0mg"},{"bike_id":"350241fd-51e7-41a7-b4fe-68afcf748c75","system_id":"levelo_inurba_marseille","lat":43.28122,"lon":5.42713,"is_reserved":false,"is_disabled":false,"rental_uris":{"android":"levelo://app?vid=350241fd-51e7-41a7-b4fe-68afcf748c75","ios":"levelo://app?vid=350241fd-51e7-41a7-b4fe-68afcf748c75"},"vehicle_type_id":"4","last_reported":1741453585,"current_range_meters":7200,"station_id":"","pricing_plan_id":"cebpf4jnsgd1na2vs0mg"},{"bike_id":"d73294f1-119e-4857-b4f7-b8de2fa33a62","system_id":"levelo_inurba_marseille","lat":43.29608,"lon":5.37713,"is_reserved":false,"is_disabled":false,"rental_uris":{"android":"levelo://app?vid=d73294f1-119e-4857-b4f7-b8de2fa33a62","ios":"levelo://app?vid=d73294f1-119e-4857-b4f7-b8de2fa33a62"},"vehicle_type_id":"4","last_reported":1741453585,"current_range_meters":7200,"station_id":"ce4bgi92rcd13ifvqb90","pricing_plan_id":"cebpf4jnsgd1na2vs0mg"},{"bike_id":"16a38d58-0606-4efa-b07e-f821dbcba192","system_id":"levelo_inurba_marseille","lat":43.28411,"lon":5.37516,"is_reserved":false,"is_disabled":false,"rental_uris":{"android":"levelo://app?vid=16a38d58-0606-4efa-b07e-f821dbcba192","ios":"levelo://app?vid=16a38d58-0606-4efa-b07e-f821dbcba192"},"vehicle_type_id":"4","last_reported":1741453585,"current_range_meters":7200,"station_id":"ce4bh412rcd13ifvqds0","pricing_plan_id":"cebpf4jnsgd1na2vs0mg"},{"bike_id":"b771ecd2-559c-4ac5-81a9-3a23bbaaf35e","system_id":"levelo_inurba_marseille","lat":43.31248,"lon":5.36998,"is_reserved":false,"is_disabled":false,"rental_uris":{"android":"levelo://app?vid=b771ecd2-559c-4ac5-81a9-3a23bbaaf35e","ios":"levelo://app?vid=b771ecd2-559c-4ac5-81a9-3a23bbaaf35e"},"vehicle_type_id":"4","last_reported":1741453585,"current_range_meters":7200,"station_id":"ce4bgt12rcd13ifvqcd0","pricing_plan_id":"cebpf4jnsgd1na2vs0mg"},{"bike_id":"d9da37db-27b5-441d-9aa8-63b7aabce491","system_id":"levelo_inurba_marseille","lat":43.29611,"lon":5.38103,"is_reserved":false,"is_disabled":false,"rental_uris":{"android":"levelo://app?vid=d9da37db-27b5-441d-9aa8-63b7aabce491","ios":"levelo://app?vid=d9da37db-27b5-441d-9aa8-63b7aabce491"},"vehicle_type_id":"4","last_reported":1741453585,"current_range_meters":7200,"station_id":"ce4bgl12rcd13ifvqbo0","pricing_plan_id":"cebpf4jnsgd1na2vs0mg"},{"bike_id":"6a873b76-af90-49c2-a92d-8890917a3f65","system_id":"levelo_inurba_marseille","lat":43.32338,"lon":5.4062,"is_reserved":false,"is_disabled":false,"rental_uris":{"android":"levelo://app?vid=6a873b76-af90-49c2-a92d-8890917a3f65","ios":"levelo://app?vid=6a873b76-af90-49c2-a92d-8890917a3f65"},"vehicle_type_id":"4","last_reported":1741453585,"current_range_meters":8000,"station_id":"ce4bhq92rcd13ifvqhjg","pricing_plan_id":"cebpf4jnsgd1na2vs0mg"},{"bike_id":"e877b581-6a3e-41fa-8dba-40be860b2671","system_id":"levelo_inurba_marseille","lat":43.2905,"lon":5.40037,"is_reserved":false,"is_disabled":false,"rental_uris":{"android":"levelo://app?vid=e877b581-6a3e-41fa-8dba-40be860b2671","ios":"levelo://app?vid=e877b581-6a3e-41fa-8dba-40be860b2671"},"vehicle_type_id":"4","last_reported":1741453585,"current_range_meters":8000,"station_id":"ce4bh392rcd13ifvqdm0","pricing_plan_id":"cebpf4jnsgd1na2vs0mg"},{"bike_id":"8547ceea-0cdd-4afa-babd-3000cb8b7135","system_id":"levelo_inurba_marseille","lat":43.29209,"lon":5.39317,"is_reserved":false,"is_disabled":false,"rental_uris":{"android":"levelo://app?vid=8547ceea-0cdd-4afa-babd-3000cb8b7135","ios":"levelo://app?vid=8547ceea-0cdd-4afa-babd-3000cb8b7135"},"vehicle_type_id":"4","last_reported":1741453585,"current_range_meters":8000,"station_id":"ce4bh192rcd13ifvqdd0","pricing_plan_id":"cebpf4jnsgd1na2vs0mg"},{"bike_id":"a60a714b-c357-487a-ae07-7c9300915823","system_id":"levelo_inurba_marseille","lat":43.26936,"lon":5.40262,"is_reserved":false,"is_disabled":false,"rental_uris":{"android":"levelo://app?vid=a60a714b-c357-487a-ae07-7c9300915823","ios":"levelo://app?vid=a60a714b-c357-487a-ae07-7c9300915823"},"vehicle_type_id":"4","last_reported":1741453585,"current_range_meters":8000,"station_id":"cjm6bp8fraef2m0cb0m0","pricing_plan_id":"cebpf4jnsgd1na2vs0mg"},{"bike_id":"7b62c62b-d961-49e1-afe1-b0b21a291801","system_id":"levelo_inurba_marseille","lat":43.27856,"lon":5.41737,"is_reserved":false,"is_disabled":false,"rental_uris":{"android":"levelo://app?vid=7b62c62b-d961-49e1-afe1-b0b21a291801","ios":"levelo://app?vid=7b62c62b-d961-49e1-afe1-b0b21a291801"},"vehicle_type_id":"4","last_reported":1741453585,"current_range_meters":8000,"station_id":"","pricing_plan_id":"cebpf4jnsgd1na2vs0mg"},{"bike_id":"6168b9a5-7c75-41ec-9447-856d91c26ad7","system_id":"levelo_inurba_marseille","lat":43.29268,"lon":5.40897,"is_reserved":false,"is_disabled":false,"rental_uris":{"android":"levelo://app?vid=6168b9a5-7c75-41ec-9447-856d91c26ad7","ios":"levelo://app?vid=6168b9a5-7c75-41ec-9447-856d91c26ad7"},"vehicle_type_id":"4","last_reported":1741453585,"current_range_meters":8000,"station_id":"ce4bh192rcd13ifvqdc0","pricing_plan_id":"cebpf4jnsgd1na2vs0mg"},{"bike_id":"60fba7df-4520-4d63-9c5b-9a7a002cedfb","system_id":"levelo_inurba_marseille","lat":43.28039,"lon":5.39131,"is_reserved":false,"is_disabled":false,"rental_uris":{"android":"levelo://app?vid=60fba7df-4520-4d63-9c5b-9a7a002cedfb","ios":"levelo://app?vid=60fba7df-4520-4d63-9c5b-9a7a002cedfb"},"vehicle_type_id":"4","last_reported":1741453585,"current_range_meters":8000,"station_id":"","pricing_plan_id":"cebpf4jnsgd1na2vs0mg"},{"bike_id":"3c282d4b-bbd8-459f-b3e4-657b4619ddf4","system_id":"levelo_inurba_marseille","lat":43.29349,"lon":5.37859,"is_reserved":false,"is_disabled":false,"rental_uris":{"android":"levelo://app?vid=3c282d4b-bbd8-459f-b3e4-657b4619ddf4","ios":"levelo://app?vid=3c282d4b-bbd8-459f-b3e4-657b4619ddf4"},"vehicle_type_id":"4","last_reported":1741453585,"current_range_meters":8000,"station_id":"ce4bgjh2rcd13ifvqbf0","pricing_plan_id":"cebpf4jnsgd1na2vs0mg"},{"bike_id":"44877776-6fef-439a-bf28-81ff9eeaf0f4","system_id":"levelo_inurba_marseille","lat":43.31183,"lon":5.38724,"is_reserved":false,"is_disabled":false,"rental_uris":{"android":"levelo://app?vid=44877776-6fef-439a-bf28-81ff9eeaf0f4","ios":"levelo://app?vid=44877776-6fef-439a-bf28-81ff9eeaf0f4"},"vehicle_type_id":"4","last_reported":1741453585,"current_range_meters":8000,"station_id":"ce4bgv12rcd13ifvqcp0","pricing_plan_id":"cebpf4jnsgd1na2vs0mg"},{"bike_id":"3db75652-7472-4034-a9db-02941eb3f1c5","system_id":"levelo_inurba_marseille","lat":43.26193,"lon":5.37445,"is_reserved":false,"is_disabled":false,"rental_uris":{"android":"levelo://app?vid=3db75652-7472-4034-a9db-02941eb3f1c5","ios":"levelo://app?vid=3db75652-7472-4034-a9db-02941eb3f1c5"},"vehicle_type_id":"4","last_reported":1741453585,"current_range_meters":8000,"station_id":"ce4bhgp2rcd13ifvqfc0","pricing_plan_id":"cebpf4jnsgd1na2vs0mg"},{"bike_id":"450dd301-2094-44c8-9f87-f4b8d8d099f5","system_id":"levelo_inurba_marseille","lat":43.29377,"lon":5.37833,"is_reserved":false,"is_disabled":false,"rental_uris":{"android":"levelo://app?vid=450dd301-2094-44c8-9f87-f4b8d8d099f5","ios":"levelo://app?vid=450dd301-2094-44c8-9f87-f4b8d8d099f5"},"vehicle_type_id":"4","last_reported":1741453585,"current_range_meters":8000,"station_id":"ce4bgjh2rcd13ifvqbf0","pricing_plan_id":"cebpf4jnsgd1na2vs0mg"},{"bike_id":"35611de7-8ef2-4297-8c79-23c8a2303142","system_id":"levelo_inurba_marseille","lat":43.26486,"lon":5.39546,"is_reserved":false,"is_disabled":false,"rental_uris":{"android":"levelo://app?vid=35611de7-8ef2-4297-8c79-23c8a2303142","ios":"levelo://app?vid=35611de7-8ef2-4297-8c79-23c8a2303142"},"vehicle_type_id":"4","last_reported":1741453585,"current_range_meters":7200,"station_id":"ce4bhi12rcd13ifvqfq0","pricing_plan_id":"cebpf4jnsgd1na2vs0mg"},{"bike_id":"42627cbc-934d-4248-8141-4dd34edccef9","system_id":"levelo_inurba_marseille","lat":43.2417,"lon":5.36393,"is_reserved":false,"is_disabled":false,"rental_uris":{"android":"levelo://app?vid=42627cbc-934d-4248-8141-4dd34edccef9","ios":"levelo://app?vid=42627cbc-934d-4248-8141-4dd34edccef9"},"vehicle_type_id":"4","last_reported":1741453585,"current_range_meters":8000,"station_id":"cpo36qri1sfpv3e86is0","pricing_plan_id":"cebpf4jnsgd1na2vs0mg"},{"bike_id":"ae8bf988-0940-47dc-8d00-83b4bb630453","system_id":"levelo_inurba_marseille","lat":43.29537,"lon":5.375,"is_reserved":false,"is_disabled":false,"rental_uris":{"android":"levelo://app?vid=ae8bf988-0940-47dc-8d00-83b4bb630453","ios":"levelo://app?vid=ae8bf988-0940-47dc-8d00-83b4bb630453"},"vehicle_type_id":"4","last_reported":1741453585,"current_range_meters":8400,"station_id":"ce4bgkp2rcd13ifvqbmg","pricing_plan_id":"cebpf4jnsgd1na2vs0mg"},{"bike_id":"c25a55e8-12ce-46c9-966b-069b219d08c6","system_id":"levelo_inurba_marseille","lat":43.28674,"lon":5.36357,"is_reserved":false,"is_disabled":false,"rental_uris":{"android":"levelo://app?vid=c25a55e8-12ce-46c9-966b-069b219d08c6","ios":"levelo://app?vid=c25a55e8-12ce-46c9-966b-069b219d08c6"},"vehicle_type_id":"4","last_reported":1741453585,"current_range_meters":8000,"station_id":"ce4bhah2rcd13ifvqej0","pricing_plan_id":"cebpf4jnsgd1na2vs0mg"},{"bike_id":"e524bcef-a391-41b2-bad2-673eae53ea51","system_id":"levelo_inurba_marseille","lat":43.31719,"lon":5.43707,"is_reserved":false,"is_disabled":false,"rental_uris":{"android":"levelo://app?vid=e524bcef-a391-41b2-bad2-673eae53ea51","ios":"levelo://app?vid=e524bcef-a391-41b2-bad2-673eae53ea51"},"vehicle_type_id":"4","last_reported":1741453585,"current_range_meters":8400,"station_id":"ce4bhp92rcd13ifvqhcg","pricing_plan_id":"cebpf4jnsgd1na2vs0mg"},{"bike_id":"5eb418c0-d857-4d2b-9863-96b290677012","system_id":"levelo_inurba_marseille","lat":43.25498,"lon":5.37648,"is_reserved":false,"is_disabled":false,"rental_uris":{"android":"levelo://app?vid=5eb418c0-d857-4d2b-9863-96b290677012","ios":"levelo://app?vid=5eb418c0-d857-4d2b-9863-96b290677012"},"vehicle_type_id":"4","last_reported":1741453585,"current_range_meters":8000,"station_id":"ce4bhh12rcd13ifvqff0","pricing_plan_id":"cebpf4jnsgd1na2vs0mg"},{"bike_id":"cdc39907-34e1-4c32-b1fe-1e861fe8ad67","system_id":"levelo_inurba_marseille","lat":43.28724,"lon":5.37937,"is_reserved":false,"is_disabled":false,"rental_uris":{"android":"levelo://app?vid=cdc39907-34e1-4c32-b1fe-1e861fe8ad67","ios":"levelo://app?vid=cdc39907-34e1-4c32-b1fe-1e861fe8ad67"},"vehicle_type_id":"4","last_reported":1741453585,"current_range_meters":8000,"station_id":"ce4bh9p2rcd13ifvqec0","pricing_plan_id":"cebpf4jnsgd1na2vs0mg"},{"bike_id":"9effefb9-02e3-4c25-ab75-e3a5ac01515f","system_id":"levelo_inurba_marseille","lat":43.26546,"lon":5.37293,"is_reserved":false,"is_disabled":true,"rental_uris":{"android":"levelo://app?vid=9effefb9-02e3-4c25-ab75-e3a5ac01515f","ios":"levelo://app?vid=9effefb9-02e3-4c25-ab75-e3a5ac01515f"},"vehicle_type_id":"4","last_reported":1741453585,"current_range_meters":8400,"station_id":"ce4bhg12rcd13ifvqf70","pricing_plan_id":"cebpf4jnsgd1na2vs0mg"},{"bike_id":"3aa91c8d-a1d8-41d6-a615-5ee65bd9b93c","system_id":"levelo_inurba_marseille","lat":43.26208,"lon":5.37941,"is_reserved":false,"is_disabled":false,"rental_uris":{"android":"levelo://app?vid=3aa91c8d-a1d8-41d6-a615-5ee65bd9b93c","ios":"levelo://app?vid=3aa91c8d-a1d8-41d6-a615-5ee65bd9b93c"},"vehicle_type_id":"4","last_reported":1741453585,"current_range_meters":8400,"station_id":"ce4bhjp2rcd13ifvqg90","pricing_plan_id":"cebpf4jnsgd1na2vs0mg"},{"bike_id":"903ca8fb-a01f-48af-9d7f-844151e9f785","system_id":"levelo_inurba_marseille","lat":43.2795,"lon":5.41054,"is_reserved":false,"is_disabled":true,"rental_uris":{"android":"levelo://app?vid=903ca8fb-a01f-48af-9d7f-844151e9f785","ios":"levelo://app?vid=903ca8fb-a01f-48af-9d7f-844151e9f785"},"vehicle_type_id":"4","last_reported":1741453585,"current_range_meters":8400,"station_id":"ce4bhnp2rcd13ifvqh0g","pricing_plan_id":"cebpf4jnsgd1na2vs0mg"},{"bike_id":"4c63458e-2db0-4cb3-bfc1-7ab137c5f028","system_id":"levelo_inurba_marseille","lat":43.26942,"lon":5.40255,"is_reserved":false,"is_disabled":false,"rental_uris":{"android":"levelo://app?vid=4c63458e-2db0-4cb3-bfc1-7ab137c5f028","ios":"levelo://app?vid=4c63458e-2db0-4cb3-bfc1-7ab137c5f028"},"vehicle_type_id":"4","last_reported":1741453585,"current_range_meters":8400,"station_id":"cjm6bp8fraef2m0cb0m0","pricing_plan_id":"cebpf4jnsgd1na2vs0mg"},{"bike_id":"b37e2e1a-3417-400d-8bca-4276e6a48a99","system_id":"levelo_inurba_marseille","lat":43.23065,"lon":5.35494,"is_reserved":false,"is_disabled":false,"rental_uris":{"android":"levelo://app?vid=b37e2e1a-3417-400d-8bca-4276e6a48a99","ios":"levelo://app?vid=b37e2e1a-3417-400d-8bca-4276e6a48a99"},"vehicle_type_id":"4","last_reported":1741453585,"current_range_meters":8400,"station_id":"cpo3342slgdg3j2ifvpg","pricing_plan_id":"cebpf4jnsgd1na2vs0mg"},{"bike_id":"53bd1732-d8ff-41a5-8f1b-42274afdde26","system_id":"levelo_inurba_marseille","lat":43.2935,"lon":5.42833,"is_reserved":false,"is_disabled":false,"rental_uris":{"android":"levelo://app?vid=53bd1732-d8ff-41a5-8f1b-42274afdde26","ios":"levelo://app?vid=53bd1732-d8ff-41a5-8f1b-42274afdde26"},"vehicle_type_id":"4","last_reported":1741453585,"current_range_meters":8400,"station_id":"","pricing_plan_id":"cebpf4jnsgd1na2vs0mg"},{"bike_id":"3d41b27e-22b3-4f99-b5c7-b50064c6d331","system_id":"levelo_inurba_marseille","lat":43.30141,"lon":5.38785,"is_reserved":false,"is_disabled":false,"rental_uris":{"android":"levelo://app?vid=3d41b27e-22b3-4f99-b5c7-b50064c6d331","ios":"levelo://app?vid=3d41b27e-22b3-4f99-b5c7-b50064c6d331"},"vehicle_type_id":"4","last_reported":1741453585,"current_range_meters":8400,"station_id":"ce4bghh2rcd13ifvqb60","pricing_plan_id":"cebpf4jnsgd1na2vs0mg"},{"bike_id":"cedec610-308c-4929-9902-ed04e4104c49","system_id":"levelo_inurba_marseille","lat":43.32054,"lon":5.41548,"is_reserved":false,"is_disabled":false,"rental_uris":{"android":"levelo://app?vid=cedec610-308c-4929-9902-ed04e4104c49","ios":"levelo://app?vid=cedec610-308c-4929-9902-ed04e4104c49"},"vehicle_type_id":"4","last_reported":1741453585,"current_range_meters":8400,"station_id":"ce4bhq92rcd13ifvqhkg","pricing_plan_id":"cebpf4jnsgd1na2vs0mg"},{"bike_id":"6eb07f1a-ef40-4f1a-9004-60a05f064146","system_id":"levelo_inurba_marseille","lat":43.297853,"lon":5.393499,"is_reserved":false,"is_disabled":false,"rental_uris":{"android":"levelo://app?vid=6eb07f1a-ef40-4f1a-9004-60a05f064146","ios":"levelo://app?vid=6eb07f1a-ef40-4f1a-9004-60a05f064146"},"vehicle_type_id":"4","last_reported":1741453585,"current_range_meters":8800,"station_id":"chh1huq6cuj3fo74tm60","pricing_plan_id":"cebpf4jnsgd1na2vs0mg"},{"bike_id":"540814f8-5793-40eb-8ad8-4d9bb68059c4","system_id":"levelo_inurba_marseille","lat":43.28423,"lon":5.34974,"is_reserved":false,"is_disabled":false,"rental_uris":{"android":"levelo://app?vid=540814f8-5793-40eb-8ad8-4d9bb68059c4","ios":"levelo://app?vid=540814f8-5793-40eb-8ad8-4d9bb68059c4"},"vehicle_type_id":"4","last_reported":1741453585,"current_range_meters":8800,"station_id":"ce4bhbh2rcd13ifvqepg","pricing_plan_id":"cebpf4jnsgd1na2vs0mg"},{"bike_id":"d45c4883-0bc3-4311-9432-480ba285bf85","system_id":"levelo_inurba_marseille","lat":43.24652,"lon":5.38886,"is_reserved":false,"is_disabled":false,"rental_uris":{"android":"levelo://app?vid=d45c4883-0bc3-4311-9432-480ba285bf85","ios":"levelo://app?vid=d45c4883-0bc3-4311-9432-480ba285bf85"},"vehicle_type_id":"4","last_reported":1741453585,"current_range_meters":8800,"station_id":"ce4bhg12rcd13ifvqf60","pricing_plan_id":"cebpf4jnsgd1na2vs0mg"},{"bike_id":"d1c866ae-6380-456a-968f-c9e7c49b0929","system_id":"levelo_inurba_marseille","lat":43.29794,"lon":5.38096,"is_reserved":false,"is_disabled":false,"rental_uris":{"android":"levelo://app?vid=d1c866ae-6380-456a-968f-c9e7c49b0929","ios":"levelo://app?vid=d1c866ae-6380-456a-968f-c9e7c49b0929"},"vehicle_type_id":"4","last_reported":1741453585,"current_range_meters":8800,"station_id":"ce4bgip2rcd13ifvqbb0","pricing_plan_id":"cebpf4jnsgd1na2vs0mg"},{"bike_id":"16ceefdd-2bae-459c-8b32-f1c943adcfc6","system_id":"levelo_inurba_marseille","lat":43.26194,"lon":5.37452,"is_reserved":false,"is_disabled":false,"rental_uris":{"android":"levelo://app?vid=16ceefdd-2bae-459c-8b32-f1c943adcfc6","ios":"levelo://app?vid=16ceefdd-2bae-459c-8b32-f1c943adcfc6"},"vehicle_type_id":"4","last_reported":1741453585,"current_range_meters":8800,"station_id":"ce4bhgp2rcd13ifvqfc0","pricing_plan_id":"cebpf4jnsgd1na2vs0mg"},{"bike_id":"a9941be0-7b4f-462b-948d-964a5caebe36","system_id":"levelo_inurba_marseille","lat":43.31078,"lon":5.3835,"is_reserved":false,"is_disabled":false,"rental_uris":{"android":"levelo://app?vid=a9941be0-7b4f-462b-948d-964a5caebe36","ios":"levelo://app?vid=a9941be0-7b4f-462b-948d-964a5caebe36"},"vehicle_type_id":"4","last_reported":1741453585,"current_range_meters":8800,"station_id":"ce4bgv92rcd13ifvqcr0","pricing_plan_id":"cebpf4jnsgd1na2vs0mg"},{"bike_id":"f20d0823-0190-492d-a7ec-38c60602cdba","system_id":"levelo_inurba_marseille","lat":43.25116,"lon":5.40315,"is_reserved":false,"is_disabled":false,"rental_uris":{"android":"levelo://app?vid=f20d0823-0190-492d-a7ec-38c60602cdba","ios":"levelo://app?vid=f20d0823-0190-492d-a7ec-38c60602cdba"},"vehicle_type_id":"4","last_reported":1741453585,"current_range_meters":8800,"station_id":"ce4bhlh2rcd13ifvqgig","pricing_plan_id":"cebpf4jnsgd1na2vs0mg"},{"bike_id":"cb0d4d15-0ce0-4061-8a04-93bcbe80bd0f","system_id":"levelo_inurba_marseille","lat":43.25921,"lon":5.40888,"is_reserved":false,"is_disabled":false,"rental_uris":{"android":"levelo://app?vid=cb0d4d15-0ce0-4061-8a04-93bcbe80bd0f","ios":"levelo://app?vid=cb0d4d15-0ce0-4061-8a04-93bcbe80bd0f"},"vehicle_type_id":"4","last_reported":1741453585,"current_range_meters":8800,"station_id":"ce4bhm92rcd13ifvqglg","pricing_plan_id":"cebpf4jnsgd1na2vs0mg"},{"bike_id":"29a2dc41-176e-4ce3-9704-1e0c81ed4573","system_id":"levelo_inurba_marseille","lat":43.2609,"lon":5.39316,"is_reserved":false,"is_disabled":false,"rental_uris":{"android":"levelo://app?vid=29a2dc41-176e-4ce3-9704-1e0c81ed4573","ios":"levelo://app?vid=29a2dc41-176e-4ce3-9704-1e0c81ed4573"},"vehicle_type_id":"4","last_reported":1741453585,"current_range_meters":8800,"station_id":"","pricing_plan_id":"cebpf4jnsgd1na2vs0mg"},{"bike_id":"c40900e6-8835-4869-bf84-3e55c420c24f","system_id":"levelo_inurba_marseille","lat":43.27431,"lon":5.39414,"is_reserved":false,"is_disabled":false,"rental_uris":{"android":"levelo://app?vid=c40900e6-8835-4869-bf84-3e55c420c24f","ios":"levelo://app?vid=c40900e6-8835-4869-bf84-3e55c420c24f"},"vehicle_type_id":"4","last_reported":1741453585,"current_range_meters":8800,"station_id":"ce4bhdp2rcd13ifvqf20","pricing_plan_id":"cebpf4jnsgd1na2vs0mg"},{"bike_id":"4f508b50-1e3d-40c5-be77-1e6495edbe07","system_id":"levelo_inurba_marseille","lat":43.25732,"lon":5.41106,"is_reserved":false,"is_disabled":false,"rental_uris":{"android":"levelo://app?vid=4f508b50-1e3d-40c5-be77-1e6495edbe07","ios":"levelo://app?vid=4f508b50-1e3d-40c5-be77-1e6495edbe07"},"vehicle_type_id":"4","last_reported":1741453585,"current_range_meters":9200,"station_id":"ce4bhkp2rcd13ifvqgd0","pricing_plan_id":"cebpf4jnsgd1na2vs0mg"},{"bike_id":"c787a0ef-03a5-4d36-b53c-60238e9036da","system_id":"levelo_inurba_marseille","lat":43.23192,"lon":5.39977,"is_reserved":false,"is_disabled":false,"rental_uris":{"android":"levelo://app?vid=c787a0ef-03a5-4d36-b53c-60238e9036da","ios":"levelo://app?vid=c787a0ef-03a5-4d36-b53c-60238e9036da"},"vehicle_type_id":"4","last_reported":1741453585,"current_range_meters":9200,"station_id":"ce4bhn12rcd13ifvqgqg","pricing_plan_id":"cebpf4jnsgd1na2vs0mg"},{"bike_id":"2cde3626-806a-4fee-8cae-40e81f12e2ee","system_id":"levelo_inurba_marseille","lat":43.3233,"lon":5.4062,"is_reserved":false,"is_disabled":false,"rental_uris":{"android":"levelo://app?vid=2cde3626-806a-4fee-8cae-40e81f12e2ee","ios":"levelo://app?vid=2cde3626-806a-4fee-8cae-40e81f12e2ee"},"vehicle_type_id":"4","last_reported":1741453585,"current_range_meters":8800,"station_id":"ce4bhq92rcd13ifvqhjg","pricing_plan_id":"cebpf4jnsgd1na2vs0mg"},{"bike_id":"80cda234-1815-49ee-9173-c5d13f540d36","system_id":"levelo_inurba_marseille","lat":43.28865,"lon":5.35863,"is_reserved":false,"is_disabled":false,"rental_uris":{"android":"levelo://app?vid=80cda234-1815-49ee-9173-c5d13f540d36","ios":"levelo://app?vid=80cda234-1815-49ee-9173-c5d13f540d36"},"vehicle_type_id":"4","last_reported":1741453585,"current_range_meters":9200,"station_id":"ce4bhb12rcd13ifvqem0","pricing_plan_id":"cebpf4jnsgd1na2vs0mg"},{"bike_id":"a6c74a05-39e7-4da6-8b71-1ba187fc5bae","system_id":"levelo_inurba_marseille","lat":43.30514,"lon":5.36533,"is_reserved":false,"is_disabled":true,"rental_uris":{"android":"levelo://app?vid=a6c74a05-39e7-4da6-8b71-1ba187fc5bae","ios":"levelo://app?vid=a6c74a05-39e7-4da6-8b71-1ba187fc5bae"},"vehicle_type_id":"4","last_reported":1741453585,"current_range_meters":9200,"station_id":"ce4bgs12rcd13ifvqcag","pricing_plan_id":"cebpf4jnsgd1na2vs0mg"},{"bike_id":"fce8ac01-51d1-432b-aec5-980495f1eff6","system_id":"levelo_inurba_marseille","lat":43.25495,"lon":5.3765,"is_reserved":false,"is_disabled":false,"rental_uris":{"android":"levelo://app?vid=fce8ac01-51d1-432b-aec5-980495f1eff6","ios":"levelo://app?vid=fce8ac01-51d1-432b-aec5-980495f1eff6"},"vehicle_type_id":"4","last_reported":1741453585,"current_range_meters":9200,"station_id":"ce4bhh12rcd13ifvqff0","pricing_plan_id":"cebpf4jnsgd1na2vs0mg"},{"bike_id":"b54292f7-ba5a-4ca2-851d-b34190bdf4a8","system_id":"levelo_inurba_marseille","lat":43.32999,"lon":5.3904,"is_reserved":false,"is_disabled":false,"rental_uris":{"android":"levelo://app?vid=b54292f7-ba5a-4ca2-851d-b34190bdf4a8","ios":"levelo://app?vid=b54292f7-ba5a-4ca2-851d-b34190bdf4a8"},"vehicle_type_id":"4","last_reported":1741453585,"current_range_meters":9200,"station_id":"ce4bhr92rcd13ifvqhrg","pricing_plan_id":"cebpf4jnsgd1na2vs0mg"},{"bike_id":"43a3bc6e-eb39-45cc-b11c-dd0cadfebdbc","system_id":"levelo_inurba_marseille","lat":43.27126,"lon":5.40903,"is_reserved":false,"is_disabled":false,"rental_uris":{"android":"levelo://app?vid=43a3bc6e-eb39-45cc-b11c-dd0cadfebdbc","ios":"levelo://app?vid=43a3bc6e-eb39-45cc-b11c-dd0cadfebdbc"},"vehicle_type_id":"4","last_reported":1741453585,"current_range_meters":8800,"station_id":"ce4bhl12rcd13ifvqgf0","pricing_plan_id":"cebpf4jnsgd1na2vs0mg"},{"bike_id":"3a888d23-297b-423b-acb2-e88350dfbd99","system_id":"levelo_inurba_marseille","lat":43.28424,"lon":5.3499,"is_reserved":false,"is_disabled":false,"rental_uris":{"android":"levelo://app?vid=3a888d23-297b-423b-acb2-e88350dfbd99","ios":"levelo://app?vid=3a888d23-297b-423b-acb2-e88350dfbd99"},"vehicle_type_id":"4","last_reported":1741453585,"current_range_meters":9200,"station_id":"ce4bhbh2rcd13ifvqepg","pricing_plan_id":"cebpf4jnsgd1na2vs0mg"},{"bike_id":"9bfe4e82-241b-4620-b471-d226beb88b23","system_id":"levelo_inurba_marseille","lat":43.22912,"lon":5.3537,"is_reserved":false,"is_disabled":false,"rental_uris":{"android":"levelo://app?vid=9bfe4e82-241b-4620-b471-d226beb88b23","ios":"levelo://app?vid=9bfe4e82-241b-4620-b471-d226beb88b23"},"vehicle_type_id":"4","last_reported":1741453585,"current_range_meters":9200,"station_id":"cpo3532slgdg3j2ikp40","pricing_plan_id":"cebpf4jnsgd1na2vs0mg"},{"bike_id":"6b33890b-1f6a-4e4e-aba2-d760fe026ea3","system_id":"levelo_inurba_marseille","lat":43.27497,"lon":5.42446,"is_reserved":false,"is_disabled":false,"rental_uris":{"android":"levelo://app?vid=6b33890b-1f6a-4e4e-aba2-d760fe026ea3","ios":"levelo://app?vid=6b33890b-1f6a-4e4e-aba2-d760fe026ea3"},"vehicle_type_id":"4","last_reported":1741453585,"current_range_meters":8800,"station_id":"ce4bhn92rcd13ifvqgrg","pricing_plan_id":"cebpf4jnsgd1na2vs0mg"},{"bike_id":"049fb279-0f85-4d71-9946-2c1f9d5cd1a0","system_id":"levelo_inurba_marseille","lat":43.2319,"lon":5.39986,"is_reserved":false,"is_disabled":false,"rental_uris":{"android":"levelo://app?vid=049fb279-0f85-4d71-9946-2c1f9d5cd1a0","ios":"levelo://app?vid=049fb279-0f85-4d71-9946-2c1f9d5cd1a0"},"vehicle_type_id":"4","last_reported":1741453585,"current_range_meters":9600,"station_id":"ce4bhn12rcd13ifvqgqg","pricing_plan_id":"cebpf4jnsgd1na2vs0mg"},{"bike_id":"44c0f9a1-99ba-41cb-8f36-0e033c5e16cc","system_id":"levelo_inurba_marseille","lat":43.26194,"lon":5.37447,"is_reserved":false,"is_disabled":false,"rental_uris":{"android":"levelo://app?vid=44c0f9a1-99ba-41cb-8f36-0e033c5e16cc","ios":"levelo://app?vid=44c0f9a1-99ba-41cb-8f36-0e033c5e16cc"},"vehicle_type_id":"4","last_reported":1741453585,"current_range_meters":9600,"station_id":"ce4bhgp2rcd13ifvqfc0","pricing_plan_id":"cebpf4jnsgd1na2vs0mg"},{"bike_id":"a32c994f-39c0-4b8f-94f2-904c12488f42","system_id":"levelo_inurba_marseille","lat":43.24178,"lon":5.39719,"is_reserved":false,"is_disabled":false,"rental_uris":{"android":"levelo://app?vid=a32c994f-39c0-4b8f-94f2-904c12488f42","ios":"levelo://app?vid=a32c994f-39c0-4b8f-94f2-904c12488f42"},"vehicle_type_id":"4","last_reported":1741453585,"current_range_meters":9600,"station_id":"ce4bhn12rcd13ifvqgpg","pricing_plan_id":"cebpf4jnsgd1na2vs0mg"},{"bike_id":"5a0d44d6-d2ad-4977-9e4b-14c7cc6a8e6c","system_id":"levelo_inurba_marseille","lat":43.25825,"lon":5.39436,"is_reserved":false,"is_disabled":false,"rental_uris":{"android":"levelo://app?vid=5a0d44d6-d2ad-4977-9e4b-14c7cc6a8e6c","ios":"levelo://app?vid=5a0d44d6-d2ad-4977-9e4b-14c7cc6a8e6c"},"vehicle_type_id":"4","last_reported":1741453585,"current_range_meters":9600,"station_id":"ce4bhip2rcd13ifvqft0","pricing_plan_id":"cebpf4jnsgd1na2vs0mg"},{"bike_id":"3b78b497-2ec4-4cd4-8c1f-9409dcd1e5ee","system_id":"levelo_inurba_marseille","lat":43.29269,"lon":5.38435,"is_reserved":false,"is_disabled":false,"rental_uris":{"android":"levelo://app?vid=3b78b497-2ec4-4cd4-8c1f-9409dcd1e5ee","ios":"levelo://app?vid=3b78b497-2ec4-4cd4-8c1f-9409dcd1e5ee"},"vehicle_type_id":"4","last_reported":1741453585,"current_range_meters":9600,"station_id":"ce4bh692rcd13ifvqea0","pricing_plan_id":"cebpf4jnsgd1na2vs0mg"},{"bike_id":"439a9d4d-2a56-4f54-a92c-d85a308d8658","system_id":"levelo_inurba_marseille","lat":43.28912,"lon":5.38398,"is_reserved":false,"is_disabled":false,"rental_uris":{"android":"levelo://app?vid=439a9d4d-2a56-4f54-a92c-d85a308d8658","ios":"levelo://app?vid=439a9d4d-2a56-4f54-a92c-d85a308d8658"},"vehicle_type_id":"4","last_reported":1741453585,"current_range_meters":9600,"station_id":"ce4bh612rcd13ifvqe6g","pricing_plan_id":"cebpf4jnsgd1na2vs0mg"},{"bike_id":"4953df91-06bc-47e0-82b0-3bd3da4be66b","system_id":"levelo_inurba_marseille","lat":43.29531,"lon":5.38552,"is_reserved":false,"is_disabled":true,"rental_uris":{"android":"levelo://app?vid=4953df91-06bc-47e0-82b0-3bd3da4be66b","ios":"levelo://app?vid=4953df91-06bc-47e0-82b0-3bd3da4be66b"},"vehicle_type_id":"4","last_reported":1741453585,"current_range_meters":9600,"station_id":"ce4bgih2rcd13ifvqba0","pricing_plan_id":"cebpf4jnsgd1na2vs0mg"},{"bike_id":"e16e7407-8098-4cdc-a429-c5458a46e9ef","system_id":"levelo_inurba_marseille","lat":43.27562,"lon":5.38428,"is_reserved":false,"is_disabled":false,"rental_uris":{"android":"levelo://app?vid=e16e7407-8098-4cdc-a429-c5458a46e9ef","ios":"levelo://app?vid=e16e7407-8098-4cdc-a429-c5458a46e9ef"},"vehicle_type_id":"4","last_reported":1741453585,"current_range_meters":9600,"station_id":"ce4bhh92rcd13ifvqfi0","pricing_plan_id":"cebpf4jnsgd1na2vs0mg"},{"bike_id":"16a2e177-c6d7-4c95-9513-2490218fc0eb","system_id":"levelo_inurba_marseille","lat":43.28082,"lon":5.39647,"is_reserved":false,"is_disabled":false,"rental_uris":{"android":"levelo://app?vid=16a2e177-c6d7-4c95-9513-2490218fc0eb","ios":"levelo://app?vid=16a2e177-c6d7-4c95-9513-2490218fc0eb"},"vehicle_type_id":"4","last_reported":1741453585,"current_range_meters":10000,"station_id":"ce4bho12rcd13ifvqh2g","pricing_plan_id":"cebpf4jnsgd1na2vs0mg"},{"bike_id":"9d6672d6-abe5-45fd-aa97-02b3f441cf17","system_id":"levelo_inurba_marseille","lat":43.30312,"lon":5.40424,"is_reserved":false,"is_disabled":false,"rental_uris":{"android":"levelo://app?vid=9d6672d6-abe5-45fd-aa97-02b3f441cf17","ios":"levelo://app?vid=9d6672d6-abe5-45fd-aa97-02b3f441cf17"},"vehicle_type_id":"4","last_reported":1741453585,"current_range_meters":10000,"station_id":"ce4bh012rcd13ifvqd10","pricing_plan_id":"cebpf4jnsgd1na2vs0mg"},{"bike_id":"215d04f7-ccb4-49fb-b4ac-74d0dc269c59","system_id":"levelo_inurba_marseille","lat":43.296,"lon":5.38102,"is_reserved":false,"is_disabled":false,"rental_uris":{"android":"levelo://app?vid=215d04f7-ccb4-49fb-b4ac-74d0dc269c59","ios":"levelo://app?vid=215d04f7-ccb4-49fb-b4ac-74d0dc269c59"},"vehicle_type_id":"4","last_reported":1741453585,"current_range_meters":10000,"station_id":"ce4bgl12rcd13ifvqbo0","pricing_plan_id":"cebpf4jnsgd1na2vs0mg"},{"bike_id":"d9908f92-b0d5-4fd2-bbdf-84f8c1bb17fb","system_id":"levelo_inurba_marseille","lat":43.29094,"lon":5.38145,"is_reserved":false,"is_disabled":false,"rental_uris":{"android":"levelo://app?vid=d9908f92-b0d5-4fd2-bbdf-84f8c1bb17fb","ios":"levelo://app?vid=d9908f92-b0d5-4fd2-bbdf-84f8c1bb17fb"},"vehicle_type_id":"4","last_reported":1741453585,"current_range_meters":10000,"station_id":"ce4bh512rcd13ifvqe2g","pricing_plan_id":"cebpf4jnsgd1na2vs0mg"},{"bike_id":"b2c2514d-58df-4080-9acc-0a3325c87525","system_id":"levelo_inurba_marseille","lat":43.32356,"lon":5.36809,"is_reserved":false,"is_disabled":false,"rental_uris":{"android":"levelo://app?vid=b2c2514d-58df-4080-9acc-0a3325c87525","ios":"levelo://app?vid=b2c2514d-58df-4080-9acc-0a3325c87525"},"vehicle_type_id":"4","last_reported":1741453585,"current_range_meters":10000,"station_id":"ce4bhsh2rcd13ifvqi2g","pricing_plan_id":"cebpf4jnsgd1na2vs0mg"},{"bike_id":"fdf45df4-47d5-41e8-a6c7-03ee85585140","system_id":"levelo_inurba_marseille","lat":43.26778,"lon":5.39432,"is_reserved":false,"is_disabled":true,"rental_uris":{"android":"levelo://app?vid=fdf45df4-47d5-41e8-a6c7-03ee85585140","ios":"levelo://app?vid=fdf45df4-47d5-41e8-a6c7-03ee85585140"},"vehicle_type_id":"4","last_reported":1741453585,"current_range_meters":10000,"station_id":"ce4bhh12rcd13ifvqfg0","pricing_plan_id":"cebpf4jnsgd1na2vs0mg"},{"bike_id":"1e6083a2-f7de-497d-8606-de1d8340ea00","system_id":"levelo_inurba_marseille","lat":43.28422,"lon":5.34992,"is_reserved":false,"is_disabled":false,"rental_uris":{"android":"levelo://app?vid=1e6083a2-f7de-497d-8606-de1d8340ea00","ios":"levelo://app?vid=1e6083a2-f7de-497d-8606-de1d8340ea00"},"vehicle_type_id":"4","last_reported":1741453585,"current_range_meters":10000,"station_id":"ce4bhbh2rcd13ifvqepg","pricing_plan_id":"cebpf4jnsgd1na2vs0mg"},{"bike_id":"692c3fd1-e388-4c38-bc5f-023f56dd0104","system_id":"levelo_inurba_marseille","lat":43.25679,"lon":5.41088,"is_reserved":false,"is_disabled":false,"rental_uris":{"android":"levelo://app?vid=692c3fd1-e388-4c38-bc5f-023f56dd0104","ios":"levelo://app?vid=692c3fd1-e388-4c38-bc5f-023f56dd0104"},"vehicle_type_id":"4","last_reported":1741453585,"current_range_meters":10000,"station_id":"ce4bhkp2rcd13ifvqgd0","pricing_plan_id":"cebpf4jnsgd1na2vs0mg"},{"bike_id":"9b1f19f3-1c53-4508-84f3-98211193a5e4","system_id":"levelo_inurba_marseille","lat":43.28864,"lon":5.35853,"is_reserved":false,"is_disabled":false,"rental_uris":{"android":"levelo://app?vid=9b1f19f3-1c53-4508-84f3-98211193a5e4","ios":"levelo://app?vid=9b1f19f3-1c53-4508-84f3-98211193a5e4"},"vehicle_type_id":"4","last_reported":1741453585,"current_range_meters":10000,"station_id":"ce4bhb12rcd13ifvqem0","pricing_plan_id":"cebpf4jnsgd1na2vs0mg"},{"bike_id":"228693fe-b916-457c-ae08-49f803366e73","system_id":"levelo_inurba_marseille","lat":43.28423,"lon":5.34993,"is_reserved":false,"is_disabled":false,"rental_uris":{"android":"levelo://app?vid=228693fe-b916-457c-ae08-49f803366e73","ios":"levelo://app?vid=228693fe-b916-457c-ae08-49f803366e73"},"vehicle_type_id":"4","last_reported":1741453585,"current_range_meters":10000,"station_id":"ce4bhbh2rcd13ifvqepg","pricing_plan_id":"cebpf4jnsgd1na2vs0mg"},{"bike_id":"b533f38f-df9a-4e01-86fb-08f4b9bfcdfb","system_id":"levelo_inurba_marseille","lat":43.26222,"lon":5.42131,"is_reserved":false,"is_disabled":false,"rental_uris":{"android":"levelo://app?vid=b533f38f-df9a-4e01-86fb-08f4b9bfcdfb","ios":"levelo://app?vid=b533f38f-df9a-4e01-86fb-08f4b9bfcdfb"},"vehicle_type_id":"4","last_reported":1741453585,"current_range_meters":10000,"station_id":"","pricing_plan_id":"cebpf4jnsgd1na2vs0mg"},{"bike_id":"e963c1be-83df-4212-97d8-8b1cd2e91315","system_id":"levelo_inurba_marseille","lat":43.23203,"lon":5.35572,"is_reserved":false,"is_disabled":false,"rental_uris":{"android":"levelo://app?vid=e963c1be-83df-4212-97d8-8b1cd2e91315","ios":"levelo://app?vid=e963c1be-83df-4212-97d8-8b1cd2e91315"},"vehicle_type_id":"4","last_reported":1741453585,"current_range_meters":10000,"station_id":"ce4bhu92rcd13ifvqi70","pricing_plan_id":"cebpf4jnsgd1na2vs0mg"},{"bike_id":"680f50b0-bd88-46fa-8b64-7606994c73f2","system_id":"levelo_inurba_marseille","lat":43.29632,"lon":5.3714,"is_reserved":false,"is_disabled":true,"rental_uris":{"android":"levelo://app?vid=680f50b0-bd88-46fa-8b64-7606994c73f2","ios":"levelo://app?vid=680f50b0-bd88-46fa-8b64-7606994c73f2"},"vehicle_type_id":"4","last_reported":1741453585,"current_range_meters":10800,"station_id":"ce4bgnh2rcd13ifvqc0g","pricing_plan_id":"cebpf4jnsgd1na2vs0mg"},{"bike_id":"30304f68-152b-4b2a-bda1-45fafdd42293","system_id":"levelo_inurba_marseille","lat":43.27375,"lon":5.36247,"is_reserved":false,"is_disabled":false,"rental_uris":{"android":"levelo://app?vid=30304f68-152b-4b2a-bda1-45fafdd42293","ios":"levelo://app?vid=30304f68-152b-4b2a-bda1-45fafdd42293"},"vehicle_type_id":"4","last_reported":1741453585,"current_range_meters":10800,"station_id":"ce4bhbh2rcd13ifvqeo0","pricing_plan_id":"cebpf4jnsgd1na2vs0mg"},{"bike_id":"fefd6f4b-d006-4ccc-b956-d195f863ca54","system_id":"levelo_inurba_marseille","lat":43.25494,"lon":5.3764,"is_reserved":false,"is_disabled":false,"rental_uris":{"android":"levelo://app?vid=fefd6f4b-d006-4ccc-b956-d195f863ca54","ios":"levelo://app?vid=fefd6f4b-d006-4ccc-b956-d195f863ca54"},"vehicle_type_id":"4","last_reported":1741453585,"current_range_meters":10800,"station_id":"ce4bhh12rcd13ifvqff0","pricing_plan_id":"cebpf4jnsgd1na2vs0mg"},{"bike_id":"98e06aa5-060c-4634-b637-08a2775f4c24","system_id":"levelo_inurba_marseille","lat":43.26554,"lon":5.38978,"is_reserved":false,"is_disabled":false,"rental_uris":{"android":"levelo://app?vid=98e06aa5-060c-4634-b637-08a2775f4c24","ios":"levelo://app?vid=98e06aa5-060c-4634-b637-08a2775f4c24"},"vehicle_type_id":"4","last_reported":1741453585,"current_range_meters":10800,"station_id":"ce4bhe12rcd13ifvqf30","pricing_plan_id":"cebpf4jnsgd1na2vs0mg"},{"bike_id":"4cf8ee6e-a61e-4feb-a1a3-d660e979523b","system_id":"levelo_inurba_marseille","lat":43.27957,"lon":5.3873,"is_reserved":false,"is_disabled":false,"rental_uris":{"android":"levelo://app?vid=4cf8ee6e-a61e-4feb-a1a3-d660e979523b","ios":"levelo://app?vid=4cf8ee6e-a61e-4feb-a1a3-d660e979523b"},"vehicle_type_id":"4","last_reported":1741453585,"current_range_meters":10800,"station_id":"ce4bhg12rcd13ifvqf80","pricing_plan_id":"cebpf4jnsgd1na2vs0mg"},{"bike_id":"d6cc35d0-f9cf-4021-852a-67fd4a9ee9bd","system_id":"levelo_inurba_marseille","lat":43.29529,"lon":5.38545,"is_reserved":false,"is_disabled":false,"rental_uris":{"android":"levelo://app?vid=d6cc35d0-f9cf-4021-852a-67fd4a9ee9bd","ios":"levelo://app?vid=d6cc35d0-f9cf-4021-852a-67fd4a9ee9bd"},"vehicle_type_id":"4","last_reported":1741453585,"current_range_meters":10800,"station_id":"ce4bgih2rcd13ifvqba0","pricing_plan_id":"cebpf4jnsgd1na2vs0mg"},{"bike_id":"ac42b341-42fd-4d9b-ab08-20f55c01042d","system_id":"levelo_inurba_marseille","lat":43.33608,"lon":5.41031,"is_reserved":false,"is_disabled":false,"rental_uris":{"android":"levelo://app?vid=ac42b341-42fd-4d9b-ab08-20f55c01042d","ios":"levelo://app?vid=ac42b341-42fd-4d9b-ab08-20f55c01042d"},"vehicle_type_id":"4","last_reported":1741453585,"current_range_meters":9200,"station_id":"ce4bhqh2rcd13ifvqhmg","pricing_plan_id":"cebpf4jnsgd1na2vs0mg"},{"bike_id":"388ea826-f5fa-4632-a530-45d13cc0a769","system_id":"levelo_inurba_marseille","lat":43.23191,"lon":5.39991,"is_reserved":false,"is_disabled":false,"rental_uris":{"android":"levelo://app?vid=388ea826-f5fa-4632-a530-45d13cc0a769","ios":"levelo://app?vid=388ea826-f5fa-4632-a530-45d13cc0a769"},"vehicle_type_id":"4","last_reported":1741453585,"current_range_meters":10800,"station_id":"ce4bhn12rcd13ifvqgqg","pricing_plan_id":"cebpf4jnsgd1na2vs0mg"},{"bike_id":"93642628-15f9-4b6a-a4f1-41e403b96a9c","system_id":"levelo_inurba_marseille","lat":43.29788,"lon":5.39339,"is_reserved":false,"is_disabled":false,"rental_uris":{"android":"levelo://app?vid=93642628-15f9-4b6a-a4f1-41e403b96a9c","ios":"levelo://app?vid=93642628-15f9-4b6a-a4f1-41e403b96a9c"},"vehicle_type_id":"4","last_reported":1741453585,"current_range_meters":10800,"station_id":"chh1huq6cuj3fo74tm60","pricing_plan_id":"cebpf4jnsgd1na2vs0mg"},{"bike_id":"b937a2ea-4e50-4649-a7db-15aee8d48288","system_id":"levelo_inurba_marseille","lat":43.28998,"lon":5.35599,"is_reserved":false,"is_disabled":false,"rental_uris":{"android":"levelo://app?vid=b937a2ea-4e50-4649-a7db-15aee8d48288","ios":"levelo://app?vid=b937a2ea-4e50-4649-a7db-15aee8d48288"},"vehicle_type_id":"4","last_reported":1741453585,"current_range_meters":10800,"station_id":"ce4bhb92rcd13ifvqen0","pricing_plan_id":"cebpf4jnsgd1na2vs0mg"},{"bike_id":"436bcdbb-61d6-407c-bb12-7dc81cb26c80","system_id":"levelo_inurba_marseille","lat":43.29255,"lon":5.3762,"is_reserved":false,"is_disabled":false,"rental_uris":{"android":"levelo://app?vid=436bcdbb-61d6-407c-bb12-7dc81cb26c80","ios":"levelo://app?vid=436bcdbb-61d6-407c-bb12-7dc81cb26c80"},"vehicle_type_id":"4","last_reported":1741453585,"current_range_meters":10800,"station_id":"ce4bgi12rcd13ifvqb80","pricing_plan_id":"cebpf4jnsgd1na2vs0mg"},{"bike_id":"09d9a14e-f3a3-4253-ac13-0312300f15c6","system_id":"levelo_inurba_marseille","lat":43.23149,"lon":5.43713,"is_reserved":false,"is_disabled":false,"rental_uris":{"android":"levelo://app?vid=09d9a14e-f3a3-4253-ac13-0312300f15c6","ios":"levelo://app?vid=09d9a14e-f3a3-4253-ac13-0312300f15c6"},"vehicle_type_id":"4","last_reported":1741453585,"current_range_meters":10800,"station_id":"ce4bhmp2rcd13ifvqgog","pricing_plan_id":"cebpf4jnsgd1na2vs0mg"},{"bike_id":"e9cc04fa-a5e1-492c-a49b-8b653c378374","system_id":"levelo_inurba_marseille","lat":43.27309,"lon":5.39072,"is_reserved":false,"is_disabled":false,"rental_uris":{"android":"levelo://app?vid=e9cc04fa-a5e1-492c-a49b-8b653c378374","ios":"levelo://app?vid=e9cc04fa-a5e1-492c-a49b-8b653c378374"},"vehicle_type_id":"4","last_reported":1741453585,"current_range_meters":11200,"station_id":"ce4bhgp2rcd13ifvqfe0","pricing_plan_id":"cebpf4jnsgd1na2vs0mg"},{"bike_id":"7871c372-159b-486a-a879-89f751ee69cb","system_id":"levelo_inurba_marseille","lat":43.24664,"lon":5.38138,"is_reserved":false,"is_disabled":false,"rental_uris":{"android":"levelo://app?vid=7871c372-159b-486a-a879-89f751ee69cb","ios":"levelo://app?vid=7871c372-159b-486a-a879-89f751ee69cb"},"vehicle_type_id":"4","last_reported":1741453585,"current_range_meters":11200,"station_id":"ce4bhih2rcd13ifvqfr0","pricing_plan_id":"cebpf4jnsgd1na2vs0mg"},{"bike_id":"f3a51d33-8829-48fc-bce3-a6758bed5a15","system_id":"levelo_inurba_marseille","lat":43.28933,"lon":5.38382,"is_reserved":false,"is_disabled":false,"rental_uris":{"android":"levelo://app?vid=f3a51d33-8829-48fc-bce3-a6758bed5a15","ios":"levelo://app?vid=f3a51d33-8829-48fc-bce3-a6758bed5a15"},"vehicle_type_id":"4","last_reported":1741453585,"current_range_meters":11200,"station_id":"ce4bh612rcd13ifvqe6g","pricing_plan_id":"cebpf4jnsgd1na2vs0mg"},{"bike_id":"d0834ebf-07d6-4b82-a3a0-449d67fc5274","system_id":"levelo_inurba_marseille","lat":43.27181,"lon":5.40993,"is_reserved":false,"is_disabled":false,"rental_uris":{"android":"levelo://app?vid=d0834ebf-07d6-4b82-a3a0-449d67fc5274","ios":"levelo://app?vid=d0834ebf-07d6-4b82-a3a0-449d67fc5274"},"vehicle_type_id":"4","last_reported":1741453585,"current_range_meters":11600,"station_id":"ce4bhl12rcd13ifvqgf0","pricing_plan_id":"cebpf4jnsgd1na2vs0mg"},{"bike_id":"58912913-070d-4f68-94ac-282dc0181e33","system_id":"levelo_inurba_marseille","lat":43.29735,"lon":5.37863,"is_reserved":false,"is_disabled":false,"rental_uris":{"android":"levelo://app?vid=58912913-070d-4f68-94ac-282dc0181e33","ios":"levelo://app?vid=58912913-070d-4f68-94ac-282dc0181e33"},"vehicle_type_id":"4","last_reported":1741453585,"current_range_meters":11600,"station_id":"","pricing_plan_id":"cebpf4jnsgd1na2vs0mg"},{"bike_id":"6de8eb18-d4f7-488f-8553-8bddd5edafd6","system_id":"levelo_inurba_marseille","lat":43.25875,"lon":5.39891,"is_reserved":false,"is_disabled":false,"rental_uris":{"android":"levelo://app?vid=6de8eb18-d4f7-488f-8553-8bddd5edafd6","ios":"levelo://app?vid=6de8eb18-d4f7-488f-8553-8bddd5edafd6"},"vehicle_type_id":"4","last_reported":1741453585,"current_range_meters":11200,"station_id":"ce4bhl92rcd13ifvqghg","pricing_plan_id":"cebpf4jnsgd1na2vs0mg"},{"bike_id":"f4c4f186-8294-49dc-bcc0-249a70a179b1","system_id":"levelo_inurba_marseille","lat":43.29519,"lon":5.39404,"is_reserved":false,"is_disabled":false,"rental_uris":{"android":"levelo://app?vid=f4c4f186-8294-49dc-bcc0-249a70a179b1","ios":"levelo://app?vid=f4c4f186-8294-49dc-bcc0-249a70a179b1"},"vehicle_type_id":"4","last_reported":1741453585,"current_range_meters":11600,"station_id":"ce4bh292rcd13ifvqdf0","pricing_plan_id":"cebpf4jnsgd1na2vs0mg"},{"bike_id":"09baa4b4-1986-47c4-9941-629ce879fa2e","system_id":"levelo_inurba_marseille","lat":43.29395,"lon":5.37841,"is_reserved":false,"is_disabled":false,"rental_uris":{"android":"levelo://app?vid=09baa4b4-1986-47c4-9941-629ce879fa2e","ios":"levelo://app?vid=09baa4b4-1986-47c4-9941-629ce879fa2e"},"vehicle_type_id":"4","last_reported":1741453585,"current_range_meters":11600,"station_id":"ce4bgjh2rcd13ifvqbf0","pricing_plan_id":"cebpf4jnsgd1na2vs0mg"},{"bike_id":"f768c843-4cbf-4829-952f-d73a2c4dc840","system_id":"levelo_inurba_marseille","lat":43.29784,"lon":5.39332,"is_reserved":false,"is_disabled":false,"rental_uris":{"android":"levelo://app?vid=f768c843-4cbf-4829-952f-d73a2c4dc840","ios":"levelo://app?vid=f768c843-4cbf-4829-952f-d73a2c4dc840"},"vehicle_type_id":"4","last_reported":1741453585,"current_range_meters":11600,"station_id":"chh1huq6cuj3fo74tm60","pricing_plan_id":"cebpf4jnsgd1na2vs0mg"},{"bike_id":"cdc6fa71-b8c0-46e7-902c-4e18b52385d2","system_id":"levelo_inurba_marseille","lat":43.28849,"lon":5.39996,"is_reserved":false,"is_disabled":false,"rental_uris":{"android":"levelo://app?vid=cdc6fa71-b8c0-46e7-902c-4e18b52385d2","ios":"levelo://app?vid=cdc6fa71-b8c0-46e7-902c-4e18b52385d2"},"vehicle_type_id":"4","last_reported":1741453585,"current_range_meters":11600,"station_id":"","pricing_plan_id":"cebpf4jnsgd1na2vs0mg"},{"bike_id":"38256e0f-a5fb-411b-b1b0-62cc5c6329bf","system_id":"levelo_inurba_marseille","lat":43.24656,"lon":5.38891,"is_reserved":false,"is_disabled":false,"rental_uris":{"android":"levelo://app?vid=38256e0f-a5fb-411b-b1b0-62cc5c6329bf","ios":"levelo://app?vid=38256e0f-a5fb-411b-b1b0-62cc5c6329bf"},"vehicle_type_id":"4","last_reported":1741453585,"current_range_meters":11600,"station_id":"ce4bhg12rcd13ifvqf60","pricing_plan_id":"cebpf4jnsgd1na2vs0mg"},{"bike_id":"1e3fbfff-e53a-450b-94b9-625012fb4232","system_id":"levelo_inurba_marseille","lat":43.30337,"lon":5.40434,"is_reserved":false,"is_disabled":false,"rental_uris":{"android":"levelo://app?vid=1e3fbfff-e53a-450b-94b9-625012fb4232","ios":"levelo://app?vid=1e3fbfff-e53a-450b-94b9-625012fb4232"},"vehicle_type_id":"4","last_reported":1741453585,"current_range_meters":12000,"station_id":"ce4bh012rcd13ifvqd10","pricing_plan_id":"cebpf4jnsgd1na2vs0mg"},{"bike_id":"5c2d575e-2085-41c8-998e-61c3d781ed4c","system_id":"levelo_inurba_marseille","lat":43.28406,"lon":5.37515,"is_reserved":false,"is_disabled":false,"rental_uris":{"android":"levelo://app?vid=5c2d575e-2085-41c8-998e-61c3d781ed4c","ios":"levelo://app?vid=5c2d575e-2085-41c8-998e-61c3d781ed4c"},"vehicle_type_id":"4","last_reported":1741453585,"current_range_meters":12000,"station_id":"ce4bh412rcd13ifvqds0","pricing_plan_id":"cebpf4jnsgd1na2vs0mg"},{"bike_id":"30ca0a12-56c0-4feb-9059-10680035a6ae","system_id":"levelo_inurba_marseille","lat":43.28702,"lon":5.37394,"is_reserved":false,"is_disabled":true,"rental_uris":{"android":"levelo://app?vid=30ca0a12-56c0-4feb-9059-10680035a6ae","ios":"levelo://app?vid=30ca0a12-56c0-4feb-9059-10680035a6ae"},"vehicle_type_id":"4","last_reported":1741453585,"current_range_meters":12000,"station_id":"ce4bh3p2rcd13ifvqdq0","pricing_plan_id":"cebpf4jnsgd1na2vs0mg"},{"bike_id":"5162403c-d052-4196-8804-0be71b2a5775","system_id":"levelo_inurba_marseille","lat":43.23196,"lon":5.3556,"is_reserved":false,"is_disabled":false,"rental_uris":{"android":"levelo://app?vid=5162403c-d052-4196-8804-0be71b2a5775","ios":"levelo://app?vid=5162403c-d052-4196-8804-0be71b2a5775"},"vehicle_type_id":"4","last_reported":1741453585,"current_range_meters":12000,"station_id":"ce4bhu92rcd13ifvqi70","pricing_plan_id":"cebpf4jnsgd1na2vs0mg"},{"bike_id":"b1dc91e2-3c8c-4bcf-b24a-18069fb60f8a","system_id":"levelo_inurba_marseille","lat":43.29606,"lon":5.38097,"is_reserved":false,"is_disabled":false,"rental_uris":{"android":"levelo://app?vid=b1dc91e2-3c8c-4bcf-b24a-18069fb60f8a","ios":"levelo://app?vid=b1dc91e2-3c8c-4bcf-b24a-18069fb60f8a"},"vehicle_type_id":"4","last_reported":1741453585,"current_range_meters":12000,"station_id":"ce4bgl12rcd13ifvqbo0","pricing_plan_id":"cebpf4jnsgd1na2vs0mg"},{"bike_id":"ecdc9aac-f59a-4645-afd1-793faabb973a","system_id":"levelo_inurba_marseille","lat":43.296143,"lon":5.377164,"is_reserved":false,"is_disabled":false,"rental_uris":{"android":"levelo://app?vid=ecdc9aac-f59a-4645-afd1-793faabb973a","ios":"levelo://app?vid=ecdc9aac-f59a-4645-afd1-793faabb973a"},"vehicle_type_id":"4","last_reported":1741453585,"current_range_meters":12000,"station_id":"ce4bgj92rcd13ifvqbd0","pricing_plan_id":"cebpf4jnsgd1na2vs0mg"},{"bike_id":"5bc5e6b1-41e4-436c-8101-e22bf3160d4c","system_id":"levelo_inurba_marseille","lat":43.29514,"lon":5.39405,"is_reserved":false,"is_disabled":false,"rental_uris":{"android":"levelo://app?vid=5bc5e6b1-41e4-436c-8101-e22bf3160d4c","ios":"levelo://app?vid=5bc5e6b1-41e4-436c-8101-e22bf3160d4c"},"vehicle_type_id":"4","last_reported":1741453585,"current_range_meters":12000,"station_id":"ce4bh292rcd13ifvqdf0","pricing_plan_id":"cebpf4jnsgd1na2vs0mg"},{"bike_id":"9e117c7e-6f96-4de1-a95d-fddf0ad26058","system_id":"levelo_inurba_marseille","lat":43.26557,"lon":5.37314,"is_reserved":false,"is_disabled":false,"rental_uris":{"android":"levelo://app?vid=9e117c7e-6f96-4de1-a95d-fddf0ad26058","ios":"levelo://app?vid=9e117c7e-6f96-4de1-a95d-fddf0ad26058"},"vehicle_type_id":"4","last_reported":1741453585,"current_range_meters":12000,"station_id":"ce4bhg12rcd13ifvqf70","pricing_plan_id":"cebpf4jnsgd1na2vs0mg"},{"bike_id":"b18b886b-2f3b-44c3-bf76-bd0fbc795c5b","system_id":"levelo_inurba_marseille","lat":43.28163,"lon":5.42647,"is_reserved":false,"is_disabled":false,"rental_uris":{"android":"levelo://app?vid=b18b886b-2f3b-44c3-bf76-bd0fbc795c5b","ios":"levelo://app?vid=b18b886b-2f3b-44c3-bf76-bd0fbc795c5b"},"vehicle_type_id":"4","last_reported":1741453585,"current_range_meters":12000,"station_id":"ce4bhnh2rcd13ifvqgug","pricing_plan_id":"cebpf4jnsgd1na2vs0mg"},{"bike_id":"a90b6b52-7d2b-4bf0-bbbe-b0b8da6cc08f","system_id":"levelo_inurba_marseille","lat":43.28696,"lon":5.3739,"is_reserved":false,"is_disabled":false,"rental_uris":{"android":"levelo://app?vid=a90b6b52-7d2b-4bf0-bbbe-b0b8da6cc08f","ios":"levelo://app?vid=a90b6b52-7d2b-4bf0-bbbe-b0b8da6cc08f"},"vehicle_type_id":"4","last_reported":1741453585,"current_range_meters":12000,"station_id":"ce4bh3p2rcd13ifvqdq0","pricing_plan_id":"cebpf4jnsgd1na2vs0mg"},{"bike_id":"dc16e04a-c855-4cd8-a2b8-472b0c3ed08a","system_id":"levelo_inurba_marseille","lat":43.26785,"lon":5.39425,"is_reserved":false,"is_disabled":false,"rental_uris":{"android":"levelo://app?vid=dc16e04a-c855-4cd8-a2b8-472b0c3ed08a","ios":"levelo://app?vid=dc16e04a-c855-4cd8-a2b8-472b0c3ed08a"},"vehicle_type_id":"4","last_reported":1741453585,"current_range_meters":12400,"station_id":"ce4bhh12rcd13ifvqfg0","pricing_plan_id":"cebpf4jnsgd1na2vs0mg"},{"bike_id":"93b65028-e8a4-4c8f-876a-ae246ea8ac90","system_id":"levelo_inurba_marseille","lat":43.31354,"lon":5.38496,"is_reserved":false,"is_disabled":true,"rental_uris":{"android":"levelo://app?vid=93b65028-e8a4-4c8f-876a-ae246ea8ac90","ios":"levelo://app?vid=93b65028-e8a4-4c8f-876a-ae246ea8ac90"},"vehicle_type_id":"4","last_reported":1741453585,"current_range_meters":12400,"station_id":"ce4bgt92rcd13ifvqcf0","pricing_plan_id":"cebpf4jnsgd1na2vs0mg"},{"bike_id":"19bbe8da-d7df-496e-a677-cbaab925cf5e","system_id":"levelo_inurba_marseille","lat":43.24879,"lon":5.42559,"is_reserved":false,"is_disabled":false,"rental_uris":{"android":"levelo://app?vid=19bbe8da-d7df-496e-a677-cbaab925cf5e","ios":"levelo://app?vid=19bbe8da-d7df-496e-a677-cbaab925cf5e"},"vehicle_type_id":"4","last_reported":1741453585,"current_range_meters":12400,"station_id":"","pricing_plan_id":"cebpf4jnsgd1na2vs0mg"},{"bike_id":"3c0e4035-a221-4175-9c1f-5404a2e80550","system_id":"levelo_inurba_marseille","lat":43.26911,"lon":5.40236,"is_reserved":false,"is_disabled":false,"rental_uris":{"android":"levelo://app?vid=3c0e4035-a221-4175-9c1f-5404a2e80550","ios":"levelo://app?vid=3c0e4035-a221-4175-9c1f-5404a2e80550"},"vehicle_type_id":"4","last_reported":1741453585,"current_range_meters":12400,"station_id":"cjm6bp8fraef2m0cb0m0","pricing_plan_id":"cebpf4jnsgd1na2vs0mg"},{"bike_id":"20328805-2122-4866-9118-32b13bda6f8b","system_id":"levelo_inurba_marseille","lat":43.286645,"lon":5.38669,"is_reserved":false,"is_disabled":false,"rental_uris":{"android":"levelo://app?vid=20328805-2122-4866-9118-32b13bda6f8b","ios":"levelo://app?vid=20328805-2122-4866-9118-32b13bda6f8b"},"vehicle_type_id":"4","last_reported":1741453585,"current_range_meters":12400,"station_id":"ce4bh492rcd13ifvqdug","pricing_plan_id":"cebpf4jnsgd1na2vs0mg"},{"bike_id":"abd6fcbd-75b6-4b44-86f7-fdfc23c74160","system_id":"levelo_inurba_marseille","lat":43.27314,"lon":5.39091,"is_reserved":false,"is_disabled":false,"rental_uris":{"android":"levelo://app?vid=abd6fcbd-75b6-4b44-86f7-fdfc23c74160","ios":"levelo://app?vid=abd6fcbd-75b6-4b44-86f7-fdfc23c74160"},"vehicle_type_id":"4","last_reported":1741453585,"current_range_meters":12400,"station_id":"ce4bhgp2rcd13ifvqfe0","pricing_plan_id":"cebpf4jnsgd1na2vs0mg"},{"bike_id":"8425106e-fb79-49c0-9e8f-3c1150a0f5b8","system_id":"levelo_inurba_marseille","lat":43.25121,"lon":5.40314,"is_reserved":false,"is_disabled":false,"rental_uris":{"android":"levelo://app?vid=8425106e-fb79-49c0-9e8f-3c1150a0f5b8","ios":"levelo://app?vid=8425106e-fb79-49c0-9e8f-3c1150a0f5b8"},"vehicle_type_id":"4","last_reported":1741453585,"current_range_meters":12000,"station_id":"ce4bhlh2rcd13ifvqgig","pricing_plan_id":"cebpf4jnsgd1na2vs0mg"},{"bike_id":"0db4db3f-9814-454c-a9d7-30d84ed294d1","system_id":"levelo_inurba_marseille","lat":43.29612,"lon":5.38101,"is_reserved":false,"is_disabled":false,"rental_uris":{"android":"levelo://app?vid=0db4db3f-9814-454c-a9d7-30d84ed294d1","ios":"levelo://app?vid=0db4db3f-9814-454c-a9d7-30d84ed294d1"},"vehicle_type_id":"4","last_reported":1741453585,"current_range_meters":12800,"station_id":"ce4bgl12rcd13ifvqbo0","pricing_plan_id":"cebpf4jnsgd1na2vs0mg"},{"bike_id":"716ad52e-6276-401a-9565-37b068cf8f1c","system_id":"levelo_inurba_marseille","lat":43.24803,"lon":5.37459,"is_reserved":false,"is_disabled":false,"rental_uris":{"android":"levelo://app?vid=716ad52e-6276-401a-9565-37b068cf8f1c","ios":"levelo://app?vid=716ad52e-6276-401a-9565-37b068cf8f1c"},"vehicle_type_id":"4","last_reported":1741453585,"current_range_meters":12800,"station_id":"ce4bhgh2rcd13ifvqfb0","pricing_plan_id":"cebpf4jnsgd1na2vs0mg"},{"bike_id":"bcfd987e-4925-4bc0-a2c6-1cce4b073733","system_id":"levelo_inurba_marseille","lat":43.29055,"lon":5.37128,"is_reserved":false,"is_disabled":false,"rental_uris":{"android":"levelo://app?vid=bcfd987e-4925-4bc0-a2c6-1cce4b073733","ios":"levelo://app?vid=bcfd987e-4925-4bc0-a2c6-1cce4b073733"},"vehicle_type_id":"4","last_reported":1741453585,"current_range_meters":12800,"station_id":"ce4bh5p2rcd13ifvqe4g","pricing_plan_id":"cebpf4jnsgd1na2vs0mg"},{"bike_id":"0e698c9d-47bc-4045-944d-ecfd6b2414bc","system_id":"levelo_inurba_marseille","lat":43.31079,"lon":5.42433,"is_reserved":false,"is_disabled":false,"rental_uris":{"android":"levelo://app?vid=0e698c9d-47bc-4045-944d-ecfd6b2414bc","ios":"levelo://app?vid=0e698c9d-47bc-4045-944d-ecfd6b2414bc"},"vehicle_type_id":"4","last_reported":1741453585,"current_range_meters":12800,"station_id":"ce4bhp92rcd13ifvqhag","pricing_plan_id":"cebpf4jnsgd1na2vs0mg"},{"bike_id":"6e694d75-7b93-4a61-b7b5-6268b8df9de0","system_id":"levelo_inurba_marseille","lat":43.28676,"lon":5.38664,"is_reserved":false,"is_disabled":false,"rental_uris":{"android":"levelo://app?vid=6e694d75-7b93-4a61-b7b5-6268b8df9de0","ios":"levelo://app?vid=6e694d75-7b93-4a61-b7b5-6268b8df9de0"},"vehicle_type_id":"4","last_reported":1741453585,"current_range_meters":13600,"station_id":"ce4bh492rcd13ifvqdug","pricing_plan_id":"cebpf4jnsgd1na2vs0mg"},{"bike_id":"fd82bd80-09eb-4038-8be4-4352c25d4661","system_id":"levelo_inurba_marseille","lat":43.28152,"lon":5.42639,"is_reserved":false,"is_disabled":false,"rental_uris":{"android":"levelo://app?vid=fd82bd80-09eb-4038-8be4-4352c25d4661","ios":"levelo://app?vid=fd82bd80-09eb-4038-8be4-4352c25d4661"},"vehicle_type_id":"4","last_reported":1741453585,"current_range_meters":13600,"station_id":"ce4bhnh2rcd13ifvqgug","pricing_plan_id":"cebpf4jnsgd1na2vs0mg"},{"bike_id":"5dbaa3be-feed-489a-af18-ba78578ac684","system_id":"levelo_inurba_marseille","lat":43.26215,"lon":5.37438,"is_reserved":false,"is_disabled":false,"rental_uris":{"android":"levelo://app?vid=5dbaa3be-feed-489a-af18-ba78578ac684","ios":"levelo://app?vid=5dbaa3be-feed-489a-af18-ba78578ac684"},"vehicle_type_id":"4","last_reported":1741453585,"current_range_meters":13600,"station_id":"ce4bhgp2rcd13ifvqfc0","pricing_plan_id":"cebpf4jnsgd1na2vs0mg"},{"bike_id":"784d9608-d956-42db-a28a-f1b9f3a06bd0","system_id":"levelo_inurba_marseille","lat":43.26548,"lon":5.39027,"is_reserved":false,"is_disabled":false,"rental_uris":{"android":"levelo://app?vid=784d9608-d956-42db-a28a-f1b9f3a06bd0","ios":"levelo://app?vid=784d9608-d956-42db-a28a-f1b9f3a06bd0"},"vehicle_type_id":"4","last_reported":1741453585,"current_range_meters":13600,"station_id":"ce4bhe12rcd13ifvqf30","pricing_plan_id":"cebpf4jnsgd1na2vs0mg"},{"bike_id":"128c6e9a-f050-4340-a828-773721c0287d","system_id":"levelo_inurba_marseille","lat":43.269437,"lon":5.40257,"is_reserved":false,"is_disabled":false,"rental_uris":{"android":"levelo://app?vid=128c6e9a-f050-4340-a828-773721c0287d","ios":"levelo://app?vid=128c6e9a-f050-4340-a828-773721c0287d"},"vehicle_type_id":"4","last_reported":1741453585,"current_range_meters":13600,"station_id":"cjm6bp8fraef2m0cb0m0","pricing_plan_id":"cebpf4jnsgd1na2vs0mg"},{"bike_id":"1db7d88c-a497-4ec2-8a25-e63aebabf4d5","system_id":"levelo_inurba_marseille","lat":43.2918,"lon":5.37149,"is_reserved":false,"is_disabled":false,"rental_uris":{"android":"levelo://app?vid=1db7d88c-a497-4ec2-8a25-e63aebabf4d5","ios":"levelo://app?vid=1db7d88c-a497-4ec2-8a25-e63aebabf4d5"},"vehicle_type_id":"4","last_reported":1741453585,"current_range_meters":14000,"station_id":"ce4bha92rcd13ifvqeh0","pricing_plan_id":"cebpf4jnsgd1na2vs0mg"},{"bike_id":"4e826434-6b04-4e05-bcee-1baecb332d2e","system_id":"levelo_inurba_marseille","lat":43.28462,"lon":5.35889,"is_reserved":false,"is_disabled":false,"rental_uris":{"android":"levelo://app?vid=4e826434-6b04-4e05-bcee-1baecb332d2e","ios":"levelo://app?vid=4e826434-6b04-4e05-bcee-1baecb332d2e"},"vehicle_type_id":"4","last_reported":1741453585,"current_range_meters":13600,"station_id":"ce4bhah2rcd13ifvqei0","pricing_plan_id":"cebpf4jnsgd1na2vs0mg"},{"bike_id":"af4f3c57-50c6-4ce2-a2d6-0733d1a6f280","system_id":"levelo_inurba_marseille","lat":43.29974,"lon":5.38488,"is_reserved":false,"is_disabled":false,"rental_uris":{"android":"levelo://app?vid=af4f3c57-50c6-4ce2-a2d6-0733d1a6f280","ios":"levelo://app?vid=af4f3c57-50c6-4ce2-a2d6-0733d1a6f280"},"vehicle_type_id":"4","last_reported":1741453585,"current_range_meters":13600,"station_id":"ce4bgj92rcd13ifvqbd0","pricing_plan_id":"cebpf4jnsgd1na2vs0mg"},{"bike_id":"9231d320-f9e6-4ebe-b4b9-86dcc793ca8e","system_id":"levelo_inurba_marseille","lat":43.29518,"lon":5.39041,"is_reserved":false,"is_disabled":false,"rental_uris":{"android":"levelo://app?vid=9231d320-f9e6-4ebe-b4b9-86dcc793ca8e","ios":"levelo://app?vid=9231d320-f9e6-4ebe-b4b9-86dcc793ca8e"},"vehicle_type_id":"4","last_reported":1741453585,"current_range_meters":14000,"station_id":"ce4bh3p2rcd13ifvqdp0","pricing_plan_id":"cebpf4jnsgd1na2vs0mg"},{"bike_id":"3ca7b807-0cc3-4291-a4e8-95d4e8a1bac0","system_id":"levelo_inurba_marseille","lat":43.26785,"lon":5.39414,"is_reserved":false,"is_disabled":false,"rental_uris":{"android":"levelo://app?vid=3ca7b807-0cc3-4291-a4e8-95d4e8a1bac0","ios":"levelo://app?vid=3ca7b807-0cc3-4291-a4e8-95d4e8a1bac0"},"vehicle_type_id":"4","last_reported":1741453585,"current_range_meters":14000,"station_id":"ce4bhh12rcd13ifvqfg0","pricing_plan_id":"cebpf4jnsgd1na2vs0mg"},{"bike_id":"45800ef9-d988-4c7e-8297-f5e7ca57ffbd","system_id":"levelo_inurba_marseille","lat":43.28472,"lon":5.3589,"is_reserved":false,"is_disabled":false,"rental_uris":{"android":"levelo://app?vid=45800ef9-d988-4c7e-8297-f5e7ca57ffbd","ios":"levelo://app?vid=45800ef9-d988-4c7e-8297-f5e7ca57ffbd"},"vehicle_type_id":"4","last_reported":1741453585,"current_range_meters":14000,"station_id":"ce4bhah2rcd13ifvqei0","pricing_plan_id":"cebpf4jnsgd1na2vs0mg"},{"bike_id":"7758ed75-5f25-4863-b21b-fc212239a75b","system_id":"levelo_inurba_marseille","lat":43.25708,"lon":5.41109,"is_reserved":false,"is_disabled":false,"rental_uris":{"android":"levelo://app?vid=7758ed75-5f25-4863-b21b-fc212239a75b","ios":"levelo://app?vid=7758ed75-5f25-4863-b21b-fc212239a75b"},"vehicle_type_id":"4","last_reported":1741453585,"current_range_meters":14400,"station_id":"ce4bhkp2rcd13ifvqgd0","pricing_plan_id":"cebpf4jnsgd1na2vs0mg"},{"bike_id":"5b78b4e0-6cb3-4f60-beb1-9f8281505d59","system_id":"levelo_inurba_marseille","lat":43.31716,"lon":5.40421,"is_reserved":false,"is_disabled":false,"rental_uris":{"android":"levelo://app?vid=5b78b4e0-6cb3-4f60-beb1-9f8281505d59","ios":"levelo://app?vid=5b78b4e0-6cb3-4f60-beb1-9f8281505d59"},"vehicle_type_id":"4","last_reported":1741453585,"current_range_meters":11600,"station_id":"","pricing_plan_id":"cebpf4jnsgd1na2vs0mg"},{"bike_id":"050f15e7-51da-4838-834e-9b250f164f6b","system_id":"levelo_inurba_marseille","lat":43.29095,"lon":5.37152,"is_reserved":false,"is_disabled":false,"rental_uris":{"android":"levelo://app?vid=050f15e7-51da-4838-834e-9b250f164f6b","ios":"levelo://app?vid=050f15e7-51da-4838-834e-9b250f164f6b"},"vehicle_type_id":"4","last_reported":1741453585,"current_range_meters":14400,"station_id":"ce4bh5p2rcd13ifvqe4g","pricing_plan_id":"cebpf4jnsgd1na2vs0mg"},{"bike_id":"542e0d1f-2e1e-4fb9-bb57-0830518fad27","system_id":"levelo_inurba_marseille","lat":43.2991,"lon":5.38145,"is_reserved":false,"is_disabled":false,"rental_uris":{"android":"levelo://app?vid=542e0d1f-2e1e-4fb9-bb57-0830518fad27","ios":"levelo://app?vid=542e0d1f-2e1e-4fb9-bb57-0830518fad27"},"vehicle_type_id":"4","last_reported":1741453585,"current_range_meters":14400,"station_id":"ce4bgj12rcd13ifvqbc0","pricing_plan_id":"cebpf4jnsgd1na2vs0mg"},{"bike_id":"28ee13c1-981a-427f-a4f1-e6868208597c","system_id":"levelo_inurba_marseille","lat":43.32659,"lon":5.40993,"is_reserved":false,"is_disabled":false,"rental_uris":{"android":"levelo://app?vid=28ee13c1-981a-427f-a4f1-e6868208597c","ios":"levelo://app?vid=28ee13c1-981a-427f-a4f1-e6868208597c"},"vehicle_type_id":"4","last_reported":1741453585,"current_range_meters":14000,"station_id":"ce4bhpp2rcd13ifvqhgg","pricing_plan_id":"cebpf4jnsgd1na2vs0mg"},{"bike_id":"63f8289e-cd44-47f3-9e80-9e42ababdfc5","system_id":"levelo_inurba_marseille","lat":43.2873,"lon":5.37941,"is_reserved":false,"is_disabled":false,"rental_uris":{"android":"levelo://app?vid=63f8289e-cd44-47f3-9e80-9e42ababdfc5","ios":"levelo://app?vid=63f8289e-cd44-47f3-9e80-9e42ababdfc5"},"vehicle_type_id":"4","last_reported":1741453585,"current_range_meters":14400,"station_id":"ce4bh9p2rcd13ifvqec0","pricing_plan_id":"cebpf4jnsgd1na2vs0mg"},{"bike_id":"a0f47016-86c2-44a8-86e4-ab6fc080b00d","system_id":"levelo_inurba_marseille","lat":43.27939,"lon":5.41046,"is_reserved":false,"is_disabled":false,"rental_uris":{"android":"levelo://app?vid=a0f47016-86c2-44a8-86e4-ab6fc080b00d","ios":"levelo://app?vid=a0f47016-86c2-44a8-86e4-ab6fc080b00d"},"vehicle_type_id":"4","last_reported":1741453585,"current_range_meters":14800,"station_id":"ce4bhnp2rcd13ifvqh0g","pricing_plan_id":"cebpf4jnsgd1na2vs0mg"},{"bike_id":"cc33d034-88e8-4c30-87e3-c8a05eda2275","system_id":"levelo_inurba_marseille","lat":43.31121,"lon":5.37771,"is_reserved":false,"is_disabled":false,"rental_uris":{"android":"levelo://app?vid=cc33d034-88e8-4c30-87e3-c8a05eda2275","ios":"levelo://app?vid=cc33d034-88e8-4c30-87e3-c8a05eda2275"},"vehicle_type_id":"4","last_reported":1741453585,"current_range_meters":15200,"station_id":"ce4bgt92rcd13ifvqcg0","pricing_plan_id":"cebpf4jnsgd1na2vs0mg"},{"bike_id":"4c5d8bb4-3d1e-4689-9d72-361d8d376cce","system_id":"levelo_inurba_marseille","lat":43.24815,"lon":5.37457,"is_reserved":false,"is_disabled":false,"rental_uris":{"android":"levelo://app?vid=4c5d8bb4-3d1e-4689-9d72-361d8d376cce","ios":"levelo://app?vid=4c5d8bb4-3d1e-4689-9d72-361d8d376cce"},"vehicle_type_id":"4","last_reported":1741453585,"current_range_meters":15200,"station_id":"ce4bhgh2rcd13ifvqfb0","pricing_plan_id":"cebpf4jnsgd1na2vs0mg"},{"bike_id":"5303ec96-7e38-4ee5-b7a5-8236d1c034d7","system_id":"levelo_inurba_marseille","lat":43.26211,"lon":5.37446,"is_reserved":false,"is_disabled":false,"rental_uris":{"android":"levelo://app?vid=5303ec96-7e38-4ee5-b7a5-8236d1c034d7","ios":"levelo://app?vid=5303ec96-7e38-4ee5-b7a5-8236d1c034d7"},"vehicle_type_id":"4","last_reported":1741453585,"current_range_meters":16000,"station_id":"ce4bhgp2rcd13ifvqfc0","pricing_plan_id":"cebpf4jnsgd1na2vs0mg"},{"bike_id":"04b4258d-0927-4a5b-8ce0-e4accd04b333","system_id":"levelo_inurba_marseille","lat":43.23051,"lon":5.35495,"is_reserved":false,"is_disabled":false,"rental_uris":{"android":"levelo://app?vid=04b4258d-0927-4a5b-8ce0-e4accd04b333","ios":"levelo://app?vid=04b4258d-0927-4a5b-8ce0-e4accd04b333"},"vehicle_type_id":"4","last_reported":1741453585,"current_range_meters":16000,"station_id":"cpo3342slgdg3j2ifvpg","pricing_plan_id":"cebpf4jnsgd1na2vs0mg"},{"bike_id":"361b323c-8e3e-437a-bfee-ef99a00cb81c","system_id":"levelo_inurba_marseille","lat":43.26558,"lon":5.37283,"is_reserved":false,"is_disabled":false,"rental_uris":{"android":"levelo://app?vid=361b323c-8e3e-437a-bfee-ef99a00cb81c","ios":"levelo://app?vid=361b323c-8e3e-437a-bfee-ef99a00cb81c"},"vehicle_type_id":"4","last_reported":1741453585,"current_range_meters":16000,"station_id":"ce4bhg12rcd13ifvqf70","pricing_plan_id":"cebpf4jnsgd1na2vs0mg"},{"bike_id":"1c7d6ddb-d422-4550-a945-b31e360296fa","system_id":"levelo_inurba_marseille","lat":43.29531,"lon":5.3853,"is_reserved":false,"is_disabled":false,"rental_uris":{"android":"levelo://app?vid=1c7d6ddb-d422-4550-a945-b31e360296fa","ios":"levelo://app?vid=1c7d6ddb-d422-4550-a945-b31e360296fa"},"vehicle_type_id":"4","last_reported":1741453585,"current_range_meters":16400,"station_id":"ce4bgih2rcd13ifvqba0","pricing_plan_id":"cebpf4jnsgd1na2vs0mg"},{"bike_id":"e9dab2ce-7c7d-40d2-82aa-ed5c703d86fd","system_id":"levelo_inurba_marseille","lat":43.32113,"lon":5.3676,"is_reserved":false,"is_disabled":false,"rental_uris":{"android":"levelo://app?vid=e9dab2ce-7c7d-40d2-82aa-ed5c703d86fd","ios":"levelo://app?vid=e9dab2ce-7c7d-40d2-82aa-ed5c703d86fd"},"vehicle_type_id":"4","last_reported":1741453585,"current_range_meters":16400,"station_id":"ce4bhrh2rcd13ifvqhug","pricing_plan_id":"cebpf4jnsgd1na2vs0mg"},{"bike_id":"deb81f77-c6e9-45d2-b680-8c00a5704cb4","system_id":"levelo_inurba_marseille","lat":43.32113,"lon":5.36772,"is_reserved":false,"is_disabled":false,"rental_uris":{"android":"levelo://app?vid=deb81f77-c6e9-45d2-b680-8c00a5704cb4","ios":"levelo://app?vid=deb81f77-c6e9-45d2-b680-8c00a5704cb4"},"vehicle_type_id":"4","last_reported":1741453585,"current_range_meters":16400,"station_id":"ce4bhrh2rcd13ifvqhug","pricing_plan_id":"cebpf4jnsgd1na2vs0mg"},{"bike_id":"e9d41d1c-a515-4609-ab87-f41aded6e684","system_id":"levelo_inurba_marseille","lat":43.31759,"lon":5.39022,"is_reserved":false,"is_disabled":false,"rental_uris":{"android":"levelo://app?vid=e9d41d1c-a515-4609-ab87-f41aded6e684","ios":"levelo://app?vid=e9d41d1c-a515-4609-ab87-f41aded6e684"},"vehicle_type_id":"4","last_reported":1741453585,"current_range_meters":16400,"station_id":"ce4bhqp2rcd13ifvqhng","pricing_plan_id":"cebpf4jnsgd1na2vs0mg"},{"bike_id":"9a725903-8c24-4620-89dc-eb7e64194f1b","system_id":"levelo_inurba_marseille","lat":43.26548,"lon":5.37293,"is_reserved":false,"is_disabled":false,"rental_uris":{"android":"levelo://app?vid=9a725903-8c24-4620-89dc-eb7e64194f1b","ios":"levelo://app?vid=9a725903-8c24-4620-89dc-eb7e64194f1b"},"vehicle_type_id":"4","last_reported":1741453585,"current_range_meters":16400,"station_id":"ce4bhg12rcd13ifvqf70","pricing_plan_id":"cebpf4jnsgd1na2vs0mg"},{"bike_id":"b664ee23-0e94-4155-9042-8831fcb7b1ce","system_id":"levelo_inurba_marseille","lat":43.29571,"lon":5.39964,"is_reserved":false,"is_disabled":false,"rental_uris":{"android":"levelo://app?vid=b664ee23-0e94-4155-9042-8831fcb7b1ce","ios":"levelo://app?vid=b664ee23-0e94-4155-9042-8831fcb7b1ce"},"vehicle_type_id":"4","last_reported":1741453585,"current_range_meters":16400,"station_id":"ce4bh312rcd13ifvqdj0","pricing_plan_id":"cebpf4jnsgd1na2vs0mg"},{"bike_id":"5c21ea0e-ac28-4671-874b-32720080c7a8","system_id":"levelo_inurba_marseille","lat":43.25119,"lon":5.40317,"is_reserved":false,"is_disabled":false,"rental_uris":{"android":"levelo://app?vid=5c21ea0e-ac28-4671-874b-32720080c7a8","ios":"levelo://app?vid=5c21ea0e-ac28-4671-874b-32720080c7a8"},"vehicle_type_id":"4","last_reported":1741453585,"current_range_meters":16800,"station_id":"ce4bhlh2rcd13ifvqgig","pricing_plan_id":"cebpf4jnsgd1na2vs0mg"},{"bike_id":"2063d50f-a4df-4199-bf97-bc79121e8d97","system_id":"levelo_inurba_marseille","lat":43.29006,"lon":5.35606,"is_reserved":false,"is_disabled":false,"rental_uris":{"android":"levelo://app?vid=2063d50f-a4df-4199-bf97-bc79121e8d97","ios":"levelo://app?vid=2063d50f-a4df-4199-bf97-bc79121e8d97"},"vehicle_type_id":"4","last_reported":1741453585,"current_range_meters":16800,"station_id":"ce4bhb92rcd13ifvqen0","pricing_plan_id":"cebpf4jnsgd1na2vs0mg"},{"bike_id":"ee7c5bcc-3970-47ff-994e-7c69e8119331","system_id":"levelo_inurba_marseille","lat":43.26079,"lon":5.39343,"is_reserved":false,"is_disabled":false,"rental_uris":{"android":"levelo://app?vid=ee7c5bcc-3970-47ff-994e-7c69e8119331","ios":"levelo://app?vid=ee7c5bcc-3970-47ff-994e-7c69e8119331"},"vehicle_type_id":"4","last_reported":1741453585,"current_range_meters":16400,"station_id":"ce4bhh92rcd13ifvqfj0","pricing_plan_id":"cebpf4jnsgd1na2vs0mg"},{"bike_id":"1c481fb0-d338-447e-9ac4-5d0e02692c73","system_id":"levelo_inurba_marseille","lat":43.2549,"lon":5.37648,"is_reserved":false,"is_disabled":false,"rental_uris":{"android":"levelo://app?vid=1c481fb0-d338-447e-9ac4-5d0e02692c73","ios":"levelo://app?vid=1c481fb0-d338-447e-9ac4-5d0e02692c73"},"vehicle_type_id":"4","last_reported":1741453585,"current_range_meters":16800,"station_id":"ce4bhh12rcd13ifvqff0","pricing_plan_id":"cebpf4jnsgd1na2vs0mg"},{"bike_id":"468b509d-b37a-4292-b150-4c3b5d71fc49","system_id":"levelo_inurba_marseille","lat":43.29264,"lon":5.38445,"is_reserved":false,"is_disabled":false,"rental_uris":{"android":"levelo://app?vid=468b509d-b37a-4292-b150-4c3b5d71fc49","ios":"levelo://app?vid=468b509d-b37a-4292-b150-4c3b5d71fc49"},"vehicle_type_id":"4","last_reported":1741453585,"current_range_meters":16800,"station_id":"ce4bh692rcd13ifvqea0","pricing_plan_id":"cebpf4jnsgd1na2vs0mg"},{"bike_id":"18e363ba-586c-4aa3-ac9d-57d27eb4a9cf","system_id":"levelo_inurba_marseille","lat":43.28042,"lon":5.36945,"is_reserved":false,"is_disabled":false,"rental_uris":{"android":"levelo://app?vid=18e363ba-586c-4aa3-ac9d-57d27eb4a9cf","ios":"levelo://app?vid=18e363ba-586c-4aa3-ac9d-57d27eb4a9cf"},"vehicle_type_id":"4","last_reported":1741453585,"current_range_meters":16400,"station_id":"ce4bha12rcd13ifvqef0","pricing_plan_id":"cebpf4jnsgd1na2vs0mg"},{"bike_id":"d60e2ba2-9d3a-4067-8d8a-3ebb91302584","system_id":"levelo_inurba_marseille","lat":43.29293,"lon":5.37783,"is_reserved":false,"is_disabled":false,"rental_uris":{"android":"levelo://app?vid=d60e2ba2-9d3a-4067-8d8a-3ebb91302584","ios":"levelo://app?vid=d60e2ba2-9d3a-4067-8d8a-3ebb91302584"},