{"last_updated":1722164759,"ttl":30,"version":"2.2","data":{"bikes":[{"bike_id":"bfdb1514-9e24-498f-8ad0-7358cba68a2c","system_id":"levelo_inurba_marseille","lat":43.309076,"lon":5.368465,"is_reserved":false,"is_disabled":false,"rental_uris":{"android":"levelo://app?vid=bfdb1514-9e24-498f-8ad0-7358cba68a2c","ios":"levelo://app?vid=bfdb1514-9e24-498f-8ad0-7358cba68a2c"},"vehicle_type_id":"4","last_reported":1722164759,"current_range_meters":26000,"station_id":"ce4bgn92rcd13ifvqbvg","pricing_plan_id":"cebpf4jnsgd1na2vs0mg"},{"bike_id":"978a0795-7438-4c64-9a6a-b1e426d188d6","system_id":"levelo_inurba_marseille","lat":43.317494,"lon":5.368704,"is_reserved":false,"is_disabled":false,"rental_uris":{"android":"levelo://app?vid=978a0795-7438-4c64-9a6a-b1e426d188d6","ios":"levelo://app?vid=978a0795-7438-4c64-9a6a-b1e426d188d6"},"vehicle_type_id":"4","last_reported":1722164759,"current_range_meters":2800,"station_id":"","pricing_plan_id":"cebpf4jnsgd1na2vs0mg"},{"bike_id":"e327e961-3445-4260-891a-aa936c896d28","system_id":"levelo_inurba_marseille","lat":43.314811,"lon":5.373103,"is_reserved":false,"is_disabled":false,"rental_uris":{"android":"levelo://app?vid=e327e961-3445-4260-891a-aa936c896d28","ios":"levelo://app?vid=e327e961-3445-4260-891a-aa936c896d28"},"vehicle_type_id":"4","last_reported":1722164759,"current_range_meters":31200,"station_id":"ce4bgt12rcd13ifvqcd0","pricing_plan_id":"cebpf4jnsgd1na2vs0mg"},{"bike_id":"52372951-12ac-4af2-911a-d2ace2594e34","system_id":"levelo_inurba_marseille","lat":43.314811,"lon":5.373104,"is_reserved":false,"is_disabled":false,"rental_uris":{"android":"levelo://app?vid=52372951-12ac-4af2-911a-d2ace2594e34","ios":"levelo://app?vid=52372951-12ac-4af2-911a-d2ace2594e34"},"vehicle_type_id":"4","last_reported":1722164759,"current_range_meters":3600,"station_id":"ce4bgt12rcd13ifvqcd0","pricing_plan_id":"cebpf4jnsgd1na2vs0mg"},{"bike_id":"159dbf3f-cb3e-4128-a02f-30ea02633734","system_id":"levelo_inurba_marseille","lat":43.3099,"lon":5.37318,"is_reserved":false,"is_disabled":false,"rental_uris":{"android":"levelo://app?vid=159dbf3f-cb3e-4128-a02f-30ea02633734","ios":"levelo://app?vid=159dbf3f-cb3e-4128-a02f-30ea02633734"},"vehicle_type_id":"4","last_reported":1722164759,"current_range_meters":16400,"station_id":"","pricing_plan_id":"cebpf4jnsgd1na2vs0mg"},{"bike_id":"2d8fd02b-c68d-484f-9c6a-4923d2a9fd5b","system_id":"levelo_inurba_marseille","lat":43.3167,"lon":5.375189,"is_reserved":false,"is_disabled":false,"rental_uris":{"android":"levelo://app?vid=2d8fd02b-c68d-484f-9c6a-4923d2a9fd5b","ios":"levelo://app?vid=2d8fd02b-c68d-484f-9c6a-4923d2a9fd5b"},"vehicle_type_id":"4","last_reported":1722164759,"current_range_meters":27600,"station_id":"","pricing_plan_id":"cebpf4jnsgd1na2vs0mg"},{"bike_id":"e31b7490-3e3e-448d-983c-d14bde2bf611","system_id":"levelo_inurba_marseille","lat":43.30706,"lon":5.37307,"is_reserved":false,"is_disabled":false,"rental_uris":{"android":"levelo://app?vid=e31b7490-3e3e-448d-983c-d14bde2bf611","ios":"levelo://app?vid=e31b7490-3e3e-448d-983c-d14bde2bf611"},"vehicle_type_id":"4","last_reported":1722164759,"current_range_meters":3600,"station_id":"","pricing_plan_id":"cebpf4jnsgd1na2vs0mg"},{"bike_id":"e82ace7c-5fb4-4e80-880c-4e87d87babed","system_id":"levelo_inurba_marseille","lat":43.305712,"lon":5.365641,"is_reserved":false,"is_disabled":false,"rental_uris":{"android":"levelo://app?vid=e82ace7c-5fb4-4e80-880c-4e87d87babed","ios":"levelo://app?vid=e82ace7c-5fb4-4e80-880c-4e87d87babed"},"vehicle_type_id":"4","last_reported":1722164759,"current_range_meters":25200,"station_id":"ce4bgs12rcd13ifvqcag","pricing_plan_id":"cebpf4jnsgd1na2vs0mg"},{"bike_id":"d3693a01-f89b-4510-8726-2acf98a6a2b0","system_id":"levelo_inurba_marseille","lat":43.305714,"lon":5.365633,"is_reserved":false,"is_disabled":false,"rental_uris":{"android":"levelo://app?vid=d3693a01-f89b-4510-8726-2acf98a6a2b0","ios":"levelo://app?vid=d3693a01-f89b-4510-8726-2acf98a6a2b0"},"vehicle_type_id":"4","last_reported":1722164759,"current_range_meters":13200,"station_id":"ce4bgs12rcd13ifvqcag","pricing_plan_id":"cebpf4jnsgd1na2vs0mg"},{"bike_id":"481a85c6-65a8-4e1c-b58c-65b317108e39","system_id":"levelo_inurba_marseille","lat":43.305714,"lon":5.365633,"is_reserved":false,"is_disabled":false,"rental_uris":{"android":"levelo://app?vid=481a85c6-65a8-4e1c-b58c-65b317108e39","ios":"levelo://app?vid=481a85c6-65a8-4e1c-b58c-65b317108e39"},"vehicle_type_id":"4","last_reported":1722164759,"current_range_meters":4800,"station_id":"ce4bgs12rcd13ifvqcag","pricing_plan_id":"cebpf4jnsgd1na2vs0mg"},{"bike_id":"bc48dd09-9c87-4195-a1fe-ec8c5f9cb22e","system_id":"levelo_inurba_marseille","lat":43.305368,"lon":5.367343,"is_reserved":false,"is_disabled":false,"rental_uris":{"android":"levelo://app?vid=bc48dd09-9c87-4195-a1fe-ec8c5f9cb22e","ios":"levelo://app?vid=bc48dd09-9c87-4195-a1fe-ec8c5f9cb22e"},"vehicle_type_id":"4","last_reported":1722164759,"current_range_meters":28400,"station_id":"ce4bgrp2rcd13ifvqc9g","pricing_plan_id":"cebpf4jnsgd1na2vs0mg"},{"bike_id":"00458334-2398-4e3b-8fb9-f70d750a743b","system_id":"levelo_inurba_marseille","lat":43.31124,"lon":5.37761,"is_reserved":false,"is_disabled":false,"rental_uris":{"android":"levelo://app?vid=00458334-2398-4e3b-8fb9-f70d750a743b","ios":"levelo://app?vid=00458334-2398-4e3b-8fb9-f70d750a743b"},"vehicle_type_id":"4","last_reported":1722164759,"current_range_meters":2400,"station_id":"ce4bgt92rcd13ifvqcg0","pricing_plan_id":"cebpf4jnsgd1na2vs0mg"},{"bike_id":"ce2623d7-e957-4a2a-b583-e059331a4f65","system_id":"levelo_inurba_marseille","lat":43.317075,"lon":5.377367,"is_reserved":false,"is_disabled":false,"rental_uris":{"android":"levelo://app?vid=ce2623d7-e957-4a2a-b583-e059331a4f65","ios":"levelo://app?vid=ce2623d7-e957-4a2a-b583-e059331a4f65"},"vehicle_type_id":"4","last_reported":1722164759,"current_range_meters":28000,"station_id":"ce4bgth2rcd13ifvqch0","pricing_plan_id":"cebpf4jnsgd1na2vs0mg"},{"bike_id":"335ac510-43da-4036-be34-daeb21912855","system_id":"levelo_inurba_marseille","lat":43.317075,"lon":5.377367,"is_reserved":false,"is_disabled":false,"rental_uris":{"android":"levelo://app?vid=335ac510-43da-4036-be34-daeb21912855","ios":"levelo://app?vid=335ac510-43da-4036-be34-daeb21912855"},"vehicle_type_id":"4","last_reported":1722164759,"current_range_meters":5200,"station_id":"ce4bgth2rcd13ifvqch0","pricing_plan_id":"cebpf4jnsgd1na2vs0mg"},{"bike_id":"0c9fadff-01d0-4ecb-a97b-2c893e8b9fda","system_id":"levelo_inurba_marseille","lat":43.317075,"lon":5.377367,"is_reserved":false,"is_disabled":false,"rental_uris":{"android":"levelo://app?vid=0c9fadff-01d0-4ecb-a97b-2c893e8b9fda","ios":"levelo://app?vid=0c9fadff-01d0-4ecb-a97b-2c893e8b9fda"},"vehicle_type_id":"4","last_reported":1722164759,"current_range_meters":15600,"station_id":"ce4bgth2rcd13ifvqch0","pricing_plan_id":"cebpf4jnsgd1na2vs0mg"},{"bike_id":"860d37f3-1fb4-4fec-a949-6d6437a511d0","system_id":"levelo_inurba_marseille","lat":43.317075,"lon":5.377367,"is_reserved":false,"is_disabled":false,"rental_uris":{"android":"levelo://app?vid=860d37f3-1fb4-4fec-a949-6d6437a511d0","ios":"levelo://app?vid=860d37f3-1fb4-4fec-a949-6d6437a511d0"},"vehicle_type_id":"4","last_reported":1722164759,"current_range_meters":28800,"station_id":"ce4bgth2rcd13ifvqch0","pricing_plan_id":"cebpf4jnsgd1na2vs0mg"},{"bike_id":"758c32af-f175-47ee-abc0-ca267043b1d6","system_id":"levelo_inurba_marseille","lat":43.317075,"lon":5.377367,"is_reserved":false,"is_disabled":false,"rental_uris":{"android":"levelo://app?vid=758c32af-f175-47ee-abc0-ca267043b1d6","ios":"levelo://app?vid=758c32af-f175-47ee-abc0-ca267043b1d6"},"vehicle_type_id":"4","last_reported":1722164759,"current_range_meters":31200,"station_id":"ce4bgth2rcd13ifvqch0","pricing_plan_id":"cebpf4jnsgd1na2vs0mg"},{"bike_id":"1911d356-3f14-4819-8104-7730ab762002","system_id":"levelo_inurba_marseille","lat":43.317075,"lon":5.377367,"is_reserved":false,"is_disabled":false,"rental_uris":{"android":"levelo://app?vid=1911d356-3f14-4819-8104-7730ab762002","ios":"levelo://app?vid=1911d356-3f14-4819-8104-7730ab762002"},"vehicle_type_id":"4","last_reported":1722164759,"current_range_meters":9200,"station_id":"ce4bgth2rcd13ifvqch0","pricing_plan_id":"cebpf4jnsgd1na2vs0mg"},{"bike_id":"426d57c6-c879-41f3-842e-ed7db2cdac5d","system_id":"levelo_inurba_marseille","lat":43.301939,"lon":5.366286,"is_reserved":false,"is_disabled":false,"rental_uris":{"android":"levelo://app?vid=426d57c6-c879-41f3-842e-ed7db2cdac5d","ios":"levelo://app?vid=426d57c6-c879-41f3-842e-ed7db2cdac5d"},"vehicle_type_id":"4","last_reported":1722164759,"current_range_meters":10000,"station_id":"ce4bgrh2rcd13ifvqc8g","pricing_plan_id":"cebpf4jnsgd1na2vs0mg"},{"bike_id":"87ec6a52-5d65-4f4e-84c1-8831a8f44be0","system_id":"levelo_inurba_marseille","lat":43.301939,"lon":5.366286,"is_reserved":false,"is_disabled":false,"rental_uris":{"android":"levelo://app?vid=87ec6a52-5d65-4f4e-84c1-8831a8f44be0","ios":"levelo://app?vid=87ec6a52-5d65-4f4e-84c1-8831a8f44be0"},"vehicle_type_id":"4","last_reported":1722164759,"current_range_meters":20000,"station_id":"ce4bgrh2rcd13ifvqc8g","pricing_plan_id":"cebpf4jnsgd1na2vs0mg"},{"bike_id":"87154c07-d6b7-4e5f-a536-660299899688","system_id":"levelo_inurba_marseille","lat":43.308012,"lon":5.381511,"is_reserved":false,"is_disabled":false,"rental_uris":{"android":"levelo://app?vid=87154c07-d6b7-4e5f-a536-660299899688","ios":"levelo://app?vid=87154c07-d6b7-4e5f-a536-660299899688"},"vehicle_type_id":"4","last_reported":1722164759,"current_range_meters":29200,"station_id":"ce4bgt12rcd13ifvqce0","pricing_plan_id":"cebpf4jnsgd1na2vs0mg"},{"bike_id":"ed1d5317-1d98-4c38-ba4a-a44f61809b91","system_id":"levelo_inurba_marseille","lat":43.308012,"lon":5.381511,"is_reserved":false,"is_disabled":false,"rental_uris":{"android":"levelo://app?vid=ed1d5317-1d98-4c38-ba4a-a44f61809b91","ios":"levelo://app?vid=ed1d5317-1d98-4c38-ba4a-a44f61809b91"},"vehicle_type_id":"4","last_reported":1722164759,"current_range_meters":23200,"station_id":"ce4bgt12rcd13ifvqce0","pricing_plan_id":"cebpf4jnsgd1na2vs0mg"},{"bike_id":"a9bb2acc-40ee-4783-9004-e4537b5713af","system_id":"levelo_inurba_marseille","lat":43.32481,"lon":5.36565,"is_reserved":false,"is_disabled":false,"rental_uris":{"android":"levelo://app?vid=a9bb2acc-40ee-4783-9004-e4537b5713af","ios":"levelo://app?vid=a9bb2acc-40ee-4783-9004-e4537b5713af"},"vehicle_type_id":"4","last_reported":1722164759,"current_range_meters":28000,"station_id":"ce4bhs12rcd13ifvqhvg","pricing_plan_id":"cebpf4jnsgd1na2vs0mg"},{"bike_id":"74622a59-7c72-416d-b909-98817b7d08b2","system_id":"levelo_inurba_marseille","lat":43.324771,"lon":5.36557,"is_reserved":false,"is_disabled":false,"rental_uris":{"android":"levelo://app?vid=74622a59-7c72-416d-b909-98817b7d08b2","ios":"levelo://app?vid=74622a59-7c72-416d-b909-98817b7d08b2"},"vehicle_type_id":"4","last_reported":1722164759,"current_range_meters":14400,"station_id":"ce4bhs12rcd13ifvqhvg","pricing_plan_id":"cebpf4jnsgd1na2vs0mg"},{"bike_id":"bf8892a0-ff22-443d-bdcd-084796cef1de","system_id":"levelo_inurba_marseille","lat":43.324771,"lon":5.36557,"is_reserved":false,"is_disabled":false,"rental_uris":{"android":"levelo://app?vid=bf8892a0-ff22-443d-bdcd-084796cef1de","ios":"levelo://app?vid=bf8892a0-ff22-443d-bdcd-084796cef1de"},"vehicle_type_id":"4","last_reported":1722164759,"current_range_meters":15200,"station_id":"ce4bhs12rcd13ifvqhvg","pricing_plan_id":"cebpf4jnsgd1na2vs0mg"},{"bike_id":"7fc59e34-6f40-4e8f-8e9c-e8bea02bf36c","system_id":"levelo_inurba_marseille","lat":43.324771,"lon":5.36557,"is_reserved":false,"is_disabled":false,"rental_uris":{"android":"levelo://app?vid=7fc59e34-6f40-4e8f-8e9c-e8bea02bf36c","ios":"levelo://app?vid=7fc59e34-6f40-4e8f-8e9c-e8bea02bf36c"},"vehicle_type_id":"4","last_reported":1722164759,"current_range_meters":29600,"station_id":"ce4bhs12rcd13ifvqhvg","pricing_plan_id":"cebpf4jnsgd1na2vs0mg"},{"bike_id":"1c05e2d9-edb4-4bb7-acee-a96302ac63eb","system_id":"levelo_inurba_marseille","lat":43.324771,"lon":5.36557,"is_reserved":false,"is_disabled":false,"rental_uris":{"android":"levelo://app?vid=1c05e2d9-edb4-4bb7-acee-a96302ac63eb","ios":"levelo://app?vid=1c05e2d9-edb4-4bb7-acee-a96302ac63eb"},"vehicle_type_id":"4","last_reported":1722164759,"current_range_meters":30800,"station_id":"ce4bhs12rcd13ifvqhvg","pricing_plan_id":"cebpf4jnsgd1na2vs0mg"},{"bike_id":"48a4d778-6b37-43c7-95f5-4e690b928260","system_id":"levelo_inurba_marseille","lat":43.32486,"lon":5.36572,"is_reserved":false,"is_disabled":false,"rental_uris":{"android":"levelo://app?vid=48a4d778-6b37-43c7-95f5-4e690b928260","ios":"levelo://app?vid=48a4d778-6b37-43c7-95f5-4e690b928260"},"vehicle_type_id":"4","last_reported":1722164759,"current_range_meters":28800,"station_id":"ce4bhs12rcd13ifvqhvg","pricing_plan_id":"cebpf4jnsgd1na2vs0mg"},{"bike_id":"2f63918a-6371-49db-8c2f-5a5eeefbb1f9","system_id":"levelo_inurba_marseille","lat":43.32489,"lon":5.36565,"is_reserved":false,"is_disabled":false,"rental_uris":{"android":"levelo://app?vid=2f63918a-6371-49db-8c2f-5a5eeefbb1f9","ios":"levelo://app?vid=2f63918a-6371-49db-8c2f-5a5eeefbb1f9"},"vehicle_type_id":"4","last_reported":1722164759,"current_range_meters":16000,"station_id":"ce4bhs12rcd13ifvqhvg","pricing_plan_id":"cebpf4jnsgd1na2vs0mg"},{"bike_id":"49a56ba3-3601-4fa1-9e53-729cc1624a14","system_id":"levelo_inurba_marseille","lat":43.301429,"lon":5.37413,"is_reserved":false,"is_disabled":false,"rental_uris":{"android":"levelo://app?vid=49a56ba3-3601-4fa1-9e53-729cc1624a14","ios":"levelo://app?vid=49a56ba3-3601-4fa1-9e53-729cc1624a14"},"vehicle_type_id":"4","last_reported":1722164759,"current_range_meters":26000,"station_id":"ce4bgs92rcd13ifvqcc0","pricing_plan_id":"cebpf4jnsgd1na2vs0mg"},{"bike_id":"37939e86-0fa4-4b08-b814-138eeb03a562","system_id":"levelo_inurba_marseille","lat":43.301429,"lon":5.37413,"is_reserved":false,"is_disabled":false,"rental_uris":{"android":"levelo://app?vid=37939e86-0fa4-4b08-b814-138eeb03a562","ios":"levelo://app?vid=37939e86-0fa4-4b08-b814-138eeb03a562"},"vehicle_type_id":"4","last_reported":1722164759,"current_range_meters":15600,"station_id":"ce4bgs92rcd13ifvqcc0","pricing_plan_id":"cebpf4jnsgd1na2vs0mg"},{"bike_id":"1c4555f4-f4d0-4b31-9fdf-0032a11f0fe4","system_id":"levelo_inurba_marseille","lat":43.32292,"lon":5.37735,"is_reserved":false,"is_disabled":false,"rental_uris":{"android":"levelo://app?vid=1c4555f4-f4d0-4b31-9fdf-0032a11f0fe4","ios":"levelo://app?vid=1c4555f4-f4d0-4b31-9fdf-0032a11f0fe4"},"vehicle_type_id":"4","last_reported":1722164759,"current_range_meters":12000,"station_id":"","pricing_plan_id":"cebpf4jnsgd1na2vs0mg"},{"bike_id":"64efb8ba-933f-47fc-b58f-b13d857f90b0","system_id":"levelo_inurba_marseille","lat":43.31619,"lon":5.38378,"is_reserved":false,"is_disabled":false,"rental_uris":{"android":"levelo://app?vid=64efb8ba-933f-47fc-b58f-b13d857f90b0","ios":"levelo://app?vid=64efb8ba-933f-47fc-b58f-b13d857f90b0"},"vehicle_type_id":"4","last_reported":1722164759,"current_range_meters":28800,"station_id":"","pricing_plan_id":"cebpf4jnsgd1na2vs0mg"},{"bike_id":"2e48d301-b6ed-4102-b03f-f73a2381baaa","system_id":"levelo_inurba_marseille","lat":43.319935,"lon":5.381699,"is_reserved":false,"is_disabled":false,"rental_uris":{"android":"levelo://app?vid=2e48d301-b6ed-4102-b03f-f73a2381baaa","ios":"levelo://app?vid=2e48d301-b6ed-4102-b03f-f73a2381baaa"},"vehicle_type_id":"4","last_reported":1722164759,"current_range_meters":31600,"station_id":"ce4bhr12rcd13ifvqhpg","pricing_plan_id":"cebpf4jnsgd1na2vs0mg"},{"bike_id":"4394ee0f-0d24-4ae0-84d4-2e365291ad6c","system_id":"levelo_inurba_marseille","lat":43.319935,"lon":5.381699,"is_reserved":false,"is_disabled":false,"rental_uris":{"android":"levelo://app?vid=4394ee0f-0d24-4ae0-84d4-2e365291ad6c","ios":"levelo://app?vid=4394ee0f-0d24-4ae0-84d4-2e365291ad6c"},"vehicle_type_id":"4","last_reported":1722164759,"current_range_meters":29200,"station_id":"ce4bhr12rcd13ifvqhpg","pricing_plan_id":"cebpf4jnsgd1na2vs0mg"},{"bike_id":"122d97c3-af2b-4855-8d48-de49b9d829f3","system_id":"levelo_inurba_marseille","lat":43.319935,"lon":5.381699,"is_reserved":false,"is_disabled":false,"rental_uris":{"android":"levelo://app?vid=122d97c3-af2b-4855-8d48-de49b9d829f3","ios":"levelo://app?vid=122d97c3-af2b-4855-8d48-de49b9d829f3"},"vehicle_type_id":"4","last_reported":1722164759,"current_range_meters":5600,"station_id":"ce4bhr12rcd13ifvqhpg","pricing_plan_id":"cebpf4jnsgd1na2vs0mg"},{"bike_id":"803e0064-3735-428a-8357-b238431bbb52","system_id":"levelo_inurba_marseille","lat":43.319935,"lon":5.381699,"is_reserved":false,"is_disabled":false,"rental_uris":{"android":"levelo://app?vid=803e0064-3735-428a-8357-b238431bbb52","ios":"levelo://app?vid=803e0064-3735-428a-8357-b238431bbb52"},"vehicle_type_id":"4","last_reported":1722164759,"current_range_meters":17200,"station_id":"ce4bhr12rcd13ifvqhpg","pricing_plan_id":"cebpf4jnsgd1na2vs0mg"},{"bike_id":"f0ad6f0a-a17b-4bee-9196-57c4c5a47783","system_id":"levelo_inurba_marseille","lat":43.3001,"lon":5.37233,"is_reserved":false,"is_disabled":false,"rental_uris":{"android":"levelo://app?vid=f0ad6f0a-a17b-4bee-9196-57c4c5a47783","ios":"levelo://app?vid=f0ad6f0a-a17b-4bee-9196-57c4c5a47783"},"vehicle_type_id":"4","last_reported":1722164759,"current_range_meters":6000,"station_id":"","pricing_plan_id":"cebpf4jnsgd1na2vs0mg"},{"bike_id":"149ad317-2977-4c2d-b9af-065d2c29d5b4","system_id":"levelo_inurba_marseille","lat":43.300046,"lon":5.372361,"is_reserved":false,"is_disabled":false,"rental_uris":{"android":"levelo://app?vid=149ad317-2977-4c2d-b9af-065d2c29d5b4","ios":"levelo://app?vid=149ad317-2977-4c2d-b9af-065d2c29d5b4"},"vehicle_type_id":"4","last_reported":1722164759,"current_range_meters":29600,"station_id":"ce4bgr92rcd13ifvqc7g","pricing_plan_id":"cebpf4jnsgd1na2vs0mg"},{"bike_id":"0004125c-9f75-42d7-ac98-2aa01460aa6b","system_id":"levelo_inurba_marseille","lat":43.299222,"lon":5.365554,"is_reserved":false,"is_disabled":false,"rental_uris":{"android":"levelo://app?vid=0004125c-9f75-42d7-ac98-2aa01460aa6b","ios":"levelo://app?vid=0004125c-9f75-42d7-ac98-2aa01460aa6b"},"vehicle_type_id":"4","last_reported":1722164759,"current_range_meters":31200,"station_id":"ce4bgm92rcd13ifvqbr0","pricing_plan_id":"cebpf4jnsgd1na2vs0mg"},{"bike_id":"27287636-0844-43e8-9665-99d4c03bdb90","system_id":"levelo_inurba_marseille","lat":43.299222,"lon":5.365554,"is_reserved":false,"is_disabled":false,"rental_uris":{"android":"levelo://app?vid=27287636-0844-43e8-9665-99d4c03bdb90","ios":"levelo://app?vid=27287636-0844-43e8-9665-99d4c03bdb90"},"vehicle_type_id":"4","last_reported":1722164759,"current_range_meters":22000,"station_id":"ce4bgm92rcd13ifvqbr0","pricing_plan_id":"cebpf4jnsgd1na2vs0mg"},{"bike_id":"3df6041e-64c7-4e7d-9cf6-af84019b5086","system_id":"levelo_inurba_marseille","lat":43.299805,"lon":5.371745,"is_reserved":false,"is_disabled":false,"rental_uris":{"android":"levelo://app?vid=3df6041e-64c7-4e7d-9cf6-af84019b5086","ios":"levelo://app?vid=3df6041e-64c7-4e7d-9cf6-af84019b5086"},"vehicle_type_id":"4","last_reported":1722164759,"current_range_meters":24000,"station_id":"ce4bgr92rcd13ifvqc7g","pricing_plan_id":"cebpf4jnsgd1na2vs0mg"},{"bike_id":"677aad0e-dd71-4354-bd97-46b5162dae04","system_id":"levelo_inurba_marseille","lat":43.299724,"lon":5.371829,"is_reserved":false,"is_disabled":false,"rental_uris":{"android":"levelo://app?vid=677aad0e-dd71-4354-bd97-46b5162dae04","ios":"levelo://app?vid=677aad0e-dd71-4354-bd97-46b5162dae04"},"vehicle_type_id":"4","last_reported":1722164759,"current_range_meters":9200,"station_id":"ce4bgr92rcd13ifvqc7g","pricing_plan_id":"cebpf4jnsgd1na2vs0mg"},{"bike_id":"24080cb5-f441-4a76-91f2-1738984ce96b","system_id":"levelo_inurba_marseille","lat":43.29849,"lon":5.36286,"is_reserved":false,"is_disabled":false,"rental_uris":{"android":"levelo://app?vid=24080cb5-f441-4a76-91f2-1738984ce96b","ios":"levelo://app?vid=24080cb5-f441-4a76-91f2-1738984ce96b"},"vehicle_type_id":"4","last_reported":1722164759,"current_range_meters":0,"station_id":"ce4bgpp2rcd13ifvqc3g","pricing_plan_id":"cebpf4jnsgd1na2vs0mg"},{"bike_id":"6e67f336-dab0-494b-9d45-4ba861b65cad","system_id":"levelo_inurba_marseille","lat":43.305364,"lon":5.384119,"is_reserved":false,"is_disabled":false,"rental_uris":{"android":"levelo://app?vid=6e67f336-dab0-494b-9d45-4ba861b65cad","ios":"levelo://app?vid=6e67f336-dab0-494b-9d45-4ba861b65cad"},"vehicle_type_id":"4","last_reported":1722164759,"current_range_meters":28000,"station_id":"ce4bgg92rcd13ifvqb30","pricing_plan_id":"cebpf4jnsgd1na2vs0mg"},{"bike_id":"741c972e-5fb5-4e4c-a7bc-516502080495","system_id":"levelo_inurba_marseille","lat":43.299243,"lon":5.374807,"is_reserved":false,"is_disabled":false,"rental_uris":{"android":"levelo://app?vid=741c972e-5fb5-4e4c-a7bc-516502080495","ios":"levelo://app?vid=741c972e-5fb5-4e4c-a7bc-516502080495"},"vehicle_type_id":"4","last_reported":1722164759,"current_range_meters":16800,"station_id":"ce4bgjh2rcd13ifvqbg0","pricing_plan_id":"cebpf4jnsgd1na2vs0mg"},{"bike_id":"4986ea45-ddcc-48d0-9aba-176742ba9ee0","system_id":"levelo_inurba_marseille","lat":43.30147,"lon":5.38076,"is_reserved":false,"is_disabled":false,"rental_uris":{"android":"levelo://app?vid=4986ea45-ddcc-48d0-9aba-176742ba9ee0","ios":"levelo://app?vid=4986ea45-ddcc-48d0-9aba-176742ba9ee0"},"vehicle_type_id":"4","last_reported":1722164759,"current_range_meters":10400,"station_id":"","pricing_plan_id":"cebpf4jnsgd1na2vs0mg"},{"bike_id":"be879652-2d09-4630-9ec9-28ec8a6dca08","system_id":"levelo_inurba_marseille","lat":43.3014,"lon":5.38067,"is_reserved":false,"is_disabled":false,"rental_uris":{"android":"levelo://app?vid=be879652-2d09-4630-9ec9-28ec8a6dca08","ios":"levelo://app?vid=be879652-2d09-4630-9ec9-28ec8a6dca08"},"vehicle_type_id":"4","last_reported":1722164759,"current_range_meters":18000,"station_id":"","pricing_plan_id":"cebpf4jnsgd1na2vs0mg"},{"bike_id":"cbd5478e-43ef-44fe-addf-a936cda6729a","system_id":"levelo_inurba_marseille","lat":43.30147,"lon":5.38079,"is_reserved":false,"is_disabled":false,"rental_uris":{"android":"levelo://app?vid=cbd5478e-43ef-44fe-addf-a936cda6729a","ios":"levelo://app?vid=cbd5478e-43ef-44fe-addf-a936cda6729a"},"vehicle_type_id":"4","last_reported":1722164759,"current_range_meters":18800,"station_id":"","pricing_plan_id":"cebpf4jnsgd1na2vs0mg"},{"bike_id":"8ad7d1f0-36ba-4891-8a86-274947aa917f","system_id":"levelo_inurba_marseille","lat":43.322872,"lon":5.382756,"is_reserved":false,"is_disabled":false,"rental_uris":{"android":"levelo://app?vid=8ad7d1f0-36ba-4891-8a86-274947aa917f","ios":"levelo://app?vid=8ad7d1f0-36ba-4891-8a86-274947aa917f"},"vehicle_type_id":"4","last_reported":1722164759,"current_range_meters":25200,"station_id":"ce4bhr12rcd13ifvqhqg","pricing_plan_id":"cebpf4jnsgd1na2vs0mg"},{"bike_id":"dce303a6-cd2a-46cc-8179-0244c896ff46","system_id":"levelo_inurba_marseille","lat":43.322872,"lon":5.382756,"is_reserved":false,"is_disabled":false,"rental_uris":{"android":"levelo://app?vid=dce303a6-cd2a-46cc-8179-0244c896ff46","ios":"levelo://app?vid=dce303a6-cd2a-46cc-8179-0244c896ff46"},"vehicle_type_id":"4","last_reported":1722164759,"current_range_meters":26400,"station_id":"ce4bhr12rcd13ifvqhqg","pricing_plan_id":"cebpf4jnsgd1na2vs0mg"},{"bike_id":"c5ac709a-d442-4f25-9950-8cc1867dfa82","system_id":"levelo_inurba_marseille","lat":43.322872,"lon":5.382756,"is_reserved":false,"is_disabled":false,"rental_uris":{"android":"levelo://app?vid=c5ac709a-d442-4f25-9950-8cc1867dfa82","ios":"levelo://app?vid=c5ac709a-d442-4f25-9950-8cc1867dfa82"},"vehicle_type_id":"4","last_reported":1722164759,"current_range_meters":29200,"station_id":"ce4bhr12rcd13ifvqhqg","pricing_plan_id":"cebpf4jnsgd1na2vs0mg"},{"bike_id":"22e41778-51bb-4239-91a8-cf2d50ed1db8","system_id":"levelo_inurba_marseille","lat":43.319,"lon":5.38646,"is_reserved":false,"is_disabled":false,"rental_uris":{"android":"levelo://app?vid=22e41778-51bb-4239-91a8-cf2d50ed1db8","ios":"levelo://app?vid=22e41778-51bb-4239-91a8-cf2d50ed1db8"},"vehicle_type_id":"4","last_reported":1722164759,"current_range_meters":28400,"station_id":"","pricing_plan_id":"cebpf4jnsgd1na2vs0mg"},{"bike_id":"27853654-730d-4d1e-9bfa-5c3ab01f8de3","system_id":"levelo_inurba_marseille","lat":43.297163,"lon":5.365866,"is_reserved":false,"is_disabled":false,"rental_uris":{"android":"levelo://app?vid=27853654-730d-4d1e-9bfa-5c3ab01f8de3","ios":"levelo://app?vid=27853654-730d-4d1e-9bfa-5c3ab01f8de3"},"vehicle_type_id":"4","last_reported":1722164759,"current_range_meters":29600,"station_id":"ce4bgn12rcd13ifvqbt0","pricing_plan_id":"cebpf4jnsgd1na2vs0mg"},{"bike_id":"1a28382f-c4f3-4f4c-9de8-d806e49a8fff","system_id":"levelo_inurba_marseille","lat":43.297163,"lon":5.365866,"is_reserved":false,"is_disabled":false,"rental_uris":{"android":"levelo://app?vid=1a28382f-c4f3-4f4c-9de8-d806e49a8fff","ios":"levelo://app?vid=1a28382f-c4f3-4f4c-9de8-d806e49a8fff"},"vehicle_type_id":"4","last_reported":1722164759,"current_range_meters":24800,"station_id":"ce4bgn12rcd13ifvqbt0","pricing_plan_id":"cebpf4jnsgd1na2vs0mg"},{"bike_id":"77ebd6f7-0e15-4246-8feb-b1d720ac899a","system_id":"levelo_inurba_marseille","lat":43.30059,"lon":5.38222,"is_reserved":false,"is_disabled":false,"rental_uris":{"android":"levelo://app?vid=77ebd6f7-0e15-4246-8feb-b1d720ac899a","ios":"levelo://app?vid=77ebd6f7-0e15-4246-8feb-b1d720ac899a"},"vehicle_type_id":"4","last_reported":1722164759,"current_range_meters":15600,"station_id":"","pricing_plan_id":"cebpf4jnsgd1na2vs0mg"},{"bike_id":"43759f3b-7365-4cb1-a1dc-24dc6ff23dd8","system_id":"levelo_inurba_marseille","lat":43.295815,"lon":5.36749,"is_reserved":false,"is_disabled":false,"rental_uris":{"android":"levelo://app?vid=43759f3b-7365-4cb1-a1dc-24dc6ff23dd8","ios":"levelo://app?vid=43759f3b-7365-4cb1-a1dc-24dc6ff23dd8"},"vehicle_type_id":"4","last_reported":1722164759,"current_range_meters":0,"station_id":"ce4bgph2rcd13ifvqc2g","pricing_plan_id":"cebpf4jnsgd1na2vs0mg"},{"bike_id":"36d32025-f484-422b-8564-a9b164e0eff2","system_id":"levelo_inurba_marseille","lat":43.316202,"lon":5.389765,"is_reserved":false,"is_disabled":false,"rental_uris":{"android":"levelo://app?vid=36d32025-f484-422b-8564-a9b164e0eff2","ios":"levelo://app?vid=36d32025-f484-422b-8564-a9b164e0eff2"},"vehicle_type_id":"4","last_reported":1722164759,"current_range_meters":12000,"station_id":"","pricing_plan_id":"cebpf4jnsgd1na2vs0mg"},{"bike_id":"b9865e11-0b55-4985-8a61-dae9d2a63159","system_id":"levelo_inurba_marseille","lat":43.296921,"lon":5.376579,"is_reserved":false,"is_disabled":false,"rental_uris":{"android":"levelo://app?vid=b9865e11-0b55-4985-8a61-dae9d2a63159","ios":"levelo://app?vid=b9865e11-0b55-4985-8a61-dae9d2a63159"},"vehicle_type_id":"4","last_reported":1722164759,"current_range_meters":31200,"station_id":"ce4bgkh2rcd13ifvqbl0","pricing_plan_id":"cebpf4jnsgd1na2vs0mg"},{"bike_id":"4496c404-3c32-4a6a-a8d4-fe28ae420eb9","system_id":"levelo_inurba_marseille","lat":43.317557,"lon":5.390173,"is_reserved":false,"is_disabled":false,"rental_uris":{"android":"levelo://app?vid=4496c404-3c32-4a6a-a8d4-fe28ae420eb9","ios":"levelo://app?vid=4496c404-3c32-4a6a-a8d4-fe28ae420eb9"},"vehicle_type_id":"4","last_reported":1722164759,"current_range_meters":31600,"station_id":"ce4bhqp2rcd13ifvqhng","pricing_plan_id":"cebpf4jnsgd1na2vs0mg"},{"bike_id":"ade024a8-b806-4c65-a0fe-6885f65cca88","system_id":"levelo_inurba_marseille","lat":43.317557,"lon":5.390173,"is_reserved":false,"is_disabled":false,"rental_uris":{"android":"levelo://app?vid=ade024a8-b806-4c65-a0fe-6885f65cca88","ios":"levelo://app?vid=ade024a8-b806-4c65-a0fe-6885f65cca88"},"vehicle_type_id":"4","last_reported":1722164759,"current_range_meters":6000,"station_id":"ce4bhqp2rcd13ifvqhng","pricing_plan_id":"cebpf4jnsgd1na2vs0mg"},{"bike_id":"5ec161cf-3f2c-419a-8ba0-907fa69c3c89","system_id":"levelo_inurba_marseille","lat":43.3175,"lon":5.39022,"is_reserved":false,"is_disabled":false,"rental_uris":{"android":"levelo://app?vid=5ec161cf-3f2c-419a-8ba0-907fa69c3c89","ios":"levelo://app?vid=5ec161cf-3f2c-419a-8ba0-907fa69c3c89"},"vehicle_type_id":"4","last_reported":1722164759,"current_range_meters":0,"station_id":"ce4bhqp2rcd13ifvqhng","pricing_plan_id":"cebpf4jnsgd1na2vs0mg"},{"bike_id":"6e350ec2-9ebd-4ebe-a8a5-ee90b866115f","system_id":"levelo_inurba_marseille","lat":43.295748,"lon":5.37522,"is_reserved":false,"is_disabled":false,"rental_uris":{"android":"levelo://app?vid=6e350ec2-9ebd-4ebe-a8a5-ee90b866115f","ios":"levelo://app?vid=6e350ec2-9ebd-4ebe-a8a5-ee90b866115f"},"vehicle_type_id":"4","last_reported":1722164759,"current_range_meters":20800,"station_id":"ce4bgh92rcd13ifvqb50","pricing_plan_id":"cebpf4jnsgd1na2vs0mg"},{"bike_id":"5a0b9365-378f-4dae-acec-eec12779b8dd","system_id":"levelo_inurba_marseille","lat":43.298037,"lon":5.381066,"is_reserved":false,"is_disabled":false,"rental_uris":{"android":"levelo://app?vid=5a0b9365-378f-4dae-acec-eec12779b8dd","ios":"levelo://app?vid=5a0b9365-378f-4dae-acec-eec12779b8dd"},"vehicle_type_id":"4","last_reported":1722164759,"current_range_meters":18000,"station_id":"ce4bgip2rcd13ifvqbb0","pricing_plan_id":"cebpf4jnsgd1na2vs0mg"},{"bike_id":"99a7183b-2b17-4752-bfc4-1daf69fe049b","system_id":"levelo_inurba_marseille","lat":43.304278,"lon":5.388868,"is_reserved":false,"is_disabled":false,"rental_uris":{"android":"levelo://app?vid=99a7183b-2b17-4752-bfc4-1daf69fe049b","ios":"levelo://app?vid=99a7183b-2b17-4752-bfc4-1daf69fe049b"},"vehicle_type_id":"4","last_reported":1722164759,"current_range_meters":28000,"station_id":"ce4bgk12rcd13ifvqbi0","pricing_plan_id":"cebpf4jnsgd1na2vs0mg"},{"bike_id":"8f6a3b5f-a898-47f3-9800-bef8f8892bd8","system_id":"levelo_inurba_marseille","lat":43.295748,"lon":5.37522,"is_reserved":false,"is_disabled":false,"rental_uris":{"android":"levelo://app?vid=8f6a3b5f-a898-47f3-9800-bef8f8892bd8","ios":"levelo://app?vid=8f6a3b5f-a898-47f3-9800-bef8f8892bd8"},"vehicle_type_id":"4","last_reported":1722164759,"current_range_meters":18400,"station_id":"ce4bgh92rcd13ifvqb50","pricing_plan_id":"cebpf4jnsgd1na2vs0mg"},{"bike_id":"c284be03-b69f-4c61-921c-cb79e4617b66","system_id":"levelo_inurba_marseille","lat":43.299707,"lon":5.384859,"is_reserved":false,"is_disabled":false,"rental_uris":{"android":"levelo://app?vid=c284be03-b69f-4c61-921c-cb79e4617b66","ios":"levelo://app?vid=c284be03-b69f-4c61-921c-cb79e4617b66"},"vehicle_type_id":"4","last_reported":1722164759,"current_range_meters":2400,"station_id":"ce4bgj92rcd13ifvqbd0","pricing_plan_id":"cebpf4jnsgd1na2vs0mg"},{"bike_id":"1b3d31fc-d2a7-4ebc-8710-8c5ff28ab859","system_id":"levelo_inurba_marseille","lat":43.299717,"lon":5.384845,"is_reserved":false,"is_disabled":false,"rental_uris":{"android":"levelo://app?vid=1b3d31fc-d2a7-4ebc-8710-8c5ff28ab859","ios":"levelo://app?vid=1b3d31fc-d2a7-4ebc-8710-8c5ff28ab859"},"vehicle_type_id":"4","last_reported":1722164759,"current_range_meters":19600,"station_id":"ce4bgj92rcd13ifvqbd0","pricing_plan_id":"cebpf4jnsgd1na2vs0mg"},{"bike_id":"e3a23ba9-361b-4c08-88c8-31722f2edddf","system_id":"levelo_inurba_marseille","lat":43.299707,"lon":5.384859,"is_reserved":false,"is_disabled":false,"rental_uris":{"android":"levelo://app?vid=e3a23ba9-361b-4c08-88c8-31722f2edddf","ios":"levelo://app?vid=e3a23ba9-361b-4c08-88c8-31722f2edddf"},"vehicle_type_id":"4","last_reported":1722164759,"current_range_meters":7200,"station_id":"ce4bgj92rcd13ifvqbd0","pricing_plan_id":"cebpf4jnsgd1na2vs0mg"},{"bike_id":"a02b2c03-66e7-437f-a700-f25f2b8c5801","system_id":"levelo_inurba_marseille","lat":43.32367,"lon":5.388836,"is_reserved":false,"is_disabled":false,"rental_uris":{"android":"levelo://app?vid=a02b2c03-66e7-437f-a700-f25f2b8c5801","ios":"levelo://app?vid=a02b2c03-66e7-437f-a700-f25f2b8c5801"},"vehicle_type_id":"4","last_reported":1722164759,"current_range_meters":31200,"station_id":"ce4bhqp2rcd13ifvqhog","pricing_plan_id":"cebpf4jnsgd1na2vs0mg"},{"bike_id":"6a60a62a-575f-4518-830c-e8e47c8b46dd","system_id":"levelo_inurba_marseille","lat":43.32367,"lon":5.388836,"is_reserved":false,"is_disabled":false,"rental_uris":{"android":"levelo://app?vid=6a60a62a-575f-4518-830c-e8e47c8b46dd","ios":"levelo://app?vid=6a60a62a-575f-4518-830c-e8e47c8b46dd"},"vehicle_type_id":"4","last_reported":1722164759,"current_range_meters":0,"station_id":"ce4bhqp2rcd13ifvqhog","pricing_plan_id":"cebpf4jnsgd1na2vs0mg"},{"bike_id":"8a85e68b-c274-4603-b0b0-66cb64a76282","system_id":"levelo_inurba_marseille","lat":43.32361,"lon":5.38898,"is_reserved":false,"is_disabled":false,"rental_uris":{"android":"levelo://app?vid=8a85e68b-c274-4603-b0b0-66cb64a76282","ios":"levelo://app?vid=8a85e68b-c274-4603-b0b0-66cb64a76282"},"vehicle_type_id":"4","last_reported":1722164759,"current_range_meters":29600,"station_id":"ce4bhqp2rcd13ifvqhog","pricing_plan_id":"cebpf4jnsgd1na2vs0mg"},{"bike_id":"fff9ce80-e3a6-4300-a750-f133cdb858c3","system_id":"levelo_inurba_marseille","lat":43.29351,"lon":5.37132,"is_reserved":false,"is_disabled":false,"rental_uris":{"android":"levelo://app?vid=fff9ce80-e3a6-4300-a750-f133cdb858c3","ios":"levelo://app?vid=fff9ce80-e3a6-4300-a750-f133cdb858c3"},"vehicle_type_id":"4","last_reported":1722164759,"current_range_meters":10800,"station_id":"","pricing_plan_id":"cebpf4jnsgd1na2vs0mg"},{"bike_id":"b2629a57-9a23-4d04-8287-c267a0e32cb2","system_id":"levelo_inurba_marseille","lat":43.29602,"lon":5.381084,"is_reserved":false,"is_disabled":false,"rental_uris":{"android":"levelo://app?vid=b2629a57-9a23-4d04-8287-c267a0e32cb2","ios":"levelo://app?vid=b2629a57-9a23-4d04-8287-c267a0e32cb2"},"vehicle_type_id":"4","last_reported":1722164759,"current_range_meters":6800,"station_id":"ce4bgl12rcd13ifvqbo0","pricing_plan_id":"cebpf4jnsgd1na2vs0mg"},{"bike_id":"9770338f-93aa-4842-87e9-0832f1b243fc","system_id":"levelo_inurba_marseille","lat":43.29602,"lon":5.381084,"is_reserved":false,"is_disabled":false,"rental_uris":{"android":"levelo://app?vid=9770338f-93aa-4842-87e9-0832f1b243fc","ios":"levelo://app?vid=9770338f-93aa-4842-87e9-0832f1b243fc"},"vehicle_type_id":"4","last_reported":1722164759,"current_range_meters":21600,"station_id":"ce4bgl12rcd13ifvqbo0","pricing_plan_id":"cebpf4jnsgd1na2vs0mg"},{"bike_id":"770a4196-904d-46ed-8c06-60e37d0e4343","system_id":"levelo_inurba_marseille","lat":43.293259,"lon":5.371586,"is_reserved":false,"is_disabled":false,"rental_uris":{"android":"levelo://app?vid=770a4196-904d-46ed-8c06-60e37d0e4343","ios":"levelo://app?vid=770a4196-904d-46ed-8c06-60e37d0e4343"},"vehicle_type_id":"4","last_reported":1722164759,"current_range_meters":10800,"station_id":"ce4bgh92rcd13ifvqb40","pricing_plan_id":"cebpf4jnsgd1na2vs0mg"},{"bike_id":"0609d4c9-b5d5-4fd5-b8a9-c20bdeb808e2","system_id":"levelo_inurba_marseille","lat":43.292749,"lon":5.368402,"is_reserved":false,"is_disabled":false,"rental_uris":{"android":"levelo://app?vid=0609d4c9-b5d5-4fd5-b8a9-c20bdeb808e2","ios":"levelo://app?vid=0609d4c9-b5d5-4fd5-b8a9-c20bdeb808e2"},"vehicle_type_id":"4","last_reported":1722164759,"current_range_meters":18800,"station_id":"ce4bhbp2rcd13ifvqesg","pricing_plan_id":"cebpf4jnsgd1na2vs0mg"},{"bike_id":"443a19b3-fe6f-4885-9ceb-974e24b210a6","system_id":"levelo_inurba_marseille","lat":43.292749,"lon":5.368398,"is_reserved":false,"is_disabled":false,"rental_uris":{"android":"levelo://app?vid=443a19b3-fe6f-4885-9ceb-974e24b210a6","ios":"levelo://app?vid=443a19b3-fe6f-4885-9ceb-974e24b210a6"},"vehicle_type_id":"4","last_reported":1722164759,"current_range_meters":3600,"station_id":"ce4bhbp2rcd13ifvqesg","pricing_plan_id":"cebpf4jnsgd1na2vs0mg"},{"bike_id":"370b0a53-935e-4321-a001-a1dcbd3f352a","system_id":"levelo_inurba_marseille","lat":43.292749,"lon":5.368402,"is_reserved":false,"is_disabled":false,"rental_uris":{"android":"levelo://app?vid=370b0a53-935e-4321-a001-a1dcbd3f352a","ios":"levelo://app?vid=370b0a53-935e-4321-a001-a1dcbd3f352a"},"vehicle_type_id":"4","last_reported":1722164759,"current_range_meters":400,"station_id":"ce4bhbp2rcd13ifvqesg","pricing_plan_id":"cebpf4jnsgd1na2vs0mg"},{"bike_id":"c005fb4b-74e1-404c-80a5-a0b2fc6ddde5","system_id":"levelo_inurba_marseille","lat":43.292749,"lon":5.368402,"is_reserved":false,"is_disabled":false,"rental_uris":{"android":"levelo://app?vid=c005fb4b-74e1-404c-80a5-a0b2fc6ddde5","ios":"levelo://app?vid=c005fb4b-74e1-404c-80a5-a0b2fc6ddde5"},"vehicle_type_id":"4","last_reported":1722164759,"current_range_meters":18800,"station_id":"ce4bhbp2rcd13ifvqesg","pricing_plan_id":"cebpf4jnsgd1na2vs0mg"},{"bike_id":"2c1e92c0-264c-4a77-ae38-871716cb75a3","system_id":"levelo_inurba_marseille","lat":43.2927,"lon":5.36853,"is_reserved":false,"is_disabled":false,"rental_uris":{"android":"levelo://app?vid=2c1e92c0-264c-4a77-ae38-871716cb75a3","ios":"levelo://app?vid=2c1e92c0-264c-4a77-ae38-871716cb75a3"},"vehicle_type_id":"4","last_reported":1722164759,"current_range_meters":18400,"station_id":"","pricing_plan_id":"cebpf4jnsgd1na2vs0mg"},{"bike_id":"138e9cf3-ade4-4bad-9830-f0fe7c014576","system_id":"levelo_inurba_marseille","lat":43.305994,"lon":5.393687,"is_reserved":false,"is_disabled":false,"rental_uris":{"android":"levelo://app?vid=138e9cf3-ade4-4bad-9830-f0fe7c014576","ios":"levelo://app?vid=138e9cf3-ade4-4bad-9830-f0fe7c014576"},"vehicle_type_id":"4","last_reported":1722164759,"current_range_meters":0,"station_id":"ce4bh0p2rcd13ifvqd80","pricing_plan_id":"cebpf4jnsgd1na2vs0mg"},{"bike_id":"b4a32be0-3fc4-4643-8bde-3642fda443f9","system_id":"levelo_inurba_marseille","lat":43.302992,"lon":5.392136,"is_reserved":false,"is_disabled":false,"rental_uris":{"android":"levelo://app?vid=b4a32be0-3fc4-4643-8bde-3642fda443f9","ios":"levelo://app?vid=b4a32be0-3fc4-4643-8bde-3642fda443f9"},"vehicle_type_id":"4","last_reported":1722164759,"current_range_meters":800,"station_id":"ce4bgkh2rcd13ifvqbk0","pricing_plan_id":"cebpf4jnsgd1na2vs0mg"},{"bike_id":"7dadfe3a-fa79-4b7b-98d9-097fa452308b","system_id":"levelo_inurba_marseille","lat":43.303002,"lon":5.392142,"is_reserved":false,"is_disabled":false,"rental_uris":{"android":"levelo://app?vid=7dadfe3a-fa79-4b7b-98d9-097fa452308b","ios":"levelo://app?vid=7dadfe3a-fa79-4b7b-98d9-097fa452308b"},"vehicle_type_id":"4","last_reported":1722164759,"current_range_meters":1200,"station_id":"ce4bgkh2rcd13ifvqbk0","pricing_plan_id":"cebpf4jnsgd1na2vs0mg"},{"bike_id":"69f9b007-4d47-4ab3-a18c-960382f6ee1a","system_id":"levelo_inurba_marseille","lat":43.292311,"lon":5.360731,"is_reserved":false,"is_disabled":false,"rental_uris":{"android":"levelo://app?vid=69f9b007-4d47-4ab3-a18c-960382f6ee1a","ios":"levelo://app?vid=69f9b007-4d47-4ab3-a18c-960382f6ee1a"},"vehicle_type_id":"4","last_reported":1722164759,"current_range_meters":26400,"station_id":"ce4bhbh2rcd13ifvqeqg","pricing_plan_id":"cebpf4jnsgd1na2vs0mg"},{"bike_id":"3fefd596-ad44-4bbe-b5c2-00f00d7155f2","system_id":"levelo_inurba_marseille","lat":43.29219,"lon":5.36053,"is_reserved":false,"is_disabled":false,"rental_uris":{"android":"levelo://app?vid=3fefd596-ad44-4bbe-b5c2-00f00d7155f2","ios":"levelo://app?vid=3fefd596-ad44-4bbe-b5c2-00f00d7155f2"},"vehicle_type_id":"4","last_reported":1722164759,"current_range_meters":26400,"station_id":"ce4bhbh2rcd13ifvqeqg","pricing_plan_id":"cebpf4jnsgd1na2vs0mg"},{"bike_id":"550aa6da-d1b7-4b48-8de6-ab3000043e23","system_id":"levelo_inurba_marseille","lat":43.298764,"lon":5.388973,"is_reserved":false,"is_disabled":false,"rental_uris":{"android":"levelo://app?vid=550aa6da-d1b7-4b48-8de6-ab3000043e23","ios":"levelo://app?vid=550aa6da-d1b7-4b48-8de6-ab3000043e23"},"vehicle_type_id":"4","last_reported":1722164759,"current_range_meters":18000,"station_id":"ce4bh392rcd13ifvqdl0","pricing_plan_id":"cebpf4jnsgd1na2vs0mg"},{"bike_id":"f4348f4e-5598-4b83-8aa3-b886d1a2ff43","system_id":"levelo_inurba_marseille","lat":43.29262,"lon":5.37617,"is_reserved":false,"is_disabled":false,"rental_uris":{"android":"levelo://app?vid=f4348f4e-5598-4b83-8aa3-b886d1a2ff43","ios":"levelo://app?vid=f4348f4e-5598-4b83-8aa3-b886d1a2ff43"},"vehicle_type_id":"4","last_reported":1722164759,"current_range_meters":28800,"station_id":"ce4bgi12rcd13ifvqb80","pricing_plan_id":"cebpf4jnsgd1na2vs0mg"},{"bike_id":"b27a82ad-a505-4b11-a89a-ee05cc727eaa","system_id":"levelo_inurba_marseille","lat":43.313318,"lon":5.396792,"is_reserved":false,"is_disabled":false,"rental_uris":{"android":"levelo://app?vid=b27a82ad-a505-4b11-a89a-ee05cc727eaa","ios":"levelo://app?vid=b27a82ad-a505-4b11-a89a-ee05cc727eaa"},"vehicle_type_id":"4","last_reported":1722164759,"current_range_meters":800,"station_id":"ce4bgvp2rcd13ifvqcu0","pricing_plan_id":"cebpf4jnsgd1na2vs0mg"},{"bike_id":"fb536382-5af4-4c29-a47f-032526bf4f84","system_id":"levelo_inurba_marseille","lat":43.313291,"lon":5.396838,"is_reserved":false,"is_disabled":false,"rental_uris":{"android":"levelo://app?vid=fb536382-5af4-4c29-a47f-032526bf4f84","ios":"levelo://app?vid=fb536382-5af4-4c29-a47f-032526bf4f84"},"vehicle_type_id":"4","last_reported":1722164759,"current_range_meters":12800,"station_id":"ce4bgvp2rcd13ifvqcu0","pricing_plan_id":"cebpf4jnsgd1na2vs0mg"},{"bike_id":"cecd89d4-5d33-4972-b3d2-c4be54a2feaa","system_id":"levelo_inurba_marseille","lat":43.291491,"lon":5.358848,"is_reserved":false,"is_disabled":false,"rental_uris":{"android":"levelo://app?vid=cecd89d4-5d33-4972-b3d2-c4be54a2feaa","ios":"levelo://app?vid=cecd89d4-5d33-4972-b3d2-c4be54a2feaa"},"vehicle_type_id":"4","last_reported":1722164759,"current_range_meters":1600,"station_id":"","pricing_plan_id":"cebpf4jnsgd1na2vs0mg"},{"bike_id":"a7284a64-15fd-4539-8501-9a9a0ce144bd","system_id":"levelo_inurba_marseille","lat":43.29034,"lon":5.35928,"is_reserved":false,"is_disabled":false,"rental_uris":{"android":"levelo://app?vid=a7284a64-15fd-4539-8501-9a9a0ce144bd","ios":"levelo://app?vid=a7284a64-15fd-4539-8501-9a9a0ce144bd"},"vehicle_type_id":"4","last_reported":1722164759,"current_range_meters":16800,"station_id":"","pricing_plan_id":"cebpf4jnsgd1na2vs0mg"},{"bike_id":"42f6f81a-0eb0-46c0-a0d8-41fe8d9c1b75","system_id":"levelo_inurba_marseille","lat":43.294153,"lon":5.386305,"is_reserved":false,"is_disabled":false,"rental_uris":{"android":"levelo://app?vid=42f6f81a-0eb0-46c0-a0d8-41fe8d9c1b75","ios":"levelo://app?vid=42f6f81a-0eb0-46c0-a0d8-41fe8d9c1b75"},"vehicle_type_id":"4","last_reported":1722164759,"current_range_meters":12400,"station_id":"ce4bh2h2rcd13ifvqdh0","pricing_plan_id":"cebpf4jnsgd1na2vs0mg"},{"bike_id":"51305610-32cb-4cf4-addf-f88127765b36","system_id":"levelo_inurba_marseille","lat":43.29415,"lon":5.38635,"is_reserved":false,"is_disabled":false,"rental_uris":{"android":"levelo://app?vid=51305610-32cb-4cf4-addf-f88127765b36","ios":"levelo://app?vid=51305610-32cb-4cf4-addf-f88127765b36"},"vehicle_type_id":"4","last_reported":1722164759,"current_range_meters":0,"station_id":"ce4bh2h2rcd13ifvqdh0","pricing_plan_id":"cebpf4jnsgd1na2vs0mg"},{"bike_id":"1b52f56d-2f3f-4353-895c-7d9a74db66c2","system_id":"levelo_inurba_marseille","lat":43.289468,"lon":5.363719,"is_reserved":false,"is_disabled":false,"rental_uris":{"android":"levelo://app?vid=1b52f56d-2f3f-4353-895c-7d9a74db66c2","ios":"levelo://app?vid=1b52f56d-2f3f-4353-895c-7d9a74db66c2"},"vehicle_type_id":"4","last_reported":1722164759,"current_range_meters":23600,"station_id":"ce4bhc92rcd13ifvqetg","pricing_plan_id":"cebpf4jnsgd1na2vs0mg"},{"bike_id":"a9c479d0-282c-400b-a3cf-4dc63abbdcc3","system_id":"levelo_inurba_marseille","lat":43.29006,"lon":5.35614,"is_reserved":false,"is_disabled":false,"rental_uris":{"android":"levelo://app?vid=a9c479d0-282c-400b-a3cf-4dc63abbdcc3","ios":"levelo://app?vid=a9c479d0-282c-400b-a3cf-4dc63abbdcc3"},"vehicle_type_id":"4","last_reported":1722164759,"current_range_meters":0,"station_id":"ce4bhb92rcd13ifvqen0","pricing_plan_id":"cebpf4jnsgd1na2vs0mg"},{"bike_id":"97f1bc9d-2eb8-44c6-b6a0-7cf5e3ce2c57","system_id":"levelo_inurba_marseille","lat":43.290995,"lon":5.381361,"is_reserved":false,"is_disabled":false,"rental_uris":{"android":"levelo://app?vid=97f1bc9d-2eb8-44c6-b6a0-7cf5e3ce2c57","ios":"levelo://app?vid=97f1bc9d-2eb8-44c6-b6a0-7cf5e3ce2c57"},"vehicle_type_id":"4","last_reported":1722164759,"current_range_meters":15600,"station_id":"ce4bh512rcd13ifvqe2g","pricing_plan_id":"cebpf4jnsgd1na2vs0mg"},{"bike_id":"b295bae0-edc7-4c95-a67c-325effda7a19","system_id":"levelo_inurba_marseille","lat":43.29023,"lon":5.35497,"is_reserved":false,"is_disabled":false,"rental_uris":{"android":"levelo://app?vid=b295bae0-edc7-4c95-a67c-325effda7a19","ios":"levelo://app?vid=b295bae0-edc7-4c95-a67c-325effda7a19"},"vehicle_type_id":"4","last_reported":1722164759,"current_range_meters":3200,"station_id":"","pricing_plan_id":"cebpf4jnsgd1na2vs0mg"},{"bike_id":"d0bc4f2d-dfe8-4512-a807-884724b381c1","system_id":"levelo_inurba_marseille","lat":43.290995,"lon":5.381361,"is_reserved":false,"is_disabled":false,"rental_uris":{"android":"levelo://app?vid=d0bc4f2d-dfe8-4512-a807-884724b381c1","ios":"levelo://app?vid=d0bc4f2d-dfe8-4512-a807-884724b381c1"},"vehicle_type_id":"4","last_reported":1722164759,"current_range_meters":17600,"station_id":"ce4bh512rcd13ifvqe2g","pricing_plan_id":"cebpf4jnsgd1na2vs0mg"},{"bike_id":"828a0e02-1d28-4a34-9442-cab090f76cb9","system_id":"levelo_inurba_marseille","lat":43.330442,"lon":5.389148,"is_reserved":false,"is_disabled":false,"rental_uris":{"android":"levelo://app?vid=828a0e02-1d28-4a34-9442-cab090f76cb9","ios":"levelo://app?vid=828a0e02-1d28-4a34-9442-cab090f76cb9"},"vehicle_type_id":"4","last_reported":1722164759,"current_range_meters":29200,"station_id":"ce4bhr92rcd13ifvqhrg","pricing_plan_id":"cebpf4jnsgd1na2vs0mg"},{"bike_id":"4bf291e3-3759-4c73-a5db-f99ef7278c19","system_id":"levelo_inurba_marseille","lat":43.330442,"lon":5.389148,"is_reserved":false,"is_disabled":false,"rental_uris":{"android":"levelo://app?vid=4bf291e3-3759-4c73-a5db-f99ef7278c19","ios":"levelo://app?vid=4bf291e3-3759-4c73-a5db-f99ef7278c19"},"vehicle_type_id":"4","last_reported":1722164759,"current_range_meters":10400,"station_id":"ce4bhr92rcd13ifvqhrg","pricing_plan_id":"cebpf4jnsgd1na2vs0mg"},{"bike_id":"f0df78a5-b50c-4261-85df-bdca09e11023","system_id":"levelo_inurba_marseille","lat":43.330442,"lon":5.389148,"is_reserved":false,"is_disabled":false,"rental_uris":{"android":"levelo://app?vid=f0df78a5-b50c-4261-85df-bdca09e11023","ios":"levelo://app?vid=f0df78a5-b50c-4261-85df-bdca09e11023"},"vehicle_type_id":"4","last_reported":1722164759,"current_range_meters":18000,"station_id":"ce4bhr92rcd13ifvqhrg","pricing_plan_id":"cebpf4jnsgd1na2vs0mg"},{"bike_id":"909fb947-55c0-4649-acac-596dbb4e1468","system_id":"levelo_inurba_marseille","lat":43.330442,"lon":5.389148,"is_reserved":false,"is_disabled":false,"rental_uris":{"android":"levelo://app?vid=909fb947-55c0-4649-acac-596dbb4e1468","ios":"levelo://app?vid=909fb947-55c0-4649-acac-596dbb4e1468"},"vehicle_type_id":"4","last_reported":1722164759,"current_range_meters":31200,"station_id":"ce4bhr92rcd13ifvqhrg","pricing_plan_id":"cebpf4jnsgd1na2vs0mg"},{"bike_id":"e10c41d8-6908-42d4-ab91-7f26ca7cd2e2","system_id":"levelo_inurba_marseille","lat":43.31075,"lon":5.40097,"is_reserved":false,"is_disabled":false,"rental_uris":{"android":"levelo://app?vid=e10c41d8-6908-42d4-ab91-7f26ca7cd2e2","ios":"levelo://app?vid=e10c41d8-6908-42d4-ab91-7f26ca7cd2e2"},"vehicle_type_id":"4","last_reported":1722164759,"current_range_meters":0,"station_id":"","pricing_plan_id":"cebpf4jnsgd1na2vs0mg"},{"bike_id":"42cdf1d3-ba8c-45a5-acc5-c9f0703a8dc8","system_id":"levelo_inurba_marseille","lat":43.28856,"lon":5.358371,"is_reserved":false,"is_disabled":false,"rental_uris":{"android":"levelo://app?vid=42cdf1d3-ba8c-45a5-acc5-c9f0703a8dc8","ios":"levelo://app?vid=42cdf1d3-ba8c-45a5-acc5-c9f0703a8dc8"},"vehicle_type_id":"4","last_reported":1722164759,"current_range_meters":0,"station_id":"ce4bhb12rcd13ifvqem0","pricing_plan_id":"cebpf4jnsgd1na2vs0mg"},{"bike_id":"e0d7262b-b638-48ca-9e7d-25b9dd5647af","system_id":"levelo_inurba_marseille","lat":43.28856,"lon":5.358371,"is_reserved":false,"is_disabled":false,"rental_uris":{"android":"levelo://app?vid=e0d7262b-b638-48ca-9e7d-25b9dd5647af","ios":"levelo://app?vid=e0d7262b-b638-48ca-9e7d-25b9dd5647af"},"vehicle_type_id":"4","last_reported":1722164759,"current_range_meters":15600,"station_id":"ce4bhb12rcd13ifvqem0","pricing_plan_id":"cebpf4jnsgd1na2vs0mg"},{"bike_id":"20a7bf81-31fd-4cb5-b454-68d5314a31b8","system_id":"levelo_inurba_marseille","lat":43.33737,"lon":5.37468,"is_reserved":false,"is_disabled":false,"rental_uris":{"android":"levelo://app?vid=20a7bf81-31fd-4cb5-b454-68d5314a31b8","ios":"levelo://app?vid=20a7bf81-31fd-4cb5-b454-68d5314a31b8"},"vehicle_type_id":"4","last_reported":1722164759,"current_range_meters":28000,"station_id":"","pricing_plan_id":"cebpf4jnsgd1na2vs0mg"},{"bike_id":"3e79250c-7764-488c-b465-61fd16d31170","system_id":"levelo_inurba_marseille","lat":43.33736,"lon":5.37477,"is_reserved":false,"is_disabled":false,"rental_uris":{"android":"levelo://app?vid=3e79250c-7764-488c-b465-61fd16d31170","ios":"levelo://app?vid=3e79250c-7764-488c-b465-61fd16d31170"},"vehicle_type_id":"4","last_reported":1722164759,"current_range_meters":25600,"station_id":"","pricing_plan_id":"cebpf4jnsgd1na2vs0mg"},{"bike_id":"e92bf1d5-b1ca-44cd-9b31-a0496082825d","system_id":"levelo_inurba_marseille","lat":43.33733,"lon":5.37507,"is_reserved":false,"is_disabled":false,"rental_uris":{"android":"levelo://app?vid=e92bf1d5-b1ca-44cd-9b31-a0496082825d","ios":"levelo://app?vid=e92bf1d5-b1ca-44cd-9b31-a0496082825d"},"vehicle_type_id":"4","last_reported":1722164759,"current_range_meters":26000,"station_id":"","pricing_plan_id":"cebpf4jnsgd1na2vs0mg"},{"bike_id":"0aa226e6-2195-431b-bdc4-34bf44420451","system_id":"levelo_inurba_marseille","lat":43.337467,"lon":5.374397,"is_reserved":false,"is_disabled":false,"rental_uris":{"android":"levelo://app?vid=0aa226e6-2195-431b-bdc4-34bf44420451","ios":"levelo://app?vid=0aa226e6-2195-431b-bdc4-34bf44420451"},"vehicle_type_id":"4","last_reported":1722164759,"current_range_meters":23600,"station_id":"","pricing_plan_id":"cebpf4jnsgd1na2vs0mg"},{"bike_id":"f8e8dd66-c7d6-4bd0-91ac-ef4274ae24f3","system_id":"levelo_inurba_marseille","lat":43.337425,"lon":5.374675,"is_reserved":false,"is_disabled":false,"rental_uris":{"android":"levelo://app?vid=f8e8dd66-c7d6-4bd0-91ac-ef4274ae24f3","ios":"levelo://app?vid=f8e8dd66-c7d6-4bd0-91ac-ef4274ae24f3"},"vehicle_type_id":"4","last_reported":1722164759,"current_range_meters":16800,"station_id":"","pricing_plan_id":"cebpf4jnsgd1na2vs0mg"},{"bike_id":"4b8edffc-c3ec-4850-9801-f91ff76d6d88","system_id":"levelo_inurba_marseille","lat":43.31276,"lon":5.401728,"is_reserved":false,"is_disabled":false,"rental_uris":{"android":"levelo://app?vid=4b8edffc-c3ec-4850-9801-f91ff76d6d88","ios":"levelo://app?vid=4b8edffc-c3ec-4850-9801-f91ff76d6d88"},"vehicle_type_id":"4","last_reported":1722164759,"current_range_meters":23600,"station_id":"ce4bh092rcd13ifvqd30","pricing_plan_id":"cebpf4jnsgd1na2vs0mg"},{"bike_id":"28ff567c-281c-4a43-913e-e1206badf942","system_id":"levelo_inurba_marseille","lat":43.337458,"lon":5.374648,"is_reserved":false,"is_disabled":false,"rental_uris":{"android":"levelo://app?vid=28ff567c-281c-4a43-913e-e1206badf942","ios":"levelo://app?vid=28ff567c-281c-4a43-913e-e1206badf942"},"vehicle_type_id":"4","last_reported":1722164759,"current_range_meters":20000,"station_id":"","pricing_plan_id":"cebpf4jnsgd1na2vs0mg"},{"bike_id":"f0338c4f-2f14-449f-abf8-25e44f36ca55","system_id":"levelo_inurba_marseille","lat":43.337503,"lon":5.374507,"is_reserved":false,"is_disabled":false,"rental_uris":{"android":"levelo://app?vid=f0338c4f-2f14-449f-abf8-25e44f36ca55","ios":"levelo://app?vid=f0338c4f-2f14-449f-abf8-25e44f36ca55"},"vehicle_type_id":"4","last_reported":1722164759,"current_range_meters":26400,"station_id":"","pricing_plan_id":"cebpf4jnsgd1na2vs0mg"},{"bike_id":"6ff48f3c-927a-470d-a08e-7714539082f0","system_id":"levelo_inurba_marseille","lat":43.33747,"lon":5.37479,"is_reserved":false,"is_disabled":false,"rental_uris":{"android":"levelo://app?vid=6ff48f3c-927a-470d-a08e-7714539082f0","ios":"levelo://app?vid=6ff48f3c-927a-470d-a08e-7714539082f0"},"vehicle_type_id":"4","last_reported":1722164759,"current_range_meters":0,"station_id":"","pricing_plan_id":"cebpf4jnsgd1na2vs0mg"},{"bike_id":"6cf0c176-f7c0-4e29-a014-f3a3b29e1d2a","system_id":"levelo_inurba_marseille","lat":43.337531,"lon":5.374445,"is_reserved":false,"is_disabled":false,"rental_uris":{"android":"levelo://app?vid=6cf0c176-f7c0-4e29-a014-f3a3b29e1d2a","ios":"levelo://app?vid=6cf0c176-f7c0-4e29-a014-f3a3b29e1d2a"},"vehicle_type_id":"4","last_reported":1722164759,"current_range_meters":24800,"station_id":"","pricing_plan_id":"cebpf4jnsgd1na2vs0mg"},{"bike_id":"ce2a281f-6b17-464e-8289-d463ea4cfa07","system_id":"levelo_inurba_marseille","lat":43.337553,"lon":5.374554,"is_reserved":false,"is_disabled":false,"rental_uris":{"android":"levelo://app?vid=ce2a281f-6b17-464e-8289-d463ea4cfa07","ios":"levelo://app?vid=ce2a281f-6b17-464e-8289-d463ea4cfa07"},"vehicle_type_id":"4","last_reported":1722164759,"current_range_meters":26400,"station_id":"","pricing_plan_id":"cebpf4jnsgd1na2vs0mg"},{"bike_id":"1061e688-e704-415e-9cf5-f4c07696b572","system_id":"levelo_inurba_marseille","lat":43.28727,"lon":5.36078,"is_reserved":false,"is_disabled":false,"rental_uris":{"android":"levelo://app?vid=1061e688-e704-415e-9cf5-f4c07696b572","ios":"levelo://app?vid=1061e688-e704-415e-9cf5-f4c07696b572"},"vehicle_type_id":"4","last_reported":1722164759,"current_range_meters":26400,"station_id":"cki0cbj6b192h4jlfktg","pricing_plan_id":"cebpf4jnsgd1na2vs0mg"},{"bike_id":"03ce6b70-0e89-4b5c-897a-696013b12331","system_id":"levelo_inurba_marseille","lat":43.286593,"lon":5.363346,"is_reserved":false,"is_disabled":false,"rental_uris":{"android":"levelo://app?vid=03ce6b70-0e89-4b5c-897a-696013b12331","ios":"levelo://app?vid=03ce6b70-0e89-4b5c-897a-696013b12331"},"vehicle_type_id":"4","last_reported":1722164759,"current_range_meters":9200,"station_id":"ce4bhah2rcd13ifvqej0","pricing_plan_id":"cebpf4jnsgd1na2vs0mg"},{"bike_id":"f833d3dd-9236-41fb-835b-1a97918bbe90","system_id":"levelo_inurba_marseille","lat":43.29882,"lon":5.39759,"is_reserved":false,"is_disabled":false,"rental_uris":{"android":"levelo://app?vid=f833d3dd-9236-41fb-835b-1a97918bbe90","ios":"levelo://app?vid=f833d3dd-9236-41fb-835b-1a97918bbe90"},"vehicle_type_id":"4","last_reported":1722164759,"current_range_meters":28000,"station_id":"ce4bh0h2rcd13ifvqd50","pricing_plan_id":"cebpf4jnsgd1na2vs0mg"},{"bike_id":"068f1085-482e-4625-9004-ec41abcf852c","system_id":"levelo_inurba_marseille","lat":43.316828,"lon":5.404723,"is_reserved":false,"is_disabled":false,"rental_uris":{"android":"levelo://app?vid=068f1085-482e-4625-9004-ec41abcf852c","ios":"levelo://app?vid=068f1085-482e-4625-9004-ec41abcf852c"},"vehicle_type_id":"4","last_reported":1722164759,"current_range_meters":28400,"station_id":"ce4bh012rcd13ifvqd00","pricing_plan_id":"cebpf4jnsgd1na2vs0mg"},{"bike_id":"77d7b40f-9f3a-4407-b63a-e75bceffad82","system_id":"levelo_inurba_marseille","lat":43.316821,"lon":5.404737,"is_reserved":false,"is_disabled":false,"rental_uris":{"android":"levelo://app?vid=77d7b40f-9f3a-4407-b63a-e75bceffad82","ios":"levelo://app?vid=77d7b40f-9f3a-4407-b63a-e75bceffad82"},"vehicle_type_id":"4","last_reported":1722164759,"current_range_meters":2400,"station_id":"ce4bh012rcd13ifvqd00","pricing_plan_id":"cebpf4jnsgd1na2vs0mg"},{"bike_id":"11ea3510-21d0-4be5-a8e8-498479b739a9","system_id":"levelo_inurba_marseille","lat":43.316828,"lon":5.404723,"is_reserved":false,"is_disabled":false,"rental_uris":{"android":"levelo://app?vid=11ea3510-21d0-4be5-a8e8-498479b739a9","ios":"levelo://app?vid=11ea3510-21d0-4be5-a8e8-498479b739a9"},"vehicle_type_id":"4","last_reported":1722164759,"current_range_meters":21600,"station_id":"ce4bh012rcd13ifvqd00","pricing_plan_id":"cebpf4jnsgd1na2vs0mg"},{"bike_id":"a2f8eb01-5e34-4bc8-ad90-6a861e983e04","system_id":"levelo_inurba_marseille","lat":43.284538,"lon":5.358657,"is_reserved":false,"is_disabled":false,"rental_uris":{"android":"levelo://app?vid=a2f8eb01-5e34-4bc8-ad90-6a861e983e04","ios":"levelo://app?vid=a2f8eb01-5e34-4bc8-ad90-6a861e983e04"},"vehicle_type_id":"4","last_reported":1722164759,"current_range_meters":11600,"station_id":"ce4bhah2rcd13ifvqei0","pricing_plan_id":"cebpf4jnsgd1na2vs0mg"},{"bike_id":"ae7bd0ed-fcf4-45e0-a6d8-d3f286ea100a","system_id":"levelo_inurba_marseille","lat":43.284538,"lon":5.358657,"is_reserved":false,"is_disabled":false,"rental_uris":{"android":"levelo://app?vid=ae7bd0ed-fcf4-45e0-a6d8-d3f286ea100a","ios":"levelo://app?vid=ae7bd0ed-fcf4-45e0-a6d8-d3f286ea100a"},"vehicle_type_id":"4","last_reported":1722164759,"current_range_meters":22400,"station_id":"ce4bhah2rcd13ifvqei0","pricing_plan_id":"cebpf4jnsgd1na2vs0mg"},{"bike_id":"0362c81a-1b98-46ae-bda2-3f73ea341d1e","system_id":"levelo_inurba_marseille","lat":43.284534,"lon":5.358662,"is_reserved":false,"is_disabled":false,"rental_uris":{"android":"levelo://app?vid=0362c81a-1b98-46ae-bda2-3f73ea341d1e","ios":"levelo://app?vid=0362c81a-1b98-46ae-bda2-3f73ea341d1e"},"vehicle_type_id":"4","last_reported":1722164759,"current_range_meters":5600,"station_id":"ce4bhah2rcd13ifvqei0","pricing_plan_id":"cebpf4jnsgd1na2vs0mg"},{"bike_id":"9ef71738-0767-4966-a38e-fd676138e322","system_id":"levelo_inurba_marseille","lat":43.284534,"lon":5.358662,"is_reserved":false,"is_disabled":false,"rental_uris":{"android":"levelo://app?vid=9ef71738-0767-4966-a38e-fd676138e322","ios":"levelo://app?vid=9ef71738-0767-4966-a38e-fd676138e322"},"vehicle_type_id":"4","last_reported":1722164759,"current_range_meters":26000,"station_id":"ce4bhah2rcd13ifvqei0","pricing_plan_id":"cebpf4jnsgd1na2vs0mg"},{"bike_id":"fc99ce9b-be37-4256-992e-7b8b9e6267f3","system_id":"levelo_inurba_marseille","lat":43.284534,"lon":5.358662,"is_reserved":false,"is_disabled":false,"rental_uris":{"android":"levelo://app?vid=fc99ce9b-be37-4256-992e-7b8b9e6267f3","ios":"levelo://app?vid=fc99ce9b-be37-4256-992e-7b8b9e6267f3"},"vehicle_type_id":"4","last_reported":1722164759,"current_range_meters":23600,"station_id":"ce4bhah2rcd13ifvqei0","pricing_plan_id":"cebpf4jnsgd1na2vs0mg"},{"bike_id":"ca383815-d2d8-495c-aac0-279a23b97eee","system_id":"levelo_inurba_marseille","lat":43.294314,"lon":5.397498,"is_reserved":false,"is_disabled":false,"rental_uris":{"android":"levelo://app?vid=ca383815-d2d8-495c-aac0-279a23b97eee","ios":"levelo://app?vid=ca383815-d2d8-495c-aac0-279a23b97eee"},"vehicle_type_id":"4","last_reported":1722164759,"current_range_meters":0,"station_id":"ce4bh3h2rcd13ifvqdo0","pricing_plan_id":"cebpf4jnsgd1na2vs0mg"},{"bike_id":"5c5584c5-2d64-492c-acfc-8368c28f7af8","system_id":"levelo_inurba_marseille","lat":43.285856,"lon":5.350771,"is_reserved":false,"is_disabled":false,"rental_uris":{"android":"levelo://app?vid=5c5584c5-2d64-492c-acfc-8368c28f7af8","ios":"levelo://app?vid=5c5584c5-2d64-492c-acfc-8368c28f7af8"},"vehicle_type_id":"4","last_reported":1722164759,"current_range_meters":2000,"station_id":"ce4bhch2rcd13ifvqeug","pricing_plan_id":"cebpf4jnsgd1na2vs0mg"},{"bike_id":"0d4a96b7-d33a-459a-81cc-c501bac6eb64","system_id":"levelo_inurba_marseille","lat":43.28618,"lon":5.35105,"is_reserved":false,"is_disabled":false,"rental_uris":{"android":"levelo://app?vid=0d4a96b7-d33a-459a-81cc-c501bac6eb64","ios":"levelo://app?vid=0d4a96b7-d33a-459a-81cc-c501bac6eb64"},"vehicle_type_id":"4","last_reported":1722164759,"current_range_meters":18000,"station_id":"ce4bhch2rcd13ifvqeug","pricing_plan_id":"cebpf4jnsgd1na2vs0mg"},{"bike_id":"4016a585-1706-4dfc-ad78-ca4e1c87d761","system_id":"levelo_inurba_marseille","lat":43.285856,"lon":5.350771,"is_reserved":false,"is_disabled":false,"rental_uris":{"android":"levelo://app?vid=4016a585-1706-4dfc-ad78-ca4e1c87d761","ios":"levelo://app?vid=4016a585-1706-4dfc-ad78-ca4e1c87d761"},"vehicle_type_id":"4","last_reported":1722164759,"current_range_meters":16400,"station_id":"ce4bhch2rcd13ifvqeug","pricing_plan_id":"cebpf4jnsgd1na2vs0mg"},{"bike_id":"8e8af43b-eb7c-48e7-ab33-14ab35283800","system_id":"levelo_inurba_marseille","lat":43.28617,"lon":5.351,"is_reserved":false,"is_disabled":false,"rental_uris":{"android":"levelo://app?vid=8e8af43b-eb7c-48e7-ab33-14ab35283800","ios":"levelo://app?vid=8e8af43b-eb7c-48e7-ab33-14ab35283800"},"vehicle_type_id":"4","last_reported":1722164759,"current_range_meters":0,"station_id":"ce4bhch2rcd13ifvqeug","pricing_plan_id":"cebpf4jnsgd1na2vs0mg"},{"bike_id":"1d523919-ec2c-40df-902d-ccab4729d7d3","system_id":"levelo_inurba_marseille","lat":43.28615,"lon":5.351,"is_reserved":false,"is_disabled":false,"rental_uris":{"android":"levelo://app?vid=1d523919-ec2c-40df-902d-ccab4729d7d3","ios":"levelo://app?vid=1d523919-ec2c-40df-902d-ccab4729d7d3"},"vehicle_type_id":"4","last_reported":1722164759,"current_range_meters":13600,"station_id":"ce4bhch2rcd13ifvqeug","pricing_plan_id":"cebpf4jnsgd1na2vs0mg"},{"bike_id":"b9da9594-de36-4495-84ef-9c6777c1320e","system_id":"levelo_inurba_marseille","lat":43.28613,"lon":5.35106,"is_reserved":false,"is_disabled":false,"rental_uris":{"android":"levelo://app?vid=b9da9594-de36-4495-84ef-9c6777c1320e","ios":"levelo://app?vid=b9da9594-de36-4495-84ef-9c6777c1320e"},"vehicle_type_id":"4","last_reported":1722164759,"current_range_meters":23200,"station_id":"ce4bhch2rcd13ifvqeug","pricing_plan_id":"cebpf4jnsgd1na2vs0mg"},{"bike_id":"ee34922e-1501-4f78-a56e-6f2b0f88b4f5","system_id":"levelo_inurba_marseille","lat":43.28611,"lon":5.3511,"is_reserved":false,"is_disabled":false,"rental_uris":{"android":"levelo://app?vid=ee34922e-1501-4f78-a56e-6f2b0f88b4f5","ios":"levelo://app?vid=ee34922e-1501-4f78-a56e-6f2b0f88b4f5"},"vehicle_type_id":"4","last_reported":1722164759,"current_range_meters":22400,"station_id":"ce4bhch2rcd13ifvqeug","pricing_plan_id":"cebpf4jnsgd1na2vs0mg"},{"bike_id":"4acef82f-8179-48fd-954b-c5c3be31d421","system_id":"levelo_inurba_marseille","lat":43.28615,"lon":5.35096,"is_reserved":false,"is_disabled":false,"rental_uris":{"android":"levelo://app?vid=4acef82f-8179-48fd-954b-c5c3be31d421","ios":"levelo://app?vid=4acef82f-8179-48fd-954b-c5c3be31d421"},"vehicle_type_id":"4","last_reported":1722164759,"current_range_meters":29600,"station_id":"ce4bhch2rcd13ifvqeug","pricing_plan_id":"cebpf4jnsgd1na2vs0mg"},{"bike_id":"278fc672-fb02-4c58-bb79-b7b13dcfa416","system_id":"levelo_inurba_marseille","lat":43.286123,"lon":5.351043,"is_reserved":false,"is_disabled":false,"rental_uris":{"android":"levelo://app?vid=278fc672-fb02-4c58-bb79-b7b13dcfa416","ios":"levelo://app?vid=278fc672-fb02-4c58-bb79-b7b13dcfa416"},"vehicle_type_id":"4","last_reported":1722164759,"current_range_meters":12400,"station_id":"ce4bhch2rcd13ifvqeug","pricing_plan_id":"cebpf4jnsgd1na2vs0mg"},{"bike_id":"beaf5fdc-0116-43f1-8ea5-a673224893a2","system_id":"levelo_inurba_marseille","lat":43.28612,"lon":5.35104,"is_reserved":false,"is_disabled":false,"rental_uris":{"android":"levelo://app?vid=beaf5fdc-0116-43f1-8ea5-a673224893a2","ios":"levelo://app?vid=beaf5fdc-0116-43f1-8ea5-a673224893a2"},"vehicle_type_id":"4","last_reported":1722164759,"current_range_meters":18400,"station_id":"ce4bhch2rcd13ifvqeug","pricing_plan_id":"cebpf4jnsgd1na2vs0mg"},{"bike_id":"d030e71b-647f-484d-b253-ed72c30d7910","system_id":"levelo_inurba_marseille","lat":43.295713,"lon":5.399639,"is_reserved":false,"is_disabled":false,"rental_uris":{"android":"levelo://app?vid=d030e71b-647f-484d-b253-ed72c30d7910","ios":"levelo://app?vid=d030e71b-647f-484d-b253-ed72c30d7910"},"vehicle_type_id":"4","last_reported":1722164759,"current_range_meters":22800,"station_id":"ce4bh312rcd13ifvqdj0","pricing_plan_id":"cebpf4jnsgd1na2vs0mg"},{"bike_id":"228c4b4e-bd25-4727-8075-759a3cf801c7","system_id":"levelo_inurba_marseille","lat":43.319179,"lon":5.407725,"is_reserved":false,"is_disabled":false,"rental_uris":{"android":"levelo://app?vid=228c4b4e-bd25-4727-8075-759a3cf801c7","ios":"levelo://app?vid=228c4b4e-bd25-4727-8075-759a3cf801c7"},"vehicle_type_id":"4","last_reported":1722164759,"current_range_meters":29200,"station_id":"ce4bhq12rcd13ifvqhig","pricing_plan_id":"cebpf4jnsgd1na2vs0mg"},{"bike_id":"b6fad994-a7b8-4b1d-858c-55b8d0701828","system_id":"levelo_inurba_marseille","lat":43.319179,"lon":5.407725,"is_reserved":false,"is_disabled":false,"rental_uris":{"android":"levelo://app?vid=b6fad994-a7b8-4b1d-858c-55b8d0701828","ios":"levelo://app?vid=b6fad994-a7b8-4b1d-858c-55b8d0701828"},"vehicle_type_id":"4","last_reported":1722164759,"current_range_meters":27600,"station_id":"ce4bhq12rcd13ifvqhig","pricing_plan_id":"cebpf4jnsgd1na2vs0mg"},{"bike_id":"6d28b682-8c98-48dd-b70b-dd2af10c1a78","system_id":"levelo_inurba_marseille","lat":43.319179,"lon":5.407725,"is_reserved":false,"is_disabled":false,"rental_uris":{"android":"levelo://app?vid=6d28b682-8c98-48dd-b70b-dd2af10c1a78","ios":"levelo://app?vid=6d28b682-8c98-48dd-b70b-dd2af10c1a78"},"vehicle_type_id":"4","last_reported":1722164759,"current_range_meters":28400,"station_id":"ce4bhq12rcd13ifvqhig","pricing_plan_id":"cebpf4jnsgd1na2vs0mg"},{"bike_id":"dfc993be-216e-470c-a02a-8547c3a7f00b","system_id":"levelo_inurba_marseille","lat":43.319179,"lon":5.407725,"is_reserved":false,"is_disabled":false,"rental_uris":{"android":"levelo://app?vid=dfc993be-216e-470c-a02a-8547c3a7f00b","ios":"levelo://app?vid=dfc993be-216e-470c-a02a-8547c3a7f00b"},"vehicle_type_id":"4","last_reported":1722164759,"current_range_meters":30800,"station_id":"ce4bhq12rcd13ifvqhig","pricing_plan_id":"cebpf4jnsgd1na2vs0mg"},{"bike_id":"fe5c2b27-b79d-47ad-9acd-0ce6a9f756c1","system_id":"levelo_inurba_marseille","lat":43.33717,"lon":5.391857,"is_reserved":false,"is_disabled":false,"rental_uris":{"android":"levelo://app?vid=fe5c2b27-b79d-47ad-9acd-0ce6a9f756c1","ios":"levelo://app?vid=fe5c2b27-b79d-47ad-9acd-0ce6a9f756c1"},"vehicle_type_id":"4","last_reported":1722164759,"current_range_meters":27200,"station_id":"ce4bhr92rcd13ifvqhsg","pricing_plan_id":"cebpf4jnsgd1na2vs0mg"},{"bike_id":"a750ba14-bb79-4daf-909f-6d7f063560f2","system_id":"levelo_inurba_marseille","lat":43.323464,"lon":5.406297,"is_reserved":false,"is_disabled":false,"rental_uris":{"android":"levelo://app?vid=a750ba14-bb79-4daf-909f-6d7f063560f2","ios":"levelo://app?vid=a750ba14-bb79-4daf-909f-6d7f063560f2"},"vehicle_type_id":"4","last_reported":1722164759,"current_range_meters":14000,"station_id":"ce4bhq92rcd13ifvqhjg","pricing_plan_id":"cebpf4jnsgd1na2vs0mg"},{"bike_id":"3439f520-7411-4a89-bbd2-a2c4b4d4923d","system_id":"levelo_inurba_marseille","lat":43.337168,"lon":5.391825,"is_reserved":false,"is_disabled":false,"rental_uris":{"android":"levelo://app?vid=3439f520-7411-4a89-bbd2-a2c4b4d4923d","ios":"levelo://app?vid=3439f520-7411-4a89-bbd2-a2c4b4d4923d"},"vehicle_type_id":"4","last_reported":1722164759,"current_range_meters":30800,"station_id":"ce4bhr92rcd13ifvqhsg","pricing_plan_id":"cebpf4jnsgd1na2vs0mg"},{"bike_id":"0b5d71cd-9849-4000-a489-b0b46962edad","system_id":"levelo_inurba_marseille","lat":43.323464,"lon":5.406297,"is_reserved":false,"is_disabled":false,"rental_uris":{"android":"levelo://app?vid=0b5d71cd-9849-4000-a489-b0b46962edad","ios":"levelo://app?vid=0b5d71cd-9849-4000-a489-b0b46962edad"},"vehicle_type_id":"4","last_reported":1722164759,"current_range_meters":31200,"station_id":"ce4bhq92rcd13ifvqhjg","pricing_plan_id":"cebpf4jnsgd1na2vs0mg"},{"bike_id":"1b853bc5-e49e-4e81-a558-66ae88b178f5","system_id":"levelo_inurba_marseille","lat":43.323464,"lon":5.406297,"is_reserved":false,"is_disabled":false,"rental_uris":{"android":"levelo://app?vid=1b853bc5-e49e-4e81-a558-66ae88b178f5","ios":"levelo://app?vid=1b853bc5-e49e-4e81-a558-66ae88b178f5"},"vehicle_type_id":"4","last_reported":1722164759,"current_range_meters":20000,"station_id":"ce4bhq92rcd13ifvqhjg","pricing_plan_id":"cebpf4jnsgd1na2vs0mg"},{"bike_id":"88384e0f-bff0-4030-aa91-c1b70b0f1c96","system_id":"levelo_inurba_marseille","lat":43.323464,"lon":5.406297,"is_reserved":false,"is_disabled":false,"rental_uris":{"android":"levelo://app?vid=88384e0f-bff0-4030-aa91-c1b70b0f1c96","ios":"levelo://app?vid=88384e0f-bff0-4030-aa91-c1b70b0f1c96"},"vehicle_type_id":"4","last_reported":1722164759,"current_range_meters":18400,"station_id":"ce4bhq92rcd13ifvqhjg","pricing_plan_id":"cebpf4jnsgd1na2vs0mg"},{"bike_id":"e9814d99-d1a3-4363-9963-378ca5e26107","system_id":"levelo_inurba_marseille","lat":43.32341,"lon":5.40622,"is_reserved":false,"is_disabled":false,"rental_uris":{"android":"levelo://app?vid=e9814d99-d1a3-4363-9963-378ca5e26107","ios":"levelo://app?vid=e9814d99-d1a3-4363-9963-378ca5e26107"},"vehicle_type_id":"4","last_reported":1722164759,"current_range_meters":400,"station_id":"ce4bhq92rcd13ifvqhjg","pricing_plan_id":"cebpf4jnsgd1na2vs0mg"},{"bike_id":"0f1c922d-23b4-4a9f-96d6-c2e2525aa5d8","system_id":"levelo_inurba_marseille","lat":43.323464,"lon":5.406297,"is_reserved":false,"is_disabled":false,"rental_uris":{"android":"levelo://app?vid=0f1c922d-23b4-4a9f-96d6-c2e2525aa5d8","ios":"levelo://app?vid=0f1c922d-23b4-4a9f-96d6-c2e2525aa5d8"},"vehicle_type_id":"4","last_reported":1722164759,"current_range_meters":28800,"station_id":"ce4bhq92rcd13ifvqhjg","pricing_plan_id":"cebpf4jnsgd1na2vs0mg"},{"bike_id":"41e936b9-958a-40ec-ad75-4f745d49f965","system_id":"levelo_inurba_marseille","lat":43.28434,"lon":5.34989,"is_reserved":false,"is_disabled":false,"rental_uris":{"android":"levelo://app?vid=41e936b9-958a-40ec-ad75-4f745d49f965","ios":"levelo://app?vid=41e936b9-958a-40ec-ad75-4f745d49f965"},"vehicle_type_id":"4","last_reported":1722164759,"current_range_meters":16800,"station_id":"ce4bhbh2rcd13ifvqepg","pricing_plan_id":"cebpf4jnsgd1na2vs0mg"},{"bike_id":"5bcccf47-68e2-4114-8dcb-586ed3ab51ab","system_id":"levelo_inurba_marseille","lat":43.284219,"lon":5.3497,"is_reserved":false,"is_disabled":false,"rental_uris":{"android":"levelo://app?vid=5bcccf47-68e2-4114-8dcb-586ed3ab51ab","ios":"levelo://app?vid=5bcccf47-68e2-4114-8dcb-586ed3ab51ab"},"vehicle_type_id":"4","last_reported":1722164759,"current_range_meters":10000,"station_id":"ce4bhbh2rcd13ifvqepg","pricing_plan_id":"cebpf4jnsgd1na2vs0mg"},{"bike_id":"e5c0d479-3048-46dd-9854-1f599cef54d8","system_id":"levelo_inurba_marseille","lat":43.284219,"lon":5.3497,"is_reserved":false,"is_disabled":false,"rental_uris":{"android":"levelo://app?vid=e5c0d479-3048-46dd-9854-1f599cef54d8","ios":"levelo://app?vid=e5c0d479-3048-46dd-9854-1f599cef54d8"},"vehicle_type_id":"4","last_reported":1722164759,"current_range_meters":31600,"station_id":"ce4bhbh2rcd13ifvqepg","pricing_plan_id":"cebpf4jnsgd1na2vs0mg"},{"bike_id":"9795018c-b75e-4797-b655-c036ff847c2e","system_id":"levelo_inurba_marseille","lat":43.28425,"lon":5.34987,"is_reserved":false,"is_disabled":false,"rental_uris":{"android":"levelo://app?vid=9795018c-b75e-4797-b655-c036ff847c2e","ios":"levelo://app?vid=9795018c-b75e-4797-b655-c036ff847c2e"},"vehicle_type_id":"4","last_reported":1722164759,"current_range_meters":31200,"station_id":"ce4bhbh2rcd13ifvqepg","pricing_plan_id":"cebpf4jnsgd1na2vs0mg"},{"bike_id":"fcc3f00e-2ee9-4eb1-ab3f-113f0460f136","system_id":"levelo_inurba_marseille","lat":43.284219,"lon":5.3497,"is_reserved":false,"is_disabled":false,"rental_uris":{"android":"levelo://app?vid=fcc3f00e-2ee9-4eb1-ab3f-113f0460f136","ios":"levelo://app?vid=fcc3f00e-2ee9-4eb1-ab3f-113f0460f136"},"vehicle_type_id":"4","last_reported":1722164759,"current_range_meters":1200,"station_id":"ce4bhbh2rcd13ifvqepg","pricing_plan_id":"cebpf4jnsgd1na2vs0mg"},{"bike_id":"06bd86d5-a9e6-4a16-b30c-33b3e03e7654","system_id":"levelo_inurba_marseille","lat":43.284219,"lon":5.3497,"is_reserved":false,"is_disabled":false,"rental_uris":{"android":"levelo://app?vid=06bd86d5-a9e6-4a16-b30c-33b3e03e7654","ios":"levelo://app?vid=06bd86d5-a9e6-4a16-b30c-33b3e03e7654"},"vehicle_type_id":"4","last_reported":1722164759,"current_range_meters":23600,"station_id":"ce4bhbh2rcd13ifvqepg","pricing_plan_id":"cebpf4jnsgd1na2vs0mg"},{"bike_id":"c79c3a3c-1798-416b-b08a-ce321ad222fe","system_id":"levelo_inurba_marseille","lat":43.284219,"lon":5.3497,"is_reserved":false,"is_disabled":false,"rental_uris":{"android":"levelo://app?vid=c79c3a3c-1798-416b-b08a-ce321ad222fe","ios":"levelo://app?vid=c79c3a3c-1798-416b-b08a-ce321ad222fe"},"vehicle_type_id":"4","last_reported":1722164759,"current_range_meters":2000,"station_id":"ce4bhbh2rcd13ifvqepg","pricing_plan_id":"cebpf4jnsgd1na2vs0mg"},{"bike_id":"ba9dae7a-549b-4735-9415-af61b6a9c48e","system_id":"levelo_inurba_marseille","lat":43.284219,"lon":5.3497,"is_reserved":false,"is_disabled":false,"rental_uris":{"android":"levelo://app?vid=ba9dae7a-549b-4735-9415-af61b6a9c48e","ios":"levelo://app?vid=ba9dae7a-549b-4735-9415-af61b6a9c48e"},"vehicle_type_id":"4","last_reported":1722164759,"current_range_meters":4800,"station_id":"ce4bhbh2rcd13ifvqepg","pricing_plan_id":"cebpf4jnsgd1na2vs0mg"},{"bike_id":"98235f87-4b6a-498c-9724-cf52915d30d3","system_id":"levelo_inurba_marseille","lat":43.284217,"lon":5.349697,"is_reserved":false,"is_disabled":false,"rental_uris":{"android":"levelo://app?vid=98235f87-4b6a-498c-9724-cf52915d30d3","ios":"levelo://app?vid=98235f87-4b6a-498c-9724-cf52915d30d3"},"vehicle_type_id":"4","last_reported":1722164759,"current_range_meters":3600,"station_id":"ce4bhbh2rcd13ifvqepg","pricing_plan_id":"cebpf4jnsgd1na2vs0mg"},{"bike_id":"286e2cd1-9912-4a1f-8197-09ac7f8495a0","system_id":"levelo_inurba_marseille","lat":43.284219,"lon":5.3497,"is_reserved":false,"is_disabled":false,"rental_uris":{"android":"levelo://app?vid=286e2cd1-9912-4a1f-8197-09ac7f8495a0","ios":"levelo://app?vid=286e2cd1-9912-4a1f-8197-09ac7f8495a0"},"vehicle_type_id":"4","last_reported":1722164759,"current_range_meters":16000,"station_id":"ce4bhbh2rcd13ifvqepg","pricing_plan_id":"cebpf4jnsgd1na2vs0mg"},{"bike_id":"595893ca-341b-46e4-afb9-7d49bc8da4a5","system_id":"levelo_inurba_marseille","lat":43.284217,"lon":5.349697,"is_reserved":false,"is_disabled":false,"rental_uris":{"android":"levelo://app?vid=595893ca-341b-46e4-afb9-7d49bc8da4a5","ios":"levelo://app?vid=595893ca-341b-46e4-afb9-7d49bc8da4a5"},"vehicle_type_id":"4","last_reported":1722164759,"current_range_meters":25600,"station_id":"ce4bhbh2rcd13ifvqepg","pricing_plan_id":"cebpf4jnsgd1na2vs0mg"},{"bike_id":"7002c7f3-d737-47b1-ba14-e92661b02a2e","system_id":"levelo_inurba_marseille","lat":43.284219,"lon":5.3497,"is_reserved":false,"is_disabled":false,"rental_uris":{"android":"levelo://app?vid=7002c7f3-d737-47b1-ba14-e92661b02a2e","ios":"levelo://app?vid=7002c7f3-d737-47b1-ba14-e92661b02a2e"},"vehicle_type_id":"4","last_reported":1722164759,"current_range_meters":17600,"station_id":"ce4bhbh2rcd13ifvqepg","pricing_plan_id":"cebpf4jnsgd1na2vs0mg"},{"bike_id":"915ce34c-76d6-45e2-963e-ea7e65af58ba","system_id":"levelo_inurba_marseille","lat":43.284219,"lon":5.3497,"is_reserved":false,"is_disabled":false,"rental_uris":{"android":"levelo://app?vid=915ce34c-76d6-45e2-963e-ea7e65af58ba","ios":"levelo://app?vid=915ce34c-76d6-45e2-963e-ea7e65af58ba"},"vehicle_type_id":"4","last_reported":1722164759,"current_range_meters":21600,"station_id":"ce4bhbh2rcd13ifvqepg","pricing_plan_id":"cebpf4jnsgd1na2vs0mg"},{"bike_id":"57209704-1841-43bd-8801-46512f93db3e","system_id":"levelo_inurba_marseille","lat":43.28421,"lon":5.3498,"is_reserved":false,"is_disabled":false,"rental_uris":{"android":"levelo://app?vid=57209704-1841-43bd-8801-46512f93db3e","ios":"levelo://app?vid=57209704-1841-43bd-8801-46512f93db3e"},"vehicle_type_id":"4","last_reported":1722164759,"current_range_meters":2400,"station_id":"ce4bhbh2rcd13ifvqepg","pricing_plan_id":"cebpf4jnsgd1na2vs0mg"},{"bike_id":"91080e46-6f22-4e0b-97c9-ba9ba49a512a","system_id":"levelo_inurba_marseille","lat":43.284219,"lon":5.3497,"is_reserved":false,"is_disabled":false,"rental_uris":{"android":"levelo://app?vid=91080e46-6f22-4e0b-97c9-ba9ba49a512a","ios":"levelo://app?vid=91080e46-6f22-4e0b-97c9-ba9ba49a512a"},"vehicle_type_id":"4","last_reported":1722164759,"current_range_meters":19200,"station_id":"ce4bhbh2rcd13ifvqepg","pricing_plan_id":"cebpf4jnsgd1na2vs0mg"},{"bike_id":"436f6a65-c7c0-46ce-abc3-49683121e043","system_id":"levelo_inurba_marseille","lat":43.284217,"lon":5.349697,"is_reserved":false,"is_disabled":false,"rental_uris":{"android":"levelo://app?vid=436f6a65-c7c0-46ce-abc3-49683121e043","ios":"levelo://app?vid=436f6a65-c7c0-46ce-abc3-49683121e043"},"vehicle_type_id":"4","last_reported":1722164759,"current_range_meters":16000,"station_id":"ce4bhbh2rcd13ifvqepg","pricing_plan_id":"cebpf4jnsgd1na2vs0mg"},{"bike_id":"b02d9dfa-7e8f-44ab-9316-3ecf75cd7723","system_id":"levelo_inurba_marseille","lat":43.284217,"lon":5.349697,"is_reserved":false,"is_disabled":false,"rental_uris":{"android":"levelo://app?vid=b02d9dfa-7e8f-44ab-9316-3ecf75cd7723","ios":"levelo://app?vid=b02d9dfa-7e8f-44ab-9316-3ecf75cd7723"},"vehicle_type_id":"4","last_reported":1722164759,"current_range_meters":25600,"station_id":"ce4bhbh2rcd13ifvqepg","pricing_plan_id":"cebpf4jnsgd1na2vs0mg"},{"bike_id":"cba103d5-484e-404e-8639-cd47817e3c4e","system_id":"levelo_inurba_marseille","lat":43.284167,"lon":5.34984,"is_reserved":false,"is_disabled":false,"rental_uris":{"android":"levelo://app?vid=cba103d5-484e-404e-8639-cd47817e3c4e","ios":"levelo://app?vid=cba103d5-484e-404e-8639-cd47817e3c4e"},"vehicle_type_id":"4","last_reported":1722164759,"current_range_meters":31200,"station_id":"ce4bhbh2rcd13ifvqepg","pricing_plan_id":"cebpf4jnsgd1na2vs0mg"},{"bike_id":"2deaaf99-cfd1-4095-ac2d-6ebe0f65c297","system_id":"levelo_inurba_marseille","lat":43.28415,"lon":5.34989,"is_reserved":false,"is_disabled":false,"rental_uris":{"android":"levelo://app?vid=2deaaf99-cfd1-4095-ac2d-6ebe0f65c297","ios":"levelo://app?vid=2deaaf99-cfd1-4095-ac2d-6ebe0f65c297"},"vehicle_type_id":"4","last_reported":1722164759,"current_range_meters":29200,"station_id":"ce4bhbh2rcd13ifvqepg","pricing_plan_id":"cebpf4jnsgd1na2vs0mg"},{"bike_id":"1cab26bf-9771-4a67-8fa6-441a4eee3ebd","system_id":"levelo_inurba_marseille","lat":43.284219,"lon":5.3497,"is_reserved":false,"is_disabled":false,"rental_uris":{"android":"levelo://app?vid=1cab26bf-9771-4a67-8fa6-441a4eee3ebd","ios":"levelo://app?vid=1cab26bf-9771-4a67-8fa6-441a4eee3ebd"},"vehicle_type_id":"4","last_reported":1722164759,"current_range_meters":14400,"station_id":"ce4bhbh2rcd13ifvqepg","pricing_plan_id":"cebpf4jnsgd1na2vs0mg"},{"bike_id":"b88e05d8-c3ea-4d3c-b1b6-186fb9c213e4","system_id":"levelo_inurba_marseille","lat":43.284219,"lon":5.3497,"is_reserved":false,"is_disabled":false,"rental_uris":{"android":"levelo://app?vid=b88e05d8-c3ea-4d3c-b1b6-186fb9c213e4","ios":"levelo://app?vid=b88e05d8-c3ea-4d3c-b1b6-186fb9c213e4"},"vehicle_type_id":"4","last_reported":1722164759,"current_range_meters":21600,"station_id":"ce4bhbh2rcd13ifvqepg","pricing_plan_id":"cebpf4jnsgd1na2vs0mg"},{"bike_id":"14ddf4d8-5d3a-4aca-80d3-bbcd673ba22b","system_id":"levelo_inurba_marseille","lat":43.28414,"lon":5.34985,"is_reserved":false,"is_disabled":false,"rental_uris":{"android":"levelo://app?vid=14ddf4d8-5d3a-4aca-80d3-bbcd673ba22b","ios":"levelo://app?vid=14ddf4d8-5d3a-4aca-80d3-bbcd673ba22b"},"vehicle_type_id":"4","last_reported":1722164759,"current_range_meters":12400,"station_id":"ce4bhbh2rcd13ifvqepg","pricing_plan_id":"cebpf4jnsgd1na2vs0mg"},{"bike_id":"f8d1fcdd-3ac5-4f15-becb-8316d463c5ed","system_id":"levelo_inurba_marseille","lat":43.284217,"lon":5.349697,"is_reserved":false,"is_disabled":false,"rental_uris":{"android":"levelo://app?vid=f8d1fcdd-3ac5-4f15-becb-8316d463c5ed","ios":"levelo://app?vid=f8d1fcdd-3ac5-4f15-becb-8316d463c5ed"},"vehicle_type_id":"4","last_reported":1722164759,"current_range_meters":12400,"station_id":"ce4bhbh2rcd13ifvqepg","pricing_plan_id":"cebpf4jnsgd1na2vs0mg"},{"bike_id":"4b64244f-f4ef-496b-a815-1801da2e8190","system_id":"levelo_inurba_marseille","lat":43.284151,"lon":5.349797,"is_reserved":false,"is_disabled":false,"rental_uris":{"android":"levelo://app?vid=4b64244f-f4ef-496b-a815-1801da2e8190","ios":"levelo://app?vid=4b64244f-f4ef-496b-a815-1801da2e8190"},"vehicle_type_id":"4","last_reported":1722164759,"current_range_meters":26000,"station_id":"ce4bhbh2rcd13ifvqepg","pricing_plan_id":"cebpf4jnsgd1na2vs0mg"},{"bike_id":"40b519aa-f597-4c06-b981-35dcb0988b9c","system_id":"levelo_inurba_marseille","lat":43.28414,"lon":5.3498,"is_reserved":false,"is_disabled":false,"rental_uris":{"android":"levelo://app?vid=40b519aa-f597-4c06-b981-35dcb0988b9c","ios":"levelo://app?vid=40b519aa-f597-4c06-b981-35dcb0988b9c"},"vehicle_type_id":"4","last_reported":1722164759,"current_range_meters":18000,"station_id":"ce4bhbh2rcd13ifvqepg","pricing_plan_id":"cebpf4jnsgd1na2vs0mg"},{"bike_id":"22652bd1-43e7-4f3b-8639-5b94c3e0ceda","system_id":"levelo_inurba_marseille","lat":43.28415,"lon":5.34976,"is_reserved":false,"is_disabled":false,"rental_uris":{"android":"levelo://app?vid=22652bd1-43e7-4f3b-8639-5b94c3e0ceda","ios":"levelo://app?vid=22652bd1-43e7-4f3b-8639-5b94c3e0ceda"},"vehicle_type_id":"4","last_reported":1722164759,"current_range_meters":22000,"station_id":"ce4bhbh2rcd13ifvqepg","pricing_plan_id":"cebpf4jnsgd1na2vs0mg"},{"bike_id":"8686dc3f-5e38-4274-afa6-5680e45b877e","system_id":"levelo_inurba_marseille","lat":43.28408,"lon":5.34978,"is_reserved":false,"is_disabled":false,"rental_uris":{"android":"levelo://app?vid=8686dc3f-5e38-4274-afa6-5680e45b877e","ios":"levelo://app?vid=8686dc3f-5e38-4274-afa6-5680e45b877e"},"vehicle_type_id":"4","last_reported":1722164759,"current_range_meters":26400,"station_id":"ce4bhbh2rcd13ifvqepg","pricing_plan_id":"cebpf4jnsgd1na2vs0mg"},{"bike_id":"1e83e75c-9f99-41e6-840d-1ace419a1008","system_id":"levelo_inurba_marseille","lat":43.28281,"lon":5.35083,"is_reserved":false,"is_disabled":false,"rental_uris":{"android":"levelo://app?vid=1e83e75c-9f99-41e6-840d-1ace419a1008","ios":"levelo://app?vid=1e83e75c-9f99-41e6-840d-1ace419a1008"},"vehicle_type_id":"4","last_reported":1722164759,"current_range_meters":0,"station_id":"ce4bhbp2rcd13ifvqerg","pricing_plan_id":"cebpf4jnsgd1na2vs0mg"},{"bike_id":"23316603-37b7-4ab5-8fd5-21c65bb3457f","system_id":"levelo_inurba_marseille","lat":43.282744,"lon":5.350533,"is_reserved":false,"is_disabled":false,"rental_uris":{"android":"levelo://app?vid=23316603-37b7-4ab5-8fd5-21c65bb3457f","ios":"levelo://app?vid=23316603-37b7-4ab5-8fd5-21c65bb3457f"},"vehicle_type_id":"4","last_reported":1722164759,"current_range_meters":29600,"station_id":"ce4bhbp2rcd13ifvqerg","pricing_plan_id":"cebpf4jnsgd1na2vs0mg"},{"bike_id":"dcb0505e-0d1a-4a8d-9d58-d6ba40f31699","system_id":"levelo_inurba_marseille","lat":43.28278,"lon":5.35064,"is_reserved":false,"is_disabled":false,"rental_uris":{"android":"levelo://app?vid=dcb0505e-0d1a-4a8d-9d58-d6ba40f31699","ios":"levelo://app?vid=dcb0505e-0d1a-4a8d-9d58-d6ba40f31699"},"vehicle_type_id":"4","last_reported":1722164759,"current_range_meters":17600,"station_id":"ce4bhbp2rcd13ifvqerg","pricing_plan_id":"cebpf4jnsgd1na2vs0mg"},{"bike_id":"4d500298-3dea-4274-babc-b2c3a23767fc","system_id":"levelo_inurba_marseille","lat":43.28275,"lon":5.3507,"is_reserved":false,"is_disabled":false,"rental_uris":{"android":"levelo://app?vid=4d500298-3dea-4274-babc-b2c3a23767fc","ios":"levelo://app?vid=4d500298-3dea-4274-babc-b2c3a23767fc"},"vehicle_type_id":"4","last_reported":1722164759,"current_range_meters":18400,"station_id":"","pricing_plan_id":"cebpf4jnsgd1na2vs0mg"},{"bike_id":"387aa0a4-51b7-41ef-b4a8-ccd5163a63e7","system_id":"levelo_inurba_marseille","lat":43.282744,"lon":5.350533,"is_reserved":false,"is_disabled":false,"rental_uris":{"android":"levelo://app?vid=387aa0a4-51b7-41ef-b4a8-ccd5163a63e7","ios":"levelo://app?vid=387aa0a4-51b7-41ef-b4a8-ccd5163a63e7"},"vehicle_type_id":"4","last_reported":1722164759,"current_range_meters":30800,"station_id":"ce4bhbp2rcd13ifvqerg","pricing_plan_id":"cebpf4jnsgd1na2vs0mg"},{"bike_id":"33dc4b0c-7995-4f04-a850-0046f828c7dd","system_id":"levelo_inurba_marseille","lat":43.282744,"lon":5.350533,"is_reserved":false,"is_disabled":false,"rental_uris":{"android":"levelo://app?vid=33dc4b0c-7995-4f04-a850-0046f828c7dd","ios":"levelo://app?vid=33dc4b0c-7995-4f04-a850-0046f828c7dd"},"vehicle_type_id":"4","last_reported":1722164759,"current_range_meters":28400,"station_id":"ce4bhbp2rcd13ifvqerg","pricing_plan_id":"cebpf4jnsgd1na2vs0mg"},{"bike_id":"c4e93431-482a-4a6c-a73e-f5e48892d6ae","system_id":"levelo_inurba_marseille","lat":43.28275,"lon":5.35065,"is_reserved":false,"is_disabled":false,"rental_uris":{"android":"levelo://app?vid=c4e93431-482a-4a6c-a73e-f5e48892d6ae","ios":"levelo://app?vid=c4e93431-482a-4a6c-a73e-f5e48892d6ae"},"vehicle_type_id":"4","last_reported":1722164759,"current_range_meters":25200,"station_id":"ce4bhbp2rcd13ifvqerg","pricing_plan_id":"cebpf4jnsgd1na2vs0mg"},{"bike_id":"568c9df4-f185-4d2c-8df7-abccf473fbf4","system_id":"levelo_inurba_marseille","lat":43.28274,"lon":5.35068,"is_reserved":false,"is_disabled":false,"rental_uris":{"android":"levelo://app?vid=568c9df4-f185-4d2c-8df7-abccf473fbf4","ios":"levelo://app?vid=568c9df4-f185-4d2c-8df7-abccf473fbf4"},"vehicle_type_id":"4","last_reported":1722164759,"current_range_meters":2400,"station_id":"ce4bhbp2rcd13ifvqerg","pricing_plan_id":"cebpf4jnsgd1na2vs0mg"},{"bike_id":"ea1fea04-d507-40bb-864f-3e47cec8ce5d","system_id":"levelo_inurba_marseille","lat":43.28278,"lon":5.35054,"is_reserved":false,"is_disabled":false,"rental_uris":{"android":"levelo://app?vid=ea1fea04-d507-40bb-864f-3e47cec8ce5d","ios":"levelo://app?vid=ea1fea04-d507-40bb-864f-3e47cec8ce5d"},"vehicle_type_id":"4","last_reported":1722164759,"current_range_meters":18000,"station_id":"ce4bhbp2rcd13ifvqerg","pricing_plan_id":"cebpf4jnsgd1na2vs0mg"},{"bike_id":"dbfbc5ac-f628-4c6a-a83e-046f3d1223ad","system_id":"levelo_inurba_marseille","lat":43.28272,"lon":5.35074,"is_reserved":false,"is_disabled":false,"rental_uris":{"android":"levelo://app?vid=dbfbc5ac-f628-4c6a-a83e-046f3d1223ad","ios":"levelo://app?vid=dbfbc5ac-f628-4c6a-a83e-046f3d1223ad"},"vehicle_type_id":"4","last_reported":1722164759,"current_range_meters":28400,"station_id":"ce4bhbp2rcd13ifvqerg","pricing_plan_id":"cebpf4jnsgd1na2vs0mg"},{"bike_id":"fa74da71-f758-496e-ab99-fe7a8c0f57f2","system_id":"levelo_inurba_marseille","lat":43.28274,"lon":5.35067,"is_reserved":false,"is_disabled":false,"rental_uris":{"android":"levelo://app?vid=fa74da71-f758-496e-ab99-fe7a8c0f57f2","ios":"levelo://app?vid=fa74da71-f758-496e-ab99-fe7a8c0f57f2"},"vehicle_type_id":"4","last_reported":1722164759,"current_range_meters":3200,"station_id":"ce4bhbp2rcd13ifvqerg","pricing_plan_id":"cebpf4jnsgd1na2vs0mg"},{"bike_id":"89aed023-641b-4461-8c45-0e1fd9acf033","system_id":"levelo_inurba_marseille","lat":43.28272,"lon":5.35072,"is_reserved":false,"is_disabled":false,"rental_uris":{"android":"levelo://app?vid=89aed023-641b-4461-8c45-0e1fd9acf033","ios":"levelo://app?vid=89aed023-641b-4461-8c45-0e1fd9acf033"},"vehicle_type_id":"4","last_reported":1722164759,"current_range_meters":17600,"station_id":"ce4bhbp2rcd13ifvqerg","pricing_plan_id":"cebpf4jnsgd1na2vs0mg"},{"bike_id":"8df8e2e1-d280-4a81-aa37-9859f62a19ab","system_id":"levelo_inurba_marseille","lat":43.282744,"lon":5.350533,"is_reserved":false,"is_disabled":false,"rental_uris":{"android":"levelo://app?vid=8df8e2e1-d280-4a81-aa37-9859f62a19ab","ios":"levelo://app?vid=8df8e2e1-d280-4a81-aa37-9859f62a19ab"},"vehicle_type_id":"4","last_reported":1722164759,"current_range_meters":30800,"station_id":"ce4bhbp2rcd13ifvqerg","pricing_plan_id":"cebpf4jnsgd1na2vs0mg"},{"bike_id":"55c351f4-2b56-492e-b92b-1aef7ce3c6a9","system_id":"levelo_inurba_marseille","lat":43.282744,"lon":5.350533,"is_reserved":false,"is_disabled":false,"rental_uris":{"android":"levelo://app?vid=55c351f4-2b56-492e-b92b-1aef7ce3c6a9","ios":"levelo://app?vid=55c351f4-2b56-492e-b92b-1aef7ce3c6a9"},"vehicle_type_id":"4","last_reported":1722164759,"current_range_meters":24000,"station_id":"ce4bhbp2rcd13ifvqerg","pricing_plan_id":"cebpf4jnsgd1na2vs0mg"},{"bike_id":"936dcedc-e82c-40ac-955d-5e8f3017abda","system_id":"levelo_inurba_marseille","lat":43.282725,"lon":5.350632,"is_reserved":false,"is_disabled":false,"rental_uris":{"android":"levelo://app?vid=936dcedc-e82c-40ac-955d-5e8f3017abda","ios":"levelo://app?vid=936dcedc-e82c-40ac-955d-5e8f3017abda"},"vehicle_type_id":"4","last_reported":1722164759,"current_range_meters":27600,"station_id":"ce4bhbp2rcd13ifvqerg","pricing_plan_id":"cebpf4jnsgd1na2vs0mg"},{"bike_id":"d8d8fbcc-30b7-4c18-b52a-b705ddf2292d","system_id":"levelo_inurba_marseille","lat":43.2827,"lon":5.35071,"is_reserved":false,"is_disabled":false,"rental_uris":{"android":"levelo://app?vid=d8d8fbcc-30b7-4c18-b52a-b705ddf2292d","ios":"levelo://app?vid=d8d8fbcc-30b7-4c18-b52a-b705ddf2292d"},"vehicle_type_id":"4","last_reported":1722164759,"current_range_meters":30400,"station_id":"ce4bhbp2rcd13ifvqerg","pricing_plan_id":"cebpf4jnsgd1na2vs0mg"},{"bike_id":"38444946-ffc2-4587-b92f-2d1495b8b7b4","system_id":"levelo_inurba_marseille","lat":43.28272,"lon":5.350633,"is_reserved":false,"is_disabled":false,"rental_uris":{"android":"levelo://app?vid=38444946-ffc2-4587-b92f-2d1495b8b7b4","ios":"levelo://app?vid=38444946-ffc2-4587-b92f-2d1495b8b7b4"},"vehicle_type_id":"4","last_reported":1722164759,"current_range_meters":5200,"station_id":"ce4bhbp2rcd13ifvqerg","pricing_plan_id":"cebpf4jnsgd1na2vs0mg"},{"bike_id":"670af7f4-59ac-4b2d-b00e-2f224770039e","system_id":"levelo_inurba_marseille","lat":43.282683,"lon":5.350754,"is_reserved":false,"is_disabled":false,"rental_uris":{"android":"levelo://app?vid=670af7f4-59ac-4b2d-b00e-2f224770039e","ios":"levelo://app?vid=670af7f4-59ac-4b2d-b00e-2f224770039e"},"vehicle_type_id":"4","last_reported":1722164759,"current_range_meters":10800,"station_id":"ce4bhbp2rcd13ifvqerg","pricing_plan_id":"cebpf4jnsgd1na2vs0mg"},{"bike_id":"ff47ede3-ffa6-45b7-8b97-4e22fed8928a","system_id":"levelo_inurba_marseille","lat":43.28269,"lon":5.35064,"is_reserved":false,"is_disabled":false,"rental_uris":{"android":"levelo://app?vid=ff47ede3-ffa6-45b7-8b97-4e22fed8928a","ios":"levelo://app?vid=ff47ede3-ffa6-45b7-8b97-4e22fed8928a"},"vehicle_type_id":"4","last_reported":1722164759,"current_range_meters":23200,"station_id":"ce4bhbp2rcd13ifvqerg","pricing_plan_id":"cebpf4jnsgd1na2vs0mg"},{"bike_id":"6b1d504f-90a0-46d1-b711-59a7856957a0","system_id":"levelo_inurba_marseille","lat":43.28268,"lon":5.35064,"is_reserved":false,"is_disabled":false,"rental_uris":{"android":"levelo://app?vid=6b1d504f-90a0-46d1-b711-59a7856957a0","ios":"levelo://app?vid=6b1d504f-90a0-46d1-b711-59a7856957a0"},"vehicle_type_id":"4","last_reported":1722164759,"current_range_meters":24800,"station_id":"ce4bhbp2rcd13ifvqerg","pricing_plan_id":"cebpf4jnsgd1na2vs0mg"},{"bike_id":"3fdb4621-3b37-4e69-9ef4-7d956cc89ec4","system_id":"levelo_inurba_marseille","lat":43.28266,"lon":5.35068,"is_reserved":false,"is_disabled":false,"rental_uris":{"android":"levelo://app?vid=3fdb4621-3b37-4e69-9ef4-7d956cc89ec4","ios":"levelo://app?vid=3fdb4621-3b37-4e69-9ef4-7d956cc89ec4"},"vehicle_type_id":"4","last_reported":1722164759,"current_range_meters":29600,"station_id":"ce4bhbp2rcd13ifvqerg","pricing_plan_id":"cebpf4jnsgd1na2vs0mg"},{"bike_id":"42682c1c-ab2b-4499-bb43-671cbdb23d33","system_id":"levelo_inurba_marseille","lat":43.282744,"lon":5.350533,"is_reserved":false,"is_disabled":false,"rental_uris":{"android":"levelo://app?vid=42682c1c-ab2b-4499-bb43-671cbdb23d33","ios":"levelo://app?vid=42682c1c-ab2b-4499-bb43-671cbdb23d33"},"vehicle_type_id":"4","last_reported":1722164759,"current_range_meters":6400,"station_id":"ce4bhbp2rcd13ifvqerg","pricing_plan_id":"cebpf4jnsgd1na2vs0mg"},{"bike_id":"273a3fc8-e984-4af4-b289-8ce50c92b913","system_id":"levelo_inurba_marseille","lat":43.282673,"lon":5.350613,"is_reserved":false,"is_disabled":false,"rental_uris":{"android":"levelo://app?vid=273a3fc8-e984-4af4-b289-8ce50c92b913","ios":"levelo://app?vid=273a3fc8-e984-4af4-b289-8ce50c92b913"},"vehicle_type_id":"4","last_reported":1722164759,"current_range_meters":25600,"station_id":"ce4bhbp2rcd13ifvqerg","pricing_plan_id":"cebpf4jnsgd1na2vs0mg"},{"bike_id":"cfd50b98-23e4-41d6-ae1e-1d78a1a9b494","system_id":"levelo_inurba_marseille","lat":43.282644,"lon":5.350669,"is_reserved":false,"is_disabled":false,"rental_uris":{"android":"levelo://app?vid=cfd50b98-23e4-41d6-ae1e-1d78a1a9b494","ios":"levelo://app?vid=cfd50b98-23e4-41d6-ae1e-1d78a1a9b494"},"vehicle_type_id":"4","last_reported":1722164759,"current_range_meters":8400,"station_id":"ce4bhbp2rcd13ifvqerg","pricing_plan_id":"cebpf4jnsgd1na2vs0mg"},{"bike_id":"c6be7173-9117-4e1b-9917-124ad6cafecc","system_id":"levelo_inurba_marseille","lat":43.282648,"lon":5.350575,"is_reserved":false,"is_disabled":false,"rental_uris":{"android":"levelo://app?vid=c6be7173-9117-4e1b-9917-124ad6cafecc","ios":"levelo://app?vid=c6be7173-9117-4e1b-9917-124ad6cafecc"},"vehicle_type_id":"4","last_reported":1722164759,"current_range_meters":22800,"station_id":"ce4bhbp2rcd13ifvqerg","pricing_plan_id":"cebpf4jnsgd1na2vs0mg"},{"bike_id":"2498e8da-dd71-47e2-9194-1cb829d5dd74","system_id":"levelo_inurba_marseille","lat":43.28039,"lon":5.369297,"is_reserved":false,"is_disabled":false,"rental_uris":{"android":"levelo://app?vid=2498e8da-dd71-47e2-9194-1cb829d5dd74","ios":"levelo://app?vid=2498e8da-dd71-47e2-9194-1cb829d5dd74"},"vehicle_type_id":"4","last_reported":1722164759,"current_range_meters":1200,"station_id":"ce4bha12rcd13ifvqef0","pricing_plan_id":"cebpf4jnsgd1na2vs0mg"},{"bike_id":"ae3ddd90-4709-4a22-bf67-6254385e0194","system_id":"levelo_inurba_marseille","lat":43.28039,"lon":5.369297,"is_reserved":false,"is_disabled":false,"rental_uris":{"android":"levelo://app?vid=ae3ddd90-4709-4a22-bf67-6254385e0194","ios":"levelo://app?vid=ae3ddd90-4709-4a22-bf67-6254385e0194"},"vehicle_type_id":"4","last_reported":1722164759,"current_range_meters":0,"station_id":"ce4bha12rcd13ifvqef0","pricing_plan_id":"cebpf4jnsgd1na2vs0mg"},{"bike_id":"b9fa3873-dc05-4362-a792-b2edd0ff99ba","system_id":"levelo_inurba_marseille","lat":43.281,"lon":5.37842,"is_reserved":false,"is_disabled":false,"rental_uris":{"android":"levelo://app?vid=b9fa3873-dc05-4362-a792-b2edd0ff99ba","ios":"levelo://app?vid=b9fa3873-dc05-4362-a792-b2edd0ff99ba"},"vehicle_type_id":"4","last_reported":1722164759,"current_range_meters":0,"station_id":"ce4bha12rcd13ifvqee0","pricing_plan_id":"cebpf4jnsgd1na2vs0mg"},{"bike_id":"e8080547-572f-47d1-bde8-ffc26f12c275","system_id":"levelo_inurba_marseille","lat":43.34084,"lon":5.39112,"is_reserved":false,"is_disabled":false,"rental_uris":{"android":"levelo://app?vid=e8080547-572f-47d1-bde8-ffc26f12c275","ios":"levelo://app?vid=e8080547-572f-47d1-bde8-ffc26f12c275"},"vehicle_type_id":"4","last_reported":1722164759,"current_range_meters":9600,"station_id":"","pricing_plan_id":"cebpf4jnsgd1na2vs0mg"},{"bike_id":"e40bebb7-8500-4173-b230-e380bb8c9e4e","system_id":"levelo_inurba_marseille","lat":43.284462,"lon":5.392121,"is_reserved":false,"is_disabled":false,"rental_uris":{"android":"levelo://app?vid=e40bebb7-8500-4173-b230-e380bb8c9e4e","ios":"levelo://app?vid=e40bebb7-8500-4173-b230-e380bb8c9e4e"},"vehicle_type_id":"4","last_reported":1722164759,"current_range_meters":12400,"station_id":"ce4bhoh2rcd13ifvqh5g","pricing_plan_id":"cebpf4jnsgd1na2vs0mg"},{"bike_id":"ac2457c9-bb65-4350-9e82-818bbb4e3d71","system_id":"levelo_inurba_marseille","lat":43.284462,"lon":5.392121,"is_reserved":false,"is_disabled":false,"rental_uris":{"android":"levelo://app?vid=ac2457c9-bb65-4350-9e82-818bbb4e3d71","ios":"levelo://app?vid=ac2457c9-bb65-4350-9e82-818bbb4e3d71"},"vehicle_type_id":"4","last_reported":1722164759,"current_range_meters":28000,"station_id":"ce4bhoh2rcd13ifvqh5g","pricing_plan_id":"cebpf4jnsgd1na2vs0mg"},{"bike_id":"c52a2f21-5798-4658-a67b-dd016e13d2a6","system_id":"levelo_inurba_marseille","lat":43.284462,"lon":5.392121,"is_reserved":false,"is_disabled":false,"rental_uris":{"android":"levelo://app?vid=c52a2f21-5798-4658-a67b-dd016e13d2a6","ios":"levelo://app?vid=c52a2f21-5798-4658-a67b-dd016e13d2a6"},"vehicle_type_id":"4","last_reported":1722164759,"current_range_meters":8800,"station_id":"ce4bhoh2rcd13ifvqh5g","pricing_plan_id":"cebpf4jnsgd1na2vs0mg"},{"bike_id":"afb6282a-77f9-4e15-bd36-4a67ee2b825e","system_id":"levelo_inurba_marseille","lat":43.284462,"lon":5.392121,"is_reserved":false,"is_disabled":false,"rental_uris":{"android":"levelo://app?vid=afb6282a-77f9-4e15-bd36-4a67ee2b825e","ios":"levelo://app?vid=afb6282a-77f9-4e15-bd36-4a67ee2b825e"},"vehicle_type_id":"4","last_reported":1722164759,"current_range_meters":0,"station_id":"ce4bhoh2rcd13ifvqh5g","pricing_plan_id":"cebpf4jnsgd1na2vs0mg"},{"bike_id":"01ea1f1c-ee3a-4983-a804-6f0e09945bcd","system_id":"levelo_inurba_marseille","lat":43.279087,"lon":5.380114,"is_reserved":false,"is_disabled":false,"rental_uris":{"android":"levelo://app?vid=01ea1f1c-ee3a-4983-a804-6f0e09945bcd","ios":"levelo://app?vid=01ea1f1c-ee3a-4983-a804-6f0e09945bcd"},"vehicle_type_id":"4","last_reported":1722164759,"current_range_meters":24800,"station_id":"ce4bhf92rcd13ifvqf50","pricing_plan_id":"cebpf4jnsgd1na2vs0mg"},{"bike_id":"3f7d11bf-f0db-477e-be15-7e5cdb80ab50","system_id":"levelo_inurba_marseille","lat":43.279087,"lon":5.380114,"is_reserved":false,"is_disabled":false,"rental_uris":{"android":"levelo://app?vid=3f7d11bf-f0db-477e-be15-7e5cdb80ab50","ios":"levelo://app?vid=3f7d11bf-f0db-477e-be15-7e5cdb80ab50"},"vehicle_type_id":"4","last_reported":1722164759,"current_range_meters":23600,"station_id":"ce4bhf92rcd13ifvqf50","pricing_plan_id":"cebpf4jnsgd1na2vs0mg"},{"bike_id":"85a11bdc-9426-4c6e-a2db-8960bbeb07b6","system_id":"levelo_inurba_marseille","lat":43.279087,"lon":5.380114,"is_reserved":false,"is_disabled":false,"rental_uris":{"android":"levelo://app?vid=85a11bdc-9426-4c6e-a2db-8960bbeb07b6","ios":"levelo://app?vid=85a11bdc-9426-4c6e-a2db-8960bbeb07b6"},"vehicle_type_id":"4","last_reported":1722164759,"current_range_meters":0,"station_id":"ce4bhf92rcd13ifvqf50","pricing_plan_id":"cebpf4jnsgd1na2vs0mg"},{"bike_id":"48868a67-daba-4d8f-8aef-700d9d70d8f1","system_id":"levelo_inurba_marseille","lat":43.347818,"lon":5.373754,"is_reserved":false,"is_disabled":false,"rental_uris":{"android":"levelo://app?vid=48868a67-daba-4d8f-8aef-700d9d70d8f1","ios":"levelo://app?vid=48868a67-daba-4d8f-8aef-700d9d70d8f1"},"vehicle_type_id":"4","last_reported":1722164759,"current_range_meters":9600,"station_id":"","pricing_plan_id":"cebpf4jnsgd1na2vs0mg"},{"bike_id":"0638cada-db30-41dd-9632-13a0d705563b","system_id":"levelo_inurba_marseille","lat":43.279742,"lon":5.38744,"is_reserved":false,"is_disabled":false,"rental_uris":{"android":"levelo://app?vid=0638cada-db30-41dd-9632-13a0d705563b","ios":"levelo://app?vid=0638cada-db30-41dd-9632-13a0d705563b"},"vehicle_type_id":"4","last_reported":1722164759,"current_range_meters":31200,"station_id":"ce4bhg12rcd13ifvqf80","pricing_plan_id":"cebpf4jnsgd1na2vs0mg"},{"bike_id":"54993e35-b92a-4058-87e5-7d9b1be86567","system_id":"levelo_inurba_marseille","lat":43.320045,"lon":5.415048,"is_reserved":false,"is_disabled":false,"rental_uris":{"android":"levelo://app?vid=54993e35-b92a-4058-87e5-7d9b1be86567","ios":"levelo://app?vid=54993e35-b92a-4058-87e5-7d9b1be86567"},"vehicle_type_id":"4","last_reported":1722164759,"current_range_meters":3600,"station_id":"ce4bhq92rcd13ifvqhkg","pricing_plan_id":"cebpf4jnsgd1na2vs0mg"},{"bike_id":"2b9869a2-2766-4782-8f47-3b3af3d6e1d7","system_id":"levelo_inurba_marseille","lat":43.320045,"lon":5.415048,"is_reserved":false,"is_disabled":false,"rental_uris":{"android":"levelo://app?vid=2b9869a2-2766-4782-8f47-3b3af3d6e1d7","ios":"levelo://app?vid=2b9869a2-2766-4782-8f47-3b3af3d6e1d7"},"vehicle_type_id":"4","last_reported":1722164759,"current_range_meters":31600,"station_id":"ce4bhq92rcd13ifvqhkg","pricing_plan_id":"cebpf4jnsgd1na2vs0mg"},{"bike_id":"96cefafd-edcb-4316-89fb-d16dd0f8f105","system_id":"levelo_inurba_marseille","lat":43.320045,"lon":5.415048,"is_reserved":false,"is_disabled":false,"rental_uris":{"android":"levelo://app?vid=96cefafd-edcb-4316-89fb-d16dd0f8f105","ios":"levelo://app?vid=96cefafd-edcb-4316-89fb-d16dd0f8f105"},