{"last_updated":1702217134,"ttl":30,"version":"2.2","data":{"bikes":[{"bike_id":"0866f39b-0112-44a2-8ce2-dced2fa59ead","system_id":"levelo_inurba_marseille","lat":43.312239,"lon":5.368562,"is_reserved":false,"is_disabled":false,"rental_uris":{"android":"levelo://app?vid=0866f39b-0112-44a2-8ce2-dced2fa59ead","ios":"levelo://app?vid=0866f39b-0112-44a2-8ce2-dced2fa59ead"},"vehicle_type_id":"4","last_reported":1702217134,"current_range_meters":24000,"station_id":"ce4bgl92rcd13ifvqbq0","pricing_plan_id":"free"},{"bike_id":"d72ff9a6-a0a6-43c5-9bc3-040fa3b665ac","system_id":"levelo_inurba_marseille","lat":43.312453,"lon":5.369021,"is_reserved":false,"is_disabled":false,"rental_uris":{"android":"levelo://app?vid=d72ff9a6-a0a6-43c5-9bc3-040fa3b665ac","ios":"levelo://app?vid=d72ff9a6-a0a6-43c5-9bc3-040fa3b665ac"},"vehicle_type_id":"4","last_reported":1702217134,"current_range_meters":10400,"station_id":"","pricing_plan_id":"free"},{"bike_id":"fa095748-018b-4dfe-a9af-a4e1fda65414","system_id":"levelo_inurba_marseille","lat":43.309076,"lon":5.368465,"is_reserved":false,"is_disabled":false,"rental_uris":{"android":"levelo://app?vid=fa095748-018b-4dfe-a9af-a4e1fda65414","ios":"levelo://app?vid=fa095748-018b-4dfe-a9af-a4e1fda65414"},"vehicle_type_id":"4","last_reported":1702217134,"current_range_meters":30000,"station_id":"ce4bgn92rcd13ifvqbvg","pricing_plan_id":"free"},{"bike_id":"e581d3eb-e8e0-44bb-b01b-f6a8facadb7b","system_id":"levelo_inurba_marseille","lat":43.309076,"lon":5.368465,"is_reserved":false,"is_disabled":false,"rental_uris":{"android":"levelo://app?vid=e581d3eb-e8e0-44bb-b01b-f6a8facadb7b","ios":"levelo://app?vid=e581d3eb-e8e0-44bb-b01b-f6a8facadb7b"},"vehicle_type_id":"4","last_reported":1702217134,"current_range_meters":18000,"station_id":"ce4bgn92rcd13ifvqbvg","pricing_plan_id":"free"},{"bike_id":"d2fccd4a-8350-412c-b6d8-71d9ff6e8891","system_id":"levelo_inurba_marseille","lat":43.309039,"lon":5.371797,"is_reserved":false,"is_disabled":false,"rental_uris":{"android":"levelo://app?vid=d2fccd4a-8350-412c-b6d8-71d9ff6e8891","ios":"levelo://app?vid=d2fccd4a-8350-412c-b6d8-71d9ff6e8891"},"vehicle_type_id":"4","last_reported":1702217134,"current_range_meters":28800,"station_id":"ce4bguh2rcd13ifvqckg","pricing_plan_id":"free"},{"bike_id":"981abdb6-9f74-4fc0-aa7c-5176f2edb197","system_id":"levelo_inurba_marseille","lat":43.305706,"lon":5.365654,"is_reserved":false,"is_disabled":false,"rental_uris":{"android":"levelo://app?vid=981abdb6-9f74-4fc0-aa7c-5176f2edb197","ios":"levelo://app?vid=981abdb6-9f74-4fc0-aa7c-5176f2edb197"},"vehicle_type_id":"4","last_reported":1702217134,"current_range_meters":6400,"station_id":"ce4bgs12rcd13ifvqcag","pricing_plan_id":"free"},{"bike_id":"24eee5b3-2c4e-4988-b278-a6ccc60992df","system_id":"levelo_inurba_marseille","lat":43.305706,"lon":5.365654,"is_reserved":false,"is_disabled":false,"rental_uris":{"android":"levelo://app?vid=24eee5b3-2c4e-4988-b278-a6ccc60992df","ios":"levelo://app?vid=24eee5b3-2c4e-4988-b278-a6ccc60992df"},"vehicle_type_id":"4","last_reported":1702217134,"current_range_meters":15200,"station_id":"ce4bgs12rcd13ifvqcag","pricing_plan_id":"free"},{"bike_id":"8aeaf0c7-1776-441d-bd55-668a483130b8","system_id":"levelo_inurba_marseille","lat":43.30519,"lon":5.36627,"is_reserved":false,"is_disabled":false,"rental_uris":{"android":"levelo://app?vid=8aeaf0c7-1776-441d-bd55-668a483130b8","ios":"levelo://app?vid=8aeaf0c7-1776-441d-bd55-668a483130b8"},"vehicle_type_id":"4","last_reported":1702217134,"current_range_meters":5200,"station_id":"","pricing_plan_id":"free"},{"bike_id":"06e7259a-12f3-45fd-95df-d47e8815e939","system_id":"levelo_inurba_marseille","lat":43.307945,"lon":5.376487,"is_reserved":false,"is_disabled":false,"rental_uris":{"android":"levelo://app?vid=06e7259a-12f3-45fd-95df-d47e8815e939","ios":"levelo://app?vid=06e7259a-12f3-45fd-95df-d47e8815e939"},"vehicle_type_id":"4","last_reported":1702217134,"current_range_meters":1600,"station_id":"ce4bgv92rcd13ifvqcq0","pricing_plan_id":"free"},{"bike_id":"e606102b-a630-4793-8c67-412e6b33c3ae","system_id":"levelo_inurba_marseille","lat":43.319939,"lon":5.38145,"is_reserved":false,"is_disabled":false,"rental_uris":{"android":"levelo://app?vid=e606102b-a630-4793-8c67-412e6b33c3ae","ios":"levelo://app?vid=e606102b-a630-4793-8c67-412e6b33c3ae"},"vehicle_type_id":"4","last_reported":1702217134,"current_range_meters":10400,"station_id":"ce4bhr12rcd13ifvqhpg","pricing_plan_id":"free"},{"bike_id":"d8be298e-f4c0-4479-a66b-e307c680d7cc","system_id":"levelo_inurba_marseille","lat":43.31356,"lon":5.38493,"is_reserved":false,"is_disabled":false,"rental_uris":{"android":"levelo://app?vid=d8be298e-f4c0-4479-a66b-e307c680d7cc","ios":"levelo://app?vid=d8be298e-f4c0-4479-a66b-e307c680d7cc"},"vehicle_type_id":"4","last_reported":1702217134,"current_range_meters":20000,"station_id":"ce4bgt92rcd13ifvqcf0","pricing_plan_id":"free"},{"bike_id":"754ad5b1-28f7-4581-b82e-ae9e368e8692","system_id":"levelo_inurba_marseille","lat":43.29928,"lon":5.36554,"is_reserved":false,"is_disabled":false,"rental_uris":{"android":"levelo://app?vid=754ad5b1-28f7-4581-b82e-ae9e368e8692","ios":"levelo://app?vid=754ad5b1-28f7-4581-b82e-ae9e368e8692"},"vehicle_type_id":"4","last_reported":1702217134,"current_range_meters":16800,"station_id":"ce4bgm92rcd13ifvqbr0","pricing_plan_id":"free"},{"bike_id":"9d55d536-b1ab-48fc-9756-177bc4868df6","system_id":"levelo_inurba_marseille","lat":43.311722,"lon":5.387247,"is_reserved":false,"is_disabled":false,"rental_uris":{"android":"levelo://app?vid=9d55d536-b1ab-48fc-9756-177bc4868df6","ios":"levelo://app?vid=9d55d536-b1ab-48fc-9756-177bc4868df6"},"vehicle_type_id":"4","last_reported":1702217134,"current_range_meters":13600,"station_id":"ce4bgv12rcd13ifvqcp0","pricing_plan_id":"free"},{"bike_id":"ccd4fbf7-a0c2-498b-8ecc-15a67004cff0","system_id":"levelo_inurba_marseille","lat":43.322872,"lon":5.382756,"is_reserved":false,"is_disabled":false,"rental_uris":{"android":"levelo://app?vid=ccd4fbf7-a0c2-498b-8ecc-15a67004cff0","ios":"levelo://app?vid=ccd4fbf7-a0c2-498b-8ecc-15a67004cff0"},"vehicle_type_id":"4","last_reported":1702217134,"current_range_meters":27600,"station_id":"ce4bhr12rcd13ifvqhqg","pricing_plan_id":"free"},{"bike_id":"6ac675f1-e0be-498c-ad2f-b742a949d4b0","system_id":"levelo_inurba_marseille","lat":43.298218,"lon":5.374416,"is_reserved":false,"is_disabled":false,"rental_uris":{"android":"levelo://app?vid=6ac675f1-e0be-498c-ad2f-b742a949d4b0","ios":"levelo://app?vid=6ac675f1-e0be-498c-ad2f-b742a949d4b0"},"vehicle_type_id":"4","last_reported":1702217134,"current_range_meters":0,"station_id":"","pricing_plan_id":"free"},{"bike_id":"9a75aac0-2e54-4ffe-8b56-07e48315b873","system_id":"levelo_inurba_marseille","lat":43.328371,"lon":5.366909,"is_reserved":false,"is_disabled":false,"rental_uris":{"android":"levelo://app?vid=9a75aac0-2e54-4ffe-8b56-07e48315b873","ios":"levelo://app?vid=9a75aac0-2e54-4ffe-8b56-07e48315b873"},"vehicle_type_id":"4","last_reported":1702217134,"current_range_meters":23200,"station_id":"ce4bhs92rcd13ifvqi0g","pricing_plan_id":"free"},{"bike_id":"9f31c7cc-2604-48a2-a901-996d50f6f487","system_id":"levelo_inurba_marseille","lat":43.29714,"lon":5.36613,"is_reserved":false,"is_disabled":false,"rental_uris":{"android":"levelo://app?vid=9f31c7cc-2604-48a2-a901-996d50f6f487","ios":"levelo://app?vid=9f31c7cc-2604-48a2-a901-996d50f6f487"},"vehicle_type_id":"4","last_reported":1702217134,"current_range_meters":0,"station_id":"ce4bgn12rcd13ifvqbt0","pricing_plan_id":"free"},{"bike_id":"92dc65d6-6823-4de3-93d4-056f738f090c","system_id":"levelo_inurba_marseille","lat":43.316538,"lon":5.38954,"is_reserved":false,"is_disabled":false,"rental_uris":{"android":"levelo://app?vid=92dc65d6-6823-4de3-93d4-056f738f090c","ios":"levelo://app?vid=92dc65d6-6823-4de3-93d4-056f738f090c"},"vehicle_type_id":"4","last_reported":1702217134,"current_range_meters":0,"station_id":"","pricing_plan_id":"free"},{"bike_id":"a0660209-bdd0-4e9b-b548-fb9f2e25f86a","system_id":"levelo_inurba_marseille","lat":43.29573,"lon":5.367355,"is_reserved":false,"is_disabled":false,"rental_uris":{"android":"levelo://app?vid=a0660209-bdd0-4e9b-b548-fb9f2e25f86a","ios":"levelo://app?vid=a0660209-bdd0-4e9b-b548-fb9f2e25f86a"},"vehicle_type_id":"4","last_reported":1702217134,"current_range_meters":14800,"station_id":"ce4bgph2rcd13ifvqc2g","pricing_plan_id":"free"},{"bike_id":"c61f7a48-8044-4723-a606-f56209927c5d","system_id":"levelo_inurba_marseille","lat":43.309589,"lon":5.390258,"is_reserved":false,"is_disabled":false,"rental_uris":{"android":"levelo://app?vid=c61f7a48-8044-4723-a606-f56209927c5d","ios":"levelo://app?vid=c61f7a48-8044-4723-a606-f56209927c5d"},"vehicle_type_id":"4","last_reported":1702217134,"current_range_meters":27200,"station_id":"ce4bgup2rcd13ifvqco0","pricing_plan_id":"free"},{"bike_id":"ea558023-1a7e-4d27-bda0-3a1767d70e98","system_id":"levelo_inurba_marseille","lat":43.29791,"lon":5.38101,"is_reserved":false,"is_disabled":false,"rental_uris":{"android":"levelo://app?vid=ea558023-1a7e-4d27-bda0-3a1767d70e98","ios":"levelo://app?vid=ea558023-1a7e-4d27-bda0-3a1767d70e98"},"vehicle_type_id":"4","last_reported":1702217134,"current_range_meters":0,"station_id":"ce4bgip2rcd13ifvqbb0","pricing_plan_id":"free"},{"bike_id":"79adcaa8-13ef-484c-bdbc-9ad0f68d094f","system_id":"levelo_inurba_marseille","lat":43.304274,"lon":5.388873,"is_reserved":false,"is_disabled":false,"rental_uris":{"android":"levelo://app?vid=79adcaa8-13ef-484c-bdbc-9ad0f68d094f","ios":"levelo://app?vid=79adcaa8-13ef-484c-bdbc-9ad0f68d094f"},"vehicle_type_id":"4","last_reported":1702217134,"current_range_meters":22000,"station_id":"ce4bgk12rcd13ifvqbi0","pricing_plan_id":"free"},{"bike_id":"a5fad9e0-f202-43d8-90c1-e93484291665","system_id":"levelo_inurba_marseille","lat":43.292749,"lon":5.368402,"is_reserved":false,"is_disabled":false,"rental_uris":{"android":"levelo://app?vid=a5fad9e0-f202-43d8-90c1-e93484291665","ios":"levelo://app?vid=a5fad9e0-f202-43d8-90c1-e93484291665"},"vehicle_type_id":"4","last_reported":1702217134,"current_range_meters":0,"station_id":"ce4bhbp2rcd13ifvqesg","pricing_plan_id":"free"},{"bike_id":"def16cd6-cf0d-4b3f-bb9b-68e51019674d","system_id":"levelo_inurba_marseille","lat":43.293259,"lon":5.371586,"is_reserved":false,"is_disabled":false,"rental_uris":{"android":"levelo://app?vid=def16cd6-cf0d-4b3f-bb9b-68e51019674d","ios":"levelo://app?vid=def16cd6-cf0d-4b3f-bb9b-68e51019674d"},"vehicle_type_id":"4","last_reported":1702217134,"current_range_meters":13600,"station_id":"ce4bgh92rcd13ifvqb40","pricing_plan_id":"free"},{"bike_id":"3b72bbf1-c79d-4d91-8d6f-a4c6c12cbd55","system_id":"levelo_inurba_marseille","lat":43.29271,"lon":5.36839,"is_reserved":false,"is_disabled":false,"rental_uris":{"android":"levelo://app?vid=3b72bbf1-c79d-4d91-8d6f-a4c6c12cbd55","ios":"levelo://app?vid=3b72bbf1-c79d-4d91-8d6f-a4c6c12cbd55"},"vehicle_type_id":"4","last_reported":1702217134,"current_range_meters":0,"station_id":"ce4bhbp2rcd13ifvqesg","pricing_plan_id":"free"},{"bike_id":"b7d2e32f-474c-4420-9d71-aac72d1a4d06","system_id":"levelo_inurba_marseille","lat":43.300852,"lon":5.390859,"is_reserved":false,"is_disabled":false,"rental_uris":{"android":"levelo://app?vid=b7d2e32f-474c-4420-9d71-aac72d1a4d06","ios":"levelo://app?vid=b7d2e32f-474c-4420-9d71-aac72d1a4d06"},"vehicle_type_id":"4","last_reported":1702217134,"current_range_meters":5200,"station_id":"ce4bh192rcd13ifvqdb0","pricing_plan_id":"free"},{"bike_id":"10ac6d1d-62a0-4d17-bcd9-76789f9edae6","system_id":"levelo_inurba_marseille","lat":43.2936,"lon":5.37835,"is_reserved":false,"is_disabled":false,"rental_uris":{"android":"levelo://app?vid=10ac6d1d-62a0-4d17-bcd9-76789f9edae6","ios":"levelo://app?vid=10ac6d1d-62a0-4d17-bcd9-76789f9edae6"},"vehicle_type_id":"4","last_reported":1702217134,"current_range_meters":24000,"station_id":"ce4bgjh2rcd13ifvqbf0","pricing_plan_id":"free"},{"bike_id":"1aab82a7-1f8d-4123-b7aa-a2e562d3bca2","system_id":"levelo_inurba_marseille","lat":43.2919,"lon":5.35814,"is_reserved":false,"is_disabled":false,"rental_uris":{"android":"levelo://app?vid=1aab82a7-1f8d-4123-b7aa-a2e562d3bca2","ios":"levelo://app?vid=1aab82a7-1f8d-4123-b7aa-a2e562d3bca2"},"vehicle_type_id":"4","last_reported":1702217134,"current_range_meters":18400,"station_id":"ce4bhb12rcd13ifvqel0","pricing_plan_id":"free"},{"bike_id":"6d99394b-513d-45e9-9e36-a6074852649c","system_id":"levelo_inurba_marseille","lat":43.28941,"lon":5.36385,"is_reserved":false,"is_disabled":false,"rental_uris":{"android":"levelo://app?vid=6d99394b-513d-45e9-9e36-a6074852649c","ios":"levelo://app?vid=6d99394b-513d-45e9-9e36-a6074852649c"},"vehicle_type_id":"4","last_reported":1702217134,"current_range_meters":4800,"station_id":"ce4bhc92rcd13ifvqetg","pricing_plan_id":"free"},{"bike_id":"0d55287e-6324-4a21-96f1-2aa124f5d1a5","system_id":"levelo_inurba_marseille","lat":43.290161,"lon":5.375651,"is_reserved":false,"is_disabled":false,"rental_uris":{"android":"levelo://app?vid=0d55287e-6324-4a21-96f1-2aa124f5d1a5","ios":"levelo://app?vid=0d55287e-6324-4a21-96f1-2aa124f5d1a5"},"vehicle_type_id":"4","last_reported":1702217134,"current_range_meters":9600,"station_id":"","pricing_plan_id":"free"},{"bike_id":"a02a1b20-1fb1-4951-988a-77389649024d","system_id":"levelo_inurba_marseille","lat":43.289259,"lon":5.366364,"is_reserved":false,"is_disabled":false,"rental_uris":{"android":"levelo://app?vid=a02a1b20-1fb1-4951-988a-77389649024d","ios":"levelo://app?vid=a02a1b20-1fb1-4951-988a-77389649024d"},"vehicle_type_id":"4","last_reported":1702217134,"current_range_meters":8000,"station_id":"","pricing_plan_id":"free"},{"bike_id":"43be20ed-bbfb-49d5-865a-05ffbc5805c1","system_id":"levelo_inurba_marseille","lat":43.290104,"lon":5.356111,"is_reserved":false,"is_disabled":false,"rental_uris":{"android":"levelo://app?vid=43be20ed-bbfb-49d5-865a-05ffbc5805c1","ios":"levelo://app?vid=43be20ed-bbfb-49d5-865a-05ffbc5805c1"},"vehicle_type_id":"4","last_reported":1702217134,"current_range_meters":29600,"station_id":"ce4bhb92rcd13ifvqen0","pricing_plan_id":"free"},{"bike_id":"c62148ea-3838-4c7e-9915-518a5618d38c","system_id":"levelo_inurba_marseille","lat":43.290104,"lon":5.356111,"is_reserved":false,"is_disabled":false,"rental_uris":{"android":"levelo://app?vid=c62148ea-3838-4c7e-9915-518a5618d38c","ios":"levelo://app?vid=c62148ea-3838-4c7e-9915-518a5618d38c"},"vehicle_type_id":"4","last_reported":1702217134,"current_range_meters":9200,"station_id":"ce4bhb92rcd13ifvqen0","pricing_plan_id":"free"},{"bike_id":"6df89ff4-4e2a-484b-bba1-d654470a846d","system_id":"levelo_inurba_marseille","lat":43.290103,"lon":5.356114,"is_reserved":false,"is_disabled":false,"rental_uris":{"android":"levelo://app?vid=6df89ff4-4e2a-484b-bba1-d654470a846d","ios":"levelo://app?vid=6df89ff4-4e2a-484b-bba1-d654470a846d"},"vehicle_type_id":"4","last_reported":1702217134,"current_range_meters":23200,"station_id":"ce4bhb92rcd13ifvqen0","pricing_plan_id":"free"},{"bike_id":"cdc2541a-0835-4b51-a8da-b862ce7e57a8","system_id":"levelo_inurba_marseille","lat":43.290103,"lon":5.356114,"is_reserved":false,"is_disabled":false,"rental_uris":{"android":"levelo://app?vid=cdc2541a-0835-4b51-a8da-b862ce7e57a8","ios":"levelo://app?vid=cdc2541a-0835-4b51-a8da-b862ce7e57a8"},"vehicle_type_id":"4","last_reported":1702217134,"current_range_meters":30800,"station_id":"ce4bhb92rcd13ifvqen0","pricing_plan_id":"free"},{"bike_id":"f2874d4e-cf66-483a-b16a-7226a26b25aa","system_id":"levelo_inurba_marseille","lat":43.290103,"lon":5.356114,"is_reserved":false,"is_disabled":false,"rental_uris":{"android":"levelo://app?vid=f2874d4e-cf66-483a-b16a-7226a26b25aa","ios":"levelo://app?vid=f2874d4e-cf66-483a-b16a-7226a26b25aa"},"vehicle_type_id":"4","last_reported":1702217134,"current_range_meters":31200,"station_id":"ce4bhb92rcd13ifvqen0","pricing_plan_id":"free"},{"bike_id":"4ffa9dd8-e760-4551-bc40-80bb25fa262d","system_id":"levelo_inurba_marseille","lat":43.290103,"lon":5.356114,"is_reserved":false,"is_disabled":false,"rental_uris":{"android":"levelo://app?vid=4ffa9dd8-e760-4551-bc40-80bb25fa262d","ios":"levelo://app?vid=4ffa9dd8-e760-4551-bc40-80bb25fa262d"},"vehicle_type_id":"4","last_reported":1702217134,"current_range_meters":19600,"station_id":"ce4bhb92rcd13ifvqen0","pricing_plan_id":"free"},{"bike_id":"77a6c46d-d898-4e4f-8846-efa91689c7f0","system_id":"levelo_inurba_marseille","lat":43.330272,"lon":5.390216,"is_reserved":false,"is_disabled":false,"rental_uris":{"android":"levelo://app?vid=77a6c46d-d898-4e4f-8846-efa91689c7f0","ios":"levelo://app?vid=77a6c46d-d898-4e4f-8846-efa91689c7f0"},"vehicle_type_id":"4","last_reported":1702217134,"current_range_meters":0,"station_id":"","pricing_plan_id":"free"},{"bike_id":"e3ed4455-db99-4087-b329-e462bd2639db","system_id":"levelo_inurba_marseille","lat":43.2901,"lon":5.381269,"is_reserved":false,"is_disabled":false,"rental_uris":{"android":"levelo://app?vid=e3ed4455-db99-4087-b329-e462bd2639db","ios":"levelo://app?vid=e3ed4455-db99-4087-b329-e462bd2639db"},"vehicle_type_id":"4","last_reported":1702217134,"current_range_meters":5200,"station_id":"ce4bh4p2rcd13ifvqe1g","pricing_plan_id":"free"},{"bike_id":"ec4f8e37-277c-4b55-89e3-d2fa2f86421f","system_id":"levelo_inurba_marseille","lat":43.28857,"lon":5.35858,"is_reserved":false,"is_disabled":false,"rental_uris":{"android":"levelo://app?vid=ec4f8e37-277c-4b55-89e3-d2fa2f86421f","ios":"levelo://app?vid=ec4f8e37-277c-4b55-89e3-d2fa2f86421f"},"vehicle_type_id":"4","last_reported":1702217134,"current_range_meters":14800,"station_id":"ce4bhb12rcd13ifvqem0","pricing_plan_id":"free"},{"bike_id":"128f959e-0680-474a-83ec-16b88a813f17","system_id":"levelo_inurba_marseille","lat":43.28856,"lon":5.358371,"is_reserved":false,"is_disabled":false,"rental_uris":{"android":"levelo://app?vid=128f959e-0680-474a-83ec-16b88a813f17","ios":"levelo://app?vid=128f959e-0680-474a-83ec-16b88a813f17"},"vehicle_type_id":"4","last_reported":1702217134,"current_range_meters":4400,"station_id":"ce4bhb12rcd13ifvqem0","pricing_plan_id":"free"},{"bike_id":"dd30605c-3652-4020-97e1-1e2919cf7953","system_id":"levelo_inurba_marseille","lat":43.33767,"lon":5.37435,"is_reserved":false,"is_disabled":false,"rental_uris":{"android":"levelo://app?vid=dd30605c-3652-4020-97e1-1e2919cf7953","ios":"levelo://app?vid=dd30605c-3652-4020-97e1-1e2919cf7953"},"vehicle_type_id":"4","last_reported":1702217134,"current_range_meters":26800,"station_id":"","pricing_plan_id":"free"},{"bike_id":"c8658b4b-aa06-4b60-ad37-0821b1859ddb","system_id":"levelo_inurba_marseille","lat":43.33771,"lon":5.37432,"is_reserved":false,"is_disabled":false,"rental_uris":{"android":"levelo://app?vid=c8658b4b-aa06-4b60-ad37-0821b1859ddb","ios":"levelo://app?vid=c8658b4b-aa06-4b60-ad37-0821b1859ddb"},"vehicle_type_id":"4","last_reported":1702217134,"current_range_meters":30400,"station_id":"","pricing_plan_id":"free"},{"bike_id":"f30ad5d2-291c-47bc-a289-30912a96748f","system_id":"levelo_inurba_marseille","lat":43.337748,"lon":5.374261,"is_reserved":false,"is_disabled":false,"rental_uris":{"android":"levelo://app?vid=f30ad5d2-291c-47bc-a289-30912a96748f","ios":"levelo://app?vid=f30ad5d2-291c-47bc-a289-30912a96748f"},"vehicle_type_id":"4","last_reported":1702217134,"current_range_meters":28800,"station_id":"","pricing_plan_id":"free"},{"bike_id":"d7514104-8631-458e-b5e5-934ab6c6d22f","system_id":"levelo_inurba_marseille","lat":43.28727,"lon":5.36078,"is_reserved":false,"is_disabled":false,"rental_uris":{"android":"levelo://app?vid=d7514104-8631-458e-b5e5-934ab6c6d22f","ios":"levelo://app?vid=d7514104-8631-458e-b5e5-934ab6c6d22f"},"vehicle_type_id":"4","last_reported":1702217134,"current_range_meters":12400,"station_id":"cki0cbj6b192h4jlfktg","pricing_plan_id":"free"},{"bike_id":"123ff4c4-a259-483e-9966-d121ba3614de","system_id":"levelo_inurba_marseille","lat":43.289307,"lon":5.38406,"is_reserved":false,"is_disabled":false,"rental_uris":{"android":"levelo://app?vid=123ff4c4-a259-483e-9966-d121ba3614de","ios":"levelo://app?vid=123ff4c4-a259-483e-9966-d121ba3614de"},"vehicle_type_id":"4","last_reported":1702217134,"current_range_meters":28800,"station_id":"ce4bh612rcd13ifvqe6g","pricing_plan_id":"free"},{"bike_id":"97ddd3b0-4f5a-4fc3-801e-01dcc6739c02","system_id":"levelo_inurba_marseille","lat":43.289307,"lon":5.38406,"is_reserved":false,"is_disabled":false,"rental_uris":{"android":"levelo://app?vid=97ddd3b0-4f5a-4fc3-801e-01dcc6739c02","ios":"levelo://app?vid=97ddd3b0-4f5a-4fc3-801e-01dcc6739c02"},"vehicle_type_id":"4","last_reported":1702217134,"current_range_meters":24400,"station_id":"ce4bh612rcd13ifvqe6g","pricing_plan_id":"free"},{"bike_id":"82fb5ddb-3744-4637-8e06-ef63b565282f","system_id":"levelo_inurba_marseille","lat":43.239588,"lon":5.366238,"is_reserved":false,"is_disabled":false,"rental_uris":{"android":"levelo://app?vid=82fb5ddb-3744-4637-8e06-ef63b565282f","ios":"levelo://app?vid=82fb5ddb-3744-4637-8e06-ef63b565282f"},"vehicle_type_id":"4","last_reported":1702217134,"current_range_meters":22800,"station_id":"ce4bhi12rcd13ifvqfp0","pricing_plan_id":"free"},{"bike_id":"f1b5cdb2-7df3-4e18-9ce9-10081cd786b8","system_id":"levelo_inurba_marseille","lat":43.28413,"lon":5.37591,"is_reserved":false,"is_disabled":false,"rental_uris":{"android":"levelo://app?vid=f1b5cdb2-7df3-4e18-9ce9-10081cd786b8","ios":"levelo://app?vid=f1b5cdb2-7df3-4e18-9ce9-10081cd786b8"},"vehicle_type_id":"4","last_reported":1702217134,"current_range_meters":0,"station_id":"","pricing_plan_id":"free"},{"bike_id":"62d3d2f2-8391-492e-a21a-3c58595bfad3","system_id":"levelo_inurba_marseille","lat":43.283998,"lon":5.375062,"is_reserved":false,"is_disabled":false,"rental_uris":{"android":"levelo://app?vid=62d3d2f2-8391-492e-a21a-3c58595bfad3","ios":"levelo://app?vid=62d3d2f2-8391-492e-a21a-3c58595bfad3"},"vehicle_type_id":"4","last_reported":1702217134,"current_range_meters":20400,"station_id":"ce4bh412rcd13ifvqds0","pricing_plan_id":"free"},{"bike_id":"8e06d2de-3aee-4e42-9c5d-c685a6138b6e","system_id":"levelo_inurba_marseille","lat":43.283998,"lon":5.375062,"is_reserved":false,"is_disabled":false,"rental_uris":{"android":"levelo://app?vid=8e06d2de-3aee-4e42-9c5d-c685a6138b6e","ios":"levelo://app?vid=8e06d2de-3aee-4e42-9c5d-c685a6138b6e"},"vehicle_type_id":"4","last_reported":1702217134,"current_range_meters":400,"station_id":"ce4bh412rcd13ifvqds0","pricing_plan_id":"free"},{"bike_id":"f4c3124f-3852-4f69-b98f-98a559ff0276","system_id":"levelo_inurba_marseille","lat":43.283998,"lon":5.375062,"is_reserved":false,"is_disabled":false,"rental_uris":{"android":"levelo://app?vid=f4c3124f-3852-4f69-b98f-98a559ff0276","ios":"levelo://app?vid=f4c3124f-3852-4f69-b98f-98a559ff0276"},"vehicle_type_id":"4","last_reported":1702217134,"current_range_meters":0,"station_id":"ce4bh412rcd13ifvqds0","pricing_plan_id":"free"},{"bike_id":"35fb63c5-41fb-4384-8d5f-60a31520eb1d","system_id":"levelo_inurba_marseille","lat":43.297946,"lon":5.404063,"is_reserved":false,"is_disabled":false,"rental_uris":{"android":"levelo://app?vid=35fb63c5-41fb-4384-8d5f-60a31520eb1d","ios":"levelo://app?vid=35fb63c5-41fb-4384-8d5f-60a31520eb1d"},"vehicle_type_id":"4","last_reported":1702217134,"current_range_meters":2800,"station_id":"ce4bh112rcd13ifvqd90","pricing_plan_id":"free"},{"bike_id":"dffe89e6-838d-4ea9-a22b-3acddaafb58c","system_id":"levelo_inurba_marseille","lat":43.28422,"lon":5.34991,"is_reserved":false,"is_disabled":false,"rental_uris":{"android":"levelo://app?vid=dffe89e6-838d-4ea9-a22b-3acddaafb58c","ios":"levelo://app?vid=dffe89e6-838d-4ea9-a22b-3acddaafb58c"},"vehicle_type_id":"4","last_reported":1702217134,"current_range_meters":12400,"station_id":"ce4bhbh2rcd13ifvqepg","pricing_plan_id":"free"},{"bike_id":"4bcec3f6-1599-43a0-9d7f-c4f9ac27fa53","system_id":"levelo_inurba_marseille","lat":43.284217,"lon":5.349697,"is_reserved":false,"is_disabled":false,"rental_uris":{"android":"levelo://app?vid=4bcec3f6-1599-43a0-9d7f-c4f9ac27fa53","ios":"levelo://app?vid=4bcec3f6-1599-43a0-9d7f-c4f9ac27fa53"},"vehicle_type_id":"4","last_reported":1702217134,"current_range_meters":9600,"station_id":"ce4bhbh2rcd13ifvqepg","pricing_plan_id":"free"},{"bike_id":"6606b5ac-5457-4d02-b3d0-0c0a894ab6ae","system_id":"levelo_inurba_marseille","lat":43.284217,"lon":5.349697,"is_reserved":false,"is_disabled":false,"rental_uris":{"android":"levelo://app?vid=6606b5ac-5457-4d02-b3d0-0c0a894ab6ae","ios":"levelo://app?vid=6606b5ac-5457-4d02-b3d0-0c0a894ab6ae"},"vehicle_type_id":"4","last_reported":1702217134,"current_range_meters":7600,"station_id":"ce4bhbh2rcd13ifvqepg","pricing_plan_id":"free"},{"bike_id":"3395d4a6-af4d-4e4d-8c72-e5fe99d2d2ae","system_id":"levelo_inurba_marseille","lat":43.284217,"lon":5.349697,"is_reserved":false,"is_disabled":false,"rental_uris":{"android":"levelo://app?vid=3395d4a6-af4d-4e4d-8c72-e5fe99d2d2ae","ios":"levelo://app?vid=3395d4a6-af4d-4e4d-8c72-e5fe99d2d2ae"},"vehicle_type_id":"4","last_reported":1702217134,"current_range_meters":1600,"station_id":"ce4bhbh2rcd13ifvqepg","pricing_plan_id":"free"},{"bike_id":"bd2131db-b683-472d-9753-89cdb1ac7d03","system_id":"levelo_inurba_marseille","lat":43.284462,"lon":5.392121,"is_reserved":false,"is_disabled":false,"rental_uris":{"android":"levelo://app?vid=bd2131db-b683-472d-9753-89cdb1ac7d03","ios":"levelo://app?vid=bd2131db-b683-472d-9753-89cdb1ac7d03"},"vehicle_type_id":"4","last_reported":1702217134,"current_range_meters":26400,"station_id":"ce4bhoh2rcd13ifvqh5g","pricing_plan_id":"free"},{"bike_id":"866d01e1-ecb6-4970-b300-74b95402245b","system_id":"levelo_inurba_marseille","lat":43.285742,"lon":5.395004,"is_reserved":false,"is_disabled":false,"rental_uris":{"android":"levelo://app?vid=866d01e1-ecb6-4970-b300-74b95402245b","ios":"levelo://app?vid=866d01e1-ecb6-4970-b300-74b95402245b"},"vehicle_type_id":"4","last_reported":1702217134,"current_range_meters":26800,"station_id":"ce4bh292rcd13ifvqdg0","pricing_plan_id":"free"},{"bike_id":"e8cf5fcc-db56-4f20-84e6-b9b35ebaa529","system_id":"levelo_inurba_marseille","lat":43.287154,"lon":5.399979,"is_reserved":false,"is_disabled":false,"rental_uris":{"android":"levelo://app?vid=e8cf5fcc-db56-4f20-84e6-b9b35ebaa529","ios":"levelo://app?vid=e8cf5fcc-db56-4f20-84e6-b9b35ebaa529"},"vehicle_type_id":"4","last_reported":1702217134,"current_range_meters":4800,"station_id":"ce4bho92rcd13ifvqh3g","pricing_plan_id":"free"},{"bike_id":"717ae9f4-1745-4da4-93c6-f982e38e2151","system_id":"levelo_inurba_marseille","lat":43.279742,"lon":5.38744,"is_reserved":false,"is_disabled":false,"rental_uris":{"android":"levelo://app?vid=717ae9f4-1745-4da4-93c6-f982e38e2151","ios":"levelo://app?vid=717ae9f4-1745-4da4-93c6-f982e38e2151"},"vehicle_type_id":"4","last_reported":1702217134,"current_range_meters":16800,"station_id":"ce4bhg12rcd13ifvqf80","pricing_plan_id":"free"},{"bike_id":"99405e2d-86d2-46d8-bdaa-9595c7aed3c4","system_id":"levelo_inurba_marseille","lat":43.29251,"lon":5.40909,"is_reserved":false,"is_disabled":false,"rental_uris":{"android":"levelo://app?vid=99405e2d-86d2-46d8-bdaa-9595c7aed3c4","ios":"levelo://app?vid=99405e2d-86d2-46d8-bdaa-9595c7aed3c4"},"vehicle_type_id":"4","last_reported":1702217134,"current_range_meters":0,"station_id":"ce4bh192rcd13ifvqdc0","pricing_plan_id":"free"},{"bike_id":"8d0d773c-50af-442c-9246-fbc52bf45c5d","system_id":"levelo_inurba_marseille","lat":43.27618,"lon":5.361009,"is_reserved":false,"is_disabled":false,"rental_uris":{"android":"levelo://app?vid=8d0d773c-50af-442c-9246-fbc52bf45c5d","ios":"levelo://app?vid=8d0d773c-50af-442c-9246-fbc52bf45c5d"},"vehicle_type_id":"4","last_reported":1702217134,"current_range_meters":8400,"station_id":"ce4bgj92rcd13ifvqbe0","pricing_plan_id":"free"},{"bike_id":"d5d0b37f-3bb5-4cc3-b9e9-78d65d591551","system_id":"levelo_inurba_marseille","lat":43.27615,"lon":5.36112,"is_reserved":false,"is_disabled":false,"rental_uris":{"android":"levelo://app?vid=d5d0b37f-3bb5-4cc3-b9e9-78d65d591551","ios":"levelo://app?vid=d5d0b37f-3bb5-4cc3-b9e9-78d65d591551"},"vehicle_type_id":"4","last_reported":1702217134,"current_range_meters":29200,"station_id":"ce4bgj92rcd13ifvqbe0","pricing_plan_id":"free"},{"bike_id":"2a3e1e1f-43ac-4510-a3d5-04c92fda15ea","system_id":"levelo_inurba_marseille","lat":43.303837,"lon":5.418724,"is_reserved":false,"is_disabled":false,"rental_uris":{"android":"levelo://app?vid=2a3e1e1f-43ac-4510-a3d5-04c92fda15ea","ios":"levelo://app?vid=2a3e1e1f-43ac-4510-a3d5-04c92fda15ea"},"vehicle_type_id":"4","last_reported":1702217134,"current_range_meters":0,"station_id":"ce4bhop2rcd13ifvqh7g","pricing_plan_id":"free"},{"bike_id":"2d4a36da-3fae-47bb-92e2-bf98e2308b70","system_id":"levelo_inurba_marseille","lat":43.27387,"lon":5.36261,"is_reserved":false,"is_disabled":false,"rental_uris":{"android":"levelo://app?vid=2d4a36da-3fae-47bb-92e2-bf98e2308b70","ios":"levelo://app?vid=2d4a36da-3fae-47bb-92e2-bf98e2308b70"},"vehicle_type_id":"4","last_reported":1702217134,"current_range_meters":18000,"station_id":"ce4bhbh2rcd13ifvqeo0","pricing_plan_id":"free"},{"bike_id":"f78841e3-2870-444b-8a92-16f4143b03d7","system_id":"levelo_inurba_marseille","lat":43.273613,"lon":5.362705,"is_reserved":false,"is_disabled":false,"rental_uris":{"android":"levelo://app?vid=f78841e3-2870-444b-8a92-16f4143b03d7","ios":"levelo://app?vid=f78841e3-2870-444b-8a92-16f4143b03d7"},"vehicle_type_id":"4","last_reported":1702217134,"current_range_meters":12800,"station_id":"ce4bhbh2rcd13ifvqeo0","pricing_plan_id":"free"},{"bike_id":"f6cf0597-4897-4134-a4ba-4047417e3921","system_id":"levelo_inurba_marseille","lat":43.273613,"lon":5.362705,"is_reserved":false,"is_disabled":false,"rental_uris":{"android":"levelo://app?vid=f6cf0597-4897-4134-a4ba-4047417e3921","ios":"levelo://app?vid=f6cf0597-4897-4134-a4ba-4047417e3921"},"vehicle_type_id":"4","last_reported":1702217134,"current_range_meters":20000,"station_id":"ce4bhbh2rcd13ifvqeo0","pricing_plan_id":"free"},{"bike_id":"d327c5ae-f57e-448c-bb55-5146b10abb1e","system_id":"levelo_inurba_marseille","lat":43.273613,"lon":5.362705,"is_reserved":false,"is_disabled":false,"rental_uris":{"android":"levelo://app?vid=d327c5ae-f57e-448c-bb55-5146b10abb1e","ios":"levelo://app?vid=d327c5ae-f57e-448c-bb55-5146b10abb1e"},"vehicle_type_id":"4","last_reported":1702217134,"current_range_meters":23600,"station_id":"ce4bhbh2rcd13ifvqeo0","pricing_plan_id":"free"},{"bike_id":"028c1ab0-2ab7-4067-86b9-8de75f314f76","system_id":"levelo_inurba_marseille","lat":43.273609,"lon":5.362708,"is_reserved":false,"is_disabled":false,"rental_uris":{"android":"levelo://app?vid=028c1ab0-2ab7-4067-86b9-8de75f314f76","ios":"levelo://app?vid=028c1ab0-2ab7-4067-86b9-8de75f314f76"},"vehicle_type_id":"4","last_reported":1702217134,"current_range_meters":20000,"station_id":"ce4bhbh2rcd13ifvqeo0","pricing_plan_id":"free"},{"bike_id":"c07a35b2-5cb1-4f76-9266-31080de9f364","system_id":"levelo_inurba_marseille","lat":43.33612,"lon":5.410321,"is_reserved":false,"is_disabled":false,"rental_uris":{"android":"levelo://app?vid=c07a35b2-5cb1-4f76-9266-31080de9f364","ios":"levelo://app?vid=c07a35b2-5cb1-4f76-9266-31080de9f364"},"vehicle_type_id":"4","last_reported":1702217134,"current_range_meters":0,"station_id":"ce4bhqh2rcd13ifvqhmg","pricing_plan_id":"free"},{"bike_id":"88e59060-d458-48a8-8abe-8a1913097d92","system_id":"levelo_inurba_marseille","lat":43.31714,"lon":5.42401,"is_reserved":false,"is_disabled":false,"rental_uris":{"android":"levelo://app?vid=88e59060-d458-48a8-8abe-8a1913097d92","ios":"levelo://app?vid=88e59060-d458-48a8-8abe-8a1913097d92"},"vehicle_type_id":"4","last_reported":1702217134,"current_range_meters":19600,"station_id":"ce4bhp92rcd13ifvqhbg","pricing_plan_id":"free"},{"bike_id":"63133364-316e-458e-b234-bbd4926c63fc","system_id":"levelo_inurba_marseille","lat":43.27583,"lon":5.39474,"is_reserved":false,"is_disabled":false,"rental_uris":{"android":"levelo://app?vid=63133364-316e-458e-b234-bbd4926c63fc","ios":"levelo://app?vid=63133364-316e-458e-b234-bbd4926c63fc"},"vehicle_type_id":"4","last_reported":1702217134,"current_range_meters":3600,"station_id":"","pricing_plan_id":"free"},{"bike_id":"efe12f5a-a46b-47b7-be5d-2a89a9228c6b","system_id":"levelo_inurba_marseille","lat":43.30411,"lon":5.42539,"is_reserved":false,"is_disabled":false,"rental_uris":{"android":"levelo://app?vid=efe12f5a-a46b-47b7-be5d-2a89a9228c6b","ios":"levelo://app?vid=efe12f5a-a46b-47b7-be5d-2a89a9228c6b"},"vehicle_type_id":"4","last_reported":1702217134,"current_range_meters":25600,"station_id":"ce4bhoh2rcd13ifvqh6g","pricing_plan_id":"free"},{"bike_id":"8d7773eb-8cfa-4695-aadd-d81486eca834","system_id":"levelo_inurba_marseille","lat":43.295523,"lon":5.422926,"is_reserved":false,"is_disabled":false,"rental_uris":{"android":"levelo://app?vid=8d7773eb-8cfa-4695-aadd-d81486eca834","ios":"levelo://app?vid=8d7773eb-8cfa-4695-aadd-d81486eca834"},"vehicle_type_id":"4","last_reported":1702217134,"current_range_meters":23600,"station_id":"ce4bhph2rcd13ifvqhdg","pricing_plan_id":"free"},{"bike_id":"9b5df87e-5b55-476d-8b11-43f061cad14c","system_id":"levelo_inurba_marseille","lat":43.295523,"lon":5.422926,"is_reserved":false,"is_disabled":false,"rental_uris":{"android":"levelo://app?vid=9b5df87e-5b55-476d-8b11-43f061cad14c","ios":"levelo://app?vid=9b5df87e-5b55-476d-8b11-43f061cad14c"},"vehicle_type_id":"4","last_reported":1702217134,"current_range_meters":30400,"station_id":"ce4bhph2rcd13ifvqhdg","pricing_plan_id":"free"},{"bike_id":"73be8de9-0dde-4ef6-815b-5a26699c3c87","system_id":"levelo_inurba_marseille","lat":43.295511,"lon":5.422926,"is_reserved":false,"is_disabled":false,"rental_uris":{"android":"levelo://app?vid=73be8de9-0dde-4ef6-815b-5a26699c3c87","ios":"levelo://app?vid=73be8de9-0dde-4ef6-815b-5a26699c3c87"},"vehicle_type_id":"4","last_reported":1702217134,"current_range_meters":14800,"station_id":"ce4bhph2rcd13ifvqhdg","pricing_plan_id":"free"},{"bike_id":"199e4e8e-ae57-4b7f-aa0a-d0baa615a5b0","system_id":"levelo_inurba_marseille","lat":43.272124,"lon":5.391768,"is_reserved":false,"is_disabled":false,"rental_uris":{"android":"levelo://app?vid=199e4e8e-ae57-4b7f-aa0a-d0baa615a5b0","ios":"levelo://app?vid=199e4e8e-ae57-4b7f-aa0a-d0baa615a5b0"},"vehicle_type_id":"4","last_reported":1702217134,"current_range_meters":13600,"station_id":"ce4bhhp2rcd13ifvqfm0","pricing_plan_id":"free"},{"bike_id":"7284428d-f7de-4ad6-aa01-a778fb77edc5","system_id":"levelo_inurba_marseille","lat":43.272116,"lon":5.391763,"is_reserved":false,"is_disabled":false,"rental_uris":{"android":"levelo://app?vid=7284428d-f7de-4ad6-aa01-a778fb77edc5","ios":"levelo://app?vid=7284428d-f7de-4ad6-aa01-a778fb77edc5"},"vehicle_type_id":"4","last_reported":1702217134,"current_range_meters":9200,"station_id":"ce4bhhp2rcd13ifvqfm0","pricing_plan_id":"free"},{"bike_id":"8e408b0c-a9ad-4fa2-9f03-91170ac7447d","system_id":"levelo_inurba_marseille","lat":43.272124,"lon":5.391768,"is_reserved":false,"is_disabled":false,"rental_uris":{"android":"levelo://app?vid=8e408b0c-a9ad-4fa2-9f03-91170ac7447d","ios":"levelo://app?vid=8e408b0c-a9ad-4fa2-9f03-91170ac7447d"},"vehicle_type_id":"4","last_reported":1702217134,"current_range_meters":12800,"station_id":"ce4bhhp2rcd13ifvqfm0","pricing_plan_id":"free"},{"bike_id":"be621326-206c-428c-a682-1403211a50da","system_id":"levelo_inurba_marseille","lat":43.272118,"lon":5.391758,"is_reserved":false,"is_disabled":false,"rental_uris":{"android":"levelo://app?vid=be621326-206c-428c-a682-1403211a50da","ios":"levelo://app?vid=be621326-206c-428c-a682-1403211a50da"},"vehicle_type_id":"4","last_reported":1702217134,"current_range_meters":18000,"station_id":"ce4bhhp2rcd13ifvqfm0","pricing_plan_id":"free"},{"bike_id":"21883c2c-c40c-42c0-9725-97117479208f","system_id":"levelo_inurba_marseille","lat":43.272124,"lon":5.391768,"is_reserved":false,"is_disabled":false,"rental_uris":{"android":"levelo://app?vid=21883c2c-c40c-42c0-9725-97117479208f","ios":"levelo://app?vid=21883c2c-c40c-42c0-9725-97117479208f"},"vehicle_type_id":"4","last_reported":1702217134,"current_range_meters":15200,"station_id":"ce4bhhp2rcd13ifvqfm0","pricing_plan_id":"free"},{"bike_id":"26c193ac-a955-4e8c-b0ce-2f4f6e7f9aee","system_id":"levelo_inurba_marseille","lat":43.279465,"lon":5.410561,"is_reserved":false,"is_disabled":false,"rental_uris":{"android":"levelo://app?vid=26c193ac-a955-4e8c-b0ce-2f4f6e7f9aee","ios":"levelo://app?vid=26c193ac-a955-4e8c-b0ce-2f4f6e7f9aee"},"vehicle_type_id":"4","last_reported":1702217134,"current_range_meters":23600,"station_id":"ce4bhnp2rcd13ifvqh0g","pricing_plan_id":"free"},{"bike_id":"3644a3be-c67b-40ea-9bdd-c44fcfea68f8","system_id":"levelo_inurba_marseille","lat":43.26556,"lon":5.37285,"is_reserved":false,"is_disabled":false,"rental_uris":{"android":"levelo://app?vid=3644a3be-c67b-40ea-9bdd-c44fcfea68f8","ios":"levelo://app?vid=3644a3be-c67b-40ea-9bdd-c44fcfea68f8"},"vehicle_type_id":"4","last_reported":1702217134,"current_range_meters":19200,"station_id":"ce4bhg12rcd13ifvqf70","pricing_plan_id":"free"},{"bike_id":"6f59ce95-16b8-4a8d-bf08-57bd88d662a3","system_id":"levelo_inurba_marseille","lat":43.26555,"lon":5.37286,"is_reserved":false,"is_disabled":false,"rental_uris":{"android":"levelo://app?vid=6f59ce95-16b8-4a8d-bf08-57bd88d662a3","ios":"levelo://app?vid=6f59ce95-16b8-4a8d-bf08-57bd88d662a3"},"vehicle_type_id":"4","last_reported":1702217134,"current_range_meters":0,"station_id":"ce4bhg12rcd13ifvqf70","pricing_plan_id":"free"},{"bike_id":"b49195d1-5252-4b63-9ddd-c39017071e00","system_id":"levelo_inurba_marseille","lat":43.27648,"lon":5.40896,"is_reserved":false,"is_disabled":false,"rental_uris":{"android":"levelo://app?vid=b49195d1-5252-4b63-9ddd-c39017071e00","ios":"levelo://app?vid=b49195d1-5252-4b63-9ddd-c39017071e00"},"vehicle_type_id":"4","last_reported":1702217134,"current_range_meters":20800,"station_id":"","pricing_plan_id":"free"},{"bike_id":"d9905fd9-fc0a-4c9f-85fa-8aca947c9d38","system_id":"levelo_inurba_marseille","lat":43.30797,"lon":5.43515,"is_reserved":false,"is_disabled":false,"rental_uris":{"android":"levelo://app?vid=d9905fd9-fc0a-4c9f-85fa-8aca947c9d38","ios":"levelo://app?vid=d9905fd9-fc0a-4c9f-85fa-8aca947c9d38"},"vehicle_type_id":"4","last_reported":1702217134,"current_range_meters":25600,"station_id":"ce4bhph2rcd13ifvqheg","pricing_plan_id":"free"},{"bike_id":"983ed045-1f7b-4579-b9d1-f93588aba3b1","system_id":"levelo_inurba_marseille","lat":43.30799,"lon":5.43519,"is_reserved":false,"is_disabled":false,"rental_uris":{"android":"levelo://app?vid=983ed045-1f7b-4579-b9d1-f93588aba3b1","ios":"levelo://app?vid=983ed045-1f7b-4579-b9d1-f93588aba3b1"},"vehicle_type_id":"4","last_reported":1702217134,"current_range_meters":29200,"station_id":"ce4bhph2rcd13ifvqheg","pricing_plan_id":"free"},{"bike_id":"1594ab0c-8aba-4a4a-83ff-da41c83152d6","system_id":"levelo_inurba_marseille","lat":43.30798,"lon":5.43525,"is_reserved":false,"is_disabled":false,"rental_uris":{"android":"levelo://app?vid=1594ab0c-8aba-4a4a-83ff-da41c83152d6","ios":"levelo://app?vid=1594ab0c-8aba-4a4a-83ff-da41c83152d6"},"vehicle_type_id":"4","last_reported":1702217134,"current_range_meters":25600,"station_id":"ce4bhph2rcd13ifvqheg","pricing_plan_id":"free"},{"bike_id":"dbacbb4a-9e99-4a7a-9713-43dac221ae4c","system_id":"levelo_inurba_marseille","lat":43.317104,"lon":5.436818,"is_reserved":false,"is_disabled":false,"rental_uris":{"android":"levelo://app?vid=dbacbb4a-9e99-4a7a-9713-43dac221ae4c","ios":"levelo://app?vid=dbacbb4a-9e99-4a7a-9713-43dac221ae4c"},"vehicle_type_id":"4","last_reported":1702217134,"current_range_meters":31200,"station_id":"ce4bhp92rcd13ifvqhcg","pricing_plan_id":"free"},{"bike_id":"9c92aa9e-57a7-4c43-8650-ac7af1a87f10","system_id":"levelo_inurba_marseille","lat":43.26202,"lon":5.379299,"is_reserved":false,"is_disabled":false,"rental_uris":{"android":"levelo://app?vid=9c92aa9e-57a7-4c43-8650-ac7af1a87f10","ios":"levelo://app?vid=9c92aa9e-57a7-4c43-8650-ac7af1a87f10"},"vehicle_type_id":"4","last_reported":1702217134,"current_range_meters":28800,"station_id":"ce4bhjp2rcd13ifvqg90","pricing_plan_id":"free"},{"bike_id":"4e23dd98-b6ac-46e4-897e-919fa9171dc5","system_id":"levelo_inurba_marseille","lat":43.26064,"lon":5.39395,"is_reserved":false,"is_disabled":false,"rental_uris":{"android":"levelo://app?vid=4e23dd98-b6ac-46e4-897e-919fa9171dc5","ios":"levelo://app?vid=4e23dd98-b6ac-46e4-897e-919fa9171dc5"},"vehicle_type_id":"4","last_reported":1702217134,"current_range_meters":6400,"station_id":"ce4bhh92rcd13ifvqfj0","pricing_plan_id":"free"},{"bike_id":"0e0b761d-89f7-42cd-9440-b57e3598acd6","system_id":"levelo_inurba_marseille","lat":43.2607,"lon":5.393983,"is_reserved":false,"is_disabled":false,"rental_uris":{"android":"levelo://app?vid=0e0b761d-89f7-42cd-9440-b57e3598acd6","ios":"levelo://app?vid=0e0b761d-89f7-42cd-9440-b57e3598acd6"},"vehicle_type_id":"4","last_reported":1702217134,"current_range_meters":11600,"station_id":"ce4bhh92rcd13ifvqfj0","pricing_plan_id":"free"},{"bike_id":"543a0926-2425-4e33-9bfe-fda30155e2e6","system_id":"levelo_inurba_marseille","lat":43.27069,"lon":5.42279,"is_reserved":false,"is_disabled":false,"rental_uris":{"android":"levelo://app?vid=543a0926-2425-4e33-9bfe-fda30155e2e6","ios":"levelo://app?vid=543a0926-2425-4e33-9bfe-fda30155e2e6"},"vehicle_type_id":"4","last_reported":1702217134,"current_range_meters":27600,"station_id":"ce4bhk92rcd13ifvqgb0","pricing_plan_id":"free"},{"bike_id":"f0906fce-a364-46cc-b195-416e08404f15","system_id":"levelo_inurba_marseille","lat":43.258658,"lon":5.398935,"is_reserved":false,"is_disabled":false,"rental_uris":{"android":"levelo://app?vid=f0906fce-a364-46cc-b195-416e08404f15","ios":"levelo://app?vid=f0906fce-a364-46cc-b195-416e08404f15"},"vehicle_type_id":"4","last_reported":1702217134,"current_range_meters":25200,"station_id":"ce4bhl92rcd13ifvqghg","pricing_plan_id":"free"},{"bike_id":"93b9e4fe-ed04-4f08-9acd-60a11e0f550f","system_id":"levelo_inurba_marseille","lat":43.258658,"lon":5.398935,"is_reserved":false,"is_disabled":false,"rental_uris":{"android":"levelo://app?vid=93b9e4fe-ed04-4f08-9acd-60a11e0f550f","ios":"levelo://app?vid=93b9e4fe-ed04-4f08-9acd-60a11e0f550f"},"vehicle_type_id":"4","last_reported":1702217134,"current_range_meters":19600,"station_id":"ce4bhl92rcd13ifvqghg","pricing_plan_id":"free"},{"bike_id":"23852011-45c0-4eb3-b521-fdccfcd75ec1","system_id":"levelo_inurba_marseille","lat":43.250009,"lon":5.389195,"is_reserved":false,"is_disabled":false,"rental_uris":{"android":"levelo://app?vid=23852011-45c0-4eb3-b521-fdccfcd75ec1","ios":"levelo://app?vid=23852011-45c0-4eb3-b521-fdccfcd75ec1"},"vehicle_type_id":"4","last_reported":1702217134,"current_range_meters":27600,"station_id":"ce4bhgp2rcd13ifvqfd0","pricing_plan_id":"free"},{"bike_id":"88bc1a47-a576-4c2b-812d-f4eec21e8c6f","system_id":"levelo_inurba_marseille","lat":43.250023,"lon":5.38919,"is_reserved":false,"is_disabled":false,"rental_uris":{"android":"levelo://app?vid=88bc1a47-a576-4c2b-812d-f4eec21e8c6f","ios":"levelo://app?vid=88bc1a47-a576-4c2b-812d-f4eec21e8c6f"},"vehicle_type_id":"4","last_reported":1702217134,"current_range_meters":31200,"station_id":"ce4bhgp2rcd13ifvqfd0","pricing_plan_id":"free"},{"bike_id":"15f5f821-6f74-4269-b1ea-b4dddb7e4f89","system_id":"levelo_inurba_marseille","lat":43.2479,"lon":5.374457,"is_reserved":false,"is_disabled":false,"rental_uris":{"android":"levelo://app?vid=15f5f821-6f74-4269-b1ea-b4dddb7e4f89","ios":"levelo://app?vid=15f5f821-6f74-4269-b1ea-b4dddb7e4f89"},"vehicle_type_id":"4","last_reported":1702217134,"current_range_meters":16800,"station_id":"ce4bhgh2rcd13ifvqfb0","pricing_plan_id":"free"},{"bike_id":"5c711483-2cc8-4797-b8bb-8990c44f1e05","system_id":"levelo_inurba_marseille","lat":43.250966,"lon":5.395186,"is_reserved":false,"is_disabled":false,"rental_uris":{"android":"levelo://app?vid=5c711483-2cc8-4797-b8bb-8990c44f1e05","ios":"levelo://app?vid=5c711483-2cc8-4797-b8bb-8990c44f1e05"},"vehicle_type_id":"4","last_reported":1702217134,"current_range_meters":30400,"station_id":"ce4bhm12rcd13ifvqgkg","pricing_plan_id":"free"},{"bike_id":"dbe853aa-6b90-4830-a2ec-79878f44897e","system_id":"levelo_inurba_marseille","lat":43.250966,"lon":5.395186,"is_reserved":false,"is_disabled":false,"rental_uris":{"android":"levelo://app?vid=dbe853aa-6b90-4830-a2ec-79878f44897e","ios":"levelo://app?vid=dbe853aa-6b90-4830-a2ec-79878f44897e"},"vehicle_type_id":"4","last_reported":1702217134,"current_range_meters":16000,"station_id":"ce4bhm12rcd13ifvqgkg","pricing_plan_id":"free"},{"bike_id":"5dd9196a-e1fc-4a8e-8560-6e037cccac16","system_id":"levelo_inurba_marseille","lat":43.25102,"lon":5.403214,"is_reserved":false,"is_disabled":false,"rental_uris":{"android":"levelo://app?vid=5dd9196a-e1fc-4a8e-8560-6e037cccac16","ios":"levelo://app?vid=5dd9196a-e1fc-4a8e-8560-6e037cccac16"},"vehicle_type_id":"4","last_reported":1702217134,"current_range_meters":19200,"station_id":"ce4bhlh2rcd13ifvqgig","pricing_plan_id":"free"},{"bike_id":"ff1ba4a7-20e3-4dd1-8a54-b2dc180b954d","system_id":"levelo_inurba_marseille","lat":43.25102,"lon":5.403214,"is_reserved":false,"is_disabled":false,"rental_uris":{"android":"levelo://app?vid=ff1ba4a7-20e3-4dd1-8a54-b2dc180b954d","ios":"levelo://app?vid=ff1ba4a7-20e3-4dd1-8a54-b2dc180b954d"},"vehicle_type_id":"4","last_reported":1702217134,"current_range_meters":27200,"station_id":"ce4bhlh2rcd13ifvqgig","pricing_plan_id":"free"},{"bike_id":"8b578e90-8a19-41d1-95cc-dcceb251c8ad","system_id":"levelo_inurba_marseille","lat":43.25102,"lon":5.403214,"is_reserved":false,"is_disabled":false,"rental_uris":{"android":"levelo://app?vid=8b578e90-8a19-41d1-95cc-dcceb251c8ad","ios":"levelo://app?vid=8b578e90-8a19-41d1-95cc-dcceb251c8ad"},"vehicle_type_id":"4","last_reported":1702217134,"current_range_meters":10400,"station_id":"ce4bhlh2rcd13ifvqgig","pricing_plan_id":"free"},{"bike_id":"5f783631-34ce-4299-957e-a24427dcac53","system_id":"levelo_inurba_marseille","lat":43.25102,"lon":5.403214,"is_reserved":false,"is_disabled":false,"rental_uris":{"android":"levelo://app?vid=5f783631-34ce-4299-957e-a24427dcac53","ios":"levelo://app?vid=5f783631-34ce-4299-957e-a24427dcac53"},"vehicle_type_id":"4","last_reported":1702217134,"current_range_meters":19600,"station_id":"ce4bhlh2rcd13ifvqgig","pricing_plan_id":"free"},{"bike_id":"112a7e47-039d-4385-a148-db118b8c6c1f","system_id":"levelo_inurba_marseille","lat":43.25102,"lon":5.403214,"is_reserved":false,"is_disabled":false,"rental_uris":{"android":"levelo://app?vid=112a7e47-039d-4385-a148-db118b8c6c1f","ios":"levelo://app?vid=112a7e47-039d-4385-a148-db118b8c6c1f"},"vehicle_type_id":"4","last_reported":1702217134,"current_range_meters":16000,"station_id":"ce4bhlh2rcd13ifvqgig","pricing_plan_id":"free"},{"bike_id":"2438f118-40d6-47b9-9ea4-bbb1eaaf6f4a","system_id":"levelo_inurba_marseille","lat":43.25102,"lon":5.403214,"is_reserved":false,"is_disabled":false,"rental_uris":{"android":"levelo://app?vid=2438f118-40d6-47b9-9ea4-bbb1eaaf6f4a","ios":"levelo://app?vid=2438f118-40d6-47b9-9ea4-bbb1eaaf6f4a"},"vehicle_type_id":"4","last_reported":1702217134,"current_range_meters":2800,"station_id":"ce4bhlh2rcd13ifvqgig","pricing_plan_id":"free"},{"bike_id":"fe32e4d2-d7d6-428b-aad7-1dd66eafb465","system_id":"levelo_inurba_marseille","lat":43.25102,"lon":5.403214,"is_reserved":false,"is_disabled":false,"rental_uris":{"android":"levelo://app?vid=fe32e4d2-d7d6-428b-aad7-1dd66eafb465","ios":"levelo://app?vid=fe32e4d2-d7d6-428b-aad7-1dd66eafb465"},"vehicle_type_id":"4","last_reported":1702217134,"current_range_meters":3200,"station_id":"ce4bhlh2rcd13ifvqgig","pricing_plan_id":"free"},{"bike_id":"5e605dd7-7449-4197-aebf-bcb50d65c55f","system_id":"levelo_inurba_marseille","lat":43.24653,"lon":5.38896,"is_reserved":false,"is_disabled":false,"rental_uris":{"android":"levelo://app?vid=5e605dd7-7449-4197-aebf-bcb50d65c55f","ios":"levelo://app?vid=5e605dd7-7449-4197-aebf-bcb50d65c55f"},"vehicle_type_id":"4","last_reported":1702217134,"current_range_meters":28400,"station_id":"ce4bhg12rcd13ifvqf60","pricing_plan_id":"free"},{"bike_id":"58163e29-bd9c-4d87-b174-635d0562a1eb","system_id":"levelo_inurba_marseille","lat":43.246467,"lon":5.388984,"is_reserved":false,"is_disabled":false,"rental_uris":{"android":"levelo://app?vid=58163e29-bd9c-4d87-b174-635d0562a1eb","ios":"levelo://app?vid=58163e29-bd9c-4d87-b174-635d0562a1eb"},"vehicle_type_id":"4","last_reported":1702217134,"current_range_meters":22800,"station_id":"ce4bhg12rcd13ifvqf60","pricing_plan_id":"free"},{"bike_id":"e3a0a3fb-eafa-4edb-87cc-d7d85323a839","system_id":"levelo_inurba_marseille","lat":43.246467,"lon":5.388984,"is_reserved":false,"is_disabled":false,"rental_uris":{"android":"levelo://app?vid=e3a0a3fb-eafa-4edb-87cc-d7d85323a839","ios":"levelo://app?vid=e3a0a3fb-eafa-4edb-87cc-d7d85323a839"},"vehicle_type_id":"4","last_reported":1702217134,"current_range_meters":20000,"station_id":"ce4bhg12rcd13ifvqf60","pricing_plan_id":"free"},{"bike_id":"8e9f91b6-96df-403a-8c6f-f0c8dee337ff","system_id":"levelo_inurba_marseille","lat":43.246467,"lon":5.388984,"is_reserved":false,"is_disabled":false,"rental_uris":{"android":"levelo://app?vid=8e9f91b6-96df-403a-8c6f-f0c8dee337ff","ios":"levelo://app?vid=8e9f91b6-96df-403a-8c6f-f0c8dee337ff"},"vehicle_type_id":"4","last_reported":1702217134,"current_range_meters":18800,"station_id":"ce4bhg12rcd13ifvqf60","pricing_plan_id":"free"},{"bike_id":"1a23636c-273b-427e-ba3a-4cc57a24dce9","system_id":"levelo_inurba_marseille","lat":43.246467,"lon":5.388984,"is_reserved":false,"is_disabled":false,"rental_uris":{"android":"levelo://app?vid=1a23636c-273b-427e-ba3a-4cc57a24dce9","ios":"levelo://app?vid=1a23636c-273b-427e-ba3a-4cc57a24dce9"},"vehicle_type_id":"4","last_reported":1702217134,"current_range_meters":31600,"station_id":"ce4bhg12rcd13ifvqf60","pricing_plan_id":"free"},{"bike_id":"23899df1-9592-473a-a87d-2e65a5d873b7","system_id":"levelo_inurba_marseille","lat":43.246467,"lon":5.388984,"is_reserved":false,"is_disabled":false,"rental_uris":{"android":"levelo://app?vid=23899df1-9592-473a-a87d-2e65a5d873b7","ios":"levelo://app?vid=23899df1-9592-473a-a87d-2e65a5d873b7"},"vehicle_type_id":"4","last_reported":1702217134,"current_range_meters":15200,"station_id":"ce4bhg12rcd13ifvqf60","pricing_plan_id":"free"},{"bike_id":"d7225d88-73a5-4477-b92d-280aac3f72ed","system_id":"levelo_inurba_marseille","lat":43.246467,"lon":5.388984,"is_reserved":false,"is_disabled":false,"rental_uris":{"android":"levelo://app?vid=d7225d88-73a5-4477-b92d-280aac3f72ed","ios":"levelo://app?vid=d7225d88-73a5-4477-b92d-280aac3f72ed"},"vehicle_type_id":"4","last_reported":1702217134,"current_range_meters":17600,"station_id":"ce4bhg12rcd13ifvqf60","pricing_plan_id":"free"},{"bike_id":"44e2ac67-993d-4edf-81e6-8cabdc00f6ed","system_id":"levelo_inurba_marseille","lat":43.243884,"lon":5.370737,"is_reserved":false,"is_disabled":false,"rental_uris":{"android":"levelo://app?vid=44e2ac67-993d-4edf-81e6-8cabdc00f6ed","ios":"levelo://app?vid=44e2ac67-993d-4edf-81e6-8cabdc00f6ed"},"vehicle_type_id":"4","last_reported":1702217134,"current_range_meters":22000,"station_id":"ce4bhhh2rcd13ifvqfk0","pricing_plan_id":"free"},{"bike_id":"778e6ed4-78bc-484d-85be-620895ae9343","system_id":"levelo_inurba_marseille","lat":43.243884,"lon":5.370737,"is_reserved":false,"is_disabled":false,"rental_uris":{"android":"levelo://app?vid=778e6ed4-78bc-484d-85be-620895ae9343","ios":"levelo://app?vid=778e6ed4-78bc-484d-85be-620895ae9343"},"vehicle_type_id":"4","last_reported":1702217134,"current_range_meters":10000,"station_id":"ce4bhhh2rcd13ifvqfk0","pricing_plan_id":"free"},{"bike_id":"e0e73f13-d1f1-4fa1-9c94-14944708343d","system_id":"levelo_inurba_marseille","lat":43.243884,"lon":5.370736,"is_reserved":false,"is_disabled":false,"rental_uris":{"android":"levelo://app?vid=e0e73f13-d1f1-4fa1-9c94-14944708343d","ios":"levelo://app?vid=e0e73f13-d1f1-4fa1-9c94-14944708343d"},"vehicle_type_id":"4","last_reported":1702217134,"current_range_meters":8800,"station_id":"ce4bhhh2rcd13ifvqfk0","pricing_plan_id":"free"},{"bike_id":"59dda280-97b1-4142-99f4-83e4cb7033b6","system_id":"levelo_inurba_marseille","lat":43.243884,"lon":5.370737,"is_reserved":false,"is_disabled":false,"rental_uris":{"android":"levelo://app?vid=59dda280-97b1-4142-99f4-83e4cb7033b6","ios":"levelo://app?vid=59dda280-97b1-4142-99f4-83e4cb7033b6"},"vehicle_type_id":"4","last_reported":1702217134,"current_range_meters":28400,"station_id":"ce4bhhh2rcd13ifvqfk0","pricing_plan_id":"free"},{"bike_id":"ccd59ec9-ded1-41e1-8259-c0a0b4ea235e","system_id":"levelo_inurba_marseille","lat":43.243884,"lon":5.370737,"is_reserved":false,"is_disabled":false,"rental_uris":{"android":"levelo://app?vid=ccd59ec9-ded1-41e1-8259-c0a0b4ea235e","ios":"levelo://app?vid=ccd59ec9-ded1-41e1-8259-c0a0b4ea235e"},"vehicle_type_id":"4","last_reported":1702217134,"current_range_meters":24400,"station_id":"ce4bhhh2rcd13ifvqfk0","pricing_plan_id":"free"},{"bike_id":"faa186de-8fdc-4e7b-afef-71023ebf19e6","system_id":"levelo_inurba_marseille","lat":43.243884,"lon":5.370736,"is_reserved":false,"is_disabled":false,"rental_uris":{"android":"levelo://app?vid=faa186de-8fdc-4e7b-afef-71023ebf19e6","ios":"levelo://app?vid=faa186de-8fdc-4e7b-afef-71023ebf19e6"},"vehicle_type_id":"4","last_reported":1702217134,"current_range_meters":25200,"station_id":"ce4bhhh2rcd13ifvqfk0","pricing_plan_id":"free"},{"bike_id":"d0cc3f9d-49bd-4a77-91c3-0c3157ce390f","system_id":"levelo_inurba_marseille","lat":43.243884,"lon":5.370736,"is_reserved":false,"is_disabled":false,"rental_uris":{"android":"levelo://app?vid=d0cc3f9d-49bd-4a77-91c3-0c3157ce390f","ios":"levelo://app?vid=d0cc3f9d-49bd-4a77-91c3-0c3157ce390f"},"vehicle_type_id":"4","last_reported":1702217134,"current_range_meters":28000,"station_id":"ce4bhhh2rcd13ifvqfk0","pricing_plan_id":"free"},{"bike_id":"5f14fb60-7f42-4a20-a25a-d0367f0f55d6","system_id":"levelo_inurba_marseille","lat":43.245581,"lon":5.395069,"is_reserved":false,"is_disabled":false,"rental_uris":{"android":"levelo://app?vid=5f14fb60-7f42-4a20-a25a-d0367f0f55d6","ios":"levelo://app?vid=5f14fb60-7f42-4a20-a25a-d0367f0f55d6"},"vehicle_type_id":"4","last_reported":1702217134,"current_range_meters":0,"station_id":"ce4bhlp2rcd13ifvqgjg","pricing_plan_id":"free"},{"bike_id":"c88399f4-54c8-4f15-97b0-4d47ee4d0a9d","system_id":"levelo_inurba_marseille","lat":43.245581,"lon":5.395069,"is_reserved":false,"is_disabled":false,"rental_uris":{"android":"levelo://app?vid=c88399f4-54c8-4f15-97b0-4d47ee4d0a9d","ios":"levelo://app?vid=c88399f4-54c8-4f15-97b0-4d47ee4d0a9d"},"vehicle_type_id":"4","last_reported":1702217134,"current_range_meters":29600,"station_id":"ce4bhlp2rcd13ifvqgjg","pricing_plan_id":"free"},{"bike_id":"73a090ad-f98c-4911-abff-5bfcae6bacda","system_id":"levelo_inurba_marseille","lat":43.245581,"lon":5.395069,"is_reserved":false,"is_disabled":false,"rental_uris":{"android":"levelo://app?vid=73a090ad-f98c-4911-abff-5bfcae6bacda","ios":"levelo://app?vid=73a090ad-f98c-4911-abff-5bfcae6bacda"},"vehicle_type_id":"4","last_reported":1702217134,"current_range_meters":30400,"station_id":"ce4bhlp2rcd13ifvqgjg","pricing_plan_id":"free"},{"bike_id":"ec13193c-3c4c-4e90-b75a-71df6f64e0b1","system_id":"levelo_inurba_marseille","lat":43.245581,"lon":5.395069,"is_reserved":false,"is_disabled":false,"rental_uris":{"android":"levelo://app?vid=ec13193c-3c4c-4e90-b75a-71df6f64e0b1","ios":"levelo://app?vid=ec13193c-3c4c-4e90-b75a-71df6f64e0b1"},"vehicle_type_id":"4","last_reported":1702217134,"current_range_meters":28400,"station_id":"ce4bhlp2rcd13ifvqgjg","pricing_plan_id":"free"},{"bike_id":"06229c40-1506-44c4-92c2-3c664f796b0b","system_id":"levelo_inurba_marseille","lat":43.245581,"lon":5.395069,"is_reserved":false,"is_disabled":false,"rental_uris":{"android":"levelo://app?vid=06229c40-1506-44c4-92c2-3c664f796b0b","ios":"levelo://app?vid=06229c40-1506-44c4-92c2-3c664f796b0b"},"vehicle_type_id":"4","last_reported":1702217134,"current_range_meters":25600,"station_id":"ce4bhlp2rcd13ifvqgjg","pricing_plan_id":"free"},{"bike_id":"257fdb4c-aaee-4ea1-9ee6-85989a4f0576","system_id":"levelo_inurba_marseille","lat":43.240623,"lon":5.377642,"is_reserved":false,"is_disabled":false,"rental_uris":{"android":"levelo://app?vid=257fdb4c-aaee-4ea1-9ee6-85989a4f0576","ios":"levelo://app?vid=257fdb4c-aaee-4ea1-9ee6-85989a4f0576"},"vehicle_type_id":"4","last_reported":1702217134,"current_range_meters":1600,"station_id":"ce4bhnp2rcd13ifvqgvg","pricing_plan_id":"free"},{"bike_id":"f27b6552-053a-445d-bc9f-070e1d8c058b","system_id":"levelo_inurba_marseille","lat":43.239588,"lon":5.366238,"is_reserved":false,"is_disabled":false,"rental_uris":{"android":"levelo://app?vid=f27b6552-053a-445d-bc9f-070e1d8c058b","ios":"levelo://app?vid=f27b6552-053a-445d-bc9f-070e1d8c058b"},"vehicle_type_id":"4","last_reported":1702217134,"current_range_meters":18000,"station_id":"ce4bhi12rcd13ifvqfp0","pricing_plan_id":"free"},{"bike_id":"f1f95907-692b-47da-83ed-c5b7d7055df5","system_id":"levelo_inurba_marseille","lat":43.239588,"lon":5.366238,"is_reserved":false,"is_disabled":false,"rental_uris":{"android":"levelo://app?vid=f1f95907-692b-47da-83ed-c5b7d7055df5","ios":"levelo://app?vid=f1f95907-692b-47da-83ed-c5b7d7055df5"},"vehicle_type_id":"4","last_reported":1702217134,"current_range_meters":16400,"station_id":"ce4bhi12rcd13ifvqfp0","pricing_plan_id":"free"},{"bike_id":"7d7c7779-125a-465d-9e5a-42bb318eea81","system_id":"levelo_inurba_marseille","lat":43.239588,"lon":5.366238,"is_reserved":false,"is_disabled":false,"rental_uris":{"android":"levelo://app?vid=7d7c7779-125a-465d-9e5a-42bb318eea81","ios":"levelo://app?vid=7d7c7779-125a-465d-9e5a-42bb318eea81"},"vehicle_type_id":"4","last_reported":1702217134,"current_range_meters":13600,"station_id":"ce4bhi12rcd13ifvqfp0","pricing_plan_id":"free"},{"bike_id":"abb6d0d9-6da9-4422-a893-0588013b47d6","system_id":"levelo_inurba_marseille","lat":43.241782,"lon":5.397261,"is_reserved":false,"is_disabled":false,"rental_uris":{"android":"levelo://app?vid=abb6d0d9-6da9-4422-a893-0588013b47d6","ios":"levelo://app?vid=abb6d0d9-6da9-4422-a893-0588013b47d6"},"vehicle_type_id":"4","last_reported":1702217134,"current_range_meters":30400,"station_id":"ce4bhn12rcd13ifvqgpg","pricing_plan_id":"free"},{"bike_id":"1500075f-12ea-4889-b8a6-c6d6350c4d83","system_id":"levelo_inurba_marseille","lat":43.24174,"lon":5.39719,"is_reserved":false,"is_disabled":false,"rental_uris":{"android":"levelo://app?vid=1500075f-12ea-4889-b8a6-c6d6350c4d83","ios":"levelo://app?vid=1500075f-12ea-4889-b8a6-c6d6350c4d83"},"vehicle_type_id":"4","last_reported":1702217134,"current_range_meters":30000,"station_id":"ce4bhn12rcd13ifvqgpg","pricing_plan_id":"free"},{"bike_id":"cfc4a276-4a67-412c-8f70-0b8c1f09f05d","system_id":"levelo_inurba_marseille","lat":43.23197,"lon":5.35545,"is_reserved":false,"is_disabled":false,"rental_uris":{"android":"levelo://app?vid=cfc4a276-4a67-412c-8f70-0b8c1f09f05d","ios":"levelo://app?vid=cfc4a276-4a67-412c-8f70-0b8c1f09f05d"},"vehicle_type_id":"4","last_reported":1702217134,"current_range_meters":30000,"station_id":"ce4bhu92rcd13ifvqi70","pricing_plan_id":"free"},{"bike_id":"c140760e-d9f3-497b-8dbb-7a3cddac3463","system_id":"levelo_inurba_marseille","lat":43.231919,"lon":5.355532,"is_reserved":false,"is_disabled":false,"rental_uris":{"android":"levelo://app?vid=c140760e-d9f3-497b-8dbb-7a3cddac3463","ios":"levelo://app?vid=c140760e-d9f3-497b-8dbb-7a3cddac3463"},"vehicle_type_id":"4","last_reported":1702217134,"current_range_meters":10800,"station_id":"ce4bhu92rcd13ifvqi70","pricing_plan_id":"free"},{"bike_id":"f764268f-f7b2-4f38-90a5-3224b7b88e70","system_id":"levelo_inurba_marseille","lat":43.231919,"lon":5.355532,"is_reserved":false,"is_disabled":false,"rental_uris":{"android":"levelo://app?vid=f764268f-f7b2-4f38-90a5-3224b7b88e70","ios":"levelo://app?vid=f764268f-f7b2-4f38-90a5-3224b7b88e70"},"vehicle_type_id":"4","last_reported":1702217134,"current_range_meters":12000,"station_id":"ce4bhu92rcd13ifvqi70","pricing_plan_id":"free"},{"bike_id":"82f26454-9757-4cd7-a38a-2ee5545d6712","system_id":"levelo_inurba_marseille","lat":43.23195,"lon":5.3555,"is_reserved":false,"is_disabled":false,"rental_uris":{"android":"levelo://app?vid=82f26454-9757-4cd7-a38a-2ee5545d6712","ios":"levelo://app?vid=82f26454-9757-4cd7-a38a-2ee5545d6712"},"vehicle_type_id":"4","last_reported":1702217134,"current_range_meters":30800,"station_id":"ce4bhu92rcd13ifvqi70","pricing_plan_id":"free"},{"bike_id":"d7ec465b-93e4-4304-aaab-cd8078fe33dd","system_id":"levelo_inurba_marseille","lat":43.231919,"lon":5.355532,"is_reserved":false,"is_disabled":false,"rental_uris":{"android":"levelo://app?vid=d7ec465b-93e4-4304-aaab-cd8078fe33dd","ios":"levelo://app?vid=d7ec465b-93e4-4304-aaab-cd8078fe33dd"},"vehicle_type_id":"4","last_reported":1702217134,"current_range_meters":4000,"station_id":"ce4bhu92rcd13ifvqi70","pricing_plan_id":"free"},{"bike_id":"ef1e2493-7631-4f57-8f34-a6c50ee24ca1","system_id":"levelo_inurba_marseille","lat":43.231919,"lon":5.355532,"is_reserved":false,"is_disabled":false,"rental_uris":{"android":"levelo://app?vid=ef1e2493-7631-4f57-8f34-a6c50ee24ca1","ios":"levelo://app?vid=ef1e2493-7631-4f57-8f34-a6c50ee24ca1"},"vehicle_type_id":"4","last_reported":1702217134,"current_range_meters":28400,"station_id":"ce4bhu92rcd13ifvqi70","pricing_plan_id":"free"},{"bike_id":"94024ee9-217d-460e-beb9-dedc4d158d29","system_id":"levelo_inurba_marseille","lat":43.231919,"lon":5.355532,"is_reserved":false,"is_disabled":false,"rental_uris":{"android":"levelo://app?vid=94024ee9-217d-460e-beb9-dedc4d158d29","ios":"levelo://app?vid=94024ee9-217d-460e-beb9-dedc4d158d29"},"vehicle_type_id":"4","last_reported":1702217134,"current_range_meters":24800,"station_id":"ce4bhu92rcd13ifvqi70","pricing_plan_id":"free"},{"bike_id":"ea5921a3-5778-42b1-9f19-8b22e7f0b654","system_id":"levelo_inurba_marseille","lat":43.23191,"lon":5.35545,"is_reserved":false,"is_disabled":false,"rental_uris":{"android":"levelo://app?vid=ea5921a3-5778-42b1-9f19-8b22e7f0b654","ios":"levelo://app?vid=ea5921a3-5778-42b1-9f19-8b22e7f0b654"},"vehicle_type_id":"4","last_reported":1702217134,"current_range_meters":10400,"station_id":"ce4bhu92rcd13ifvqi70","pricing_plan_id":"free"},{"bike_id":"c4f706e0-269b-43e1-a5fb-a166e5c657ea","system_id":"levelo_inurba_marseille","lat":43.231919,"lon":5.355532,"is_reserved":false,"is_disabled":false,"rental_uris":{"android":"levelo://app?vid=c4f706e0-269b-43e1-a5fb-a166e5c657ea","ios":"levelo://app?vid=c4f706e0-269b-43e1-a5fb-a166e5c657ea"},"vehicle_type_id":"4","last_reported":1702217134,"current_range_meters":0,"station_id":"ce4bhu92rcd13ifvqi70","pricing_plan_id":"free"},{"bike_id":"4f05344f-5c70-437e-8c5e-503888c64588","system_id":"levelo_inurba_marseille","lat":43.231919,"lon":5.355532,"is_reserved":false,"is_disabled":false,"rental_uris":{"android":"levelo://app?vid=4f05344f-5c70-437e-8c5e-503888c64588","ios":"levelo://app?vid=4f05344f-5c70-437e-8c5e-503888c64588"},"vehicle_type_id":"4","last_reported":1702217134,"current_range_meters":15600,"station_id":"ce4bhu92rcd13ifvqi70","pricing_plan_id":"free"},{"bike_id":"707a12b2-fe75-40f0-8e1e-0b76f5f53388","system_id":"levelo_inurba_marseille","lat":43.231794,"lon":5.400052,"is_reserved":false,"is_disabled":false,"rental_uris":{"android":"levelo://app?vid=707a12b2-fe75-40f0-8e1e-0b76f5f53388","ios":"levelo://app?vid=707a12b2-fe75-40f0-8e1e-0b76f5f53388"},"vehicle_type_id":"4","last_reported":1702217134,"current_range_meters":25200,"station_id":"ce4bhn12rcd13ifvqgqg","pricing_plan_id":"free"},{"bike_id":"49e064bc-70cf-4225-b4b5-dae6095ca934","system_id":"levelo_inurba_marseille","lat":43.231562,"lon":5.436933,"is_reserved":false,"is_disabled":false,"rental_uris":{"android":"levelo://app?vid=49e064bc-70cf-4225-b4b5-dae6095ca934","ios":"levelo://app?vid=49e064bc-70cf-4225-b4b5-dae6095ca934"},"vehicle_type_id":"4","last_reported":1702217134,"current_range_meters":1600,"station_id":"ce4bhmp2rcd13ifvqgog","pricing_plan_id":"free"},{"bike_id":"90479f61-6418-4b50-a736-8e2b3eff7819","system_id":"levelo_inurba_marseille","lat":43.231562,"lon":5.436933,"is_reserved":false,"is_disabled":false,"rental_uris":{"android":"levelo://app?vid=90479f61-6418-4b50-a736-8e2b3eff7819","ios":"levelo://app?vid=90479f61-6418-4b50-a736-8e2b3eff7819"},"vehicle_type_id":"4","last_reported":1702217134,"current_range_meters":9600,"station_id":"ce4bhmp2rcd13ifvqgog","pricing_plan_id":"free"},{"bike_id":"cc815b0e-965f-49d1-82c7-7f4aad13e230","system_id":"levelo_inurba_marseille","lat":43.231562,"lon":5.436933,"is_reserved":false,"is_disabled":false,"rental_uris":{"android":"levelo://app?vid=cc815b0e-965f-49d1-82c7-7f4aad13e230","ios":"levelo://app?vid=cc815b0e-965f-49d1-82c7-7f4aad13e230"},"vehicle_type_id":"4","last_reported":1702217134,"current_range_meters":10000,"station_id":"ce4bhmp2rcd13ifvqgog","pricing_plan_id":"free"},{"bike_id":"e01b7cb4-7f30-4047-a8c9-eb1c2a293609","system_id":"levelo_inurba_marseille","lat":43.231562,"lon":5.436933,"is_reserved":false,"is_disabled":false,"rental_uris":{"android":"levelo://app?vid=e01b7cb4-7f30-4047-a8c9-eb1c2a293609","ios":"levelo://app?vid=e01b7cb4-7f30-4047-a8c9-eb1c2a293609"},"vehicle_type_id":"4","last_reported":1702217134,"current_range_meters":27200,"station_id":"ce4bhmp2rcd13ifvqgog","pricing_plan_id":"free"}]}}