{"last_updated":1723385245,"ttl":30,"version":"2.2","data":{"bikes":[{"bike_id":"01395b26-8a5e-4ed1-a5b1-b9e9af653427","system_id":"levelo_inurba_marseille","lat":43.312239,"lon":5.368562,"is_reserved":false,"is_disabled":false,"rental_uris":{"android":"levelo://app?vid=01395b26-8a5e-4ed1-a5b1-b9e9af653427","ios":"levelo://app?vid=01395b26-8a5e-4ed1-a5b1-b9e9af653427"},"vehicle_type_id":"4","last_reported":1723385245,"current_range_meters":11200,"station_id":"ce4bgl92rcd13ifvqbq0","pricing_plan_id":"cebpf4jnsgd1na2vs0mg"},{"bike_id":"47008a83-74a3-4b13-bfd5-8a4b19bf9f8e","system_id":"levelo_inurba_marseille","lat":43.312239,"lon":5.368562,"is_reserved":false,"is_disabled":false,"rental_uris":{"android":"levelo://app?vid=47008a83-74a3-4b13-bfd5-8a4b19bf9f8e","ios":"levelo://app?vid=47008a83-74a3-4b13-bfd5-8a4b19bf9f8e"},"vehicle_type_id":"4","last_reported":1723385245,"current_range_meters":11200,"station_id":"ce4bgl92rcd13ifvqbq0","pricing_plan_id":"cebpf4jnsgd1na2vs0mg"},{"bike_id":"fa47fcff-78b3-4129-a643-72037877c434","system_id":"levelo_inurba_marseille","lat":43.312239,"lon":5.368562,"is_reserved":false,"is_disabled":false,"rental_uris":{"android":"levelo://app?vid=fa47fcff-78b3-4129-a643-72037877c434","ios":"levelo://app?vid=fa47fcff-78b3-4129-a643-72037877c434"},"vehicle_type_id":"4","last_reported":1723385245,"current_range_meters":18400,"station_id":"ce4bgl92rcd13ifvqbq0","pricing_plan_id":"cebpf4jnsgd1na2vs0mg"},{"bike_id":"199b63d0-f531-4cad-ae95-ecd76c9d89d7","system_id":"levelo_inurba_marseille","lat":43.312239,"lon":5.368562,"is_reserved":false,"is_disabled":false,"rental_uris":{"android":"levelo://app?vid=199b63d0-f531-4cad-ae95-ecd76c9d89d7","ios":"levelo://app?vid=199b63d0-f531-4cad-ae95-ecd76c9d89d7"},"vehicle_type_id":"4","last_reported":1723385245,"current_range_meters":6800,"station_id":"ce4bgl92rcd13ifvqbq0","pricing_plan_id":"cebpf4jnsgd1na2vs0mg"},{"bike_id":"dbe2efe0-68f9-4a37-b283-6dd30108555f","system_id":"levelo_inurba_marseille","lat":43.312239,"lon":5.368562,"is_reserved":false,"is_disabled":false,"rental_uris":{"android":"levelo://app?vid=dbe2efe0-68f9-4a37-b283-6dd30108555f","ios":"levelo://app?vid=dbe2efe0-68f9-4a37-b283-6dd30108555f"},"vehicle_type_id":"4","last_reported":1723385245,"current_range_meters":23200,"station_id":"ce4bgl92rcd13ifvqbq0","pricing_plan_id":"cebpf4jnsgd1na2vs0mg"},{"bike_id":"00f5ef2e-87fe-414d-aae6-38bb816d5e33","system_id":"levelo_inurba_marseille","lat":43.309076,"lon":5.368465,"is_reserved":false,"is_disabled":false,"rental_uris":{"android":"levelo://app?vid=00f5ef2e-87fe-414d-aae6-38bb816d5e33","ios":"levelo://app?vid=00f5ef2e-87fe-414d-aae6-38bb816d5e33"},"vehicle_type_id":"4","last_reported":1723385245,"current_range_meters":12800,"station_id":"ce4bgn92rcd13ifvqbvg","pricing_plan_id":"cebpf4jnsgd1na2vs0mg"},{"bike_id":"edc4ba75-702e-4c6b-80d8-b57a0b90cfc6","system_id":"levelo_inurba_marseille","lat":43.309076,"lon":5.368465,"is_reserved":false,"is_disabled":false,"rental_uris":{"android":"levelo://app?vid=edc4ba75-702e-4c6b-80d8-b57a0b90cfc6","ios":"levelo://app?vid=edc4ba75-702e-4c6b-80d8-b57a0b90cfc6"},"vehicle_type_id":"4","last_reported":1723385245,"current_range_meters":3600,"station_id":"ce4bgn92rcd13ifvqbvg","pricing_plan_id":"cebpf4jnsgd1na2vs0mg"},{"bike_id":"8fa6ef62-e129-4666-a36c-733223d336e9","system_id":"levelo_inurba_marseille","lat":43.314811,"lon":5.373103,"is_reserved":false,"is_disabled":false,"rental_uris":{"android":"levelo://app?vid=8fa6ef62-e129-4666-a36c-733223d336e9","ios":"levelo://app?vid=8fa6ef62-e129-4666-a36c-733223d336e9"},"vehicle_type_id":"4","last_reported":1723385245,"current_range_meters":6400,"station_id":"ce4bgt12rcd13ifvqcd0","pricing_plan_id":"cebpf4jnsgd1na2vs0mg"},{"bike_id":"70f8579f-eb18-44d4-bc1b-293c1b559a36","system_id":"levelo_inurba_marseille","lat":43.314811,"lon":5.373103,"is_reserved":false,"is_disabled":false,"rental_uris":{"android":"levelo://app?vid=70f8579f-eb18-44d4-bc1b-293c1b559a36","ios":"levelo://app?vid=70f8579f-eb18-44d4-bc1b-293c1b559a36"},"vehicle_type_id":"4","last_reported":1723385245,"current_range_meters":21600,"station_id":"ce4bgt12rcd13ifvqcd0","pricing_plan_id":"cebpf4jnsgd1na2vs0mg"},{"bike_id":"0a0d1504-0816-45d1-a14b-7aedf3610e22","system_id":"levelo_inurba_marseille","lat":43.3145,"lon":5.37374,"is_reserved":false,"is_disabled":false,"rental_uris":{"android":"levelo://app?vid=0a0d1504-0816-45d1-a14b-7aedf3610e22","ios":"levelo://app?vid=0a0d1504-0816-45d1-a14b-7aedf3610e22"},"vehicle_type_id":"4","last_reported":1723385245,"current_range_meters":6400,"station_id":"","pricing_plan_id":"cebpf4jnsgd1na2vs0mg"},{"bike_id":"3793633c-4190-4176-a7fe-a089a83da297","system_id":"levelo_inurba_marseille","lat":43.305706,"lon":5.365654,"is_reserved":false,"is_disabled":false,"rental_uris":{"android":"levelo://app?vid=3793633c-4190-4176-a7fe-a089a83da297","ios":"levelo://app?vid=3793633c-4190-4176-a7fe-a089a83da297"},"vehicle_type_id":"4","last_reported":1723385245,"current_range_meters":0,"station_id":"ce4bgs12rcd13ifvqcag","pricing_plan_id":"cebpf4jnsgd1na2vs0mg"},{"bike_id":"603f011e-55db-4b03-9d8d-bcd3b86b90ad","system_id":"levelo_inurba_marseille","lat":43.305989,"lon":5.37225,"is_reserved":false,"is_disabled":false,"rental_uris":{"android":"levelo://app?vid=603f011e-55db-4b03-9d8d-bcd3b86b90ad","ios":"levelo://app?vid=603f011e-55db-4b03-9d8d-bcd3b86b90ad"},"vehicle_type_id":"4","last_reported":1723385245,"current_range_meters":23200,"station_id":"ce4bgqh2rcd13ifvqc4g","pricing_plan_id":"cebpf4jnsgd1na2vs0mg"},{"bike_id":"33e7aaa5-5b09-4e8a-9028-d2cf5592c67d","system_id":"levelo_inurba_marseille","lat":43.305989,"lon":5.37225,"is_reserved":false,"is_disabled":false,"rental_uris":{"android":"levelo://app?vid=33e7aaa5-5b09-4e8a-9028-d2cf5592c67d","ios":"levelo://app?vid=33e7aaa5-5b09-4e8a-9028-d2cf5592c67d"},"vehicle_type_id":"4","last_reported":1723385245,"current_range_meters":25200,"station_id":"ce4bgqh2rcd13ifvqc4g","pricing_plan_id":"cebpf4jnsgd1na2vs0mg"},{"bike_id":"a3eb2fc7-4bde-4745-af81-b7087b6b7db5","system_id":"levelo_inurba_marseille","lat":43.30772,"lon":5.37662,"is_reserved":false,"is_disabled":false,"rental_uris":{"android":"levelo://app?vid=a3eb2fc7-4bde-4745-af81-b7087b6b7db5","ios":"levelo://app?vid=a3eb2fc7-4bde-4745-af81-b7087b6b7db5"},"vehicle_type_id":"4","last_reported":1723385245,"current_range_meters":31200,"station_id":"","pricing_plan_id":"cebpf4jnsgd1na2vs0mg"},{"bike_id":"5fe88b06-b720-4a56-b359-e45de0126b46","system_id":"levelo_inurba_marseille","lat":43.317075,"lon":5.377367,"is_reserved":false,"is_disabled":false,"rental_uris":{"android":"levelo://app?vid=5fe88b06-b720-4a56-b359-e45de0126b46","ios":"levelo://app?vid=5fe88b06-b720-4a56-b359-e45de0126b46"},"vehicle_type_id":"4","last_reported":1723385245,"current_range_meters":30400,"station_id":"ce4bgth2rcd13ifvqch0","pricing_plan_id":"cebpf4jnsgd1na2vs0mg"},{"bike_id":"784c6307-526f-4378-aab5-14556e7cb0a0","system_id":"levelo_inurba_marseille","lat":43.303046,"lon":5.368981,"is_reserved":false,"is_disabled":false,"rental_uris":{"android":"levelo://app?vid=784c6307-526f-4378-aab5-14556e7cb0a0","ios":"levelo://app?vid=784c6307-526f-4378-aab5-14556e7cb0a0"},"vehicle_type_id":"4","last_reported":1723385245,"current_range_meters":4800,"station_id":"ce4bgqh2rcd13ifvqc5g","pricing_plan_id":"cebpf4jnsgd1na2vs0mg"},{"bike_id":"6c677a44-9cac-43e7-a0b3-80e2686cc5d6","system_id":"levelo_inurba_marseille","lat":43.315289,"lon":5.380349,"is_reserved":false,"is_disabled":false,"rental_uris":{"android":"levelo://app?vid=6c677a44-9cac-43e7-a0b3-80e2686cc5d6","ios":"levelo://app?vid=6c677a44-9cac-43e7-a0b3-80e2686cc5d6"},"vehicle_type_id":"4","last_reported":1723385245,"current_range_meters":2000,"station_id":"ce4bhsp2rcd13ifvqi50","pricing_plan_id":"cebpf4jnsgd1na2vs0mg"},{"bike_id":"d45bea40-a486-4637-bc45-ab3f963f68eb","system_id":"levelo_inurba_marseille","lat":43.315289,"lon":5.380349,"is_reserved":false,"is_disabled":false,"rental_uris":{"android":"levelo://app?vid=d45bea40-a486-4637-bc45-ab3f963f68eb","ios":"levelo://app?vid=d45bea40-a486-4637-bc45-ab3f963f68eb"},"vehicle_type_id":"4","last_reported":1723385245,"current_range_meters":29600,"station_id":"ce4bhsp2rcd13ifvqi50","pricing_plan_id":"cebpf4jnsgd1na2vs0mg"},{"bike_id":"aeafc1da-5250-4797-adf4-c69f6e4ef617","system_id":"levelo_inurba_marseille","lat":43.304606,"lon":5.379026,"is_reserved":false,"is_disabled":false,"rental_uris":{"android":"levelo://app?vid=aeafc1da-5250-4797-adf4-c69f6e4ef617","ios":"levelo://app?vid=aeafc1da-5250-4797-adf4-c69f6e4ef617"},"vehicle_type_id":"4","last_reported":1723385245,"current_range_meters":28400,"station_id":"ce4bgup2rcd13ifvqcn0","pricing_plan_id":"cebpf4jnsgd1na2vs0mg"},{"bike_id":"6274f13f-6fa8-4269-aefd-7938f85eec7d","system_id":"levelo_inurba_marseille","lat":43.32471,"lon":5.36567,"is_reserved":false,"is_disabled":false,"rental_uris":{"android":"levelo://app?vid=6274f13f-6fa8-4269-aefd-7938f85eec7d","ios":"levelo://app?vid=6274f13f-6fa8-4269-aefd-7938f85eec7d"},"vehicle_type_id":"4","last_reported":1723385245,"current_range_meters":10800,"station_id":"ce4bhs12rcd13ifvqhvg","pricing_plan_id":"cebpf4jnsgd1na2vs0mg"},{"bike_id":"5559099b-b75c-42a1-8379-93d2a40ac2ea","system_id":"levelo_inurba_marseille","lat":43.324771,"lon":5.36557,"is_reserved":false,"is_disabled":false,"rental_uris":{"android":"levelo://app?vid=5559099b-b75c-42a1-8379-93d2a40ac2ea","ios":"levelo://app?vid=5559099b-b75c-42a1-8379-93d2a40ac2ea"},"vehicle_type_id":"4","last_reported":1723385245,"current_range_meters":5600,"station_id":"ce4bhs12rcd13ifvqhvg","pricing_plan_id":"cebpf4jnsgd1na2vs0mg"},{"bike_id":"9f237d26-13f9-406e-ac61-ac99ecfc6290","system_id":"levelo_inurba_marseille","lat":43.324771,"lon":5.36557,"is_reserved":false,"is_disabled":false,"rental_uris":{"android":"levelo://app?vid=9f237d26-13f9-406e-ac61-ac99ecfc6290","ios":"levelo://app?vid=9f237d26-13f9-406e-ac61-ac99ecfc6290"},"vehicle_type_id":"4","last_reported":1723385245,"current_range_meters":28400,"station_id":"ce4bhs12rcd13ifvqhvg","pricing_plan_id":"cebpf4jnsgd1na2vs0mg"},{"bike_id":"57e8995c-1fc9-4244-abcf-1bf85026f973","system_id":"levelo_inurba_marseille","lat":43.324824,"lon":5.365778,"is_reserved":false,"is_disabled":false,"rental_uris":{"android":"levelo://app?vid=57e8995c-1fc9-4244-abcf-1bf85026f973","ios":"levelo://app?vid=57e8995c-1fc9-4244-abcf-1bf85026f973"},"vehicle_type_id":"4","last_reported":1723385245,"current_range_meters":10000,"station_id":"ce4bhs12rcd13ifvqhvg","pricing_plan_id":"cebpf4jnsgd1na2vs0mg"},{"bike_id":"081007f9-31dc-4b77-b8f2-8dffedab8808","system_id":"levelo_inurba_marseille","lat":43.324771,"lon":5.36557,"is_reserved":false,"is_disabled":false,"rental_uris":{"android":"levelo://app?vid=081007f9-31dc-4b77-b8f2-8dffedab8808","ios":"levelo://app?vid=081007f9-31dc-4b77-b8f2-8dffedab8808"},"vehicle_type_id":"4","last_reported":1723385245,"current_range_meters":17200,"station_id":"ce4bhs12rcd13ifvqhvg","pricing_plan_id":"cebpf4jnsgd1na2vs0mg"},{"bike_id":"e808a47c-f1ab-49c8-9868-162ce164be9e","system_id":"levelo_inurba_marseille","lat":43.324771,"lon":5.36557,"is_reserved":false,"is_disabled":false,"rental_uris":{"android":"levelo://app?vid=e808a47c-f1ab-49c8-9868-162ce164be9e","ios":"levelo://app?vid=e808a47c-f1ab-49c8-9868-162ce164be9e"},"vehicle_type_id":"4","last_reported":1723385245,"current_range_meters":31200,"station_id":"ce4bhs12rcd13ifvqhvg","pricing_plan_id":"cebpf4jnsgd1na2vs0mg"},{"bike_id":"4bf5be37-0c95-48b4-b540-09fa58a1f6ed","system_id":"levelo_inurba_marseille","lat":43.324771,"lon":5.36557,"is_reserved":false,"is_disabled":false,"rental_uris":{"android":"levelo://app?vid=4bf5be37-0c95-48b4-b540-09fa58a1f6ed","ios":"levelo://app?vid=4bf5be37-0c95-48b4-b540-09fa58a1f6ed"},"vehicle_type_id":"4","last_reported":1723385245,"current_range_meters":28400,"station_id":"ce4bhs12rcd13ifvqhvg","pricing_plan_id":"cebpf4jnsgd1na2vs0mg"},{"bike_id":"1ffad33b-bb6d-44b8-aa35-c11639d0650c","system_id":"levelo_inurba_marseille","lat":43.324771,"lon":5.36557,"is_reserved":false,"is_disabled":false,"rental_uris":{"android":"levelo://app?vid=1ffad33b-bb6d-44b8-aa35-c11639d0650c","ios":"levelo://app?vid=1ffad33b-bb6d-44b8-aa35-c11639d0650c"},"vehicle_type_id":"4","last_reported":1723385245,"current_range_meters":26800,"station_id":"ce4bhs12rcd13ifvqhvg","pricing_plan_id":"cebpf4jnsgd1na2vs0mg"},{"bike_id":"e5000063-db07-4064-adf1-e6b77f0e18ee","system_id":"levelo_inurba_marseille","lat":43.324771,"lon":5.36557,"is_reserved":false,"is_disabled":false,"rental_uris":{"android":"levelo://app?vid=e5000063-db07-4064-adf1-e6b77f0e18ee","ios":"levelo://app?vid=e5000063-db07-4064-adf1-e6b77f0e18ee"},"vehicle_type_id":"4","last_reported":1723385245,"current_range_meters":31200,"station_id":"ce4bhs12rcd13ifvqhvg","pricing_plan_id":"cebpf4jnsgd1na2vs0mg"},{"bike_id":"fcb8a6fa-6156-4b33-80d5-0ede5b76cb5b","system_id":"levelo_inurba_marseille","lat":43.324771,"lon":5.36557,"is_reserved":false,"is_disabled":false,"rental_uris":{"android":"levelo://app?vid=fcb8a6fa-6156-4b33-80d5-0ede5b76cb5b","ios":"levelo://app?vid=fcb8a6fa-6156-4b33-80d5-0ede5b76cb5b"},"vehicle_type_id":"4","last_reported":1723385245,"current_range_meters":2400,"station_id":"ce4bhs12rcd13ifvqhvg","pricing_plan_id":"cebpf4jnsgd1na2vs0mg"},{"bike_id":"75a43ee6-e251-4740-af8e-bff42a826b72","system_id":"levelo_inurba_marseille","lat":43.324771,"lon":5.36557,"is_reserved":false,"is_disabled":false,"rental_uris":{"android":"levelo://app?vid=75a43ee6-e251-4740-af8e-bff42a826b72","ios":"levelo://app?vid=75a43ee6-e251-4740-af8e-bff42a826b72"},"vehicle_type_id":"4","last_reported":1723385245,"current_range_meters":7200,"station_id":"ce4bhs12rcd13ifvqhvg","pricing_plan_id":"cebpf4jnsgd1na2vs0mg"},{"bike_id":"5fc0d868-3327-4e5f-a8aa-7409c11b9642","system_id":"levelo_inurba_marseille","lat":43.310804,"lon":5.38359,"is_reserved":false,"is_disabled":false,"rental_uris":{"android":"levelo://app?vid=5fc0d868-3327-4e5f-a8aa-7409c11b9642","ios":"levelo://app?vid=5fc0d868-3327-4e5f-a8aa-7409c11b9642"},"vehicle_type_id":"4","last_reported":1723385245,"current_range_meters":5200,"station_id":"ce4bgv92rcd13ifvqcr0","pricing_plan_id":"cebpf4jnsgd1na2vs0mg"},{"bike_id":"19361ee9-48d5-412d-ac99-d0c97d7bccb4","system_id":"levelo_inurba_marseille","lat":43.324859,"lon":5.365626,"is_reserved":false,"is_disabled":false,"rental_uris":{"android":"levelo://app?vid=19361ee9-48d5-412d-ac99-d0c97d7bccb4","ios":"levelo://app?vid=19361ee9-48d5-412d-ac99-d0c97d7bccb4"},"vehicle_type_id":"4","last_reported":1723385245,"current_range_meters":24400,"station_id":"ce4bhs12rcd13ifvqhvg","pricing_plan_id":"cebpf4jnsgd1na2vs0mg"},{"bike_id":"a3c741c2-052e-4da0-bfee-31ef42076999","system_id":"levelo_inurba_marseille","lat":43.324771,"lon":5.36557,"is_reserved":false,"is_disabled":false,"rental_uris":{"android":"levelo://app?vid=a3c741c2-052e-4da0-bfee-31ef42076999","ios":"levelo://app?vid=a3c741c2-052e-4da0-bfee-31ef42076999"},"vehicle_type_id":"4","last_reported":1723385245,"current_range_meters":21600,"station_id":"ce4bhs12rcd13ifvqhvg","pricing_plan_id":"cebpf4jnsgd1na2vs0mg"},{"bike_id":"2dad38cf-d207-450a-b8da-4aed1485d17b","system_id":"levelo_inurba_marseille","lat":43.302784,"lon":5.377158,"is_reserved":false,"is_disabled":false,"rental_uris":{"android":"levelo://app?vid=2dad38cf-d207-450a-b8da-4aed1485d17b","ios":"levelo://app?vid=2dad38cf-d207-450a-b8da-4aed1485d17b"},"vehicle_type_id":"4","last_reported":1723385245,"current_range_meters":14400,"station_id":"ce4bguh2rcd13ifvqcj0","pricing_plan_id":"cebpf4jnsgd1na2vs0mg"},{"bike_id":"5dd49310-90a0-404c-9955-56ccf5dd4eb4","system_id":"levelo_inurba_marseille","lat":43.301429,"lon":5.37413,"is_reserved":false,"is_disabled":false,"rental_uris":{"android":"levelo://app?vid=5dd49310-90a0-404c-9955-56ccf5dd4eb4","ios":"levelo://app?vid=5dd49310-90a0-404c-9955-56ccf5dd4eb4"},"vehicle_type_id":"4","last_reported":1723385245,"current_range_meters":0,"station_id":"ce4bgs92rcd13ifvqcc0","pricing_plan_id":"cebpf4jnsgd1na2vs0mg"},{"bike_id":"057ccf9f-39fa-445b-aa8c-1553727eb8e1","system_id":"levelo_inurba_marseille","lat":43.319944,"lon":5.381516,"is_reserved":false,"is_disabled":false,"rental_uris":{"android":"levelo://app?vid=057ccf9f-39fa-445b-aa8c-1553727eb8e1","ios":"levelo://app?vid=057ccf9f-39fa-445b-aa8c-1553727eb8e1"},"vehicle_type_id":"4","last_reported":1723385245,"current_range_meters":30400,"station_id":"ce4bhr12rcd13ifvqhpg","pricing_plan_id":"cebpf4jnsgd1na2vs0mg"},{"bike_id":"ff39d0c8-ba61-4ae1-abef-c721ee1fd9c8","system_id":"levelo_inurba_marseille","lat":43.313991,"lon":5.384635,"is_reserved":false,"is_disabled":false,"rental_uris":{"android":"levelo://app?vid=ff39d0c8-ba61-4ae1-abef-c721ee1fd9c8","ios":"levelo://app?vid=ff39d0c8-ba61-4ae1-abef-c721ee1fd9c8"},"vehicle_type_id":"4","last_reported":1723385245,"current_range_meters":8400,"station_id":"ce4bgt92rcd13ifvqcf0","pricing_plan_id":"cebpf4jnsgd1na2vs0mg"},{"bike_id":"343973f5-05f2-44ba-a78e-299ce3999d6e","system_id":"levelo_inurba_marseille","lat":43.313571,"lon":5.384829,"is_reserved":false,"is_disabled":false,"rental_uris":{"android":"levelo://app?vid=343973f5-05f2-44ba-a78e-299ce3999d6e","ios":"levelo://app?vid=343973f5-05f2-44ba-a78e-299ce3999d6e"},"vehicle_type_id":"4","last_reported":1723385245,"current_range_meters":12400,"station_id":"ce4bgt92rcd13ifvqcf0","pricing_plan_id":"cebpf4jnsgd1na2vs0mg"},{"bike_id":"c44b410a-5afa-4264-aeab-17bfcd44c771","system_id":"levelo_inurba_marseille","lat":43.30141,"lon":5.38089,"is_reserved":false,"is_disabled":false,"rental_uris":{"android":"levelo://app?vid=c44b410a-5afa-4264-aeab-17bfcd44c771","ios":"levelo://app?vid=c44b410a-5afa-4264-aeab-17bfcd44c771"},"vehicle_type_id":"4","last_reported":1723385245,"current_range_meters":26800,"station_id":"","pricing_plan_id":"cebpf4jnsgd1na2vs0mg"},{"bike_id":"81816623-ea99-421d-98a2-88b8b71bf7f3","system_id":"levelo_inurba_marseille","lat":43.301469,"lon":5.381027,"is_reserved":false,"is_disabled":false,"rental_uris":{"android":"levelo://app?vid=81816623-ea99-421d-98a2-88b8b71bf7f3","ios":"levelo://app?vid=81816623-ea99-421d-98a2-88b8b71bf7f3"},"vehicle_type_id":"4","last_reported":1723385245,"current_range_meters":20000,"station_id":"","pricing_plan_id":"cebpf4jnsgd1na2vs0mg"},{"bike_id":"3116582e-e4c0-4cd6-835a-19c8f626673b","system_id":"levelo_inurba_marseille","lat":43.30142,"lon":5.3811,"is_reserved":false,"is_disabled":false,"rental_uris":{"android":"levelo://app?vid=3116582e-e4c0-4cd6-835a-19c8f626673b","ios":"levelo://app?vid=3116582e-e4c0-4cd6-835a-19c8f626673b"},"vehicle_type_id":"4","last_reported":1723385245,"current_range_meters":31200,"station_id":"","pricing_plan_id":"cebpf4jnsgd1na2vs0mg"},{"bike_id":"80f9f110-4ffc-4297-bf57-2bf2a710da39","system_id":"levelo_inurba_marseille","lat":43.321825,"lon":5.386907,"is_reserved":false,"is_disabled":false,"rental_uris":{"android":"levelo://app?vid=80f9f110-4ffc-4297-bf57-2bf2a710da39","ios":"levelo://app?vid=80f9f110-4ffc-4297-bf57-2bf2a710da39"},"vehicle_type_id":"4","last_reported":1723385245,"current_range_meters":13200,"station_id":"","pricing_plan_id":"cebpf4jnsgd1na2vs0mg"},{"bike_id":"c568f253-f437-40d7-91e0-8a0c20115011","system_id":"levelo_inurba_marseille","lat":43.32263,"lon":5.38647,"is_reserved":false,"is_disabled":false,"rental_uris":{"android":"levelo://app?vid=c568f253-f437-40d7-91e0-8a0c20115011","ios":"levelo://app?vid=c568f253-f437-40d7-91e0-8a0c20115011"},"vehicle_type_id":"4","last_reported":1723385245,"current_range_meters":13600,"station_id":"","pricing_plan_id":"cebpf4jnsgd1na2vs0mg"},{"bike_id":"ed788100-5403-4e53-b131-ed76e6e22485","system_id":"levelo_inurba_marseille","lat":43.322523,"lon":5.386601,"is_reserved":false,"is_disabled":false,"rental_uris":{"android":"levelo://app?vid=ed788100-5403-4e53-b131-ed76e6e22485","ios":"levelo://app?vid=ed788100-5403-4e53-b131-ed76e6e22485"},"vehicle_type_id":"4","last_reported":1723385245,"current_range_meters":0,"station_id":"","pricing_plan_id":"cebpf4jnsgd1na2vs0mg"},{"bike_id":"27dd4c7a-ee7b-47b1-b761-82ad720a6dda","system_id":"levelo_inurba_marseille","lat":43.298037,"lon":5.381066,"is_reserved":false,"is_disabled":false,"rental_uris":{"android":"levelo://app?vid=27dd4c7a-ee7b-47b1-b761-82ad720a6dda","ios":"levelo://app?vid=27dd4c7a-ee7b-47b1-b761-82ad720a6dda"},"vehicle_type_id":"4","last_reported":1723385245,"current_range_meters":28400,"station_id":"ce4bgip2rcd13ifvqbb0","pricing_plan_id":"cebpf4jnsgd1na2vs0mg"},{"bike_id":"77192461-172c-4d40-8ca2-f5aa19dcb034","system_id":"levelo_inurba_marseille","lat":43.330528,"lon":5.358892,"is_reserved":false,"is_disabled":false,"rental_uris":{"android":"levelo://app?vid=77192461-172c-4d40-8ca2-f5aa19dcb034","ios":"levelo://app?vid=77192461-172c-4d40-8ca2-f5aa19dcb034"},"vehicle_type_id":"4","last_reported":1723385245,"current_range_meters":11600,"station_id":"","pricing_plan_id":"cebpf4jnsgd1na2vs0mg"},{"bike_id":"39e4701f-ea54-47ed-8007-e108573e7c26","system_id":"levelo_inurba_marseille","lat":43.29664,"lon":5.38131,"is_reserved":false,"is_disabled":false,"rental_uris":{"android":"levelo://app?vid=39e4701f-ea54-47ed-8007-e108573e7c26","ios":"levelo://app?vid=39e4701f-ea54-47ed-8007-e108573e7c26"},"vehicle_type_id":"4","last_reported":1723385245,"current_range_meters":31200,"station_id":"","pricing_plan_id":"cebpf4jnsgd1na2vs0mg"},{"bike_id":"5e543ee8-16d2-46f8-87c4-c5aef138b5e3","system_id":"levelo_inurba_marseille","lat":43.305994,"lon":5.393687,"is_reserved":false,"is_disabled":false,"rental_uris":{"android":"levelo://app?vid=5e543ee8-16d2-46f8-87c4-c5aef138b5e3","ios":"levelo://app?vid=5e543ee8-16d2-46f8-87c4-c5aef138b5e3"},"vehicle_type_id":"4","last_reported":1723385245,"current_range_meters":31200,"station_id":"ce4bh0p2rcd13ifvqd80","pricing_plan_id":"cebpf4jnsgd1na2vs0mg"},{"bike_id":"6bba2487-4d94-4a0f-a1a2-ea85081afd7d","system_id":"levelo_inurba_marseille","lat":43.29297,"lon":5.3746,"is_reserved":false,"is_disabled":false,"rental_uris":{"android":"levelo://app?vid=6bba2487-4d94-4a0f-a1a2-ea85081afd7d","ios":"levelo://app?vid=6bba2487-4d94-4a0f-a1a2-ea85081afd7d"},"vehicle_type_id":"4","last_reported":1723385245,"current_range_meters":9200,"station_id":"ce4bgi12rcd13ifvqb70","pricing_plan_id":"cebpf4jnsgd1na2vs0mg"},{"bike_id":"8d37495d-9961-45f8-ba67-ee81725ae3ae","system_id":"levelo_inurba_marseille","lat":43.29228,"lon":5.36363,"is_reserved":false,"is_disabled":false,"rental_uris":{"android":"levelo://app?vid=8d37495d-9961-45f8-ba67-ee81725ae3ae","ios":"levelo://app?vid=8d37495d-9961-45f8-ba67-ee81725ae3ae"},"vehicle_type_id":"4","last_reported":1723385245,"current_range_meters":4800,"station_id":"","pricing_plan_id":"cebpf4jnsgd1na2vs0mg"},{"bike_id":"337723d7-6e94-49c5-ae4d-41d565cca153","system_id":"levelo_inurba_marseille","lat":43.292311,"lon":5.360731,"is_reserved":false,"is_disabled":false,"rental_uris":{"android":"levelo://app?vid=337723d7-6e94-49c5-ae4d-41d565cca153","ios":"levelo://app?vid=337723d7-6e94-49c5-ae4d-41d565cca153"},"vehicle_type_id":"4","last_reported":1723385245,"current_range_meters":28000,"station_id":"ce4bhbh2rcd13ifvqeqg","pricing_plan_id":"cebpf4jnsgd1na2vs0mg"},{"bike_id":"58cd7a1f-2d85-41fe-99ef-d1ecfc20908b","system_id":"levelo_inurba_marseille","lat":43.300852,"lon":5.390859,"is_reserved":false,"is_disabled":false,"rental_uris":{"android":"levelo://app?vid=58cd7a1f-2d85-41fe-99ef-d1ecfc20908b","ios":"levelo://app?vid=58cd7a1f-2d85-41fe-99ef-d1ecfc20908b"},"vehicle_type_id":"4","last_reported":1723385245,"current_range_meters":6800,"station_id":"ce4bh192rcd13ifvqdb0","pricing_plan_id":"cebpf4jnsgd1na2vs0mg"},{"bike_id":"ee889710-6928-4328-8307-4f9ae877585a","system_id":"levelo_inurba_marseille","lat":43.231562,"lon":5.436933,"is_reserved":false,"is_disabled":false,"rental_uris":{"android":"levelo://app?vid=ee889710-6928-4328-8307-4f9ae877585a","ios":"levelo://app?vid=ee889710-6928-4328-8307-4f9ae877585a"},"vehicle_type_id":"4","last_reported":1723385245,"current_range_meters":11600,"station_id":"ce4bhmp2rcd13ifvqgog","pricing_plan_id":"cebpf4jnsgd1na2vs0mg"},{"bike_id":"8669c215-f64f-4991-918a-38e605b47e3d","system_id":"levelo_inurba_marseille","lat":43.292907,"lon":5.355532,"is_reserved":false,"is_disabled":false,"rental_uris":{"android":"levelo://app?vid=8669c215-f64f-4991-918a-38e605b47e3d","ios":"levelo://app?vid=8669c215-f64f-4991-918a-38e605b47e3d"},"vehicle_type_id":"4","last_reported":1723385245,"current_range_meters":2800,"station_id":"","pricing_plan_id":"cebpf4jnsgd1na2vs0mg"},{"bike_id":"9d4b68a5-c93f-4844-a235-5ff4a055b660","system_id":"levelo_inurba_marseille","lat":43.292385,"lon":5.37767,"is_reserved":false,"is_disabled":false,"rental_uris":{"android":"levelo://app?vid=9d4b68a5-c93f-4844-a235-5ff4a055b660","ios":"levelo://app?vid=9d4b68a5-c93f-4844-a235-5ff4a055b660"},"vehicle_type_id":"4","last_reported":1723385245,"current_range_meters":8000,"station_id":"","pricing_plan_id":"cebpf4jnsgd1na2vs0mg"},{"bike_id":"f487b378-cf2d-4387-b118-1081f1938911","system_id":"levelo_inurba_marseille","lat":43.2929,"lon":5.38248,"is_reserved":false,"is_disabled":false,"rental_uris":{"android":"levelo://app?vid=f487b378-cf2d-4387-b118-1081f1938911","ios":"levelo://app?vid=f487b378-cf2d-4387-b118-1081f1938911"},"vehicle_type_id":"4","last_reported":1723385245,"current_range_meters":800,"station_id":"","pricing_plan_id":"cebpf4jnsgd1na2vs0mg"},{"bike_id":"5fb2b0f1-9698-4244-bb31-706edab8e4e5","system_id":"levelo_inurba_marseille","lat":43.28945,"lon":5.36638,"is_reserved":false,"is_disabled":false,"rental_uris":{"android":"levelo://app?vid=5fb2b0f1-9698-4244-bb31-706edab8e4e5","ios":"levelo://app?vid=5fb2b0f1-9698-4244-bb31-706edab8e4e5"},"vehicle_type_id":"4","last_reported":1723385245,"current_range_meters":10000,"station_id":"ce4bhap2rcd13ifvqek0","pricing_plan_id":"cebpf4jnsgd1na2vs0mg"},{"bike_id":"9710e1da-ab50-4170-81c4-e552219a30d8","system_id":"levelo_inurba_marseille","lat":43.28929,"lon":5.3663,"is_reserved":false,"is_disabled":false,"rental_uris":{"android":"levelo://app?vid=9710e1da-ab50-4170-81c4-e552219a30d8","ios":"levelo://app?vid=9710e1da-ab50-4170-81c4-e552219a30d8"},"vehicle_type_id":"4","last_reported":1723385245,"current_range_meters":4400,"station_id":"ce4bhap2rcd13ifvqek0","pricing_plan_id":"cebpf4jnsgd1na2vs0mg"},{"bike_id":"14edec5b-2449-4e93-8713-e33d1f449955","system_id":"levelo_inurba_marseille","lat":43.28972,"lon":5.37825,"is_reserved":false,"is_disabled":false,"rental_uris":{"android":"levelo://app?vid=14edec5b-2449-4e93-8713-e33d1f449955","ios":"levelo://app?vid=14edec5b-2449-4e93-8713-e33d1f449955"},"vehicle_type_id":"4","last_reported":1723385245,"current_range_meters":0,"station_id":"ce4bh9p2rcd13ifvqed0","pricing_plan_id":"cebpf4jnsgd1na2vs0mg"},{"bike_id":"9c03a6cb-64ef-4481-9829-d42f17306d17","system_id":"levelo_inurba_marseille","lat":43.330442,"lon":5.389148,"is_reserved":false,"is_disabled":false,"rental_uris":{"android":"levelo://app?vid=9c03a6cb-64ef-4481-9829-d42f17306d17","ios":"levelo://app?vid=9c03a6cb-64ef-4481-9829-d42f17306d17"},"vehicle_type_id":"4","last_reported":1723385245,"current_range_meters":12800,"station_id":"ce4bhr92rcd13ifvqhrg","pricing_plan_id":"cebpf4jnsgd1na2vs0mg"},{"bike_id":"560ef53a-84b3-4b63-ab7a-0fb589f4243a","system_id":"levelo_inurba_marseille","lat":43.330442,"lon":5.389148,"is_reserved":false,"is_disabled":false,"rental_uris":{"android":"levelo://app?vid=560ef53a-84b3-4b63-ab7a-0fb589f4243a","ios":"levelo://app?vid=560ef53a-84b3-4b63-ab7a-0fb589f4243a"},"vehicle_type_id":"4","last_reported":1723385245,"current_range_meters":5200,"station_id":"ce4bhr92rcd13ifvqhrg","pricing_plan_id":"cebpf4jnsgd1na2vs0mg"},{"bike_id":"755ce516-3926-42cd-96ec-bc710dae5b78","system_id":"levelo_inurba_marseille","lat":43.28968,"lon":5.3783,"is_reserved":false,"is_disabled":false,"rental_uris":{"android":"levelo://app?vid=755ce516-3926-42cd-96ec-bc710dae5b78","ios":"levelo://app?vid=755ce516-3926-42cd-96ec-bc710dae5b78"},"vehicle_type_id":"4","last_reported":1723385245,"current_range_meters":12000,"station_id":"ce4bh9p2rcd13ifvqed0","pricing_plan_id":"cebpf4jnsgd1na2vs0mg"},{"bike_id":"8569d85f-d363-4d7a-9b30-913d218307db","system_id":"levelo_inurba_marseille","lat":43.28856,"lon":5.358371,"is_reserved":false,"is_disabled":false,"rental_uris":{"android":"levelo://app?vid=8569d85f-d363-4d7a-9b30-913d218307db","ios":"levelo://app?vid=8569d85f-d363-4d7a-9b30-913d218307db"},"vehicle_type_id":"4","last_reported":1723385245,"current_range_meters":20800,"station_id":"ce4bhb12rcd13ifvqem0","pricing_plan_id":"cebpf4jnsgd1na2vs0mg"},{"bike_id":"c3cf305c-692c-41ed-b07c-7ebbc13f240d","system_id":"levelo_inurba_marseille","lat":43.337405,"lon":5.374624,"is_reserved":false,"is_disabled":false,"rental_uris":{"android":"levelo://app?vid=c3cf305c-692c-41ed-b07c-7ebbc13f240d","ios":"levelo://app?vid=c3cf305c-692c-41ed-b07c-7ebbc13f240d"},"vehicle_type_id":"4","last_reported":1723385245,"current_range_meters":14400,"station_id":"","pricing_plan_id":"cebpf4jnsgd1na2vs0mg"},{"bike_id":"43f21911-683d-4ba4-93d3-8a7e20e1c78c","system_id":"levelo_inurba_marseille","lat":43.337414,"lon":5.374647,"is_reserved":false,"is_disabled":false,"rental_uris":{"android":"levelo://app?vid=43f21911-683d-4ba4-93d3-8a7e20e1c78c","ios":"levelo://app?vid=43f21911-683d-4ba4-93d3-8a7e20e1c78c"},"vehicle_type_id":"4","last_reported":1723385245,"current_range_meters":26800,"station_id":"","pricing_plan_id":"cebpf4jnsgd1na2vs0mg"},{"bike_id":"ac75d8e5-5139-4e43-a64e-51e7994c2517","system_id":"levelo_inurba_marseille","lat":43.337444,"lon":5.374475,"is_reserved":false,"is_disabled":false,"rental_uris":{"android":"levelo://app?vid=ac75d8e5-5139-4e43-a64e-51e7994c2517","ios":"levelo://app?vid=ac75d8e5-5139-4e43-a64e-51e7994c2517"},"vehicle_type_id":"3","last_reported":1723385245,"current_range_meters":24800,"station_id":"","pricing_plan_id":"cebpf4jnsgd1na2vs0mg"},{"bike_id":"8b5f6228-3582-497c-9919-c849c8ef0c9b","system_id":"levelo_inurba_marseille","lat":43.337436,"lon":5.374589,"is_reserved":false,"is_disabled":false,"rental_uris":{"android":"levelo://app?vid=8b5f6228-3582-497c-9919-c849c8ef0c9b","ios":"levelo://app?vid=8b5f6228-3582-497c-9919-c849c8ef0c9b"},"vehicle_type_id":"4","last_reported":1723385245,"current_range_meters":400,"station_id":"","pricing_plan_id":"cebpf4jnsgd1na2vs0mg"},{"bike_id":"7553d7c6-8eef-4b21-9dca-534ec43256a6","system_id":"levelo_inurba_marseille","lat":43.33743,"lon":5.37463,"is_reserved":false,"is_disabled":false,"rental_uris":{"android":"levelo://app?vid=7553d7c6-8eef-4b21-9dca-534ec43256a6","ios":"levelo://app?vid=7553d7c6-8eef-4b21-9dca-534ec43256a6"},"vehicle_type_id":"4","last_reported":1723385245,"current_range_meters":9600,"station_id":"","pricing_plan_id":"cebpf4jnsgd1na2vs0mg"},{"bike_id":"a99690a8-3e4f-41a1-9b6a-5b43249a269f","system_id":"levelo_inurba_marseille","lat":43.33746,"lon":5.37457,"is_reserved":false,"is_disabled":false,"rental_uris":{"android":"levelo://app?vid=a99690a8-3e4f-41a1-9b6a-5b43249a269f","ios":"levelo://app?vid=a99690a8-3e4f-41a1-9b6a-5b43249a269f"},"vehicle_type_id":"4","last_reported":1723385245,"current_range_meters":800,"station_id":"","pricing_plan_id":"cebpf4jnsgd1na2vs0mg"},{"bike_id":"99ff80d6-767c-4ca9-81b5-c19f253f3bd3","system_id":"levelo_inurba_marseille","lat":43.337499,"lon":5.374525,"is_reserved":false,"is_disabled":false,"rental_uris":{"android":"levelo://app?vid=99ff80d6-767c-4ca9-81b5-c19f253f3bd3","ios":"levelo://app?vid=99ff80d6-767c-4ca9-81b5-c19f253f3bd3"},"vehicle_type_id":"4","last_reported":1723385245,"current_range_meters":0,"station_id":"","pricing_plan_id":"cebpf4jnsgd1na2vs0mg"},{"bike_id":"4dd3df97-f042-4ef0-9fba-47ec4b401346","system_id":"levelo_inurba_marseille","lat":43.28784,"lon":5.37362,"is_reserved":false,"is_disabled":false,"rental_uris":{"android":"levelo://app?vid=4dd3df97-f042-4ef0-9fba-47ec4b401346","ios":"levelo://app?vid=4dd3df97-f042-4ef0-9fba-47ec4b401346"},"vehicle_type_id":"4","last_reported":1723385245,"current_range_meters":24800,"station_id":"","pricing_plan_id":"cebpf4jnsgd1na2vs0mg"},{"bike_id":"6137b86e-8de9-4c4f-94ef-bfa372175031","system_id":"levelo_inurba_marseille","lat":43.337513,"lon":5.37454,"is_reserved":false,"is_disabled":false,"rental_uris":{"android":"levelo://app?vid=6137b86e-8de9-4c4f-94ef-bfa372175031","ios":"levelo://app?vid=6137b86e-8de9-4c4f-94ef-bfa372175031"},"vehicle_type_id":"4","last_reported":1723385245,"current_range_meters":12000,"station_id":"","pricing_plan_id":"cebpf4jnsgd1na2vs0mg"},{"bike_id":"6f8a75ef-cfde-4da5-99c7-85f9ae9b026b","system_id":"levelo_inurba_marseille","lat":43.33759,"lon":5.37425,"is_reserved":false,"is_disabled":false,"rental_uris":{"android":"levelo://app?vid=6f8a75ef-cfde-4da5-99c7-85f9ae9b026b","ios":"levelo://app?vid=6f8a75ef-cfde-4da5-99c7-85f9ae9b026b"},"vehicle_type_id":"4","last_reported":1723385245,"current_range_meters":22000,"station_id":"","pricing_plan_id":"cebpf4jnsgd1na2vs0mg"},{"bike_id":"1ece39e8-5ec5-465b-b0d5-bdea3554c74d","system_id":"levelo_inurba_marseille","lat":43.337592,"lon":5.374488,"is_reserved":false,"is_disabled":false,"rental_uris":{"android":"levelo://app?vid=1ece39e8-5ec5-465b-b0d5-bdea3554c74d","ios":"levelo://app?vid=1ece39e8-5ec5-465b-b0d5-bdea3554c74d"},"vehicle_type_id":"4","last_reported":1723385245,"current_range_meters":21200,"station_id":"","pricing_plan_id":"cebpf4jnsgd1na2vs0mg"},{"bike_id":"ea1cc1bc-b3f0-4093-8f5f-6dfff1fa63d9","system_id":"levelo_inurba_marseille","lat":43.337575,"lon":5.37485,"is_reserved":false,"is_disabled":false,"rental_uris":{"android":"levelo://app?vid=ea1cc1bc-b3f0-4093-8f5f-6dfff1fa63d9","ios":"levelo://app?vid=ea1cc1bc-b3f0-4093-8f5f-6dfff1fa63d9"},"vehicle_type_id":"4","last_reported":1723385245,"current_range_meters":31200,"station_id":"","pricing_plan_id":"cebpf4jnsgd1na2vs0mg"},{"bike_id":"e0da458e-1309-458b-956b-aab617b2ea05","system_id":"levelo_inurba_marseille","lat":43.3376,"lon":5.37473,"is_reserved":false,"is_disabled":false,"rental_uris":{"android":"levelo://app?vid=e0da458e-1309-458b-956b-aab617b2ea05","ios":"levelo://app?vid=e0da458e-1309-458b-956b-aab617b2ea05"},"vehicle_type_id":"4","last_reported":1723385245,"current_range_meters":23600,"station_id":"","pricing_plan_id":"cebpf4jnsgd1na2vs0mg"},{"bike_id":"a7e71684-8757-4c0e-98c0-cd5b05cd0ba7","system_id":"levelo_inurba_marseille","lat":43.337583,"lon":5.374932,"is_reserved":false,"is_disabled":false,"rental_uris":{"android":"levelo://app?vid=a7e71684-8757-4c0e-98c0-cd5b05cd0ba7","ios":"levelo://app?vid=a7e71684-8757-4c0e-98c0-cd5b05cd0ba7"},"vehicle_type_id":"4","last_reported":1723385245,"current_range_meters":29600,"station_id":"","pricing_plan_id":"cebpf4jnsgd1na2vs0mg"},{"bike_id":"5cb0d0f3-eacc-40eb-a46e-542fc59e15f6","system_id":"levelo_inurba_marseille","lat":43.337621,"lon":5.3749,"is_reserved":false,"is_disabled":false,"rental_uris":{"android":"levelo://app?vid=5cb0d0f3-eacc-40eb-a46e-542fc59e15f6","ios":"levelo://app?vid=5cb0d0f3-eacc-40eb-a46e-542fc59e15f6"},"vehicle_type_id":"4","last_reported":1723385245,"current_range_meters":29600,"station_id":"","pricing_plan_id":"cebpf4jnsgd1na2vs0mg"},{"bike_id":"475ed14f-5d86-4ce1-9e44-9d4d1bef7035","system_id":"levelo_inurba_marseille","lat":43.33765,"lon":5.37486,"is_reserved":false,"is_disabled":false,"rental_uris":{"android":"levelo://app?vid=475ed14f-5d86-4ce1-9e44-9d4d1bef7035","ios":"levelo://app?vid=475ed14f-5d86-4ce1-9e44-9d4d1bef7035"},"vehicle_type_id":"4","last_reported":1723385245,"current_range_meters":21600,"station_id":"","pricing_plan_id":"cebpf4jnsgd1na2vs0mg"},{"bike_id":"57da0337-159a-4148-be4f-fc6e9aca3c31","system_id":"levelo_inurba_marseille","lat":43.337098,"lon":5.355731,"is_reserved":false,"is_disabled":false,"rental_uris":{"android":"levelo://app?vid=57da0337-159a-4148-be4f-fc6e9aca3c31","ios":"levelo://app?vid=57da0337-159a-4148-be4f-fc6e9aca3c31"},"vehicle_type_id":"4","last_reported":1723385245,"current_range_meters":4800,"station_id":"","pricing_plan_id":"cebpf4jnsgd1na2vs0mg"},{"bike_id":"8eb907ae-a983-43a7-ab8d-1da33ecaa531","system_id":"levelo_inurba_marseille","lat":43.312239,"lon":5.368562,"is_reserved":false,"is_disabled":false,"rental_uris":{"android":"levelo://app?vid=8eb907ae-a983-43a7-ab8d-1da33ecaa531","ios":"levelo://app?vid=8eb907ae-a983-43a7-ab8d-1da33ecaa531"},"vehicle_type_id":"4","last_reported":1723385245,"current_range_meters":14400,"station_id":"ce4bgl92rcd13ifvqbq0","pricing_plan_id":"cebpf4jnsgd1na2vs0mg"},{"bike_id":"976d0109-9de7-4d45-bd81-5491eb52ebe8","system_id":"levelo_inurba_marseille","lat":43.33034,"lon":5.39356,"is_reserved":false,"is_disabled":false,"rental_uris":{"android":"levelo://app?vid=976d0109-9de7-4d45-bd81-5491eb52ebe8","ios":"levelo://app?vid=976d0109-9de7-4d45-bd81-5491eb52ebe8"},"vehicle_type_id":"4","last_reported":1723385245,"current_range_meters":6000,"station_id":"","pricing_plan_id":"cebpf4jnsgd1na2vs0mg"},{"bike_id":"33f85552-ab5f-46d3-9607-f2be0150680b","system_id":"levelo_inurba_marseille","lat":43.286591,"lon":5.363346,"is_reserved":false,"is_disabled":false,"rental_uris":{"android":"levelo://app?vid=33f85552-ab5f-46d3-9607-f2be0150680b","ios":"levelo://app?vid=33f85552-ab5f-46d3-9607-f2be0150680b"},"vehicle_type_id":"4","last_reported":1723385245,"current_range_meters":0,"station_id":"ce4bhah2rcd13ifvqej0","pricing_plan_id":"cebpf4jnsgd1na2vs0mg"},{"bike_id":"e3dc2c16-0316-4887-a9f5-724aa3ebdac5","system_id":"levelo_inurba_marseille","lat":43.290336,"lon":5.386425,"is_reserved":false,"is_disabled":false,"rental_uris":{"android":"levelo://app?vid=e3dc2c16-0316-4887-a9f5-724aa3ebdac5","ios":"levelo://app?vid=e3dc2c16-0316-4887-a9f5-724aa3ebdac5"},"vehicle_type_id":"4","last_reported":1723385245,"current_range_meters":3600,"station_id":"ce4bh4p2rcd13ifvqe0g","pricing_plan_id":"cebpf4jnsgd1na2vs0mg"},{"bike_id":"d3890af6-c1a4-4fd6-bfc7-fb40627c6354","system_id":"levelo_inurba_marseille","lat":43.290336,"lon":5.386425,"is_reserved":false,"is_disabled":false,"rental_uris":{"android":"levelo://app?vid=d3890af6-c1a4-4fd6-bfc7-fb40627c6354","ios":"levelo://app?vid=d3890af6-c1a4-4fd6-bfc7-fb40627c6354"},"vehicle_type_id":"4","last_reported":1723385245,"current_range_meters":16400,"station_id":"ce4bh4p2rcd13ifvqe0g","pricing_plan_id":"cebpf4jnsgd1na2vs0mg"},{"bike_id":"27406502-efe4-41ba-a730-e9f8b0a59cc6","system_id":"levelo_inurba_marseille","lat":43.286082,"lon":5.370631,"is_reserved":false,"is_disabled":false,"rental_uris":{"android":"levelo://app?vid=27406502-efe4-41ba-a730-e9f8b0a59cc6","ios":"levelo://app?vid=27406502-efe4-41ba-a730-e9f8b0a59cc6"},"vehicle_type_id":"4","last_reported":1723385245,"current_range_meters":15600,"station_id":"","pricing_plan_id":"cebpf4jnsgd1na2vs0mg"},{"bike_id":"99ac2d56-4bdc-464b-b5ad-b4eba5318c47","system_id":"levelo_inurba_marseille","lat":43.287184,"lon":5.37937,"is_reserved":false,"is_disabled":false,"rental_uris":{"android":"levelo://app?vid=99ac2d56-4bdc-464b-b5ad-b4eba5318c47","ios":"levelo://app?vid=99ac2d56-4bdc-464b-b5ad-b4eba5318c47"},"vehicle_type_id":"4","last_reported":1723385245,"current_range_meters":26800,"station_id":"ce4bh9p2rcd13ifvqec0","pricing_plan_id":"cebpf4jnsgd1na2vs0mg"},{"bike_id":"14ba6e36-4ceb-45d4-8f1d-b502ef978100","system_id":"levelo_inurba_marseille","lat":43.316821,"lon":5.404737,"is_reserved":false,"is_disabled":false,"rental_uris":{"android":"levelo://app?vid=14ba6e36-4ceb-45d4-8f1d-b502ef978100","ios":"levelo://app?vid=14ba6e36-4ceb-45d4-8f1d-b502ef978100"},"vehicle_type_id":"4","last_reported":1723385245,"current_range_meters":10800,"station_id":"ce4bh012rcd13ifvqd00","pricing_plan_id":"cebpf4jnsgd1na2vs0mg"},{"bike_id":"f030c291-559a-429a-9359-88da6f1161f1","system_id":"levelo_inurba_marseille","lat":43.291994,"lon":5.392907,"is_reserved":false,"is_disabled":false,"rental_uris":{"android":"levelo://app?vid=f030c291-559a-429a-9359-88da6f1161f1","ios":"levelo://app?vid=f030c291-559a-429a-9359-88da6f1161f1"},"vehicle_type_id":"4","last_reported":1723385245,"current_range_meters":4800,"station_id":"ce4bh192rcd13ifvqdd0","pricing_plan_id":"cebpf4jnsgd1na2vs0mg"},{"bike_id":"a9a0cd45-c768-4027-9ddb-00e1aea0353a","system_id":"levelo_inurba_marseille","lat":43.294314,"lon":5.397498,"is_reserved":false,"is_disabled":false,"rental_uris":{"android":"levelo://app?vid=a9a0cd45-c768-4027-9ddb-00e1aea0353a","ios":"levelo://app?vid=a9a0cd45-c768-4027-9ddb-00e1aea0353a"},"vehicle_type_id":"4","last_reported":1723385245,"current_range_meters":0,"station_id":"ce4bh3h2rcd13ifvqdo0","pricing_plan_id":"cebpf4jnsgd1na2vs0mg"},{"bike_id":"bfa74850-d97a-49a3-9ace-ff82e1416c7a","system_id":"levelo_inurba_marseille","lat":43.284534,"lon":5.358662,"is_reserved":false,"is_disabled":false,"rental_uris":{"android":"levelo://app?vid=bfa74850-d97a-49a3-9ace-ff82e1416c7a","ios":"levelo://app?vid=bfa74850-d97a-49a3-9ace-ff82e1416c7a"},"vehicle_type_id":"4","last_reported":1723385245,"current_range_meters":5600,"station_id":"ce4bhah2rcd13ifvqei0","pricing_plan_id":"cebpf4jnsgd1na2vs0mg"},{"bike_id":"0d5bde68-21d5-45a6-b255-973119069add","system_id":"levelo_inurba_marseille","lat":43.28622,"lon":5.35106,"is_reserved":false,"is_disabled":false,"rental_uris":{"android":"levelo://app?vid=0d5bde68-21d5-45a6-b255-973119069add","ios":"levelo://app?vid=0d5bde68-21d5-45a6-b255-973119069add"},"vehicle_type_id":"4","last_reported":1723385245,"current_range_meters":31200,"station_id":"ce4bhch2rcd13ifvqeug","pricing_plan_id":"cebpf4jnsgd1na2vs0mg"},{"bike_id":"7ebe08a0-0018-42d5-8396-59a564ff6afd","system_id":"levelo_inurba_marseille","lat":43.28621,"lon":5.35106,"is_reserved":false,"is_disabled":false,"rental_uris":{"android":"levelo://app?vid=7ebe08a0-0018-42d5-8396-59a564ff6afd","ios":"levelo://app?vid=7ebe08a0-0018-42d5-8396-59a564ff6afd"},"vehicle_type_id":"4","last_reported":1723385245,"current_range_meters":20000,"station_id":"ce4bhch2rcd13ifvqeug","pricing_plan_id":"cebpf4jnsgd1na2vs0mg"},{"bike_id":"8d8a8364-af71-4f41-a419-ca8e1c18d618","system_id":"levelo_inurba_marseille","lat":43.285856,"lon":5.350771,"is_reserved":false,"is_disabled":false,"rental_uris":{"android":"levelo://app?vid=8d8a8364-af71-4f41-a419-ca8e1c18d618","ios":"levelo://app?vid=8d8a8364-af71-4f41-a419-ca8e1c18d618"},"vehicle_type_id":"4","last_reported":1723385245,"current_range_meters":16400,"station_id":"ce4bhch2rcd13ifvqeug","pricing_plan_id":"cebpf4jnsgd1na2vs0mg"},{"bike_id":"573c8b72-a74f-4f3c-8ec5-60e28a893554","system_id":"levelo_inurba_marseille","lat":43.285848,"lon":5.350787,"is_reserved":false,"is_disabled":false,"rental_uris":{"android":"levelo://app?vid=573c8b72-a74f-4f3c-8ec5-60e28a893554","ios":"levelo://app?vid=573c8b72-a74f-4f3c-8ec5-60e28a893554"},"vehicle_type_id":"4","last_reported":1723385245,"current_range_meters":23200,"station_id":"ce4bhch2rcd13ifvqeug","pricing_plan_id":"cebpf4jnsgd1na2vs0mg"},{"bike_id":"a404f76c-763e-419d-85a9-584bbf46e753","system_id":"levelo_inurba_marseille","lat":43.2862,"lon":5.35103,"is_reserved":false,"is_disabled":false,"rental_uris":{"android":"levelo://app?vid=a404f76c-763e-419d-85a9-584bbf46e753","ios":"levelo://app?vid=a404f76c-763e-419d-85a9-584bbf46e753"},"vehicle_type_id":"4","last_reported":1723385245,"current_range_meters":10000,"station_id":"ce4bhch2rcd13ifvqeug","pricing_plan_id":"cebpf4jnsgd1na2vs0mg"},{"bike_id":"bb7fc2eb-d23d-4626-9260-b0ecad75de9b","system_id":"levelo_inurba_marseille","lat":43.285856,"lon":5.350771,"is_reserved":false,"is_disabled":false,"rental_uris":{"android":"levelo://app?vid=bb7fc2eb-d23d-4626-9260-b0ecad75de9b","ios":"levelo://app?vid=bb7fc2eb-d23d-4626-9260-b0ecad75de9b"},"vehicle_type_id":"4","last_reported":1723385245,"current_range_meters":12000,"station_id":"ce4bhch2rcd13ifvqeug","pricing_plan_id":"cebpf4jnsgd1na2vs0mg"},{"bike_id":"3f8c0884-aff9-4021-a621-60bdba559719","system_id":"levelo_inurba_marseille","lat":43.28619,"lon":5.35103,"is_reserved":false,"is_disabled":false,"rental_uris":{"android":"levelo://app?vid=3f8c0884-aff9-4021-a621-60bdba559719","ios":"levelo://app?vid=3f8c0884-aff9-4021-a621-60bdba559719"},"vehicle_type_id":"4","last_reported":1723385245,"current_range_meters":31200,"station_id":"ce4bhch2rcd13ifvqeug","pricing_plan_id":"cebpf4jnsgd1na2vs0mg"},{"bike_id":"6f3da740-64fc-47a7-a216-06fbd38047aa","system_id":"levelo_inurba_marseille","lat":43.285856,"lon":5.350771,"is_reserved":false,"is_disabled":false,"rental_uris":{"android":"levelo://app?vid=6f3da740-64fc-47a7-a216-06fbd38047aa","ios":"levelo://app?vid=6f3da740-64fc-47a7-a216-06fbd38047aa"},"vehicle_type_id":"4","last_reported":1723385245,"current_range_meters":31200,"station_id":"ce4bhch2rcd13ifvqeug","pricing_plan_id":"cebpf4jnsgd1na2vs0mg"},{"bike_id":"d0e27fa6-b185-4f27-826e-b40390b667ea","system_id":"levelo_inurba_marseille","lat":43.285856,"lon":5.350771,"is_reserved":false,"is_disabled":false,"rental_uris":{"android":"levelo://app?vid=d0e27fa6-b185-4f27-826e-b40390b667ea","ios":"levelo://app?vid=d0e27fa6-b185-4f27-826e-b40390b667ea"},"vehicle_type_id":"4","last_reported":1723385245,"current_range_meters":31200,"station_id":"ce4bhch2rcd13ifvqeug","pricing_plan_id":"cebpf4jnsgd1na2vs0mg"},{"bike_id":"a0345ed0-4240-46ea-8b15-86d1d3acdaf7","system_id":"levelo_inurba_marseille","lat":43.285856,"lon":5.350771,"is_reserved":false,"is_disabled":false,"rental_uris":{"android":"levelo://app?vid=a0345ed0-4240-46ea-8b15-86d1d3acdaf7","ios":"levelo://app?vid=a0345ed0-4240-46ea-8b15-86d1d3acdaf7"},"vehicle_type_id":"4","last_reported":1723385245,"current_range_meters":10800,"station_id":"ce4bhch2rcd13ifvqeug","pricing_plan_id":"cebpf4jnsgd1na2vs0mg"},{"bike_id":"7db1471f-14a5-43d9-b019-711dd8e39fc1","system_id":"levelo_inurba_marseille","lat":43.28616,"lon":5.35105,"is_reserved":false,"is_disabled":false,"rental_uris":{"android":"levelo://app?vid=7db1471f-14a5-43d9-b019-711dd8e39fc1","ios":"levelo://app?vid=7db1471f-14a5-43d9-b019-711dd8e39fc1"},"vehicle_type_id":"4","last_reported":1723385245,"current_range_meters":31200,"station_id":"ce4bhch2rcd13ifvqeug","pricing_plan_id":"cebpf4jnsgd1na2vs0mg"},{"bike_id":"0903bb75-016d-43aa-8cb7-12c2bd3e3d3e","system_id":"levelo_inurba_marseille","lat":43.285856,"lon":5.350771,"is_reserved":false,"is_disabled":false,"rental_uris":{"android":"levelo://app?vid=0903bb75-016d-43aa-8cb7-12c2bd3e3d3e","ios":"levelo://app?vid=0903bb75-016d-43aa-8cb7-12c2bd3e3d3e"},"vehicle_type_id":"4","last_reported":1723385245,"current_range_meters":30000,"station_id":"ce4bhch2rcd13ifvqeug","pricing_plan_id":"cebpf4jnsgd1na2vs0mg"},{"bike_id":"05a417bc-00f7-483f-bb45-384ead096d86","system_id":"levelo_inurba_marseille","lat":43.28616,"lon":5.35104,"is_reserved":false,"is_disabled":false,"rental_uris":{"android":"levelo://app?vid=05a417bc-00f7-483f-bb45-384ead096d86","ios":"levelo://app?vid=05a417bc-00f7-483f-bb45-384ead096d86"},"vehicle_type_id":"4","last_reported":1723385245,"current_range_meters":15200,"station_id":"ce4bhch2rcd13ifvqeug","pricing_plan_id":"cebpf4jnsgd1na2vs0mg"},{"bike_id":"1a6aa141-0249-4c2d-a459-57beb2dca183","system_id":"levelo_inurba_marseille","lat":43.28616,"lon":5.35104,"is_reserved":false,"is_disabled":false,"rental_uris":{"android":"levelo://app?vid=1a6aa141-0249-4c2d-a459-57beb2dca183","ios":"levelo://app?vid=1a6aa141-0249-4c2d-a459-57beb2dca183"},"vehicle_type_id":"4","last_reported":1723385245,"current_range_meters":26800,"station_id":"ce4bhch2rcd13ifvqeug","pricing_plan_id":"cebpf4jnsgd1na2vs0mg"},{"bike_id":"6a03792c-57d5-4c66-8d42-c21936c56a66","system_id":"levelo_inurba_marseille","lat":43.28615,"lon":5.35106,"is_reserved":false,"is_disabled":false,"rental_uris":{"android":"levelo://app?vid=6a03792c-57d5-4c66-8d42-c21936c56a66","ios":"levelo://app?vid=6a03792c-57d5-4c66-8d42-c21936c56a66"},"vehicle_type_id":"4","last_reported":1723385245,"current_range_meters":30800,"station_id":"ce4bhch2rcd13ifvqeug","pricing_plan_id":"cebpf4jnsgd1na2vs0mg"},{"bike_id":"4ced472f-f4b7-4f24-a55e-de229557c8c7","system_id":"levelo_inurba_marseille","lat":43.285856,"lon":5.350771,"is_reserved":false,"is_disabled":false,"rental_uris":{"android":"levelo://app?vid=4ced472f-f4b7-4f24-a55e-de229557c8c7","ios":"levelo://app?vid=4ced472f-f4b7-4f24-a55e-de229557c8c7"},"vehicle_type_id":"4","last_reported":1723385245,"current_range_meters":24000,"station_id":"ce4bhch2rcd13ifvqeug","pricing_plan_id":"cebpf4jnsgd1na2vs0mg"},{"bike_id":"fb9d9799-22f2-4f48-94e3-b6fdf5b74142","system_id":"levelo_inurba_marseille","lat":43.28617,"lon":5.35099,"is_reserved":false,"is_disabled":false,"rental_uris":{"android":"levelo://app?vid=fb9d9799-22f2-4f48-94e3-b6fdf5b74142","ios":"levelo://app?vid=fb9d9799-22f2-4f48-94e3-b6fdf5b74142"},"vehicle_type_id":"4","last_reported":1723385245,"current_range_meters":28400,"station_id":"ce4bhch2rcd13ifvqeug","pricing_plan_id":"cebpf4jnsgd1na2vs0mg"},{"bike_id":"d4c300d2-5532-475d-b59f-eff111caf924","system_id":"levelo_inurba_marseille","lat":43.28616,"lon":5.35101,"is_reserved":false,"is_disabled":false,"rental_uris":{"android":"levelo://app?vid=d4c300d2-5532-475d-b59f-eff111caf924","ios":"levelo://app?vid=d4c300d2-5532-475d-b59f-eff111caf924"},"vehicle_type_id":"4","last_reported":1723385245,"current_range_meters":31200,"station_id":"ce4bhch2rcd13ifvqeug","pricing_plan_id":"cebpf4jnsgd1na2vs0mg"},{"bike_id":"a08fb2cf-b132-4a49-975a-2edbc16ced72","system_id":"levelo_inurba_marseille","lat":43.285856,"lon":5.350771,"is_reserved":false,"is_disabled":false,"rental_uris":{"android":"levelo://app?vid=a08fb2cf-b132-4a49-975a-2edbc16ced72","ios":"levelo://app?vid=a08fb2cf-b132-4a49-975a-2edbc16ced72"},"vehicle_type_id":"4","last_reported":1723385245,"current_range_meters":9600,"station_id":"ce4bhch2rcd13ifvqeug","pricing_plan_id":"cebpf4jnsgd1na2vs0mg"},{"bike_id":"8da99f23-5f09-4b58-af22-ec9682388e78","system_id":"levelo_inurba_marseille","lat":43.28614,"lon":5.35106,"is_reserved":false,"is_disabled":false,"rental_uris":{"android":"levelo://app?vid=8da99f23-5f09-4b58-af22-ec9682388e78","ios":"levelo://app?vid=8da99f23-5f09-4b58-af22-ec9682388e78"},"vehicle_type_id":"4","last_reported":1723385245,"current_range_meters":11600,"station_id":"ce4bhch2rcd13ifvqeug","pricing_plan_id":"cebpf4jnsgd1na2vs0mg"},{"bike_id":"c35c656c-3d21-433c-859d-03574d37f4d9","system_id":"levelo_inurba_marseille","lat":43.28614,"lon":5.35104,"is_reserved":false,"is_disabled":false,"rental_uris":{"android":"levelo://app?vid=c35c656c-3d21-433c-859d-03574d37f4d9","ios":"levelo://app?vid=c35c656c-3d21-433c-859d-03574d37f4d9"},"vehicle_type_id":"4","last_reported":1723385245,"current_range_meters":30800,"station_id":"ce4bhch2rcd13ifvqeug","pricing_plan_id":"cebpf4jnsgd1na2vs0mg"},{"bike_id":"0f16659c-ee13-4cd1-af1b-325a992a41d9","system_id":"levelo_inurba_marseille","lat":43.28613,"lon":5.35106,"is_reserved":false,"is_disabled":false,"rental_uris":{"android":"levelo://app?vid=0f16659c-ee13-4cd1-af1b-325a992a41d9","ios":"levelo://app?vid=0f16659c-ee13-4cd1-af1b-325a992a41d9"},"vehicle_type_id":"4","last_reported":1723385245,"current_range_meters":21600,"station_id":"ce4bhch2rcd13ifvqeug","pricing_plan_id":"cebpf4jnsgd1na2vs0mg"},{"bike_id":"951db9c6-ace4-4a49-a133-49542671abd5","system_id":"levelo_inurba_marseille","lat":43.28614,"lon":5.35101,"is_reserved":false,"is_disabled":false,"rental_uris":{"android":"levelo://app?vid=951db9c6-ace4-4a49-a133-49542671abd5","ios":"levelo://app?vid=951db9c6-ace4-4a49-a133-49542671abd5"},"vehicle_type_id":"4","last_reported":1723385245,"current_range_meters":11200,"station_id":"ce4bhch2rcd13ifvqeug","pricing_plan_id":"cebpf4jnsgd1na2vs0mg"},{"bike_id":"29a06b00-8120-47e7-a7b8-171468a4bd50","system_id":"levelo_inurba_marseille","lat":43.285856,"lon":5.350771,"is_reserved":false,"is_disabled":false,"rental_uris":{"android":"levelo://app?vid=29a06b00-8120-47e7-a7b8-171468a4bd50","ios":"levelo://app?vid=29a06b00-8120-47e7-a7b8-171468a4bd50"},"vehicle_type_id":"4","last_reported":1723385245,"current_range_meters":31600,"station_id":"ce4bhch2rcd13ifvqeug","pricing_plan_id":"cebpf4jnsgd1na2vs0mg"},{"bike_id":"98b5471a-053d-4de5-90b7-76b235f1ad47","system_id":"levelo_inurba_marseille","lat":43.285856,"lon":5.350771,"is_reserved":false,"is_disabled":false,"rental_uris":{"android":"levelo://app?vid=98b5471a-053d-4de5-90b7-76b235f1ad47","ios":"levelo://app?vid=98b5471a-053d-4de5-90b7-76b235f1ad47"},"vehicle_type_id":"4","last_reported":1723385245,"current_range_meters":31200,"station_id":"ce4bhch2rcd13ifvqeug","pricing_plan_id":"cebpf4jnsgd1na2vs0mg"},{"bike_id":"a4a3c5af-62b2-4159-814e-c4c7be7a58b1","system_id":"levelo_inurba_marseille","lat":43.285856,"lon":5.350771,"is_reserved":false,"is_disabled":false,"rental_uris":{"android":"levelo://app?vid=a4a3c5af-62b2-4159-814e-c4c7be7a58b1","ios":"levelo://app?vid=a4a3c5af-62b2-4159-814e-c4c7be7a58b1"},"vehicle_type_id":"4","last_reported":1723385245,"current_range_meters":31200,"station_id":"ce4bhch2rcd13ifvqeug","pricing_plan_id":"cebpf4jnsgd1na2vs0mg"},{"bike_id":"45004342-90cf-4859-9654-92df203b7128","system_id":"levelo_inurba_marseille","lat":43.285856,"lon":5.350771,"is_reserved":false,"is_disabled":false,"rental_uris":{"android":"levelo://app?vid=45004342-90cf-4859-9654-92df203b7128","ios":"levelo://app?vid=45004342-90cf-4859-9654-92df203b7128"},"vehicle_type_id":"4","last_reported":1723385245,"current_range_meters":31200,"station_id":"ce4bhch2rcd13ifvqeug","pricing_plan_id":"cebpf4jnsgd1na2vs0mg"},{"bike_id":"38ab68cc-cb12-4f73-b098-877db3a848a3","system_id":"levelo_inurba_marseille","lat":43.285856,"lon":5.350771,"is_reserved":false,"is_disabled":false,"rental_uris":{"android":"levelo://app?vid=38ab68cc-cb12-4f73-b098-877db3a848a3","ios":"levelo://app?vid=38ab68cc-cb12-4f73-b098-877db3a848a3"},"vehicle_type_id":"4","last_reported":1723385245,"current_range_meters":30400,"station_id":"ce4bhch2rcd13ifvqeug","pricing_plan_id":"cebpf4jnsgd1na2vs0mg"},{"bike_id":"af685ef5-ffc2-4a56-be4f-944d92de5104","system_id":"levelo_inurba_marseille","lat":43.285856,"lon":5.350771,"is_reserved":false,"is_disabled":false,"rental_uris":{"android":"levelo://app?vid=af685ef5-ffc2-4a56-be4f-944d92de5104","ios":"levelo://app?vid=af685ef5-ffc2-4a56-be4f-944d92de5104"},"vehicle_type_id":"4","last_reported":1723385245,"current_range_meters":31200,"station_id":"ce4bhch2rcd13ifvqeug","pricing_plan_id":"cebpf4jnsgd1na2vs0mg"},{"bike_id":"c9780652-99f7-4a59-b2d8-be4f1032a557","system_id":"levelo_inurba_marseille","lat":43.28609,"lon":5.3511,"is_reserved":false,"is_disabled":false,"rental_uris":{"android":"levelo://app?vid=c9780652-99f7-4a59-b2d8-be4f1032a557","ios":"levelo://app?vid=c9780652-99f7-4a59-b2d8-be4f1032a557"},"vehicle_type_id":"4","last_reported":1723385245,"current_range_meters":22800,"station_id":"ce4bhch2rcd13ifvqeug","pricing_plan_id":"cebpf4jnsgd1na2vs0mg"},{"bike_id":"2a7c3b96-f236-4990-978e-60892bfb1509","system_id":"levelo_inurba_marseille","lat":43.285856,"lon":5.350771,"is_reserved":false,"is_disabled":false,"rental_uris":{"android":"levelo://app?vid=2a7c3b96-f236-4990-978e-60892bfb1509","ios":"levelo://app?vid=2a7c3b96-f236-4990-978e-60892bfb1509"},"vehicle_type_id":"4","last_reported":1723385245,"current_range_meters":31200,"station_id":"ce4bhch2rcd13ifvqeug","pricing_plan_id":"cebpf4jnsgd1na2vs0mg"},{"bike_id":"99428698-1ed5-4669-a3bb-43daae6070ee","system_id":"levelo_inurba_marseille","lat":43.285856,"lon":5.350771,"is_reserved":false,"is_disabled":false,"rental_uris":{"android":"levelo://app?vid=99428698-1ed5-4669-a3bb-43daae6070ee","ios":"levelo://app?vid=99428698-1ed5-4669-a3bb-43daae6070ee"},"vehicle_type_id":"4","last_reported":1723385245,"current_range_meters":29600,"station_id":"ce4bhch2rcd13ifvqeug","pricing_plan_id":"cebpf4jnsgd1na2vs0mg"},{"bike_id":"6383a9ad-866b-4bac-8362-755138db86a0","system_id":"levelo_inurba_marseille","lat":43.285848,"lon":5.350787,"is_reserved":false,"is_disabled":false,"rental_uris":{"android":"levelo://app?vid=6383a9ad-866b-4bac-8362-755138db86a0","ios":"levelo://app?vid=6383a9ad-866b-4bac-8362-755138db86a0"},"vehicle_type_id":"4","last_reported":1723385245,"current_range_meters":31200,"station_id":"ce4bhch2rcd13ifvqeug","pricing_plan_id":"cebpf4jnsgd1na2vs0mg"},{"bike_id":"8cef176a-597e-44d4-8570-8a0a5ffa1d70","system_id":"levelo_inurba_marseille","lat":43.285848,"lon":5.350787,"is_reserved":false,"is_disabled":false,"rental_uris":{"android":"levelo://app?vid=8cef176a-597e-44d4-8570-8a0a5ffa1d70","ios":"levelo://app?vid=8cef176a-597e-44d4-8570-8a0a5ffa1d70"},"vehicle_type_id":"4","last_reported":1723385245,"current_range_meters":18400,"station_id":"ce4bhch2rcd13ifvqeug","pricing_plan_id":"cebpf4jnsgd1na2vs0mg"},{"bike_id":"933911d4-c8a7-4496-a945-a9c0ddc2e717","system_id":"levelo_inurba_marseille","lat":43.323464,"lon":5.406297,"is_reserved":false,"is_disabled":false,"rental_uris":{"android":"levelo://app?vid=933911d4-c8a7-4496-a945-a9c0ddc2e717","ios":"levelo://app?vid=933911d4-c8a7-4496-a945-a9c0ddc2e717"},"vehicle_type_id":"4","last_reported":1723385245,"current_range_meters":31200,"station_id":"ce4bhq92rcd13ifvqhjg","pricing_plan_id":"cebpf4jnsgd1na2vs0mg"},{"bike_id":"05eda3da-4c13-4efe-bf1e-3187d465dc56","system_id":"levelo_inurba_marseille","lat":43.323464,"lon":5.406297,"is_reserved":false,"is_disabled":false,"rental_uris":{"android":"levelo://app?vid=05eda3da-4c13-4efe-bf1e-3187d465dc56","ios":"levelo://app?vid=05eda3da-4c13-4efe-bf1e-3187d465dc56"},"vehicle_type_id":"4","last_reported":1723385245,"current_range_meters":31200,"station_id":"ce4bhq92rcd13ifvqhjg","pricing_plan_id":"cebpf4jnsgd1na2vs0mg"},{"bike_id":"0cff80f7-6af9-4716-9818-6ecd7001036a","system_id":"levelo_inurba_marseille","lat":43.304296,"lon":5.397513,"is_reserved":false,"is_disabled":false,"rental_uris":{"android":"levelo://app?vid=0cff80f7-6af9-4716-9818-6ecd7001036a","ios":"levelo://app?vid=0cff80f7-6af9-4716-9818-6ecd7001036a"},"vehicle_type_id":"4","last_reported":1723385245,"current_range_meters":9200,"station_id":"ce4bh092rcd13ifvqd20","pricing_plan_id":"cebpf4jnsgd1na2vs0mg"},{"bike_id":"eacf47d1-16af-4807-80af-71403d29e5c1","system_id":"levelo_inurba_marseille","lat":43.32342,"lon":5.40623,"is_reserved":false,"is_disabled":false,"rental_uris":{"android":"levelo://app?vid=eacf47d1-16af-4807-80af-71403d29e5c1","ios":"levelo://app?vid=eacf47d1-16af-4807-80af-71403d29e5c1"},"vehicle_type_id":"4","last_reported":1723385245,"current_range_meters":400,"station_id":"ce4bhq92rcd13ifvqhjg","pricing_plan_id":"cebpf4jnsgd1na2vs0mg"},{"bike_id":"60f38dfe-bc05-4d22-ae9e-a47002cd4267","system_id":"levelo_inurba_marseille","lat":43.284735,"lon":5.38415,"is_reserved":false,"is_disabled":false,"rental_uris":{"android":"levelo://app?vid=60f38dfe-bc05-4d22-ae9e-a47002cd4267","ios":"levelo://app?vid=60f38dfe-bc05-4d22-ae9e-a47002cd4267"},"vehicle_type_id":"4","last_reported":1723385245,"current_range_meters":31200,"station_id":"ce4bh512rcd13ifvqe3g","pricing_plan_id":"cebpf4jnsgd1na2vs0mg"},{"bike_id":"1dd06aa9-d0a8-4ad3-94da-209cb2529770","system_id":"levelo_inurba_marseille","lat":43.284787,"lon":5.384116,"is_reserved":false,"is_disabled":false,"rental_uris":{"android":"levelo://app?vid=1dd06aa9-d0a8-4ad3-94da-209cb2529770","ios":"levelo://app?vid=1dd06aa9-d0a8-4ad3-94da-209cb2529770"},"vehicle_type_id":"4","last_reported":1723385245,"current_range_meters":20000,"station_id":"ce4bh512rcd13ifvqe3g","pricing_plan_id":"cebpf4jnsgd1na2vs0mg"},{"bike_id":"550aab68-78d7-44d0-8022-dabfd7923f20","system_id":"levelo_inurba_marseille","lat":43.29795,"lon":5.404086,"is_reserved":false,"is_disabled":false,"rental_uris":{"android":"levelo://app?vid=550aab68-78d7-44d0-8022-dabfd7923f20","ios":"levelo://app?vid=550aab68-78d7-44d0-8022-dabfd7923f20"},"vehicle_type_id":"4","last_reported":1723385245,"current_range_meters":24800,"station_id":"ce4bh112rcd13ifvqd90","pricing_plan_id":"cebpf4jnsgd1na2vs0mg"},{"bike_id":"0a3ed474-4dac-4a8d-9f1b-d53770cc8c44","system_id":"levelo_inurba_marseille","lat":43.323464,"lon":5.406297,"is_reserved":false,"is_disabled":false,"rental_uris":{"android":"levelo://app?vid=0a3ed474-4dac-4a8d-9f1b-d53770cc8c44","ios":"levelo://app?vid=0a3ed474-4dac-4a8d-9f1b-d53770cc8c44"},"vehicle_type_id":"4","last_reported":1723385245,"current_range_meters":9200,"station_id":"ce4bhq92rcd13ifvqhjg","pricing_plan_id":"cebpf4jnsgd1na2vs0mg"},{"bike_id":"10fdca3c-fdb9-4d47-a559-e9f914d604b6","system_id":"levelo_inurba_marseille","lat":43.284257,"lon":5.34999,"is_reserved":false,"is_disabled":false,"rental_uris":{"android":"levelo://app?vid=10fdca3c-fdb9-4d47-a559-e9f914d604b6","ios":"levelo://app?vid=10fdca3c-fdb9-4d47-a559-e9f914d604b6"},"vehicle_type_id":"4","last_reported":1723385245,"current_range_meters":28400,"station_id":"ce4bhbh2rcd13ifvqepg","pricing_plan_id":"cebpf4jnsgd1na2vs0mg"},{"bike_id":"e055aec2-e8bb-4c50-9960-2074355b72cc","system_id":"levelo_inurba_marseille","lat":43.284217,"lon":5.349697,"is_reserved":false,"is_disabled":false,"rental_uris":{"android":"levelo://app?vid=e055aec2-e8bb-4c50-9960-2074355b72cc","ios":"levelo://app?vid=e055aec2-e8bb-4c50-9960-2074355b72cc"},"vehicle_type_id":"4","last_reported":1723385245,"current_range_meters":31200,"station_id":"ce4bhbh2rcd13ifvqepg","pricing_plan_id":"cebpf4jnsgd1na2vs0mg"},{"bike_id":"4479625d-2f26-4b54-ae0f-aa518617e167","system_id":"levelo_inurba_marseille","lat":43.284214,"lon":5.349706,"is_reserved":false,"is_disabled":false,"rental_uris":{"android":"levelo://app?vid=4479625d-2f26-4b54-ae0f-aa518617e167","ios":"levelo://app?vid=4479625d-2f26-4b54-ae0f-aa518617e167"},"vehicle_type_id":"4","last_reported":1723385245,"current_range_meters":18400,"station_id":"ce4bhbh2rcd13ifvqepg","pricing_plan_id":"cebpf4jnsgd1na2vs0mg"},{"bike_id":"0eca502d-98b8-48ac-9612-44051efbecd6","system_id":"levelo_inurba_marseille","lat":43.284217,"lon":5.349697,"is_reserved":false,"is_disabled":false,"rental_uris":{"android":"levelo://app?vid=0eca502d-98b8-48ac-9612-44051efbecd6","ios":"levelo://app?vid=0eca502d-98b8-48ac-9612-44051efbecd6"},"vehicle_type_id":"4","last_reported":1723385245,"current_range_meters":29200,"station_id":"ce4bhbh2rcd13ifvqepg","pricing_plan_id":"cebpf4jnsgd1na2vs0mg"},{"bike_id":"983e0bf7-c078-40b3-b1e2-dee41115a9c9","system_id":"levelo_inurba_marseille","lat":43.28418,"lon":5.35,"is_reserved":false,"is_disabled":false,"rental_uris":{"android":"levelo://app?vid=983e0bf7-c078-40b3-b1e2-dee41115a9c9","ios":"levelo://app?vid=983e0bf7-c078-40b3-b1e2-dee41115a9c9"},"vehicle_type_id":"4","last_reported":1723385245,"current_range_meters":26400,"station_id":"ce4bhbh2rcd13ifvqepg","pricing_plan_id":"cebpf4jnsgd1na2vs0mg"},{"bike_id":"7fc3d50c-e2ba-444f-b963-3d8c961f6108","system_id":"levelo_inurba_marseille","lat":43.284214,"lon":5.349706,"is_reserved":false,"is_disabled":false,"rental_uris":{"android":"levelo://app?vid=7fc3d50c-e2ba-444f-b963-3d8c961f6108","ios":"levelo://app?vid=7fc3d50c-e2ba-444f-b963-3d8c961f6108"},"vehicle_type_id":"4","last_reported":1723385245,"current_range_meters":31200,"station_id":"ce4bhbh2rcd13ifvqepg","pricing_plan_id":"cebpf4jnsgd1na2vs0mg"},{"bike_id":"dca5324e-808b-4cf7-bf6c-1e67ce46e636","system_id":"levelo_inurba_marseille","lat":43.28424,"lon":5.34976,"is_reserved":false,"is_disabled":false,"rental_uris":{"android":"levelo://app?vid=dca5324e-808b-4cf7-bf6c-1e67ce46e636","ios":"levelo://app?vid=dca5324e-808b-4cf7-bf6c-1e67ce46e636"},"vehicle_type_id":"4","last_reported":1723385245,"current_range_meters":27200,"station_id":"ce4bhbh2rcd13ifvqepg","pricing_plan_id":"cebpf4jnsgd1na2vs0mg"},{"bike_id":"f2130e26-5141-4bdd-a5de-04f6ed909f8b","system_id":"levelo_inurba_marseille","lat":43.284214,"lon":5.349706,"is_reserved":false,"is_disabled":false,"rental_uris":{"android":"levelo://app?vid=f2130e26-5141-4bdd-a5de-04f6ed909f8b","ios":"levelo://app?vid=f2130e26-5141-4bdd-a5de-04f6ed909f8b"},"vehicle_type_id":"4","last_reported":1723385245,"current_range_meters":20000,"station_id":"ce4bhbh2rcd13ifvqepg","pricing_plan_id":"cebpf4jnsgd1na2vs0mg"},{"bike_id":"628bf91a-fa5f-49de-8897-725536acb746","system_id":"levelo_inurba_marseille","lat":43.284181,"lon":5.349919,"is_reserved":false,"is_disabled":false,"rental_uris":{"android":"levelo://app?vid=628bf91a-fa5f-49de-8897-725536acb746","ios":"levelo://app?vid=628bf91a-fa5f-49de-8897-725536acb746"},"vehicle_type_id":"4","last_reported":1723385245,"current_range_meters":16800,"station_id":"ce4bhbh2rcd13ifvqepg","pricing_plan_id":"cebpf4jnsgd1na2vs0mg"},{"bike_id":"6fb120ee-1cb7-49ed-9d30-b85a02edef55","system_id":"levelo_inurba_marseille","lat":43.28418,"lon":5.34992,"is_reserved":false,"is_disabled":false,"rental_uris":{"android":"levelo://app?vid=6fb120ee-1cb7-49ed-9d30-b85a02edef55","ios":"levelo://app?vid=6fb120ee-1cb7-49ed-9d30-b85a02edef55"},"vehicle_type_id":"4","last_reported":1723385245,"current_range_meters":31200,"station_id":"ce4bhbh2rcd13ifvqepg","pricing_plan_id":"cebpf4jnsgd1na2vs0mg"},{"bike_id":"b82a87dc-75f4-48f8-a7f2-6220c5cbfc66","system_id":"levelo_inurba_marseille","lat":43.28421,"lon":5.349825,"is_reserved":false,"is_disabled":false,"rental_uris":{"android":"levelo://app?vid=b82a87dc-75f4-48f8-a7f2-6220c5cbfc66","ios":"levelo://app?vid=b82a87dc-75f4-48f8-a7f2-6220c5cbfc66"},"vehicle_type_id":"4","last_reported":1723385245,"current_range_meters":21600,"station_id":"ce4bhbh2rcd13ifvqepg","pricing_plan_id":"cebpf4jnsgd1na2vs0mg"},{"bike_id":"fa61b8cc-6004-4534-9986-a13967a68d2a","system_id":"levelo_inurba_marseille","lat":43.28419,"lon":5.34985,"is_reserved":false,"is_disabled":false,"rental_uris":{"android":"levelo://app?vid=fa61b8cc-6004-4534-9986-a13967a68d2a","ios":"levelo://app?vid=fa61b8cc-6004-4534-9986-a13967a68d2a"},"vehicle_type_id":"4","last_reported":1723385245,"current_range_meters":20400,"station_id":"ce4bhbh2rcd13ifvqepg","pricing_plan_id":"cebpf4jnsgd1na2vs0mg"},{"bike_id":"22236361-64af-4337-9143-5b489176cad0","system_id":"levelo_inurba_marseille","lat":43.28417,"lon":5.34991,"is_reserved":false,"is_disabled":false,"rental_uris":{"android":"levelo://app?vid=22236361-64af-4337-9143-5b489176cad0","ios":"levelo://app?vid=22236361-64af-4337-9143-5b489176cad0"},"vehicle_type_id":"4","last_reported":1723385245,"current_range_meters":12000,"station_id":"ce4bhbh2rcd13ifvqepg","pricing_plan_id":"cebpf4jnsgd1na2vs0mg"},{"bike_id":"6bcbf69c-7cf5-4a9c-a0e6-476a428a4eb0","system_id":"levelo_inurba_marseille","lat":43.28415,"lon":5.34992,"is_reserved":false,"is_disabled":false,"rental_uris":{"android":"levelo://app?vid=6bcbf69c-7cf5-4a9c-a0e6-476a428a4eb0","ios":"levelo://app?vid=6bcbf69c-7cf5-4a9c-a0e6-476a428a4eb0"},"vehicle_type_id":"4","last_reported":1723385245,"current_range_meters":10400,"station_id":"ce4bhbh2rcd13ifvqepg","pricing_plan_id":"cebpf4jnsgd1na2vs0mg"},{"bike_id":"d1b4a59c-4ff0-4f22-809f-0462ec524038","system_id":"levelo_inurba_marseille","lat":43.28415,"lon":5.34992,"is_reserved":false,"is_disabled":false,"rental_uris":{"android":"levelo://app?vid=d1b4a59c-4ff0-4f22-809f-0462ec524038","ios":"levelo://app?vid=d1b4a59c-4ff0-4f22-809f-0462ec524038"},"vehicle_type_id":"4","last_reported":1723385245,"current_range_meters":16400,"station_id":"ce4bhbh2rcd13ifvqepg","pricing_plan_id":"cebpf4jnsgd1na2vs0mg"},{"bike_id":"3b355fe7-6f8c-4dcf-abb7-00c0e0faebe8","system_id":"levelo_inurba_marseille","lat":43.284217,"lon":5.349697,"is_reserved":false,"is_disabled":false,"rental_uris":{"android":"levelo://app?vid=3b355fe7-6f8c-4dcf-abb7-00c0e0faebe8","ios":"levelo://app?vid=3b355fe7-6f8c-4dcf-abb7-00c0e0faebe8"},"vehicle_type_id":"4","last_reported":1723385245,"current_range_meters":31200,"station_id":"ce4bhbh2rcd13ifvqepg","pricing_plan_id":"cebpf4jnsgd1na2vs0mg"},{"bike_id":"d48d4b9b-cf6f-42d9-a22d-fa6e05a888af","system_id":"levelo_inurba_marseille","lat":43.284204,"lon":5.34973,"is_reserved":false,"is_disabled":false,"rental_uris":{"android":"levelo://app?vid=d48d4b9b-cf6f-42d9-a22d-fa6e05a888af","ios":"levelo://app?vid=d48d4b9b-cf6f-42d9-a22d-fa6e05a888af"},"vehicle_type_id":"4","last_reported":1723385245,"current_range_meters":31200,"station_id":"ce4bhbh2rcd13ifvqepg","pricing_plan_id":"cebpf4jnsgd1na2vs0mg"},{"bike_id":"1c64057c-042b-4a99-998c-01f9121fbc9e","system_id":"levelo_inurba_marseille","lat":43.28414,"lon":5.34993,"is_reserved":false,"is_disabled":false,"rental_uris":{"android":"levelo://app?vid=1c64057c-042b-4a99-998c-01f9121fbc9e","ios":"levelo://app?vid=1c64057c-042b-4a99-998c-01f9121fbc9e"},"vehicle_type_id":"4","last_reported":1723385245,"current_range_meters":31200,"station_id":"ce4bhbh2rcd13ifvqepg","pricing_plan_id":"cebpf4jnsgd1na2vs0mg"},{"bike_id":"f67b1dac-4283-4c8a-b874-51ea2c10f0a0","system_id":"levelo_inurba_marseille","lat":43.28416,"lon":5.34985,"is_reserved":false,"is_disabled":false,"rental_uris":{"android":"levelo://app?vid=f67b1dac-4283-4c8a-b874-51ea2c10f0a0","ios":"levelo://app?vid=f67b1dac-4283-4c8a-b874-51ea2c10f0a0"},"vehicle_type_id":"4","last_reported":1723385245,"current_range_meters":31200,"station_id":"ce4bhbh2rcd13ifvqepg","pricing_plan_id":"cebpf4jnsgd1na2vs0mg"},{"bike_id":"9f360e0f-a677-4a19-b0cb-7db0984e072d","system_id":"levelo_inurba_marseille","lat":43.28413,"lon":5.34992,"is_reserved":false,"is_disabled":false,"rental_uris":{"android":"levelo://app?vid=9f360e0f-a677-4a19-b0cb-7db0984e072d","ios":"levelo://app?vid=9f360e0f-a677-4a19-b0cb-7db0984e072d"},"vehicle_type_id":"4","last_reported":1723385245,"current_range_meters":31200,"station_id":"ce4bhbh2rcd13ifvqepg","pricing_plan_id":"cebpf4jnsgd1na2vs0mg"},{"bike_id":"e6b19038-8e5e-4e35-beb4-a994162d0222","system_id":"levelo_inurba_marseille","lat":43.284143,"lon":5.349863,"is_reserved":false,"is_disabled":false,"rental_uris":{"android":"levelo://app?vid=e6b19038-8e5e-4e35-beb4-a994162d0222","ios":"levelo://app?vid=e6b19038-8e5e-4e35-beb4-a994162d0222"},"vehicle_type_id":"4","last_reported":1723385245,"current_range_meters":31200,"station_id":"ce4bhbh2rcd13ifvqepg","pricing_plan_id":"cebpf4jnsgd1na2vs0mg"},{"bike_id":"e962f910-9601-4bae-b4e2-9a5a9375a0c4","system_id":"levelo_inurba_marseille","lat":43.284214,"lon":5.349706,"is_reserved":false,"is_disabled":false,"rental_uris":{"android":"levelo://app?vid=e962f910-9601-4bae-b4e2-9a5a9375a0c4","ios":"levelo://app?vid=e962f910-9601-4bae-b4e2-9a5a9375a0c4"},"vehicle_type_id":"4","last_reported":1723385245,"current_range_meters":14800,"station_id":"ce4bhbh2rcd13ifvqepg","pricing_plan_id":"cebpf4jnsgd1na2vs0mg"},{"bike_id":"483a6382-6ac0-46d4-b06d-b534d6c048e9","system_id":"levelo_inurba_marseille","lat":43.284217,"lon":5.349697,"is_reserved":false,"is_disabled":false,"rental_uris":{"android":"levelo://app?vid=483a6382-6ac0-46d4-b06d-b534d6c048e9","ios":"levelo://app?vid=483a6382-6ac0-46d4-b06d-b534d6c048e9"},"vehicle_type_id":"4","last_reported":1723385245,"current_range_meters":31200,"station_id":"ce4bhbh2rcd13ifvqepg","pricing_plan_id":"cebpf4jnsgd1na2vs0mg"},{"bike_id":"72bda39f-ae75-4e84-9bf9-3fca7bb3c306","system_id":"levelo_inurba_marseille","lat":43.284217,"lon":5.349697,"is_reserved":false,"is_disabled":false,"rental_uris":{"android":"levelo://app?vid=72bda39f-ae75-4e84-9bf9-3fca7bb3c306","ios":"levelo://app?vid=72bda39f-ae75-4e84-9bf9-3fca7bb3c306"},"vehicle_type_id":"4","last_reported":1723385245,"current_range_meters":26000,"station_id":"ce4bhbh2rcd13ifvqepg","pricing_plan_id":"cebpf4jnsgd1na2vs0mg"},{"bike_id":"1e54a4ed-41d9-4930-b1f0-55c9401e8da1","system_id":"levelo_inurba_marseille","lat":43.284217,"lon":5.349697,"is_reserved":false,"is_disabled":false,"rental_uris":{"android":"levelo://app?vid=1e54a4ed-41d9-4930-b1f0-55c9401e8da1","ios":"levelo://app?vid=1e54a4ed-41d9-4930-b1f0-55c9401e8da1"},"vehicle_type_id":"4","last_reported":1723385245,"current_range_meters":31200,"station_id":"ce4bhbh2rcd13ifvqepg","pricing_plan_id":"cebpf4jnsgd1na2vs0mg"},{"bike_id":"ddf95f7b-5eaa-46d5-b4b3-db65e8a30e62","system_id":"levelo_inurba_marseille","lat":43.28412,"lon":5.34989,"is_reserved":false,"is_disabled":false,"rental_uris":{"android":"levelo://app?vid=ddf95f7b-5eaa-46d5-b4b3-db65e8a30e62","ios":"levelo://app?vid=ddf95f7b-5eaa-46d5-b4b3-db65e8a30e62"},"vehicle_type_id":"4","last_reported":1723385245,"current_range_meters":23600,"station_id":"ce4bhbh2rcd13ifvqepg","pricing_plan_id":"cebpf4jnsgd1na2vs0mg"},{"bike_id":"1dfe1b81-fb50-4158-9747-b5348d6ecc4a","system_id":"levelo_inurba_marseille","lat":43.284217,"lon":5.349697,"is_reserved":false,"is_disabled":false,"rental_uris":{"android":"levelo://app?vid=1dfe1b81-fb50-4158-9747-b5348d6ecc4a","ios":"levelo://app?vid=1dfe1b81-fb50-4158-9747-b5348d6ecc4a"},"vehicle_type_id":"4","last_reported":1723385245,"current_range_meters":31600,"station_id":"ce4bhbh2rcd13ifvqepg","pricing_plan_id":"cebpf4jnsgd1na2vs0mg"},{"bike_id":"f5217974-d24f-4796-808c-9ad1702c065e","system_id":"levelo_inurba_marseille","lat":43.284214,"lon":5.349706,"is_reserved":false,"is_disabled":false,"rental_uris":{"android":"levelo://app?vid=f5217974-d24f-4796-808c-9ad1702c065e","ios":"levelo://app?vid=f5217974-d24f-4796-808c-9ad1702c065e"},"vehicle_type_id":"4","last_reported":1723385245,"current_range_meters":31200,"station_id":"ce4bhbh2rcd13ifvqepg","pricing_plan_id":"cebpf4jnsgd1na2vs0mg"},{"bike_id":"855443ca-e626-462d-9fa6-6c99df11dd6b","system_id":"levelo_inurba_marseille","lat":43.284217,"lon":5.349697,"is_reserved":false,"is_disabled":false,"rental_uris":{"android":"levelo://app?vid=855443ca-e626-462d-9fa6-6c99df11dd6b","ios":"levelo://app?vid=855443ca-e626-462d-9fa6-6c99df11dd6b"},"vehicle_type_id":"4","last_reported":1723385245,"current_range_meters":10400,"station_id":"ce4bhbh2rcd13ifvqepg","pricing_plan_id":"cebpf4jnsgd1na2vs0mg"},{"bike_id":"fc9e4aac-b755-4b68-a4ae-78fcfd49c430","system_id":"levelo_inurba_marseille","lat":43.284214,"lon":5.349706,"is_reserved":false,"is_disabled":false,"rental_uris":{"android":"levelo://app?vid=fc9e4aac-b755-4b68-a4ae-78fcfd49c430","ios":"levelo://app?vid=fc9e4aac-b755-4b68-a4ae-78fcfd49c430"},"vehicle_type_id":"4","last_reported":1723385245,"current_range_meters":31200,"station_id":"ce4bhbh2rcd13ifvqepg","pricing_plan_id":"cebpf4jnsgd1na2vs0mg"},{"bike_id":"b2b8e03f-801b-4940-a402-a897f03f6b30","system_id":"levelo_inurba_marseille","lat":43.284217,"lon":5.349697,"is_reserved":false,"is_disabled":false,"rental_uris":{"android":"levelo://app?vid=b2b8e03f-801b-4940-a402-a897f03f6b30","ios":"levelo://app?vid=b2b8e03f-801b-4940-a402-a897f03f6b30"},"vehicle_type_id":"4","last_reported":1723385245,"current_range_meters":31200,"station_id":"ce4bhbh2rcd13ifvqepg","pricing_plan_id":"cebpf4jnsgd1na2vs0mg"},{"bike_id":"6ebe516e-3164-45ee-b8ef-fcb189e1d292","system_id":"levelo_inurba_marseille","lat":43.284217,"lon":5.349697,"is_reserved":false,"is_disabled":false,"rental_uris":{"android":"levelo://app?vid=6ebe516e-3164-45ee-b8ef-fcb189e1d292","ios":"levelo://app?vid=6ebe516e-3164-45ee-b8ef-fcb189e1d292"},"vehicle_type_id":"4","last_reported":1723385245,"current_range_meters":22000,"station_id":"ce4bhbh2rcd13ifvqepg","pricing_plan_id":"cebpf4jnsgd1na2vs0mg"},{"bike_id":"cbf6b297-e229-4cdf-a80d-ffd171870f99","system_id":"levelo_inurba_marseille","lat":43.284217,"lon":5.349697,"is_reserved":false,"is_disabled":false,"rental_uris":{"android":"levelo://app?vid=cbf6b297-e229-4cdf-a80d-ffd171870f99","ios":"levelo://app?vid=cbf6b297-e229-4cdf-a80d-ffd171870f99"},"vehicle_type_id":"4","last_reported":1723385245,"current_range_meters":21200,"station_id":"ce4bhbh2rcd13ifvqepg","pricing_plan_id":"cebpf4jnsgd1na2vs0mg"},{"bike_id":"b9028d3e-6f07-4e3b-b943-d16df31e3233","system_id":"levelo_inurba_marseille","lat":43.284217,"lon":5.349697,"is_reserved":false,"is_disabled":false,"rental_uris":{"android":"levelo://app?vid=b9028d3e-6f07-4e3b-b943-d16df31e3233","ios":"levelo://app?vid=b9028d3e-6f07-4e3b-b943-d16df31e3233"},"vehicle_type_id":"4","last_reported":1723385245,"current_range_meters":31200,"station_id":"ce4bhbh2rcd13ifvqepg","pricing_plan_id":"cebpf4jnsgd1na2vs0mg"},{"bike_id":"790248bf-2657-40ea-a6a9-bd05123e3e2c","system_id":"levelo_inurba_marseille","lat":43.284217,"lon":5.349697,"is_reserved":false,"is_disabled":false,"rental_uris":{"android":"levelo://app?vid=790248bf-2657-40ea-a6a9-bd05123e3e2c","ios":"levelo://app?vid=790248bf-2657-40ea-a6a9-bd05123e3e2c"},"vehicle_type_id":"4","last_reported":1723385245,"current_range_meters":31200,"station_id":"ce4bhbh2rcd13ifvqepg","pricing_plan_id":"cebpf4jnsgd1na2vs0mg"},{"bike_id":"8a9edcbb-f2f1-4906-ba91-4f3c595d1806","system_id":"levelo_inurba_marseille","lat":43.284217,"lon":5.349697,"is_reserved":false,"is_disabled":false,"rental_uris":{"android":"levelo://app?vid=8a9edcbb-f2f1-4906-ba91-4f3c595d1806","ios":"levelo://app?vid=8a9edcbb-f2f1-4906-ba91-4f3c595d1806"},"vehicle_type_id":"4","last_reported":1723385245,"current_range_meters":12000,"station_id":"ce4bhbh2rcd13ifvqepg","pricing_plan_id":"cebpf4jnsgd1na2vs0mg"},{"bike_id":"7feeaf97-0455-42e1-aa5e-b3c08b1aea21","system_id":"levelo_inurba_marseille","lat":43.28407,"lon":5.34991,"is_reserved":false,"is_disabled":false,"rental_uris":{"android":"levelo://app?vid=7feeaf97-0455-42e1-aa5e-b3c08b1aea21","ios":"levelo://app?vid=7feeaf97-0455-42e1-aa5e-b3c08b1aea21"},"vehicle_type_id":"4","last_reported":1723385245,"current_range_meters":31200,"station_id":"ce4bhbh2rcd13ifvqepg","pricing_plan_id":"cebpf4jnsgd1na2vs0mg"},{"bike_id":"8cf982e2-38b2-4fcd-8356-588f9a386b85","system_id":"levelo_inurba_marseille","lat":43.28409,"lon":5.34984,"is_reserved":false,"is_disabled":false,"rental_uris":{"android":"levelo://app?vid=8cf982e2-38b2-4fcd-8356-588f9a386b85","ios":"levelo://app?vid=8cf982e2-38b2-4fcd-8356-588f9a386b85"},"vehicle_type_id":"4","last_reported":1723385245,"current_range_meters":17600,"station_id":"ce4bhbh2rcd13ifvqepg","pricing_plan_id":"cebpf4jnsgd1na2vs0mg"},{"bike_id":"b2a34bca-2222-48d8-aa6d-5f2e4ce45063","system_id":"levelo_inurba_marseille","lat":43.2841,"lon":5.34979,"is_reserved":false,"is_disabled":false,"rental_uris":{"android":"levelo://app?vid=b2a34bca-2222-48d8-aa6d-5f2e4ce45063","ios":"levelo://app?vid=b2a34bca-2222-48d8-aa6d-5f2e4ce45063"},"vehicle_type_id":"4","last_reported":1723385245,"current_range_meters":8400,"station_id":"ce4bhbh2rcd13ifvqepg","pricing_plan_id":"cebpf4jnsgd1na2vs0mg"},{"bike_id":"97289d8b-ede1-43da-a0e0-cb44297dc664","system_id":"levelo_inurba_marseille","lat":43.284214,"lon":5.349706,"is_reserved":false,"is_disabled":false,"rental_uris":{"android":"levelo://app?vid=97289d8b-ede1-43da-a0e0-cb44297dc664","ios":"levelo://app?vid=97289d8b-ede1-43da-a0e0-cb44297dc664"},"vehicle_type_id":"4","last_reported":1723385245,"current_range_meters":30800,"station_id":"ce4bhbh2rcd13ifvqepg","pricing_plan_id":"cebpf4jnsgd1na2vs0mg"},{"bike_id":"ebc1bc95-ec06-4e73-838b-6569461f4c07","system_id":"levelo_inurba_marseille","lat":43.28409,"lon":5.34981,"is_reserved":false,"is_disabled":false,"rental_uris":{"android":"levelo://app?vid=ebc1bc95-ec06-4e73-838b-6569461f4c07","ios":"levelo://app?vid=ebc1bc95-ec06-4e73-838b-6569461f4c07"},"vehicle_type_id":"4","last_reported":1723385245,"current_range_meters":22000,"station_id":"ce4bhbh2rcd13ifvqepg","pricing_plan_id":"cebpf4jnsgd1na2vs0mg"},{"bike_id":"4ee5a10e-8e7e-4a22-9f47-39a2ac606387","system_id":"levelo_inurba_marseille","lat":43.284059,"lon":5.349906,"is_reserved":false,"is_disabled":false,"rental_uris":{"android":"levelo://app?vid=4ee5a10e-8e7e-4a22-9f47-39a2ac606387","ios":"levelo://app?vid=4ee5a10e-8e7e-4a22-9f47-39a2ac606387"},"vehicle_type_id":"4","last_reported":1723385245,"current_range_meters":27600,"station_id":"ce4bhbh2rcd13ifvqepg","pricing_plan_id":"cebpf4jnsgd1na2vs0mg"},{"bike_id":"585112e8-670e-4a41-8a9c-0ad7da937c0d","system_id":"levelo_inurba_marseille","lat":43.284214,"lon":5.349706,"is_reserved":false,"is_disabled":false,"rental_uris":{"android":"levelo://app?vid=585112e8-670e-4a41-8a9c-0ad7da937c0d","ios":"levelo://app?vid=585112e8-670e-4a41-8a9c-0ad7da937c0d"},"vehicle_type_id":"4","last_reported":1723385245,"current_range_meters":11600,"station_id":"ce4bhbh2rcd13ifvqepg","pricing_plan_id":"cebpf4jnsgd1na2vs0mg"},{"bike_id":"70dd4b46-c263-45a0-8de1-154a8d0e8ef2","system_id":"levelo_inurba_marseille","lat":43.28407,"lon":5.34978,"is_reserved":false,"is_disabled":false,"rental_uris":{"android":"levelo://app?vid=70dd4b46-c263-45a0-8de1-154a8d0e8ef2","ios":"levelo://app?vid=70dd4b46-c263-45a0-8de1-154a8d0e8ef2"},"vehicle_type_id":"4","last_reported":1723385245,"current_range_meters":31200,"station_id":"ce4bhbh2rcd13ifvqepg","pricing_plan_id":"cebpf4jnsgd1na2vs0mg"},{"bike_id":"2d1e2f6a-4e7a-4f06-ab5a-e03a10622472","system_id":"levelo_inurba_marseille","lat":43.284214,"lon":5.349706,"is_reserved":false,"is_disabled":false,"rental_uris":{"android":"levelo://app?vid=2d1e2f6a-4e7a-4f06-ab5a-e03a10622472","ios":"levelo://app?vid=2d1e2f6a-4e7a-4f06-ab5a-e03a10622472"},"vehicle_type_id":"4","last_reported":1723385245,"current_range_meters":31200,"station_id":"ce4bhbh2rcd13ifvqepg","pricing_plan_id":"cebpf4jnsgd1na2vs0mg"},{"bike_id":"24a6d260-9996-4144-8dc7-12a750a0fd9d","system_id":"levelo_inurba_marseille","lat":43.295748,"lon":5.37522,"is_reserved":false,"is_disabled":false,"rental_uris":{"android":"levelo://app?vid=24a6d260-9996-4144-8dc7-12a750a0fd9d","ios":"levelo://app?vid=24a6d260-9996-4144-8dc7-12a750a0fd9d"},"vehicle_type_id":"4","last_reported":1723385245,"current_range_meters":13200,"station_id":"ce4bgh92rcd13ifvqb50","pricing_plan_id":"cebpf4jnsgd1na2vs0mg"},{"bike_id":"f92d70ec-32d0-4a03-9f2d-393da387fdb5","system_id":"levelo_inurba_marseille","lat":43.28305,"lon":5.35046,"is_reserved":false,"is_disabled":false,"rental_uris":{"android":"levelo://app?vid=f92d70ec-32d0-4a03-9f2d-393da387fdb5","ios":"levelo://app?vid=f92d70ec-32d0-4a03-9f2d-393da387fdb5"},"vehicle_type_id":"4","last_reported":1723385245,"current_range_meters":31200,"station_id":"ce4bhbp2rcd13ifvqerg","pricing_plan_id":"cebpf4jnsgd1na2vs0mg"},{"bike_id":"2d4585ec-c57b-4fa3-8571-548f46be3a92","system_id":"levelo_inurba_marseille","lat":43.29409,"lon":5.402703,"is_reserved":false,"is_disabled":false,"rental_uris":{"android":"levelo://app?vid=2d4585ec-c57b-4fa3-8571-548f46be3a92","ios":"levelo://app?vid=2d4585ec-c57b-4fa3-8571-548f46be3a92"},"vehicle_type_id":"4","last_reported":1723385245,"current_range_meters":6400,"station_id":"","pricing_plan_id":"cebpf4jnsgd1na2vs0mg"},{"bike_id":"50c6f641-d877-4478-baf4-bc585778fd59","system_id":"levelo_inurba_marseille","lat":43.28296,"lon":5.35066,"is_reserved":false,"is_disabled":false,"rental_uris":{"android":"levelo://app?vid=50c6f641-d877-4478-baf4-bc585778fd59","ios":"levelo://app?vid=50c6f641-d877-4478-baf4-bc585778fd59"},"vehicle_type_id":"4","last_reported":1723385245,"current_range_meters":31200,"station_id":"ce4bhbp2rcd13ifvqerg","pricing_plan_id":"cebpf4jnsgd1na2vs0mg"},{"bike_id":"a63ad183-4115-45fa-a9d6-beed18c68bf4","system_id":"levelo_inurba_marseille","lat":43.282744,"lon":5.350533,"is_reserved":false,"is_disabled":false,"rental_uris":{"android":"levelo://app?vid=a63ad183-4115-45fa-a9d6-beed18c68bf4","ios":"levelo://app?vid=a63ad183-4115-45fa-a9d6-beed18c68bf4"},"vehicle_type_id":"4","last_reported":1723385245,"current_range_meters":24800,"station_id":"ce4bhbp2rcd13ifvqerg","pricing_plan_id":"cebpf4jnsgd1na2vs0mg"},{"bike_id":"0e0e4854-f76d-40b6-8bb3-da1b8f642707","system_id":"levelo_inurba_marseille","lat":43.282744,"lon":5.350533,"is_reserved":false,"is_disabled":false,"rental_uris":{"android":"levelo://app?vid=0e0e4854-f76d-40b6-8bb3-da1b8f642707","ios":"levelo://app?vid=0e0e4854-f76d-40b6-8bb3-da1b8f642707"},"vehicle_type_id":"4","last_reported":1723385245,"current_range_meters":31200,"station_id":"ce4bhbp2rcd13ifvqerg","pricing_plan_id":"cebpf4jnsgd1na2vs0mg"},{"bike_id":"2cfd3764-d979-4beb-91aa-6a0e69e4876c","system_id":"levelo_inurba_marseille","lat":43.282744,"lon":5.350533,"is_reserved":false,"is_disabled":false,"rental_uris":{"android":"levelo://app?vid=2cfd3764-d979-4beb-91aa-6a0e69e4876c","ios":"levelo://app?vid=2cfd3764-d979-4beb-91aa-6a0e69e4876c"},"vehicle_type_id":"4","last_reported":1723385245,"current_range_meters":31200,"station_id":"ce4bhbp2rcd13ifvqerg","pricing_plan_id":"cebpf4jnsgd1na2vs0mg"},{"bike_id":"df0e41dc-8b5b-4561-832a-b17908e157b0","system_id":"levelo_inurba_marseille","lat":43.282744,"lon":5.350533,"is_reserved":false,"is_disabled":false,"rental_uris":{"android":"levelo://app?vid=df0e41dc-8b5b-4561-832a-b17908e157b0","ios":"levelo://app?vid=df0e41dc-8b5b-4561-832a-b17908e157b0"},"vehicle_type_id":"4","last_reported":1723385245,"current_range_meters":0,"station_id":"ce4bhbp2rcd13ifvqerg","pricing_plan_id":"cebpf4jnsgd1na2vs0mg"},{"bike_id":"16f92506-0a25-4cea-ba6c-d80ee0c3660c","system_id":"levelo_inurba_marseille","lat":43.2827,"lon":5.35071,"is_reserved":false,"is_disabled":false,"rental_uris":{"android":"levelo://app?vid=16f92506-0a25-4cea-ba6c-d80ee0c3660c","ios":"levelo://app?vid=16f92506-0a25-4cea-ba6c-d80ee0c3660c"},"vehicle_type_id":"4","last_reported":1723385245,"current_range_meters":29200,"station_id":"ce4bhbp2rcd13ifvqerg","pricing_plan_id":"cebpf4jnsgd1na2vs0mg"},{"bike_id":"d5cd2fa3-d87c-49c3-8a0b-b653e80756ff","system_id":"levelo_inurba_marseille","lat":43.282744,"lon":5.350533,"is_reserved":false,"is_disabled":false,"rental_uris":{"android":"levelo://app?vid=d5cd2fa3-d87c-49c3-8a0b-b653e80756ff","ios":"levelo://app?vid=d5cd2fa3-d87c-49c3-8a0b-b653e80756ff"},"vehicle_type_id":"4","last_reported":1723385245,"current_range_meters":31200,"station_id":"ce4bhbp2rcd13ifvqerg","pricing_plan_id":"cebpf4jnsgd1na2vs0mg"},{"bike_id":"00d4319c-87d0-4220-93df-3d2668157837","system_id":"levelo_inurba_marseille","lat":43.28273,"lon":5.35059,"is_reserved":false,"is_disabled":false,"rental_uris":{"android":"levelo://app?vid=00d4319c-87d0-4220-93df-3d2668157837","ios":"levelo://app?vid=00d4319c-87d0-4220-93df-3d2668157837"},"vehicle_type_id":"4","last_reported":1723385245,"current_range_meters":18800,"station_id":"ce4bhbp2rcd13ifvqerg","pricing_plan_id":"cebpf4jnsgd1na2vs0mg"},{"bike_id":"348c1783-c5eb-4969-97fc-885644375d07","system_id":"levelo_inurba_marseille","lat":43.282705,"lon":5.350655,"is_reserved":false,"is_disabled":false,"rental_uris":{"android":"levelo://app?vid=348c1783-c5eb-4969-97fc-885644375d07","ios":"levelo://app?vid=348c1783-c5eb-4969-97fc-885644375d07"},"vehicle_type_id":"4","last_reported":1723385245,"current_range_meters":17600,"station_id":"ce4bhbp2rcd13ifvqerg","pricing_plan_id":"cebpf4jnsgd1na2vs0mg"},{"bike_id":"c9c741db-47d2-4ac3-9b46-d91dac18b680","system_id":"levelo_inurba_marseille","lat":43.28267,"lon":5.35076,"is_reserved":false,"is_disabled":false,"rental_uris":{"android":"levelo://app?vid=c9c741db-47d2-4ac3-9b46-d91dac18b680","ios":"levelo://app?vid=c9c741db-47d2-4ac3-9b46-d91dac18b680"},"vehicle_type_id":"4","last_reported":1723385245,"current_range_meters":2800,"station_id":"ce4bhbp2rcd13ifvqerg","pricing_plan_id":"cebpf4jnsgd1na2vs0mg"},{"bike_id":"1b2411f5-995a-4614-9003-a3db118afb74","system_id":"levelo_inurba_marseille","lat":43.282744,"lon":5.350533,"is_reserved":false,"is_disabled":false,"rental_uris":{"android":"levelo://app?vid=1b2411f5-995a-4614-9003-a3db118afb74","ios":"levelo://app?vid=1b2411f5-995a-4614-9003-a3db118afb74"},"vehicle_type_id":"4","last_reported":1723385245,"current_range_meters":31200,"station_id":"ce4bhbp2rcd13ifvqerg","pricing_plan_id":"cebpf4jnsgd1na2vs0mg"},{"bike_id":"7fed7947-62ed-4f41-b1ea-30a1c66e976f","system_id":"levelo_inurba_marseille","lat":43.282744,"lon":5.350533,"is_reserved":false,"is_disabled":false,"rental_uris":{"android":"levelo://app?vid=7fed7947-62ed-4f41-b1ea-30a1c66e976f","ios":"levelo://app?vid=7fed7947-62ed-4f41-b1ea-30a1c66e976f"},"vehicle_type_id":"4","last_reported":1723385245,"current_range_meters":31200,"station_id":"ce4bhbp2rcd13ifvqerg","pricing_plan_id":"cebpf4jnsgd1na2vs0mg"},{"bike_id":"8a2fd884-6c46-4adc-bc00-9a7779a33144","system_id":"levelo_inurba_marseille","lat":43.282744,"lon":5.350533,"is_reserved":false,"is_disabled":false,"rental_uris":{"android":"levelo://app?vid=8a2fd884-6c46-4adc-bc00-9a7779a33144","ios":"levelo://app?vid=8a2fd884-6c46-4adc-bc00-9a7779a33144"},"vehicle_type_id":"4","last_reported":1723385245,"current_range_meters":29600,"station_id":"ce4bhbp2rcd13ifvqerg","pricing_plan_id":"cebpf4jnsgd1na2vs0mg"},{"bike_id":"0168d037-5b13-43f3-95c5-a91b419839c5","system_id":"levelo_inurba_marseille","lat":43.28268,"lon":5.35066,"is_reserved":false,"is_disabled":false,"rental_uris":{"android":"levelo://app?vid=0168d037-5b13-43f3-95c5-a91b419839c5","ios":"levelo://app?vid=0168d037-5b13-43f3-95c5-a91b419839c5"},"vehicle_type_id":"4","last_reported":1723385245,"current_range_meters":3600,"station_id":"ce4bhbp2rcd13ifvqerg","pricing_plan_id":"cebpf4jnsgd1na2vs0mg"},{"bike_id":"cbdedbfd-82fd-4c4b-b79a-242f539dc69b","system_id":"levelo_inurba_marseille","lat":43.28271,"lon":5.35055,"is_reserved":false,"is_disabled":false,"rental_uris":{"android":"levelo://app?vid=cbdedbfd-82fd-4c4b-b79a-242f539dc69b","ios":"levelo://app?vid=cbdedbfd-82fd-4c4b-b79a-242f539dc69b"},"vehicle_type_id":"4","last_reported":1723385245,"current_range_meters":12000,"station_id":"ce4bhbp2rcd13ifvqerg","pricing_plan_id":"cebpf4jnsgd1na2vs0mg"},{"bike_id":"ccea70fd-c8ca-4c6e-9a91-d3e25b0df850","system_id":"levelo_inurba_marseille","lat":43.28268,"lon":5.350643,"is_reserved":false,"is_disabled":false,"rental_uris":{"android":"levelo://app?vid=ccea70fd-c8ca-4c6e-9a91-d3e25b0df850","ios":"levelo://app?vid=ccea70fd-c8ca-4c6e-9a91-d3e25b0df850"},"vehicle_type_id":"4","last_reported":1723385245,"current_range_meters":26000,"station_id":"ce4bhbp2rcd13ifvqerg","pricing_plan_id":"cebpf4jnsgd1na2vs0mg"},{"bike_id":"5a2a678e-c97b-4751-ab94-b104a5028a2a","system_id":"levelo_inurba_marseille","lat":43.28264,"lon":5.35075,"is_reserved":false,"is_disabled":false,"rental_uris":{"android":"levelo://app?vid=5a2a678e-c97b-4751-ab94-b104a5028a2a","ios":"levelo://app?vid=5a2a678e-c97b-4751-ab94-b104a5028a2a"},"vehicle_type_id":"4","last_reported":1723385245,"current_range_meters":16400,"station_id":"ce4bhbp2rcd13ifvqerg","pricing_plan_id":"cebpf4jnsgd1na2vs0mg"},{"bike_id":"bf01de74-ecf1-486b-9634-faa680e01b34","system_id":"levelo_inurba_marseille","lat":43.282744,"lon":5.350533,"is_reserved":false,"is_disabled":false,"rental_uris":{"android":"levelo://app?vid=bf01de74-ecf1-486b-9634-faa680e01b34","ios":"levelo://app?vid=bf01de74-ecf1-486b-9634-faa680e01b34"},"vehicle_type_id":"4","last_reported":1723385245,"current_range_meters":12000,"station_id":"ce4bhbp2rcd13ifvqerg","pricing_plan_id":"cebpf4jnsgd1na2vs0mg"},{"bike_id":"80456c15-99c3-4d3a-acc8-f2dc9a62068c","system_id":"levelo_inurba_marseille","lat":43.282744,"lon":5.350533,"is_reserved":false,"is_disabled":false,"rental_uris":{"android":"levelo://app?vid=80456c15-99c3-4d3a-acc8-f2dc9a62068c","ios":"levelo://app?vid=80456c15-99c3-4d3a-acc8-f2dc9a62068c"},"vehicle_type_id":"4","last_reported":1723385245,"current_range_meters":30000,"station_id":"ce4bhbp2rcd13ifvqerg","pricing_plan_id":"cebpf4jnsgd1na2vs0mg"},{"bike_id":"78a2ab39-3f49-4d93-9d32-d96d4e0c494b","system_id":"levelo_inurba_marseille","lat":43.282744,"lon":5.350533,"is_reserved":false,"is_disabled":false,"rental_uris":{"android":"levelo://app?vid=78a2ab39-3f49-4d93-9d32-d96d4e0c494b","ios":"levelo://app?vid=78a2ab39-3f49-4d93-9d32-d96d4e0c494b"},"vehicle_type_id":"4","last_reported":1723385245,"current_range_meters":10800,"station_id":"ce4bhbp2rcd13ifvqerg","pricing_plan_id":"cebpf4jnsgd1na2vs0mg"},{"bike_id":"1feeef8e-78a6-4cb7-bd3c-3ae8f00a95ad","system_id":"levelo_inurba_marseille","lat":43.28267,"lon":5.350605,"is_reserved":false,"is_disabled":false,"rental_uris":{"android":"levelo://app?vid=1feeef8e-78a6-4cb7-bd3c-3ae8f00a95ad","ios":"levelo://app?vid=1feeef8e-78a6-4cb7-bd3c-3ae8f00a95ad"},"vehicle_type_id":"4","last_reported":1723385245,"current_range_meters":5200,"station_id":"ce4bhbp2rcd13ifvqerg","pricing_plan_id":"cebpf4jnsgd1na2vs0mg"},{"bike_id":"bc7280d9-8922-454a-bdb1-9f0078517160","system_id":"levelo_inurba_marseille","lat":43.28263,"lon":5.35072,"is_reserved":false,"is_disabled":false,"rental_uris":{"android":"levelo://app?vid=bc7280d9-8922-454a-bdb1-9f0078517160","ios":"levelo://app?vid=bc7280d9-8922-454a-bdb1-9f0078517160"},"vehicle_type_id":"4","last_reported":1723385245,"current_range_meters":30800,"station_id":"ce4bhbp2rcd13ifvqerg","pricing_plan_id":"cebpf4jnsgd1na2vs0mg"},{"bike_id":"1f7ea3ee-867e-4c3e-941f-281d57eb022a","system_id":"levelo_inurba_marseille","lat":43.282744,"lon":5.350533,"is_reserved":false,"is_disabled":false,"rental_uris":{"android":"levelo://app?vid=1f7ea3ee-867e-4c3e-941f-281d57eb022a","ios":"levelo://app?vid=1f7ea3ee-867e-4c3e-941f-281d57eb022a"},"vehicle_type_id":"4","last_reported":1723385245,"current_range_meters":27600,"station_id":"ce4bhbp2rcd13ifvqerg","pricing_plan_id":"cebpf4jnsgd1na2vs0mg"},{"bike_id":"f8d70501-171f-473d-8635-317c95ebbd4b","system_id":"levelo_inurba_marseille","lat":43.28263,"lon":5.35067,"is_reserved":false,"is_disabled":false,"rental_uris":{"android":"levelo://app?vid=f8d70501-171f-473d-8635-317c95ebbd4b","ios":"levelo://app?vid=f8d70501-171f-473d-8635-317c95ebbd4b"},"vehicle_type_id":"4","last_reported":1723385245,"current_range_meters":400,"station_id":"ce4bhbp2rcd13ifvqerg","pricing_plan_id":"cebpf4jnsgd1na2vs0mg"},{"bike_id":"f6b530e7-5684-4468-839e-5107dc837c6b","system_id":"levelo_inurba_marseille","lat":43.28266,"lon":5.35056,"is_reserved":false,"is_disabled":false,"rental_uris":{"android":"levelo://app?vid=f6b530e7-5684-4468-839e-5107dc837c6b","ios":"levelo://app?vid=f6b530e7-5684-4468-839e-5107dc837c6b"},"vehicle_type_id":"4","last_reported":1723385245,"current_range_meters":14000,"station_id":"ce4bhbp2rcd13ifvqerg","pricing_plan_id":"cebpf4jnsgd1na2vs0mg"},{"bike_id":"7992e060-8513-4909-8757-a0bd03a8389b","system_id":"levelo_inurba_marseille","lat":43.282617,"lon":5.35071,"is_reserved":false,"is_disabled":false,"rental_uris":{"android":"levelo://app?vid=7992e060-8513-4909-8757-a0bd03a8389b","ios":"levelo://app?vid=7992e060-8513-4909-8757-a0bd03a8389b"},"vehicle_type_id":"4","last_reported":1723385245,"current_range_meters":26000,"station_id":"ce4bhbp2rcd13ifvqerg","pricing_plan_id":"cebpf4jnsgd1na2vs0mg"},{"bike_id":"0ce9797c-9eaf-475a-a8c9-61e2dea009df","system_id":"levelo_inurba_marseille","lat":43.282665,"lon":5.35053,"is_reserved":false,"is_disabled":false,"rental_uris":{"android":"levelo://app?vid=0ce9797c-9eaf-475a-a8c9-61e2dea009df","ios":"levelo://app?vid=0ce9797c-9eaf-475a-a8c9-61e2dea009df"},"vehicle_type_id":"4","last_reported":1723385245,"current_range_meters":8400,"station_id":"ce4bhbp2rcd13ifvqerg","pricing_plan_id":"cebpf4jnsgd1na2vs0mg"},{"bike_id":"a7ba2f9e-0b7c-466f-97d6-b08b7ad06f27","system_id":"levelo_inurba_marseille","lat":43.28263,"lon":5.35064,"is_reserved":false,"is_disabled":false,"rental_uris":{"android":"levelo://app?vid=a7ba2f9e-0b7c-466f-97d6-b08b7ad06f27","ios":"levelo://app?vid=a7ba2f9e-0b7c-466f-97d6-b08b7ad06f27"},"vehicle_type_id":"4","last_reported":1723385245,"current_range_meters":14000,"station_id":"ce4bhbp2rcd13ifvqerg","pricing_plan_id":"cebpf4jnsgd1na2vs0mg"},{"bike_id":"255b3f28-0939-4458-be0a-7f1b27b2e556","system_id":"levelo_inurba_marseille","lat":43.28264,"lon":5.35059,"is_reserved":false,"is_disabled":false,"rental_uris":{"android":"levelo://app?vid=255b3f28-0939-4458-be0a-7f1b27b2e556","ios":"levelo://app?vid=255b3f28-0939-4458-be0a-7f1b27b2e556"},"vehicle_type_id":"4","last_reported":1723385245,"current_range_meters":12000,"station_id":"ce4bhbp2rcd13ifvqerg","pricing_plan_id":"cebpf4jnsgd1na2vs0mg"},{"bike_id":"a7c8deb6-c4ce-4965-8582-4885a796cc8c","system_id":"levelo_inurba_marseille","lat":43.28263,"lon":5.35062,"is_reserved":false,"is_disabled":false,"rental_uris":{"android":"levelo://app?vid=a7c8deb6-c4ce-4965-8582-4885a796cc8c","ios":"levelo://app?vid=a7c8deb6-c4ce-4965-8582-4885a796cc8c"},"vehicle_type_id":"4","last_reported":1723385245,"current_range_meters":1200,"station_id":"ce4bhbp2rcd13ifvqerg","pricing_plan_id":"cebpf4jnsgd1na2vs0mg"},{"bike_id":"eb6add84-ba98-4fc2-bacd-f59817cdeeb0","system_id":"levelo_inurba_marseille","lat":43.28259,"lon":5.35074,"is_reserved":false,"is_disabled":false,"rental_uris":{"android":"levelo://app?vid=eb6add84-ba98-4fc2-bacd-f59817cdeeb0","ios":"levelo://app?vid=eb6add84-ba98-4fc2-bacd-f59817cdeeb0"},"vehicle_type_id":"4","last_reported":1723385245,"current_range_meters":21600,"station_id":"ce4bhbp2rcd13ifvqerg","pricing_plan_id":"cebpf4jnsgd1na2vs0mg"},{"bike_id":"39ba5b1b-f432-4398-ade5-e0f13fea05cf","system_id":"levelo_inurba_marseille","lat":43.2826,"lon":5.3507,"is_reserved":false,"is_disabled":false,"rental_uris":{"android":"levelo://app?vid=39ba5b1b-f432-4398-ade5-e0f13fea05cf","ios":"levelo://app?vid=39ba5b1b-f432-4398-ade5-e0f13fea05cf"},"vehicle_type_id":"4","last_reported":1723385245,"current_range_meters":11600,"station_id":"ce4bhbp2rcd13ifvqerg","pricing_plan_id":"cebpf4jnsgd1na2vs0mg"},{"bike_id":"0018fea5-4d72-443c-b62a-eeac29ef6a5d","system_id":"levelo_inurba_marseille","lat":43.28262,"lon":5.35063,"is_reserved":false,"is_disabled":false,"rental_uris":{"android":"levelo://app?vid=0018fea5-4d72-443c-b62a-eeac29ef6a5d","ios":"levelo://app?vid=0018fea5-4d72-443c-b62a-eeac29ef6a5d"},"vehicle_type_id":"4","last_reported":1723385245,"current_range_meters":15200,"station_id":"ce4bhbp2rcd13ifvqerg","pricing_plan_id":"cebpf4jnsgd1na2vs0mg"},{"bike_id":"9c6af8ec-d954-411a-a65d-6521ad56af75","system_id":"levelo_inurba_marseille","lat":43.28262,"lon":5.35059,"is_reserved":false,"is_disabled":false,"rental_uris":{"android":"levelo://app?vid=9c6af8ec-d954-411a-a65d-6521ad56af75","ios":"levelo://app?vid=9c6af8ec-d954-411a-a65d-6521ad56af75"},"vehicle_type_id":"4","last_reported":1723385245,"current_range_meters":2400,"station_id":"ce4bhbp2rcd13ifvqerg","pricing_plan_id":"cebpf4jnsgd1na2vs0mg"},{"bike_id":"0c19720f-bc68-4f1c-907b-048baf99b636","system_id":"levelo_inurba_marseille","lat":43.28262,"lon":5.35056,"is_reserved":false,"is_disabled":false,"rental_uris":{"android":"levelo://app?vid=0c19720f-bc68-4f1c-907b-048baf99b636","ios":"levelo://app?vid=0c19720f-bc68-4f1c-907b-048baf99b636"},"vehicle_type_id":"4","last_reported":1723385245,"current_range_meters":31200,"station_id":"ce4bhbp2rcd13ifvqerg","pricing_plan_id":"cebpf4jnsgd1na2vs0mg"},{"bike_id":"4e2ad12d-dbae-45d5-b4f2-af4d84b21746","system_id":"levelo_inurba_marseille","lat":43.28261,"lon":5.35059,"is_reserved":false,"is_disabled":false,"rental_uris":{"android":"levelo://app?vid=4e2ad12d-dbae-45d5-b4f2-af4d84b21746","ios":"levelo://app?vid=4e2ad12d-dbae-45d5-b4f2-af4d84b21746"},"vehicle_type_id":"4","last_reported":1723385245,"current_range_meters":23600,"station_id":"ce4bhbp2rcd13ifvqerg","pricing_plan_id":"cebpf4jnsgd1na2vs0mg"},{"bike_id":"b33375af-2db4-4118-a26b-b28bd596989f","system_id":"levelo_inurba_marseille","lat":43.282744,"lon":5.350533,"is_reserved":false,"is_disabled":false,"rental_uris":{"android":"levelo://app?vid=b33375af-2db4-4118-a26b-b28bd596989f","ios":"levelo://app?vid=b33375af-2db4-4118-a26b-b28bd596989f"},"vehicle_type_id":"4","last_reported":1723385245,"current_range_meters":18000,"station_id":"ce4bhbp2rcd13ifvqerg","pricing_plan_id":"cebpf4jnsgd1na2vs0mg"},{"bike_id":"1f88611c-618a-427b-929d-8a71a67cbe3b","system_id":"levelo_inurba_marseille","lat":43.28257,"lon":5.35068,"is_reserved":false,"is_disabled":false,"rental_uris":{"android":"levelo://app?vid=1f88611c-618a-427b-929d-8a71a67cbe3b","ios":"levelo://app?vid=1f88611c-618a-427b-929d-8a71a67cbe3b"},"vehicle_type_id":"4","last_reported":1723385245,"current_range_meters":31200,"station_id":"ce4bhbp2rcd13ifvqerg","pricing_plan_id":"cebpf4jnsgd1na2vs0mg"},{"bike_id":"9d0d7dd9-f9bc-41b9-9c17-6b376ecb943f","system_id":"levelo_inurba_marseille","lat":43.2826,"lon":5.35056,"is_reserved":false,"is_disabled":false,"rental_uris":{"android":"levelo://app?vid=9d0d7dd9-f9bc-41b9-9c17-6b376ecb943f","ios":"levelo://app?vid=9d0d7dd9-f9bc-41b9-9c17-6b376ecb943f"},