{"last_updated":1701972568,"ttl":30,"version":"2.2","data":{"bikes":[{"bike_id":"f8031a4c-d446-45dd-a029-5f07f3e68c7b","system_id":"levelo_inurba_marseille","lat":43.314811,"lon":5.373103,"is_reserved":false,"is_disabled":false,"rental_uris":{"android":"levelo://app?vid=f8031a4c-d446-45dd-a029-5f07f3e68c7b","ios":"levelo://app?vid=f8031a4c-d446-45dd-a029-5f07f3e68c7b"},"vehicle_type_id":"4","last_reported":1701972569,"current_range_meters":20400,"station_id":"ce4bgt12rcd13ifvqcd0","pricing_plan_id":"free"},{"bike_id":"0ec506ef-82c0-446e-b2b7-a28ac117625e","system_id":"levelo_inurba_marseille","lat":43.305989,"lon":5.37225,"is_reserved":false,"is_disabled":false,"rental_uris":{"android":"levelo://app?vid=0ec506ef-82c0-446e-b2b7-a28ac117625e","ios":"levelo://app?vid=0ec506ef-82c0-446e-b2b7-a28ac117625e"},"vehicle_type_id":"4","last_reported":1701972569,"current_range_meters":14400,"station_id":"ce4bgqh2rcd13ifvqc4g","pricing_plan_id":"free"},{"bike_id":"06ec1adc-df2b-4f38-8e13-a200e2618fc8","system_id":"levelo_inurba_marseille","lat":43.305989,"lon":5.37225,"is_reserved":false,"is_disabled":false,"rental_uris":{"android":"levelo://app?vid=06ec1adc-df2b-4f38-8e13-a200e2618fc8","ios":"levelo://app?vid=06ec1adc-df2b-4f38-8e13-a200e2618fc8"},"vehicle_type_id":"4","last_reported":1701972569,"current_range_meters":30400,"station_id":"ce4bgqh2rcd13ifvqc4g","pricing_plan_id":"free"},{"bike_id":"adf146c5-e4e1-4668-9a33-042940925130","system_id":"levelo_inurba_marseille","lat":43.31351,"lon":5.37909,"is_reserved":false,"is_disabled":false,"rental_uris":{"android":"levelo://app?vid=adf146c5-e4e1-4668-9a33-042940925130","ios":"levelo://app?vid=adf146c5-e4e1-4668-9a33-042940925130"},"vehicle_type_id":"4","last_reported":1701972569,"current_range_meters":1600,"station_id":"","pricing_plan_id":"free"},{"bike_id":"1ea60f58-75f7-4484-b705-1156df4b02ad","system_id":"levelo_inurba_marseille","lat":43.302738,"lon":5.373502,"is_reserved":false,"is_disabled":false,"rental_uris":{"android":"levelo://app?vid=1ea60f58-75f7-4484-b705-1156df4b02ad","ios":"levelo://app?vid=1ea60f58-75f7-4484-b705-1156df4b02ad"},"vehicle_type_id":"4","last_reported":1701972569,"current_range_meters":4800,"station_id":"","pricing_plan_id":"free"},{"bike_id":"3a80fc61-7b46-4711-9c63-e49ec3302a12","system_id":"levelo_inurba_marseille","lat":43.30812,"lon":5.38143,"is_reserved":false,"is_disabled":false,"rental_uris":{"android":"levelo://app?vid=3a80fc61-7b46-4711-9c63-e49ec3302a12","ios":"levelo://app?vid=3a80fc61-7b46-4711-9c63-e49ec3302a12"},"vehicle_type_id":"4","last_reported":1701972569,"current_range_meters":8400,"station_id":"ce4bgt12rcd13ifvqce0","pricing_plan_id":"free"},{"bike_id":"55311dec-ec61-4646-8d1a-4ddd89532043","system_id":"levelo_inurba_marseille","lat":43.32432,"lon":5.36814,"is_reserved":false,"is_disabled":false,"rental_uris":{"android":"levelo://app?vid=55311dec-ec61-4646-8d1a-4ddd89532043","ios":"levelo://app?vid=55311dec-ec61-4646-8d1a-4ddd89532043"},"vehicle_type_id":"4","last_reported":1701972569,"current_range_meters":24000,"station_id":"","pricing_plan_id":"free"},{"bike_id":"ca59cee2-554f-4d62-b189-354dcfb8fc7d","system_id":"levelo_inurba_marseille","lat":43.304606,"lon":5.379026,"is_reserved":false,"is_disabled":false,"rental_uris":{"android":"levelo://app?vid=ca59cee2-554f-4d62-b189-354dcfb8fc7d","ios":"levelo://app?vid=ca59cee2-554f-4d62-b189-354dcfb8fc7d"},"vehicle_type_id":"4","last_reported":1701972569,"current_range_meters":13200,"station_id":"ce4bgup2rcd13ifvqcn0","pricing_plan_id":"free"},{"bike_id":"3f978d80-8122-455a-bc6e-c98b43483acb","system_id":"levelo_inurba_marseille","lat":43.30143,"lon":5.37413,"is_reserved":false,"is_disabled":false,"rental_uris":{"android":"levelo://app?vid=3f978d80-8122-455a-bc6e-c98b43483acb","ios":"levelo://app?vid=3f978d80-8122-455a-bc6e-c98b43483acb"},"vehicle_type_id":"4","last_reported":1701972569,"current_range_meters":1200,"station_id":"ce4bgs92rcd13ifvqcc0","pricing_plan_id":"free"},{"bike_id":"8e6bcc22-26a3-4f21-b99e-ec3014f3e345","system_id":"levelo_inurba_marseille","lat":43.31993,"lon":5.38149,"is_reserved":false,"is_disabled":false,"rental_uris":{"android":"levelo://app?vid=8e6bcc22-26a3-4f21-b99e-ec3014f3e345","ios":"levelo://app?vid=8e6bcc22-26a3-4f21-b99e-ec3014f3e345"},"vehicle_type_id":"4","last_reported":1701972569,"current_range_meters":17600,"station_id":"ce4bhr12rcd13ifvqhpg","pricing_plan_id":"free"},{"bike_id":"9ee0ef7a-8d9c-4d78-8ae5-64e12b708d26","system_id":"levelo_inurba_marseille","lat":43.319997,"lon":5.381594,"is_reserved":false,"is_disabled":false,"rental_uris":{"android":"levelo://app?vid=9ee0ef7a-8d9c-4d78-8ae5-64e12b708d26","ios":"levelo://app?vid=9ee0ef7a-8d9c-4d78-8ae5-64e12b708d26"},"vehicle_type_id":"4","last_reported":1701972569,"current_range_meters":0,"station_id":"ce4bhr12rcd13ifvqhpg","pricing_plan_id":"free"},{"bike_id":"a49b99ee-38eb-49b5-978d-00cf198fff08","system_id":"levelo_inurba_marseille","lat":43.299653,"lon":5.366337,"is_reserved":false,"is_disabled":false,"rental_uris":{"android":"levelo://app?vid=a49b99ee-38eb-49b5-978d-00cf198fff08","ios":"levelo://app?vid=a49b99ee-38eb-49b5-978d-00cf198fff08"},"vehicle_type_id":"4","last_reported":1701972569,"current_range_meters":22800,"station_id":"","pricing_plan_id":"free"},{"bike_id":"6693b58b-4116-427d-becc-b04ff6d3db5e","system_id":"levelo_inurba_marseille","lat":43.313571,"lon":5.384829,"is_reserved":false,"is_disabled":false,"rental_uris":{"android":"levelo://app?vid=6693b58b-4116-427d-becc-b04ff6d3db5e","ios":"levelo://app?vid=6693b58b-4116-427d-becc-b04ff6d3db5e"},"vehicle_type_id":"4","last_reported":1701972569,"current_range_meters":24000,"station_id":"ce4bgt92rcd13ifvqcf0","pricing_plan_id":"free"},{"bike_id":"781b096c-5e14-4c34-aff1-d69705669af9","system_id":"levelo_inurba_marseille","lat":43.313571,"lon":5.384829,"is_reserved":false,"is_disabled":false,"rental_uris":{"android":"levelo://app?vid=781b096c-5e14-4c34-aff1-d69705669af9","ios":"levelo://app?vid=781b096c-5e14-4c34-aff1-d69705669af9"},"vehicle_type_id":"4","last_reported":1701972569,"current_range_meters":7200,"station_id":"ce4bgt92rcd13ifvqcf0","pricing_plan_id":"free"},{"bike_id":"a2906976-24c7-46de-bb3a-c45bf1599c3a","system_id":"levelo_inurba_marseille","lat":43.313571,"lon":5.384829,"is_reserved":false,"is_disabled":false,"rental_uris":{"android":"levelo://app?vid=a2906976-24c7-46de-bb3a-c45bf1599c3a","ios":"levelo://app?vid=a2906976-24c7-46de-bb3a-c45bf1599c3a"},"vehicle_type_id":"4","last_reported":1701972569,"current_range_meters":21200,"station_id":"ce4bgt92rcd13ifvqcf0","pricing_plan_id":"free"},{"bike_id":"acc6ac38-576b-4922-8ec7-730f85b05f8a","system_id":"levelo_inurba_marseille","lat":43.298037,"lon":5.381066,"is_reserved":false,"is_disabled":false,"rental_uris":{"android":"levelo://app?vid=acc6ac38-576b-4922-8ec7-730f85b05f8a","ios":"levelo://app?vid=acc6ac38-576b-4922-8ec7-730f85b05f8a"},"vehicle_type_id":"4","last_reported":1701972569,"current_range_meters":20400,"station_id":"ce4bgip2rcd13ifvqbb0","pricing_plan_id":"free"},{"bike_id":"91a07fcb-62f3-41ea-8505-4e12b87ea9aa","system_id":"levelo_inurba_marseille","lat":43.305364,"lon":5.384119,"is_reserved":false,"is_disabled":false,"rental_uris":{"android":"levelo://app?vid=91a07fcb-62f3-41ea-8505-4e12b87ea9aa","ios":"levelo://app?vid=91a07fcb-62f3-41ea-8505-4e12b87ea9aa"},"vehicle_type_id":"4","last_reported":1701972569,"current_range_meters":18800,"station_id":"ce4bgg92rcd13ifvqb30","pricing_plan_id":"free"},{"bike_id":"3c8c4369-ee82-4127-a8a1-96c786e594bd","system_id":"levelo_inurba_marseille","lat":43.299243,"lon":5.374807,"is_reserved":false,"is_disabled":false,"rental_uris":{"android":"levelo://app?vid=3c8c4369-ee82-4127-a8a1-96c786e594bd","ios":"levelo://app?vid=3c8c4369-ee82-4127-a8a1-96c786e594bd"},"vehicle_type_id":"4","last_reported":1701972569,"current_range_meters":2400,"station_id":"ce4bgjh2rcd13ifvqbg0","pricing_plan_id":"free"},{"bike_id":"0d54d094-e0f1-40b0-976d-4597098b5ddc","system_id":"levelo_inurba_marseille","lat":43.322872,"lon":5.382756,"is_reserved":false,"is_disabled":false,"rental_uris":{"android":"levelo://app?vid=0d54d094-e0f1-40b0-976d-4597098b5ddc","ios":"levelo://app?vid=0d54d094-e0f1-40b0-976d-4597098b5ddc"},"vehicle_type_id":"4","last_reported":1701972569,"current_range_meters":14000,"station_id":"ce4bhr12rcd13ifvqhqg","pricing_plan_id":"free"},{"bike_id":"3dcd4a73-468d-493a-bf11-93ceddd109f8","system_id":"levelo_inurba_marseille","lat":43.322872,"lon":5.382756,"is_reserved":false,"is_disabled":false,"rental_uris":{"android":"levelo://app?vid=3dcd4a73-468d-493a-bf11-93ceddd109f8","ios":"levelo://app?vid=3dcd4a73-468d-493a-bf11-93ceddd109f8"},"vehicle_type_id":"4","last_reported":1701972569,"current_range_meters":16400,"station_id":"ce4bhr12rcd13ifvqhqg","pricing_plan_id":"free"},{"bike_id":"7ef02b9d-fe26-4925-8e04-aa4166715e02","system_id":"levelo_inurba_marseille","lat":43.297163,"lon":5.365866,"is_reserved":false,"is_disabled":false,"rental_uris":{"android":"levelo://app?vid=7ef02b9d-fe26-4925-8e04-aa4166715e02","ios":"levelo://app?vid=7ef02b9d-fe26-4925-8e04-aa4166715e02"},"vehicle_type_id":"4","last_reported":1701972569,"current_range_meters":1200,"station_id":"ce4bgn12rcd13ifvqbt0","pricing_plan_id":"free"},{"bike_id":"80abe91c-5b82-4482-98b9-3b29bf32adbf","system_id":"levelo_inurba_marseille","lat":43.297163,"lon":5.365866,"is_reserved":false,"is_disabled":false,"rental_uris":{"android":"levelo://app?vid=80abe91c-5b82-4482-98b9-3b29bf32adbf","ios":"levelo://app?vid=80abe91c-5b82-4482-98b9-3b29bf32adbf"},"vehicle_type_id":"4","last_reported":1701972569,"current_range_meters":18400,"station_id":"ce4bgn12rcd13ifvqbt0","pricing_plan_id":"free"},{"bike_id":"9c16f2f7-d9da-467d-8e24-08427835fb58","system_id":"levelo_inurba_marseille","lat":43.297163,"lon":5.365866,"is_reserved":false,"is_disabled":false,"rental_uris":{"android":"levelo://app?vid=9c16f2f7-d9da-467d-8e24-08427835fb58","ios":"levelo://app?vid=9c16f2f7-d9da-467d-8e24-08427835fb58"},"vehicle_type_id":"4","last_reported":1701972569,"current_range_meters":18000,"station_id":"ce4bgn12rcd13ifvqbt0","pricing_plan_id":"free"},{"bike_id":"ef08f774-2713-46c7-ac61-11066468225e","system_id":"levelo_inurba_marseille","lat":43.295922,"lon":5.367364,"is_reserved":false,"is_disabled":false,"rental_uris":{"android":"levelo://app?vid=ef08f774-2713-46c7-ac61-11066468225e","ios":"levelo://app?vid=ef08f774-2713-46c7-ac61-11066468225e"},"vehicle_type_id":"4","last_reported":1701972569,"current_range_meters":25600,"station_id":"ce4bgph2rcd13ifvqc2g","pricing_plan_id":"free"},{"bike_id":"92dc65d6-6823-4de3-93d4-056f738f090c","system_id":"levelo_inurba_marseille","lat":43.316538,"lon":5.38954,"is_reserved":false,"is_disabled":false,"rental_uris":{"android":"levelo://app?vid=92dc65d6-6823-4de3-93d4-056f738f090c","ios":"levelo://app?vid=92dc65d6-6823-4de3-93d4-056f738f090c"},"vehicle_type_id":"4","last_reported":1701972569,"current_range_meters":4800,"station_id":"","pricing_plan_id":"free"},{"bike_id":"283e42c2-7baa-44bd-85c8-d44c1e40cf3e","system_id":"levelo_inurba_marseille","lat":43.309589,"lon":5.390258,"is_reserved":false,"is_disabled":false,"rental_uris":{"android":"levelo://app?vid=283e42c2-7baa-44bd-85c8-d44c1e40cf3e","ios":"levelo://app?vid=283e42c2-7baa-44bd-85c8-d44c1e40cf3e"},"vehicle_type_id":"4","last_reported":1701972569,"current_range_meters":0,"station_id":"ce4bgup2rcd13ifvqco0","pricing_plan_id":"free"},{"bike_id":"26fc0c47-e5ee-49d2-911f-b4135c252acd","system_id":"levelo_inurba_marseille","lat":43.330457,"lon":5.3702,"is_reserved":false,"is_disabled":false,"rental_uris":{"android":"levelo://app?vid=26fc0c47-e5ee-49d2-911f-b4135c252acd","ios":"levelo://app?vid=26fc0c47-e5ee-49d2-911f-b4135c252acd"},"vehicle_type_id":"4","last_reported":1701972569,"current_range_meters":28000,"station_id":"","pricing_plan_id":"free"},{"bike_id":"fc264b3f-3320-4cc5-b6c9-33d6dd892c87","system_id":"levelo_inurba_marseille","lat":43.33048,"lon":5.37013,"is_reserved":false,"is_disabled":false,"rental_uris":{"android":"levelo://app?vid=fc264b3f-3320-4cc5-b6c9-33d6dd892c87","ios":"levelo://app?vid=fc264b3f-3320-4cc5-b6c9-33d6dd892c87"},"vehicle_type_id":"4","last_reported":1701972569,"current_range_meters":20000,"station_id":"","pricing_plan_id":"free"},{"bike_id":"69b20870-a013-4269-a434-d5bf58ad2296","system_id":"levelo_inurba_marseille","lat":43.298037,"lon":5.381066,"is_reserved":false,"is_disabled":false,"rental_uris":{"android":"levelo://app?vid=69b20870-a013-4269-a434-d5bf58ad2296","ios":"levelo://app?vid=69b20870-a013-4269-a434-d5bf58ad2296"},"vehicle_type_id":"4","last_reported":1701972569,"current_range_meters":22400,"station_id":"ce4bgip2rcd13ifvqbb0","pricing_plan_id":"free"},{"bike_id":"38e0054c-721c-4d67-a78d-ba605ca98944","system_id":"levelo_inurba_marseille","lat":43.298037,"lon":5.381066,"is_reserved":false,"is_disabled":false,"rental_uris":{"android":"levelo://app?vid=38e0054c-721c-4d67-a78d-ba605ca98944","ios":"levelo://app?vid=38e0054c-721c-4d67-a78d-ba605ca98944"},"vehicle_type_id":"4","last_reported":1701972569,"current_range_meters":0,"station_id":"ce4bgip2rcd13ifvqbb0","pricing_plan_id":"free"},{"bike_id":"4a429263-435e-446b-9fa4-85f1b1104dd5","system_id":"levelo_inurba_marseille","lat":43.304274,"lon":5.388873,"is_reserved":false,"is_disabled":false,"rental_uris":{"android":"levelo://app?vid=4a429263-435e-446b-9fa4-85f1b1104dd5","ios":"levelo://app?vid=4a429263-435e-446b-9fa4-85f1b1104dd5"},"vehicle_type_id":"4","last_reported":1701972569,"current_range_meters":23200,"station_id":"ce4bgk12rcd13ifvqbi0","pricing_plan_id":"free"},{"bike_id":"7579423d-f3b8-4e7f-be59-2ba9da91b549","system_id":"levelo_inurba_marseille","lat":43.31416,"lon":5.394203,"is_reserved":false,"is_disabled":false,"rental_uris":{"android":"levelo://app?vid=7579423d-f3b8-4e7f-be59-2ba9da91b549","ios":"levelo://app?vid=7579423d-f3b8-4e7f-be59-2ba9da91b549"},"vehicle_type_id":"4","last_reported":1701972569,"current_range_meters":8800,"station_id":"","pricing_plan_id":"free"},{"bike_id":"e3ef412b-6ba1-4816-a5f5-fd1d36a610ee","system_id":"levelo_inurba_marseille","lat":43.300852,"lon":5.390859,"is_reserved":false,"is_disabled":false,"rental_uris":{"android":"levelo://app?vid=e3ef412b-6ba1-4816-a5f5-fd1d36a610ee","ios":"levelo://app?vid=e3ef412b-6ba1-4816-a5f5-fd1d36a610ee"},"vehicle_type_id":"4","last_reported":1701972569,"current_range_meters":24800,"station_id":"ce4bh192rcd13ifvqdb0","pricing_plan_id":"free"},{"bike_id":"e842c0f8-24a7-4541-92ea-3c39bdfa6f5a","system_id":"levelo_inurba_marseille","lat":43.30085,"lon":5.390856,"is_reserved":false,"is_disabled":false,"rental_uris":{"android":"levelo://app?vid=e842c0f8-24a7-4541-92ea-3c39bdfa6f5a","ios":"levelo://app?vid=e842c0f8-24a7-4541-92ea-3c39bdfa6f5a"},"vehicle_type_id":"4","last_reported":1701972569,"current_range_meters":5600,"station_id":"ce4bh192rcd13ifvqdb0","pricing_plan_id":"free"},{"bike_id":"9401d39d-d5c6-4983-9a8d-a09650ebe520","system_id":"levelo_inurba_marseille","lat":43.292663,"lon":5.376389,"is_reserved":false,"is_disabled":false,"rental_uris":{"android":"levelo://app?vid=9401d39d-d5c6-4983-9a8d-a09650ebe520","ios":"levelo://app?vid=9401d39d-d5c6-4983-9a8d-a09650ebe520"},"vehicle_type_id":"4","last_reported":1701972569,"current_range_meters":4000,"station_id":"ce4bgi12rcd13ifvqb80","pricing_plan_id":"free"},{"bike_id":"402666bd-ab7f-44c3-a6a5-bd73fc74f492","system_id":"levelo_inurba_marseille","lat":43.313291,"lon":5.396838,"is_reserved":false,"is_disabled":false,"rental_uris":{"android":"levelo://app?vid=402666bd-ab7f-44c3-a6a5-bd73fc74f492","ios":"levelo://app?vid=402666bd-ab7f-44c3-a6a5-bd73fc74f492"},"vehicle_type_id":"4","last_reported":1701972569,"current_range_meters":0,"station_id":"ce4bgvp2rcd13ifvqcu0","pricing_plan_id":"free"},{"bike_id":"e0069b66-d92a-49bd-a219-c01ebce415d9","system_id":"levelo_inurba_marseille","lat":43.291994,"lon":5.357886,"is_reserved":false,"is_disabled":false,"rental_uris":{"android":"levelo://app?vid=e0069b66-d92a-49bd-a219-c01ebce415d9","ios":"levelo://app?vid=e0069b66-d92a-49bd-a219-c01ebce415d9"},"vehicle_type_id":"4","last_reported":1701972569,"current_range_meters":400,"station_id":"ce4bhb12rcd13ifvqel0","pricing_plan_id":"free"},{"bike_id":"5cc46180-f859-423b-b402-0af92ab53d05","system_id":"levelo_inurba_marseille","lat":43.313291,"lon":5.396838,"is_reserved":false,"is_disabled":false,"rental_uris":{"android":"levelo://app?vid=5cc46180-f859-423b-b402-0af92ab53d05","ios":"levelo://app?vid=5cc46180-f859-423b-b402-0af92ab53d05"},"vehicle_type_id":"4","last_reported":1701972569,"current_range_meters":0,"station_id":"ce4bgvp2rcd13ifvqcu0","pricing_plan_id":"free"},{"bike_id":"3134bd8b-1f4d-4e00-b3fa-c7bc8df2e245","system_id":"levelo_inurba_marseille","lat":43.31333,"lon":5.39693,"is_reserved":false,"is_disabled":false,"rental_uris":{"android":"levelo://app?vid=3134bd8b-1f4d-4e00-b3fa-c7bc8df2e245","ios":"levelo://app?vid=3134bd8b-1f4d-4e00-b3fa-c7bc8df2e245"},"vehicle_type_id":"4","last_reported":1701972569,"current_range_meters":13200,"station_id":"ce4bgvp2rcd13ifvqcu0","pricing_plan_id":"free"},{"bike_id":"9896f0ee-c20e-4279-ae97-fc4ae65c84d6","system_id":"levelo_inurba_marseille","lat":43.313291,"lon":5.396838,"is_reserved":false,"is_disabled":false,"rental_uris":{"android":"levelo://app?vid=9896f0ee-c20e-4279-ae97-fc4ae65c84d6","ios":"levelo://app?vid=9896f0ee-c20e-4279-ae97-fc4ae65c84d6"},"vehicle_type_id":"4","last_reported":1701972569,"current_range_meters":27600,"station_id":"ce4bgvp2rcd13ifvqcu0","pricing_plan_id":"free"},{"bike_id":"b04ed13f-2ebd-4a79-ae95-f845d6373dda","system_id":"levelo_inurba_marseille","lat":43.309038,"lon":5.396546,"is_reserved":false,"is_disabled":false,"rental_uris":{"android":"levelo://app?vid=b04ed13f-2ebd-4a79-ae95-f845d6373dda","ios":"levelo://app?vid=b04ed13f-2ebd-4a79-ae95-f845d6373dda"},"vehicle_type_id":"4","last_reported":1701972569,"current_range_meters":16800,"station_id":"ce4bh012rcd13ifvqcv0","pricing_plan_id":"free"},{"bike_id":"78368c94-4fcc-4a79-8722-d8637e74ee50","system_id":"levelo_inurba_marseille","lat":43.313291,"lon":5.396838,"is_reserved":false,"is_disabled":false,"rental_uris":{"android":"levelo://app?vid=78368c94-4fcc-4a79-8722-d8637e74ee50","ios":"levelo://app?vid=78368c94-4fcc-4a79-8722-d8637e74ee50"},"vehicle_type_id":"4","last_reported":1701972569,"current_range_meters":3200,"station_id":"ce4bgvp2rcd13ifvqcu0","pricing_plan_id":"free"},{"bike_id":"1b340569-9d53-4201-9814-406c31b7ac1e","system_id":"levelo_inurba_marseille","lat":43.309038,"lon":5.396546,"is_reserved":false,"is_disabled":false,"rental_uris":{"android":"levelo://app?vid=1b340569-9d53-4201-9814-406c31b7ac1e","ios":"levelo://app?vid=1b340569-9d53-4201-9814-406c31b7ac1e"},"vehicle_type_id":"4","last_reported":1701972569,"current_range_meters":11200,"station_id":"ce4bh012rcd13ifvqcv0","pricing_plan_id":"free"},{"bike_id":"7de437ca-4550-4b51-8525-706522b70cf8","system_id":"levelo_inurba_marseille","lat":43.309038,"lon":5.396546,"is_reserved":false,"is_disabled":false,"rental_uris":{"android":"levelo://app?vid=7de437ca-4550-4b51-8525-706522b70cf8","ios":"levelo://app?vid=7de437ca-4550-4b51-8525-706522b70cf8"},"vehicle_type_id":"4","last_reported":1701972569,"current_range_meters":0,"station_id":"ce4bh012rcd13ifvqcv0","pricing_plan_id":"free"},{"bike_id":"c301e862-47e7-4b06-be0e-1f71dfbd00eb","system_id":"levelo_inurba_marseille","lat":43.289184,"lon":5.366408,"is_reserved":false,"is_disabled":false,"rental_uris":{"android":"levelo://app?vid=c301e862-47e7-4b06-be0e-1f71dfbd00eb","ios":"levelo://app?vid=c301e862-47e7-4b06-be0e-1f71dfbd00eb"},"vehicle_type_id":"4","last_reported":1701972569,"current_range_meters":26800,"station_id":"ce4bhap2rcd13ifvqek0","pricing_plan_id":"free"},{"bike_id":"0ddcc917-546e-489e-abee-4216f11acef6","system_id":"levelo_inurba_marseille","lat":43.290327,"lon":5.375711,"is_reserved":false,"is_disabled":false,"rental_uris":{"android":"levelo://app?vid=0ddcc917-546e-489e-abee-4216f11acef6","ios":"levelo://app?vid=0ddcc917-546e-489e-abee-4216f11acef6"},"vehicle_type_id":"4","last_reported":1701972569,"current_range_meters":14800,"station_id":"ce4bh692rcd13ifvqe90","pricing_plan_id":"free"},{"bike_id":"b165c222-f402-40f5-a036-667aab5e7055","system_id":"levelo_inurba_marseille","lat":43.29417,"lon":5.3863,"is_reserved":false,"is_disabled":false,"rental_uris":{"android":"levelo://app?vid=b165c222-f402-40f5-a036-667aab5e7055","ios":"levelo://app?vid=b165c222-f402-40f5-a036-667aab5e7055"},"vehicle_type_id":"4","last_reported":1701972569,"current_range_meters":0,"station_id":"ce4bh2h2rcd13ifvqdh0","pricing_plan_id":"free"},{"bike_id":"9ce1eda7-b52d-4a1d-87fb-b8d564e65c7d","system_id":"levelo_inurba_marseille","lat":43.28947,"lon":5.3641,"is_reserved":false,"is_disabled":false,"rental_uris":{"android":"levelo://app?vid=9ce1eda7-b52d-4a1d-87fb-b8d564e65c7d","ios":"levelo://app?vid=9ce1eda7-b52d-4a1d-87fb-b8d564e65c7d"},"vehicle_type_id":"4","last_reported":1701972569,"current_range_meters":10000,"station_id":"ce4bhc92rcd13ifvqetg","pricing_plan_id":"free"},{"bike_id":"36ac8168-0c43-461a-a965-2fefb6be231d","system_id":"levelo_inurba_marseille","lat":43.290161,"lon":5.375651,"is_reserved":false,"is_disabled":false,"rental_uris":{"android":"levelo://app?vid=36ac8168-0c43-461a-a965-2fefb6be231d","ios":"levelo://app?vid=36ac8168-0c43-461a-a965-2fefb6be231d"},"vehicle_type_id":"4","last_reported":1701972569,"current_range_meters":20400,"station_id":"","pricing_plan_id":"free"},{"bike_id":"a02a1b20-1fb1-4951-988a-77389649024d","system_id":"levelo_inurba_marseille","lat":43.289259,"lon":5.366364,"is_reserved":false,"is_disabled":false,"rental_uris":{"android":"levelo://app?vid=a02a1b20-1fb1-4951-988a-77389649024d","ios":"levelo://app?vid=a02a1b20-1fb1-4951-988a-77389649024d"},"vehicle_type_id":"4","last_reported":1701972569,"current_range_meters":18800,"station_id":"","pricing_plan_id":"free"},{"bike_id":"9c2bb68f-6529-40d3-9152-da999bb21f45","system_id":"levelo_inurba_marseille","lat":43.304296,"lon":5.397513,"is_reserved":false,"is_disabled":false,"rental_uris":{"android":"levelo://app?vid=9c2bb68f-6529-40d3-9152-da999bb21f45","ios":"levelo://app?vid=9c2bb68f-6529-40d3-9152-da999bb21f45"},"vehicle_type_id":"4","last_reported":1701972569,"current_range_meters":16800,"station_id":"ce4bh092rcd13ifvqd20","pricing_plan_id":"free"},{"bike_id":"f84e42b9-8f09-45b3-91b2-5aff13de6182","system_id":"levelo_inurba_marseille","lat":43.290104,"lon":5.356111,"is_reserved":false,"is_disabled":false,"rental_uris":{"android":"levelo://app?vid=f84e42b9-8f09-45b3-91b2-5aff13de6182","ios":"levelo://app?vid=f84e42b9-8f09-45b3-91b2-5aff13de6182"},"vehicle_type_id":"4","last_reported":1701972569,"current_range_meters":20000,"station_id":"ce4bhb92rcd13ifvqen0","pricing_plan_id":"free"},{"bike_id":"108696cb-6bfa-4400-aa7a-ab44a5402b00","system_id":"levelo_inurba_marseille","lat":43.288558,"lon":5.358635,"is_reserved":false,"is_disabled":false,"rental_uris":{"android":"levelo://app?vid=108696cb-6bfa-4400-aa7a-ab44a5402b00","ios":"levelo://app?vid=108696cb-6bfa-4400-aa7a-ab44a5402b00"},"vehicle_type_id":"4","last_reported":1701972569,"current_range_meters":27200,"station_id":"","pricing_plan_id":"free"},{"bike_id":"165369fe-c4ee-4883-a4da-523d199f1d4a","system_id":"levelo_inurba_marseille","lat":43.30928,"lon":5.40136,"is_reserved":false,"is_disabled":false,"rental_uris":{"android":"levelo://app?vid=165369fe-c4ee-4883-a4da-523d199f1d4a","ios":"levelo://app?vid=165369fe-c4ee-4883-a4da-523d199f1d4a"},"vehicle_type_id":"4","last_reported":1701972569,"current_range_meters":10000,"station_id":"ce4bgvp2rcd13ifvqct0","pricing_plan_id":"free"},{"bike_id":"c1da1fa6-85e0-44de-b6be-bb4e2c350805","system_id":"levelo_inurba_marseille","lat":43.309371,"lon":5.401449,"is_reserved":false,"is_disabled":false,"rental_uris":{"android":"levelo://app?vid=c1da1fa6-85e0-44de-b6be-bb4e2c350805","ios":"levelo://app?vid=c1da1fa6-85e0-44de-b6be-bb4e2c350805"},"vehicle_type_id":"4","last_reported":1701972569,"current_range_meters":24000,"station_id":"ce4bgvp2rcd13ifvqct0","pricing_plan_id":"free"},{"bike_id":"e6ec139b-2583-41ed-a72d-28c56201626f","system_id":"levelo_inurba_marseille","lat":43.337607,"lon":5.374455,"is_reserved":false,"is_disabled":false,"rental_uris":{"android":"levelo://app?vid=e6ec139b-2583-41ed-a72d-28c56201626f","ios":"levelo://app?vid=e6ec139b-2583-41ed-a72d-28c56201626f"},"vehicle_type_id":"4","last_reported":1701972569,"current_range_meters":24400,"station_id":"","pricing_plan_id":"free"},{"bike_id":"a4372249-f4f9-4775-8e34-43803d58d905","system_id":"levelo_inurba_marseille","lat":43.337625,"lon":5.374565,"is_reserved":false,"is_disabled":false,"rental_uris":{"android":"levelo://app?vid=a4372249-f4f9-4775-8e34-43803d58d905","ios":"levelo://app?vid=a4372249-f4f9-4775-8e34-43803d58d905"},"vehicle_type_id":"4","last_reported":1701972569,"current_range_meters":30400,"station_id":"","pricing_plan_id":"free"},{"bike_id":"38c818c8-e611-45da-80a6-4c5f9e194f90","system_id":"levelo_inurba_marseille","lat":43.301223,"lon":5.39853,"is_reserved":false,"is_disabled":false,"rental_uris":{"android":"levelo://app?vid=38c818c8-e611-45da-80a6-4c5f9e194f90","ios":"levelo://app?vid=38c818c8-e611-45da-80a6-4c5f9e194f90"},"vehicle_type_id":"4","last_reported":1701972569,"current_range_meters":14000,"station_id":"ce4bh0h2rcd13ifvqd40","pricing_plan_id":"free"},{"bike_id":"f0dd8e31-f08e-444c-8bda-236440bfc1d2","system_id":"levelo_inurba_marseille","lat":43.28727,"lon":5.36078,"is_reserved":false,"is_disabled":false,"rental_uris":{"android":"levelo://app?vid=f0dd8e31-f08e-444c-8bda-236440bfc1d2","ios":"levelo://app?vid=f0dd8e31-f08e-444c-8bda-236440bfc1d2"},"vehicle_type_id":"4","last_reported":1701972569,"current_range_meters":11200,"station_id":"cki0cbj6b192h4jlfktg","pricing_plan_id":"free"},{"bike_id":"fae4bd63-9c3f-47df-8870-c26a48333d80","system_id":"levelo_inurba_marseille","lat":43.298681,"lon":5.397225,"is_reserved":false,"is_disabled":false,"rental_uris":{"android":"levelo://app?vid=fae4bd63-9c3f-47df-8870-c26a48333d80","ios":"levelo://app?vid=fae4bd63-9c3f-47df-8870-c26a48333d80"},"vehicle_type_id":"4","last_reported":1701972569,"current_range_meters":15200,"station_id":"ce4bh0h2rcd13ifvqd50","pricing_plan_id":"free"},{"bike_id":"93a55a6e-1de0-43d2-a3b7-2bc86481213c","system_id":"levelo_inurba_marseille","lat":43.29878,"lon":5.39739,"is_reserved":false,"is_disabled":false,"rental_uris":{"android":"levelo://app?vid=93a55a6e-1de0-43d2-a3b7-2bc86481213c","ios":"levelo://app?vid=93a55a6e-1de0-43d2-a3b7-2bc86481213c"},"vehicle_type_id":"4","last_reported":1701972569,"current_range_meters":6400,"station_id":"ce4bh0h2rcd13ifvqd50","pricing_plan_id":"free"},{"bike_id":"462bc753-3171-4c54-ae48-deb3204977a5","system_id":"levelo_inurba_marseille","lat":43.286961,"lon":5.373785,"is_reserved":false,"is_disabled":false,"rental_uris":{"android":"levelo://app?vid=462bc753-3171-4c54-ae48-deb3204977a5","ios":"levelo://app?vid=462bc753-3171-4c54-ae48-deb3204977a5"},"vehicle_type_id":"4","last_reported":1701972569,"current_range_meters":13600,"station_id":"ce4bh3p2rcd13ifvqdq0","pricing_plan_id":"free"},{"bike_id":"b1eb7526-74d2-4115-83d6-c98ae963e4af","system_id":"levelo_inurba_marseille","lat":43.295196,"lon":5.39397,"is_reserved":false,"is_disabled":false,"rental_uris":{"android":"levelo://app?vid=b1eb7526-74d2-4115-83d6-c98ae963e4af","ios":"levelo://app?vid=b1eb7526-74d2-4115-83d6-c98ae963e4af"},"vehicle_type_id":"4","last_reported":1701972569,"current_range_meters":4800,"station_id":"ce4bh292rcd13ifvqdf0","pricing_plan_id":"free"},{"bike_id":"a865e199-3d91-4a67-a819-9827eb1f41b0","system_id":"levelo_inurba_marseille","lat":43.295196,"lon":5.39397,"is_reserved":false,"is_disabled":false,"rental_uris":{"android":"levelo://app?vid=a865e199-3d91-4a67-a819-9827eb1f41b0","ios":"levelo://app?vid=a865e199-3d91-4a67-a819-9827eb1f41b0"},"vehicle_type_id":"4","last_reported":1701972569,"current_range_meters":27600,"station_id":"ce4bh292rcd13ifvqdf0","pricing_plan_id":"free"},{"bike_id":"8f1af385-1e8d-4da9-8ad7-71e89073996a","system_id":"levelo_inurba_marseille","lat":43.29517,"lon":5.394017,"is_reserved":false,"is_disabled":false,"rental_uris":{"android":"levelo://app?vid=8f1af385-1e8d-4da9-8ad7-71e89073996a","ios":"levelo://app?vid=8f1af385-1e8d-4da9-8ad7-71e89073996a"},"vehicle_type_id":"4","last_reported":1701972569,"current_range_meters":24000,"station_id":"ce4bh292rcd13ifvqdf0","pricing_plan_id":"free"},{"bike_id":"bd9e0f24-ec6d-4e40-bcbc-9ffd23537834","system_id":"levelo_inurba_marseille","lat":43.287154,"lon":5.399979,"is_reserved":false,"is_disabled":false,"rental_uris":{"android":"levelo://app?vid=bd9e0f24-ec6d-4e40-bcbc-9ffd23537834","ios":"levelo://app?vid=bd9e0f24-ec6d-4e40-bcbc-9ffd23537834"},"vehicle_type_id":"4","last_reported":1701972569,"current_range_meters":1600,"station_id":"ce4bho92rcd13ifvqh3g","pricing_plan_id":"free"},{"bike_id":"443ff172-d71f-41c7-90a9-88f7289cb75f","system_id":"levelo_inurba_marseille","lat":43.290314,"lon":5.38649,"is_reserved":false,"is_disabled":false,"rental_uris":{"android":"levelo://app?vid=443ff172-d71f-41c7-90a9-88f7289cb75f","ios":"levelo://app?vid=443ff172-d71f-41c7-90a9-88f7289cb75f"},"vehicle_type_id":"4","last_reported":1701972569,"current_range_meters":12400,"station_id":"ce4bh4p2rcd13ifvqe0g","pricing_plan_id":"free"},{"bike_id":"9771dfd8-017b-477e-9f38-39c8dec9c905","system_id":"levelo_inurba_marseille","lat":43.286039,"lon":5.370679,"is_reserved":false,"is_disabled":false,"rental_uris":{"android":"levelo://app?vid=9771dfd8-017b-477e-9f38-39c8dec9c905","ios":"levelo://app?vid=9771dfd8-017b-477e-9f38-39c8dec9c905"},"vehicle_type_id":"4","last_reported":1701972569,"current_range_meters":25200,"station_id":"ce4bht12rcd13ifvqi60","pricing_plan_id":"free"},{"bike_id":"b9368d4f-73ed-4565-b2ae-63aeb9262fc6","system_id":"levelo_inurba_marseille","lat":43.31688,"lon":5.40477,"is_reserved":false,"is_disabled":false,"rental_uris":{"android":"levelo://app?vid=b9368d4f-73ed-4565-b2ae-63aeb9262fc6","ios":"levelo://app?vid=b9368d4f-73ed-4565-b2ae-63aeb9262fc6"},"vehicle_type_id":"4","last_reported":1701972569,"current_range_meters":18800,"station_id":"","pricing_plan_id":"free"},{"bike_id":"9e794304-c097-4eea-909a-3d1cd293e0c7","system_id":"levelo_inurba_marseille","lat":43.291994,"lon":5.392907,"is_reserved":false,"is_disabled":false,"rental_uris":{"android":"levelo://app?vid=9e794304-c097-4eea-909a-3d1cd293e0c7","ios":"levelo://app?vid=9e794304-c097-4eea-909a-3d1cd293e0c7"},"vehicle_type_id":"4","last_reported":1701972569,"current_range_meters":2400,"station_id":"ce4bh192rcd13ifvqdd0","pricing_plan_id":"free"},{"bike_id":"c4b80e93-9f5b-4611-8176-1cb0fde42025","system_id":"levelo_inurba_marseille","lat":43.284538,"lon":5.358657,"is_reserved":false,"is_disabled":false,"rental_uris":{"android":"levelo://app?vid=c4b80e93-9f5b-4611-8176-1cb0fde42025","ios":"levelo://app?vid=c4b80e93-9f5b-4611-8176-1cb0fde42025"},"vehicle_type_id":"4","last_reported":1701972569,"current_range_meters":11600,"station_id":"ce4bhah2rcd13ifvqei0","pricing_plan_id":"free"},{"bike_id":"d4e0c931-1164-4f14-ab67-4cb166c71a13","system_id":"levelo_inurba_marseille","lat":43.2944,"lon":5.39753,"is_reserved":false,"is_disabled":false,"rental_uris":{"android":"levelo://app?vid=d4e0c931-1164-4f14-ab67-4cb166c71a13","ios":"levelo://app?vid=d4e0c931-1164-4f14-ab67-4cb166c71a13"},"vehicle_type_id":"4","last_reported":1701972569,"current_range_meters":5600,"station_id":"ce4bh3h2rcd13ifvqdo0","pricing_plan_id":"free"},{"bike_id":"1eb27c55-81be-4ca7-9166-bd97b28441a2","system_id":"levelo_inurba_marseille","lat":43.319179,"lon":5.407725,"is_reserved":false,"is_disabled":false,"rental_uris":{"android":"levelo://app?vid=1eb27c55-81be-4ca7-9166-bd97b28441a2","ios":"levelo://app?vid=1eb27c55-81be-4ca7-9166-bd97b28441a2"},"vehicle_type_id":"4","last_reported":1701972569,"current_range_meters":18000,"station_id":"ce4bhq12rcd13ifvqhig","pricing_plan_id":"free"},{"bike_id":"b77d28e4-5c0e-4a7f-b184-8b5c352d6957","system_id":"levelo_inurba_marseille","lat":43.319179,"lon":5.407725,"is_reserved":false,"is_disabled":false,"rental_uris":{"android":"levelo://app?vid=b77d28e4-5c0e-4a7f-b184-8b5c352d6957","ios":"levelo://app?vid=b77d28e4-5c0e-4a7f-b184-8b5c352d6957"},"vehicle_type_id":"4","last_reported":1701972569,"current_range_meters":12800,"station_id":"ce4bhq12rcd13ifvqhig","pricing_plan_id":"free"},{"bike_id":"06070a5a-4b04-4262-80e6-ef3153c54cac","system_id":"levelo_inurba_marseille","lat":43.319179,"lon":5.407725,"is_reserved":false,"is_disabled":false,"rental_uris":{"android":"levelo://app?vid=06070a5a-4b04-4262-80e6-ef3153c54cac","ios":"levelo://app?vid=06070a5a-4b04-4262-80e6-ef3153c54cac"},"vehicle_type_id":"4","last_reported":1701972569,"current_range_meters":10000,"station_id":"ce4bhq12rcd13ifvqhig","pricing_plan_id":"free"},{"bike_id":"b0e7298d-5203-4983-b7f7-60b8fee86899","system_id":"levelo_inurba_marseille","lat":43.33717,"lon":5.391857,"is_reserved":false,"is_disabled":false,"rental_uris":{"android":"levelo://app?vid=b0e7298d-5203-4983-b7f7-60b8fee86899","ios":"levelo://app?vid=b0e7298d-5203-4983-b7f7-60b8fee86899"},"vehicle_type_id":"4","last_reported":1701972569,"current_range_meters":31200,"station_id":"ce4bhr92rcd13ifvqhsg","pricing_plan_id":"free"},{"bike_id":"f08b5a13-3147-4878-b0f1-29a46553b8dd","system_id":"levelo_inurba_marseille","lat":43.284793,"lon":5.384113,"is_reserved":false,"is_disabled":false,"rental_uris":{"android":"levelo://app?vid=f08b5a13-3147-4878-b0f1-29a46553b8dd","ios":"levelo://app?vid=f08b5a13-3147-4878-b0f1-29a46553b8dd"},"vehicle_type_id":"4","last_reported":1701972569,"current_range_meters":7600,"station_id":"ce4bh512rcd13ifvqe3g","pricing_plan_id":"free"},{"bike_id":"56ac9cc9-bb61-47d5-bb32-c23299a9fd93","system_id":"levelo_inurba_marseille","lat":43.32255,"lon":5.407,"is_reserved":false,"is_disabled":false,"rental_uris":{"android":"levelo://app?vid=56ac9cc9-bb61-47d5-bb32-c23299a9fd93","ios":"levelo://app?vid=56ac9cc9-bb61-47d5-bb32-c23299a9fd93"},"vehicle_type_id":"4","last_reported":1701972569,"current_range_meters":27200,"station_id":"","pricing_plan_id":"free"},{"bike_id":"e0337e76-f60a-4f00-8f18-c942e81164e1","system_id":"levelo_inurba_marseille","lat":43.283502,"lon":5.386471,"is_reserved":false,"is_disabled":false,"rental_uris":{"android":"levelo://app?vid=e0337e76-f60a-4f00-8f18-c942e81164e1","ios":"levelo://app?vid=e0337e76-f60a-4f00-8f18-c942e81164e1"},"vehicle_type_id":"4","last_reported":1701972569,"current_range_meters":13600,"station_id":"ce4bh492rcd13ifvqdvg","pricing_plan_id":"free"},{"bike_id":"eb8cbc53-a540-4691-8c3b-0681c41b0d15","system_id":"levelo_inurba_marseille","lat":43.28039,"lon":5.369297,"is_reserved":false,"is_disabled":false,"rental_uris":{"android":"levelo://app?vid=eb8cbc53-a540-4691-8c3b-0681c41b0d15","ios":"levelo://app?vid=eb8cbc53-a540-4691-8c3b-0681c41b0d15"},"vehicle_type_id":"4","last_reported":1701972569,"current_range_meters":28800,"station_id":"ce4bha12rcd13ifvqef0","pricing_plan_id":"free"},{"bike_id":"b43d95a0-c50c-440a-a347-f90a30c97528","system_id":"levelo_inurba_marseille","lat":43.280382,"lon":5.369291,"is_reserved":false,"is_disabled":false,"rental_uris":{"android":"levelo://app?vid=b43d95a0-c50c-440a-a347-f90a30c97528","ios":"levelo://app?vid=b43d95a0-c50c-440a-a347-f90a30c97528"},"vehicle_type_id":"4","last_reported":1701972569,"current_range_meters":7600,"station_id":"ce4bha12rcd13ifvqef0","pricing_plan_id":"free"},{"bike_id":"b2b56eff-b6c5-450d-bff1-b448354e239a","system_id":"levelo_inurba_marseille","lat":43.290412,"lon":5.399633,"is_reserved":false,"is_disabled":false,"rental_uris":{"android":"levelo://app?vid=b2b56eff-b6c5-450d-bff1-b448354e239a","ios":"levelo://app?vid=b2b56eff-b6c5-450d-bff1-b448354e239a"},"vehicle_type_id":"4","last_reported":1701972569,"current_range_meters":0,"station_id":"ce4bh392rcd13ifvqdm0","pricing_plan_id":"free"},{"bike_id":"b38fc20e-63a3-408c-8274-63e5407599a9","system_id":"levelo_inurba_marseille","lat":43.281044,"lon":5.378308,"is_reserved":false,"is_disabled":false,"rental_uris":{"android":"levelo://app?vid=b38fc20e-63a3-408c-8274-63e5407599a9","ios":"levelo://app?vid=b38fc20e-63a3-408c-8274-63e5407599a9"},"vehicle_type_id":"4","last_reported":1701972569,"current_range_meters":18800,"station_id":"ce4bha12rcd13ifvqee0","pricing_plan_id":"free"},{"bike_id":"d5f463f1-42f7-4b4b-beab-188bb98bb28a","system_id":"levelo_inurba_marseille","lat":43.28098,"lon":5.37837,"is_reserved":false,"is_disabled":false,"rental_uris":{"android":"levelo://app?vid=d5f463f1-42f7-4b4b-beab-188bb98bb28a","ios":"levelo://app?vid=d5f463f1-42f7-4b4b-beab-188bb98bb28a"},"vehicle_type_id":"4","last_reported":1701972569,"current_range_meters":0,"station_id":"ce4bha12rcd13ifvqee0","pricing_plan_id":"free"},{"bike_id":"4000cd4c-a5ce-4dcd-948a-773d531e039b","system_id":"levelo_inurba_marseille","lat":43.28573,"lon":5.394992,"is_reserved":false,"is_disabled":false,"rental_uris":{"android":"levelo://app?vid=4000cd4c-a5ce-4dcd-948a-773d531e039b","ios":"levelo://app?vid=4000cd4c-a5ce-4dcd-948a-773d531e039b"},"vehicle_type_id":"4","last_reported":1701972569,"current_range_meters":2400,"station_id":"ce4bh292rcd13ifvqdg0","pricing_plan_id":"free"},{"bike_id":"b30d2dad-ac20-4642-b480-f4a11b7b087f","system_id":"levelo_inurba_marseille","lat":43.326605,"lon":5.409903,"is_reserved":false,"is_disabled":false,"rental_uris":{"android":"levelo://app?vid=b30d2dad-ac20-4642-b480-f4a11b7b087f","ios":"levelo://app?vid=b30d2dad-ac20-4642-b480-f4a11b7b087f"},"vehicle_type_id":"4","last_reported":1701972569,"current_range_meters":0,"station_id":"ce4bhpp2rcd13ifvqhgg","pricing_plan_id":"free"},{"bike_id":"1062989e-5509-4131-add8-21721d8275d9","system_id":"levelo_inurba_marseille","lat":43.304188,"lon":5.412904,"is_reserved":false,"is_disabled":false,"rental_uris":{"android":"levelo://app?vid=1062989e-5509-4131-add8-21721d8275d9","ios":"levelo://app?vid=1062989e-5509-4131-add8-21721d8275d9"},"vehicle_type_id":"4","last_reported":1701972569,"current_range_meters":21200,"station_id":"ce4bhop2rcd13ifvqh8g","pricing_plan_id":"free"},{"bike_id":"f8f7feeb-2aed-49f5-b134-60a4b8ab434c","system_id":"levelo_inurba_marseille","lat":43.279087,"lon":5.380114,"is_reserved":false,"is_disabled":false,"rental_uris":{"android":"levelo://app?vid=f8f7feeb-2aed-49f5-b134-60a4b8ab434c","ios":"levelo://app?vid=f8f7feeb-2aed-49f5-b134-60a4b8ab434c"},"vehicle_type_id":"4","last_reported":1701972569,"current_range_meters":25600,"station_id":"ce4bhf92rcd13ifvqf50","pricing_plan_id":"free"},{"bike_id":"b5dcb082-1f7b-43f3-b562-c9e171939dea","system_id":"levelo_inurba_marseille","lat":43.320045,"lon":5.415046,"is_reserved":false,"is_disabled":false,"rental_uris":{"android":"levelo://app?vid=b5dcb082-1f7b-43f3-b562-c9e171939dea","ios":"levelo://app?vid=b5dcb082-1f7b-43f3-b562-c9e171939dea"},"vehicle_type_id":"4","last_reported":1701972569,"current_range_meters":4000,"station_id":"ce4bhq92rcd13ifvqhkg","pricing_plan_id":"free"},{"bike_id":"c8fbb43a-59ea-4b2d-a2aa-2938f2a0364f","system_id":"levelo_inurba_marseille","lat":43.320045,"lon":5.415046,"is_reserved":false,"is_disabled":false,"rental_uris":{"android":"levelo://app?vid=c8fbb43a-59ea-4b2d-a2aa-2938f2a0364f","ios":"levelo://app?vid=c8fbb43a-59ea-4b2d-a2aa-2938f2a0364f"},"vehicle_type_id":"4","last_reported":1701972569,"current_range_meters":22000,"station_id":"ce4bhq92rcd13ifvqhkg","pricing_plan_id":"free"},{"bike_id":"9a3f0b79-3d38-41f5-910b-ef1ce1266b90","system_id":"levelo_inurba_marseille","lat":43.27619,"lon":5.36102,"is_reserved":false,"is_disabled":false,"rental_uris":{"android":"levelo://app?vid=9a3f0b79-3d38-41f5-910b-ef1ce1266b90","ios":"levelo://app?vid=9a3f0b79-3d38-41f5-910b-ef1ce1266b90"},"vehicle_type_id":"4","last_reported":1701972569,"current_range_meters":6400,"station_id":"ce4bgj92rcd13ifvqbe0","pricing_plan_id":"free"},{"bike_id":"609b95e4-4c0a-4fb4-acca-4e2794900154","system_id":"levelo_inurba_marseille","lat":43.325243,"lon":5.414326,"is_reserved":false,"is_disabled":false,"rental_uris":{"android":"levelo://app?vid=609b95e4-4c0a-4fb4-acca-4e2794900154","ios":"levelo://app?vid=609b95e4-4c0a-4fb4-acca-4e2794900154"},"vehicle_type_id":"4","last_reported":1701972569,"current_range_meters":12400,"station_id":"ce4bhq12rcd13ifvqhhg","pricing_plan_id":"free"},{"bike_id":"850d58e6-e581-4631-870b-3400b0d3bf60","system_id":"levelo_inurba_marseille","lat":43.28091,"lon":5.39677,"is_reserved":false,"is_disabled":false,"rental_uris":{"android":"levelo://app?vid=850d58e6-e581-4631-870b-3400b0d3bf60","ios":"levelo://app?vid=850d58e6-e581-4631-870b-3400b0d3bf60"},"vehicle_type_id":"4","last_reported":1701972569,"current_range_meters":11200,"station_id":"ce4bho12rcd13ifvqh2g","pricing_plan_id":"free"},{"bike_id":"6001a8a3-1715-4d67-ae24-1286ec7f5762","system_id":"levelo_inurba_marseille","lat":43.303837,"lon":5.418724,"is_reserved":false,"is_disabled":false,"rental_uris":{"android":"levelo://app?vid=6001a8a3-1715-4d67-ae24-1286ec7f5762","ios":"levelo://app?vid=6001a8a3-1715-4d67-ae24-1286ec7f5762"},"vehicle_type_id":"4","last_reported":1701972569,"current_range_meters":16000,"station_id":"ce4bhop2rcd13ifvqh7g","pricing_plan_id":"free"},{"bike_id":"7f7a3200-1467-4501-a6dc-73fcc0674271","system_id":"levelo_inurba_marseille","lat":43.278401,"lon":5.392152,"is_reserved":false,"is_disabled":false,"rental_uris":{"android":"levelo://app?vid=7f7a3200-1467-4501-a6dc-73fcc0674271","ios":"levelo://app?vid=7f7a3200-1467-4501-a6dc-73fcc0674271"},"vehicle_type_id":"4","last_reported":1701972569,"current_range_meters":21200,"station_id":"ce4bhjp2rcd13ifvqga0","pricing_plan_id":"free"},{"bike_id":"00c2f9fd-15d6-4e7a-8f6c-b6afb76807e5","system_id":"levelo_inurba_marseille","lat":43.276769,"lon":5.388787,"is_reserved":false,"is_disabled":false,"rental_uris":{"android":"levelo://app?vid=00c2f9fd-15d6-4e7a-8f6c-b6afb76807e5","ios":"levelo://app?vid=00c2f9fd-15d6-4e7a-8f6c-b6afb76807e5"},"vehicle_type_id":"4","last_reported":1701972569,"current_range_meters":14000,"station_id":"ce4bhi12rcd13ifvqfo0","pricing_plan_id":"free"},{"bike_id":"26c725b4-61bb-42ca-a7ef-77339e4fc763","system_id":"levelo_inurba_marseille","lat":43.272124,"lon":5.391768,"is_reserved":false,"is_disabled":false,"rental_uris":{"android":"levelo://app?vid=26c725b4-61bb-42ca-a7ef-77339e4fc763","ios":"levelo://app?vid=26c725b4-61bb-42ca-a7ef-77339e4fc763"},"vehicle_type_id":"4","last_reported":1701972569,"current_range_meters":27600,"station_id":"ce4bhhp2rcd13ifvqfm0","pricing_plan_id":"free"},{"bike_id":"cd433cee-b287-48ae-ae0f-daf111d2745d","system_id":"levelo_inurba_marseille","lat":43.272124,"lon":5.391768,"is_reserved":false,"is_disabled":false,"rental_uris":{"android":"levelo://app?vid=cd433cee-b287-48ae-ae0f-daf111d2745d","ios":"levelo://app?vid=cd433cee-b287-48ae-ae0f-daf111d2745d"},"vehicle_type_id":"4","last_reported":1701972569,"current_range_meters":1200,"station_id":"ce4bhhp2rcd13ifvqfm0","pricing_plan_id":"free"},{"bike_id":"f35dc4a8-952d-4ba7-a2b7-56aaa79cebe8","system_id":"levelo_inurba_marseille","lat":43.272116,"lon":5.391747,"is_reserved":false,"is_disabled":false,"rental_uris":{"android":"levelo://app?vid=f35dc4a8-952d-4ba7-a2b7-56aaa79cebe8","ios":"levelo://app?vid=f35dc4a8-952d-4ba7-a2b7-56aaa79cebe8"},"vehicle_type_id":"4","last_reported":1701972569,"current_range_meters":12400,"station_id":"ce4bhhp2rcd13ifvqfm0","pricing_plan_id":"free"},{"bike_id":"77e2df1b-d75a-48fe-a6ad-744dfbe91f1d","system_id":"levelo_inurba_marseille","lat":43.27214,"lon":5.3925,"is_reserved":false,"is_disabled":false,"rental_uris":{"android":"levelo://app?vid=77e2df1b-d75a-48fe-a6ad-744dfbe91f1d","ios":"levelo://app?vid=77e2df1b-d75a-48fe-a6ad-744dfbe91f1d"},"vehicle_type_id":"4","last_reported":1701972569,"current_range_meters":8400,"station_id":"","pricing_plan_id":"free"},{"bike_id":"bfb210ac-7a8e-4b12-bffb-2872e5669a6f","system_id":"levelo_inurba_marseille","lat":43.278128,"lon":5.407195,"is_reserved":false,"is_disabled":false,"rental_uris":{"android":"levelo://app?vid=bfb210ac-7a8e-4b12-bffb-2872e5669a6f","ios":"levelo://app?vid=bfb210ac-7a8e-4b12-bffb-2872e5669a6f"},"vehicle_type_id":"4","last_reported":1701972569,"current_range_meters":0,"station_id":"ce4bhnh2rcd13ifvqgtg","pricing_plan_id":"free"},{"bike_id":"8a8bc4d6-0029-4fbf-9728-a692a0316877","system_id":"levelo_inurba_marseille","lat":43.271012,"lon":5.392509,"is_reserved":false,"is_disabled":false,"rental_uris":{"android":"levelo://app?vid=8a8bc4d6-0029-4fbf-9728-a692a0316877","ios":"levelo://app?vid=8a8bc4d6-0029-4fbf-9728-a692a0316877"},"vehicle_type_id":"4","last_reported":1701972569,"current_range_meters":3200,"station_id":"","pricing_plan_id":"free"},{"bike_id":"cd1651d1-9afd-4f87-ad0b-92c6ac6b10f5","system_id":"levelo_inurba_marseille","lat":43.279881,"lon":5.416579,"is_reserved":false,"is_disabled":false,"rental_uris":{"android":"levelo://app?vid=cd1651d1-9afd-4f87-ad0b-92c6ac6b10f5","ios":"levelo://app?vid=cd1651d1-9afd-4f87-ad0b-92c6ac6b10f5"},"vehicle_type_id":"4","last_reported":1701972569,"current_range_meters":9200,"station_id":"ce4bho12rcd13ifvqh1g","pricing_plan_id":"free"},{"bike_id":"5c62f0fe-2a68-4f0e-8c5e-1c3be35b64ff","system_id":"levelo_inurba_marseille","lat":43.29176,"lon":5.42793,"is_reserved":false,"is_disabled":false,"rental_uris":{"android":"levelo://app?vid=5c62f0fe-2a68-4f0e-8c5e-1c3be35b64ff","ios":"levelo://app?vid=5c62f0fe-2a68-4f0e-8c5e-1c3be35b64ff"},"vehicle_type_id":"4","last_reported":1701972569,"current_range_meters":14400,"station_id":"","pricing_plan_id":"free"},{"bike_id":"0ddc6a60-59d0-4e16-84d2-6d815ef9873e","system_id":"levelo_inurba_marseille","lat":43.308051,"lon":5.43527,"is_reserved":false,"is_disabled":false,"rental_uris":{"android":"levelo://app?vid=0ddc6a60-59d0-4e16-84d2-6d815ef9873e","ios":"levelo://app?vid=0ddc6a60-59d0-4e16-84d2-6d815ef9873e"},"vehicle_type_id":"4","last_reported":1701972569,"current_range_meters":30400,"station_id":"ce4bhph2rcd13ifvqheg","pricing_plan_id":"free"},{"bike_id":"5872c564-37fc-4885-b0fa-c9509abc60cf","system_id":"levelo_inurba_marseille","lat":43.265619,"lon":5.390162,"is_reserved":false,"is_disabled":false,"rental_uris":{"android":"levelo://app?vid=5872c564-37fc-4885-b0fa-c9509abc60cf","ios":"levelo://app?vid=5872c564-37fc-4885-b0fa-c9509abc60cf"},"vehicle_type_id":"4","last_reported":1701972569,"current_range_meters":28000,"station_id":"ce4bhe12rcd13ifvqf30","pricing_plan_id":"free"},{"bike_id":"ed3d39e3-16d0-4193-b5f3-7d15fa62181e","system_id":"levelo_inurba_marseille","lat":43.262012,"lon":5.379307,"is_reserved":false,"is_disabled":false,"rental_uris":{"android":"levelo://app?vid=ed3d39e3-16d0-4193-b5f3-7d15fa62181e","ios":"levelo://app?vid=ed3d39e3-16d0-4193-b5f3-7d15fa62181e"},"vehicle_type_id":"4","last_reported":1701972569,"current_range_meters":25600,"station_id":"ce4bhjp2rcd13ifvqg90","pricing_plan_id":"free"},{"bike_id":"c1c633b1-949d-4123-8171-c197a14e353e","system_id":"levelo_inurba_marseille","lat":43.27182,"lon":5.409913,"is_reserved":false,"is_disabled":false,"rental_uris":{"android":"levelo://app?vid=c1c633b1-949d-4123-8171-c197a14e353e","ios":"levelo://app?vid=c1c633b1-949d-4123-8171-c197a14e353e"},"vehicle_type_id":"4","last_reported":1701972569,"current_range_meters":9600,"station_id":"ce4bhl12rcd13ifvqgf0","pricing_plan_id":"free"},{"bike_id":"83e2018e-7127-4415-8bbf-2e347a9c6750","system_id":"levelo_inurba_marseille","lat":43.29897,"lon":5.43661,"is_reserved":false,"is_disabled":false,"rental_uris":{"android":"levelo://app?vid=83e2018e-7127-4415-8bbf-2e347a9c6750","ios":"levelo://app?vid=83e2018e-7127-4415-8bbf-2e347a9c6750"},"vehicle_type_id":"4","last_reported":1701972569,"current_range_meters":7200,"station_id":"ce4bhpp2rcd13ifvqhfg","pricing_plan_id":"free"},{"bike_id":"4f68f183-a711-4386-a731-e8ea8e2f115e","system_id":"levelo_inurba_marseille","lat":43.298768,"lon":5.43643,"is_reserved":false,"is_disabled":false,"rental_uris":{"android":"levelo://app?vid=4f68f183-a711-4386-a731-e8ea8e2f115e","ios":"levelo://app?vid=4f68f183-a711-4386-a731-e8ea8e2f115e"},"vehicle_type_id":"4","last_reported":1701972569,"current_range_meters":27200,"station_id":"ce4bhpp2rcd13ifvqhfg","pricing_plan_id":"free"},{"bike_id":"ca4db8a8-5b98-4b78-bc3d-514f38028a3d","system_id":"levelo_inurba_marseille","lat":43.298768,"lon":5.43643,"is_reserved":false,"is_disabled":false,"rental_uris":{"android":"levelo://app?vid=ca4db8a8-5b98-4b78-bc3d-514f38028a3d","ios":"levelo://app?vid=ca4db8a8-5b98-4b78-bc3d-514f38028a3d"},"vehicle_type_id":"4","last_reported":1701972569,"current_range_meters":22400,"station_id":"ce4bhpp2rcd13ifvqhfg","pricing_plan_id":"free"},{"bike_id":"0a3af9fe-4495-4765-a364-07e789cdace4","system_id":"levelo_inurba_marseille","lat":43.298768,"lon":5.43643,"is_reserved":false,"is_disabled":false,"rental_uris":{"android":"levelo://app?vid=0a3af9fe-4495-4765-a364-07e789cdace4","ios":"levelo://app?vid=0a3af9fe-4495-4765-a364-07e789cdace4"},"vehicle_type_id":"4","last_reported":1701972569,"current_range_meters":29200,"station_id":"ce4bhpp2rcd13ifvqhfg","pricing_plan_id":"free"},{"bike_id":"3cc5cf78-58d1-4e0b-8786-521f677431b2","system_id":"levelo_inurba_marseille","lat":43.281548,"lon":5.42643,"is_reserved":false,"is_disabled":false,"rental_uris":{"android":"levelo://app?vid=3cc5cf78-58d1-4e0b-8786-521f677431b2","ios":"levelo://app?vid=3cc5cf78-58d1-4e0b-8786-521f677431b2"},"vehicle_type_id":"4","last_reported":1701972569,"current_range_meters":26800,"station_id":"ce4bhnh2rcd13ifvqgug","pricing_plan_id":"free"},{"bike_id":"b13d38ce-5f53-4fd8-a1c9-e1f1d0d516e7","system_id":"levelo_inurba_marseille","lat":43.281548,"lon":5.42643,"is_reserved":false,"is_disabled":false,"rental_uris":{"android":"levelo://app?vid=b13d38ce-5f53-4fd8-a1c9-e1f1d0d516e7","ios":"levelo://app?vid=b13d38ce-5f53-4fd8-a1c9-e1f1d0d516e7"},"vehicle_type_id":"4","last_reported":1701972569,"current_range_meters":26800,"station_id":"ce4bhnh2rcd13ifvqgug","pricing_plan_id":"free"},{"bike_id":"6c4a4127-c4de-4571-99d2-c4e93580765c","system_id":"levelo_inurba_marseille","lat":43.281548,"lon":5.42643,"is_reserved":false,"is_disabled":false,"rental_uris":{"android":"levelo://app?vid=6c4a4127-c4de-4571-99d2-c4e93580765c","ios":"levelo://app?vid=6c4a4127-c4de-4571-99d2-c4e93580765c"},"vehicle_type_id":"4","last_reported":1701972569,"current_range_meters":20800,"station_id":"ce4bhnh2rcd13ifvqgug","pricing_plan_id":"free"},{"bike_id":"c2edc354-3ba4-477d-8448-4ce787d4af44","system_id":"levelo_inurba_marseille","lat":43.281548,"lon":5.42643,"is_reserved":false,"is_disabled":false,"rental_uris":{"android":"levelo://app?vid=c2edc354-3ba4-477d-8448-4ce787d4af44","ios":"levelo://app?vid=c2edc354-3ba4-477d-8448-4ce787d4af44"},"vehicle_type_id":"4","last_reported":1701972569,"current_range_meters":30800,"station_id":"ce4bhnh2rcd13ifvqgug","pricing_plan_id":"free"},{"bike_id":"ba7ddf79-ff50-4f5c-8fc6-82d165f47152","system_id":"levelo_inurba_marseille","lat":43.28156,"lon":5.42655,"is_reserved":false,"is_disabled":false,"rental_uris":{"android":"levelo://app?vid=ba7ddf79-ff50-4f5c-8fc6-82d165f47152","ios":"levelo://app?vid=ba7ddf79-ff50-4f5c-8fc6-82d165f47152"},"vehicle_type_id":"4","last_reported":1701972569,"current_range_meters":6800,"station_id":"ce4bhnh2rcd13ifvqgug","pricing_plan_id":"free"},{"bike_id":"0fa93ede-0ded-408f-9e3a-4eb472692beb","system_id":"levelo_inurba_marseille","lat":43.2607,"lon":5.393983,"is_reserved":false,"is_disabled":false,"rental_uris":{"android":"levelo://app?vid=0fa93ede-0ded-408f-9e3a-4eb472692beb","ios":"levelo://app?vid=0fa93ede-0ded-408f-9e3a-4eb472692beb"},"vehicle_type_id":"4","last_reported":1701972569,"current_range_meters":3200,"station_id":"ce4bhh92rcd13ifvqfj0","pricing_plan_id":"free"},{"bike_id":"1007d281-2790-4c48-a03b-57b7fdb10a09","system_id":"levelo_inurba_marseille","lat":43.2607,"lon":5.393983,"is_reserved":false,"is_disabled":false,"rental_uris":{"android":"levelo://app?vid=1007d281-2790-4c48-a03b-57b7fdb10a09","ios":"levelo://app?vid=1007d281-2790-4c48-a03b-57b7fdb10a09"},"vehicle_type_id":"4","last_reported":1701972569,"current_range_meters":1200,"station_id":"ce4bhh92rcd13ifvqfj0","pricing_plan_id":"free"},{"bike_id":"69e269c7-b8a5-49fa-a48e-8b82c1a13e72","system_id":"levelo_inurba_marseille","lat":43.258224,"lon":5.394369,"is_reserved":false,"is_disabled":false,"rental_uris":{"android":"levelo://app?vid=69e269c7-b8a5-49fa-a48e-8b82c1a13e72","ios":"levelo://app?vid=69e269c7-b8a5-49fa-a48e-8b82c1a13e72"},"vehicle_type_id":"4","last_reported":1701972569,"current_range_meters":6000,"station_id":"ce4bhip2rcd13ifvqft0","pricing_plan_id":"free"},{"bike_id":"62264a2e-a46a-436a-8c5b-68fff31e50a6","system_id":"levelo_inurba_marseille","lat":43.258205,"lon":5.394369,"is_reserved":false,"is_disabled":false,"rental_uris":{"android":"levelo://app?vid=62264a2e-a46a-436a-8c5b-68fff31e50a6","ios":"levelo://app?vid=62264a2e-a46a-436a-8c5b-68fff31e50a6"},"vehicle_type_id":"4","last_reported":1701972569,"current_range_meters":16800,"station_id":"ce4bhip2rcd13ifvqft0","pricing_plan_id":"free"},{"bike_id":"c4075084-49a4-4d1b-b71a-0a6129a730fa","system_id":"levelo_inurba_marseille","lat":43.270721,"lon":5.422764,"is_reserved":false,"is_disabled":false,"rental_uris":{"android":"levelo://app?vid=c4075084-49a4-4d1b-b71a-0a6129a730fa","ios":"levelo://app?vid=c4075084-49a4-4d1b-b71a-0a6129a730fa"},"vehicle_type_id":"4","last_reported":1701972569,"current_range_meters":25600,"station_id":"ce4bhk92rcd13ifvqgb0","pricing_plan_id":"free"},{"bike_id":"988506ac-2c90-4ef1-890a-b9028b8dac3f","system_id":"levelo_inurba_marseille","lat":43.270721,"lon":5.422764,"is_reserved":false,"is_disabled":false,"rental_uris":{"android":"levelo://app?vid=988506ac-2c90-4ef1-890a-b9028b8dac3f","ios":"levelo://app?vid=988506ac-2c90-4ef1-890a-b9028b8dac3f"},"vehicle_type_id":"4","last_reported":1701972569,"current_range_meters":27600,"station_id":"ce4bhk92rcd13ifvqgb0","pricing_plan_id":"free"},{"bike_id":"0683a2d5-fe2d-479b-b729-af58b98d1789","system_id":"levelo_inurba_marseille","lat":43.270721,"lon":5.422764,"is_reserved":false,"is_disabled":false,"rental_uris":{"android":"levelo://app?vid=0683a2d5-fe2d-479b-b729-af58b98d1789","ios":"levelo://app?vid=0683a2d5-fe2d-479b-b729-af58b98d1789"},"vehicle_type_id":"4","last_reported":1701972569,"current_range_meters":1200,"station_id":"ce4bhk92rcd13ifvqgb0","pricing_plan_id":"free"},{"bike_id":"8886fdc1-9a1b-4e38-bf9d-837cd7cd00b6","system_id":"levelo_inurba_marseille","lat":43.279292,"lon":5.443148,"is_reserved":false,"is_disabled":false,"rental_uris":{"android":"levelo://app?vid=8886fdc1-9a1b-4e38-bf9d-837cd7cd00b6","ios":"levelo://app?vid=8886fdc1-9a1b-4e38-bf9d-837cd7cd00b6"},"vehicle_type_id":"4","last_reported":1701972569,"current_range_meters":19200,"station_id":"","pricing_plan_id":"free"},{"bike_id":"06cc70de-7146-4da6-b747-f32cca09a658","system_id":"levelo_inurba_marseille","lat":43.250966,"lon":5.395186,"is_reserved":false,"is_disabled":false,"rental_uris":{"android":"levelo://app?vid=06cc70de-7146-4da6-b747-f32cca09a658","ios":"levelo://app?vid=06cc70de-7146-4da6-b747-f32cca09a658"},"vehicle_type_id":"4","last_reported":1701972569,"current_range_meters":400,"station_id":"ce4bhm12rcd13ifvqgkg","pricing_plan_id":"free"},{"bike_id":"f730e9b4-2270-488f-9f80-495a5190f7b7","system_id":"levelo_inurba_marseille","lat":43.24693,"lon":5.382096,"is_reserved":false,"is_disabled":false,"rental_uris":{"android":"levelo://app?vid=f730e9b4-2270-488f-9f80-495a5190f7b7","ios":"levelo://app?vid=f730e9b4-2270-488f-9f80-495a5190f7b7"},"vehicle_type_id":"4","last_reported":1701972569,"current_range_meters":14800,"station_id":"ce4bhih2rcd13ifvqfr0","pricing_plan_id":"free"},{"bike_id":"bdea2f84-8463-4a21-992e-3a05426a7e62","system_id":"levelo_inurba_marseille","lat":43.246461,"lon":5.389014,"is_reserved":false,"is_disabled":false,"rental_uris":{"android":"levelo://app?vid=bdea2f84-8463-4a21-992e-3a05426a7e62","ios":"levelo://app?vid=bdea2f84-8463-4a21-992e-3a05426a7e62"},"vehicle_type_id":"4","last_reported":1701972569,"current_range_meters":21200,"station_id":"ce4bhg12rcd13ifvqf60","pricing_plan_id":"free"},{"bike_id":"7ece5855-fe49-46dd-ba3f-2d015925612a","system_id":"levelo_inurba_marseille","lat":43.239588,"lon":5.366238,"is_reserved":false,"is_disabled":false,"rental_uris":{"android":"levelo://app?vid=7ece5855-fe49-46dd-ba3f-2d015925612a","ios":"levelo://app?vid=7ece5855-fe49-46dd-ba3f-2d015925612a"},"vehicle_type_id":"4","last_reported":1701972569,"current_range_meters":28800,"station_id":"ce4bhi12rcd13ifvqfp0","pricing_plan_id":"free"},{"bike_id":"f8ad16cb-eeb1-4117-85c6-70a646954885","system_id":"levelo_inurba_marseille","lat":43.239588,"lon":5.366238,"is_reserved":false,"is_disabled":false,"rental_uris":{"android":"levelo://app?vid=f8ad16cb-eeb1-4117-85c6-70a646954885","ios":"levelo://app?vid=f8ad16cb-eeb1-4117-85c6-70a646954885"},"vehicle_type_id":"4","last_reported":1701972569,"current_range_meters":18000,"station_id":"ce4bhi12rcd13ifvqfp0","pricing_plan_id":"free"},{"bike_id":"1656cc4c-b9b8-48a5-a7ce-d878d4297ec9","system_id":"levelo_inurba_marseille","lat":43.23964,"lon":5.36623,"is_reserved":false,"is_disabled":false,"rental_uris":{"android":"levelo://app?vid=1656cc4c-b9b8-48a5-a7ce-d878d4297ec9","ios":"levelo://app?vid=1656cc4c-b9b8-48a5-a7ce-d878d4297ec9"},"vehicle_type_id":"4","last_reported":1701972569,"current_range_meters":27200,"station_id":"ce4bhi12rcd13ifvqfp0","pricing_plan_id":"free"},{"bike_id":"7fb0f437-2534-4c82-a071-a834d78df9bc","system_id":"levelo_inurba_marseille","lat":43.23195,"lon":5.35552,"is_reserved":false,"is_disabled":false,"rental_uris":{"android":"levelo://app?vid=7fb0f437-2534-4c82-a071-a834d78df9bc","ios":"levelo://app?vid=7fb0f437-2534-4c82-a071-a834d78df9bc"},"vehicle_type_id":"4","last_reported":1701972569,"current_range_meters":0,"station_id":"ce4bhu92rcd13ifvqi70","pricing_plan_id":"free"},{"bike_id":"7f38349e-7d25-4f3c-b1b1-9b8fde21589e","system_id":"levelo_inurba_marseille","lat":43.231919,"lon":5.355532,"is_reserved":false,"is_disabled":false,"rental_uris":{"android":"levelo://app?vid=7f38349e-7d25-4f3c-b1b1-9b8fde21589e","ios":"levelo://app?vid=7f38349e-7d25-4f3c-b1b1-9b8fde21589e"},"vehicle_type_id":"4","last_reported":1701972569,"current_range_meters":28800,"station_id":"ce4bhu92rcd13ifvqi70","pricing_plan_id":"free"},{"bike_id":"6c4620c0-0d4d-493f-9950-4fd3c4457696","system_id":"levelo_inurba_marseille","lat":43.231794,"lon":5.400052,"is_reserved":false,"is_disabled":false,"rental_uris":{"android":"levelo://app?vid=6c4620c0-0d4d-493f-9950-4fd3c4457696","ios":"levelo://app?vid=6c4620c0-0d4d-493f-9950-4fd3c4457696"},"vehicle_type_id":"4","last_reported":1701972569,"current_range_meters":31200,"station_id":"ce4bhn12rcd13ifvqgqg","pricing_plan_id":"free"},{"bike_id":"be845917-f52e-4a9f-83ff-909546a09332","system_id":"levelo_inurba_marseille","lat":43.231794,"lon":5.400052,"is_reserved":false,"is_disabled":false,"rental_uris":{"android":"levelo://app?vid=be845917-f52e-4a9f-83ff-909546a09332","ios":"levelo://app?vid=be845917-f52e-4a9f-83ff-909546a09332"},"vehicle_type_id":"4","last_reported":1701972569,"current_range_meters":26400,"station_id":"ce4bhn12rcd13ifvqgqg","pricing_plan_id":"free"},{"bike_id":"fc6dd1e0-8932-4c87-8e35-0ea516d746c2","system_id":"levelo_inurba_marseille","lat":43.231794,"lon":5.400052,"is_reserved":false,"is_disabled":false,"rental_uris":{"android":"levelo://app?vid=fc6dd1e0-8932-4c87-8e35-0ea516d746c2","ios":"levelo://app?vid=fc6dd1e0-8932-4c87-8e35-0ea516d746c2"},"vehicle_type_id":"4","last_reported":1701972569,"current_range_meters":3200,"station_id":"ce4bhn12rcd13ifvqgqg","pricing_plan_id":"free"},{"bike_id":"e9cd3935-5f07-4b11-8f1f-892312e6a875","system_id":"levelo_inurba_marseille","lat":43.23153,"lon":5.43717,"is_reserved":false,"is_disabled":false,"rental_uris":{"android":"levelo://app?vid=e9cd3935-5f07-4b11-8f1f-892312e6a875","ios":"levelo://app?vid=e9cd3935-5f07-4b11-8f1f-892312e6a875"},"vehicle_type_id":"4","last_reported":1701972569,"current_range_meters":0,"station_id":"ce4bhmp2rcd13ifvqgog","pricing_plan_id":"free"}]}}