{"last_updated":1783321206,"ttl":60,"version":"2.2","data":{"bikes":[{"bike_id":"ba0c28b1-8732-48e2-8079-f25b2b3fbc3c","system_id":"levelo_inurba_marseille","lat":43.337444,"lon":5.374475,"is_reserved":false,"is_disabled":false,"rental_uris":{"android":"levelo://app?vid=ba0c28b1-8732-48e2-8079-f25b2b3fbc3c","ios":"levelo://app?vid=ba0c28b1-8732-48e2-8079-f25b2b3fbc3c"},"vehicle_type_id":"4","last_reported":1783321207,"current_range_meters":0,"station_id":"","pricing_plan_id":"cebpf4jnsgd1na2vs0mg"},{"bike_id":"0258c125-282f-4adb-84e3-d806703dc533","system_id":"levelo_inurba_marseille","lat":43.31278,"lon":5.39398,"is_reserved":false,"is_disabled":false,"rental_uris":{"android":"levelo://app?vid=0258c125-282f-4adb-84e3-d806703dc533","ios":"levelo://app?vid=0258c125-282f-4adb-84e3-d806703dc533"},"vehicle_type_id":"4","last_reported":1783321207,"current_range_meters":400,"station_id":"","pricing_plan_id":"cebpf4jnsgd1na2vs0mg"},{"bike_id":"e30cbfa3-c081-47d7-9dce-01e6164a60d2","system_id":"levelo_inurba_marseille","lat":43.284401,"lon":5.392039,"is_reserved":false,"is_disabled":false,"rental_uris":{"android":"levelo://app?vid=e30cbfa3-c081-47d7-9dce-01e6164a60d2","ios":"levelo://app?vid=e30cbfa3-c081-47d7-9dce-01e6164a60d2"},"vehicle_type_id":"4","last_reported":1783321207,"current_range_meters":1200,"station_id":"","pricing_plan_id":"cebpf4jnsgd1na2vs0mg"},{"bike_id":"cb0b3c2c-377b-448d-8917-15c2b4a320aa","system_id":"levelo_inurba_marseille","lat":43.30145,"lon":5.38094,"is_reserved":false,"is_disabled":false,"rental_uris":{"android":"levelo://app?vid=cb0b3c2c-377b-448d-8917-15c2b4a320aa","ios":"levelo://app?vid=cb0b3c2c-377b-448d-8917-15c2b4a320aa"},"vehicle_type_id":"4","last_reported":1783321207,"current_range_meters":2800,"station_id":"ce4bgjp2rcd13ifvqbh0","pricing_plan_id":"cebpf4jnsgd1na2vs0mg"},{"bike_id":"5cb8aeb9-7e9d-4fac-9aa1-7f9eea91430d","system_id":"levelo_inurba_marseille","lat":43.23193,"lon":5.35557,"is_reserved":false,"is_disabled":false,"rental_uris":{"android":"levelo://app?vid=5cb8aeb9-7e9d-4fac-9aa1-7f9eea91430d","ios":"levelo://app?vid=5cb8aeb9-7e9d-4fac-9aa1-7f9eea91430d"},"vehicle_type_id":"4","last_reported":1783321207,"current_range_meters":2800,"station_id":"ce4bhu92rcd13ifvqi70","pricing_plan_id":"cebpf4jnsgd1na2vs0mg"},{"bike_id":"6cc9f99c-fc8e-44a0-b10a-d0f26f11a833","system_id":"levelo_inurba_marseille","lat":43.28239,"lon":5.38558,"is_reserved":false,"is_disabled":false,"rental_uris":{"android":"levelo://app?vid=6cc9f99c-fc8e-44a0-b10a-d0f26f11a833","ios":"levelo://app?vid=6cc9f99c-fc8e-44a0-b10a-d0f26f11a833"},"vehicle_type_id":"4","last_reported":1783321207,"current_range_meters":2800,"station_id":"","pricing_plan_id":"cebpf4jnsgd1na2vs0mg"},{"bike_id":"1c3439c1-3a9d-4e3c-87d1-7bf85587f455","system_id":"levelo_inurba_marseille","lat":43.28141,"lon":5.38212,"is_reserved":false,"is_disabled":false,"rental_uris":{"android":"levelo://app?vid=1c3439c1-3a9d-4e3c-87d1-7bf85587f455","ios":"levelo://app?vid=1c3439c1-3a9d-4e3c-87d1-7bf85587f455"},"vehicle_type_id":"4","last_reported":1783321207,"current_range_meters":2800,"station_id":"","pricing_plan_id":"cebpf4jnsgd1na2vs0mg"},{"bike_id":"0280cae0-08d7-4f06-a94a-abe8e009ab51","system_id":"levelo_inurba_marseille","lat":43.2487,"lon":5.39393,"is_reserved":false,"is_disabled":false,"rental_uris":{"android":"levelo://app?vid=0280cae0-08d7-4f06-a94a-abe8e009ab51","ios":"levelo://app?vid=0280cae0-08d7-4f06-a94a-abe8e009ab51"},"vehicle_type_id":"4","last_reported":1783321207,"current_range_meters":2800,"station_id":"","pricing_plan_id":"cebpf4jnsgd1na2vs0mg"},{"bike_id":"53d00e35-337c-47e0-8a42-436e6dd8c110","system_id":"levelo_inurba_marseille","lat":43.25393,"lon":5.3817,"is_reserved":false,"is_disabled":false,"rental_uris":{"android":"levelo://app?vid=53d00e35-337c-47e0-8a42-436e6dd8c110","ios":"levelo://app?vid=53d00e35-337c-47e0-8a42-436e6dd8c110"},"vehicle_type_id":"4","last_reported":1783321207,"current_range_meters":2800,"station_id":"","pricing_plan_id":"cebpf4jnsgd1na2vs0mg"},{"bike_id":"9dadcc2a-218e-43e6-91ce-4d81b302e86e","system_id":"levelo_inurba_marseille","lat":43.21745,"lon":5.34604,"is_reserved":false,"is_disabled":false,"rental_uris":{"android":"levelo://app?vid=9dadcc2a-218e-43e6-91ce-4d81b302e86e","ios":"levelo://app?vid=9dadcc2a-218e-43e6-91ce-4d81b302e86e"},"vehicle_type_id":"4","last_reported":1783321207,"current_range_meters":2800,"station_id":"st_cvj6r9ubvosntc0bgbag","pricing_plan_id":"cebpf4jnsgd1na2vs0mg"},{"bike_id":"bdf35a93-3a97-4c46-bbd9-7465f6d909d8","system_id":"levelo_inurba_marseille","lat":43.29911,"lon":5.37494,"is_reserved":false,"is_disabled":false,"rental_uris":{"android":"levelo://app?vid=bdf35a93-3a97-4c46-bbd9-7465f6d909d8","ios":"levelo://app?vid=bdf35a93-3a97-4c46-bbd9-7465f6d909d8"},"vehicle_type_id":"4","last_reported":1783321207,"current_range_meters":2800,"station_id":"ce4bgjh2rcd13ifvqbg0","pricing_plan_id":"cebpf4jnsgd1na2vs0mg"},{"bike_id":"637ca6f2-621c-4ae1-adb4-7b5112bde475","system_id":"levelo_inurba_marseille","lat":43.28658,"lon":5.36352,"is_reserved":false,"is_disabled":true,"rental_uris":{"android":"levelo://app?vid=637ca6f2-621c-4ae1-adb4-7b5112bde475","ios":"levelo://app?vid=637ca6f2-621c-4ae1-adb4-7b5112bde475"},"vehicle_type_id":"4","last_reported":1783321207,"current_range_meters":2800,"station_id":"ce4bhah2rcd13ifvqej0","pricing_plan_id":"cebpf4jnsgd1na2vs0mg"},{"bike_id":"a1cf856a-f99a-4c0d-9289-bcbaa7fe47c7","system_id":"levelo_inurba_marseille","lat":43.2849,"lon":5.38425,"is_reserved":false,"is_disabled":false,"rental_uris":{"android":"levelo://app?vid=a1cf856a-f99a-4c0d-9289-bcbaa7fe47c7","ios":"levelo://app?vid=a1cf856a-f99a-4c0d-9289-bcbaa7fe47c7"},"vehicle_type_id":"4","last_reported":1783321207,"current_range_meters":2800,"station_id":"ce4bh512rcd13ifvqe3g","pricing_plan_id":"cebpf4jnsgd1na2vs0mg"},{"bike_id":"5a1574b6-cafc-424f-8346-d332b4a59231","system_id":"levelo_inurba_marseille","lat":43.31135,"lon":5.38289,"is_reserved":false,"is_disabled":false,"rental_uris":{"android":"levelo://app?vid=5a1574b6-cafc-424f-8346-d332b4a59231","ios":"levelo://app?vid=5a1574b6-cafc-424f-8346-d332b4a59231"},"vehicle_type_id":"4","last_reported":1783321207,"current_range_meters":3200,"station_id":"","pricing_plan_id":"cebpf4jnsgd1na2vs0mg"},{"bike_id":"3c0a7d0c-2804-42b7-b262-ec3f7d9576e8","system_id":"levelo_inurba_marseille","lat":43.26488,"lon":5.39542,"is_reserved":false,"is_disabled":true,"rental_uris":{"android":"levelo://app?vid=3c0a7d0c-2804-42b7-b262-ec3f7d9576e8","ios":"levelo://app?vid=3c0a7d0c-2804-42b7-b262-ec3f7d9576e8"},"vehicle_type_id":"4","last_reported":1783321207,"current_range_meters":3200,"station_id":"ce4bhi12rcd13ifvqfq0","pricing_plan_id":"cebpf4jnsgd1na2vs0mg"},{"bike_id":"0e48abc0-17ea-4427-8e6e-62e49608bbc1","system_id":"levelo_inurba_marseille","lat":43.23198,"lon":5.35549,"is_reserved":false,"is_disabled":false,"rental_uris":{"android":"levelo://app?vid=0e48abc0-17ea-4427-8e6e-62e49608bbc1","ios":"levelo://app?vid=0e48abc0-17ea-4427-8e6e-62e49608bbc1"},"vehicle_type_id":"4","last_reported":1783321207,"current_range_meters":3200,"station_id":"ce4bhu92rcd13ifvqi70","pricing_plan_id":"cebpf4jnsgd1na2vs0mg"},{"bike_id":"19f14676-25d7-4c70-b5ee-6de2eed9cd83","system_id":"levelo_inurba_marseille","lat":43.25107,"lon":5.4032,"is_reserved":false,"is_disabled":false,"rental_uris":{"android":"levelo://app?vid=19f14676-25d7-4c70-b5ee-6de2eed9cd83","ios":"levelo://app?vid=19f14676-25d7-4c70-b5ee-6de2eed9cd83"},"vehicle_type_id":"4","last_reported":1783321207,"current_range_meters":3200,"station_id":"ce4bhlh2rcd13ifvqgig","pricing_plan_id":"cebpf4jnsgd1na2vs0mg"},{"bike_id":"d2997609-8eb8-4620-b1b1-a4b1f5840539","system_id":"levelo_inurba_marseille","lat":43.29705,"lon":5.40887,"is_reserved":false,"is_disabled":false,"rental_uris":{"android":"levelo://app?vid=d2997609-8eb8-4620-b1b1-a4b1f5840539","ios":"levelo://app?vid=d2997609-8eb8-4620-b1b1-a4b1f5840539"},"vehicle_type_id":"4","last_reported":1783321207,"current_range_meters":3200,"station_id":"","pricing_plan_id":"cebpf4jnsgd1na2vs0mg"},{"bike_id":"e8c36f44-e967-42dc-83fc-1418600e4dea","system_id":"levelo_inurba_marseille","lat":43.302907,"lon":5.377195,"is_reserved":false,"is_disabled":false,"rental_uris":{"android":"levelo://app?vid=e8c36f44-e967-42dc-83fc-1418600e4dea","ios":"levelo://app?vid=e8c36f44-e967-42dc-83fc-1418600e4dea"},"vehicle_type_id":"4","last_reported":1783321207,"current_range_meters":3200,"station_id":"ce4bgqh2rcd13ifvqc5g","pricing_plan_id":"cebpf4jnsgd1na2vs0mg"},{"bike_id":"d832a3d0-79c6-4ba7-ac9f-b53b8986b84b","system_id":"levelo_inurba_marseille","lat":43.293733,"lon":5.378506,"is_reserved":false,"is_disabled":false,"rental_uris":{"android":"levelo://app?vid=d832a3d0-79c6-4ba7-ac9f-b53b8986b84b","ios":"levelo://app?vid=d832a3d0-79c6-4ba7-ac9f-b53b8986b84b"},"vehicle_type_id":"4","last_reported":1783321207,"current_range_meters":3200,"station_id":"ce4bhch2rcd13ifvqeug","pricing_plan_id":"cebpf4jnsgd1na2vs0mg"},{"bike_id":"5a3d6b53-bb47-4ea4-ac27-1024819c1119","system_id":"levelo_inurba_marseille","lat":43.30143,"lon":5.37413,"is_reserved":false,"is_disabled":false,"rental_uris":{"android":"levelo://app?vid=5a3d6b53-bb47-4ea4-ac27-1024819c1119","ios":"levelo://app?vid=5a3d6b53-bb47-4ea4-ac27-1024819c1119"},"vehicle_type_id":"4","last_reported":1783321207,"current_range_meters":3200,"station_id":"ce4bgs92rcd13ifvqcc0","pricing_plan_id":"cebpf4jnsgd1na2vs0mg"},{"bike_id":"77ba167a-7190-45fa-a650-f9267544f7cb","system_id":"levelo_inurba_marseille","lat":43.2543,"lon":5.37983,"is_reserved":false,"is_disabled":false,"rental_uris":{"android":"levelo://app?vid=77ba167a-7190-45fa-a650-f9267544f7cb","ios":"levelo://app?vid=77ba167a-7190-45fa-a650-f9267544f7cb"},"vehicle_type_id":"4","last_reported":1783321207,"current_range_meters":3200,"station_id":"","pricing_plan_id":"cebpf4jnsgd1na2vs0mg"},{"bike_id":"e5fc554e-5825-4d18-9e6c-9bcf05a8a394","system_id":"levelo_inurba_marseille","lat":43.299805,"lon":5.371868,"is_reserved":false,"is_disabled":false,"rental_uris":{"android":"levelo://app?vid=e5fc554e-5825-4d18-9e6c-9bcf05a8a394","ios":"levelo://app?vid=e5fc554e-5825-4d18-9e6c-9bcf05a8a394"},"vehicle_type_id":"4","last_reported":1783321207,"current_range_meters":3200,"station_id":"ce4bgr92rcd13ifvqc7g","pricing_plan_id":"cebpf4jnsgd1na2vs0mg"},{"bike_id":"c082cf67-1c7d-4fcc-a3b0-72c6293d645a","system_id":"levelo_inurba_marseille","lat":43.30804,"lon":5.38161,"is_reserved":false,"is_disabled":false,"rental_uris":{"android":"levelo://app?vid=c082cf67-1c7d-4fcc-a3b0-72c6293d645a","ios":"levelo://app?vid=c082cf67-1c7d-4fcc-a3b0-72c6293d645a"},"vehicle_type_id":"4","last_reported":1783321207,"current_range_meters":3200,"station_id":"ce4bgt12rcd13ifvqce0","pricing_plan_id":"cebpf4jnsgd1na2vs0mg"},{"bike_id":"90956858-67b4-4bbd-82de-736588e9511e","system_id":"levelo_inurba_marseille","lat":43.22553,"lon":5.41625,"is_reserved":false,"is_disabled":false,"rental_uris":{"android":"levelo://app?vid=90956858-67b4-4bbd-82de-736588e9511e","ios":"levelo://app?vid=90956858-67b4-4bbd-82de-736588e9511e"},"vehicle_type_id":"4","last_reported":1783321207,"current_range_meters":3600,"station_id":"st_d2o4gvlbi1j2169b742g","pricing_plan_id":"cebpf4jnsgd1na2vs0mg"},{"bike_id":"98d9ab63-952f-49d0-8775-50ac81ca5fd7","system_id":"levelo_inurba_marseille","lat":43.30924,"lon":5.37497,"is_reserved":false,"is_disabled":false,"rental_uris":{"android":"levelo://app?vid=98d9ab63-952f-49d0-8775-50ac81ca5fd7","ios":"levelo://app?vid=98d9ab63-952f-49d0-8775-50ac81ca5fd7"},"vehicle_type_id":"4","last_reported":1783321207,"current_range_meters":3600,"station_id":"","pricing_plan_id":"cebpf4jnsgd1na2vs0mg"},{"bike_id":"6b4bd43f-9d60-40f8-96cc-0292b478f552","system_id":"levelo_inurba_marseille","lat":43.28779,"lon":5.4662,"is_reserved":false,"is_disabled":false,"rental_uris":{"android":"levelo://app?vid=6b4bd43f-9d60-40f8-96cc-0292b478f552","ios":"levelo://app?vid=6b4bd43f-9d60-40f8-96cc-0292b478f552"},"vehicle_type_id":"4","last_reported":1783321207,"current_range_meters":3600,"station_id":"","pricing_plan_id":"cebpf4jnsgd1na2vs0mg"},{"bike_id":"827b7a8c-7d4a-47c3-aa86-889d2054d5de","system_id":"levelo_inurba_marseille","lat":43.26935,"lon":5.38616,"is_reserved":false,"is_disabled":true,"rental_uris":{"android":"levelo://app?vid=827b7a8c-7d4a-47c3-aa86-889d2054d5de","ios":"levelo://app?vid=827b7a8c-7d4a-47c3-aa86-889d2054d5de"},"vehicle_type_id":"4","last_reported":1783321207,"current_range_meters":3600,"station_id":"ce4bhh92rcd13ifvqfh0","pricing_plan_id":"cebpf4jnsgd1na2vs0mg"},{"bike_id":"6988656b-b9bf-42fd-86c6-85441f215ca5","system_id":"levelo_inurba_marseille","lat":43.21195,"lon":5.35064,"is_reserved":false,"is_disabled":false,"rental_uris":{"android":"levelo://app?vid=6988656b-b9bf-42fd-86c6-85441f215ca5","ios":"levelo://app?vid=6988656b-b9bf-42fd-86c6-85441f215ca5"},"vehicle_type_id":"4","last_reported":1783321207,"current_range_meters":3600,"station_id":"st_cvj6sg6p6f1abm77japg","pricing_plan_id":"cebpf4jnsgd1na2vs0mg"},{"bike_id":"73c8701a-5534-4d6e-b634-9acc1e8fe67a","system_id":"levelo_inurba_marseille","lat":43.27493,"lon":5.42461,"is_reserved":false,"is_disabled":false,"rental_uris":{"android":"levelo://app?vid=73c8701a-5534-4d6e-b634-9acc1e8fe67a","ios":"levelo://app?vid=73c8701a-5534-4d6e-b634-9acc1e8fe67a"},"vehicle_type_id":"4","last_reported":1783321207,"current_range_meters":3600,"station_id":"ce4bhn92rcd13ifvqgrg","pricing_plan_id":"cebpf4jnsgd1na2vs0mg"},{"bike_id":"7a71c416-c3b5-4289-ad0e-531bcb18f06d","system_id":"levelo_inurba_marseille","lat":43.33243,"lon":5.37932,"is_reserved":false,"is_disabled":false,"rental_uris":{"android":"levelo://app?vid=7a71c416-c3b5-4289-ad0e-531bcb18f06d","ios":"levelo://app?vid=7a71c416-c3b5-4289-ad0e-531bcb18f06d"},"vehicle_type_id":"4","last_reported":1783321207,"current_range_meters":3600,"station_id":"","pricing_plan_id":"cebpf4jnsgd1na2vs0mg"},{"bike_id":"a4f9ee3b-b427-4829-b639-bd7508b29e83","system_id":"levelo_inurba_marseille","lat":43.28257,"lon":5.35056,"is_reserved":false,"is_disabled":true,"rental_uris":{"android":"levelo://app?vid=a4f9ee3b-b427-4829-b639-bd7508b29e83","ios":"levelo://app?vid=a4f9ee3b-b427-4829-b639-bd7508b29e83"},"vehicle_type_id":"4","last_reported":1783321207,"current_range_meters":3600,"station_id":"ce4bhbp2rcd13ifvqerg","pricing_plan_id":"cebpf4jnsgd1na2vs0mg"},{"bike_id":"2a8f592d-3ebd-4853-bf23-1a2cca68a093","system_id":"levelo_inurba_marseille","lat":43.27086,"lon":5.38497,"is_reserved":false,"is_disabled":false,"rental_uris":{"android":"levelo://app?vid=2a8f592d-3ebd-4853-bf23-1a2cca68a093","ios":"levelo://app?vid=2a8f592d-3ebd-4853-bf23-1a2cca68a093"},"vehicle_type_id":"4","last_reported":1783321207,"current_range_meters":3600,"station_id":"","pricing_plan_id":"cebpf4jnsgd1na2vs0mg"},{"bike_id":"d230c7da-04b9-477c-ac31-d2650e0427fd","system_id":"levelo_inurba_marseille","lat":43.31116,"lon":5.37775,"is_reserved":false,"is_disabled":true,"rental_uris":{"android":"levelo://app?vid=d230c7da-04b9-477c-ac31-d2650e0427fd","ios":"levelo://app?vid=d230c7da-04b9-477c-ac31-d2650e0427fd"},"vehicle_type_id":"4","last_reported":1783321207,"current_range_meters":3600,"station_id":"ce4bgt92rcd13ifvqcg0","pricing_plan_id":"cebpf4jnsgd1na2vs0mg"},{"bike_id":"1ef77d10-3808-4032-a625-bdc5532d78f3","system_id":"levelo_inurba_marseille","lat":43.28985,"lon":5.37821,"is_reserved":false,"is_disabled":true,"rental_uris":{"android":"levelo://app?vid=1ef77d10-3808-4032-a625-bdc5532d78f3","ios":"levelo://app?vid=1ef77d10-3808-4032-a625-bdc5532d78f3"},"vehicle_type_id":"4","last_reported":1783321207,"current_range_meters":3600,"station_id":"ce4bh9p2rcd13ifvqed0","pricing_plan_id":"cebpf4jnsgd1na2vs0mg"},{"bike_id":"75f6aa8e-44da-460a-9d32-d31594e38ec3","system_id":"levelo_inurba_marseille","lat":43.30475,"lon":5.37911,"is_reserved":false,"is_disabled":false,"rental_uris":{"android":"levelo://app?vid=75f6aa8e-44da-460a-9d32-d31594e38ec3","ios":"levelo://app?vid=75f6aa8e-44da-460a-9d32-d31594e38ec3"},"vehicle_type_id":"4","last_reported":1783321207,"current_range_meters":3600,"station_id":"ce4bgup2rcd13ifvqcn0","pricing_plan_id":"cebpf4jnsgd1na2vs0mg"},{"bike_id":"cf82136a-ba80-4ac6-8704-b8d01b631584","system_id":"levelo_inurba_marseille","lat":43.26217,"lon":5.4044,"is_reserved":false,"is_disabled":false,"rental_uris":{"android":"levelo://app?vid=cf82136a-ba80-4ac6-8704-b8d01b631584","ios":"levelo://app?vid=cf82136a-ba80-4ac6-8704-b8d01b631584"},"vehicle_type_id":"4","last_reported":1783321207,"current_range_meters":3600,"station_id":"ce4bhmh2rcd13ifvqgmg","pricing_plan_id":"cebpf4jnsgd1na2vs0mg"},{"bike_id":"d455396b-25c8-4bf4-aa48-4df15ad83f7e","system_id":"levelo_inurba_marseille","lat":43.33863,"lon":5.34775,"is_reserved":false,"is_disabled":false,"rental_uris":{"android":"levelo://app?vid=d455396b-25c8-4bf4-aa48-4df15ad83f7e","ios":"levelo://app?vid=d455396b-25c8-4bf4-aa48-4df15ad83f7e"},"vehicle_type_id":"4","last_reported":1783321207,"current_range_meters":3600,"station_id":"","pricing_plan_id":"cebpf4jnsgd1na2vs0mg"},{"bike_id":"7f12e5a2-955f-42a0-87a4-54480f18e191","system_id":"levelo_inurba_marseille","lat":43.289465,"lon":5.363946,"is_reserved":false,"is_disabled":false,"rental_uris":{"android":"levelo://app?vid=7f12e5a2-955f-42a0-87a4-54480f18e191","ios":"levelo://app?vid=7f12e5a2-955f-42a0-87a4-54480f18e191"},"vehicle_type_id":"4","last_reported":1783321207,"current_range_meters":3600,"station_id":"","pricing_plan_id":"cebpf4jnsgd1na2vs0mg"},{"bike_id":"d7114047-9c99-4531-8436-c41770c509c2","system_id":"levelo_inurba_marseille","lat":43.275,"lon":5.42455,"is_reserved":false,"is_disabled":false,"rental_uris":{"android":"levelo://app?vid=d7114047-9c99-4531-8436-c41770c509c2","ios":"levelo://app?vid=d7114047-9c99-4531-8436-c41770c509c2"},"vehicle_type_id":"4","last_reported":1783321207,"current_range_meters":3600,"station_id":"","pricing_plan_id":"cebpf4jnsgd1na2vs0mg"},{"bike_id":"38274ee2-091b-4d32-802a-6e5e91efb549","system_id":"levelo_inurba_marseille","lat":43.27404,"lon":5.39427,"is_reserved":false,"is_disabled":false,"rental_uris":{"android":"levelo://app?vid=38274ee2-091b-4d32-802a-6e5e91efb549","ios":"levelo://app?vid=38274ee2-091b-4d32-802a-6e5e91efb549"},"vehicle_type_id":"4","last_reported":1783321207,"current_range_meters":3600,"station_id":"ce4bhdp2rcd13ifvqf20","pricing_plan_id":"cebpf4jnsgd1na2vs0mg"},{"bike_id":"5cf8ff3f-002e-4490-b36d-5909b772d854","system_id":"levelo_inurba_marseille","lat":43.22569,"lon":5.34817,"is_reserved":false,"is_disabled":true,"rental_uris":{"android":"levelo://app?vid=5cf8ff3f-002e-4490-b36d-5909b772d854","ios":"levelo://app?vid=5cf8ff3f-002e-4490-b36d-5909b772d854"},"vehicle_type_id":"4","last_reported":1783321207,"current_range_meters":4000,"station_id":"st_cvj5dfep6f1abm77gieg","pricing_plan_id":"cebpf4jnsgd1na2vs0mg"},{"bike_id":"874cdbf5-f73a-4bf6-9706-9772d5804d11","system_id":"levelo_inurba_marseille","lat":43.33542,"lon":5.37455,"is_reserved":false,"is_disabled":false,"rental_uris":{"android":"levelo://app?vid=874cdbf5-f73a-4bf6-9706-9772d5804d11","ios":"levelo://app?vid=874cdbf5-f73a-4bf6-9706-9772d5804d11"},"vehicle_type_id":"4","last_reported":1783321207,"current_range_meters":4000,"station_id":"st_d46tts09ee8s73dlu43g","pricing_plan_id":"cebpf4jnsgd1na2vs0mg"},{"bike_id":"3273d8c4-7c1d-42f3-a84f-29ea1670f175","system_id":"levelo_inurba_marseille","lat":43.25931,"lon":5.40907,"is_reserved":false,"is_disabled":false,"rental_uris":{"android":"levelo://app?vid=3273d8c4-7c1d-42f3-a84f-29ea1670f175","ios":"levelo://app?vid=3273d8c4-7c1d-42f3-a84f-29ea1670f175"},"vehicle_type_id":"4","last_reported":1783321207,"current_range_meters":4000,"station_id":"ce4bhm92rcd13ifvqglg","pricing_plan_id":"cebpf4jnsgd1na2vs0mg"},{"bike_id":"8add3d14-7583-4bbe-a39a-8070d5f4d47a","system_id":"levelo_inurba_marseille","lat":43.32496,"lon":5.38301,"is_reserved":false,"is_disabled":false,"rental_uris":{"android":"levelo://app?vid=8add3d14-7583-4bbe-a39a-8070d5f4d47a","ios":"levelo://app?vid=8add3d14-7583-4bbe-a39a-8070d5f4d47a"},"vehicle_type_id":"4","last_reported":1783321207,"current_range_meters":4000,"station_id":"st_d4asgbiv49dc73anf9m0","pricing_plan_id":"cebpf4jnsgd1na2vs0mg"},{"bike_id":"e212048e-36e5-4dea-a4dc-4f4603b01b54","system_id":"levelo_inurba_marseille","lat":43.30145,"lon":5.381,"is_reserved":false,"is_disabled":true,"rental_uris":{"android":"levelo://app?vid=e212048e-36e5-4dea-a4dc-4f4603b01b54","ios":"levelo://app?vid=e212048e-36e5-4dea-a4dc-4f4603b01b54"},"vehicle_type_id":"4","last_reported":1783321207,"current_range_meters":4000,"station_id":"ce4bgjp2rcd13ifvqbh0","pricing_plan_id":"cebpf4jnsgd1na2vs0mg"},{"bike_id":"0df3073c-4d91-4aad-99ca-3266164a2dbe","system_id":"levelo_inurba_marseille","lat":43.28421,"lon":5.37516,"is_reserved":false,"is_disabled":true,"rental_uris":{"android":"levelo://app?vid=0df3073c-4d91-4aad-99ca-3266164a2dbe","ios":"levelo://app?vid=0df3073c-4d91-4aad-99ca-3266164a2dbe"},"vehicle_type_id":"4","last_reported":1783321207,"current_range_meters":4000,"station_id":"ce4bh412rcd13ifvqds0","pricing_plan_id":"cebpf4jnsgd1na2vs0mg"},{"bike_id":"56ff62fc-44ba-4c60-b74e-7a3b3ad0bc51","system_id":"levelo_inurba_marseille","lat":43.24387,"lon":5.37071,"is_reserved":false,"is_disabled":false,"rental_uris":{"android":"levelo://app?vid=56ff62fc-44ba-4c60-b74e-7a3b3ad0bc51","ios":"levelo://app?vid=56ff62fc-44ba-4c60-b74e-7a3b3ad0bc51"},"vehicle_type_id":"4","last_reported":1783321207,"current_range_meters":4000,"station_id":"ce4bhhh2rcd13ifvqfk0","pricing_plan_id":"cebpf4jnsgd1na2vs0mg"},{"bike_id":"e2770b29-2b53-4a1b-b237-7b8799569b06","system_id":"levelo_inurba_marseille","lat":43.29506,"lon":5.39389,"is_reserved":false,"is_disabled":true,"rental_uris":{"android":"levelo://app?vid=e2770b29-2b53-4a1b-b237-7b8799569b06","ios":"levelo://app?vid=e2770b29-2b53-4a1b-b237-7b8799569b06"},"vehicle_type_id":"4","last_reported":1783321207,"current_range_meters":4000,"station_id":"ce4bh292rcd13ifvqdf0","pricing_plan_id":"cebpf4jnsgd1na2vs0mg"},{"bike_id":"1bc69c0e-0bef-4dd0-9c32-f25cac91de35","system_id":"levelo_inurba_marseille","lat":43.26734,"lon":5.37197,"is_reserved":false,"is_disabled":false,"rental_uris":{"android":"levelo://app?vid=1bc69c0e-0bef-4dd0-9c32-f25cac91de35","ios":"levelo://app?vid=1bc69c0e-0bef-4dd0-9c32-f25cac91de35"},"vehicle_type_id":"4","last_reported":1783321207,"current_range_meters":4000,"station_id":"","pricing_plan_id":"cebpf4jnsgd1na2vs0mg"},{"bike_id":"5e480115-a460-4823-9875-70fcf4a15173","system_id":"levelo_inurba_marseille","lat":43.26362,"lon":5.41079,"is_reserved":false,"is_disabled":false,"rental_uris":{"android":"levelo://app?vid=5e480115-a460-4823-9875-70fcf4a15173","ios":"levelo://app?vid=5e480115-a460-4823-9875-70fcf4a15173"},"vehicle_type_id":"4","last_reported":1783321207,"current_range_meters":4000,"station_id":"st_d4e5ca6na9uc73bfl5fg","pricing_plan_id":"cebpf4jnsgd1na2vs0mg"},{"bike_id":"1663c6f3-0914-46b7-9315-98c697c13984","system_id":"levelo_inurba_marseille","lat":43.27064,"lon":5.42263,"is_reserved":false,"is_disabled":false,"rental_uris":{"android":"levelo://app?vid=1663c6f3-0914-46b7-9315-98c697c13984","ios":"levelo://app?vid=1663c6f3-0914-46b7-9315-98c697c13984"},"vehicle_type_id":"4","last_reported":1783321207,"current_range_meters":4000,"station_id":"ce4bhk92rcd13ifvqgb0","pricing_plan_id":"cebpf4jnsgd1na2vs0mg"},{"bike_id":"b99fa2fa-6caa-4e97-a941-8427d6ff2309","system_id":"levelo_inurba_marseille","lat":43.26226,"lon":5.38764,"is_reserved":false,"is_disabled":true,"rental_uris":{"android":"levelo://app?vid=b99fa2fa-6caa-4e97-a941-8427d6ff2309","ios":"levelo://app?vid=b99fa2fa-6caa-4e97-a941-8427d6ff2309"},"vehicle_type_id":"4","last_reported":1783321207,"current_range_meters":4000,"station_id":"st_d8gjfg747rts73coq3b0","pricing_plan_id":"cebpf4jnsgd1na2vs0mg"},{"bike_id":"defe664f-116a-400b-aa68-5aba6647b941","system_id":"levelo_inurba_marseille","lat":43.29304,"lon":5.44555,"is_reserved":false,"is_disabled":false,"rental_uris":{"android":"levelo://app?vid=defe664f-116a-400b-aa68-5aba6647b941","ios":"levelo://app?vid=defe664f-116a-400b-aa68-5aba6647b941"},"vehicle_type_id":"4","last_reported":1783321207,"current_range_meters":4000,"station_id":"","pricing_plan_id":"cebpf4jnsgd1na2vs0mg"},{"bike_id":"3892050e-cb6a-457e-90e6-5def440715fd","system_id":"levelo_inurba_marseille","lat":43.287,"lon":5.46687,"is_reserved":false,"is_disabled":false,"rental_uris":{"android":"levelo://app?vid=3892050e-cb6a-457e-90e6-5def440715fd","ios":"levelo://app?vid=3892050e-cb6a-457e-90e6-5def440715fd"},"vehicle_type_id":"4","last_reported":1783321207,"current_range_meters":4000,"station_id":"st_d6tc3vkotcvc738tfjhg","pricing_plan_id":"cebpf4jnsgd1na2vs0mg"},{"bike_id":"74c027a4-4b67-40ff-a2fc-35f79d498796","system_id":"levelo_inurba_marseille","lat":43.29217,"lon":5.36035,"is_reserved":false,"is_disabled":true,"rental_uris":{"android":"levelo://app?vid=74c027a4-4b67-40ff-a2fc-35f79d498796","ios":"levelo://app?vid=74c027a4-4b67-40ff-a2fc-35f79d498796"},"vehicle_type_id":"4","last_reported":1783321207,"current_range_meters":4000,"station_id":"ce4bhbh2rcd13ifvqeqg","pricing_plan_id":"cebpf4jnsgd1na2vs0mg"},{"bike_id":"66f64495-157d-434d-a3ef-5a17f45e04e3","system_id":"levelo_inurba_marseille","lat":43.2413,"lon":5.40922,"is_reserved":false,"is_disabled":false,"rental_uris":{"android":"levelo://app?vid=66f64495-157d-434d-a3ef-5a17f45e04e3","ios":"levelo://app?vid=66f64495-157d-434d-a3ef-5a17f45e04e3"},"vehicle_type_id":"4","last_reported":1783321207,"current_range_meters":4000,"station_id":"","pricing_plan_id":"cebpf4jnsgd1na2vs0mg"},{"bike_id":"ac45b691-a3e7-4279-bea7-5da2c5afb3c2","system_id":"levelo_inurba_marseille","lat":43.2904,"lon":5.3756,"is_reserved":false,"is_disabled":true,"rental_uris":{"android":"levelo://app?vid=ac45b691-a3e7-4279-bea7-5da2c5afb3c2","ios":"levelo://app?vid=ac45b691-a3e7-4279-bea7-5da2c5afb3c2"},"vehicle_type_id":"4","last_reported":1783321207,"current_range_meters":4000,"station_id":"ce4bh692rcd13ifvqe90","pricing_plan_id":"cebpf4jnsgd1na2vs0mg"},{"bike_id":"30e5a99b-35bd-4d06-a236-399209ce9e3f","system_id":"levelo_inurba_marseille","lat":43.27991,"lon":5.41645,"is_reserved":false,"is_disabled":false,"rental_uris":{"android":"levelo://app?vid=30e5a99b-35bd-4d06-a236-399209ce9e3f","ios":"levelo://app?vid=30e5a99b-35bd-4d06-a236-399209ce9e3f"},"vehicle_type_id":"4","last_reported":1783321207,"current_range_meters":4000,"station_id":"ce4bho12rcd13ifvqh1g","pricing_plan_id":"cebpf4jnsgd1na2vs0mg"},{"bike_id":"be97f77b-683a-44ce-8240-f5ff6433cfe3","system_id":"levelo_inurba_marseille","lat":43.23205,"lon":5.35549,"is_reserved":false,"is_disabled":true,"rental_uris":{"android":"levelo://app?vid=be97f77b-683a-44ce-8240-f5ff6433cfe3","ios":"levelo://app?vid=be97f77b-683a-44ce-8240-f5ff6433cfe3"},"vehicle_type_id":"4","last_reported":1783321207,"current_range_meters":4000,"station_id":"ce4bhu92rcd13ifvqi70","pricing_plan_id":"cebpf4jnsgd1na2vs0mg"},{"bike_id":"d3cd9571-4983-47b4-bcd2-4b7d6f46304f","system_id":"levelo_inurba_marseille","lat":43.23783,"lon":5.36612,"is_reserved":false,"is_disabled":false,"rental_uris":{"android":"levelo://app?vid=d3cd9571-4983-47b4-bcd2-4b7d6f46304f","ios":"levelo://app?vid=d3cd9571-4983-47b4-bcd2-4b7d6f46304f"},"vehicle_type_id":"4","last_reported":1783321207,"current_range_meters":4400,"station_id":"st_d3nk18o9ro0c73en2l3g","pricing_plan_id":"cebpf4jnsgd1na2vs0mg"},{"bike_id":"5f593a42-889b-45c9-a43f-fdc920e209e9","system_id":"levelo_inurba_marseille","lat":43.32338,"lon":5.37007,"is_reserved":false,"is_disabled":false,"rental_uris":{"android":"levelo://app?vid=5f593a42-889b-45c9-a43f-fdc920e209e9","ios":"levelo://app?vid=5f593a42-889b-45c9-a43f-fdc920e209e9"},"vehicle_type_id":"4","last_reported":1783321207,"current_range_meters":4400,"station_id":"","pricing_plan_id":"cebpf4jnsgd1na2vs0mg"},{"bike_id":"f9a30de2-f281-4eaf-82bd-8395501e6860","system_id":"levelo_inurba_marseille","lat":43.31382,"lon":5.3663,"is_reserved":false,"is_disabled":false,"rental_uris":{"android":"levelo://app?vid=f9a30de2-f281-4eaf-82bd-8395501e6860","ios":"levelo://app?vid=f9a30de2-f281-4eaf-82bd-8395501e6860"},"vehicle_type_id":"4","last_reported":1783321207,"current_range_meters":4400,"station_id":"","pricing_plan_id":"cebpf4jnsgd1na2vs0mg"},{"bike_id":"d1f95cf9-3c50-44e1-afec-1a16e5b009af","system_id":"levelo_inurba_marseille","lat":43.266713,"lon":5.372395,"is_reserved":false,"is_disabled":false,"rental_uris":{"android":"levelo://app?vid=d1f95cf9-3c50-44e1-afec-1a16e5b009af","ios":"levelo://app?vid=d1f95cf9-3c50-44e1-afec-1a16e5b009af"},"vehicle_type_id":"4","last_reported":1783321207,"current_range_meters":4400,"station_id":"","pricing_plan_id":"cebpf4jnsgd1na2vs0mg"},{"bike_id":"2d3dd4f4-c2be-4315-be3d-f35763bc2c71","system_id":"levelo_inurba_marseille","lat":43.26715,"lon":5.40157,"is_reserved":false,"is_disabled":false,"rental_uris":{"android":"levelo://app?vid=2d3dd4f4-c2be-4315-be3d-f35763bc2c71","ios":"levelo://app?vid=2d3dd4f4-c2be-4315-be3d-f35763bc2c71"},"vehicle_type_id":"4","last_reported":1783321207,"current_range_meters":4400,"station_id":"","pricing_plan_id":"cebpf4jnsgd1na2vs0mg"},{"bike_id":"ced74b9f-b178-40c4-b05a-f65c4f2b3f5d","system_id":"levelo_inurba_marseille","lat":43.27945,"lon":5.4105,"is_reserved":false,"is_disabled":true,"rental_uris":{"android":"levelo://app?vid=ced74b9f-b178-40c4-b05a-f65c4f2b3f5d","ios":"levelo://app?vid=ced74b9f-b178-40c4-b05a-f65c4f2b3f5d"},"vehicle_type_id":"4","last_reported":1783321207,"current_range_meters":4400,"station_id":"ce4bhnp2rcd13ifvqh0g","pricing_plan_id":"cebpf4jnsgd1na2vs0mg"},{"bike_id":"669f0b3f-3dbd-4ada-a98e-0cadc67efe45","system_id":"levelo_inurba_marseille","lat":43.31723,"lon":5.4044,"is_reserved":false,"is_disabled":false,"rental_uris":{"android":"levelo://app?vid=669f0b3f-3dbd-4ada-a98e-0cadc67efe45","ios":"levelo://app?vid=669f0b3f-3dbd-4ada-a98e-0cadc67efe45"},"vehicle_type_id":"4","last_reported":1783321207,"current_range_meters":4400,"station_id":"ce4bh012rcd13ifvqd00","pricing_plan_id":"cebpf4jnsgd1na2vs0mg"},{"bike_id":"8220ecc2-6bf9-4e7d-8a35-6858c0daf5f4","system_id":"levelo_inurba_marseille","lat":43.2121,"lon":5.35033,"is_reserved":false,"is_disabled":false,"rental_uris":{"android":"levelo://app?vid=8220ecc2-6bf9-4e7d-8a35-6858c0daf5f4","ios":"levelo://app?vid=8220ecc2-6bf9-4e7d-8a35-6858c0daf5f4"},"vehicle_type_id":"4","last_reported":1783321207,"current_range_meters":4400,"station_id":"","pricing_plan_id":"cebpf4jnsgd1na2vs0mg"},{"bike_id":"a12a4f83-c050-4064-a9cd-bf7775a31f2f","system_id":"levelo_inurba_marseille","lat":43.24683,"lon":5.38167,"is_reserved":false,"is_disabled":true,"rental_uris":{"android":"levelo://app?vid=a12a4f83-c050-4064-a9cd-bf7775a31f2f","ios":"levelo://app?vid=a12a4f83-c050-4064-a9cd-bf7775a31f2f"},"vehicle_type_id":"4","last_reported":1783321207,"current_range_meters":4400,"station_id":"ce4bhih2rcd13ifvqfr0","pricing_plan_id":"cebpf4jnsgd1na2vs0mg"},{"bike_id":"f7a3d0cd-06fc-45b7-a620-d7e978137dda","system_id":"levelo_inurba_marseille","lat":43.27914,"lon":5.39574,"is_reserved":false,"is_disabled":false,"rental_uris":{"android":"levelo://app?vid=f7a3d0cd-06fc-45b7-a620-d7e978137dda","ios":"levelo://app?vid=f7a3d0cd-06fc-45b7-a620-d7e978137dda"},"vehicle_type_id":"4","last_reported":1783321207,"current_range_meters":4400,"station_id":"ce4bhf92rcd13ifvqf40","pricing_plan_id":"cebpf4jnsgd1na2vs0mg"},{"bike_id":"95e2c5d3-ee09-417b-93c0-7f04fa895ada","system_id":"levelo_inurba_marseille","lat":43.31924,"lon":5.37373,"is_reserved":false,"is_disabled":false,"rental_uris":{"android":"levelo://app?vid=95e2c5d3-ee09-417b-93c0-7f04fa895ada","ios":"levelo://app?vid=95e2c5d3-ee09-417b-93c0-7f04fa895ada"},"vehicle_type_id":"4","last_reported":1783321207,"current_range_meters":4400,"station_id":"","pricing_plan_id":"cebpf4jnsgd1na2vs0mg"},{"bike_id":"48a6ce07-3978-4e69-a1cd-34015e52580e","system_id":"levelo_inurba_marseille","lat":43.28116,"lon":5.37863,"is_reserved":false,"is_disabled":false,"rental_uris":{"android":"levelo://app?vid=48a6ce07-3978-4e69-a1cd-34015e52580e","ios":"levelo://app?vid=48a6ce07-3978-4e69-a1cd-34015e52580e"},"vehicle_type_id":"4","last_reported":1783321207,"current_range_meters":4400,"station_id":"ce4bha12rcd13ifvqee0","pricing_plan_id":"cebpf4jnsgd1na2vs0mg"},{"bike_id":"e4e44404-7349-4822-ad36-6354c21cfbac","system_id":"levelo_inurba_marseille","lat":43.26555,"lon":5.40329,"is_reserved":false,"is_disabled":false,"rental_uris":{"android":"levelo://app?vid=e4e44404-7349-4822-ad36-6354c21cfbac","ios":"levelo://app?vid=e4e44404-7349-4822-ad36-6354c21cfbac"},"vehicle_type_id":"4","last_reported":1783321207,"current_range_meters":4400,"station_id":"ce4bhmp2rcd13ifvqgng","pricing_plan_id":"cebpf4jnsgd1na2vs0mg"},{"bike_id":"9aad7fb2-4b68-4ff1-a63e-5832ca4f6501","system_id":"levelo_inurba_marseille","lat":43.26928,"lon":5.38518,"is_reserved":false,"is_disabled":false,"rental_uris":{"android":"levelo://app?vid=9aad7fb2-4b68-4ff1-a63e-5832ca4f6501","ios":"levelo://app?vid=9aad7fb2-4b68-4ff1-a63e-5832ca4f6501"},"vehicle_type_id":"4","last_reported":1783321207,"current_range_meters":4400,"station_id":"","pricing_plan_id":"cebpf4jnsgd1na2vs0mg"},{"bike_id":"6e28c7de-4432-46c6-8824-5a05812aca65","system_id":"levelo_inurba_marseille","lat":43.22534,"lon":5.3483,"is_reserved":false,"is_disabled":false,"rental_uris":{"android":"levelo://app?vid=6e28c7de-4432-46c6-8824-5a05812aca65","ios":"levelo://app?vid=6e28c7de-4432-46c6-8824-5a05812aca65"},"vehicle_type_id":"4","last_reported":1783321207,"current_range_meters":4800,"station_id":"st_cvj5dfep6f1abm77gieg","pricing_plan_id":"cebpf4jnsgd1na2vs0mg"},{"bike_id":"425dffa1-71dd-4d1e-84e3-cd30cf16801b","system_id":"levelo_inurba_marseille","lat":43.2909,"lon":5.38185,"is_reserved":false,"is_disabled":false,"rental_uris":{"android":"levelo://app?vid=425dffa1-71dd-4d1e-84e3-cd30cf16801b","ios":"levelo://app?vid=425dffa1-71dd-4d1e-84e3-cd30cf16801b"},"vehicle_type_id":"4","last_reported":1783321207,"current_range_meters":4800,"station_id":"ce4bh512rcd13ifvqe2g","pricing_plan_id":"cebpf4jnsgd1na2vs0mg"},{"bike_id":"3fcf6205-f23c-4cee-8363-04389955351d","system_id":"levelo_inurba_marseille","lat":43.2258,"lon":5.41622,"is_reserved":false,"is_disabled":false,"rental_uris":{"android":"levelo://app?vid=3fcf6205-f23c-4cee-8363-04389955351d","ios":"levelo://app?vid=3fcf6205-f23c-4cee-8363-04389955351d"},"vehicle_type_id":"4","last_reported":1783321207,"current_range_meters":4800,"station_id":"st_d2o4gvlbi1j2169b742g","pricing_plan_id":"cebpf4jnsgd1na2vs0mg"},{"bike_id":"c080cb97-d429-411b-94f0-5cffa330db91","system_id":"levelo_inurba_marseille","lat":43.24177,"lon":5.39721,"is_reserved":false,"is_disabled":false,"rental_uris":{"android":"levelo://app?vid=c080cb97-d429-411b-94f0-5cffa330db91","ios":"levelo://app?vid=c080cb97-d429-411b-94f0-5cffa330db91"},"vehicle_type_id":"4","last_reported":1783321207,"current_range_meters":4800,"station_id":"ce4bhn12rcd13ifvqgpg","pricing_plan_id":"cebpf4jnsgd1na2vs0mg"},{"bike_id":"8bc199c6-fa2d-4c70-9249-7d435dcab9a6","system_id":"levelo_inurba_marseille","lat":43.29268,"lon":5.36844,"is_reserved":false,"is_disabled":true,"rental_uris":{"android":"levelo://app?vid=8bc199c6-fa2d-4c70-9249-7d435dcab9a6","ios":"levelo://app?vid=8bc199c6-fa2d-4c70-9249-7d435dcab9a6"},"vehicle_type_id":"4","last_reported":1783321207,"current_range_meters":4800,"station_id":"ce4bhbp2rcd13ifvqesg","pricing_plan_id":"cebpf4jnsgd1na2vs0mg"},{"bike_id":"d542e80b-c621-4744-a175-6c723a1aa866","system_id":"levelo_inurba_marseille","lat":43.29299,"lon":5.44528,"is_reserved":false,"is_disabled":false,"rental_uris":{"android":"levelo://app?vid=d542e80b-c621-4744-a175-6c723a1aa866","ios":"levelo://app?vid=d542e80b-c621-4744-a175-6c723a1aa866"},"vehicle_type_id":"4","last_reported":1783321207,"current_range_meters":4800,"station_id":"","pricing_plan_id":"cebpf4jnsgd1na2vs0mg"},{"bike_id":"537ca998-8fd3-4dae-915c-356daecbb82f","system_id":"levelo_inurba_marseille","lat":43.29022,"lon":5.38641,"is_reserved":false,"is_disabled":true,"rental_uris":{"android":"levelo://app?vid=537ca998-8fd3-4dae-915c-356daecbb82f","ios":"levelo://app?vid=537ca998-8fd3-4dae-915c-356daecbb82f"},"vehicle_type_id":"4","last_reported":1783321207,"current_range_meters":4800,"station_id":"ce4bh4p2rcd13ifvqe0g","pricing_plan_id":"cebpf4jnsgd1na2vs0mg"},{"bike_id":"66c6e5ad-12fd-409e-a59d-315fc11950b1","system_id":"levelo_inurba_marseille","lat":43.27568,"lon":5.38414,"is_reserved":false,"is_disabled":true,"rental_uris":{"android":"levelo://app?vid=66c6e5ad-12fd-409e-a59d-315fc11950b1","ios":"levelo://app?vid=66c6e5ad-12fd-409e-a59d-315fc11950b1"},"vehicle_type_id":"4","last_reported":1783321207,"current_range_meters":4800,"station_id":"ce4bhh92rcd13ifvqfi0","pricing_plan_id":"cebpf4jnsgd1na2vs0mg"},{"bike_id":"d6f6511f-da64-41df-bf9a-b36ba81f76fd","system_id":"levelo_inurba_marseille","lat":43.25721,"lon":5.41109,"is_reserved":false,"is_disabled":false,"rental_uris":{"android":"levelo://app?vid=d6f6511f-da64-41df-bf9a-b36ba81f76fd","ios":"levelo://app?vid=d6f6511f-da64-41df-bf9a-b36ba81f76fd"},"vehicle_type_id":"4","last_reported":1783321207,"current_range_meters":4800,"station_id":"ce4bhkp2rcd13ifvqgd0","pricing_plan_id":"cebpf4jnsgd1na2vs0mg"},{"bike_id":"acb6b183-d4d6-4d8e-974e-924b61f91a80","system_id":"levelo_inurba_marseille","lat":43.34408,"lon":5.42046,"is_reserved":false,"is_disabled":false,"rental_uris":{"android":"levelo://app?vid=acb6b183-d4d6-4d8e-974e-924b61f91a80","ios":"levelo://app?vid=acb6b183-d4d6-4d8e-974e-924b61f91a80"},"vehicle_type_id":"4","last_reported":1783321207,"current_range_meters":4800,"station_id":"","pricing_plan_id":"cebpf4jnsgd1na2vs0mg"},{"bike_id":"f7826c83-beb8-416f-bc97-d9c1cfbddb0b","system_id":"levelo_inurba_marseille","lat":43.2516,"lon":5.40454,"is_reserved":false,"is_disabled":false,"rental_uris":{"android":"levelo://app?vid=f7826c83-beb8-416f-bc97-d9c1cfbddb0b","ios":"levelo://app?vid=f7826c83-beb8-416f-bc97-d9c1cfbddb0b"},"vehicle_type_id":"4","last_reported":1783321207,"current_range_meters":4800,"station_id":"","pricing_plan_id":"cebpf4jnsgd1na2vs0mg"},{"bike_id":"b039a727-71b1-4709-945e-51f5aeb9fa7f","system_id":"levelo_inurba_marseille","lat":43.22516,"lon":5.34838,"is_reserved":false,"is_disabled":false,"rental_uris":{"android":"levelo://app?vid=b039a727-71b1-4709-945e-51f5aeb9fa7f","ios":"levelo://app?vid=b039a727-71b1-4709-945e-51f5aeb9fa7f"},"vehicle_type_id":"4","last_reported":1783321207,"current_range_meters":4800,"station_id":"st_cvj5dfep6f1abm77gieg","pricing_plan_id":"cebpf4jnsgd1na2vs0mg"},{"bike_id":"0c956432-548b-488b-be9a-338aaee683c2","system_id":"levelo_inurba_marseille","lat":43.28872,"lon":5.37656,"is_reserved":false,"is_disabled":false,"rental_uris":{"android":"levelo://app?vid=0c956432-548b-488b-be9a-338aaee683c2","ios":"levelo://app?vid=0c956432-548b-488b-be9a-338aaee683c2"},"vehicle_type_id":"4","last_reported":1783321207,"current_range_meters":5600,"station_id":"","pricing_plan_id":"cebpf4jnsgd1na2vs0mg"},{"bike_id":"40e722f2-64dd-416f-9e57-d96111c77e32","system_id":"levelo_inurba_marseille","lat":43.28698,"lon":5.4669,"is_reserved":false,"is_disabled":false,"rental_uris":{"android":"levelo://app?vid=40e722f2-64dd-416f-9e57-d96111c77e32","ios":"levelo://app?vid=40e722f2-64dd-416f-9e57-d96111c77e32"},"vehicle_type_id":"4","last_reported":1783321207,"current_range_meters":5600,"station_id":"st_d6tc3vkotcvc738tfjhg","pricing_plan_id":"cebpf4jnsgd1na2vs0mg"},{"bike_id":"4d52a61b-5c30-41df-a6ac-71b42f016aed","system_id":"levelo_inurba_marseille","lat":43.25867,"lon":5.39889,"is_reserved":false,"is_disabled":true,"rental_uris":{"android":"levelo://app?vid=4d52a61b-5c30-41df-a6ac-71b42f016aed","ios":"levelo://app?vid=4d52a61b-5c30-41df-a6ac-71b42f016aed"},"vehicle_type_id":"4","last_reported":1783321207,"current_range_meters":5600,"station_id":"ce4bhl92rcd13ifvqghg","pricing_plan_id":"cebpf4jnsgd1na2vs0mg"},{"bike_id":"ae9653ca-a981-4fa4-848f-da55e76d424c","system_id":"levelo_inurba_marseille","lat":43.2718,"lon":5.40977,"is_reserved":false,"is_disabled":false,"rental_uris":{"android":"levelo://app?vid=ae9653ca-a981-4fa4-848f-da55e76d424c","ios":"levelo://app?vid=ae9653ca-a981-4fa4-848f-da55e76d424c"},"vehicle_type_id":"4","last_reported":1783321207,"current_range_meters":5600,"station_id":"ce4bhl12rcd13ifvqgf0","pricing_plan_id":"cebpf4jnsgd1na2vs0mg"},{"bike_id":"6b703ae7-b021-4d07-a990-ef927f27bcc0","system_id":"levelo_inurba_marseille","lat":43.25428,"lon":5.37621,"is_reserved":false,"is_disabled":false,"rental_uris":{"android":"levelo://app?vid=6b703ae7-b021-4d07-a990-ef927f27bcc0","ios":"levelo://app?vid=6b703ae7-b021-4d07-a990-ef927f27bcc0"},"vehicle_type_id":"4","last_reported":1783321207,"current_range_meters":5600,"station_id":"","pricing_plan_id":"cebpf4jnsgd1na2vs0mg"},{"bike_id":"e6c53653-ae43-4c8a-ad74-360939e7fcaa","system_id":"levelo_inurba_marseille","lat":43.30745,"lon":5.42445,"is_reserved":false,"is_disabled":false,"rental_uris":{"android":"levelo://app?vid=e6c53653-ae43-4c8a-ad74-360939e7fcaa","ios":"levelo://app?vid=e6c53653-ae43-4c8a-ad74-360939e7fcaa"},"vehicle_type_id":"4","last_reported":1783321207,"current_range_meters":5600,"station_id":"st_cvj6ca6bvosntc0bfgr0","pricing_plan_id":"cebpf4jnsgd1na2vs0mg"},{"bike_id":"465b9a1c-33cb-4055-90f7-c0effc81e8f7","system_id":"levelo_inurba_marseille","lat":43.27404,"lon":5.393894,"is_reserved":false,"is_disabled":false,"rental_uris":{"android":"levelo://app?vid=465b9a1c-33cb-4055-90f7-c0effc81e8f7","ios":"levelo://app?vid=465b9a1c-33cb-4055-90f7-c0effc81e8f7"},"vehicle_type_id":"4","last_reported":1783321207,"current_range_meters":5600,"station_id":"ce4bhdp2rcd13ifvqf20","pricing_plan_id":"cebpf4jnsgd1na2vs0mg"},{"bike_id":"ebb69cdb-f57c-486a-9d37-3814132e26e5","system_id":"levelo_inurba_marseille","lat":43.28042,"lon":5.3692,"is_reserved":false,"is_disabled":true,"rental_uris":{"android":"levelo://app?vid=ebb69cdb-f57c-486a-9d37-3814132e26e5","ios":"levelo://app?vid=ebb69cdb-f57c-486a-9d37-3814132e26e5"},"vehicle_type_id":"4","last_reported":1783321207,"current_range_meters":5600,"station_id":"ce4bha12rcd13ifvqef0","pricing_plan_id":"cebpf4jnsgd1na2vs0mg"},{"bike_id":"d3445804-aa86-4322-9d7c-8853ed1e9664","system_id":"levelo_inurba_marseille","lat":43.29559,"lon":5.42295,"is_reserved":false,"is_disabled":false,"rental_uris":{"android":"levelo://app?vid=d3445804-aa86-4322-9d7c-8853ed1e9664","ios":"levelo://app?vid=d3445804-aa86-4322-9d7c-8853ed1e9664"},"vehicle_type_id":"4","last_reported":1783321207,"current_range_meters":5600,"station_id":"ce4bhph2rcd13ifvqhdg","pricing_plan_id":"cebpf4jnsgd1na2vs0mg"},{"bike_id":"8f77dfbc-6b25-4100-b568-9748fa0a3851","system_id":"levelo_inurba_marseille","lat":43.29031,"lon":5.3756,"is_reserved":false,"is_disabled":false,"rental_uris":{"android":"levelo://app?vid=8f77dfbc-6b25-4100-b568-9748fa0a3851","ios":"levelo://app?vid=8f77dfbc-6b25-4100-b568-9748fa0a3851"},"vehicle_type_id":"4","last_reported":1783321207,"current_range_meters":5600,"station_id":"ce4bh692rcd13ifvqe90","pricing_plan_id":"cebpf4jnsgd1na2vs0mg"},{"bike_id":"49adc81d-2b75-4ba1-b9cc-61321d8fda47","system_id":"levelo_inurba_marseille","lat":43.26367,"lon":5.41081,"is_reserved":false,"is_disabled":false,"rental_uris":{"android":"levelo://app?vid=49adc81d-2b75-4ba1-b9cc-61321d8fda47","ios":"levelo://app?vid=49adc81d-2b75-4ba1-b9cc-61321d8fda47"},"vehicle_type_id":"4","last_reported":1783321207,"current_range_meters":5600,"station_id":"st_d4e5ca6na9uc73bfl5fg","pricing_plan_id":"cebpf4jnsgd1na2vs0mg"},{"bike_id":"6f7a01a8-ee4c-4eed-b676-8bb956e41341","system_id":"levelo_inurba_marseille","lat":43.28976,"lon":5.42479,"is_reserved":false,"is_disabled":false,"rental_uris":{"android":"levelo://app?vid=6f7a01a8-ee4c-4eed-b676-8bb956e41341","ios":"levelo://app?vid=6f7a01a8-ee4c-4eed-b676-8bb956e41341"},"vehicle_type_id":"4","last_reported":1783321207,"current_range_meters":5600,"station_id":"","pricing_plan_id":"cebpf4jnsgd1na2vs0mg"},{"bike_id":"4d04075e-e187-4b98-81a5-04d9a633d9af","system_id":"levelo_inurba_marseille","lat":43.32915,"lon":5.3681,"is_reserved":false,"is_disabled":false,"rental_uris":{"android":"levelo://app?vid=4d04075e-e187-4b98-81a5-04d9a633d9af","ios":"levelo://app?vid=4d04075e-e187-4b98-81a5-04d9a633d9af"},"vehicle_type_id":"4","last_reported":1783321207,"current_range_meters":5600,"station_id":"","pricing_plan_id":"cebpf4jnsgd1na2vs0mg"},{"bike_id":"c9445652-b236-402b-8ec1-fb5567a22b0f","system_id":"levelo_inurba_marseille","lat":43.24454,"lon":5.40942,"is_reserved":false,"is_disabled":false,"rental_uris":{"android":"levelo://app?vid=c9445652-b236-402b-8ec1-fb5567a22b0f","ios":"levelo://app?vid=c9445652-b236-402b-8ec1-fb5567a22b0f"},"vehicle_type_id":"4","last_reported":1783321207,"current_range_meters":5600,"station_id":"","pricing_plan_id":"cebpf4jnsgd1na2vs0mg"},{"bike_id":"fc5d7b22-bed1-4640-a4b2-9379b1406486","system_id":"levelo_inurba_marseille","lat":43.29426,"lon":5.38421,"is_reserved":false,"is_disabled":true,"rental_uris":{"android":"levelo://app?vid=fc5d7b22-bed1-4640-a4b2-9379b1406486","ios":"levelo://app?vid=fc5d7b22-bed1-4640-a4b2-9379b1406486"},"vehicle_type_id":"4","last_reported":1783321207,"current_range_meters":5600,"station_id":"","pricing_plan_id":"cebpf4jnsgd1na2vs0mg"},{"bike_id":"c1c88b11-92f5-437b-85af-b745aa920b32","system_id":"levelo_inurba_marseille","lat":43.26673,"lon":5.3873,"is_reserved":false,"is_disabled":false,"rental_uris":{"android":"levelo://app?vid=c1c88b11-92f5-437b-85af-b745aa920b32","ios":"levelo://app?vid=c1c88b11-92f5-437b-85af-b745aa920b32"},"vehicle_type_id":"4","last_reported":1783321207,"current_range_meters":5600,"station_id":"","pricing_plan_id":"cebpf4jnsgd1na2vs0mg"},{"bike_id":"0a5bb381-4198-40ce-923a-db8ac0ef21c5","system_id":"levelo_inurba_marseille","lat":43.30142,"lon":5.38084,"is_reserved":false,"is_disabled":false,"rental_uris":{"android":"levelo://app?vid=0a5bb381-4198-40ce-923a-db8ac0ef21c5","ios":"levelo://app?vid=0a5bb381-4198-40ce-923a-db8ac0ef21c5"},"vehicle_type_id":"4","last_reported":1783321207,"current_range_meters":5600,"station_id":"ce4bgjp2rcd13ifvqbh0","pricing_plan_id":"cebpf4jnsgd1na2vs0mg"},{"bike_id":"19914a48-7974-4b8e-b8a2-de423df83549","system_id":"levelo_inurba_marseille","lat":43.28706,"lon":5.46685,"is_reserved":false,"is_disabled":false,"rental_uris":{"android":"levelo://app?vid=19914a48-7974-4b8e-b8a2-de423df83549","ios":"levelo://app?vid=19914a48-7974-4b8e-b8a2-de423df83549"},"vehicle_type_id":"4","last_reported":1783321207,"current_range_meters":6000,"station_id":"st_d6tc3vkotcvc738tfjhg","pricing_plan_id":"cebpf4jnsgd1na2vs0mg"},{"bike_id":"d4057e6e-750c-482c-9be9-a1e254cbd3f3","system_id":"levelo_inurba_marseille","lat":43.26686,"lon":5.38269,"is_reserved":false,"is_disabled":false,"rental_uris":{"android":"levelo://app?vid=d4057e6e-750c-482c-9be9-a1e254cbd3f3","ios":"levelo://app?vid=d4057e6e-750c-482c-9be9-a1e254cbd3f3"},"vehicle_type_id":"4","last_reported":1783321207,"current_range_meters":6000,"station_id":"ce4bhg92rcd13ifvqf90","pricing_plan_id":"cebpf4jnsgd1na2vs0mg"},{"bike_id":"138e49e7-8d22-4832-895c-d97d918d2d72","system_id":"levelo_inurba_marseille","lat":43.27812,"lon":5.36446,"is_reserved":false,"is_disabled":false,"rental_uris":{"android":"levelo://app?vid=138e49e7-8d22-4832-895c-d97d918d2d72","ios":"levelo://app?vid=138e49e7-8d22-4832-895c-d97d918d2d72"},"vehicle_type_id":"4","last_reported":1783321207,"current_range_meters":6000,"station_id":"","pricing_plan_id":"cebpf4jnsgd1na2vs0mg"},{"bike_id":"f5862b25-8b9f-4511-934a-30eb2d62b473","system_id":"levelo_inurba_marseille","lat":43.23775,"lon":5.36164,"is_reserved":false,"is_disabled":false,"rental_uris":{"android":"levelo://app?vid=f5862b25-8b9f-4511-934a-30eb2d62b473","ios":"levelo://app?vid=f5862b25-8b9f-4511-934a-30eb2d62b473"},"vehicle_type_id":"4","last_reported":1783321207,"current_range_meters":6000,"station_id":"","pricing_plan_id":"cebpf4jnsgd1na2vs0mg"},{"bike_id":"a3ae791a-cc3c-4e29-99e3-95b9a90ffab6","system_id":"levelo_inurba_marseille","lat":43.26779,"lon":5.39422,"is_reserved":false,"is_disabled":false,"rental_uris":{"android":"levelo://app?vid=a3ae791a-cc3c-4e29-99e3-95b9a90ffab6","ios":"levelo://app?vid=a3ae791a-cc3c-4e29-99e3-95b9a90ffab6"},"vehicle_type_id":"4","last_reported":1783321207,"current_range_meters":6000,"station_id":"ce4bhh12rcd13ifvqfg0","pricing_plan_id":"cebpf4jnsgd1na2vs0mg"},{"bike_id":"bde82103-cbaa-4b3c-8470-6f82117dfebb","system_id":"levelo_inurba_marseille","lat":43.26218,"lon":5.38768,"is_reserved":false,"is_disabled":false,"rental_uris":{"android":"levelo://app?vid=bde82103-cbaa-4b3c-8470-6f82117dfebb","ios":"levelo://app?vid=bde82103-cbaa-4b3c-8470-6f82117dfebb"},"vehicle_type_id":"4","last_reported":1783321207,"current_range_meters":6000,"station_id":"st_d8gjfg747rts73coq3b0","pricing_plan_id":"cebpf4jnsgd1na2vs0mg"},{"bike_id":"8fec6c78-b460-42d7-b78b-be9ed7c2fffd","system_id":"levelo_inurba_marseille","lat":43.28152,"lon":5.42645,"is_reserved":false,"is_disabled":false,"rental_uris":{"android":"levelo://app?vid=8fec6c78-b460-42d7-b78b-be9ed7c2fffd","ios":"levelo://app?vid=8fec6c78-b460-42d7-b78b-be9ed7c2fffd"},"vehicle_type_id":"4","last_reported":1783321207,"current_range_meters":6000,"station_id":"ce4bhnh2rcd13ifvqgug","pricing_plan_id":"cebpf4jnsgd1na2vs0mg"},{"bike_id":"5f4b44ff-a2a1-4def-ba0b-336b7bf79809","system_id":"levelo_inurba_marseille","lat":43.29914,"lon":5.38154,"is_reserved":false,"is_disabled":false,"rental_uris":{"android":"levelo://app?vid=5f4b44ff-a2a1-4def-ba0b-336b7bf79809","ios":"levelo://app?vid=5f4b44ff-a2a1-4def-ba0b-336b7bf79809"},"vehicle_type_id":"4","last_reported":1783321207,"current_range_meters":6000,"station_id":"ce4bgj12rcd13ifvqbc0","pricing_plan_id":"cebpf4jnsgd1na2vs0mg"},{"bike_id":"d62a5f06-a4d3-43f1-8950-c438f1f04a18","system_id":"levelo_inurba_marseille","lat":43.27481,"lon":5.40519,"is_reserved":false,"is_disabled":false,"rental_uris":{"android":"levelo://app?vid=d62a5f06-a4d3-43f1-8950-c438f1f04a18","ios":"levelo://app?vid=d62a5f06-a4d3-43f1-8950-c438f1f04a18"},"vehicle_type_id":"4","last_reported":1783321207,"current_range_meters":6000,"station_id":"","pricing_plan_id":"cebpf4jnsgd1na2vs0mg"},{"bike_id":"3e947fc2-89ac-4d9d-8faf-e1c57fd9fc07","system_id":"levelo_inurba_marseille","lat":43.29501,"lon":5.43288,"is_reserved":false,"is_disabled":false,"rental_uris":{"android":"levelo://app?vid=3e947fc2-89ac-4d9d-8faf-e1c57fd9fc07","ios":"levelo://app?vid=3e947fc2-89ac-4d9d-8faf-e1c57fd9fc07"},"vehicle_type_id":"4","last_reported":1783321207,"current_range_meters":6000,"station_id":"st_d3j5ugp08ojc73fj9d10","pricing_plan_id":"cebpf4jnsgd1na2vs0mg"},{"bike_id":"62ed54c7-0b04-446c-bc84-af79c29989a0","system_id":"levelo_inurba_marseille","lat":43.30409,"lon":5.41291,"is_reserved":false,"is_disabled":false,"rental_uris":{"android":"levelo://app?vid=62ed54c7-0b04-446c-bc84-af79c29989a0","ios":"levelo://app?vid=62ed54c7-0b04-446c-bc84-af79c29989a0"},"vehicle_type_id":"4","last_reported":1783321207,"current_range_meters":6000,"station_id":"ce4bhop2rcd13ifvqh8g","pricing_plan_id":"cebpf4jnsgd1na2vs0mg"},{"bike_id":"13b80e07-18cd-4ee7-a62f-96d1a8e5a848","system_id":"levelo_inurba_marseille","lat":43.29772,"lon":5.37097,"is_reserved":false,"is_disabled":true,"rental_uris":{"android":"levelo://app?vid=13b80e07-18cd-4ee7-a62f-96d1a8e5a848","ios":"levelo://app?vid=13b80e07-18cd-4ee7-a62f-96d1a8e5a848"},"vehicle_type_id":"4","last_reported":1783321207,"current_range_meters":6000,"station_id":"ce4bgop2rcd13ifvqc1g","pricing_plan_id":"cebpf4jnsgd1na2vs0mg"},{"bike_id":"f735ab1c-3bdf-441e-9888-b457dfdf0ed1","system_id":"levelo_inurba_marseille","lat":43.26693,"lon":5.38263,"is_reserved":false,"is_disabled":true,"rental_uris":{"android":"levelo://app?vid=f735ab1c-3bdf-441e-9888-b457dfdf0ed1","ios":"levelo://app?vid=f735ab1c-3bdf-441e-9888-b457dfdf0ed1"},"vehicle_type_id":"4","last_reported":1783321207,"current_range_meters":6000,"station_id":"ce4bhg92rcd13ifvqf90","pricing_plan_id":"cebpf4jnsgd1na2vs0mg"},{"bike_id":"64bf0160-8d27-43dd-b37b-f0902d5032ce","system_id":"levelo_inurba_marseille","lat":43.29481,"lon":5.433,"is_reserved":false,"is_disabled":false,"rental_uris":{"android":"levelo://app?vid=64bf0160-8d27-43dd-b37b-f0902d5032ce","ios":"levelo://app?vid=64bf0160-8d27-43dd-b37b-f0902d5032ce"},"vehicle_type_id":"4","last_reported":1783321207,"current_range_meters":6000,"station_id":"st_d3j5ugp08ojc73fj9d10","pricing_plan_id":"cebpf4jnsgd1na2vs0mg"},{"bike_id":"f469375b-6348-42cf-b696-dbeaebb7418c","system_id":"levelo_inurba_marseille","lat":43.26231,"lon":5.38757,"is_reserved":false,"is_disabled":false,"rental_uris":{"android":"levelo://app?vid=f469375b-6348-42cf-b696-dbeaebb7418c","ios":"levelo://app?vid=f469375b-6348-42cf-b696-dbeaebb7418c"},"vehicle_type_id":"4","last_reported":1783321207,"current_range_meters":6000,"station_id":"st_d8gjfg747rts73coq3b0","pricing_plan_id":"cebpf4jnsgd1na2vs0mg"},{"bike_id":"a67a14fb-4c58-4032-bbc6-f58d8881628f","system_id":"levelo_inurba_marseille","lat":43.24507,"lon":5.39687,"is_reserved":false,"is_disabled":false,"rental_uris":{"android":"levelo://app?vid=a67a14fb-4c58-4032-bbc6-f58d8881628f","ios":"levelo://app?vid=a67a14fb-4c58-4032-bbc6-f58d8881628f"},"vehicle_type_id":"4","last_reported":1783321207,"current_range_meters":6000,"station_id":"","pricing_plan_id":"cebpf4jnsgd1na2vs0mg"},{"bike_id":"7c427d21-5ba3-47e9-b621-2ca7d29df3d2","system_id":"levelo_inurba_marseille","lat":43.28443,"lon":5.43741,"is_reserved":false,"is_disabled":false,"rental_uris":{"android":"levelo://app?vid=7c427d21-5ba3-47e9-b621-2ca7d29df3d2","ios":"levelo://app?vid=7c427d21-5ba3-47e9-b621-2ca7d29df3d2"},"vehicle_type_id":"4","last_reported":1783321207,"current_range_meters":6000,"station_id":"","pricing_plan_id":"cebpf4jnsgd1na2vs0mg"},{"bike_id":"9e456402-c486-41b9-a74c-8f403e2a35f7","system_id":"levelo_inurba_marseille","lat":43.26219,"lon":5.3877,"is_reserved":false,"is_disabled":false,"rental_uris":{"android":"levelo://app?vid=9e456402-c486-41b9-a74c-8f403e2a35f7","ios":"levelo://app?vid=9e456402-c486-41b9-a74c-8f403e2a35f7"},"vehicle_type_id":"4","last_reported":1783321207,"current_range_meters":6000,"station_id":"st_d8gjfg747rts73coq3b0","pricing_plan_id":"cebpf4jnsgd1na2vs0mg"},{"bike_id":"dccc9b6f-3c58-452f-924c-ab219bd04cee","system_id":"levelo_inurba_marseille","lat":43.28945,"lon":5.36624,"is_reserved":false,"is_disabled":true,"rental_uris":{"android":"levelo://app?vid=dccc9b6f-3c58-452f-924c-ab219bd04cee","ios":"levelo://app?vid=dccc9b6f-3c58-452f-924c-ab219bd04cee"},"vehicle_type_id":"4","last_reported":1783321207,"current_range_meters":6400,"station_id":"ce4bhap2rcd13ifvqek0","pricing_plan_id":"cebpf4jnsgd1na2vs0mg"},{"bike_id":"620ecdae-2a2a-4d24-bbf4-c953fc744dbb","system_id":"levelo_inurba_marseille","lat":43.29812,"lon":5.37829,"is_reserved":false,"is_disabled":false,"rental_uris":{"android":"levelo://app?vid=620ecdae-2a2a-4d24-bbf4-c953fc744dbb","ios":"levelo://app?vid=620ecdae-2a2a-4d24-bbf4-c953fc744dbb"},"vehicle_type_id":"4","last_reported":1783321207,"current_range_meters":6400,"station_id":"","pricing_plan_id":"cebpf4jnsgd1na2vs0mg"},{"bike_id":"54c69063-9131-466c-867c-ae9ff04c7411","system_id":"levelo_inurba_marseille","lat":43.30207,"lon":5.3944,"is_reserved":false,"is_disabled":true,"rental_uris":{"android":"levelo://app?vid=54c69063-9131-466c-867c-ae9ff04c7411","ios":"levelo://app?vid=54c69063-9131-466c-867c-ae9ff04c7411"},"vehicle_type_id":"4","last_reported":1783321207,"current_range_meters":6400,"station_id":"ce4bh0p2rcd13ifvqd70","pricing_plan_id":"cebpf4jnsgd1na2vs0mg"},{"bike_id":"277eeda4-0ed8-418d-bd4b-dc50b5219d3a","system_id":"levelo_inurba_marseille","lat":43.29493,"lon":5.43271,"is_reserved":false,"is_disabled":false,"rental_uris":{"android":"levelo://app?vid=277eeda4-0ed8-418d-bd4b-dc50b5219d3a","ios":"levelo://app?vid=277eeda4-0ed8-418d-bd4b-dc50b5219d3a"},"vehicle_type_id":"4","last_reported":1783321207,"current_range_meters":6400,"station_id":"st_d3j5ugp08ojc73fj9d10","pricing_plan_id":"cebpf4jnsgd1na2vs0mg"},{"bike_id":"f9853e7a-a684-40dd-ad68-ddcfd9332935","system_id":"levelo_inurba_marseille","lat":43.30527,"lon":5.36712,"is_reserved":false,"is_disabled":false,"rental_uris":{"android":"levelo://app?vid=f9853e7a-a684-40dd-ad68-ddcfd9332935","ios":"levelo://app?vid=f9853e7a-a684-40dd-ad68-ddcfd9332935"},"vehicle_type_id":"4","last_reported":1783321207,"current_range_meters":6400,"station_id":"ce4bgrp2rcd13ifvqc9g","pricing_plan_id":"cebpf4jnsgd1na2vs0mg"},{"bike_id":"3d4c1637-dc20-4459-876c-1038e127377b","system_id":"levelo_inurba_marseille","lat":43.28009,"lon":5.39996,"is_reserved":false,"is_disabled":false,"rental_uris":{"android":"levelo://app?vid=3d4c1637-dc20-4459-876c-1038e127377b","ios":"levelo://app?vid=3d4c1637-dc20-4459-876c-1038e127377b"},"vehicle_type_id":"4","last_reported":1783321207,"current_range_meters":6400,"station_id":"ce4bho92rcd13ifvqh4g","pricing_plan_id":"cebpf4jnsgd1na2vs0mg"},{"bike_id":"f6fce705-7bfb-4e03-b92d-cedf55d8594f","system_id":"levelo_inurba_marseille","lat":43.30799,"lon":5.38144,"is_reserved":false,"is_disabled":false,"rental_uris":{"android":"levelo://app?vid=f6fce705-7bfb-4e03-b92d-cedf55d8594f","ios":"levelo://app?vid=f6fce705-7bfb-4e03-b92d-cedf55d8594f"},"vehicle_type_id":"4","last_reported":1783321207,"current_range_meters":6400,"station_id":"ce4bgt12rcd13ifvqce0","pricing_plan_id":"cebpf4jnsgd1na2vs0mg"},{"bike_id":"4a08a9a1-1143-4202-92af-f2bf0379fe84","system_id":"levelo_inurba_marseille","lat":43.28471,"lon":5.35351,"is_reserved":false,"is_disabled":false,"rental_uris":{"android":"levelo://app?vid=4a08a9a1-1143-4202-92af-f2bf0379fe84","ios":"levelo://app?vid=4a08a9a1-1143-4202-92af-f2bf0379fe84"},"vehicle_type_id":"4","last_reported":1783321207,"current_range_meters":6400,"station_id":"","pricing_plan_id":"cebpf4jnsgd1na2vs0mg"},{"bike_id":"f02e8ec2-11fe-4ba0-97fb-b41189b209c8","system_id":"levelo_inurba_marseille","lat":43.29831,"lon":5.36269,"is_reserved":false,"is_disabled":false,"rental_uris":{"android":"levelo://app?vid=f02e8ec2-11fe-4ba0-97fb-b41189b209c8","ios":"levelo://app?vid=f02e8ec2-11fe-4ba0-97fb-b41189b209c8"},"vehicle_type_id":"4","last_reported":1783321207,"current_range_meters":6400,"station_id":"ce4bgpp2rcd13ifvqc3g","pricing_plan_id":"cebpf4jnsgd1na2vs0mg"},{"bike_id":"43f43632-a5b5-4413-a000-07225ef3d5d3","system_id":"levelo_inurba_marseille","lat":43.27809,"lon":5.40718,"is_reserved":false,"is_disabled":false,"rental_uris":{"android":"levelo://app?vid=43f43632-a5b5-4413-a000-07225ef3d5d3","ios":"levelo://app?vid=43f43632-a5b5-4413-a000-07225ef3d5d3"},"vehicle_type_id":"4","last_reported":1783321207,"current_range_meters":6400,"station_id":"ce4bhnh2rcd13ifvqgtg","pricing_plan_id":"cebpf4jnsgd1na2vs0mg"},{"bike_id":"85375d55-e0d1-447d-809b-18247820754d","system_id":"levelo_inurba_marseille","lat":43.28919,"lon":5.48128,"is_reserved":false,"is_disabled":false,"rental_uris":{"android":"levelo://app?vid=85375d55-e0d1-447d-809b-18247820754d","ios":"levelo://app?vid=85375d55-e0d1-447d-809b-18247820754d"},"vehicle_type_id":"4","last_reported":1783321207,"current_range_meters":6400,"station_id":"","pricing_plan_id":"cebpf4jnsgd1na2vs0mg"},{"bike_id":"db8a891d-01a8-477c-86bb-61f9ddbc2ad3","system_id":"levelo_inurba_marseille","lat":43.24945,"lon":5.40501,"is_reserved":false,"is_disabled":false,"rental_uris":{"android":"levelo://app?vid=db8a891d-01a8-477c-86bb-61f9ddbc2ad3","ios":"levelo://app?vid=db8a891d-01a8-477c-86bb-61f9ddbc2ad3"},"vehicle_type_id":"4","last_reported":1783321207,"current_range_meters":6400,"station_id":"st_d2ngiaodas8pm72gd1h0","pricing_plan_id":"cebpf4jnsgd1na2vs0mg"},{"bike_id":"0c6cf968-16b1-48c4-a8eb-9af852e2846a","system_id":"levelo_inurba_marseille","lat":43.28845,"lon":5.39333,"is_reserved":false,"is_disabled":true,"rental_uris":{"android":"levelo://app?vid=0c6cf968-16b1-48c4-a8eb-9af852e2846a","ios":"levelo://app?vid=0c6cf968-16b1-48c4-a8eb-9af852e2846a"},"vehicle_type_id":"4","last_reported":1783321207,"current_range_meters":6400,"station_id":"ce4bh2p2rcd13ifvqdi0","pricing_plan_id":"cebpf4jnsgd1na2vs0mg"},{"bike_id":"d5a4aa2d-cb43-47d6-af76-dda19b880491","system_id":"levelo_inurba_marseille","lat":43.28477,"lon":5.484,"is_reserved":false,"is_disabled":false,"rental_uris":{"android":"levelo://app?vid=d5a4aa2d-cb43-47d6-af76-dda19b880491","ios":"levelo://app?vid=d5a4aa2d-cb43-47d6-af76-dda19b880491"},"vehicle_type_id":"4","last_reported":1783321207,"current_range_meters":6400,"station_id":"st_d3svhcjqgbts73a3dn0g","pricing_plan_id":"cebpf4jnsgd1na2vs0mg"},{"bike_id":"e40f7e4d-aee3-4c7e-9ab5-4a739fc7a822","system_id":"levelo_inurba_marseille","lat":43.25131,"lon":5.40312,"is_reserved":false,"is_disabled":false,"rental_uris":{"android":"levelo://app?vid=e40f7e4d-aee3-4c7e-9ab5-4a739fc7a822","ios":"levelo://app?vid=e40f7e4d-aee3-4c7e-9ab5-4a739fc7a822"},"vehicle_type_id":"4","last_reported":1783321207,"current_range_meters":6400,"station_id":"ce4bhlh2rcd13ifvqgig","pricing_plan_id":"cebpf4jnsgd1na2vs0mg"},{"bike_id":"030265b2-4dd1-44f4-b998-e3903e3adbf1","system_id":"levelo_inurba_marseille","lat":43.2861,"lon":5.37062,"is_reserved":false,"is_disabled":true,"rental_uris":{"android":"levelo://app?vid=030265b2-4dd1-44f4-b998-e3903e3adbf1","ios":"levelo://app?vid=030265b2-4dd1-44f4-b998-e3903e3adbf1"},"vehicle_type_id":"4","last_reported":1783321207,"current_range_meters":6400,"station_id":"ce4bht12rcd13ifvqi60","pricing_plan_id":"cebpf4jnsgd1na2vs0mg"},{"bike_id":"7b81739f-6fe1-4c82-b7c7-1fb02dd37b1f","system_id":"levelo_inurba_marseille","lat":43.28153,"lon":5.4263,"is_reserved":false,"is_disabled":false,"rental_uris":{"android":"levelo://app?vid=7b81739f-6fe1-4c82-b7c7-1fb02dd37b1f","ios":"levelo://app?vid=7b81739f-6fe1-4c82-b7c7-1fb02dd37b1f"},"vehicle_type_id":"4","last_reported":1783321207,"current_range_meters":6400,"station_id":"ce4bhnh2rcd13ifvqgug","pricing_plan_id":"cebpf4jnsgd1na2vs0mg"},{"bike_id":"fe2331ff-174a-4181-b6ef-65ab29ab85bd","system_id":"levelo_inurba_marseille","lat":43.33162,"lon":5.3768,"is_reserved":false,"is_disabled":false,"rental_uris":{"android":"levelo://app?vid=fe2331ff-174a-4181-b6ef-65ab29ab85bd","ios":"levelo://app?vid=fe2331ff-174a-4181-b6ef-65ab29ab85bd"},"vehicle_type_id":"4","last_reported":1783321207,"current_range_meters":6400,"station_id":"st_d46cu089ee8s73dldbu0","pricing_plan_id":"cebpf4jnsgd1na2vs0mg"},{"bike_id":"5f8fad01-d103-4de6-8a95-59850df458e0","system_id":"levelo_inurba_marseille","lat":43.2294,"lon":5.35377,"is_reserved":false,"is_disabled":false,"rental_uris":{"android":"levelo://app?vid=5f8fad01-d103-4de6-8a95-59850df458e0","ios":"levelo://app?vid=5f8fad01-d103-4de6-8a95-59850df458e0"},"vehicle_type_id":"4","last_reported":1783321207,"current_range_meters":6400,"station_id":"cpo3532slgdg3j2ikp40","pricing_plan_id":"cebpf4jnsgd1na2vs0mg"},{"bike_id":"536b0ccf-34e8-4193-ad1e-bea4993e5180","system_id":"levelo_inurba_marseille","lat":43.24941,"lon":5.40485,"is_reserved":false,"is_disabled":false,"rental_uris":{"android":"levelo://app?vid=536b0ccf-34e8-4193-ad1e-bea4993e5180","ios":"levelo://app?vid=536b0ccf-34e8-4193-ad1e-bea4993e5180"},"vehicle_type_id":"4","last_reported":1783321207,"current_range_meters":6400,"station_id":"st_d2ngiaodas8pm72gd1h0","pricing_plan_id":"cebpf4jnsgd1na2vs0mg"},{"bike_id":"dc41f11d-9cc5-467b-80c4-b05f41fae0e6","system_id":"levelo_inurba_marseille","lat":43.30892,"lon":5.39821,"is_reserved":false,"is_disabled":false,"rental_uris":{"android":"levelo://app?vid=dc41f11d-9cc5-467b-80c4-b05f41fae0e6","ios":"levelo://app?vid=dc41f11d-9cc5-467b-80c4-b05f41fae0e6"},"vehicle_type_id":"4","last_reported":1783321207,"current_range_meters":6400,"station_id":"","pricing_plan_id":"cebpf4jnsgd1na2vs0mg"},{"bike_id":"6561da10-7a09-4fd9-b043-45bdb7ded2ef","system_id":"levelo_inurba_marseille","lat":43.251,"lon":5.40332,"is_reserved":false,"is_disabled":true,"rental_uris":{"android":"levelo://app?vid=6561da10-7a09-4fd9-b043-45bdb7ded2ef","ios":"levelo://app?vid=6561da10-7a09-4fd9-b043-45bdb7ded2ef"},"vehicle_type_id":"4","last_reported":1783321207,"current_range_meters":6800,"station_id":"ce4bhlh2rcd13ifvqgig","pricing_plan_id":"cebpf4jnsgd1na2vs0mg"},{"bike_id":"fb2e8bd1-8803-4d96-b5e9-5618c029fbea","system_id":"levelo_inurba_marseille","lat":43.28729,"lon":5.37952,"is_reserved":false,"is_disabled":true,"rental_uris":{"android":"levelo://app?vid=fb2e8bd1-8803-4d96-b5e9-5618c029fbea","ios":"levelo://app?vid=fb2e8bd1-8803-4d96-b5e9-5618c029fbea"},"vehicle_type_id":"4","last_reported":1783321207,"current_range_meters":6800,"station_id":"ce4bh9p2rcd13ifvqec0","pricing_plan_id":"cebpf4jnsgd1na2vs0mg"},{"bike_id":"3e6c6bce-5072-4983-bf29-cb65bad52ecf","system_id":"levelo_inurba_marseille","lat":43.28133,"lon":5.42684,"is_reserved":false,"is_disabled":false,"rental_uris":{"android":"levelo://app?vid=3e6c6bce-5072-4983-bf29-cb65bad52ecf","ios":"levelo://app?vid=3e6c6bce-5072-4983-bf29-cb65bad52ecf"},"vehicle_type_id":"4","last_reported":1783321207,"current_range_meters":6800,"station_id":"ce4bhnh2rcd13ifvqgug","pricing_plan_id":"cebpf4jnsgd1na2vs0mg"},{"bike_id":"cb323477-6ef8-40b8-86c4-727ab066d2c6","system_id":"levelo_inurba_marseille","lat":43.27059,"lon":5.4228,"is_reserved":false,"is_disabled":false,"rental_uris":{"android":"levelo://app?vid=cb323477-6ef8-40b8-86c4-727ab066d2c6","ios":"levelo://app?vid=cb323477-6ef8-40b8-86c4-727ab066d2c6"},"vehicle_type_id":"4","last_reported":1783321207,"current_range_meters":6800,"station_id":"ce4bhk92rcd13ifvqgb0","pricing_plan_id":"cebpf4jnsgd1na2vs0mg"},{"bike_id":"4cf5d60e-9140-4a8a-8441-24f2bea126c8","system_id":"levelo_inurba_marseille","lat":43.28917,"lon":5.43764,"is_reserved":false,"is_disabled":false,"rental_uris":{"android":"levelo://app?vid=4cf5d60e-9140-4a8a-8441-24f2bea126c8","ios":"levelo://app?vid=4cf5d60e-9140-4a8a-8441-24f2bea126c8"},"vehicle_type_id":"4","last_reported":1783321207,"current_range_meters":6800,"station_id":"","pricing_plan_id":"cebpf4jnsgd1na2vs0mg"},{"bike_id":"d31304b6-85f4-4084-96fe-bbdaa44ea153","system_id":"levelo_inurba_marseille","lat":43.29925,"lon":5.37465,"is_reserved":false,"is_disabled":false,"rental_uris":{"android":"levelo://app?vid=d31304b6-85f4-4084-96fe-bbdaa44ea153","ios":"levelo://app?vid=d31304b6-85f4-4084-96fe-bbdaa44ea153"},"vehicle_type_id":"4","last_reported":1783321207,"current_range_meters":6800,"station_id":"ce4bgjh2rcd13ifvqbg0","pricing_plan_id":"cebpf4jnsgd1na2vs0mg"},{"bike_id":"3f710a02-f8be-4a72-b3a0-95c91d6b2d5b","system_id":"levelo_inurba_marseille","lat":43.27917,"lon":5.39577,"is_reserved":false,"is_disabled":false,"rental_uris":{"android":"levelo://app?vid=3f710a02-f8be-4a72-b3a0-95c91d6b2d5b","ios":"levelo://app?vid=3f710a02-f8be-4a72-b3a0-95c91d6b2d5b"},"vehicle_type_id":"4","last_reported":1783321207,"current_range_meters":6800,"station_id":"ce4bhf92rcd13ifvqf40","pricing_plan_id":"cebpf4jnsgd1na2vs0mg"},{"bike_id":"a76149b9-4d1e-434b-9dce-68b3dea0a305","system_id":"levelo_inurba_marseille","lat":43.3199,"lon":5.38161,"is_reserved":false,"is_disabled":false,"rental_uris":{"android":"levelo://app?vid=a76149b9-4d1e-434b-9dce-68b3dea0a305","ios":"levelo://app?vid=a76149b9-4d1e-434b-9dce-68b3dea0a305"},"vehicle_type_id":"4","last_reported":1783321207,"current_range_meters":6800,"station_id":"ce4bhr12rcd13ifvqhpg","pricing_plan_id":"cebpf4jnsgd1na2vs0mg"},{"bike_id":"32d0abeb-f517-4264-a904-e5817efbc2f5","system_id":"levelo_inurba_marseille","lat":43.28922,"lon":5.38405,"is_reserved":false,"is_disabled":true,"rental_uris":{"android":"levelo://app?vid=32d0abeb-f517-4264-a904-e5817efbc2f5","ios":"levelo://app?vid=32d0abeb-f517-4264-a904-e5817efbc2f5"},"vehicle_type_id":"4","last_reported":1783321207,"current_range_meters":6800,"station_id":"ce4bh612rcd13ifvqe6g","pricing_plan_id":"cebpf4jnsgd1na2vs0mg"},{"bike_id":"20caa1fc-06d5-4252-9f45-594b25108b35","system_id":"levelo_inurba_marseille","lat":43.28484,"lon":5.4839,"is_reserved":false,"is_disabled":false,"rental_uris":{"android":"levelo://app?vid=20caa1fc-06d5-4252-9f45-594b25108b35","ios":"levelo://app?vid=20caa1fc-06d5-4252-9f45-594b25108b35"},"vehicle_type_id":"4","last_reported":1783321207,"current_range_meters":6800,"station_id":"st_d3svhcjqgbts73a3dn0g","pricing_plan_id":"cebpf4jnsgd1na2vs0mg"},{"bike_id":"c24b0d68-14d9-44af-8b0c-35f8569c6d0c","system_id":"levelo_inurba_marseille","lat":43.28477,"lon":5.38516,"is_reserved":false,"is_disabled":true,"rental_uris":{"android":"levelo://app?vid=c24b0d68-14d9-44af-8b0c-35f8569c6d0c","ios":"levelo://app?vid=c24b0d68-14d9-44af-8b0c-35f8569c6d0c"},"vehicle_type_id":"4","last_reported":1783321207,"current_range_meters":6800,"station_id":"ce4bh8p2rcd13ifvqeb0","pricing_plan_id":"cebpf4jnsgd1na2vs0mg"},{"bike_id":"49ab2764-f571-4f43-8b96-23d3b0325d1b","system_id":"levelo_inurba_marseille","lat":43.25374,"lon":5.382,"is_reserved":false,"is_disabled":false,"rental_uris":{"android":"levelo://app?vid=49ab2764-f571-4f43-8b96-23d3b0325d1b","ios":"levelo://app?vid=49ab2764-f571-4f43-8b96-23d3b0325d1b"},"vehicle_type_id":"4","last_reported":1783321207,"current_range_meters":6800,"station_id":"","pricing_plan_id":"cebpf4jnsgd1na2vs0mg"},{"bike_id":"24101c5c-8eb7-4f51-a037-e1fbe9f469c5","system_id":"levelo_inurba_marseille","lat":43.25007,"lon":5.37958,"is_reserved":false,"is_disabled":false,"rental_uris":{"android":"levelo://app?vid=24101c5c-8eb7-4f51-a037-e1fbe9f469c5","ios":"levelo://app?vid=24101c5c-8eb7-4f51-a037-e1fbe9f469c5"},"vehicle_type_id":"4","last_reported":1783321207,"current_range_meters":6800,"station_id":"","pricing_plan_id":"cebpf4jnsgd1na2vs0mg"},{"bike_id":"a2327749-5094-48cb-8a0f-52c7de8de03a","system_id":"levelo_inurba_marseille","lat":43.28711,"lon":5.467,"is_reserved":false,"is_disabled":false,"rental_uris":{"android":"levelo://app?vid=a2327749-5094-48cb-8a0f-52c7de8de03a","ios":"levelo://app?vid=a2327749-5094-48cb-8a0f-52c7de8de03a"},"vehicle_type_id":"4","last_reported":1783321207,"current_range_meters":6800,"station_id":"st_d6tc3vkotcvc738tfjhg","pricing_plan_id":"cebpf4jnsgd1na2vs0mg"},{"bike_id":"87da481c-7e44-49ce-9617-64ee4bd27ca4","system_id":"levelo_inurba_marseille","lat":43.26407,"lon":5.39872,"is_reserved":false,"is_disabled":false,"rental_uris":{"android":"levelo://app?vid=87da481c-7e44-49ce-9617-64ee4bd27ca4","ios":"levelo://app?vid=87da481c-7e44-49ce-9617-64ee4bd27ca4"},"vehicle_type_id":"4","last_reported":1783321207,"current_range_meters":6800,"station_id":"","pricing_plan_id":"cebpf4jnsgd1na2vs0mg"},{"bike_id":"927f034a-0960-4153-81f1-316c469b9213","system_id":"levelo_inurba_marseille","lat":43.2588,"lon":5.39899,"is_reserved":false,"is_disabled":false,"rental_uris":{"android":"levelo://app?vid=927f034a-0960-4153-81f1-316c469b9213","ios":"levelo://app?vid=927f034a-0960-4153-81f1-316c469b9213"},"vehicle_type_id":"4","last_reported":1783321207,"current_range_meters":6800,"station_id":"ce4bhl92rcd13ifvqghg","pricing_plan_id":"cebpf4jnsgd1na2vs0mg"},{"bike_id":"0f8977a8-c869-4afe-921f-7d3d19abbb63","system_id":"levelo_inurba_marseille","lat":43.31517,"lon":5.37283,"is_reserved":false,"is_disabled":false,"rental_uris":{"android":"levelo://app?vid=0f8977a8-c869-4afe-921f-7d3d19abbb63","ios":"levelo://app?vid=0f8977a8-c869-4afe-921f-7d3d19abbb63"},"vehicle_type_id":"4","last_reported":1783321207,"current_range_meters":6800,"station_id":"ce4bgt12rcd13ifvqcd0","pricing_plan_id":"cebpf4jnsgd1na2vs0mg"},{"bike_id":"da995ece-b413-4ae7-8af4-b3e727781c7e","system_id":"levelo_inurba_marseille","lat":43.28467,"lon":5.4374,"is_reserved":false,"is_disabled":false,"rental_uris":{"android":"levelo://app?vid=da995ece-b413-4ae7-8af4-b3e727781c7e","ios":"levelo://app?vid=da995ece-b413-4ae7-8af4-b3e727781c7e"},"vehicle_type_id":"4","last_reported":1783321207,"current_range_meters":6800,"station_id":"","pricing_plan_id":"cebpf4jnsgd1na2vs0mg"},{"bike_id":"268860b7-a6e7-4b6e-a857-94d1ec5f8071","system_id":"levelo_inurba_marseille","lat":43.29178,"lon":5.35801,"is_reserved":false,"is_disabled":true,"rental_uris":{"android":"levelo://app?vid=268860b7-a6e7-4b6e-a857-94d1ec5f8071","ios":"levelo://app?vid=268860b7-a6e7-4b6e-a857-94d1ec5f8071"},"vehicle_type_id":"4","last_reported":1783321207,"current_range_meters":7200,"station_id":"ce4bhb12rcd13ifvqel0","pricing_plan_id":"cebpf4jnsgd1na2vs0mg"},{"bike_id":"603a365b-cb0a-4ee6-afde-1fc504650c6f","system_id":"levelo_inurba_marseille","lat":43.31112,"lon":5.43858,"is_reserved":false,"is_disabled":false,"rental_uris":{"android":"levelo://app?vid=603a365b-cb0a-4ee6-afde-1fc504650c6f","ios":"levelo://app?vid=603a365b-cb0a-4ee6-afde-1fc504650c6f"},"vehicle_type_id":"4","last_reported":1783321207,"current_range_meters":7200,"station_id":"","pricing_plan_id":"cebpf4jnsgd1na2vs0mg"},{"bike_id":"6584fea4-3aeb-4646-91eb-6103f8071261","system_id":"levelo_inurba_marseille","lat":43.31051,"lon":5.40061,"is_reserved":false,"is_disabled":false,"rental_uris":{"android":"levelo://app?vid=6584fea4-3aeb-4646-91eb-6103f8071261","ios":"levelo://app?vid=6584fea4-3aeb-4646-91eb-6103f8071261"},"vehicle_type_id":"4","last_reported":1783321207,"current_range_meters":7200,"station_id":"","pricing_plan_id":"cebpf4jnsgd1na2vs0mg"},{"bike_id":"4549dd83-ecbf-487d-8def-62011df84d20","system_id":"levelo_inurba_marseille","lat":43.24947,"lon":5.40495,"is_reserved":false,"is_disabled":false,"rental_uris":{"android":"levelo://app?vid=4549dd83-ecbf-487d-8def-62011df84d20","ios":"levelo://app?vid=4549dd83-ecbf-487d-8def-62011df84d20"},"vehicle_type_id":"4","last_reported":1783321207,"current_range_meters":7200,"station_id":"st_d2ngiaodas8pm72gd1h0","pricing_plan_id":"cebpf4jnsgd1na2vs0mg"},{"bike_id":"7b641340-2932-4b86-932d-76da787765f3","system_id":"levelo_inurba_marseille","lat":43.25111,"lon":5.40314,"is_reserved":false,"is_disabled":false,"rental_uris":{"android":"levelo://app?vid=7b641340-2932-4b86-932d-76da787765f3","ios":"levelo://app?vid=7b641340-2932-4b86-932d-76da787765f3"},"vehicle_type_id":"4","last_reported":1783321207,"current_range_meters":7200,"station_id":"ce4bhlh2rcd13ifvqgig","pricing_plan_id":"cebpf4jnsgd1na2vs0mg"},{"bike_id":"c3d94bf3-19b7-443d-bc75-2bac8eb17cbe","system_id":"levelo_inurba_marseille","lat":43.33154,"lon":5.39815,"is_reserved":false,"is_disabled":false,"rental_uris":{"android":"levelo://app?vid=c3d94bf3-19b7-443d-bc75-2bac8eb17cbe","ios":"levelo://app?vid=c3d94bf3-19b7-443d-bc75-2bac8eb17cbe"},"vehicle_type_id":"4","last_reported":1783321207,"current_range_meters":7200,"station_id":"","pricing_plan_id":"cebpf4jnsgd1na2vs0mg"},{"bike_id":"5f8491b7-6afe-4763-8c6d-f7eadff0e4de","system_id":"levelo_inurba_marseille","lat":43.26504,"lon":5.36963,"is_reserved":false,"is_disabled":true,"rental_uris":{"android":"levelo://app?vid=5f8491b7-6afe-4763-8c6d-f7eadff0e4de","ios":"levelo://app?vid=5f8491b7-6afe-4763-8c6d-f7eadff0e4de"},"vehicle_type_id":"4","last_reported":1783321207,"current_range_meters":7200,"station_id":"","pricing_plan_id":"cebpf4jnsgd1na2vs0mg"},{"bike_id":"c223056a-cee4-44b0-b411-9e874d6d5516","system_id":"levelo_inurba_marseille","lat":43.29484,"lon":5.39897,"is_reserved":false,"is_disabled":false,"rental_uris":{"android":"levelo://app?vid=c223056a-cee4-44b0-b411-9e874d6d5516","ios":"levelo://app?vid=c223056a-cee4-44b0-b411-9e874d6d5516"},"vehicle_type_id":"4","last_reported":1783321207,"current_range_meters":7200,"station_id":"","pricing_plan_id":"cebpf4jnsgd1na2vs0mg"},{"bike_id":"f3b5addf-2a7a-4b3a-a4f4-bf883af803d8","system_id":"levelo_inurba_marseille","lat":43.297353,"lon":5.376915,"is_reserved":false,"is_disabled":true,"rental_uris":{"android":"levelo://app?vid=f3b5addf-2a7a-4b3a-a4f4-bf883af803d8","ios":"levelo://app?vid=f3b5addf-2a7a-4b3a-a4f4-bf883af803d8"},"vehicle_type_id":"4","last_reported":1783321207,"current_range_meters":7200,"station_id":"","pricing_plan_id":"cebpf4jnsgd1na2vs0mg"},{"bike_id":"1b3387d5-b042-4c75-9dea-b2f5bf6f53d4","system_id":"levelo_inurba_marseille","lat":43.24179,"lon":5.39713,"is_reserved":false,"is_disabled":true,"rental_uris":{"android":"levelo://app?vid=1b3387d5-b042-4c75-9dea-b2f5bf6f53d4","ios":"levelo://app?vid=1b3387d5-b042-4c75-9dea-b2f5bf6f53d4"},"vehicle_type_id":"4","last_reported":1783321207,"current_range_meters":7200,"station_id":"ce4bhn12rcd13ifvqgpg","pricing_plan_id":"cebpf4jnsgd1na2vs0mg"},{"bike_id":"7225c8f5-fd9f-476f-99bb-0b596231e2eb","system_id":"levelo_inurba_marseille","lat":43.30453,"lon":5.3791,"is_reserved":false,"is_disabled":false,"rental_uris":{"android":"levelo://app?vid=7225c8f5-fd9f-476f-99bb-0b596231e2eb","ios":"levelo://app?vid=7225c8f5-fd9f-476f-99bb-0b596231e2eb"},"vehicle_type_id":"4","last_reported":1783321207,"current_range_meters":7200,"station_id":"ce4bgup2rcd13ifvqcn0","pricing_plan_id":"cebpf4jnsgd1na2vs0mg"},{"bike_id":"cc738f32-f811-4e3f-b968-0bc0d7c9be0d","system_id":"levelo_inurba_marseille","lat":43.29212,"lon":5.40887,"is_reserved":false,"is_disabled":true,"rental_uris":{"android":"levelo://app?vid=cc738f32-f811-4e3f-b968-0bc0d7c9be0d","ios":"levelo://app?vid=cc738f32-f811-4e3f-b968-0bc0d7c9be0d"},"vehicle_type_id":"4","last_reported":1783321207,"current_range_meters":7200,"station_id":"","pricing_plan_id":"cebpf4jnsgd1na2vs0mg"},{"bike_id":"e9c7bfa8-5874-4f90-ad84-6bece76dfa23","system_id":"levelo_inurba_marseille","lat":43.29418,"lon":5.35932,"is_reserved":false,"is_disabled":false,"rental_uris":{"android":"levelo://app?vid=e9c7bfa8-5874-4f90-ad84-6bece76dfa23","ios":"levelo://app?vid=e9c7bfa8-5874-4f90-ad84-6bece76dfa23"},"vehicle_type_id":"4","last_reported":1783321207,"current_range_meters":7200,"station_id":"","pricing_plan_id":"cebpf4jnsgd1na2vs0mg"},{"bike_id":"f4eb42f1-4017-4869-809d-ab0b91df0440","system_id":"levelo_inurba_marseille","lat":43.240764,"lon":5.377593,"is_reserved":false,"is_disabled":false,"rental_uris":{"android":"levelo://app?vid=f4eb42f1-4017-4869-809d-ab0b91df0440","ios":"levelo://app?vid=f4eb42f1-4017-4869-809d-ab0b91df0440"},"vehicle_type_id":"4","last_reported":1783321207,"current_range_meters":7200,"station_id":"ce4bhnp2rcd13ifvqgvg","pricing_plan_id":"cebpf4jnsgd1na2vs0mg"},{"bike_id":"d2974c90-490a-4ce0-82b2-9802a308be0c","system_id":"levelo_inurba_marseille","lat":43.28717,"lon":5.4,"is_reserved":false,"is_disabled":true,"rental_uris":{"android":"levelo://app?vid=d2974c90-490a-4ce0-82b2-9802a308be0c","ios":"levelo://app?vid=d2974c90-490a-4ce0-82b2-9802a308be0c"},"vehicle_type_id":"4","last_reported":1783321207,"current_range_meters":7200,"station_id":"ce4bho92rcd13ifvqh3g","pricing_plan_id":"cebpf4jnsgd1na2vs0mg"},{"bike_id":"2f2bf3c2-fcdf-40ca-8ac8-509089ac1b15","system_id":"levelo_inurba_marseille","lat":43.289949,"lon":5.38148,"is_reserved":false,"is_disabled":false,"rental_uris":{"android":"levelo://app?vid=2f2bf3c2-fcdf-40ca-8ac8-509089ac1b15","ios":"levelo://app?vid=2f2bf3c2-fcdf-40ca-8ac8-509089ac1b15"},"vehicle_type_id":"4","last_reported":1783321207,"current_range_meters":7200,"station_id":"","pricing_plan_id":"cebpf4jnsgd1na2vs0mg"},{"bike_id":"71becb9a-ab46-42f9-a9e1-22e903d92813","system_id":"levelo_inurba_marseille","lat":43.26181,"lon":5.37449,"is_reserved":false,"is_disabled":true,"rental_uris":{"android":"levelo://app?vid=71becb9a-ab46-42f9-a9e1-22e903d92813","ios":"levelo://app?vid=71becb9a-ab46-42f9-a9e1-22e903d92813"},"vehicle_type_id":"4","last_reported":1783321207,"current_range_meters":7200,"station_id":"ce4bhgp2rcd13ifvqfc0","pricing_plan_id":"cebpf4jnsgd1na2vs0mg"},{"bike_id":"7a5b1e63-57dc-4eb2-813a-9667516e982e","system_id":"levelo_inurba_marseille","lat":43.28143,"lon":5.42622,"is_reserved":false,"is_disabled":false,"rental_uris":{"android":"levelo://app?vid=7a5b1e63-57dc-4eb2-813a-9667516e982e","ios":"levelo://app?vid=7a5b1e63-57dc-4eb2-813a-9667516e982e"},"vehicle_type_id":"4","last_reported":1783321207,"current_range_meters":7200,"station_id":"ce4bhnh2rcd13ifvqgug","pricing_plan_id":"cebpf4jnsgd1na2vs0mg"},{"bike_id":"14e98b39-b7a8-4608-8aac-1d8635ff8bf5","system_id":"levelo_inurba_marseille","lat":43.28484,"lon":5.48385,"is_reserved":false,"is_disabled":false,"rental_uris":{"android":"levelo://app?vid=14e98b39-b7a8-4608-8aac-1d8635ff8bf5","ios":"levelo://app?vid=14e98b39-b7a8-4608-8aac-1d8635ff8bf5"},"vehicle_type_id":"4","last_reported":1783321207,"current_range_meters":7200,"station_id":"st_d3svhcjqgbts73a3dn0g","pricing_plan_id":"cebpf4jnsgd1na2vs0mg"},{"bike_id":"dce70b5e-bfa1-48e4-8fe0-9ec162dd1e48","system_id":"levelo_inurba_marseille","lat":43.26199,"lon":5.41546,"is_reserved":false,"is_disabled":false,"rental_uris":{"android":"levelo://app?vid=dce70b5e-bfa1-48e4-8fe0-9ec162dd1e48","ios":"levelo://app?vid=dce70b5e-bfa1-48e4-8fe0-9ec162dd1e48"},"vehicle_type_id":"4","last_reported":1783321207,"current_range_meters":7200,"station_id":"","pricing_plan_id":"cebpf4jnsgd1na2vs0mg"},{"bike_id":"b8fa53e4-4a88-452c-a0de-baba56a038e6","system_id":"levelo_inurba_marseille","lat":43.31875,"lon":5.40756,"is_reserved":false,"is_disabled":false,"rental_uris":{"android":"levelo://app?vid=b8fa53e4-4a88-452c-a0de-baba56a038e6","ios":"levelo://app?vid=b8fa53e4-4a88-452c-a0de-baba56a038e6"},"vehicle_type_id":"4","last_reported":1783321207,"current_range_meters":7200,"station_id":"ce4bhq12rcd13ifvqhig","pricing_plan_id":"cebpf4jnsgd1na2vs0mg"},{"bike_id":"d5dbb47c-8ba2-4e54-b416-2f0a81f1246b","system_id":"levelo_inurba_marseille","lat":43.32098,"lon":5.36768,"is_reserved":false,"is_disabled":false,"rental_uris":{"android":"levelo://app?vid=d5dbb47c-8ba2-4e54-b416-2f0a81f1246b","ios":"levelo://app?vid=d5dbb47c-8ba2-4e54-b416-2f0a81f1246b"},"vehicle_type_id":"4","last_reported":1783321207,"current_range_meters":7200,"station_id":"ce4bhrh2rcd13ifvqhug","pricing_plan_id":"cebpf4jnsgd1na2vs0mg"},{"bike_id":"312be373-5f2b-4cf2-9ea0-be2e4faba6b3","system_id":"levelo_inurba_marseille","lat":43.31395,"lon":5.36692,"is_reserved":false,"is_disabled":false,"rental_uris":{"android":"levelo://app?vid=312be373-5f2b-4cf2-9ea0-be2e4faba6b3","ios":"levelo://app?vid=312be373-5f2b-4cf2-9ea0-be2e4faba6b3"},"vehicle_type_id":"4","last_reported":1783321207,"current_range_meters":7200,"station_id":"ce4bgr92rcd13ifvqc6g","pricing_plan_id":"cebpf4jnsgd1na2vs0mg"},{"bike_id":"85706f81-4982-4276-b755-d4181aa895f9","system_id":"levelo_inurba_marseille","lat":43.28407,"lon":5.38443,"is_reserved":false,"is_disabled":false,"rental_uris":{"android":"levelo://app?vid=85706f81-4982-4276-b755-d4181aa895f9","ios":"levelo://app?vid=85706f81-4982-4276-b755-d4181aa895f9"},"vehicle_type_id":"4","last_reported":1783321207,"current_range_meters":8000,"station_id":"","pricing_plan_id":"cebpf4jnsgd1na2vs0mg"},{"bike_id":"4ee984c7-9ea7-4d65-b004-0965f9c95932","system_id":"levelo_inurba_marseille","lat":43.23759,"lon":5.36609,"is_reserved":false,"is_disabled":true,"rental_uris":{"android":"levelo://app?vid=4ee984c7-9ea7-4d65-b004-0965f9c95932","ios":"levelo://app?vid=4ee984c7-9ea7-4d65-b004-0965f9c95932"},"vehicle_type_id":"4","last_reported":1783321207,"current_range_meters":8000,"station_id":"st_d3nk18o9ro0c73en2l3g","pricing_plan_id":"cebpf4jnsgd1na2vs0mg"},{"bike_id":"ab3219eb-bda7-4c24-8bb8-3a41799407b6","system_id":"levelo_inurba_marseille","lat":43.33761,"lon":5.37449,"is_reserved":false,"is_disabled":false,"rental_uris":{"android":"levelo://app?vid=ab3219eb-bda7-4c24-8bb8-3a41799407b6","ios":"levelo://app?vid=ab3219eb-bda7-4c24-8bb8-3a41799407b6"},"vehicle_type_id":"4","last_reported":1783321207,"current_range_meters":8000,"station_id":"","pricing_plan_id":"cebpf4jnsgd1na2vs0mg"},{"bike_id":"87e89dd8-65d9-41e1-8ddd-e53877da14d4","system_id":"levelo_inurba_marseille","lat":43.26392,"lon":5.39644,"is_reserved":false,"is_disabled":false,"rental_uris":{"android":"levelo://app?vid=87e89dd8-65d9-41e1-8ddd-e53877da14d4","ios":"levelo://app?vid=87e89dd8-65d9-41e1-8ddd-e53877da14d4"},"vehicle_type_id":"4","last_reported":1783321207,"current_range_meters":8000,"station_id":"","pricing_plan_id":"cebpf4jnsgd1na2vs0mg"},{"bike_id":"b7be7c0f-80ee-4846-8810-416634c0f363","system_id":"levelo_inurba_marseille","lat":43.29005,"lon":5.3561,"is_reserved":false,"is_disabled":false,"rental_uris":{"android":"levelo://app?vid=b7be7c0f-80ee-4846-8810-416634c0f363","ios":"levelo://app?vid=b7be7c0f-80ee-4846-8810-416634c0f363"},"vehicle_type_id":"4","last_reported":1783321207,"current_range_meters":8000,"station_id":"ce4bhb92rcd13ifvqen0","pricing_plan_id":"cebpf4jnsgd1na2vs0mg"},{"bike_id":"069a5b21-5f4b-4fe4-9bb9-fb5cb4e7843b","system_id":"levelo_inurba_marseille","lat":43.27426,"lon":5.39399,"is_reserved":false,"is_disabled":false,"rental_uris":{"android":"levelo://app?vid=069a5b21-5f4b-4fe4-9bb9-fb5cb4e7843b","ios":"levelo://app?vid=069a5b21-5f4b-4fe4-9bb9-fb5cb4e7843b"},"vehicle_type_id":"4","last_reported":1783321207,"current_range_meters":8000,"station_id":"ce4bhdp2rcd13ifvqf20","pricing_plan_id":"cebpf4jnsgd1na2vs0mg"},{"bike_id":"700367e5-6c87-4c9d-b09c-2b54e001a8c5","system_id":"levelo_inurba_marseille","lat":43.2922,"lon":5.36056,"is_reserved":false,"is_disabled":true,"rental_uris":{"android":"levelo://app?vid=700367e5-6c87-4c9d-b09c-2b54e001a8c5","ios":"levelo://app?vid=700367e5-6c87-4c9d-b09c-2b54e001a8c5"},"vehicle_type_id":"4","last_reported":1783321207,"current_range_meters":8000,"station_id":"ce4bhbh2rcd13ifvqeqg","pricing_plan_id":"cebpf4jnsgd1na2vs0mg"},{"bike_id":"acaa0447-8db8-4387-be2c-e3f8be2790ea","system_id":"levelo_inurba_marseille","lat":43.28866,"lon":5.39311,"is_reserved":false,"is_disabled":true,"rental_uris":{"android":"levelo://app?vid=acaa0447-8db8-4387-be2c-e3f8be2790ea","ios":"levelo://app?vid=acaa0447-8db8-4387-be2c-e3f8be2790ea"},"vehicle_type_id":"4","last_reported":1783321207,"current_range_meters":8000,"station_id":"ce4bh2p2rcd13ifvqdi0","pricing_plan_id":"cebpf4jnsgd1na2vs0mg"},{"bike_id":"92a0c0cb-0818-4864-a9ba-8af564118461","system_id":"levelo_inurba_marseille","lat":43.32395,"lon":5.37418,"is_reserved":false,"is_disabled":false,"rental_uris":{"android":"levelo://app?vid=92a0c0cb-0818-4864-a9ba-8af564118461","ios":"levelo://app?vid=92a0c0cb-0818-4864-a9ba-8af564118461"},"vehicle_type_id":"4","last_reported":1783321207,"current_range_meters":8000,"station_id":"","pricing_plan_id":"cebpf4jnsgd1na2vs0mg"},{"bike_id":"81583050-9ed4-41ec-8787-eb74ce1dd549","system_id":"levelo_inurba_marseille","lat":43.30192,"lon":5.36627,"is_reserved":false,"is_disabled":false,"rental_uris":{"android":"levelo://app?vid=81583050-9ed4-41ec-8787-eb74ce1dd549","ios":"levelo://app?vid=81583050-9ed4-41ec-8787-eb74ce1dd549"},"vehicle_type_id":"4","last_reported":1783321207,"current_range_meters":8000,"station_id":"ce4bgrh2rcd13ifvqc8g","pricing_plan_id":"cebpf4jnsgd1na2vs0mg"},{"bike_id":"9db47c28-d135-4619-b753-4c4fa126f9fd","system_id":"levelo_inurba_marseille","lat":43.29201,"lon":5.36031,"is_reserved":false,"is_disabled":true,"rental_uris":{"android":"levelo://app?vid=9db47c28-d135-4619-b753-4c4fa126f9fd","ios":"levelo://app?vid=9db47c28-d135-4619-b753-4c4fa126f9fd"},"vehicle_type_id":"4","last_reported":1783321207,"current_range_meters":8000,"station_id":"ce4bhbh2rcd13ifvqeqg","pricing_plan_id":"cebpf4jnsgd1na2vs0mg"},{"bike_id":"d0e502a8-bccc-4e50-a55a-1e97420138fc","system_id":"levelo_inurba_marseille","lat":43.29028,"lon":5.39969,"is_reserved":false,"is_disabled":false,"rental_uris":{"android":"levelo://app?vid=d0e502a8-bccc-4e50-a55a-1e97420138fc","ios":"levelo://app?vid=d0e502a8-bccc-4e50-a55a-1e97420138fc"},"vehicle_type_id":"4","last_reported":1783321207,"current_range_meters":8000,"station_id":"ce4bh392rcd13ifvqdm0","pricing_plan_id":"cebpf4jnsgd1na2vs0mg"},{"bike_id":"720a4c09-082a-4429-bd96-2620efa7a7eb","system_id":"levelo_inurba_marseille","lat":43.2991,"lon":5.38134,"is_reserved":false,"is_disabled":false,"rental_uris":{"android":"levelo://app?vid=720a4c09-082a-4429-bd96-2620efa7a7eb","ios":"levelo://app?vid=720a4c09-082a-4429-bd96-2620efa7a7eb"},"vehicle_type_id":"4","last_reported":1783321207,"current_range_meters":8000,"station_id":"ce4bgj12rcd13ifvqbc0","pricing_plan_id":"cebpf4jnsgd1na2vs0mg"},{"bike_id":"978eacfc-093e-4da5-8ac6-7e1b11ee6540","system_id":"levelo_inurba_marseille","lat":43.33552,"lon":5.37451,"is_reserved":false,"is_disabled":false,"rental_uris":{"android":"levelo://app?vid=978eacfc-093e-4da5-8ac6-7e1b11ee6540","ios":"levelo://app?vid=978eacfc-093e-4da5-8ac6-7e1b11ee6540"},"vehicle_type_id":"4","last_reported":1783321207,"current_range_meters":8000,"station_id":"st_d46tts09ee8s73dlu43g","pricing_plan_id":"cebpf4jnsgd1na2vs0mg"},{"bike_id":"d4c27657-31d1-43b4-bb37-fa58fb3a4672","system_id":"levelo_inurba_marseille","lat":43.2119,"lon":5.35059,"is_reserved":false,"is_disabled":false,"rental_uris":{"android":"levelo://app?vid=d4c27657-31d1-43b4-bb37-fa58fb3a4672","ios":"levelo://app?vid=d4c27657-31d1-43b4-bb37-fa58fb3a4672"},"vehicle_type_id":"4","last_reported":1783321207,"current_range_meters":8000,"station_id":"st_cvj6sg6p6f1abm77japg","pricing_plan_id":"cebpf4jnsgd1na2vs0mg"},{"bike_id":"ff615668-d490-4429-92e4-68bf4459ec73","system_id":"levelo_inurba_marseille","lat":43.28744,"lon":5.36069,"is_reserved":false,"is_disabled":true,"rental_uris":{"android":"levelo://app?vid=ff615668-d490-4429-92e4-68bf4459ec73","ios":"levelo://app?vid=ff615668-d490-4429-92e4-68bf4459ec73"},"vehicle_type_id":"4","last_reported":1783321207,"current_range_meters":8000,"station_id":"cki0cbj6b192h4jlfktg","pricing_plan_id":"cebpf4jnsgd1na2vs0mg"},{"bike_id":"f56c5a55-490f-470f-bccd-8a878283165b","system_id":"levelo_inurba_marseille","lat":43.3179,"lon":5.36805,"is_reserved":false,"is_disabled":false,"rental_uris":{"android":"levelo://app?vid=f56c5a55-490f-470f-bccd-8a878283165b","ios":"levelo://app?vid=f56c5a55-490f-470f-bccd-8a878283165b"},"vehicle_type_id":"4","last_reported":1783321207,"current_range_meters":8000,"station_id":"","pricing_plan_id":"cebpf4jnsgd1na2vs0mg"},{"bike_id":"1c6b30fd-4112-4547-943a-a437d6c2afdf","system_id":"levelo_inurba_marseille","lat":43.29271,"lon":5.36845,"is_reserved":false,"is_disabled":true,"rental_uris":{"android":"levelo://app?vid=1c6b30fd-4112-4547-943a-a437d6c2afdf","ios":"levelo://app?vid=1c6b30fd-4112-4547-943a-a437d6c2afdf"},"vehicle_type_id":"4","last_reported":1783321207,"current_range_meters":8000,"station_id":"ce4bhbp2rcd13ifvqesg","pricing_plan_id":"cebpf4jnsgd1na2vs0mg"},{"bike_id":"d7243867-d830-4852-bcaf-39fdde4db026","system_id":"levelo_inurba_marseille","lat":43.25584,"lon":5.3822,"is_reserved":false,"is_disabled":false,"rental_uris":{"android":"levelo://app?vid=d7243867-d830-4852-bcaf-39fdde4db026","ios":"levelo://app?vid=d7243867-d830-4852-bcaf-39fdde4db026"},"vehicle_type_id":"4","last_reported":1783321207,"current_range_meters":8000,"station_id":"ce4bhih2rcd13ifvqfs0","pricing_plan_id":"cebpf4jnsgd1na2vs0mg"},{"bike_id":"d0b958a4-0781-4a1e-83d0-28cb0b198006","system_id":"levelo_inurba_marseille","lat":43.29608,"lon":5.38589,"is_reserved":false,"is_disabled":false,"rental_uris":{"android":"levelo://app?vid=d0b958a4-0781-4a1e-83d0-28cb0b198006","ios":"levelo://app?vid=d0b958a4-0781-4a1e-83d0-28cb0b198006"},"vehicle_type_id":"4","last_reported":1783321207,"current_range_meters":8000,"station_id":"","pricing_plan_id":"cebpf4jnsgd1na2vs0mg"},{"bike_id":"6332eba7-49fe-4053-89f9-366905a02226","system_id":"levelo_inurba_marseille","lat":43.31049,"lon":5.37177,"is_reserved":false,"is_disabled":false,"rental_uris":{"android":"levelo://app?vid=6332eba7-49fe-4053-89f9-366905a02226","ios":"levelo://app?vid=6332eba7-49fe-4053-89f9-366905a02226"},"vehicle_type_id":"4","last_reported":1783321207,"current_range_meters":8000,"station_id":"st_d4kl2rp97mjs73e7tdfg","pricing_plan_id":"cebpf4jnsgd1na2vs0mg"},{"bike_id":"b2c6eaae-502f-4729-9b61-0d17a5e8dd84","system_id":"levelo_inurba_marseille","lat":43.31989,"lon":5.38156,"is_reserved":false,"is_disabled":false,"rental_uris":{"android":"levelo://app?vid=b2c6eaae-502f-4729-9b61-0d17a5e8dd84","ios":"levelo://app?vid=b2c6eaae-502f-4729-9b61-0d17a5e8dd84"},"vehicle_type_id":"4","last_reported":1783321207,"current_range_meters":8000,"station_id":"ce4bhr12rcd13ifvqhpg","pricing_plan_id":"cebpf4jnsgd1na2vs0mg"},{"bike_id":"c30cb454-8bc7-489d-a694-212748d5a73e","system_id":"levelo_inurba_marseille","lat":43.33753,"lon":5.37445,"is_reserved":false,"is_disabled":false,"rental_uris":{"android":"levelo://app?vid=c30cb454-8bc7-489d-a694-212748d5a73e","ios":"levelo://app?vid=c30cb454-8bc7-489d-a694-212748d5a73e"},"vehicle_type_id":"4","last_reported":1783321207,"current_range_meters":8000,"station_id":"","pricing_plan_id":"cebpf4jnsgd1na2vs0mg"},{"bike_id":"4d5b3ba0-9275-4b23-97a3-832f857cb614","system_id":"levelo_inurba_marseille","lat":43.31236,"lon":5.36823,"is_reserved":false,"is_disabled":false,"rental_uris":{"android":"levelo://app?vid=4d5b3ba0-9275-4b23-97a3-832f857cb614","ios":"levelo://app?vid=4d5b3ba0-9275-4b23-97a3-832f857cb614"},"vehicle_type_id":"4","last_reported":1783321207,"current_range_meters":8000,"station_id":"ce4bgl92rcd13ifvqbq0","pricing_plan_id":"cebpf4jnsgd1na2vs0mg"},{"bike_id":"acc3dec8-cb98-4460-a4fa-377e0f7cb2c7","system_id":"levelo_inurba_marseille","lat":43.28476,"lon":5.38426,"is_reserved":false,"is_disabled":false,"rental_uris":{"android":"levelo://app?vid=acc3dec8-cb98-4460-a4fa-377e0f7cb2c7","ios":"levelo://app?vid=acc3dec8-cb98-4460-a4fa-377e0f7cb2c7"},"vehicle_type_id":"4","last_reported":1783321207,"current_range_meters":8000,"station_id":"ce4bh512rcd13ifvqe3g","pricing_plan_id":"cebpf4jnsgd1na2vs0mg"},{"bike_id":"afe9a566-d8c0-4f06-a183-9935532dd6e0","system_id":"levelo_inurba_marseille","lat":43.25262,"lon":5.37534,"is_reserved":false,"is_disabled":false,"rental_uris":{"android":"levelo://app?vid=afe9a566-d8c0-4f06-a183-9935532dd6e0","ios":"levelo://app?vid=afe9a566-d8c0-4f06-a183-9935532dd6e0"},"vehicle_type_id":"4","last_reported":1783321207,"current_range_meters":8000,"station_id":"","pricing_plan_id":"cebpf4jnsgd1na2vs0mg"},{"bike_id":"3f8073ca-fbe5-4e8d-99b2-a26ddce11769","system_id":"levelo_inurba_marseille","lat":43.26689,"lon":5.38269,"is_reserved":false,"is_disabled":false,"rental_uris":{"android":"levelo://app?vid=3f8073ca-fbe5-4e8d-99b2-a26ddce11769","ios":"levelo://app?vid=3f8073ca-fbe5-4e8d-99b2-a26ddce11769"},"vehicle_type_id":"4","last_reported":1783321207,"current_range_meters":8000,"station_id":"ce4bhg92rcd13ifvqf90","pricing_plan_id":"cebpf4jnsgd1na2vs0mg"},{"bike_id":"a40fac1c-fdae-4a33-8735-3f7c9c669ebe","system_id":"levelo_inurba_marseille","lat":43.29741,"lon":5.38241,"is_reserved":false,"is_disabled":false,"rental_uris":{"android":"levelo://app?vid=a40fac1c-fdae-4a33-8735-3f7c9c669ebe","ios":"levelo://app?vid=a40fac1c-fdae-4a33-8735-3f7c9c669ebe"},"vehicle_type_id":"4","last_reported":1783321207,"current_range_meters":8400,"station_id":"","pricing_plan_id":"cebpf4jnsgd1na2vs0mg"},{"bike_id":"4a3c91ae-bb48-4c6c-b488-e8fad4b72c99","system_id":"levelo_inurba_marseille","lat":43.24059,"lon":5.37727,"is_reserved":false,"is_disabled":false,"rental_uris":{"android":"levelo://app?vid=4a3c91ae-bb48-4c6c-b488-e8fad4b72c99","ios":"levelo://app?vid=4a3c91ae-bb48-4c6c-b488-e8fad4b72c99"},"vehicle_type_id":"4","last_reported":1783321207,"current_range_meters":8400,"station_id":"ce4bhnp2rcd13ifvqgvg","pricing_plan_id":"cebpf4jnsgd1na2vs0mg"},{"bike_id":"1c01ff26-2718-487a-a371-faf199817aef","system_id":"levelo_inurba_marseille","lat":43.30532,"lon":5.36693,"is_reserved":false,"is_disabled":false,"rental_uris":{"android":"levelo://app?vid=1c01ff26-2718-487a-a371-faf199817aef","ios":"levelo://app?vid=1c01ff26-2718-487a-a371-faf199817aef"},"vehicle_type_id":"4","last_reported":1783321207,"current_range_meters":8400,"station_id":"ce4bgrp2rcd13ifvqc9g","pricing_plan_id":"cebpf4jnsgd1na2vs0mg"},{"bike_id":"12e9366d-9ad0-4068-9ae4-8539a16bef0e","system_id":"levelo_inurba_marseille","lat":43.27181,"lon":5.41003,"is_reserved":false,"is_disabled":false,"rental_uris":{"android":"levelo://app?vid=12e9366d-9ad0-4068-9ae4-8539a16bef0e","ios":"levelo://app?vid=12e9366d-9ad0-4068-9ae4-8539a16bef0e"},"vehicle_type_id":"4","last_reported":1783321207,"current_range_meters":8400,"station_id":"ce4bhl12rcd13ifvqgf0","pricing_plan_id":"cebpf4jnsgd1na2vs0mg"},{"bike_id":"72db5589-dfd0-442a-904d-e9c5bdcd1d4f","system_id":"levelo_inurba_marseille","lat":43.316,"lon":5.37961,"is_reserved":false,"is_disabled":false,"rental_uris":{"android":"levelo://app?vid=72db5589-dfd0-442a-904d-e9c5bdcd1d4f","ios":"levelo://app?vid=72db5589-dfd0-442a-904d-e9c5bdcd1d4f"},"vehicle_type_id":"4","last_reported":1783321207,"current_range_meters":8400,"station_id":"","pricing_plan_id":"cebpf4jnsgd1na2vs0mg"},{"bike_id":"f1fa67ea-70e8-494e-90f1-3cd8a54e2aac","system_id":"levelo_inurba_marseille","lat":43.28283,"lon":5.35063,"is_reserved":false,"is_disabled":true,"rental_uris":{"android":"levelo://app?vid=f1fa67ea-70e8-494e-90f1-3cd8a54e2aac","ios":"levelo://app?vid=f1fa67ea-70e8-494e-90f1-3cd8a54e2aac"},"vehicle_type_id":"4","last_reported":1783321207,"current_range_meters":8400,"station_id":"ce4bhbp2rcd13ifvqerg","pricing_plan_id":"cebpf4jnsgd1na2vs0mg"},{"bike_id":"a9de9f06-5ad3-4267-b8e5-66ab81f9e206","system_id":"levelo_inurba_marseille","lat":43.2377,"lon":5.36637,"is_reserved":false,"is_disabled":false,"rental_uris":{"android":"levelo://app?vid=a9de9f06-5ad3-4267-b8e5-66ab81f9e206","ios":"levelo://app?vid=a9de9f06-5ad3-4267-b8e5-66ab81f9e206"},"vehicle_type_id":"4","last_reported":1783321207,"current_range_meters":8400,"station_id":"st_d3nk18o9ro0c73en2l3g","pricing_plan_id":"cebpf4jnsgd1na2vs0mg"},{"bike_id":"5c27c21d-e49d-4272-89f4-b58751c04dc1","system_id":"levelo_inurba_marseille","lat":43.23435,"lon":5.38142,"is_reserved":false,"is_disabled":false,"rental_uris":{"android":"levelo://app?vid=5c27c21d-e49d-4272-89f4-b58751c04dc1","ios":"levelo://app?vid=5c27c21d-e49d-4272-89f4-b58751c04dc1"},"vehicle_type_id":"4","last_reported":1783321207,"current_range_meters":8400,"station_id":"","pricing_plan_id":"cebpf4jnsgd1na2vs0mg"},{"bike_id":"dbf3601d-136e-4eb3-a318-7f6b90e7028a","system_id":"levelo_inurba_marseille","lat":43.27924,"lon":5.39593,"is_reserved":false,"is_disabled":false,"rental_uris":{"android":"levelo://app?vid=dbf3601d-136e-4eb3-a318-7f6b90e7028a","ios":"levelo://app?vid=dbf3601d-136e-4eb3-a318-7f6b90e7028a"},"vehicle_type_id":"4","last_reported":1783321207,"current_range_meters":8400,"station_id":"ce4bhf92rcd13ifvqf40","pricing_plan_id":"cebpf4jnsgd1na2vs0mg"},{"bike_id":"773f950c-1a37-4f11-85a7-7cbf338fd285","system_id":"levelo_inurba_marseille","lat":43.24951,"lon":5.40493,"is_reserved":false,"is_disabled":false,"rental_uris":{"android":"levelo://app?vid=773f950c-1a37-4f11-85a7-7cbf338fd285","ios":"levelo://app?vid=773f950c-1a37-4f11-85a7-7cbf338fd285"},"vehicle_type_id":"4","last_reported":1783321207,"current_range_meters":8400,"station_id":"st_d2ngiaodas8pm72gd1h0","pricing_plan_id":"cebpf4jnsgd1na2vs0mg"},{"bike_id":"3112c030-03e7-4ad3-a895-94002cb7d5c7","system_id":"levelo_inurba_marseille","lat":43.23967,"lon":5.36613,"is_reserved":false,"is_disabled":true,"rental_uris":{"android":"levelo://app?vid=3112c030-03e7-4ad3-a895-94002cb7d5c7","ios":"levelo://app?vid=3112c030-03e7-4ad3-a895-94002cb7d5c7"},"vehicle_type_id":"4","last_reported":1783321207,"current_range_meters":8400,"station_id":"ce4bhi12rcd13ifvqfp0","pricing_plan_id":"cebpf4jnsgd1na2vs0mg"},{"bike_id":"4014f91a-ee33-44ef-b529-b234e9656f9c","system_id":"levelo_inurba_marseille","lat":43.2699,"lon":5.40585,"is_reserved":false,"is_disabled":false,"rental_uris":{"android":"levelo://app?vid=4014f91a-ee33-44ef-b529-b234e9656f9c","ios":"levelo://app?vid=4014f91a-ee33-44ef-b529-b234e9656f9c"},"vehicle_type_id":"4","last_reported":1783321207,"current_range_meters":8400,"station_id":"","pricing_plan_id":"cebpf4jnsgd1na2vs0mg"},