{"last_updated":1761995220,"ttl":60,"version":"2.2","data":{"bikes":[{"bike_id":"3f9d89b0-a3c3-4b72-9969-08e348af8256","system_id":"levelo_inurba_marseille","lat":43.29817,"lon":5.40263,"is_reserved":false,"is_disabled":false,"rental_uris":{"android":"levelo://app?vid=3f9d89b0-a3c3-4b72-9969-08e348af8256","ios":"levelo://app?vid=3f9d89b0-a3c3-4b72-9969-08e348af8256"},"vehicle_type_id":"4","last_reported":1761995220,"current_range_meters":2800,"station_id":"","pricing_plan_id":"cebpf4jnsgd1na2vs0mg"},{"bike_id":"76cd4da6-7143-4430-8999-59ec86f6aa4d","system_id":"levelo_inurba_marseille","lat":43.29495,"lon":5.43311,"is_reserved":false,"is_disabled":false,"rental_uris":{"android":"levelo://app?vid=76cd4da6-7143-4430-8999-59ec86f6aa4d","ios":"levelo://app?vid=76cd4da6-7143-4430-8999-59ec86f6aa4d"},"vehicle_type_id":"4","last_reported":1761995220,"current_range_meters":2800,"station_id":"st_d3j5ugp08ojc73fj9d10","pricing_plan_id":"cebpf4jnsgd1na2vs0mg"},{"bike_id":"6595a96c-c636-477d-a225-8190f798d261","system_id":"levelo_inurba_marseille","lat":43.27896,"lon":5.37991,"is_reserved":false,"is_disabled":false,"rental_uris":{"android":"levelo://app?vid=6595a96c-c636-477d-a225-8190f798d261","ios":"levelo://app?vid=6595a96c-c636-477d-a225-8190f798d261"},"vehicle_type_id":"4","last_reported":1761995220,"current_range_meters":3200,"station_id":"ce4bhf92rcd13ifvqf50","pricing_plan_id":"cebpf4jnsgd1na2vs0mg"},{"bike_id":"88ad201e-989d-4aac-9af0-b29ae804b92d","system_id":"levelo_inurba_marseille","lat":43.279358,"lon":5.379495,"is_reserved":false,"is_disabled":false,"rental_uris":{"android":"levelo://app?vid=88ad201e-989d-4aac-9af0-b29ae804b92d","ios":"levelo://app?vid=88ad201e-989d-4aac-9af0-b29ae804b92d"},"vehicle_type_id":"4","last_reported":1761995220,"current_range_meters":3200,"station_id":"ce4bha12rcd13ifvqee0","pricing_plan_id":"cebpf4jnsgd1na2vs0mg"},{"bike_id":"83d7ab19-2ebb-4fd5-8c61-a3c20258bcd4","system_id":"levelo_inurba_marseille","lat":43.21192,"lon":5.35068,"is_reserved":false,"is_disabled":false,"rental_uris":{"android":"levelo://app?vid=83d7ab19-2ebb-4fd5-8c61-a3c20258bcd4","ios":"levelo://app?vid=83d7ab19-2ebb-4fd5-8c61-a3c20258bcd4"},"vehicle_type_id":"4","last_reported":1761995220,"current_range_meters":3600,"station_id":"st_cvj6sg6p6f1abm77japg","pricing_plan_id":"cebpf4jnsgd1na2vs0mg"},{"bike_id":"7c51fb40-4033-44ce-9721-6eb7c2021743","system_id":"levelo_inurba_marseille","lat":43.25931,"lon":5.40912,"is_reserved":false,"is_disabled":false,"rental_uris":{"android":"levelo://app?vid=7c51fb40-4033-44ce-9721-6eb7c2021743","ios":"levelo://app?vid=7c51fb40-4033-44ce-9721-6eb7c2021743"},"vehicle_type_id":"4","last_reported":1761995220,"current_range_meters":3600,"station_id":"ce4bhm92rcd13ifvqglg","pricing_plan_id":"cebpf4jnsgd1na2vs0mg"},{"bike_id":"d57a844b-264f-4723-85c5-c5335e858662","system_id":"levelo_inurba_marseille","lat":43.23195,"lon":5.40004,"is_reserved":false,"is_disabled":true,"rental_uris":{"android":"levelo://app?vid=d57a844b-264f-4723-85c5-c5335e858662","ios":"levelo://app?vid=d57a844b-264f-4723-85c5-c5335e858662"},"vehicle_type_id":"4","last_reported":1761995220,"current_range_meters":3600,"station_id":"ce4bhn12rcd13ifvqgqg","pricing_plan_id":"cebpf4jnsgd1na2vs0mg"},{"bike_id":"83e681f7-a772-4e16-95bc-2689078222bb","system_id":"levelo_inurba_marseille","lat":43.22934,"lon":5.353779,"is_reserved":false,"is_disabled":false,"rental_uris":{"android":"levelo://app?vid=83e681f7-a772-4e16-95bc-2689078222bb","ios":"levelo://app?vid=83e681f7-a772-4e16-95bc-2689078222bb"},"vehicle_type_id":"4","last_reported":1761995220,"current_range_meters":3600,"station_id":"cpo3532slgdg3j2ikp40","pricing_plan_id":"cebpf4jnsgd1na2vs0mg"},{"bike_id":"a1f958e9-ea88-47ec-9f60-d5378ca4a758","system_id":"levelo_inurba_marseille","lat":43.26059,"lon":5.39394,"is_reserved":false,"is_disabled":false,"rental_uris":{"android":"levelo://app?vid=a1f958e9-ea88-47ec-9f60-d5378ca4a758","ios":"levelo://app?vid=a1f958e9-ea88-47ec-9f60-d5378ca4a758"},"vehicle_type_id":"4","last_reported":1761995220,"current_range_meters":4400,"station_id":"ce4bhh92rcd13ifvqfj0","pricing_plan_id":"cebpf4jnsgd1na2vs0mg"},{"bike_id":"98c69ce9-b776-4a35-8190-c3322227776a","system_id":"levelo_inurba_marseille","lat":43.29356,"lon":5.39258,"is_reserved":false,"is_disabled":false,"rental_uris":{"android":"levelo://app?vid=98c69ce9-b776-4a35-8190-c3322227776a","ios":"levelo://app?vid=98c69ce9-b776-4a35-8190-c3322227776a"},"vehicle_type_id":"4","last_reported":1761995220,"current_range_meters":4400,"station_id":"","pricing_plan_id":"cebpf4jnsgd1na2vs0mg"},{"bike_id":"b440dea1-8ddf-4f44-9115-5a951e045c6c","system_id":"levelo_inurba_marseille","lat":43.280448,"lon":5.369479,"is_reserved":false,"is_disabled":false,"rental_uris":{"android":"levelo://app?vid=b440dea1-8ddf-4f44-9115-5a951e045c6c","ios":"levelo://app?vid=b440dea1-8ddf-4f44-9115-5a951e045c6c"},"vehicle_type_id":"4","last_reported":1761995220,"current_range_meters":4400,"station_id":"ce4bha12rcd13ifvqef0","pricing_plan_id":"cebpf4jnsgd1na2vs0mg"},{"bike_id":"da503111-5feb-4a8e-b697-ab299317bc1a","system_id":"levelo_inurba_marseille","lat":43.285101,"lon":5.366581,"is_reserved":false,"is_disabled":false,"rental_uris":{"android":"levelo://app?vid=da503111-5feb-4a8e-b697-ab299317bc1a","ios":"levelo://app?vid=da503111-5feb-4a8e-b697-ab299317bc1a"},"vehicle_type_id":"4","last_reported":1761995220,"current_range_meters":4800,"station_id":"","pricing_plan_id":"cebpf4jnsgd1na2vs0mg"},{"bike_id":"f2287fbd-65b0-4975-b44b-578b0e69e1ef","system_id":"levelo_inurba_marseille","lat":43.30459,"lon":5.37542,"is_reserved":false,"is_disabled":false,"rental_uris":{"android":"levelo://app?vid=f2287fbd-65b0-4975-b44b-578b0e69e1ef","ios":"levelo://app?vid=f2287fbd-65b0-4975-b44b-578b0e69e1ef"},"vehicle_type_id":"4","last_reported":1761995220,"current_range_meters":5600,"station_id":"","pricing_plan_id":"cebpf4jnsgd1na2vs0mg"},{"bike_id":"688e0991-23bb-4f67-a97d-b9bb7704a66a","system_id":"levelo_inurba_marseille","lat":43.29255,"lon":5.39101,"is_reserved":false,"is_disabled":false,"rental_uris":{"android":"levelo://app?vid=688e0991-23bb-4f67-a97d-b9bb7704a66a","ios":"levelo://app?vid=688e0991-23bb-4f67-a97d-b9bb7704a66a"},"vehicle_type_id":"4","last_reported":1761995220,"current_range_meters":5600,"station_id":"","pricing_plan_id":"cebpf4jnsgd1na2vs0mg"},{"bike_id":"dbe5a017-5f48-48a9-a30c-d753021d6208","system_id":"levelo_inurba_marseille","lat":43.29734,"lon":5.39648,"is_reserved":false,"is_disabled":false,"rental_uris":{"android":"levelo://app?vid=dbe5a017-5f48-48a9-a30c-d753021d6208","ios":"levelo://app?vid=dbe5a017-5f48-48a9-a30c-d753021d6208"},"vehicle_type_id":"4","last_reported":1761995220,"current_range_meters":5600,"station_id":"","pricing_plan_id":"cebpf4jnsgd1na2vs0mg"},{"bike_id":"00f5b2a8-9bc9-4120-9294-554a6fb27623","system_id":"levelo_inurba_marseille","lat":43.291989,"lon":5.357744,"is_reserved":false,"is_disabled":false,"rental_uris":{"android":"levelo://app?vid=00f5b2a8-9bc9-4120-9294-554a6fb27623","ios":"levelo://app?vid=00f5b2a8-9bc9-4120-9294-554a6fb27623"},"vehicle_type_id":"4","last_reported":1761995220,"current_range_meters":5600,"station_id":"ce4bhb12rcd13ifvqel0","pricing_plan_id":"cebpf4jnsgd1na2vs0mg"},{"bike_id":"3dab03ab-b250-4b40-b286-0668266ab52e","system_id":"levelo_inurba_marseille","lat":43.28858,"lon":5.42518,"is_reserved":false,"is_disabled":false,"rental_uris":{"android":"levelo://app?vid=3dab03ab-b250-4b40-b286-0668266ab52e","ios":"levelo://app?vid=3dab03ab-b250-4b40-b286-0668266ab52e"},"vehicle_type_id":"4","last_reported":1761995220,"current_range_meters":6000,"station_id":"st_d3b462108ojc7389ooeg","pricing_plan_id":"cebpf4jnsgd1na2vs0mg"},{"bike_id":"82a1362f-b61a-46be-a663-3fcb37750770","system_id":"levelo_inurba_marseille","lat":43.28471,"lon":5.48387,"is_reserved":false,"is_disabled":false,"rental_uris":{"android":"levelo://app?vid=82a1362f-b61a-46be-a663-3fcb37750770","ios":"levelo://app?vid=82a1362f-b61a-46be-a663-3fcb37750770"},"vehicle_type_id":"4","last_reported":1761995220,"current_range_meters":6000,"station_id":"st_d3svhcjqgbts73a3dn0g","pricing_plan_id":"cebpf4jnsgd1na2vs0mg"},{"bike_id":"3e1dba30-c693-4a61-b01c-d3b599227e91","system_id":"levelo_inurba_marseille","lat":43.278201,"lon":5.407283,"is_reserved":false,"is_disabled":false,"rental_uris":{"android":"levelo://app?vid=3e1dba30-c693-4a61-b01c-d3b599227e91","ios":"levelo://app?vid=3e1dba30-c693-4a61-b01c-d3b599227e91"},"vehicle_type_id":"4","last_reported":1761995220,"current_range_meters":6000,"station_id":"ce4bhnh2rcd13ifvqgtg","pricing_plan_id":"cebpf4jnsgd1na2vs0mg"},{"bike_id":"a18dbf48-2c4d-4fa4-a4c5-c9871d73c9a0","system_id":"levelo_inurba_marseille","lat":43.301994,"lon":5.383462,"is_reserved":false,"is_disabled":false,"rental_uris":{"android":"levelo://app?vid=a18dbf48-2c4d-4fa4-a4c5-c9871d73c9a0","ios":"levelo://app?vid=a18dbf48-2c4d-4fa4-a4c5-c9871d73c9a0"},"vehicle_type_id":"4","last_reported":1761995220,"current_range_meters":6400,"station_id":"ce4bgup2rcd13ifvqcn0","pricing_plan_id":"cebpf4jnsgd1na2vs0mg"},{"bike_id":"d1311481-3a07-4834-996f-5229084d4b23","system_id":"levelo_inurba_marseille","lat":43.30729,"lon":5.4244,"is_reserved":false,"is_disabled":false,"rental_uris":{"android":"levelo://app?vid=d1311481-3a07-4834-996f-5229084d4b23","ios":"levelo://app?vid=d1311481-3a07-4834-996f-5229084d4b23"},"vehicle_type_id":"4","last_reported":1761995220,"current_range_meters":6400,"station_id":"st_cvj6ca6bvosntc0bfgr0","pricing_plan_id":"cebpf4jnsgd1na2vs0mg"},{"bike_id":"c8bb8360-a8d5-4bb3-b5f1-ba0edf0a925f","system_id":"levelo_inurba_marseille","lat":43.317236,"lon":5.423928,"is_reserved":false,"is_disabled":false,"rental_uris":{"android":"levelo://app?vid=c8bb8360-a8d5-4bb3-b5f1-ba0edf0a925f","ios":"levelo://app?vid=c8bb8360-a8d5-4bb3-b5f1-ba0edf0a925f"},"vehicle_type_id":"4","last_reported":1761995220,"current_range_meters":6400,"station_id":"ce4bhp92rcd13ifvqhbg","pricing_plan_id":"cebpf4jnsgd1na2vs0mg"},{"bike_id":"9b93b5e1-c939-4745-bf85-2d21945442dc","system_id":"levelo_inurba_marseille","lat":43.299969,"lon":5.363998,"is_reserved":false,"is_disabled":false,"rental_uris":{"android":"levelo://app?vid=9b93b5e1-c939-4745-bf85-2d21945442dc","ios":"levelo://app?vid=9b93b5e1-c939-4745-bf85-2d21945442dc"},"vehicle_type_id":"4","last_reported":1761995220,"current_range_meters":6800,"station_id":"","pricing_plan_id":"cebpf4jnsgd1na2vs0mg"},{"bike_id":"9cb84545-9101-48ff-8533-8f4b42d27692","system_id":"levelo_inurba_marseille","lat":43.28269,"lon":5.35051,"is_reserved":false,"is_disabled":false,"rental_uris":{"android":"levelo://app?vid=9cb84545-9101-48ff-8533-8f4b42d27692","ios":"levelo://app?vid=9cb84545-9101-48ff-8533-8f4b42d27692"},"vehicle_type_id":"4","last_reported":1761995220,"current_range_meters":6800,"station_id":"ce4bhbp2rcd13ifvqerg","pricing_plan_id":"cebpf4jnsgd1na2vs0mg"},{"bike_id":"60db96ee-e74a-4e0e-b67f-1e94c3fbf1f7","system_id":"levelo_inurba_marseille","lat":43.28267,"lon":5.35071,"is_reserved":false,"is_disabled":false,"rental_uris":{"android":"levelo://app?vid=60db96ee-e74a-4e0e-b67f-1e94c3fbf1f7","ios":"levelo://app?vid=60db96ee-e74a-4e0e-b67f-1e94c3fbf1f7"},"vehicle_type_id":"4","last_reported":1761995220,"current_range_meters":6800,"station_id":"ce4bhbp2rcd13ifvqerg","pricing_plan_id":"cebpf4jnsgd1na2vs0mg"},{"bike_id":"7b4b1604-4541-4cb2-b3af-e93bd6f67091","system_id":"levelo_inurba_marseille","lat":43.34165,"lon":5.40891,"is_reserved":false,"is_disabled":false,"rental_uris":{"android":"levelo://app?vid=7b4b1604-4541-4cb2-b3af-e93bd6f67091","ios":"levelo://app?vid=7b4b1604-4541-4cb2-b3af-e93bd6f67091"},"vehicle_type_id":"4","last_reported":1761995220,"current_range_meters":7200,"station_id":"ce4bhqh2rcd13ifvqhlg","pricing_plan_id":"cebpf4jnsgd1na2vs0mg"},{"bike_id":"1bb0801c-1477-4db9-86a5-1d11bcb73d73","system_id":"levelo_inurba_marseille","lat":43.29876,"lon":5.39743,"is_reserved":false,"is_disabled":false,"rental_uris":{"android":"levelo://app?vid=1bb0801c-1477-4db9-86a5-1d11bcb73d73","ios":"levelo://app?vid=1bb0801c-1477-4db9-86a5-1d11bcb73d73"},"vehicle_type_id":"4","last_reported":1761995220,"current_range_meters":7200,"station_id":"ce4bh0h2rcd13ifvqd50","pricing_plan_id":"cebpf4jnsgd1na2vs0mg"},{"bike_id":"cccb3ad8-f98c-47f7-986e-02a79ce62ffd","system_id":"levelo_inurba_marseille","lat":43.291985,"lon":5.357912,"is_reserved":false,"is_disabled":true,"rental_uris":{"android":"levelo://app?vid=cccb3ad8-f98c-47f7-986e-02a79ce62ffd","ios":"levelo://app?vid=cccb3ad8-f98c-47f7-986e-02a79ce62ffd"},"vehicle_type_id":"4","last_reported":1761995220,"current_range_meters":7200,"station_id":"ce4bhb12rcd13ifvqel0","pricing_plan_id":"cebpf4jnsgd1na2vs0mg"},{"bike_id":"fdbd0633-a8d0-42b0-962a-d905a207dc88","system_id":"levelo_inurba_marseille","lat":43.23151,"lon":5.43702,"is_reserved":false,"is_disabled":false,"rental_uris":{"android":"levelo://app?vid=fdbd0633-a8d0-42b0-962a-d905a207dc88","ios":"levelo://app?vid=fdbd0633-a8d0-42b0-962a-d905a207dc88"},"vehicle_type_id":"4","last_reported":1761995220,"current_range_meters":7200,"station_id":"ce4bhmp2rcd13ifvqgog","pricing_plan_id":"cebpf4jnsgd1na2vs0mg"},{"bike_id":"b7bf08da-3155-4ebd-90f6-2c65138a1e9a","system_id":"levelo_inurba_marseille","lat":43.254922,"lon":5.376484,"is_reserved":false,"is_disabled":false,"rental_uris":{"android":"levelo://app?vid=b7bf08da-3155-4ebd-90f6-2c65138a1e9a","ios":"levelo://app?vid=b7bf08da-3155-4ebd-90f6-2c65138a1e9a"},"vehicle_type_id":"4","last_reported":1761995220,"current_range_meters":8000,"station_id":"ce4bhh12rcd13ifvqff0","pricing_plan_id":"cebpf4jnsgd1na2vs0mg"},{"bike_id":"583e0fa9-2497-4d33-9873-987871655935","system_id":"levelo_inurba_marseille","lat":43.2978,"lon":5.37125,"is_reserved":false,"is_disabled":false,"rental_uris":{"android":"levelo://app?vid=583e0fa9-2497-4d33-9873-987871655935","ios":"levelo://app?vid=583e0fa9-2497-4d33-9873-987871655935"},"vehicle_type_id":"4","last_reported":1761995220,"current_range_meters":8000,"station_id":"ce4bgop2rcd13ifvqc1g","pricing_plan_id":"cebpf4jnsgd1na2vs0mg"},{"bike_id":"421898f5-6c6d-4850-a304-3c0cc5951bee","system_id":"levelo_inurba_marseille","lat":43.28494,"lon":5.42177,"is_reserved":false,"is_disabled":false,"rental_uris":{"android":"levelo://app?vid=421898f5-6c6d-4850-a304-3c0cc5951bee","ios":"levelo://app?vid=421898f5-6c6d-4850-a304-3c0cc5951bee"},"vehicle_type_id":"4","last_reported":1761995220,"current_range_meters":8000,"station_id":"","pricing_plan_id":"cebpf4jnsgd1na2vs0mg"},{"bike_id":"5fb987d7-0fd0-4ae4-b81e-29cf312b29a5","system_id":"levelo_inurba_marseille","lat":43.28962,"lon":5.39002,"is_reserved":false,"is_disabled":false,"rental_uris":{"android":"levelo://app?vid=5fb987d7-0fd0-4ae4-b81e-29cf312b29a5","ios":"levelo://app?vid=5fb987d7-0fd0-4ae4-b81e-29cf312b29a5"},"vehicle_type_id":"4","last_reported":1761995220,"current_range_meters":8400,"station_id":"","pricing_plan_id":"cebpf4jnsgd1na2vs0mg"},{"bike_id":"2457a6da-e737-4e7a-9c85-e9723cf378b9","system_id":"levelo_inurba_marseille","lat":43.27192,"lon":5.41001,"is_reserved":false,"is_disabled":false,"rental_uris":{"android":"levelo://app?vid=2457a6da-e737-4e7a-9c85-e9723cf378b9","ios":"levelo://app?vid=2457a6da-e737-4e7a-9c85-e9723cf378b9"},"vehicle_type_id":"4","last_reported":1761995220,"current_range_meters":8400,"station_id":"ce4bhl12rcd13ifvqgf0","pricing_plan_id":"cebpf4jnsgd1na2vs0mg"},{"bike_id":"70b7527d-67eb-4818-84c6-51aae343ca97","system_id":"levelo_inurba_marseille","lat":43.28488,"lon":5.48425,"is_reserved":false,"is_disabled":false,"rental_uris":{"android":"levelo://app?vid=70b7527d-67eb-4818-84c6-51aae343ca97","ios":"levelo://app?vid=70b7527d-67eb-4818-84c6-51aae343ca97"},"vehicle_type_id":"4","last_reported":1761995220,"current_range_meters":8400,"station_id":"st_d3svhcjqgbts73a3dn0g","pricing_plan_id":"cebpf4jnsgd1na2vs0mg"},{"bike_id":"eb2adf7c-8740-4978-a7c2-2dda7ed54401","system_id":"levelo_inurba_marseille","lat":43.27903,"lon":5.38008,"is_reserved":false,"is_disabled":false,"rental_uris":{"android":"levelo://app?vid=eb2adf7c-8740-4978-a7c2-2dda7ed54401","ios":"levelo://app?vid=eb2adf7c-8740-4978-a7c2-2dda7ed54401"},"vehicle_type_id":"4","last_reported":1761995220,"current_range_meters":8400,"station_id":"ce4bhf92rcd13ifvqf50","pricing_plan_id":"cebpf4jnsgd1na2vs0mg"},{"bike_id":"944cb67e-04c5-4c94-a10f-1adbd278d689","system_id":"levelo_inurba_marseille","lat":43.29007,"lon":5.356138,"is_reserved":false,"is_disabled":false,"rental_uris":{"android":"levelo://app?vid=944cb67e-04c5-4c94-a10f-1adbd278d689","ios":"levelo://app?vid=944cb67e-04c5-4c94-a10f-1adbd278d689"},"vehicle_type_id":"4","last_reported":1761995220,"current_range_meters":8800,"station_id":"ce4bhb92rcd13ifvqen0","pricing_plan_id":"cebpf4jnsgd1na2vs0mg"},{"bike_id":"05092f09-1612-407c-9f18-e81eeb2945ff","system_id":"levelo_inurba_marseille","lat":43.28533,"lon":5.44099,"is_reserved":false,"is_disabled":false,"rental_uris":{"android":"levelo://app?vid=05092f09-1612-407c-9f18-e81eeb2945ff","ios":"levelo://app?vid=05092f09-1612-407c-9f18-e81eeb2945ff"},"vehicle_type_id":"4","last_reported":1761995220,"current_range_meters":8800,"station_id":"st_d3j3df2ikq2c7380ej80","pricing_plan_id":"cebpf4jnsgd1na2vs0mg"},{"bike_id":"3da4469c-1c46-4011-b8bc-3f705cc575f4","system_id":"levelo_inurba_marseille","lat":43.290332,"lon":5.386485,"is_reserved":false,"is_disabled":false,"rental_uris":{"android":"levelo://app?vid=3da4469c-1c46-4011-b8bc-3f705cc575f4","ios":"levelo://app?vid=3da4469c-1c46-4011-b8bc-3f705cc575f4"},"vehicle_type_id":"4","last_reported":1761995220,"current_range_meters":8800,"station_id":"","pricing_plan_id":"cebpf4jnsgd1na2vs0mg"},{"bike_id":"3a8851b0-bea2-4b80-afc7-0c6751111e32","system_id":"levelo_inurba_marseille","lat":43.28871,"lon":5.42539,"is_reserved":false,"is_disabled":false,"rental_uris":{"android":"levelo://app?vid=3a8851b0-bea2-4b80-afc7-0c6751111e32","ios":"levelo://app?vid=3a8851b0-bea2-4b80-afc7-0c6751111e32"},"vehicle_type_id":"4","last_reported":1761995220,"current_range_meters":9200,"station_id":"st_d3b462108ojc7389ooeg","pricing_plan_id":"cebpf4jnsgd1na2vs0mg"},{"bike_id":"96ad2f8e-1ff0-415a-a84a-9186f2a5baf6","system_id":"levelo_inurba_marseille","lat":43.29606,"lon":5.37672,"is_reserved":false,"is_disabled":false,"rental_uris":{"android":"levelo://app?vid=96ad2f8e-1ff0-415a-a84a-9186f2a5baf6","ios":"levelo://app?vid=96ad2f8e-1ff0-415a-a84a-9186f2a5baf6"},"vehicle_type_id":"4","last_reported":1761995220,"current_range_meters":9200,"station_id":"ce4bgi12rcd13ifvqb80","pricing_plan_id":"cebpf4jnsgd1na2vs0mg"},{"bike_id":"9f0acb02-e2a4-4b67-ad76-e83ffabc1387","system_id":"levelo_inurba_marseille","lat":43.23191,"lon":5.35547,"is_reserved":false,"is_disabled":false,"rental_uris":{"android":"levelo://app?vid=9f0acb02-e2a4-4b67-ad76-e83ffabc1387","ios":"levelo://app?vid=9f0acb02-e2a4-4b67-ad76-e83ffabc1387"},"vehicle_type_id":"4","last_reported":1761995220,"current_range_meters":9200,"station_id":"ce4bhu92rcd13ifvqi70","pricing_plan_id":"cebpf4jnsgd1na2vs0mg"},{"bike_id":"41c518e4-a579-464d-ad71-f0e4547449bc","system_id":"levelo_inurba_marseille","lat":43.25502,"lon":5.37648,"is_reserved":false,"is_disabled":false,"rental_uris":{"android":"levelo://app?vid=41c518e4-a579-464d-ad71-f0e4547449bc","ios":"levelo://app?vid=41c518e4-a579-464d-ad71-f0e4547449bc"},"vehicle_type_id":"4","last_reported":1761995220,"current_range_meters":9600,"station_id":"ce4bhh12rcd13ifvqff0","pricing_plan_id":"cebpf4jnsgd1na2vs0mg"},{"bike_id":"a4dac4fa-66e6-48be-a654-6e17cdc7ca0b","system_id":"levelo_inurba_marseille","lat":43.337571,"lon":5.374323,"is_reserved":false,"is_disabled":false,"rental_uris":{"android":"levelo://app?vid=a4dac4fa-66e6-48be-a654-6e17cdc7ca0b","ios":"levelo://app?vid=a4dac4fa-66e6-48be-a654-6e17cdc7ca0b"},"vehicle_type_id":"4","last_reported":1761995220,"current_range_meters":9600,"station_id":"","pricing_plan_id":"cebpf4jnsgd1na2vs0mg"},{"bike_id":"27abc7d1-dd85-495f-9415-aa00cef4846e","system_id":"levelo_inurba_marseille","lat":43.27769,"lon":5.395623,"is_reserved":false,"is_disabled":false,"rental_uris":{"android":"levelo://app?vid=27abc7d1-dd85-495f-9415-aa00cef4846e","ios":"levelo://app?vid=27abc7d1-dd85-495f-9415-aa00cef4846e"},"vehicle_type_id":"4","last_reported":1761995220,"current_range_meters":9600,"station_id":"","pricing_plan_id":"cebpf4jnsgd1na2vs0mg"},{"bike_id":"be745178-e79b-47bb-8fb0-813a3396b69e","system_id":"levelo_inurba_marseille","lat":43.29578,"lon":5.37514,"is_reserved":false,"is_disabled":false,"rental_uris":{"android":"levelo://app?vid=be745178-e79b-47bb-8fb0-813a3396b69e","ios":"levelo://app?vid=be745178-e79b-47bb-8fb0-813a3396b69e"},"vehicle_type_id":"4","last_reported":1761995220,"current_range_meters":9600,"station_id":"ce4bgh92rcd13ifvqb50","pricing_plan_id":"cebpf4jnsgd1na2vs0mg"},{"bike_id":"2395b0db-6e82-47c6-b6f2-1db6eba2fced","system_id":"levelo_inurba_marseille","lat":43.22551,"lon":5.41619,"is_reserved":false,"is_disabled":false,"rental_uris":{"android":"levelo://app?vid=2395b0db-6e82-47c6-b6f2-1db6eba2fced","ios":"levelo://app?vid=2395b0db-6e82-47c6-b6f2-1db6eba2fced"},"vehicle_type_id":"4","last_reported":1761995220,"current_range_meters":10000,"station_id":"st_d2o4gvlbi1j2169b742g","pricing_plan_id":"cebpf4jnsgd1na2vs0mg"},{"bike_id":"dacea13e-ff7f-4447-9d68-7558315e0463","system_id":"levelo_inurba_marseille","lat":43.3042,"lon":5.3674,"is_reserved":false,"is_disabled":false,"rental_uris":{"android":"levelo://app?vid=dacea13e-ff7f-4447-9d68-7558315e0463","ios":"levelo://app?vid=dacea13e-ff7f-4447-9d68-7558315e0463"},"vehicle_type_id":"4","last_reported":1761995220,"current_range_meters":10000,"station_id":"","pricing_plan_id":"cebpf4jnsgd1na2vs0mg"},{"bike_id":"58172239-827f-4359-beec-c3afce5ae4ba","system_id":"levelo_inurba_marseille","lat":43.296,"lon":5.38096,"is_reserved":false,"is_disabled":false,"rental_uris":{"android":"levelo://app?vid=58172239-827f-4359-beec-c3afce5ae4ba","ios":"levelo://app?vid=58172239-827f-4359-beec-c3afce5ae4ba"},"vehicle_type_id":"4","last_reported":1761995220,"current_range_meters":10800,"station_id":"ce4bgl12rcd13ifvqbo0","pricing_plan_id":"cebpf4jnsgd1na2vs0mg"},{"bike_id":"a211b780-3f8c-482c-9328-46d9ec737a39","system_id":"levelo_inurba_marseille","lat":43.29613,"lon":5.37701,"is_reserved":false,"is_disabled":false,"rental_uris":{"android":"levelo://app?vid=a211b780-3f8c-482c-9328-46d9ec737a39","ios":"levelo://app?vid=a211b780-3f8c-482c-9328-46d9ec737a39"},"vehicle_type_id":"4","last_reported":1761995220,"current_range_meters":10800,"station_id":"ce4bgi92rcd13ifvqb90","pricing_plan_id":"cebpf4jnsgd1na2vs0mg"},{"bike_id":"6cd59db7-cb12-4301-8385-22b87d7a5cfd","system_id":"levelo_inurba_marseille","lat":43.285367,"lon":5.440965,"is_reserved":false,"is_disabled":false,"rental_uris":{"android":"levelo://app?vid=6cd59db7-cb12-4301-8385-22b87d7a5cfd","ios":"levelo://app?vid=6cd59db7-cb12-4301-8385-22b87d7a5cfd"},"vehicle_type_id":"4","last_reported":1761995220,"current_range_meters":10800,"station_id":"st_d3j3df2ikq2c7380ej80","pricing_plan_id":"cebpf4jnsgd1na2vs0mg"},{"bike_id":"52b117f2-4c01-4f66-887d-006722496528","system_id":"levelo_inurba_marseille","lat":43.30854,"lon":5.37158,"is_reserved":false,"is_disabled":false,"rental_uris":{"android":"levelo://app?vid=52b117f2-4c01-4f66-887d-006722496528","ios":"levelo://app?vid=52b117f2-4c01-4f66-887d-006722496528"},"vehicle_type_id":"4","last_reported":1761995220,"current_range_meters":10800,"station_id":"","pricing_plan_id":"cebpf4jnsgd1na2vs0mg"},{"bike_id":"19fa1a0f-377c-4c66-a08b-025fc999d98a","system_id":"levelo_inurba_marseille","lat":43.29372,"lon":5.37853,"is_reserved":false,"is_disabled":false,"rental_uris":{"android":"levelo://app?vid=19fa1a0f-377c-4c66-a08b-025fc999d98a","ios":"levelo://app?vid=19fa1a0f-377c-4c66-a08b-025fc999d98a"},"vehicle_type_id":"4","last_reported":1761995220,"current_range_meters":10800,"station_id":"ce4bgjh2rcd13ifvqbf0","pricing_plan_id":"cebpf4jnsgd1na2vs0mg"},{"bike_id":"f34db612-7437-4eb6-b622-d7f6824be59a","system_id":"levelo_inurba_marseille","lat":43.28544,"lon":5.44104,"is_reserved":false,"is_disabled":false,"rental_uris":{"android":"levelo://app?vid=f34db612-7437-4eb6-b622-d7f6824be59a","ios":"levelo://app?vid=f34db612-7437-4eb6-b622-d7f6824be59a"},"vehicle_type_id":"4","last_reported":1761995220,"current_range_meters":10800,"station_id":"st_d3j3df2ikq2c7380ej80","pricing_plan_id":"cebpf4jnsgd1na2vs0mg"},{"bike_id":"23d9c88b-fb47-4ca1-a20f-f717572b7502","system_id":"levelo_inurba_marseille","lat":43.2886,"lon":5.3585,"is_reserved":false,"is_disabled":false,"rental_uris":{"android":"levelo://app?vid=23d9c88b-fb47-4ca1-a20f-f717572b7502","ios":"levelo://app?vid=23d9c88b-fb47-4ca1-a20f-f717572b7502"},"vehicle_type_id":"4","last_reported":1761995220,"current_range_meters":11200,"station_id":"ce4bhb12rcd13ifvqem0","pricing_plan_id":"cebpf4jnsgd1na2vs0mg"},{"bike_id":"0d64bea0-a326-4cdb-bca2-69c1e314a100","system_id":"levelo_inurba_marseille","lat":43.28415,"lon":5.34986,"is_reserved":false,"is_disabled":false,"rental_uris":{"android":"levelo://app?vid=0d64bea0-a326-4cdb-bca2-69c1e314a100","ios":"levelo://app?vid=0d64bea0-a326-4cdb-bca2-69c1e314a100"},"vehicle_type_id":"4","last_reported":1761995220,"current_range_meters":11200,"station_id":"ce4bhbh2rcd13ifvqepg","pricing_plan_id":"cebpf4jnsgd1na2vs0mg"},{"bike_id":"ef3c599f-c4ca-4eb8-aa71-b3f4816507b8","system_id":"levelo_inurba_marseille","lat":43.294841,"lon":5.433105,"is_reserved":false,"is_disabled":false,"rental_uris":{"android":"levelo://app?vid=ef3c599f-c4ca-4eb8-aa71-b3f4816507b8","ios":"levelo://app?vid=ef3c599f-c4ca-4eb8-aa71-b3f4816507b8"},"vehicle_type_id":"4","last_reported":1761995220,"current_range_meters":11200,"station_id":"st_d3j5ugp08ojc73fj9d10","pricing_plan_id":"cebpf4jnsgd1na2vs0mg"},{"bike_id":"3e0ee96b-8fbf-40c7-b23e-bbfbbf69c224","system_id":"levelo_inurba_marseille","lat":43.285419,"lon":5.441053,"is_reserved":false,"is_disabled":false,"rental_uris":{"android":"levelo://app?vid=3e0ee96b-8fbf-40c7-b23e-bbfbbf69c224","ios":"levelo://app?vid=3e0ee96b-8fbf-40c7-b23e-bbfbbf69c224"},"vehicle_type_id":"4","last_reported":1761995220,"current_range_meters":11200,"station_id":"st_d3j3df2ikq2c7380ej80","pricing_plan_id":"cebpf4jnsgd1na2vs0mg"},{"bike_id":"74b15735-564b-4f09-952a-ba8cccb96884","system_id":"levelo_inurba_marseille","lat":43.298162,"lon":5.44069,"is_reserved":false,"is_disabled":false,"rental_uris":{"android":"levelo://app?vid=74b15735-564b-4f09-952a-ba8cccb96884","ios":"levelo://app?vid=74b15735-564b-4f09-952a-ba8cccb96884"},"vehicle_type_id":"4","last_reported":1761995220,"current_range_meters":11600,"station_id":"","pricing_plan_id":"cebpf4jnsgd1na2vs0mg"},{"bike_id":"100a0506-07e9-4e08-8b74-c8cd72ddefcb","system_id":"levelo_inurba_marseille","lat":43.29226,"lon":5.36056,"is_reserved":false,"is_disabled":false,"rental_uris":{"android":"levelo://app?vid=100a0506-07e9-4e08-8b74-c8cd72ddefcb","ios":"levelo://app?vid=100a0506-07e9-4e08-8b74-c8cd72ddefcb"},"vehicle_type_id":"4","last_reported":1761995220,"current_range_meters":12000,"station_id":"ce4bhbh2rcd13ifvqeqg","pricing_plan_id":"cebpf4jnsgd1na2vs0mg"},{"bike_id":"8546e8e7-510b-44ce-8f7d-04b556c52f1e","system_id":"levelo_inurba_marseille","lat":43.24072,"lon":5.37756,"is_reserved":false,"is_disabled":false,"rental_uris":{"android":"levelo://app?vid=8546e8e7-510b-44ce-8f7d-04b556c52f1e","ios":"levelo://app?vid=8546e8e7-510b-44ce-8f7d-04b556c52f1e"},"vehicle_type_id":"4","last_reported":1761995220,"current_range_meters":12000,"station_id":"ce4bhnp2rcd13ifvqgvg","pricing_plan_id":"cebpf4jnsgd1na2vs0mg"},{"bike_id":"aeb250f6-9d26-491b-956a-8a106fbeece8","system_id":"levelo_inurba_marseille","lat":43.22555,"lon":5.41636,"is_reserved":false,"is_disabled":false,"rental_uris":{"android":"levelo://app?vid=aeb250f6-9d26-491b-956a-8a106fbeece8","ios":"levelo://app?vid=aeb250f6-9d26-491b-956a-8a106fbeece8"},"vehicle_type_id":"4","last_reported":1761995220,"current_range_meters":12000,"station_id":"st_d2o4gvlbi1j2169b742g","pricing_plan_id":"cebpf4jnsgd1na2vs0mg"},{"bike_id":"6df5d1b3-a573-47f0-acd9-dcc1039518a8","system_id":"levelo_inurba_marseille","lat":43.279441,"lon":5.410497,"is_reserved":false,"is_disabled":false,"rental_uris":{"android":"levelo://app?vid=6df5d1b3-a573-47f0-acd9-dcc1039518a8","ios":"levelo://app?vid=6df5d1b3-a573-47f0-acd9-dcc1039518a8"},"vehicle_type_id":"4","last_reported":1761995220,"current_range_meters":12000,"station_id":"ce4bhnp2rcd13ifvqh0g","pricing_plan_id":"cebpf4jnsgd1na2vs0mg"},{"bike_id":"b1e81361-2b17-4ef1-8a58-6def5753471b","system_id":"levelo_inurba_marseille","lat":43.33753,"lon":5.37484,"is_reserved":false,"is_disabled":false,"rental_uris":{"android":"levelo://app?vid=b1e81361-2b17-4ef1-8a58-6def5753471b","ios":"levelo://app?vid=b1e81361-2b17-4ef1-8a58-6def5753471b"},"vehicle_type_id":"4","last_reported":1761995220,"current_range_meters":12400,"station_id":"","pricing_plan_id":"cebpf4jnsgd1na2vs0mg"},{"bike_id":"e04f332d-b41c-47fd-b12f-6fdc7d63f429","system_id":"levelo_inurba_marseille","lat":43.3084,"lon":5.38284,"is_reserved":false,"is_disabled":false,"rental_uris":{"android":"levelo://app?vid=e04f332d-b41c-47fd-b12f-6fdc7d63f429","ios":"levelo://app?vid=e04f332d-b41c-47fd-b12f-6fdc7d63f429"},"vehicle_type_id":"4","last_reported":1761995220,"current_range_meters":12400,"station_id":"","pricing_plan_id":"cebpf4jnsgd1na2vs0mg"},{"bike_id":"c2807477-fd8d-44ed-9bdc-b3f90f0cbde0","system_id":"levelo_inurba_marseille","lat":43.318755,"lon":5.399893,"is_reserved":false,"is_disabled":false,"rental_uris":{"android":"levelo://app?vid=c2807477-fd8d-44ed-9bdc-b3f90f0cbde0","ios":"levelo://app?vid=c2807477-fd8d-44ed-9bdc-b3f90f0cbde0"},"vehicle_type_id":"4","last_reported":1761995220,"current_range_meters":12400,"station_id":"","pricing_plan_id":"cebpf4jnsgd1na2vs0mg"},{"bike_id":"bfc82e72-9c79-45c9-abc5-9f0f0b9628b2","system_id":"levelo_inurba_marseille","lat":43.27371,"lon":5.36246,"is_reserved":false,"is_disabled":false,"rental_uris":{"android":"levelo://app?vid=bfc82e72-9c79-45c9-abc5-9f0f0b9628b2","ios":"levelo://app?vid=bfc82e72-9c79-45c9-abc5-9f0f0b9628b2"},"vehicle_type_id":"4","last_reported":1761995220,"current_range_meters":12400,"station_id":"ce4bhbh2rcd13ifvqeo0","pricing_plan_id":"cebpf4jnsgd1na2vs0mg"},{"bike_id":"c308de8f-858d-4c9f-a504-ebad3a5cf8f9","system_id":"levelo_inurba_marseille","lat":43.28411,"lon":5.37497,"is_reserved":false,"is_disabled":false,"rental_uris":{"android":"levelo://app?vid=c308de8f-858d-4c9f-a504-ebad3a5cf8f9","ios":"levelo://app?vid=c308de8f-858d-4c9f-a504-ebad3a5cf8f9"},"vehicle_type_id":"4","last_reported":1761995220,"current_range_meters":12400,"station_id":"ce4bh412rcd13ifvqds0","pricing_plan_id":"cebpf4jnsgd1na2vs0mg"},{"bike_id":"44dcfba7-3720-4214-80db-f6574feaa764","system_id":"levelo_inurba_marseille","lat":43.29757,"lon":5.42784,"is_reserved":false,"is_disabled":false,"rental_uris":{"android":"levelo://app?vid=44dcfba7-3720-4214-80db-f6574feaa764","ios":"levelo://app?vid=44dcfba7-3720-4214-80db-f6574feaa764"},"vehicle_type_id":"4","last_reported":1761995220,"current_range_meters":12400,"station_id":"st_d3md5207bmas73dh9klg","pricing_plan_id":"cebpf4jnsgd1na2vs0mg"},{"bike_id":"f13402d6-bcfe-43c6-9455-f54d46eee62e","system_id":"levelo_inurba_marseille","lat":43.30468,"lon":5.36756,"is_reserved":false,"is_disabled":false,"rental_uris":{"android":"levelo://app?vid=f13402d6-bcfe-43c6-9455-f54d46eee62e","ios":"levelo://app?vid=f13402d6-bcfe-43c6-9455-f54d46eee62e"},"vehicle_type_id":"4","last_reported":1761995220,"current_range_meters":12400,"station_id":"","pricing_plan_id":"cebpf4jnsgd1na2vs0mg"},{"bike_id":"1fc3004a-01dd-49f4-8601-2877bde851e3","system_id":"levelo_inurba_marseille","lat":43.30793,"lon":5.43501,"is_reserved":false,"is_disabled":false,"rental_uris":{"android":"levelo://app?vid=1fc3004a-01dd-49f4-8601-2877bde851e3","ios":"levelo://app?vid=1fc3004a-01dd-49f4-8601-2877bde851e3"},"vehicle_type_id":"4","last_reported":1761995220,"current_range_meters":12800,"station_id":"","pricing_plan_id":"cebpf4jnsgd1na2vs0mg"},{"bike_id":"1c0a7167-0d4b-42bf-92c4-3391e562b83c","system_id":"levelo_inurba_marseille","lat":43.27912,"lon":5.39579,"is_reserved":false,"is_disabled":false,"rental_uris":{"android":"levelo://app?vid=1c0a7167-0d4b-42bf-92c4-3391e562b83c","ios":"levelo://app?vid=1c0a7167-0d4b-42bf-92c4-3391e562b83c"},"vehicle_type_id":"4","last_reported":1761995220,"current_range_meters":12800,"station_id":"ce4bhf92rcd13ifvqf40","pricing_plan_id":"cebpf4jnsgd1na2vs0mg"},{"bike_id":"53dc9ac6-5d68-43e2-a4dc-0f0020b4a51e","system_id":"levelo_inurba_marseille","lat":43.288147,"lon":5.391652,"is_reserved":false,"is_disabled":false,"rental_uris":{"android":"levelo://app?vid=53dc9ac6-5d68-43e2-a4dc-0f0020b4a51e","ios":"levelo://app?vid=53dc9ac6-5d68-43e2-a4dc-0f0020b4a51e"},"vehicle_type_id":"4","last_reported":1761995220,"current_range_meters":12800,"station_id":"","pricing_plan_id":"cebpf4jnsgd1na2vs0mg"},{"bike_id":"fcb9236d-6b3d-4454-a55b-1a633784b825","system_id":"levelo_inurba_marseille","lat":43.290036,"lon":5.35609,"is_reserved":false,"is_disabled":false,"rental_uris":{"android":"levelo://app?vid=fcb9236d-6b3d-4454-a55b-1a633784b825","ios":"levelo://app?vid=fcb9236d-6b3d-4454-a55b-1a633784b825"},"vehicle_type_id":"4","last_reported":1761995220,"current_range_meters":12800,"station_id":"ce4bhb92rcd13ifvqen0","pricing_plan_id":"cebpf4jnsgd1na2vs0mg"},{"bike_id":"ae3598c3-d5d8-4133-922b-9187802cb4d8","system_id":"levelo_inurba_marseille","lat":43.32085,"lon":5.36818,"is_reserved":false,"is_disabled":false,"rental_uris":{"android":"levelo://app?vid=ae3598c3-d5d8-4133-922b-9187802cb4d8","ios":"levelo://app?vid=ae3598c3-d5d8-4133-922b-9187802cb4d8"},"vehicle_type_id":"4","last_reported":1761995220,"current_range_meters":13600,"station_id":"ce4bhrh2rcd13ifvqhug","pricing_plan_id":"cebpf4jnsgd1na2vs0mg"},{"bike_id":"0d33b67b-5d6f-4ac9-89f9-6a65e050f198","system_id":"levelo_inurba_marseille","lat":43.30141,"lon":5.38027,"is_reserved":false,"is_disabled":false,"rental_uris":{"android":"levelo://app?vid=0d33b67b-5d6f-4ac9-89f9-6a65e050f198","ios":"levelo://app?vid=0d33b67b-5d6f-4ac9-89f9-6a65e050f198"},"vehicle_type_id":"4","last_reported":1761995220,"current_range_meters":13600,"station_id":"","pricing_plan_id":"cebpf4jnsgd1na2vs0mg"},{"bike_id":"2aa1046b-dac3-4f5f-8bf0-201a34267787","system_id":"levelo_inurba_marseille","lat":43.2119,"lon":5.35072,"is_reserved":false,"is_disabled":false,"rental_uris":{"android":"levelo://app?vid=2aa1046b-dac3-4f5f-8bf0-201a34267787","ios":"levelo://app?vid=2aa1046b-dac3-4f5f-8bf0-201a34267787"},"vehicle_type_id":"4","last_reported":1761995220,"current_range_meters":13600,"station_id":"st_cvj6sg6p6f1abm77japg","pricing_plan_id":"cebpf4jnsgd1na2vs0mg"},{"bike_id":"57a07059-3b10-4e01-bd9b-200835e6e775","system_id":"levelo_inurba_marseille","lat":43.31714,"lon":5.43703,"is_reserved":false,"is_disabled":false,"rental_uris":{"android":"levelo://app?vid=57a07059-3b10-4e01-bd9b-200835e6e775","ios":"levelo://app?vid=57a07059-3b10-4e01-bd9b-200835e6e775"},"vehicle_type_id":"4","last_reported":1761995220,"current_range_meters":14000,"station_id":"ce4bhp92rcd13ifvqhcg","pricing_plan_id":"cebpf4jnsgd1na2vs0mg"},{"bike_id":"12965870-67a6-43c2-bc8f-49d0463394bc","system_id":"levelo_inurba_marseille","lat":43.31327,"lon":5.39699,"is_reserved":false,"is_disabled":false,"rental_uris":{"android":"levelo://app?vid=12965870-67a6-43c2-bc8f-49d0463394bc","ios":"levelo://app?vid=12965870-67a6-43c2-bc8f-49d0463394bc"},"vehicle_type_id":"4","last_reported":1761995220,"current_range_meters":14000,"station_id":"ce4bgvp2rcd13ifvqcu0","pricing_plan_id":"cebpf4jnsgd1na2vs0mg"},{"bike_id":"68dfe5bf-96d8-40ed-a701-d1cafa21ceb7","system_id":"levelo_inurba_marseille","lat":43.3057,"lon":5.38964,"is_reserved":false,"is_disabled":false,"rental_uris":{"android":"levelo://app?vid=68dfe5bf-96d8-40ed-a701-d1cafa21ceb7","ios":"levelo://app?vid=68dfe5bf-96d8-40ed-a701-d1cafa21ceb7"},"vehicle_type_id":"4","last_reported":1761995220,"current_range_meters":14000,"station_id":"ce4bgk12rcd13ifvqbi0","pricing_plan_id":"cebpf4jnsgd1na2vs0mg"},{"bike_id":"c04ea6ec-c85d-4b9a-aa74-f0de2415a6d2","system_id":"levelo_inurba_marseille","lat":43.315649,"lon":5.383816,"is_reserved":false,"is_disabled":false,"rental_uris":{"android":"levelo://app?vid=c04ea6ec-c85d-4b9a-aa74-f0de2415a6d2","ios":"levelo://app?vid=c04ea6ec-c85d-4b9a-aa74-f0de2415a6d2"},"vehicle_type_id":"4","last_reported":1761995220,"current_range_meters":14000,"station_id":"","pricing_plan_id":"cebpf4jnsgd1na2vs0mg"},{"bike_id":"fbcc5886-69e3-488f-96fd-e45314a075e6","system_id":"levelo_inurba_marseille","lat":43.288676,"lon":5.425142,"is_reserved":false,"is_disabled":false,"rental_uris":{"android":"levelo://app?vid=fbcc5886-69e3-488f-96fd-e45314a075e6","ios":"levelo://app?vid=fbcc5886-69e3-488f-96fd-e45314a075e6"},"vehicle_type_id":"4","last_reported":1761995220,"current_range_meters":14000,"station_id":"st_d3b462108ojc7389ooeg","pricing_plan_id":"cebpf4jnsgd1na2vs0mg"},{"bike_id":"26a5504d-8832-4d22-8c38-bc79a3b1c352","system_id":"levelo_inurba_marseille","lat":43.294856,"lon":5.433039,"is_reserved":false,"is_disabled":false,"rental_uris":{"android":"levelo://app?vid=26a5504d-8832-4d22-8c38-bc79a3b1c352","ios":"levelo://app?vid=26a5504d-8832-4d22-8c38-bc79a3b1c352"},"vehicle_type_id":"4","last_reported":1761995220,"current_range_meters":14000,"station_id":"st_d3j5ugp08ojc73fj9d10","pricing_plan_id":"cebpf4jnsgd1na2vs0mg"},{"bike_id":"9b528f9a-4ac4-4796-aeb5-0bae3ddc60ae","system_id":"levelo_inurba_marseille","lat":43.260307,"lon":5.375476,"is_reserved":false,"is_disabled":false,"rental_uris":{"android":"levelo://app?vid=9b528f9a-4ac4-4796-aeb5-0bae3ddc60ae","ios":"levelo://app?vid=9b528f9a-4ac4-4796-aeb5-0bae3ddc60ae"},"vehicle_type_id":"4","last_reported":1761995220,"current_range_meters":14800,"station_id":"ce4bhgh2rcd13ifvqfa0","pricing_plan_id":"cebpf4jnsgd1na2vs0mg"},{"bike_id":"079da2d7-3058-45e9-b7ee-d0f976e831e8","system_id":"levelo_inurba_marseille","lat":43.30352,"lon":5.4188,"is_reserved":false,"is_disabled":false,"rental_uris":{"android":"levelo://app?vid=079da2d7-3058-45e9-b7ee-d0f976e831e8","ios":"levelo://app?vid=079da2d7-3058-45e9-b7ee-d0f976e831e8"},"vehicle_type_id":"4","last_reported":1761995220,"current_range_meters":14800,"station_id":"ce4bhop2rcd13ifvqh7g","pricing_plan_id":"cebpf4jnsgd1na2vs0mg"},{"bike_id":"7a9e1e86-52dc-42e4-a53b-236a591ba00d","system_id":"levelo_inurba_marseille","lat":43.288175,"lon":5.363796,"is_reserved":false,"is_disabled":false,"rental_uris":{"android":"levelo://app?vid=7a9e1e86-52dc-42e4-a53b-236a591ba00d","ios":"levelo://app?vid=7a9e1e86-52dc-42e4-a53b-236a591ba00d"},"vehicle_type_id":"4","last_reported":1761995220,"current_range_meters":14800,"station_id":"","pricing_plan_id":"cebpf4jnsgd1na2vs0mg"},{"bike_id":"aad6a064-c048-4ba9-a156-1745b89548aa","system_id":"levelo_inurba_marseille","lat":43.283078,"lon":5.411091,"is_reserved":false,"is_disabled":false,"rental_uris":{"android":"levelo://app?vid=aad6a064-c048-4ba9-a156-1745b89548aa","ios":"levelo://app?vid=aad6a064-c048-4ba9-a156-1745b89548aa"},"vehicle_type_id":"4","last_reported":1761995220,"current_range_meters":14800,"station_id":"","pricing_plan_id":"cebpf4jnsgd1na2vs0mg"},{"bike_id":"689d4953-f27a-47ac-89d9-67240fc99334","system_id":"levelo_inurba_marseille","lat":43.26037,"lon":5.37553,"is_reserved":false,"is_disabled":false,"rental_uris":{"android":"levelo://app?vid=689d4953-f27a-47ac-89d9-67240fc99334","ios":"levelo://app?vid=689d4953-f27a-47ac-89d9-67240fc99334"},"vehicle_type_id":"4","last_reported":1761995220,"current_range_meters":14800,"station_id":"ce4bhgh2rcd13ifvqfa0","pricing_plan_id":"cebpf4jnsgd1na2vs0mg"},{"bike_id":"712b7649-f440-4e95-bc0a-6525a9259dc8","system_id":"levelo_inurba_marseille","lat":43.291948,"lon":5.402657,"is_reserved":false,"is_disabled":false,"rental_uris":{"android":"levelo://app?vid=712b7649-f440-4e95-bc0a-6525a9259dc8","ios":"levelo://app?vid=712b7649-f440-4e95-bc0a-6525a9259dc8"},"vehicle_type_id":"4","last_reported":1761995220,"current_range_meters":14800,"station_id":"","pricing_plan_id":"cebpf4jnsgd1na2vs0mg"},{"bike_id":"81027b4e-436f-4d22-9142-88cde70adec4","system_id":"levelo_inurba_marseille","lat":43.27563,"lon":5.38426,"is_reserved":false,"is_disabled":false,"rental_uris":{"android":"levelo://app?vid=81027b4e-436f-4d22-9142-88cde70adec4","ios":"levelo://app?vid=81027b4e-436f-4d22-9142-88cde70adec4"},"vehicle_type_id":"4","last_reported":1761995220,"current_range_meters":15200,"station_id":"ce4bhh92rcd13ifvqfi0","pricing_plan_id":"cebpf4jnsgd1na2vs0mg"},{"bike_id":"f4c38a56-4a35-49a9-bdea-5d14ae1ba768","system_id":"levelo_inurba_marseille","lat":43.29772,"lon":5.42761,"is_reserved":false,"is_disabled":false,"rental_uris":{"android":"levelo://app?vid=f4c38a56-4a35-49a9-bdea-5d14ae1ba768","ios":"levelo://app?vid=f4c38a56-4a35-49a9-bdea-5d14ae1ba768"},"vehicle_type_id":"4","last_reported":1761995220,"current_range_meters":15200,"station_id":"st_d3md5207bmas73dh9klg","pricing_plan_id":"cebpf4jnsgd1na2vs0mg"},{"bike_id":"a61e33a8-11bf-4d96-8ee9-6807fe1ed5eb","system_id":"levelo_inurba_marseille","lat":43.28031,"lon":5.36945,"is_reserved":false,"is_disabled":false,"rental_uris":{"android":"levelo://app?vid=a61e33a8-11bf-4d96-8ee9-6807fe1ed5eb","ios":"levelo://app?vid=a61e33a8-11bf-4d96-8ee9-6807fe1ed5eb"},"vehicle_type_id":"4","last_reported":1761995220,"current_range_meters":15200,"station_id":"ce4bha12rcd13ifvqef0","pricing_plan_id":"cebpf4jnsgd1na2vs0mg"},{"bike_id":"cd34d17f-3532-46cd-94d6-9f325351c996","system_id":"levelo_inurba_marseille","lat":43.26551,"lon":5.4032,"is_reserved":false,"is_disabled":false,"rental_uris":{"android":"levelo://app?vid=cd34d17f-3532-46cd-94d6-9f325351c996","ios":"levelo://app?vid=cd34d17f-3532-46cd-94d6-9f325351c996"},"vehicle_type_id":"4","last_reported":1761995220,"current_range_meters":15200,"station_id":"ce4bhmp2rcd13ifvqgng","pricing_plan_id":"cebpf4jnsgd1na2vs0mg"},{"bike_id":"1c2de41b-474e-40da-99a4-719f00c24016","system_id":"levelo_inurba_marseille","lat":43.22564,"lon":5.41625,"is_reserved":false,"is_disabled":false,"rental_uris":{"android":"levelo://app?vid=1c2de41b-474e-40da-99a4-719f00c24016","ios":"levelo://app?vid=1c2de41b-474e-40da-99a4-719f00c24016"},"vehicle_type_id":"4","last_reported":1761995220,"current_range_meters":15200,"station_id":"st_d2o4gvlbi1j2169b742g","pricing_plan_id":"cebpf4jnsgd1na2vs0mg"},{"bike_id":"0089665c-d050-4f0d-8d27-e9a6af9208fc","system_id":"levelo_inurba_marseille","lat":43.30193,"lon":5.38027,"is_reserved":false,"is_disabled":false,"rental_uris":{"android":"levelo://app?vid=0089665c-d050-4f0d-8d27-e9a6af9208fc","ios":"levelo://app?vid=0089665c-d050-4f0d-8d27-e9a6af9208fc"},"vehicle_type_id":"4","last_reported":1761995220,"current_range_meters":15200,"station_id":"","pricing_plan_id":"cebpf4jnsgd1na2vs0mg"},{"bike_id":"0c3bfe72-1bfa-4fe4-8ec1-abc531b0b6c5","system_id":"levelo_inurba_marseille","lat":43.265495,"lon":5.372847,"is_reserved":false,"is_disabled":true,"rental_uris":{"android":"levelo://app?vid=0c3bfe72-1bfa-4fe4-8ec1-abc531b0b6c5","ios":"levelo://app?vid=0c3bfe72-1bfa-4fe4-8ec1-abc531b0b6c5"},"vehicle_type_id":"4","last_reported":1761995220,"current_range_meters":15200,"station_id":"ce4bhg12rcd13ifvqf70","pricing_plan_id":"cebpf4jnsgd1na2vs0mg"},{"bike_id":"5382a3f0-2e84-46ae-97e9-af88defb662e","system_id":"levelo_inurba_marseille","lat":43.30159,"lon":5.38088,"is_reserved":false,"is_disabled":false,"rental_uris":{"android":"levelo://app?vid=5382a3f0-2e84-46ae-97e9-af88defb662e","ios":"levelo://app?vid=5382a3f0-2e84-46ae-97e9-af88defb662e"},"vehicle_type_id":"4","last_reported":1761995220,"current_range_meters":15200,"station_id":"ce4bgjp2rcd13ifvqbh0","pricing_plan_id":"cebpf4jnsgd1na2vs0mg"},{"bike_id":"a4bbad58-8103-47f1-8af1-9667ef07b1bf","system_id":"levelo_inurba_marseille","lat":43.32111,"lon":5.36799,"is_reserved":false,"is_disabled":false,"rental_uris":{"android":"levelo://app?vid=a4bbad58-8103-47f1-8af1-9667ef07b1bf","ios":"levelo://app?vid=a4bbad58-8103-47f1-8af1-9667ef07b1bf"},"vehicle_type_id":"4","last_reported":1761995220,"current_range_meters":15200,"station_id":"ce4bhrh2rcd13ifvqhug","pricing_plan_id":"cebpf4jnsgd1na2vs0mg"},{"bike_id":"01101f52-783d-4a69-b659-15bcb3f48805","system_id":"levelo_inurba_marseille","lat":43.31184,"lon":5.37887,"is_reserved":false,"is_disabled":false,"rental_uris":{"android":"levelo://app?vid=01101f52-783d-4a69-b659-15bcb3f48805","ios":"levelo://app?vid=01101f52-783d-4a69-b659-15bcb3f48805"},"vehicle_type_id":"4","last_reported":1761995220,"current_range_meters":15200,"station_id":"","pricing_plan_id":"cebpf4jnsgd1na2vs0mg"},{"bike_id":"1da464de-a87c-49fb-939a-9732a97a4ebd","system_id":"levelo_inurba_marseille","lat":43.321155,"lon":5.367694,"is_reserved":false,"is_disabled":false,"rental_uris":{"android":"levelo://app?vid=1da464de-a87c-49fb-939a-9732a97a4ebd","ios":"levelo://app?vid=1da464de-a87c-49fb-939a-9732a97a4ebd"},"vehicle_type_id":"4","last_reported":1761995220,"current_range_meters":16000,"station_id":"ce4bhrh2rcd13ifvqhug","pricing_plan_id":"cebpf4jnsgd1na2vs0mg"},{"bike_id":"bfd47976-4b12-4a3a-abee-96cc29a7d071","system_id":"levelo_inurba_marseille","lat":43.29489,"lon":5.4331,"is_reserved":false,"is_disabled":false,"rental_uris":{"android":"levelo://app?vid=bfd47976-4b12-4a3a-abee-96cc29a7d071","ios":"levelo://app?vid=bfd47976-4b12-4a3a-abee-96cc29a7d071"},"vehicle_type_id":"4","last_reported":1761995220,"current_range_meters":16000,"station_id":"st_d3j5ugp08ojc73fj9d10","pricing_plan_id":"cebpf4jnsgd1na2vs0mg"},{"bike_id":"dfb01125-5850-4938-8675-2ee67ab493b7","system_id":"levelo_inurba_marseille","lat":43.33755,"lon":5.37396,"is_reserved":false,"is_disabled":false,"rental_uris":{"android":"levelo://app?vid=dfb01125-5850-4938-8675-2ee67ab493b7","ios":"levelo://app?vid=dfb01125-5850-4938-8675-2ee67ab493b7"},"vehicle_type_id":"4","last_reported":1761995220,"current_range_meters":16000,"station_id":"","pricing_plan_id":"cebpf4jnsgd1na2vs0mg"},{"bike_id":"35c5eff1-6c48-49f5-b44e-1b2d21fe3798","system_id":"levelo_inurba_marseille","lat":43.32099,"lon":5.36804,"is_reserved":false,"is_disabled":false,"rental_uris":{"android":"levelo://app?vid=35c5eff1-6c48-49f5-b44e-1b2d21fe3798","ios":"levelo://app?vid=35c5eff1-6c48-49f5-b44e-1b2d21fe3798"},"vehicle_type_id":"4","last_reported":1761995220,"current_range_meters":16000,"station_id":"ce4bhrh2rcd13ifvqhug","pricing_plan_id":"cebpf4jnsgd1na2vs0mg"},{"bike_id":"96cbfedc-d9e0-46b4-9278-ed5bad333296","system_id":"levelo_inurba_marseille","lat":43.29273,"lon":5.3684,"is_reserved":false,"is_disabled":false,"rental_uris":{"android":"levelo://app?vid=96cbfedc-d9e0-46b4-9278-ed5bad333296","ios":"levelo://app?vid=96cbfedc-d9e0-46b4-9278-ed5bad333296"},"vehicle_type_id":"4","last_reported":1761995220,"current_range_meters":16000,"station_id":"ce4bhbp2rcd13ifvqesg","pricing_plan_id":"cebpf4jnsgd1na2vs0mg"},{"bike_id":"92c4ecea-a870-4734-96b0-1c8b639bde58","system_id":"levelo_inurba_marseille","lat":43.25342,"lon":5.42183,"is_reserved":false,"is_disabled":false,"rental_uris":{"android":"levelo://app?vid=92c4ecea-a870-4734-96b0-1c8b639bde58","ios":"levelo://app?vid=92c4ecea-a870-4734-96b0-1c8b639bde58"},"vehicle_type_id":"4","last_reported":1761995220,"current_range_meters":16400,"station_id":"st_d2m65c5bi1j21697t3ng","pricing_plan_id":"cebpf4jnsgd1na2vs0mg"},{"bike_id":"32632625-b281-4348-990f-071d78c42b84","system_id":"levelo_inurba_marseille","lat":43.26569,"lon":5.39014,"is_reserved":false,"is_disabled":false,"rental_uris":{"android":"levelo://app?vid=32632625-b281-4348-990f-071d78c42b84","ios":"levelo://app?vid=32632625-b281-4348-990f-071d78c42b84"},"vehicle_type_id":"4","last_reported":1761995220,"current_range_meters":16400,"station_id":"","pricing_plan_id":"cebpf4jnsgd1na2vs0mg"},{"bike_id":"33ae0dab-3749-43ff-9793-2b7dc4ecf75d","system_id":"levelo_inurba_marseille","lat":43.25331,"lon":5.42173,"is_reserved":false,"is_disabled":false,"rental_uris":{"android":"levelo://app?vid=33ae0dab-3749-43ff-9793-2b7dc4ecf75d","ios":"levelo://app?vid=33ae0dab-3749-43ff-9793-2b7dc4ecf75d"},"vehicle_type_id":"4","last_reported":1761995220,"current_range_meters":16400,"station_id":"st_d2m65c5bi1j21697t3ng","pricing_plan_id":"cebpf4jnsgd1na2vs0mg"},{"bike_id":"05a43803-6330-4f9d-8f80-87bc3917bace","system_id":"levelo_inurba_marseille","lat":43.2439,"lon":5.37085,"is_reserved":false,"is_disabled":false,"rental_uris":{"android":"levelo://app?vid=05a43803-6330-4f9d-8f80-87bc3917bace","ios":"levelo://app?vid=05a43803-6330-4f9d-8f80-87bc3917bace"},"vehicle_type_id":"4","last_reported":1761995220,"current_range_meters":16400,"station_id":"ce4bhhh2rcd13ifvqfk0","pricing_plan_id":"cebpf4jnsgd1na2vs0mg"},{"bike_id":"fe0f913b-1350-46be-84f3-9179f4d3fa97","system_id":"levelo_inurba_marseille","lat":43.2511,"lon":5.4032,"is_reserved":false,"is_disabled":false,"rental_uris":{"android":"levelo://app?vid=fe0f913b-1350-46be-84f3-9179f4d3fa97","ios":"levelo://app?vid=fe0f913b-1350-46be-84f3-9179f4d3fa97"},"vehicle_type_id":"4","last_reported":1761995220,"current_range_meters":16400,"station_id":"ce4bhlh2rcd13ifvqgig","pricing_plan_id":"cebpf4jnsgd1na2vs0mg"},{"bike_id":"41598790-345d-414f-9e87-720cb432f278","system_id":"levelo_inurba_marseille","lat":43.29477,"lon":5.36227,"is_reserved":false,"is_disabled":false,"rental_uris":{"android":"levelo://app?vid=41598790-345d-414f-9e87-720cb432f278","ios":"levelo://app?vid=41598790-345d-414f-9e87-720cb432f278"},"vehicle_type_id":"4","last_reported":1761995220,"current_range_meters":16400,"station_id":"","pricing_plan_id":"cebpf4jnsgd1na2vs0mg"},{"bike_id":"4560dbcf-401f-4f2d-abe8-7f1f9555f70d","system_id":"levelo_inurba_marseille","lat":43.29578,"lon":5.36731,"is_reserved":false,"is_disabled":false,"rental_uris":{"android":"levelo://app?vid=4560dbcf-401f-4f2d-abe8-7f1f9555f70d","ios":"levelo://app?vid=4560dbcf-401f-4f2d-abe8-7f1f9555f70d"},"vehicle_type_id":"4","last_reported":1761995220,"current_range_meters":16400,"station_id":"ce4bgph2rcd13ifvqc2g","pricing_plan_id":"cebpf4jnsgd1na2vs0mg"},{"bike_id":"fafa4589-30aa-410f-bafe-e1b351d8b989","system_id":"levelo_inurba_marseille","lat":43.22566,"lon":5.41626,"is_reserved":false,"is_disabled":false,"rental_uris":{"android":"levelo://app?vid=fafa4589-30aa-410f-bafe-e1b351d8b989","ios":"levelo://app?vid=fafa4589-30aa-410f-bafe-e1b351d8b989"},"vehicle_type_id":"4","last_reported":1761995220,"current_range_meters":16400,"station_id":"st_d2o4gvlbi1j2169b742g","pricing_plan_id":"cebpf4jnsgd1na2vs0mg"},{"bike_id":"f48c2369-952a-4c4f-864f-4da168ab283a","system_id":"levelo_inurba_marseille","lat":43.288629,"lon":5.425269,"is_reserved":false,"is_disabled":false,"rental_uris":{"android":"levelo://app?vid=f48c2369-952a-4c4f-864f-4da168ab283a","ios":"levelo://app?vid=f48c2369-952a-4c4f-864f-4da168ab283a"},"vehicle_type_id":"4","last_reported":1761995220,"current_range_meters":16400,"station_id":"st_d3b462108ojc7389ooeg","pricing_plan_id":"cebpf4jnsgd1na2vs0mg"},{"bike_id":"37752b8f-5b1d-4e9a-a172-c79cba31e087","system_id":"levelo_inurba_marseille","lat":43.240768,"lon":5.377605,"is_reserved":false,"is_disabled":false,"rental_uris":{"android":"levelo://app?vid=37752b8f-5b1d-4e9a-a172-c79cba31e087","ios":"levelo://app?vid=37752b8f-5b1d-4e9a-a172-c79cba31e087"},"vehicle_type_id":"4","last_reported":1761995220,"current_range_meters":16800,"station_id":"ce4bhnp2rcd13ifvqgvg","pricing_plan_id":"cebpf4jnsgd1na2vs0mg"},{"bike_id":"bd787a0f-baf0-43a5-a3f2-abe77af6fb04","system_id":"levelo_inurba_marseille","lat":43.3114,"lon":5.37741,"is_reserved":false,"is_disabled":false,"rental_uris":{"android":"levelo://app?vid=bd787a0f-baf0-43a5-a3f2-abe77af6fb04","ios":"levelo://app?vid=bd787a0f-baf0-43a5-a3f2-abe77af6fb04"},"vehicle_type_id":"4","last_reported":1761995220,"current_range_meters":16800,"station_id":"ce4bgt92rcd13ifvqcg0","pricing_plan_id":"cebpf4jnsgd1na2vs0mg"},{"bike_id":"d3fa5d12-0035-4189-8a2b-360a58442d22","system_id":"levelo_inurba_marseille","lat":43.3112,"lon":5.37766,"is_reserved":false,"is_disabled":false,"rental_uris":{"android":"levelo://app?vid=d3fa5d12-0035-4189-8a2b-360a58442d22","ios":"levelo://app?vid=d3fa5d12-0035-4189-8a2b-360a58442d22"},"vehicle_type_id":"4","last_reported":1761995220,"current_range_meters":16800,"station_id":"ce4bgt92rcd13ifvqcg0","pricing_plan_id":"cebpf4jnsgd1na2vs0mg"},{"bike_id":"a7462b8b-4769-4fcf-865e-7e042af17294","system_id":"levelo_inurba_marseille","lat":43.27675,"lon":5.38879,"is_reserved":false,"is_disabled":false,"rental_uris":{"android":"levelo://app?vid=a7462b8b-4769-4fcf-865e-7e042af17294","ios":"levelo://app?vid=a7462b8b-4769-4fcf-865e-7e042af17294"},"vehicle_type_id":"4","last_reported":1761995220,"current_range_meters":16800,"station_id":"ce4bhi12rcd13ifvqfo0","pricing_plan_id":"cebpf4jnsgd1na2vs0mg"},{"bike_id":"6a2bb984-6d37-4e15-8d3a-77b1ce2cc2f7","system_id":"levelo_inurba_marseille","lat":43.30601,"lon":5.37231,"is_reserved":false,"is_disabled":false,"rental_uris":{"android":"levelo://app?vid=6a2bb984-6d37-4e15-8d3a-77b1ce2cc2f7","ios":"levelo://app?vid=6a2bb984-6d37-4e15-8d3a-77b1ce2cc2f7"},"vehicle_type_id":"4","last_reported":1761995220,"current_range_meters":16800,"station_id":"ce4bgqh2rcd13ifvqc4g","pricing_plan_id":"cebpf4jnsgd1na2vs0mg"},{"bike_id":"50c2c89c-4a9b-41f6-af05-b4e430e07029","system_id":"levelo_inurba_marseille","lat":43.2463,"lon":5.4314,"is_reserved":false,"is_disabled":false,"rental_uris":{"android":"levelo://app?vid=50c2c89c-4a9b-41f6-af05-b4e430e07029","ios":"levelo://app?vid=50c2c89c-4a9b-41f6-af05-b4e430e07029"},"vehicle_type_id":"4","last_reported":1761995220,"current_range_meters":16800,"station_id":"st_d2m6c4gdas8pm72e190g","pricing_plan_id":"cebpf4jnsgd1na2vs0mg"},{"bike_id":"d3edba6f-a38d-4f39-85cd-ad176b184599","system_id":"levelo_inurba_marseille","lat":43.24071,"lon":5.37758,"is_reserved":false,"is_disabled":false,"rental_uris":{"android":"levelo://app?vid=d3edba6f-a38d-4f39-85cd-ad176b184599","ios":"levelo://app?vid=d3edba6f-a38d-4f39-85cd-ad176b184599"},"vehicle_type_id":"4","last_reported":1761995220,"current_range_meters":16800,"station_id":"ce4bhnp2rcd13ifvqgvg","pricing_plan_id":"cebpf4jnsgd1na2vs0mg"},{"bike_id":"269b302d-3c48-4bb6-a063-2ab24423c89a","system_id":"levelo_inurba_marseille","lat":43.22553,"lon":5.4163,"is_reserved":false,"is_disabled":false,"rental_uris":{"android":"levelo://app?vid=269b302d-3c48-4bb6-a063-2ab24423c89a","ios":"levelo://app?vid=269b302d-3c48-4bb6-a063-2ab24423c89a"},"vehicle_type_id":"4","last_reported":1761995220,"current_range_meters":16800,"station_id":"st_d2o4gvlbi1j2169b742g","pricing_plan_id":"cebpf4jnsgd1na2vs0mg"},{"bike_id":"1d29646a-da1f-4f66-b008-0838ffb2fa84","system_id":"levelo_inurba_marseille","lat":43.29989,"lon":5.37228,"is_reserved":false,"is_disabled":false,"rental_uris":{"android":"levelo://app?vid=1d29646a-da1f-4f66-b008-0838ffb2fa84","ios":"levelo://app?vid=1d29646a-da1f-4f66-b008-0838ffb2fa84"},"vehicle_type_id":"4","last_reported":1761995220,"current_range_meters":16800,"station_id":"ce4bgr92rcd13ifvqc7g","pricing_plan_id":"cebpf4jnsgd1na2vs0mg"},{"bike_id":"52b04612-cd38-411f-a68e-6bb9cb24a90a","system_id":"levelo_inurba_marseille","lat":43.241614,"lon":5.363965,"is_reserved":false,"is_disabled":false,"rental_uris":{"android":"levelo://app?vid=52b04612-cd38-411f-a68e-6bb9cb24a90a","ios":"levelo://app?vid=52b04612-cd38-411f-a68e-6bb9cb24a90a"},"vehicle_type_id":"4","last_reported":1761995220,"current_range_meters":17200,"station_id":"cpo36qri1sfpv3e86is0","pricing_plan_id":"cebpf4jnsgd1na2vs0mg"},{"bike_id":"559dd85a-7aa9-44d9-a59a-779baf8c5c22","system_id":"levelo_inurba_marseille","lat":43.294938,"lon":5.432969,"is_reserved":false,"is_disabled":false,"rental_uris":{"android":"levelo://app?vid=559dd85a-7aa9-44d9-a59a-779baf8c5c22","ios":"levelo://app?vid=559dd85a-7aa9-44d9-a59a-779baf8c5c22"},"vehicle_type_id":"4","last_reported":1761995220,"current_range_meters":17200,"station_id":"st_d3j5ugp08ojc73fj9d10","pricing_plan_id":"cebpf4jnsgd1na2vs0mg"},{"bike_id":"528e3c88-b623-43f9-a15b-cba9eb4d6f1a","system_id":"levelo_inurba_marseille","lat":43.28467,"lon":5.48394,"is_reserved":false,"is_disabled":false,"rental_uris":{"android":"levelo://app?vid=528e3c88-b623-43f9-a15b-cba9eb4d6f1a","ios":"levelo://app?vid=528e3c88-b623-43f9-a15b-cba9eb4d6f1a"},"vehicle_type_id":"4","last_reported":1761995220,"current_range_meters":17200,"station_id":"st_d3svhcjqgbts73a3dn0g","pricing_plan_id":"cebpf4jnsgd1na2vs0mg"},{"bike_id":"565cc599-e2e4-4d0e-aef3-effc6ee3ffe7","system_id":"levelo_inurba_marseille","lat":43.27941,"lon":5.410417,"is_reserved":false,"is_disabled":false,"rental_uris":{"android":"levelo://app?vid=565cc599-e2e4-4d0e-aef3-effc6ee3ffe7","ios":"levelo://app?vid=565cc599-e2e4-4d0e-aef3-effc6ee3ffe7"},"vehicle_type_id":"4","last_reported":1761995220,"current_range_meters":17200,"station_id":"ce4bhnp2rcd13ifvqh0g","pricing_plan_id":"cebpf4jnsgd1na2vs0mg"},{"bike_id":"a599ea86-16bb-4d79-89fe-01c4b3b42dc5","system_id":"levelo_inurba_marseille","lat":43.321109,"lon":5.367801,"is_reserved":false,"is_disabled":false,"rental_uris":{"android":"levelo://app?vid=a599ea86-16bb-4d79-89fe-01c4b3b42dc5","ios":"levelo://app?vid=a599ea86-16bb-4d79-89fe-01c4b3b42dc5"},"vehicle_type_id":"4","last_reported":1761995220,"current_range_meters":17200,"station_id":"ce4bhrh2rcd13ifvqhug","pricing_plan_id":"cebpf4jnsgd1na2vs0mg"},{"bike_id":"098e52bc-bd78-48c8-aa56-18b60278b9cb","system_id":"levelo_inurba_marseille","lat":43.24384,"lon":5.37048,"is_reserved":false,"is_disabled":false,"rental_uris":{"android":"levelo://app?vid=098e52bc-bd78-48c8-aa56-18b60278b9cb","ios":"levelo://app?vid=098e52bc-bd78-48c8-aa56-18b60278b9cb"},"vehicle_type_id":"4","last_reported":1761995220,"current_range_meters":17200,"station_id":"ce4bhhh2rcd13ifvqfk0","pricing_plan_id":"cebpf4jnsgd1na2vs0mg"},{"bike_id":"230fff12-e532-4cd6-8f71-32ea766d4b90","system_id":"levelo_inurba_marseille","lat":43.28845,"lon":5.35858,"is_reserved":false,"is_disabled":false,"rental_uris":{"android":"levelo://app?vid=230fff12-e532-4cd6-8f71-32ea766d4b90","ios":"levelo://app?vid=230fff12-e532-4cd6-8f71-32ea766d4b90"},"vehicle_type_id":"4","last_reported":1761995220,"current_range_meters":17200,"station_id":"ce4bhb12rcd13ifvqem0","pricing_plan_id":"cebpf4jnsgd1na2vs0mg"},{"bike_id":"137b611e-0d30-42e5-bd0e-4ca1b1f19b3a","system_id":"levelo_inurba_marseille","lat":43.27994,"lon":5.4001,"is_reserved":false,"is_disabled":false,"rental_uris":{"android":"levelo://app?vid=137b611e-0d30-42e5-bd0e-4ca1b1f19b3a","ios":"levelo://app?vid=137b611e-0d30-42e5-bd0e-4ca1b1f19b3a"},"vehicle_type_id":"4","last_reported":1761995220,"current_range_meters":17600,"station_id":"ce4bho92rcd13ifvqh4g","pricing_plan_id":"cebpf4jnsgd1na2vs0mg"},{"bike_id":"2ea8b295-6a13-47c7-8965-8106cf796d7e","system_id":"levelo_inurba_marseille","lat":43.31326,"lon":5.37683,"is_reserved":false,"is_disabled":false,"rental_uris":{"android":"levelo://app?vid=2ea8b295-6a13-47c7-8965-8106cf796d7e","ios":"levelo://app?vid=2ea8b295-6a13-47c7-8965-8106cf796d7e"},"vehicle_type_id":"4","last_reported":1761995220,"current_range_meters":17600,"station_id":"","pricing_plan_id":"cebpf4jnsgd1na2vs0mg"},{"bike_id":"0462e1e6-c802-4473-8418-6ae2ab333385","system_id":"levelo_inurba_marseille","lat":43.28626,"lon":5.35096,"is_reserved":false,"is_disabled":false,"rental_uris":{"android":"levelo://app?vid=0462e1e6-c802-4473-8418-6ae2ab333385","ios":"levelo://app?vid=0462e1e6-c802-4473-8418-6ae2ab333385"},"vehicle_type_id":"4","last_reported":1761995220,"current_range_meters":17600,"station_id":"ce4bhch2rcd13ifvqeug","pricing_plan_id":"cebpf4jnsgd1na2vs0mg"},{"bike_id":"81cbc3a1-762c-408c-8d0c-4e80122bb5b3","system_id":"levelo_inurba_marseille","lat":43.2573,"lon":5.41117,"is_reserved":false,"is_disabled":false,"rental_uris":{"android":"levelo://app?vid=81cbc3a1-762c-408c-8d0c-4e80122bb5b3","ios":"levelo://app?vid=81cbc3a1-762c-408c-8d0c-4e80122bb5b3"},"vehicle_type_id":"4","last_reported":1761995220,"current_range_meters":17600,"station_id":"ce4bhkp2rcd13ifvqgd0","pricing_plan_id":"cebpf4jnsgd1na2vs0mg"},{"bike_id":"ba541a52-7e4e-4241-9791-ae6f1fb03dcd","system_id":"levelo_inurba_marseille","lat":43.319928,"lon":5.415946,"is_reserved":false,"is_disabled":false,"rental_uris":{"android":"levelo://app?vid=ba541a52-7e4e-4241-9791-ae6f1fb03dcd","ios":"levelo://app?vid=ba541a52-7e4e-4241-9791-ae6f1fb03dcd"},"vehicle_type_id":"4","last_reported":1761995220,"current_range_meters":17600,"station_id":"","pricing_plan_id":"cebpf4jnsgd1na2vs0mg"},{"bike_id":"1407ca8e-dc3a-4c83-932b-399155c17789","system_id":"levelo_inurba_marseille","lat":43.279111,"lon":5.380165,"is_reserved":false,"is_disabled":false,"rental_uris":{"android":"levelo://app?vid=1407ca8e-dc3a-4c83-932b-399155c17789","ios":"levelo://app?vid=1407ca8e-dc3a-4c83-932b-399155c17789"},"vehicle_type_id":"4","last_reported":1761995220,"current_range_meters":18000,"station_id":"ce4bhf92rcd13ifvqf50","pricing_plan_id":"cebpf4jnsgd1na2vs0mg"},{"bike_id":"c7d57f9b-8ba9-4435-ac3b-54d333c0b4c7","system_id":"levelo_inurba_marseille","lat":43.323621,"lon":5.367446,"is_reserved":false,"is_disabled":false,"rental_uris":{"android":"levelo://app?vid=c7d57f9b-8ba9-4435-ac3b-54d333c0b4c7","ios":"levelo://app?vid=c7d57f9b-8ba9-4435-ac3b-54d333c0b4c7"},"vehicle_type_id":"4","last_reported":1761995220,"current_range_meters":18000,"station_id":"ce4bhsh2rcd13ifvqi2g","pricing_plan_id":"cebpf4jnsgd1na2vs0mg"},{"bike_id":"2b3e261d-3c1c-4dce-a3ed-76fdb3f40227","system_id":"levelo_inurba_marseille","lat":43.249993,"lon":5.389243,"is_reserved":false,"is_disabled":false,"rental_uris":{"android":"levelo://app?vid=2b3e261d-3c1c-4dce-a3ed-76fdb3f40227","ios":"levelo://app?vid=2b3e261d-3c1c-4dce-a3ed-76fdb3f40227"},"vehicle_type_id":"4","last_reported":1761995220,"current_range_meters":18000,"station_id":"ce4bhgp2rcd13ifvqfd0","pricing_plan_id":"cebpf4jnsgd1na2vs0mg"},{"bike_id":"ce6f105d-cc72-46c1-9abc-063a32145241","system_id":"levelo_inurba_marseille","lat":43.28616,"lon":5.35107,"is_reserved":false,"is_disabled":false,"rental_uris":{"android":"levelo://app?vid=ce6f105d-cc72-46c1-9abc-063a32145241","ios":"levelo://app?vid=ce6f105d-cc72-46c1-9abc-063a32145241"},"vehicle_type_id":"4","last_reported":1761995220,"current_range_meters":18000,"station_id":"ce4bhch2rcd13ifvqeug","pricing_plan_id":"cebpf4jnsgd1na2vs0mg"},{"bike_id":"7b0eaa70-7657-4098-8e47-f6fae1ad1d21","system_id":"levelo_inurba_marseille","lat":43.25868,"lon":5.3988,"is_reserved":false,"is_disabled":false,"rental_uris":{"android":"levelo://app?vid=7b0eaa70-7657-4098-8e47-f6fae1ad1d21","ios":"levelo://app?vid=7b0eaa70-7657-4098-8e47-f6fae1ad1d21"},"vehicle_type_id":"4","last_reported":1761995220,"current_range_meters":18000,"station_id":"ce4bhl92rcd13ifvqghg","pricing_plan_id":"cebpf4jnsgd1na2vs0mg"},{"bike_id":"465191f7-9511-4939-a863-d2a67de6fa5b","system_id":"levelo_inurba_marseille","lat":43.30306,"lon":5.36898,"is_reserved":false,"is_disabled":false,"rental_uris":{"android":"levelo://app?vid=465191f7-9511-4939-a863-d2a67de6fa5b","ios":"levelo://app?vid=465191f7-9511-4939-a863-d2a67de6fa5b"},"vehicle_type_id":"4","last_reported":1761995220,"current_range_meters":18000,"station_id":"ce4bgqh2rcd13ifvqc5g","pricing_plan_id":"cebpf4jnsgd1na2vs0mg"},{"bike_id":"2a32e756-8076-4328-a472-196c9c9d4e25","system_id":"levelo_inurba_marseille","lat":43.28609,"lon":5.37069,"is_reserved":false,"is_disabled":false,"rental_uris":{"android":"levelo://app?vid=2a32e756-8076-4328-a472-196c9c9d4e25","ios":"levelo://app?vid=2a32e756-8076-4328-a472-196c9c9d4e25"},"vehicle_type_id":"4","last_reported":1761995220,"current_range_meters":18000,"station_id":"ce4bht12rcd13ifvqi60","pricing_plan_id":"cebpf4jnsgd1na2vs0mg"},{"bike_id":"12a18d4a-7b67-4876-88d1-1820554fc400","system_id":"levelo_inurba_marseille","lat":43.297438,"lon":5.381002,"is_reserved":false,"is_disabled":false,"rental_uris":{"android":"levelo://app?vid=12a18d4a-7b67-4876-88d1-1820554fc400","ios":"levelo://app?vid=12a18d4a-7b67-4876-88d1-1820554fc400"},"vehicle_type_id":"4","last_reported":1761995220,"current_range_meters":18800,"station_id":"","pricing_plan_id":"cebpf4jnsgd1na2vs0mg"},{"bike_id":"2dd44c6c-93a7-4ac9-b00f-2127834c61c3","system_id":"levelo_inurba_marseille","lat":43.2511,"lon":5.4032,"is_reserved":false,"is_disabled":false,"rental_uris":{"android":"levelo://app?vid=2dd44c6c-93a7-4ac9-b00f-2127834c61c3","ios":"levelo://app?vid=2dd44c6c-93a7-4ac9-b00f-2127834c61c3"},"vehicle_type_id":"4","last_reported":1761995220,"current_range_meters":18800,"station_id":"ce4bhlh2rcd13ifvqgig","pricing_plan_id":"cebpf4jnsgd1na2vs0mg"},{"bike_id":"84f1bfac-8d21-499b-b8e1-fdc8049e10ac","system_id":"levelo_inurba_marseille","lat":43.31286,"lon":5.37741,"is_reserved":false,"is_disabled":false,"rental_uris":{"android":"levelo://app?vid=84f1bfac-8d21-499b-b8e1-fdc8049e10ac","ios":"levelo://app?vid=84f1bfac-8d21-499b-b8e1-fdc8049e10ac"},"vehicle_type_id":"4","last_reported":1761995220,"current_range_meters":18800,"station_id":"","pricing_plan_id":"cebpf4jnsgd1na2vs0mg"},{"bike_id":"7faa217f-bf9b-4fae-a2a5-605e5bc6065e","system_id":"levelo_inurba_marseille","lat":43.27915,"lon":5.38016,"is_reserved":false,"is_disabled":false,"rental_uris":{"android":"levelo://app?vid=7faa217f-bf9b-4fae-a2a5-605e5bc6065e","ios":"levelo://app?vid=7faa217f-bf9b-4fae-a2a5-605e5bc6065e"},"vehicle_type_id":"4","last_reported":1761995220,"current_range_meters":18800,"station_id":"ce4bhf92rcd13ifvqf50","pricing_plan_id":"cebpf4jnsgd1na2vs0mg"},{"bike_id":"085e7e36-63e4-4e80-adbe-0ea1be54531a","system_id":"levelo_inurba_marseille","lat":43.26208,"lon":5.3744,"is_reserved":false,"is_disabled":false,"rental_uris":{"android":"levelo://app?vid=085e7e36-63e4-4e80-adbe-0ea1be54531a","ios":"levelo://app?vid=085e7e36-63e4-4e80-adbe-0ea1be54531a"},"vehicle_type_id":"4","last_reported":1761995220,"current_range_meters":18800,"station_id":"ce4bhgp2rcd13ifvqfc0","pricing_plan_id":"cebpf4jnsgd1na2vs0mg"},{"bike_id":"294d1ff9-24a0-4d63-b3df-e8ffc797a747","system_id":"levelo_inurba_marseille","lat":43.26191,"lon":5.37444,"is_reserved":false,"is_disabled":false,"rental_uris":{"android":"levelo://app?vid=294d1ff9-24a0-4d63-b3df-e8ffc797a747","ios":"levelo://app?vid=294d1ff9-24a0-4d63-b3df-e8ffc797a747"},"vehicle_type_id":"4","last_reported":1761995220,"current_range_meters":18800,"station_id":"ce4bhgp2rcd13ifvqfc0","pricing_plan_id":"cebpf4jnsgd1na2vs0mg"},{"bike_id":"fbc899d2-8c60-432e-a054-080f9183e9de","system_id":"levelo_inurba_marseille","lat":43.25329,"lon":5.42162,"is_reserved":false,"is_disabled":false,"rental_uris":{"android":"levelo://app?vid=fbc899d2-8c60-432e-a054-080f9183e9de","ios":"levelo://app?vid=fbc899d2-8c60-432e-a054-080f9183e9de"},"vehicle_type_id":"4","last_reported":1761995220,"current_range_meters":19200,"station_id":"st_d2m65c5bi1j21697t3ng","pricing_plan_id":"cebpf4jnsgd1na2vs0mg"},{"bike_id":"8fe725be-144a-49ec-b015-eec45ec0c6cf","system_id":"levelo_inurba_marseille","lat":43.28469,"lon":5.38419,"is_reserved":false,"is_disabled":false,"rental_uris":{"android":"levelo://app?vid=8fe725be-144a-49ec-b015-eec45ec0c6cf","ios":"levelo://app?vid=8fe725be-144a-49ec-b015-eec45ec0c6cf"},"vehicle_type_id":"4","last_reported":1761995220,"current_range_meters":19200,"station_id":"ce4bh512rcd13ifvqe3g","pricing_plan_id":"cebpf4jnsgd1na2vs0mg"},{"bike_id":"fd2a3e15-d6ed-4064-b7e2-d83799925ad0","system_id":"levelo_inurba_marseille","lat":43.29738,"lon":5.42781,"is_reserved":false,"is_disabled":false,"rental_uris":{"android":"levelo://app?vid=fd2a3e15-d6ed-4064-b7e2-d83799925ad0","ios":"levelo://app?vid=fd2a3e15-d6ed-4064-b7e2-d83799925ad0"},"vehicle_type_id":"4","last_reported":1761995220,"current_range_meters":19200,"station_id":"st_d3md5207bmas73dh9klg","pricing_plan_id":"cebpf4jnsgd1na2vs0mg"},{"bike_id":"708ba87a-b6fe-412b-b52f-b23f135c4cda","system_id":"levelo_inurba_marseille","lat":43.268091,"lon":5.402582,"is_reserved":false,"is_disabled":false,"rental_uris":{"android":"levelo://app?vid=708ba87a-b6fe-412b-b52f-b23f135c4cda","ios":"levelo://app?vid=708ba87a-b6fe-412b-b52f-b23f135c4cda"},"vehicle_type_id":"4","last_reported":1761995220,"current_range_meters":19200,"station_id":"ce501612rcd8frsf0b60","pricing_plan_id":"cebpf4jnsgd1na2vs0mg"},{"bike_id":"9b0d9e28-79a3-4616-8e57-580f61942c1e","system_id":"levelo_inurba_marseille","lat":43.28806,"lon":5.38561,"is_reserved":false,"is_disabled":false,"rental_uris":{"android":"levelo://app?vid=9b0d9e28-79a3-4616-8e57-580f61942c1e","ios":"levelo://app?vid=9b0d9e28-79a3-4616-8e57-580f61942c1e"},"vehicle_type_id":"4","last_reported":1761995220,"current_range_meters":19200,"station_id":"","pricing_plan_id":"cebpf4jnsgd1na2vs0mg"},{"bike_id":"5aa114a0-e140-435a-b7fd-e84f56db3802","system_id":"levelo_inurba_marseille","lat":43.28407,"lon":5.37507,"is_reserved":false,"is_disabled":false,"rental_uris":{"android":"levelo://app?vid=5aa114a0-e140-435a-b7fd-e84f56db3802","ios":"levelo://app?vid=5aa114a0-e140-435a-b7fd-e84f56db3802"},"vehicle_type_id":"4","last_reported":1761995220,"current_range_meters":19200,"station_id":"ce4bh412rcd13ifvqds0","pricing_plan_id":"cebpf4jnsgd1na2vs0mg"},{"bike_id":"4524a7aa-8865-407f-8bbd-cbb719dd4f0f","system_id":"levelo_inurba_marseille","lat":43.29547,"lon":5.38553,"is_reserved":false,"is_disabled":false,"rental_uris":{"android":"levelo://app?vid=4524a7aa-8865-407f-8bbd-cbb719dd4f0f","ios":"levelo://app?vid=4524a7aa-8865-407f-8bbd-cbb719dd4f0f"},"vehicle_type_id":"4","last_reported":1761995220,"current_range_meters":19600,"station_id":"ce4bgih2rcd13ifvqba0","pricing_plan_id":"cebpf4jnsgd1na2vs0mg"},{"bike_id":"7553bb77-76ff-4a93-9580-1b89d0e1631a","system_id":"levelo_inurba_marseille","lat":43.29298,"lon":5.37458,"is_reserved":false,"is_disabled":false,"rental_uris":{"android":"levelo://app?vid=7553bb77-76ff-4a93-9580-1b89d0e1631a","ios":"levelo://app?vid=7553bb77-76ff-4a93-9580-1b89d0e1631a"},"vehicle_type_id":"4","last_reported":1761995220,"current_range_meters":19600,"station_id":"ce4bgi12rcd13ifvqb70","pricing_plan_id":"cebpf4jnsgd1na2vs0mg"},{"bike_id":"8adef542-af60-4b61-8a5b-4b604c3bcfe4","system_id":"levelo_inurba_marseille","lat":43.24643,"lon":5.43137,"is_reserved":false,"is_disabled":false,"rental_uris":{"android":"levelo://app?vid=8adef542-af60-4b61-8a5b-4b604c3bcfe4","ios":"levelo://app?vid=8adef542-af60-4b61-8a5b-4b604c3bcfe4"},"vehicle_type_id":"4","last_reported":1761995220,"current_range_meters":19600,"station_id":"st_d2m6c4gdas8pm72e190g","pricing_plan_id":"cebpf4jnsgd1na2vs0mg"},{"bike_id":"72667045-b816-48de-95ee-6e55de9900ca","system_id":"levelo_inurba_marseille","lat":43.25095,"lon":5.40338,"is_reserved":false,"is_disabled":false,"rental_uris":{"android":"levelo://app?vid=72667045-b816-48de-95ee-6e55de9900ca","ios":"levelo://app?vid=72667045-b816-48de-95ee-6e55de9900ca"},"vehicle_type_id":"4","last_reported":1761995220,"current_range_meters":19600,"station_id":"ce4bhlh2rcd13ifvqgig","pricing_plan_id":"cebpf4jnsgd1na2vs0mg"},{"bike_id":"82307e5d-1d88-4836-b33e-a10a4da30997","system_id":"levelo_inurba_marseille","lat":43.26564,"lon":5.403147,"is_reserved":false,"is_disabled":false,"rental_uris":{"android":"levelo://app?vid=82307e5d-1d88-4836-b33e-a10a4da30997","ios":"levelo://app?vid=82307e5d-1d88-4836-b33e-a10a4da30997"},"vehicle_type_id":"4","last_reported":1761995220,"current_range_meters":19600,"station_id":"ce4bhmp2rcd13ifvqgng","pricing_plan_id":"cebpf4jnsgd1na2vs0mg"},{"bike_id":"b5e49cce-4c50-4c05-8029-916464358c9e","system_id":"levelo_inurba_marseille","lat":43.229352,"lon":5.353766,"is_reserved":false,"is_disabled":false,"rental_uris":{"android":"levelo://app?vid=b5e49cce-4c50-4c05-8029-916464358c9e","ios":"levelo://app?vid=b5e49cce-4c50-4c05-8029-916464358c9e"},"vehicle_type_id":"4","last_reported":1761995220,"current_range_meters":19600,"station_id":"","pricing_plan_id":"cebpf4jnsgd1na2vs0mg"},{"bike_id":"4c1896d9-a522-438b-a603-2b8556bd3edb","system_id":"levelo_inurba_marseille","lat":43.2119,"lon":5.35077,"is_reserved":false,"is_disabled":false,"rental_uris":{"android":"levelo://app?vid=4c1896d9-a522-438b-a603-2b8556bd3edb","ios":"levelo://app?vid=4c1896d9-a522-438b-a603-2b8556bd3edb"},"vehicle_type_id":"4","last_reported":1761995220,"current_range_meters":19600,"station_id":"st_cvj6sg6p6f1abm77japg","pricing_plan_id":"cebpf4jnsgd1na2vs0mg"},{"bike_id":"dd70bcc2-2e6b-447f-adc2-e0826cf93554","system_id":"levelo_inurba_marseille","lat":43.31913,"lon":5.40145,"is_reserved":false,"is_disabled":false,"rental_uris":{"android":"levelo://app?vid=dd70bcc2-2e6b-447f-adc2-e0826cf93554","ios":"levelo://app?vid=dd70bcc2-2e6b-447f-adc2-e0826cf93554"},"vehicle_type_id":"4","last_reported":1761995220,"current_range_meters":19600,"station_id":"","pricing_plan_id":"cebpf4jnsgd1na2vs0mg"},{"bike_id":"4310e05b-fcc4-43d7-bc0f-1aaabebdc73b","system_id":"levelo_inurba_marseille","lat":43.28619,"lon":5.35101,"is_reserved":false,"is_disabled":false,"rental_uris":{"android":"levelo://app?vid=4310e05b-fcc4-43d7-bc0f-1aaabebdc73b","ios":"levelo://app?vid=4310e05b-fcc4-43d7-bc0f-1aaabebdc73b"},"vehicle_type_id":"4","last_reported":1761995220,"current_range_meters":19600,"station_id":"ce4bhch2rcd13ifvqeug","pricing_plan_id":"cebpf4jnsgd1na2vs0mg"},{"bike_id":"423802bb-722e-4533-9018-c0f75cce34a6","system_id":"levelo_inurba_marseille","lat":43.30669,"lon":5.381709,"is_reserved":false,"is_disabled":false,"rental_uris":{"android":"levelo://app?vid=423802bb-722e-4533-9018-c0f75cce34a6","ios":"levelo://app?vid=423802bb-722e-4533-9018-c0f75cce34a6"},"vehicle_type_id":"4","last_reported":1761995220,"current_range_meters":20000,"station_id":"","pricing_plan_id":"cebpf4jnsgd1na2vs0mg"},{"bike_id":"de0ca7a8-116a-46c8-8c50-6b445a473423","system_id":"levelo_inurba_marseille","lat":43.28874,"lon":5.4253,"is_reserved":false,"is_disabled":false,"rental_uris":{"android":"levelo://app?vid=de0ca7a8-116a-46c8-8c50-6b445a473423","ios":"levelo://app?vid=de0ca7a8-116a-46c8-8c50-6b445a473423"},"vehicle_type_id":"4","last_reported":1761995220,"current_range_meters":20000,"station_id":"st_d3b462108ojc7389ooeg","pricing_plan_id":"cebpf4jnsgd1na2vs0mg"},{"bike_id":"5f542203-3edd-4d90-87f8-32b331d43d67","system_id":"levelo_inurba_marseille","lat":43.30221,"lon":5.39468,"is_reserved":false,"is_disabled":false,"rental_uris":{"android":"levelo://app?vid=5f542203-3edd-4d90-87f8-32b331d43d67","ios":"levelo://app?vid=5f542203-3edd-4d90-87f8-32b331d43d67"},"vehicle_type_id":"4","last_reported":1761995220,"current_range_meters":20000,"station_id":"ce4bh0p2rcd13ifvqd70","pricing_plan_id":"cebpf4jnsgd1na2vs0mg"},{"bike_id":"f20f3629-12f9-4df4-b72e-3fb18082368c","system_id":"levelo_inurba_marseille","lat":43.24073,"lon":5.37739,"is_reserved":false,"is_disabled":false,"rental_uris":{"android":"levelo://app?vid=f20f3629-12f9-4df4-b72e-3fb18082368c","ios":"levelo://app?vid=f20f3629-12f9-4df4-b72e-3fb18082368c"},"vehicle_type_id":"4","last_reported":1761995220,"current_range_meters":20000,"station_id":"ce4bhnp2rcd13ifvqgvg","pricing_plan_id":"cebpf4jnsgd1na2vs0mg"},{"bike_id":"a8908e00-aac4-4a26-b2bb-e06216688705","system_id":"levelo_inurba_marseille","lat":43.30149,"lon":5.38062,"is_reserved":false,"is_disabled":false,"rental_uris":{"android":"levelo://app?vid=a8908e00-aac4-4a26-b2bb-e06216688705","ios":"levelo://app?vid=a8908e00-aac4-4a26-b2bb-e06216688705"},"vehicle_type_id":"4","last_reported":1761995220,"current_range_meters":20400,"station_id":"ce4bgjp2rcd13ifvqbh0","pricing_plan_id":"cebpf4jnsgd1na2vs0mg"},{"bike_id":"b6a0c129-a79c-4204-982b-e2ebda569511","system_id":"levelo_inurba_marseille","lat":43.298403,"lon":5.362687,"is_reserved":false,"is_disabled":false,"rental_uris":{"android":"levelo://app?vid=b6a0c129-a79c-4204-982b-e2ebda569511","ios":"levelo://app?vid=b6a0c129-a79c-4204-982b-e2ebda569511"},"vehicle_type_id":"4","last_reported":1761995220,"current_range_meters":20400,"station_id":"ce4bgpp2rcd13ifvqc3g","pricing_plan_id":"cebpf4jnsgd1na2vs0mg"},{"bike_id":"d0fed751-922f-49cc-8c48-e0fe4a18bcc8","system_id":"levelo_inurba_marseille","lat":43.30156,"lon":5.38077,"is_reserved":false,"is_disabled":false,"rental_uris":{"android":"levelo://app?vid=d0fed751-922f-49cc-8c48-e0fe4a18bcc8","ios":"levelo://app?vid=d0fed751-922f-49cc-8c48-e0fe4a18bcc8"},"vehicle_type_id":"4","last_reported":1761995220,"current_range_meters":20400,"station_id":"ce4bgjp2rcd13ifvqbh0","pricing_plan_id":"cebpf4jnsgd1na2vs0mg"},{"bike_id":"6eb523a4-350d-4959-ac5e-1335d8f70954","system_id":"levelo_inurba_marseille","lat":43.315717,"lon":5.406423,"is_reserved":false,"is_disabled":false,"rental_uris":{"android":"levelo://app?vid=6eb523a4-350d-4959-ac5e-1335d8f70954","ios":"levelo://app?vid=6eb523a4-350d-4959-ac5e-1335d8f70954"},"vehicle_type_id":"4","last_reported":1761995220,"current_range_meters":20400,"station_id":"","pricing_plan_id":"cebpf4jnsgd1na2vs0mg"},{"bike_id":"60eec4e7-a137-47ab-bd2e-fa907653edd6","system_id":"levelo_inurba_marseille","lat":43.29293,"lon":5.37465,"is_reserved":false,"is_disabled":false,"rental_uris":{"android":"levelo://app?vid=60eec4e7-a137-47ab-bd2e-fa907653edd6","ios":"levelo://app?vid=60eec4e7-a137-47ab-bd2e-fa907653edd6"},"vehicle_type_id":"4","last_reported":1761995220,"current_range_meters":20400,"station_id":"ce4bgi12rcd13ifvqb70","pricing_plan_id":"cebpf4jnsgd1na2vs0mg"},{"bike_id":"f3062b70-51c4-4472-8a19-60bbd898a69b","system_id":"levelo_inurba_marseille","lat":43.296882,"lon":5.381053,"is_reserved":false,"is_disabled":false,"rental_uris":{"android":"levelo://app?vid=f3062b70-51c4-4472-8a19-60bbd898a69b","ios":"levelo://app?vid=f3062b70-51c4-4472-8a19-60bbd898a69b"},"vehicle_type_id":"4","last_reported":1761995220,"current_range_meters":20400,"station_id":"","pricing_plan_id":"cebpf4jnsgd1na2vs0mg"},{"bike_id":"9768d706-3f88-4a1d-a33d-fc58f1b93400","system_id":"levelo_inurba_marseille","lat":43.30301,"lon":5.36886,"is_reserved":false,"is_disabled":false,"rental_uris":{"android":"levelo://app?vid=9768d706-3f88-4a1d-a33d-fc58f1b93400","ios":"levelo://app?vid=9768d706-3f88-4a1d-a33d-fc58f1b93400"},"vehicle_type_id":"4","last_reported":1761995220,"current_range_meters":20400,"station_id":"ce4bgqh2rcd13ifvqc5g","pricing_plan_id":"cebpf4jnsgd1na2vs0mg"},{"bike_id":"20c7bad9-32fc-4dd7-bc49-c99c74f64ba6","system_id":"levelo_inurba_marseille","lat":43.23186,"lon":5.35531,"is_reserved":false,"is_disabled":false,"rental_uris":{"android":"levelo://app?vid=20c7bad9-32fc-4dd7-bc49-c99c74f64ba6","ios":"levelo://app?vid=20c7bad9-32fc-4dd7-bc49-c99c74f64ba6"},"vehicle_type_id":"4","last_reported":1761995220,"current_range_meters":20800,"station_id":"ce4bhu92rcd13ifvqi70","pricing_plan_id":"cebpf4jnsgd1na2vs0mg"},{"bike_id":"066ede02-47a2-4c83-bcb1-7eb633a370fb","system_id":"levelo_inurba_marseille","lat":43.3127,"lon":5.37766,"is_reserved":false,"is_disabled":false,"rental_uris":{"android":"levelo://app?vid=066ede02-47a2-4c83-bcb1-7eb633a370fb","ios":"levelo://app?vid=066ede02-47a2-4c83-bcb1-7eb633a370fb"},"vehicle_type_id":"4","last_reported":1761995220,"current_range_meters":20800,"station_id":"","pricing_plan_id":"cebpf4jnsgd1na2vs0mg"},{"bike_id":"986d7965-1c0e-4cfb-91d2-20b5cb0e0d20","system_id":"levelo_inurba_marseille","lat":43.29248,"lon":5.38438,"is_reserved":false,"is_disabled":true,"rental_uris":{"android":"levelo://app?vid=986d7965-1c0e-4cfb-91d2-20b5cb0e0d20","ios":"levelo://app?vid=986d7965-1c0e-4cfb-91d2-20b5cb0e0d20"},"vehicle_type_id":"4","last_reported":1761995220,"current_range_meters":20800,"station_id":"ce4bh692rcd13ifvqea0","pricing_plan_id":"cebpf4jnsgd1na2vs0mg"},{"bike_id":"ed062260-216a-4006-a7b0-960c217412b1","system_id":"levelo_inurba_marseille","lat":43.28732,"lon":5.37976,"is_reserved":false,"is_disabled":false,"rental_uris":{"android":"levelo://app?vid=ed062260-216a-4006-a7b0-960c217412b1","ios":"levelo://app?vid=ed062260-216a-4006-a7b0-960c217412b1"},"vehicle_type_id":"4","last_reported":1761995220,"current_range_meters":20800,"station_id":"ce4bh9p2rcd13ifvqec0","pricing_plan_id":"cebpf4jnsgd1na2vs0mg"},{"bike_id":"ea981441-de44-4e91-a60f-0f3605343256","system_id":"levelo_inurba_marseille","lat":43.32365,"lon":5.36759,"is_reserved":false,"is_disabled":false,"rental_uris":{"android":"levelo://app?vid=ea981441-de44-4e91-a60f-0f3605343256","ios":"levelo://app?vid=ea981441-de44-4e91-a60f-0f3605343256"},"vehicle_type_id":"4","last_reported":1761995220,"current_range_meters":20800,"station_id":"ce4bhsh2rcd13ifvqi2g","pricing_plan_id":"cebpf4jnsgd1na2vs0mg"},{"bike_id":"f12cda4c-f18d-49c7-808c-3a750cd25b47","system_id":"levelo_inurba_marseille","lat":43.25502,"lon":5.37649,"is_reserved":false,"is_disabled":false,"rental_uris":{"android":"levelo://app?vid=f12cda4c-f18d-49c7-808c-3a750cd25b47","ios":"levelo://app?vid=f12cda4c-f18d-49c7-808c-3a750cd25b47"},"vehicle_type_id":"4","last_reported":1761995220,"current_range_meters":20800,"station_id":"ce4bhh12rcd13ifvqff0","pricing_plan_id":"cebpf4jnsgd1na2vs0mg"},{"bike_id":"b3164c72-4a1f-4867-91cf-aa9679d88bed","system_id":"levelo_inurba_marseille","lat":43.25489,"lon":5.37643,"is_reserved":false,"is_disabled":false,"rental_uris":{"android":"levelo://app?vid=b3164c72-4a1f-4867-91cf-aa9679d88bed","ios":"levelo://app?vid=b3164c72-4a1f-4867-91cf-aa9679d88bed"},"vehicle_type_id":"4","last_reported":1761995220,"current_range_meters":20800,"station_id":"ce4bhh12rcd13ifvqff0","pricing_plan_id":"cebpf4jnsgd1na2vs0mg"},{"bike_id":"8fb929af-3718-432f-b2e9-c5686e78e5da","system_id":"levelo_inurba_marseille","lat":43.28436,"lon":5.39193,"is_reserved":false,"is_disabled":false,"rental_uris":{"android":"levelo://app?vid=8fb929af-3718-432f-b2e9-c5686e78e5da","ios":"levelo://app?vid=8fb929af-3718-432f-b2e9-c5686e78e5da"},"vehicle_type_id":"4","last_reported":1761995220,"current_range_meters":21600,"station_id":"ce4bhoh2rcd13ifvqh5g","pricing_plan_id":"cebpf4jnsgd1na2vs0mg"},{"bike_id":"5014185b-2eeb-4224-ba9c-2f00b18fd543","system_id":"levelo_inurba_marseille","lat":43.301227,"lon":5.398627,"is_reserved":false,"is_disabled":false,"rental_uris":{"android":"levelo://app?vid=5014185b-2eeb-4224-ba9c-2f00b18fd543","ios":"levelo://app?vid=5014185b-2eeb-4224-ba9c-2f00b18fd543"},"vehicle_type_id":"4","last_reported":1761995220,"current_range_meters":21600,"station_id":"ce4bh0h2rcd13ifvqd40","pricing_plan_id":"cebpf4jnsgd1na2vs0mg"},{"bike_id":"2198b023-8001-46e9-b0fa-a8ceaafa5eb1","system_id":"levelo_inurba_marseille","lat":43.28254,"lon":5.35057,"is_reserved":false,"is_disabled":false,"rental_uris":{"android":"levelo://app?vid=2198b023-8001-46e9-b0fa-a8ceaafa5eb1","ios":"levelo://app?vid=2198b023-8001-46e9-b0fa-a8ceaafa5eb1"},"vehicle_type_id":"4","last_reported":1761995220,"current_range_meters":21600,"station_id":"ce4bhbp2rcd13ifvqerg","pricing_plan_id":"cebpf4jnsgd1na2vs0mg"},{"bike_id":"fe2272ea-7316-4280-b90c-d8c4db7bc73e","system_id":"levelo_inurba_marseille","lat":43.27942,"lon":5.39291,"is_reserved":false,"is_disabled":false,"rental_uris":{"android":"levelo://app?vid=fe2272ea-7316-4280-b90c-d8c4db7bc73e","ios":"levelo://app?vid=fe2272ea-7316-4280-b90c-d8c4db7bc73e"},"vehicle_type_id":"4","last_reported":1761995220,"current_range_meters":21600,"station_id":"","pricing_plan_id":"cebpf4jnsgd1na2vs0mg"},{"bike_id":"cc475582-0cc3-4b14-a66c-6041b0d2e976","system_id":"levelo_inurba_marseille","lat":43.29322,"lon":5.41127,"is_reserved":false,"is_disabled":false,"rental_uris":{"android":"levelo://app?vid=cc475582-0cc3-4b14-a66c-6041b0d2e976","ios":"levelo://app?vid=cc475582-0cc3-4b14-a66c-6041b0d2e976"},"vehicle_type_id":"4","last_reported":1761995220,"current_range_meters":21600,"station_id":"","pricing_plan_id":"cebpf4jnsgd1na2vs0mg"},{"bike_id":"b9bcc9f7-b4f0-4136-b249-029fc017335d","system_id":"levelo_inurba_marseille","lat":43.27048,"lon":5.40264,"is_reserved":false,"is_disabled":false,"rental_uris":{"android":"levelo://app?vid=b9bcc9f7-b4f0-4136-b249-029fc017335d","ios":"levelo://app?vid=b9bcc9f7-b4f0-4136-b249-029fc017335d"},"vehicle_type_id":"4","last_reported":1761995220,"current_range_meters":21600,"station_id":"ce4bhk92rcd13ifvqgc0","pricing_plan_id":"cebpf4jnsgd1na2vs0mg"},{"bike_id":"aa56963e-5f6a-4043-b1c7-23e4d9f05d8c","system_id":"levelo_inurba_marseille","lat":43.313499,"lon":5.379119,"is_reserved":false,"is_disabled":false,"rental_uris":{"android":"levelo://app?vid=aa56963e-5f6a-4043-b1c7-23e4d9f05d8c","ios":"levelo://app?vid=aa56963e-5f6a-4043-b1c7-23e4d9f05d8c"},"vehicle_type_id":"4","last_reported":1761995220,"current_range_meters":21600,"station_id":"","pricing_plan_id":"cebpf4jnsgd1na2vs0mg"},{"bike_id":"fd8d76ee-a758-411a-bd8e-65c031bc9d17","system_id":"levelo_inurba_marseille","lat":43.22929,"lon":5.35375,"is_reserved":false,"is_disabled":false,"rental_uris":{"android":"levelo://app?vid=fd8d76ee-a758-411a-bd8e-65c031bc9d17","ios":"levelo://app?vid=fd8d76ee-a758-411a-bd8e-65c031bc9d17"},"vehicle_type_id":"4","last_reported":1761995220,"current_range_meters":21600,"station_id":"cpo3532slgdg3j2ikp40","pricing_plan_id":"cebpf4jnsgd1na2vs0mg"},{"bike_id":"ac22e436-8f12-4ec1-9035-73445f95f68a","system_id":"levelo_inurba_marseille","lat":43.26479,"lon":5.39515,"is_reserved":false,"is_disabled":false,"rental_uris":{"android":"levelo://app?vid=ac22e436-8f12-4ec1-9035-73445f95f68a","ios":"levelo://app?vid=ac22e436-8f12-4ec1-9035-73445f95f68a"},"vehicle_type_id":"4","last_reported":1761995220,"current_range_meters":21600,"station_id":"ce4bhi12rcd13ifvqfq0","pricing_plan_id":"cebpf4jnsgd1na2vs0mg"},{"bike_id":"5d2a61a2-5394-4f78-8498-97c826eef2e0","system_id":"levelo_inurba_marseille","lat":43.28407,"lon":5.37509,"is_reserved":false,"is_disabled":false,"rental_uris":{"android":"levelo://app?vid=5d2a61a2-5394-4f78-8498-97c826eef2e0","ios":"levelo://app?vid=5d2a61a2-5394-4f78-8498-97c826eef2e0"},"vehicle_type_id":"4","last_reported":1761995220,"current_range_meters":22000,"station_id":"ce4bh412rcd13ifvqds0","pricing_plan_id":"cebpf4jnsgd1na2vs0mg"},{"bike_id":"65959e76-2dec-43d3-b15c-b4e7433182fd","system_id":"levelo_inurba_marseille","lat":43.293631,"lon":5.371955,"is_reserved":false,"is_disabled":false,"rental_uris":{"android":"levelo://app?vid=65959e76-2dec-43d3-b15c-b4e7433182fd","ios":"levelo://app?vid=65959e76-2dec-43d3-b15c-b4e7433182fd"},"vehicle_type_id":"4","last_reported":1761995220,"current_range_meters":22000,"station_id":"","pricing_plan_id":"cebpf4jnsgd1na2vs0mg"},{"bike_id":"e53e30cd-2a1c-47b2-a58f-47c395ea8d44","system_id":"levelo_inurba_marseille","lat":43.24645,"lon":5.38887,"is_reserved":false,"is_disabled":false,"rental_uris":{"android":"levelo://app?vid=e53e30cd-2a1c-47b2-a58f-47c395ea8d44","ios":"levelo://app?vid=e53e30cd-2a1c-47b2-a58f-47c395ea8d44"},"vehicle_type_id":"4","last_reported":1761995220,"current_range_meters":22000,"station_id":"ce4bhg12rcd13ifvqf60","pricing_plan_id":"cebpf4jnsgd1na2vs0mg"},{"bike_id":"c695b713-3bc3-411d-b98f-7753f873ef56","system_id":"levelo_inurba_marseille","lat":43.28602,"lon":5.37127,"is_reserved":false,"is_disabled":false,"rental_uris":{"android":"levelo://app?vid=c695b713-3bc3-411d-b98f-7753f873ef56","ios":"levelo://app?vid=c695b713-3bc3-411d-b98f-7753f873ef56"},"vehicle_type_id":"4","last_reported":1761995220,"current_range_meters":22000,"station_id":"ce4bht12rcd13ifvqi60","pricing_plan_id":"cebpf4jnsgd1na2vs0mg"},{"bike_id":"68138fd3-5e99-41c7-8268-864a7b1fbab1","system_id":"levelo_inurba_marseille","lat":43.254975,"lon":5.376503,"is_reserved":false,"is_disabled":false,"rental_uris":{"android":"levelo://app?vid=68138fd3-5e99-41c7-8268-864a7b1fbab1","ios":"levelo://app?vid=68138fd3-5e99-41c7-8268-864a7b1fbab1"},"vehicle_type_id":"4","last_reported":1761995220,"current_range_meters":22000,"station_id":"ce4bhh12rcd13ifvqff0","pricing_plan_id":"cebpf4jnsgd1na2vs0mg"},{"bike_id":"beed1966-8b09-448b-a00b-57602d89131c","system_id":"levelo_inurba_marseille","lat":43.280986,"lon":5.396527,"is_reserved":false,"is_disabled":false,"rental_uris":{"android":"levelo://app?vid=beed1966-8b09-448b-a00b-57602d89131c","ios":"levelo://app?vid=beed1966-8b09-448b-a00b-57602d89131c"},"vehicle_type_id":"4","last_reported":1761995220,"current_range_meters":22400,"station_id":"ce4bh8p2rcd13ifvqeb0","pricing_plan_id":"cebpf4jnsgd1na2vs0mg"},{"bike_id":"fcc7a5b9-eb88-45bf-aebf-cf96cca8c3ef","system_id":"levelo_inurba_marseille","lat":43.2468,"lon":5.3815,"is_reserved":false,"is_disabled":false,"rental_uris":{"android":"levelo://app?vid=fcc7a5b9-eb88-45bf-aebf-cf96cca8c3ef","ios":"levelo://app?vid=fcc7a5b9-eb88-45bf-aebf-cf96cca8c3ef"},"vehicle_type_id":"4","last_reported":1761995220,"current_range_meters":22400,"station_id":"ce4bhih2rcd13ifvqfr0","pricing_plan_id":"cebpf4jnsgd1na2vs0mg"},{"bike_id":"ba7fe203-ff89-4a8c-ae21-8e9c552dd536","system_id":"levelo_inurba_marseille","lat":43.330253,"lon":5.390399,"is_reserved":false,"is_disabled":false,"rental_uris":{"android":"levelo://app?vid=ba7fe203-ff89-4a8c-ae21-8e9c552dd536","ios":"levelo://app?vid=ba7fe203-ff89-4a8c-ae21-8e9c552dd536"},"vehicle_type_id":"4","last_reported":1761995220,"current_range_meters":22400,"station_id":"ce4bhr92rcd13ifvqhrg","pricing_plan_id":"cebpf4jnsgd1na2vs0mg"},{"bike_id":"123ec047-d6a2-4308-aee4-8ec0b2bea538","system_id":"levelo_inurba_marseille","lat":43.23198,"lon":5.35556,"is_reserved":false,"is_disabled":false,"rental_uris":{"android":"levelo://app?vid=123ec047-d6a2-4308-aee4-8ec0b2bea538","ios":"levelo://app?vid=123ec047-d6a2-4308-aee4-8ec0b2bea538"},"vehicle_type_id":"4","last_reported":1761995220,"current_range_meters":22400,"station_id":"ce4bhu92rcd13ifvqi70","pricing_plan_id":"cebpf4jnsgd1na2vs0mg"},{"bike_id":"4668435e-bcae-4775-b1ba-0c729cc77a71","system_id":"levelo_inurba_marseille","lat":43.28492,"lon":5.484,"is_reserved":false,"is_disabled":false,"rental_uris":{"android":"levelo://app?vid=4668435e-bcae-4775-b1ba-0c729cc77a71","ios":"levelo://app?vid=4668435e-bcae-4775-b1ba-0c729cc77a71"},"vehicle_type_id":"4","last_reported":1761995220,"current_range_meters":22400,"station_id":"st_d3svhcjqgbts73a3dn0g","pricing_plan_id":"cebpf4jnsgd1na2vs0mg"},{"bike_id":"bdb31862-aa9d-4ba9-b012-12ad7829add4","system_id":"levelo_inurba_marseille","lat":43.21741,"lon":5.34607,"is_reserved":false,"is_disabled":false,"rental_uris":{"android":"levelo://app?vid=bdb31862-aa9d-4ba9-b012-12ad7829add4","ios":"levelo://app?vid=bdb31862-aa9d-4ba9-b012-12ad7829add4"},"vehicle_type_id":"4","last_reported":1761995220,"current_range_meters":22800,"station_id":"st_cvj6r9ubvosntc0bgbag","pricing_plan_id":"cebpf4jnsgd1na2vs0mg"},{"bike_id":"b49d5c62-40bc-4de9-8220-f302fdd80fc2","system_id":"levelo_inurba_marseille","lat":43.24802,"lon":5.37452,"is_reserved":false,"is_disabled":false,"rental_uris":{"android":"levelo://app?vid=b49d5c62-40bc-4de9-8220-f302fdd80fc2","ios":"levelo://app?vid=b49d5c62-40bc-4de9-8220-f302fdd80fc2"},"vehicle_type_id":"4","last_reported":1761995220,"current_range_meters":22800,"station_id":"ce4bhgh2rcd13ifvqfb0","pricing_plan_id":"cebpf4jnsgd1na2vs0mg"},{"bike_id":"4a141d2a-67fd-4b83-b7f2-ce0580c4e386","system_id":"levelo_inurba_marseille","lat":43.22571,"lon":5.41631,"is_reserved":false,"is_disabled":false,"rental_uris":{"android":"levelo://app?vid=4a141d2a-67fd-4b83-b7f2-ce0580c4e386","ios":"levelo://app?vid=4a141d2a-67fd-4b83-b7f2-ce0580c4e386"},"vehicle_type_id":"4","last_reported":1761995220,"current_range_meters":22800,"station_id":"st_d2o4gvlbi1j2169b742g","pricing_plan_id":"cebpf4jnsgd1na2vs0mg"},{"bike_id":"8d851da5-0989-45f4-b4e2-ad9254fb4c15","system_id":"levelo_inurba_marseille","lat":43.21192,"lon":5.35076,"is_reserved":false,"is_disabled":false,"rental_uris":{"android":"levelo://app?vid=8d851da5-0989-45f4-b4e2-ad9254fb4c15","ios":"levelo://app?vid=8d851da5-0989-45f4-b4e2-ad9254fb4c15"},"vehicle_type_id":"4","last_reported":1761995220,"current_range_meters":23200,"station_id":"st_cvj6sg6p6f1abm77japg","pricing_plan_id":"cebpf4jnsgd1na2vs0mg"},{"bike_id":"4c2e795a-4ac2-4fba-b47e-7412c196e673","system_id":"levelo_inurba_marseille","lat":43.321128,"lon":5.367794,"is_reserved":false,"is_disabled":false,"rental_uris":{"android":"levelo://app?vid=4c2e795a-4ac2-4fba-b47e-7412c196e673","ios":"levelo://app?vid=4c2e795a-4ac2-4fba-b47e-7412c196e673"},"vehicle_type_id":"4","last_reported":1761995220,"current_range_meters":23200,"station_id":"ce4bhrh2rcd13ifvqhug","pricing_plan_id":"cebpf4jnsgd1na2vs0mg"},{"bike_id":"d65bee36-f3cd-446f-853f-739fd8d03959","system_id":"levelo_inurba_marseille","lat":43.31178,"lon":5.3737,"is_reserved":false,"is_disabled":false,"rental_uris":{"android":"levelo://app?vid=d65bee36-f3cd-446f-853f-739fd8d03959","ios":"levelo://app?vid=d65bee36-f3cd-446f-853f-739fd8d03959"},"vehicle_type_id":"4","last_reported":1761995220,"current_range_meters":23200,"station_id":"","pricing_plan_id":"cebpf4jnsgd1na2vs0mg"},{"bike_id":"c2f2b30e-29f4-4890-a8cc-400c9aaf47fd","system_id":"levelo_inurba_marseille","lat":43.30596,"lon":5.37224,"is_reserved":false,"is_disabled":false,"rental_uris":{"android":"levelo://app?vid=c2f2b30e-29f4-4890-a8cc-400c9aaf47fd","ios":"levelo://app?vid=c2f2b30e-29f4-4890-a8cc-400c9aaf47fd"},"vehicle_type_id":"4","last_reported":1761995220,"current_range_meters":23200,"station_id":"ce4bgqh2rcd13ifvqc4g","pricing_plan_id":"cebpf4jnsgd1na2vs0mg"},{"bike_id":"598e85ba-2110-4024-96bb-6ff7a0e904ef","system_id":"levelo_inurba_marseille","lat":43.22551,"lon":5.41624,"is_reserved":false,"is_disabled":false,"rental_uris":{"android":"levelo://app?vid=598e85ba-2110-4024-96bb-6ff7a0e904ef","ios":"levelo://app?vid=598e85ba-2110-4024-96bb-6ff7a0e904ef"},"vehicle_type_id":"4","last_reported":1761995220,"current_range_meters":24000,"station_id":"st_d2o4gvlbi1j2169b742g","pricing_plan_id":"cebpf4jnsgd1na2vs0mg"},{"bike_id":"44988cda-5a47-43c6-a9bf-bcb5b14963e0","system_id":"levelo_inurba_marseille","lat":43.27206,"lon":5.39164,"is_reserved":false,"is_disabled":false,"rental_uris":{"android":"levelo://app?vid=44988cda-5a47-43c6-a9bf-bcb5b14963e0","ios":"levelo://app?vid=44988cda-5a47-43c6-a9bf-bcb5b14963e0"},"vehicle_type_id":"4","last_reported":1761995220,"current_range_meters":24000,"station_id":"ce4bhhp2rcd13ifvqfm0","pricing_plan_id":"cebpf4jnsgd1na2vs0mg"},{"bike_id":"06756d68-f601-4313-a049-fec54d37d722","system_id":"levelo_inurba_marseille","lat":43.336107,"lon":5.410388,"is_reserved":false,"is_disabled":false,"rental_uris":{"android":"levelo://app?vid=06756d68-f601-4313-a049-fec54d37d722","ios":"levelo://app?vid=06756d68-f601-4313-a049-fec54d37d722"},"vehicle_type_id":"4","last_reported":1761995220,"current_range_meters":24000,"station_id":"ce4bhq92rcd13ifvqhkg","pricing_plan_id":"cebpf4jnsgd1na2vs0mg"},{"bike_id":"79a20a56-3c2f-46eb-8715-0e2a6ceb3667","system_id":"levelo_inurba_marseille","lat":43.307732,"lon":5.376625,"is_reserved":false,"is_disabled":false,"rental_uris":{"android":"levelo://app?vid=79a20a56-3c2f-46eb-8715-0e2a6ceb3667","ios":"levelo://app?vid=79a20a56-3c2f-46eb-8715-0e2a6ceb3667"},"vehicle_type_id":"4","last_reported":1761995220,"current_range_meters":24000,"station_id":"","pricing_plan_id":"cebpf4jnsgd1na2vs0mg"},{"bike_id":"9d5b90c2-0cb3-4c3a-9a10-9589ee89a210","system_id":"levelo_inurba_marseille","lat":43.30753,"lon":5.42406,"is_reserved":false,"is_disabled":false,"rental_uris":{"android":"levelo://app?vid=9d5b90c2-0cb3-4c3a-9a10-9589ee89a210","ios":"levelo://app?vid=9d5b90c2-0cb3-4c3a-9a10-9589ee89a210"},"vehicle_type_id":"4","last_reported":1761995220,"current_range_meters":24000,"station_id":"st_cvj6ca6bvosntc0bfgr0","pricing_plan_id":"cebpf4jnsgd1na2vs0mg"},{"bike_id":"d951b3ec-2e4b-46d1-9785-549f20c446e8","system_id":"levelo_inurba_marseille","lat":43.26559,"lon":5.40326,"is_reserved":false,"is_disabled":false,"rental_uris":{"android":"levelo://app?vid=d951b3ec-2e4b-46d1-9785-549f20c446e8","ios":"levelo://app?vid=d951b3ec-2e4b-46d1-9785-549f20c446e8"},"vehicle_type_id":"4","last_reported":1761995220,"current_range_meters":24000,"station_id":"ce4bhmp2rcd13ifvqgng","pricing_plan_id":"cebpf4jnsgd1na2vs0mg"},{"bike_id":"8b9c8a46-4734-4a0a-ad27-a4c9742a3cf7","system_id":"levelo_inurba_marseille","lat":43.240703,"lon":5.377474,"is_reserved":false,"is_disabled":false,"rental_uris":{"android":"levelo://app?vid=8b9c8a46-4734-4a0a-ad27-a4c9742a3cf7","ios":"levelo://app?vid=8b9c8a46-4734-4a0a-ad27-a4c9742a3cf7"},"vehicle_type_id":"4","last_reported":1761995220,"current_range_meters":24000,"station_id":"ce4bhnp2rcd13ifvqgvg","pricing_plan_id":"cebpf4jnsgd1na2vs0mg"},{"bike_id":"1b69b611-9749-43e5-96d5-a5f81fb3384e","system_id":"levelo_inurba_marseille","lat":43.30303,"lon":5.36873,"is_reserved":false,"is_disabled":false,"rental_uris":{"android":"levelo://app?vid=1b69b611-9749-43e5-96d5-a5f81fb3384e","ios":"levelo://app?vid=1b69b611-9749-43e5-96d5-a5f81fb3384e"},"vehicle_type_id":"4","last_reported":1761995220,"current_range_meters":24000,"station_id":"ce4bgqh2rcd13ifvqc5g","pricing_plan_id":"cebpf4jnsgd1na2vs0mg"},{"bike_id":"3da96598-cb6e-4bc7-8b0a-672ca77af410","system_id":"levelo_inurba_marseille","lat":43.31288,"lon":5.40158,"is_reserved":false,"is_disabled":false,"rental_uris":{"android":"levelo://app?vid=3da96598-cb6e-4bc7-8b0a-672ca77af410","ios":"levelo://app?vid=3da96598-cb6e-4bc7-8b0a-672ca77af410"},"vehicle_type_id":"4","last_reported":1761995220,"current_range_meters":24400,"station_id":"ce4bh092rcd13ifvqd30","pricing_plan_id":"cebpf4jnsgd1na2vs0mg"},{"bike_id":"0ef4a483-c035-40b8-9a64-ebbb518f23b0","system_id":"levelo_inurba_marseille","lat":43.251,"lon":5.39517,"is_reserved":false,"is_disabled":false,"rental_uris":{"android":"levelo://app?vid=0ef4a483-c035-40b8-9a64-ebbb518f23b0","ios":"levelo://app?vid=0ef4a483-c035-40b8-9a64-ebbb518f23b0"},"vehicle_type_id":"4","last_reported":1761995220,"current_range_meters":24400,"station_id":"ce4bhm12rcd13ifvqgkg","pricing_plan_id":"cebpf4jnsgd1na2vs0mg"},{"bike_id":"5a0bfa84-84eb-4579-9d82-bb3fec3b9478","system_id":"levelo_inurba_marseille","lat":43.24082,"lon":5.37782,"is_reserved":false,"is_disabled":false,"rental_uris":{"android":"levelo://app?vid=5a0bfa84-84eb-4579-9d82-bb3fec3b9478","ios":"levelo://app?vid=5a0bfa84-84eb-4579-9d82-bb3fec3b9478"},"vehicle_type_id":"4","last_reported":1761995220,"current_range_meters":24400,"station_id":"ce4bhnp2rcd13ifvqgvg","pricing_plan_id":"cebpf4jnsgd1na2vs0mg"},{"bike_id":"e37a3e06-24f5-4130-8d50-b62005271d50","system_id":"levelo_inurba_marseille","lat":43.241682,"lon":5.363936,"is_reserved":false,"is_disabled":false,"rental_uris":{"android":"levelo://app?vid=e37a3e06-24f5-4130-8d50-b62005271d50","ios":"levelo://app?vid=e37a3e06-24f5-4130-8d50-b62005271d50"},"vehicle_type_id":"4","last_reported":1761995220,"current_range_meters":24400,"station_id":"cpo36qri1sfpv3e86is0","pricing_plan_id":"cebpf4jnsgd1na2vs0mg"},{"bike_id":"4c64f78f-0ed7-4ebc-b442-9eda2edc3afc","system_id":"levelo_inurba_marseille","lat":43.29875,"lon":5.39749,"is_reserved":false,"is_disabled":false,"rental_uris":{"android":"levelo://app?vid=4c64f78f-0ed7-4ebc-b442-9eda2edc3afc","ios":"levelo://app?vid=4c64f78f-0ed7-4ebc-b442-9eda2edc3afc"},"vehicle_type_id":"4","last_reported":1761995220,"current_range_meters":24400,"station_id":"ce4bh0h2rcd13ifvqd50","pricing_plan_id":"cebpf4jnsgd1na2vs0mg"},{"bike_id":"0ddc7f87-af33-45d8-8dd5-37fba9cfd1a8","system_id":"levelo_inurba_marseille","lat":43.28917,"lon":5.35778,"is_reserved":false,"is_disabled":false,"rental_uris":{"android":"levelo://app?vid=0ddc7f87-af33-45d8-8dd5-37fba9cfd1a8","ios":"levelo://app?vid=0ddc7f87-af33-45d8-8dd5-37fba9cfd1a8"},"vehicle_type_id":"4","last_reported":1761995220,"current_range_meters":24400,"station_id":"","pricing_plan_id":"cebpf4jnsgd1na2vs0mg"},