{"last_updated":1774722372,"ttl":60,"version":"2.2","data":{"bikes":[{"bike_id":"684ddfd5-4a37-4944-9d39-2f5b9ab9522d","system_id":"levelo_inurba_marseille","lat":43.30544,"lon":5.36723,"is_reserved":false,"is_disabled":false,"rental_uris":{"android":"levelo://app?vid=684ddfd5-4a37-4944-9d39-2f5b9ab9522d","ios":"levelo://app?vid=684ddfd5-4a37-4944-9d39-2f5b9ab9522d"},"vehicle_type_id":"4","last_reported":1774722372,"current_range_meters":2800,"station_id":"ce4bgrp2rcd13ifvqc9g","pricing_plan_id":"cebpf4jnsgd1na2vs0mg"},{"bike_id":"966b4729-3ee9-4d0e-980b-9f5460afcf6a","system_id":"levelo_inurba_marseille","lat":43.26778,"lon":5.39418,"is_reserved":false,"is_disabled":false,"rental_uris":{"android":"levelo://app?vid=966b4729-3ee9-4d0e-980b-9f5460afcf6a","ios":"levelo://app?vid=966b4729-3ee9-4d0e-980b-9f5460afcf6a"},"vehicle_type_id":"4","last_reported":1774722372,"current_range_meters":2800,"station_id":"ce4bhh12rcd13ifvqfg0","pricing_plan_id":"cebpf4jnsgd1na2vs0mg"},{"bike_id":"9aa23d81-92d7-49e2-9b7d-61573701742e","system_id":"levelo_inurba_marseille","lat":43.3136,"lon":5.38481,"is_reserved":false,"is_disabled":false,"rental_uris":{"android":"levelo://app?vid=9aa23d81-92d7-49e2-9b7d-61573701742e","ios":"levelo://app?vid=9aa23d81-92d7-49e2-9b7d-61573701742e"},"vehicle_type_id":"4","last_reported":1774722372,"current_range_meters":2800,"station_id":"ce4bgt92rcd13ifvqcf0","pricing_plan_id":"cebpf4jnsgd1na2vs0mg"},{"bike_id":"bd934b71-fc54-44f1-90d5-67d1e4783891","system_id":"levelo_inurba_marseille","lat":43.24163,"lon":5.36397,"is_reserved":false,"is_disabled":false,"rental_uris":{"android":"levelo://app?vid=bd934b71-fc54-44f1-90d5-67d1e4783891","ios":"levelo://app?vid=bd934b71-fc54-44f1-90d5-67d1e4783891"},"vehicle_type_id":"4","last_reported":1774722372,"current_range_meters":2800,"station_id":"cpo36qri1sfpv3e86is0","pricing_plan_id":"cebpf4jnsgd1na2vs0mg"},{"bike_id":"e9dc9846-a1fb-4f3a-a8d5-dbd68cc5808d","system_id":"levelo_inurba_marseille","lat":43.30799,"lon":5.39976,"is_reserved":false,"is_disabled":false,"rental_uris":{"android":"levelo://app?vid=e9dc9846-a1fb-4f3a-a8d5-dbd68cc5808d","ios":"levelo://app?vid=e9dc9846-a1fb-4f3a-a8d5-dbd68cc5808d"},"vehicle_type_id":"4","last_reported":1774722372,"current_range_meters":2800,"station_id":"","pricing_plan_id":"cebpf4jnsgd1na2vs0mg"},{"bike_id":"0ed65a24-5385-4704-8aa0-902d6e6deef0","system_id":"levelo_inurba_marseille","lat":43.31283,"lon":5.40156,"is_reserved":false,"is_disabled":false,"rental_uris":{"android":"levelo://app?vid=0ed65a24-5385-4704-8aa0-902d6e6deef0","ios":"levelo://app?vid=0ed65a24-5385-4704-8aa0-902d6e6deef0"},"vehicle_type_id":"4","last_reported":1774722372,"current_range_meters":2800,"station_id":"ce4bh092rcd13ifvqd30","pricing_plan_id":"cebpf4jnsgd1na2vs0mg"},{"bike_id":"43dd77b9-7724-4f20-9ba0-1556a9a09a8c","system_id":"levelo_inurba_marseille","lat":43.26492,"lon":5.39552,"is_reserved":false,"is_disabled":false,"rental_uris":{"android":"levelo://app?vid=43dd77b9-7724-4f20-9ba0-1556a9a09a8c","ios":"levelo://app?vid=43dd77b9-7724-4f20-9ba0-1556a9a09a8c"},"vehicle_type_id":"4","last_reported":1774722372,"current_range_meters":2800,"station_id":"ce4bhi12rcd13ifvqfq0","pricing_plan_id":"cebpf4jnsgd1na2vs0mg"},{"bike_id":"29b8f791-7789-4e9b-8e39-c750aefccf04","system_id":"levelo_inurba_marseille","lat":43.2378,"lon":5.36652,"is_reserved":false,"is_disabled":false,"rental_uris":{"android":"levelo://app?vid=29b8f791-7789-4e9b-8e39-c750aefccf04","ios":"levelo://app?vid=29b8f791-7789-4e9b-8e39-c750aefccf04"},"vehicle_type_id":"4","last_reported":1774722372,"current_range_meters":2800,"station_id":"st_d3nk18o9ro0c73en2l3g","pricing_plan_id":"cebpf4jnsgd1na2vs0mg"},{"bike_id":"7a27228a-40d2-4d11-8cfd-ccbe9d48032b","system_id":"levelo_inurba_marseille","lat":43.32503,"lon":5.38299,"is_reserved":false,"is_disabled":false,"rental_uris":{"android":"levelo://app?vid=7a27228a-40d2-4d11-8cfd-ccbe9d48032b","ios":"levelo://app?vid=7a27228a-40d2-4d11-8cfd-ccbe9d48032b"},"vehicle_type_id":"4","last_reported":1774722372,"current_range_meters":2800,"station_id":"st_d4asgbiv49dc73anf9m0","pricing_plan_id":"cebpf4jnsgd1na2vs0mg"},{"bike_id":"4d2c428a-06db-49bc-a222-2cbc52db76c0","system_id":"levelo_inurba_marseille","lat":43.24181,"lon":5.39782,"is_reserved":false,"is_disabled":false,"rental_uris":{"android":"levelo://app?vid=4d2c428a-06db-49bc-a222-2cbc52db76c0","ios":"levelo://app?vid=4d2c428a-06db-49bc-a222-2cbc52db76c0"},"vehicle_type_id":"4","last_reported":1774722372,"current_range_meters":3200,"station_id":"ce4bhn12rcd13ifvqgpg","pricing_plan_id":"cebpf4jnsgd1na2vs0mg"},{"bike_id":"42efb94c-1f2e-44e6-a6e6-f57b060b869e","system_id":"levelo_inurba_marseille","lat":43.24183,"lon":5.36431,"is_reserved":false,"is_disabled":false,"rental_uris":{"android":"levelo://app?vid=42efb94c-1f2e-44e6-a6e6-f57b060b869e","ios":"levelo://app?vid=42efb94c-1f2e-44e6-a6e6-f57b060b869e"},"vehicle_type_id":"4","last_reported":1774722372,"current_range_meters":3200,"station_id":"cpo36qri1sfpv3e86is0","pricing_plan_id":"cebpf4jnsgd1na2vs0mg"},{"bike_id":"76afd0f9-39c6-4d10-a3a3-3323a029e46a","system_id":"levelo_inurba_marseille","lat":43.23386,"lon":5.41276,"is_reserved":false,"is_disabled":false,"rental_uris":{"android":"levelo://app?vid=76afd0f9-39c6-4d10-a3a3-3323a029e46a","ios":"levelo://app?vid=76afd0f9-39c6-4d10-a3a3-3323a029e46a"},"vehicle_type_id":"4","last_reported":1774722372,"current_range_meters":3200,"station_id":"","pricing_plan_id":"cebpf4jnsgd1na2vs0mg"},{"bike_id":"8a927669-3c1a-4573-98bd-585f9b534d2d","system_id":"levelo_inurba_marseille","lat":43.24463,"lon":5.42557,"is_reserved":false,"is_disabled":false,"rental_uris":{"android":"levelo://app?vid=8a927669-3c1a-4573-98bd-585f9b534d2d","ios":"levelo://app?vid=8a927669-3c1a-4573-98bd-585f9b534d2d"},"vehicle_type_id":"4","last_reported":1774722372,"current_range_meters":3200,"station_id":"st_d4a3vfp97mjs738cd8kg","pricing_plan_id":"cebpf4jnsgd1na2vs0mg"},{"bike_id":"7d38c45a-0011-4d05-9bbf-54b7323ff394","system_id":"levelo_inurba_marseille","lat":43.26389,"lon":5.4108,"is_reserved":false,"is_disabled":false,"rental_uris":{"android":"levelo://app?vid=7d38c45a-0011-4d05-9bbf-54b7323ff394","ios":"levelo://app?vid=7d38c45a-0011-4d05-9bbf-54b7323ff394"},"vehicle_type_id":"4","last_reported":1774722372,"current_range_meters":3200,"station_id":"st_d4e5ca6na9uc73bfl5fg","pricing_plan_id":"cebpf4jnsgd1na2vs0mg"},{"bike_id":"cb7fe703-6be0-4375-90c9-ac9f11a1955b","system_id":"levelo_inurba_marseille","lat":43.30536,"lon":5.36716,"is_reserved":false,"is_disabled":false,"rental_uris":{"android":"levelo://app?vid=cb7fe703-6be0-4375-90c9-ac9f11a1955b","ios":"levelo://app?vid=cb7fe703-6be0-4375-90c9-ac9f11a1955b"},"vehicle_type_id":"4","last_reported":1774722372,"current_range_meters":3200,"station_id":"ce4bgrp2rcd13ifvqc9g","pricing_plan_id":"cebpf4jnsgd1na2vs0mg"},{"bike_id":"27f65587-f91a-41b1-aacf-8da5e702b79e","system_id":"levelo_inurba_marseille","lat":43.29756,"lon":5.42757,"is_reserved":false,"is_disabled":false,"rental_uris":{"android":"levelo://app?vid=27f65587-f91a-41b1-aacf-8da5e702b79e","ios":"levelo://app?vid=27f65587-f91a-41b1-aacf-8da5e702b79e"},"vehicle_type_id":"4","last_reported":1774722372,"current_range_meters":3200,"station_id":"st_d3md5207bmas73dh9klg","pricing_plan_id":"cebpf4jnsgd1na2vs0mg"},{"bike_id":"faeb6c74-2800-4715-8f0a-23596974fa45","system_id":"levelo_inurba_marseille","lat":43.27338,"lon":5.39102,"is_reserved":false,"is_disabled":false,"rental_uris":{"android":"levelo://app?vid=faeb6c74-2800-4715-8f0a-23596974fa45","ios":"levelo://app?vid=faeb6c74-2800-4715-8f0a-23596974fa45"},"vehicle_type_id":"4","last_reported":1774722372,"current_range_meters":3200,"station_id":"ce4bhgp2rcd13ifvqfe0","pricing_plan_id":"cebpf4jnsgd1na2vs0mg"},{"bike_id":"299c1db8-8b1c-4e76-8016-cf4f1472636c","system_id":"levelo_inurba_marseille","lat":43.30929,"lon":5.39989,"is_reserved":false,"is_disabled":false,"rental_uris":{"android":"levelo://app?vid=299c1db8-8b1c-4e76-8016-cf4f1472636c","ios":"levelo://app?vid=299c1db8-8b1c-4e76-8016-cf4f1472636c"},"vehicle_type_id":"4","last_reported":1774722372,"current_range_meters":3200,"station_id":"","pricing_plan_id":"cebpf4jnsgd1na2vs0mg"},{"bike_id":"4d9657bb-b4e0-4f58-80ca-be59ab34eaf4","system_id":"levelo_inurba_marseille","lat":43.24951,"lon":5.40494,"is_reserved":false,"is_disabled":false,"rental_uris":{"android":"levelo://app?vid=4d9657bb-b4e0-4f58-80ca-be59ab34eaf4","ios":"levelo://app?vid=4d9657bb-b4e0-4f58-80ca-be59ab34eaf4"},"vehicle_type_id":"4","last_reported":1774722372,"current_range_meters":3200,"station_id":"st_d2ngiaodas8pm72gd1h0","pricing_plan_id":"cebpf4jnsgd1na2vs0mg"},{"bike_id":"b6491ba5-c897-4cab-8c35-742c0d00c0cb","system_id":"levelo_inurba_marseille","lat":43.24688,"lon":5.38158,"is_reserved":false,"is_disabled":false,"rental_uris":{"android":"levelo://app?vid=b6491ba5-c897-4cab-8c35-742c0d00c0cb","ios":"levelo://app?vid=b6491ba5-c897-4cab-8c35-742c0d00c0cb"},"vehicle_type_id":"4","last_reported":1774722372,"current_range_meters":3200,"station_id":"ce4bhih2rcd13ifvqfr0","pricing_plan_id":"cebpf4jnsgd1na2vs0mg"},{"bike_id":"1208a70b-9ac2-4fbd-84ae-55b3244f4db6","system_id":"levelo_inurba_marseille","lat":43.27324,"lon":5.39038,"is_reserved":false,"is_disabled":false,"rental_uris":{"android":"levelo://app?vid=1208a70b-9ac2-4fbd-84ae-55b3244f4db6","ios":"levelo://app?vid=1208a70b-9ac2-4fbd-84ae-55b3244f4db6"},"vehicle_type_id":"4","last_reported":1774722372,"current_range_meters":3200,"station_id":"ce4bhgp2rcd13ifvqfe0","pricing_plan_id":"cebpf4jnsgd1na2vs0mg"},{"bike_id":"b0fca1dd-bbff-4148-920c-91f443879e4d","system_id":"levelo_inurba_marseille","lat":43.2729,"lon":5.39078,"is_reserved":false,"is_disabled":false,"rental_uris":{"android":"levelo://app?vid=b0fca1dd-bbff-4148-920c-91f443879e4d","ios":"levelo://app?vid=b0fca1dd-bbff-4148-920c-91f443879e4d"},"vehicle_type_id":"4","last_reported":1774722372,"current_range_meters":3200,"station_id":"ce4bhgp2rcd13ifvqfe0","pricing_plan_id":"cebpf4jnsgd1na2vs0mg"},{"bike_id":"033d5a4c-b68e-4005-ad44-9e744d07e777","system_id":"levelo_inurba_marseille","lat":43.26948,"lon":5.40258,"is_reserved":false,"is_disabled":false,"rental_uris":{"android":"levelo://app?vid=033d5a4c-b68e-4005-ad44-9e744d07e777","ios":"levelo://app?vid=033d5a4c-b68e-4005-ad44-9e744d07e777"},"vehicle_type_id":"4","last_reported":1774722372,"current_range_meters":3200,"station_id":"cjm6bp8fraef2m0cb0m0","pricing_plan_id":"cebpf4jnsgd1na2vs0mg"},{"bike_id":"825bca4a-aff7-48e8-8885-db808d49f605","system_id":"levelo_inurba_marseille","lat":43.238648,"lon":5.365341,"is_reserved":false,"is_disabled":false,"rental_uris":{"android":"levelo://app?vid=825bca4a-aff7-48e8-8885-db808d49f605","ios":"levelo://app?vid=825bca4a-aff7-48e8-8885-db808d49f605"},"vehicle_type_id":"4","last_reported":1774722372,"current_range_meters":3200,"station_id":"ce4bhh12rcd13ifvqff0","pricing_plan_id":"cebpf4jnsgd1na2vs0mg"},{"bike_id":"1d7503c3-20ca-4fb6-92d0-5b5a5f6d18ec","system_id":"levelo_inurba_marseille","lat":43.22938,"lon":5.35403,"is_reserved":false,"is_disabled":false,"rental_uris":{"android":"levelo://app?vid=1d7503c3-20ca-4fb6-92d0-5b5a5f6d18ec","ios":"levelo://app?vid=1d7503c3-20ca-4fb6-92d0-5b5a5f6d18ec"},"vehicle_type_id":"4","last_reported":1774722372,"current_range_meters":3600,"station_id":"cpo3532slgdg3j2ikp40","pricing_plan_id":"cebpf4jnsgd1na2vs0mg"},{"bike_id":"6a7fd2aa-a90b-461a-8118-a8f8d903c462","system_id":"levelo_inurba_marseille","lat":43.28522,"lon":5.48416,"is_reserved":false,"is_disabled":false,"rental_uris":{"android":"levelo://app?vid=6a7fd2aa-a90b-461a-8118-a8f8d903c462","ios":"levelo://app?vid=6a7fd2aa-a90b-461a-8118-a8f8d903c462"},"vehicle_type_id":"4","last_reported":1774722372,"current_range_meters":3600,"station_id":"","pricing_plan_id":"cebpf4jnsgd1na2vs0mg"},{"bike_id":"63eba415-2140-492b-9436-e65b07b25ae1","system_id":"levelo_inurba_marseille","lat":43.29268,"lon":5.38449,"is_reserved":false,"is_disabled":false,"rental_uris":{"android":"levelo://app?vid=63eba415-2140-492b-9436-e65b07b25ae1","ios":"levelo://app?vid=63eba415-2140-492b-9436-e65b07b25ae1"},"vehicle_type_id":"4","last_reported":1774722372,"current_range_meters":3600,"station_id":"","pricing_plan_id":"cebpf4jnsgd1na2vs0mg"},{"bike_id":"60633471-6554-4e6f-88bd-82d1e1b3102f","system_id":"levelo_inurba_marseille","lat":43.27374,"lon":5.36264,"is_reserved":false,"is_disabled":false,"rental_uris":{"android":"levelo://app?vid=60633471-6554-4e6f-88bd-82d1e1b3102f","ios":"levelo://app?vid=60633471-6554-4e6f-88bd-82d1e1b3102f"},"vehicle_type_id":"4","last_reported":1774722372,"current_range_meters":3600,"station_id":"ce4bhbh2rcd13ifvqeo0","pricing_plan_id":"cebpf4jnsgd1na2vs0mg"},{"bike_id":"38121aba-cf52-46ff-b72d-8bcc0c109707","system_id":"levelo_inurba_marseille","lat":43.31446,"lon":5.37345,"is_reserved":false,"is_disabled":false,"rental_uris":{"android":"levelo://app?vid=38121aba-cf52-46ff-b72d-8bcc0c109707","ios":"levelo://app?vid=38121aba-cf52-46ff-b72d-8bcc0c109707"},"vehicle_type_id":"4","last_reported":1774722372,"current_range_meters":3600,"station_id":"ce4bgt12rcd13ifvqcd0","pricing_plan_id":"cebpf4jnsgd1na2vs0mg"},{"bike_id":"5197013c-4d09-426f-8578-29e5f1659570","system_id":"levelo_inurba_marseille","lat":43.2842,"lon":5.34995,"is_reserved":false,"is_disabled":false,"rental_uris":{"android":"levelo://app?vid=5197013c-4d09-426f-8578-29e5f1659570","ios":"levelo://app?vid=5197013c-4d09-426f-8578-29e5f1659570"},"vehicle_type_id":"4","last_reported":1774722372,"current_range_meters":3600,"station_id":"ce4bhbh2rcd13ifvqepg","pricing_plan_id":"cebpf4jnsgd1na2vs0mg"},{"bike_id":"248e7202-bf14-41af-ab35-7275ee6c4d6f","system_id":"levelo_inurba_marseille","lat":43.23384,"lon":5.41222,"is_reserved":false,"is_disabled":false,"rental_uris":{"android":"levelo://app?vid=248e7202-bf14-41af-ab35-7275ee6c4d6f","ios":"levelo://app?vid=248e7202-bf14-41af-ab35-7275ee6c4d6f"},"vehicle_type_id":"4","last_reported":1774722372,"current_range_meters":3600,"station_id":"","pricing_plan_id":"cebpf4jnsgd1na2vs0mg"},{"bike_id":"1057e731-0bec-4dae-933a-749107405add","system_id":"levelo_inurba_marseille","lat":43.26576,"lon":5.39026,"is_reserved":false,"is_disabled":false,"rental_uris":{"android":"levelo://app?vid=1057e731-0bec-4dae-933a-749107405add","ios":"levelo://app?vid=1057e731-0bec-4dae-933a-749107405add"},"vehicle_type_id":"4","last_reported":1774722372,"current_range_meters":3600,"station_id":"ce4bhe12rcd13ifvqf30","pricing_plan_id":"cebpf4jnsgd1na2vs0mg"},{"bike_id":"38a6aaeb-0501-468e-8d4b-a79c5cd47669","system_id":"levelo_inurba_marseille","lat":43.27316,"lon":5.39133,"is_reserved":false,"is_disabled":false,"rental_uris":{"android":"levelo://app?vid=38a6aaeb-0501-468e-8d4b-a79c5cd47669","ios":"levelo://app?vid=38a6aaeb-0501-468e-8d4b-a79c5cd47669"},"vehicle_type_id":"4","last_reported":1774722372,"current_range_meters":3600,"station_id":"ce4bhgp2rcd13ifvqfe0","pricing_plan_id":"cebpf4jnsgd1na2vs0mg"},{"bike_id":"6d0ba167-953c-4732-a568-160c9dd956c2","system_id":"levelo_inurba_marseille","lat":43.23193,"lon":5.35565,"is_reserved":false,"is_disabled":false,"rental_uris":{"android":"levelo://app?vid=6d0ba167-953c-4732-a568-160c9dd956c2","ios":"levelo://app?vid=6d0ba167-953c-4732-a568-160c9dd956c2"},"vehicle_type_id":"4","last_reported":1774722372,"current_range_meters":3600,"station_id":"ce4bhu92rcd13ifvqi70","pricing_plan_id":"cebpf4jnsgd1na2vs0mg"},{"bike_id":"ff01e3e4-1dd3-4e88-ba46-bb2bac9cbad9","system_id":"levelo_inurba_marseille","lat":43.27378,"lon":5.36259,"is_reserved":false,"is_disabled":false,"rental_uris":{"android":"levelo://app?vid=ff01e3e4-1dd3-4e88-ba46-bb2bac9cbad9","ios":"levelo://app?vid=ff01e3e4-1dd3-4e88-ba46-bb2bac9cbad9"},"vehicle_type_id":"4","last_reported":1774722372,"current_range_meters":3600,"station_id":"ce4bhbh2rcd13ifvqeo0","pricing_plan_id":"cebpf4jnsgd1na2vs0mg"},{"bike_id":"5c277533-8b88-4f82-bfbd-c7e14e220f31","system_id":"levelo_inurba_marseille","lat":43.26786,"lon":5.39432,"is_reserved":false,"is_disabled":false,"rental_uris":{"android":"levelo://app?vid=5c277533-8b88-4f82-bfbd-c7e14e220f31","ios":"levelo://app?vid=5c277533-8b88-4f82-bfbd-c7e14e220f31"},"vehicle_type_id":"4","last_reported":1774722372,"current_range_meters":3600,"station_id":"ce4bhh12rcd13ifvqfg0","pricing_plan_id":"cebpf4jnsgd1na2vs0mg"},{"bike_id":"2873a201-01ad-44f0-a3f4-1c2939d32934","system_id":"levelo_inurba_marseille","lat":43.31544,"lon":5.38011,"is_reserved":false,"is_disabled":false,"rental_uris":{"android":"levelo://app?vid=2873a201-01ad-44f0-a3f4-1c2939d32934","ios":"levelo://app?vid=2873a201-01ad-44f0-a3f4-1c2939d32934"},"vehicle_type_id":"4","last_reported":1774722372,"current_range_meters":4000,"station_id":"ce4bhsp2rcd13ifvqi50","pricing_plan_id":"cebpf4jnsgd1na2vs0mg"},{"bike_id":"e611666c-ba04-4cee-911d-e22f79e68217","system_id":"levelo_inurba_marseille","lat":43.27211,"lon":5.39188,"is_reserved":false,"is_disabled":false,"rental_uris":{"android":"levelo://app?vid=e611666c-ba04-4cee-911d-e22f79e68217","ios":"levelo://app?vid=e611666c-ba04-4cee-911d-e22f79e68217"},"vehicle_type_id":"4","last_reported":1774722372,"current_range_meters":4000,"station_id":"ce4bhhp2rcd13ifvqfm0","pricing_plan_id":"cebpf4jnsgd1na2vs0mg"},{"bike_id":"ff23f6c3-07d6-471d-b47c-972e4e2656c1","system_id":"levelo_inurba_marseille","lat":43.21201,"lon":5.351,"is_reserved":false,"is_disabled":false,"rental_uris":{"android":"levelo://app?vid=ff23f6c3-07d6-471d-b47c-972e4e2656c1","ios":"levelo://app?vid=ff23f6c3-07d6-471d-b47c-972e4e2656c1"},"vehicle_type_id":"4","last_reported":1774722372,"current_range_meters":4000,"station_id":"st_cvj6sg6p6f1abm77japg","pricing_plan_id":"cebpf4jnsgd1na2vs0mg"},{"bike_id":"38f4e415-36c2-4383-823c-17dbe9c22d68","system_id":"levelo_inurba_marseille","lat":43.23796,"lon":5.36655,"is_reserved":false,"is_disabled":false,"rental_uris":{"android":"levelo://app?vid=38f4e415-36c2-4383-823c-17dbe9c22d68","ios":"levelo://app?vid=38f4e415-36c2-4383-823c-17dbe9c22d68"},"vehicle_type_id":"4","last_reported":1774722372,"current_range_meters":4000,"station_id":"st_d3nk18o9ro0c73en2l3g","pricing_plan_id":"cebpf4jnsgd1na2vs0mg"},{"bike_id":"3edeb7d0-505b-405e-93e9-5695a3ade828","system_id":"levelo_inurba_marseille","lat":43.2722,"lon":5.39206,"is_reserved":false,"is_disabled":false,"rental_uris":{"android":"levelo://app?vid=3edeb7d0-505b-405e-93e9-5695a3ade828","ios":"levelo://app?vid=3edeb7d0-505b-405e-93e9-5695a3ade828"},"vehicle_type_id":"4","last_reported":1774722372,"current_range_meters":4000,"station_id":"ce4bhhp2rcd13ifvqfm0","pricing_plan_id":"cebpf4jnsgd1na2vs0mg"},{"bike_id":"ff89fd97-28c7-4691-b392-25eb64e86860","system_id":"levelo_inurba_marseille","lat":43.31174,"lon":5.38728,"is_reserved":false,"is_disabled":false,"rental_uris":{"android":"levelo://app?vid=ff89fd97-28c7-4691-b392-25eb64e86860","ios":"levelo://app?vid=ff89fd97-28c7-4691-b392-25eb64e86860"},"vehicle_type_id":"4","last_reported":1774722372,"current_range_meters":4000,"station_id":"ce4bgv12rcd13ifvqcp0","pricing_plan_id":"cebpf4jnsgd1na2vs0mg"},{"bike_id":"b51d43d0-b538-4b30-b0d5-e5c1be881443","system_id":"levelo_inurba_marseille","lat":43.28711,"lon":5.46691,"is_reserved":false,"is_disabled":false,"rental_uris":{"android":"levelo://app?vid=b51d43d0-b538-4b30-b0d5-e5c1be881443","ios":"levelo://app?vid=b51d43d0-b538-4b30-b0d5-e5c1be881443"},"vehicle_type_id":"4","last_reported":1774722372,"current_range_meters":4000,"station_id":"st_d6tc3vkotcvc738tfjhg","pricing_plan_id":"cebpf4jnsgd1na2vs0mg"},{"bike_id":"f967aac8-bff7-4d61-9c8d-307b8d7b6ffd","system_id":"levelo_inurba_marseille","lat":43.25338,"lon":5.42178,"is_reserved":false,"is_disabled":false,"rental_uris":{"android":"levelo://app?vid=f967aac8-bff7-4d61-9c8d-307b8d7b6ffd","ios":"levelo://app?vid=f967aac8-bff7-4d61-9c8d-307b8d7b6ffd"},"vehicle_type_id":"4","last_reported":1774722372,"current_range_meters":4400,"station_id":"st_d2m65c5bi1j21697t3ng","pricing_plan_id":"cebpf4jnsgd1na2vs0mg"},{"bike_id":"069b2c37-0541-4ce9-84e5-9f146f8e24bb","system_id":"levelo_inurba_marseille","lat":43.30548,"lon":5.36574,"is_reserved":false,"is_disabled":false,"rental_uris":{"android":"levelo://app?vid=069b2c37-0541-4ce9-84e5-9f146f8e24bb","ios":"levelo://app?vid=069b2c37-0541-4ce9-84e5-9f146f8e24bb"},"vehicle_type_id":"4","last_reported":1774722372,"current_range_meters":4400,"station_id":"ce4bgs12rcd13ifvqcag","pricing_plan_id":"cebpf4jnsgd1na2vs0mg"},{"bike_id":"7d88454c-5db9-4cbe-86a0-1ebe5d14c121","system_id":"levelo_inurba_marseille","lat":43.26916,"lon":5.3894,"is_reserved":false,"is_disabled":false,"rental_uris":{"android":"levelo://app?vid=7d88454c-5db9-4cbe-86a0-1ebe5d14c121","ios":"levelo://app?vid=7d88454c-5db9-4cbe-86a0-1ebe5d14c121"},"vehicle_type_id":"4","last_reported":1774722372,"current_range_meters":4400,"station_id":"ce4bhhh2rcd13ifvqfl0","pricing_plan_id":"cebpf4jnsgd1na2vs0mg"},{"bike_id":"5e14f141-0e97-481f-bea4-cf489480bf75","system_id":"levelo_inurba_marseille","lat":43.31244,"lon":5.36863,"is_reserved":false,"is_disabled":false,"rental_uris":{"android":"levelo://app?vid=5e14f141-0e97-481f-bea4-cf489480bf75","ios":"levelo://app?vid=5e14f141-0e97-481f-bea4-cf489480bf75"},"vehicle_type_id":"4","last_reported":1774722372,"current_range_meters":4400,"station_id":"ce4bgl92rcd13ifvqbq0","pricing_plan_id":"cebpf4jnsgd1na2vs0mg"},{"bike_id":"8499154b-2db0-48f9-8714-e937514ac17b","system_id":"levelo_inurba_marseille","lat":43.28949,"lon":5.36404,"is_reserved":false,"is_disabled":false,"rental_uris":{"android":"levelo://app?vid=8499154b-2db0-48f9-8714-e937514ac17b","ios":"levelo://app?vid=8499154b-2db0-48f9-8714-e937514ac17b"},"vehicle_type_id":"4","last_reported":1774722372,"current_range_meters":4400,"station_id":"ce4bhc92rcd13ifvqetg","pricing_plan_id":"cebpf4jnsgd1na2vs0mg"},{"bike_id":"e2fd0609-65a4-4990-91d6-e89e8fbab07e","system_id":"levelo_inurba_marseille","lat":43.32123,"lon":5.36763,"is_reserved":false,"is_disabled":false,"rental_uris":{"android":"levelo://app?vid=e2fd0609-65a4-4990-91d6-e89e8fbab07e","ios":"levelo://app?vid=e2fd0609-65a4-4990-91d6-e89e8fbab07e"},"vehicle_type_id":"4","last_reported":1774722372,"current_range_meters":4400,"station_id":"ce4bhrh2rcd13ifvqhug","pricing_plan_id":"cebpf4jnsgd1na2vs0mg"},{"bike_id":"9c448445-1c60-4520-a1cb-98a7a7992b90","system_id":"levelo_inurba_marseille","lat":43.28486,"lon":5.48401,"is_reserved":false,"is_disabled":false,"rental_uris":{"android":"levelo://app?vid=9c448445-1c60-4520-a1cb-98a7a7992b90","ios":"levelo://app?vid=9c448445-1c60-4520-a1cb-98a7a7992b90"},"vehicle_type_id":"4","last_reported":1774722372,"current_range_meters":4400,"station_id":"","pricing_plan_id":"cebpf4jnsgd1na2vs0mg"},{"bike_id":"4522cc42-7db6-495e-bee3-9b8eedd9b6ef","system_id":"levelo_inurba_marseille","lat":43.26026,"lon":5.37583,"is_reserved":false,"is_disabled":false,"rental_uris":{"android":"levelo://app?vid=4522cc42-7db6-495e-bee3-9b8eedd9b6ef","ios":"levelo://app?vid=4522cc42-7db6-495e-bee3-9b8eedd9b6ef"},"vehicle_type_id":"4","last_reported":1774722372,"current_range_meters":4400,"station_id":"ce4bhgh2rcd13ifvqfa0","pricing_plan_id":"cebpf4jnsgd1na2vs0mg"},{"bike_id":"88fb9af6-0dea-445a-910b-bf18a4d2f559","system_id":"levelo_inurba_marseille","lat":43.2736,"lon":5.36249,"is_reserved":false,"is_disabled":false,"rental_uris":{"android":"levelo://app?vid=88fb9af6-0dea-445a-910b-bf18a4d2f559","ios":"levelo://app?vid=88fb9af6-0dea-445a-910b-bf18a4d2f559"},"vehicle_type_id":"4","last_reported":1774722372,"current_range_meters":4400,"station_id":"ce4bhbh2rcd13ifvqeo0","pricing_plan_id":"cebpf4jnsgd1na2vs0mg"},{"bike_id":"6c2a1739-fe94-46e9-988c-0dc5185d4012","system_id":"levelo_inurba_marseille","lat":43.31106,"lon":5.38648,"is_reserved":false,"is_disabled":false,"rental_uris":{"android":"levelo://app?vid=6c2a1739-fe94-46e9-988c-0dc5185d4012","ios":"levelo://app?vid=6c2a1739-fe94-46e9-988c-0dc5185d4012"},"vehicle_type_id":"4","last_reported":1774722372,"current_range_meters":4800,"station_id":"","pricing_plan_id":"cebpf4jnsgd1na2vs0mg"},{"bike_id":"1e02fd97-12b6-42bd-b23c-433ee22bd9de","system_id":"levelo_inurba_marseille","lat":43.2899,"lon":5.38146,"is_reserved":false,"is_disabled":true,"rental_uris":{"android":"levelo://app?vid=1e02fd97-12b6-42bd-b23c-433ee22bd9de","ios":"levelo://app?vid=1e02fd97-12b6-42bd-b23c-433ee22bd9de"},"vehicle_type_id":"4","last_reported":1774722372,"current_range_meters":4800,"station_id":"ce4bh4p2rcd13ifvqe1g","pricing_plan_id":"cebpf4jnsgd1na2vs0mg"},{"bike_id":"ff0da1a2-3d1c-43ac-899e-2eb7e114000d","system_id":"levelo_inurba_marseille","lat":43.24165,"lon":5.39748,"is_reserved":false,"is_disabled":false,"rental_uris":{"android":"levelo://app?vid=ff0da1a2-3d1c-43ac-899e-2eb7e114000d","ios":"levelo://app?vid=ff0da1a2-3d1c-43ac-899e-2eb7e114000d"},"vehicle_type_id":"4","last_reported":1774722372,"current_range_meters":4800,"station_id":"ce4bhn12rcd13ifvqgpg","pricing_plan_id":"cebpf4jnsgd1na2vs0mg"},{"bike_id":"d97252d0-3958-45e2-926c-26e2d5f2ad61","system_id":"levelo_inurba_marseille","lat":43.24831,"lon":5.37472,"is_reserved":false,"is_disabled":false,"rental_uris":{"android":"levelo://app?vid=d97252d0-3958-45e2-926c-26e2d5f2ad61","ios":"levelo://app?vid=d97252d0-3958-45e2-926c-26e2d5f2ad61"},"vehicle_type_id":"4","last_reported":1774722372,"current_range_meters":4800,"station_id":"","pricing_plan_id":"cebpf4jnsgd1na2vs0mg"},{"bike_id":"5969c3f9-bb5c-48df-9b54-f62d28d08c6a","system_id":"levelo_inurba_marseille","lat":43.26056,"lon":5.394,"is_reserved":false,"is_disabled":false,"rental_uris":{"android":"levelo://app?vid=5969c3f9-bb5c-48df-9b54-f62d28d08c6a","ios":"levelo://app?vid=5969c3f9-bb5c-48df-9b54-f62d28d08c6a"},"vehicle_type_id":"4","last_reported":1774722372,"current_range_meters":4800,"station_id":"ce4bhh92rcd13ifvqfj0","pricing_plan_id":"cebpf4jnsgd1na2vs0mg"},{"bike_id":"8521b2e6-7925-4ce4-888e-a33f20980115","system_id":"levelo_inurba_marseille","lat":43.28144,"lon":5.38311,"is_reserved":false,"is_disabled":false,"rental_uris":{"android":"levelo://app?vid=8521b2e6-7925-4ce4-888e-a33f20980115","ios":"levelo://app?vid=8521b2e6-7925-4ce4-888e-a33f20980115"},"vehicle_type_id":"4","last_reported":1774722372,"current_range_meters":4800,"station_id":"","pricing_plan_id":"cebpf4jnsgd1na2vs0mg"},{"bike_id":"887a90d7-1245-44e3-a6fe-edaa4e75651e","system_id":"levelo_inurba_marseille","lat":43.2932,"lon":5.37627,"is_reserved":false,"is_disabled":false,"rental_uris":{"android":"levelo://app?vid=887a90d7-1245-44e3-a6fe-edaa4e75651e","ios":"levelo://app?vid=887a90d7-1245-44e3-a6fe-edaa4e75651e"},"vehicle_type_id":"4","last_reported":1774722372,"current_range_meters":4800,"station_id":"","pricing_plan_id":"cebpf4jnsgd1na2vs0mg"},{"bike_id":"8db9d3f6-39b6-460a-b0c9-4516581765e6","system_id":"levelo_inurba_marseille","lat":43.27203,"lon":5.39172,"is_reserved":false,"is_disabled":false,"rental_uris":{"android":"levelo://app?vid=8db9d3f6-39b6-460a-b0c9-4516581765e6","ios":"levelo://app?vid=8db9d3f6-39b6-460a-b0c9-4516581765e6"},"vehicle_type_id":"4","last_reported":1774722372,"current_range_meters":4800,"station_id":"ce4bhhp2rcd13ifvqfm0","pricing_plan_id":"cebpf4jnsgd1na2vs0mg"},{"bike_id":"a48900c5-dcb6-4e31-bcca-4eb461e90243","system_id":"levelo_inurba_marseille","lat":43.28415,"lon":5.3499,"is_reserved":false,"is_disabled":false,"rental_uris":{"android":"levelo://app?vid=a48900c5-dcb6-4e31-bcca-4eb461e90243","ios":"levelo://app?vid=a48900c5-dcb6-4e31-bcca-4eb461e90243"},"vehicle_type_id":"4","last_reported":1774722372,"current_range_meters":4800,"station_id":"ce4bhbh2rcd13ifvqepg","pricing_plan_id":"cebpf4jnsgd1na2vs0mg"},{"bike_id":"aeb46ef3-e12b-4ac3-ae1c-71bc0eeeb6bc","system_id":"levelo_inurba_marseille","lat":43.28478,"lon":5.38418,"is_reserved":false,"is_disabled":false,"rental_uris":{"android":"levelo://app?vid=aeb46ef3-e12b-4ac3-ae1c-71bc0eeeb6bc","ios":"levelo://app?vid=aeb46ef3-e12b-4ac3-ae1c-71bc0eeeb6bc"},"vehicle_type_id":"4","last_reported":1774722372,"current_range_meters":4800,"station_id":"ce4bh512rcd13ifvqe3g","pricing_plan_id":"cebpf4jnsgd1na2vs0mg"},{"bike_id":"2f019591-3087-43f0-affb-e2eede13213e","system_id":"levelo_inurba_marseille","lat":43.24211,"lon":5.36636,"is_reserved":false,"is_disabled":false,"rental_uris":{"android":"levelo://app?vid=2f019591-3087-43f0-affb-e2eede13213e","ios":"levelo://app?vid=2f019591-3087-43f0-affb-e2eede13213e"},"vehicle_type_id":"4","last_reported":1774722372,"current_range_meters":5600,"station_id":"","pricing_plan_id":"cebpf4jnsgd1na2vs0mg"},{"bike_id":"75fab6c0-77f7-4dbf-a4e0-530f4e5892f3","system_id":"levelo_inurba_marseille","lat":43.27435,"lon":5.39401,"is_reserved":false,"is_disabled":false,"rental_uris":{"android":"levelo://app?vid=75fab6c0-77f7-4dbf-a4e0-530f4e5892f3","ios":"levelo://app?vid=75fab6c0-77f7-4dbf-a4e0-530f4e5892f3"},"vehicle_type_id":"4","last_reported":1774722372,"current_range_meters":5600,"station_id":"ce4bhdp2rcd13ifvqf20","pricing_plan_id":"cebpf4jnsgd1na2vs0mg"},{"bike_id":"9c0c7dc2-8e4c-4e55-891f-3e8c2c779959","system_id":"levelo_inurba_marseille","lat":43.25003,"lon":5.38926,"is_reserved":false,"is_disabled":false,"rental_uris":{"android":"levelo://app?vid=9c0c7dc2-8e4c-4e55-891f-3e8c2c779959","ios":"levelo://app?vid=9c0c7dc2-8e4c-4e55-891f-3e8c2c779959"},"vehicle_type_id":"4","last_reported":1774722372,"current_range_meters":5600,"station_id":"ce4bhgp2rcd13ifvqfd0","pricing_plan_id":"cebpf4jnsgd1na2vs0mg"},{"bike_id":"48ab9b86-5bda-44f7-89a9-249e865b9753","system_id":"levelo_inurba_marseille","lat":43.29018,"lon":5.38126,"is_reserved":false,"is_disabled":false,"rental_uris":{"android":"levelo://app?vid=48ab9b86-5bda-44f7-89a9-249e865b9753","ios":"levelo://app?vid=48ab9b86-5bda-44f7-89a9-249e865b9753"},"vehicle_type_id":"4","last_reported":1774722372,"current_range_meters":5600,"station_id":"ce4bh4p2rcd13ifvqe1g","pricing_plan_id":"cebpf4jnsgd1na2vs0mg"},{"bike_id":"f3d47af6-5b42-4057-b9f6-c501bdc25d75","system_id":"levelo_inurba_marseille","lat":43.2338,"lon":5.41247,"is_reserved":false,"is_disabled":false,"rental_uris":{"android":"levelo://app?vid=f3d47af6-5b42-4057-b9f6-c501bdc25d75","ios":"levelo://app?vid=f3d47af6-5b42-4057-b9f6-c501bdc25d75"},"vehicle_type_id":"4","last_reported":1774722372,"current_range_meters":5600,"station_id":"","pricing_plan_id":"cebpf4jnsgd1na2vs0mg"},{"bike_id":"7f5f4a35-fda4-4a33-b7ae-332aa08e4387","system_id":"levelo_inurba_marseille","lat":43.29763,"lon":5.42787,"is_reserved":false,"is_disabled":false,"rental_uris":{"android":"levelo://app?vid=7f5f4a35-fda4-4a33-b7ae-332aa08e4387","ios":"levelo://app?vid=7f5f4a35-fda4-4a33-b7ae-332aa08e4387"},"vehicle_type_id":"4","last_reported":1774722372,"current_range_meters":5600,"station_id":"st_d3md5207bmas73dh9klg","pricing_plan_id":"cebpf4jnsgd1na2vs0mg"},{"bike_id":"fbd013e2-8567-4cc4-a7c6-24dd8fd5e924","system_id":"levelo_inurba_marseille","lat":43.28954,"lon":5.35608,"is_reserved":false,"is_disabled":false,"rental_uris":{"android":"levelo://app?vid=fbd013e2-8567-4cc4-a7c6-24dd8fd5e924","ios":"levelo://app?vid=fbd013e2-8567-4cc4-a7c6-24dd8fd5e924"},"vehicle_type_id":"4","last_reported":1774722372,"current_range_meters":5600,"station_id":"","pricing_plan_id":"cebpf4jnsgd1na2vs0mg"},{"bike_id":"ac1a9d6c-17a0-4e01-9607-d886e691e83d","system_id":"levelo_inurba_marseille","lat":43.24397,"lon":5.37077,"is_reserved":false,"is_disabled":false,"rental_uris":{"android":"levelo://app?vid=ac1a9d6c-17a0-4e01-9607-d886e691e83d","ios":"levelo://app?vid=ac1a9d6c-17a0-4e01-9607-d886e691e83d"},"vehicle_type_id":"4","last_reported":1774722372,"current_range_meters":6000,"station_id":"ce4bhhh2rcd13ifvqfk0","pricing_plan_id":"cebpf4jnsgd1na2vs0mg"},{"bike_id":"4261fad2-1e9a-40a4-a4ce-af58c191085f","system_id":"levelo_inurba_marseille","lat":43.31559,"lon":5.3732,"is_reserved":false,"is_disabled":false,"rental_uris":{"android":"levelo://app?vid=4261fad2-1e9a-40a4-a4ce-af58c191085f","ios":"levelo://app?vid=4261fad2-1e9a-40a4-a4ce-af58c191085f"},"vehicle_type_id":"4","last_reported":1774722372,"current_range_meters":6000,"station_id":"","pricing_plan_id":"cebpf4jnsgd1na2vs0mg"},{"bike_id":"1c954b30-5a3f-466b-b480-23979f95036f","system_id":"levelo_inurba_marseille","lat":43.27426,"lon":5.39436,"is_reserved":false,"is_disabled":false,"rental_uris":{"android":"levelo://app?vid=1c954b30-5a3f-466b-b480-23979f95036f","ios":"levelo://app?vid=1c954b30-5a3f-466b-b480-23979f95036f"},"vehicle_type_id":"4","last_reported":1774722372,"current_range_meters":6000,"station_id":"ce4bhdp2rcd13ifvqf20","pricing_plan_id":"cebpf4jnsgd1na2vs0mg"},{"bike_id":"e870a218-2faf-4272-86d3-d7f288385622","system_id":"levelo_inurba_marseille","lat":43.24995,"lon":5.38932,"is_reserved":false,"is_disabled":false,"rental_uris":{"android":"levelo://app?vid=e870a218-2faf-4272-86d3-d7f288385622","ios":"levelo://app?vid=e870a218-2faf-4272-86d3-d7f288385622"},"vehicle_type_id":"4","last_reported":1774722372,"current_range_meters":6000,"station_id":"ce4bhgp2rcd13ifvqfd0","pricing_plan_id":"cebpf4jnsgd1na2vs0mg"},{"bike_id":"fad291e5-b0a1-4ef2-8425-b1c03688a534","system_id":"levelo_inurba_marseille","lat":43.25351,"lon":5.42169,"is_reserved":false,"is_disabled":false,"rental_uris":{"android":"levelo://app?vid=fad291e5-b0a1-4ef2-8425-b1c03688a534","ios":"levelo://app?vid=fad291e5-b0a1-4ef2-8425-b1c03688a534"},"vehicle_type_id":"4","last_reported":1774722372,"current_range_meters":6000,"station_id":"st_d2m65c5bi1j21697t3ng","pricing_plan_id":"cebpf4jnsgd1na2vs0mg"},{"bike_id":"f31d687b-f39f-4799-a123-ec0aec4b625b","system_id":"levelo_inurba_marseille","lat":43.30593,"lon":5.37219,"is_reserved":false,"is_disabled":true,"rental_uris":{"android":"levelo://app?vid=f31d687b-f39f-4799-a123-ec0aec4b625b","ios":"levelo://app?vid=f31d687b-f39f-4799-a123-ec0aec4b625b"},"vehicle_type_id":"4","last_reported":1774722372,"current_range_meters":6000,"station_id":"ce4bgqh2rcd13ifvqc4g","pricing_plan_id":"cebpf4jnsgd1na2vs0mg"},{"bike_id":"65b9b97b-854c-48dd-bdf1-822b26888732","system_id":"levelo_inurba_marseille","lat":43.28433,"lon":5.35041,"is_reserved":false,"is_disabled":false,"rental_uris":{"android":"levelo://app?vid=65b9b97b-854c-48dd-bdf1-822b26888732","ios":"levelo://app?vid=65b9b97b-854c-48dd-bdf1-822b26888732"},"vehicle_type_id":"4","last_reported":1774722372,"current_range_meters":6000,"station_id":"","pricing_plan_id":"cebpf4jnsgd1na2vs0mg"},{"bike_id":"1eb3f8ac-386a-4054-9276-a90e325f95c2","system_id":"levelo_inurba_marseille","lat":43.27054,"lon":5.40253,"is_reserved":false,"is_disabled":false,"rental_uris":{"android":"levelo://app?vid=1eb3f8ac-386a-4054-9276-a90e325f95c2","ios":"levelo://app?vid=1eb3f8ac-386a-4054-9276-a90e325f95c2"},"vehicle_type_id":"4","last_reported":1774722372,"current_range_meters":6000,"station_id":"ce4bhk92rcd13ifvqgc0","pricing_plan_id":"cebpf4jnsgd1na2vs0mg"},{"bike_id":"80f7f6c4-1406-416c-b47d-0fd56bd91196","system_id":"levelo_inurba_marseille","lat":43.21191,"lon":5.35098,"is_reserved":false,"is_disabled":false,"rental_uris":{"android":"levelo://app?vid=80f7f6c4-1406-416c-b47d-0fd56bd91196","ios":"levelo://app?vid=80f7f6c4-1406-416c-b47d-0fd56bd91196"},"vehicle_type_id":"4","last_reported":1774722372,"current_range_meters":6000,"station_id":"st_cvj6sg6p6f1abm77japg","pricing_plan_id":"cebpf4jnsgd1na2vs0mg"},{"bike_id":"5a68aaa6-1033-4afd-93ac-d1b4dc880a8b","system_id":"levelo_inurba_marseille","lat":43.27223,"lon":5.39198,"is_reserved":false,"is_disabled":false,"rental_uris":{"android":"levelo://app?vid=5a68aaa6-1033-4afd-93ac-d1b4dc880a8b","ios":"levelo://app?vid=5a68aaa6-1033-4afd-93ac-d1b4dc880a8b"},"vehicle_type_id":"4","last_reported":1774722372,"current_range_meters":6000,"station_id":"ce4bhhp2rcd13ifvqfm0","pricing_plan_id":"cebpf4jnsgd1na2vs0mg"},{"bike_id":"89288cc4-e79f-4495-8c3d-e219285327fd","system_id":"levelo_inurba_marseille","lat":43.28937,"lon":5.36639,"is_reserved":false,"is_disabled":false,"rental_uris":{"android":"levelo://app?vid=89288cc4-e79f-4495-8c3d-e219285327fd","ios":"levelo://app?vid=89288cc4-e79f-4495-8c3d-e219285327fd"},"vehicle_type_id":"4","last_reported":1774722372,"current_range_meters":6000,"station_id":"ce4bhap2rcd13ifvqek0","pricing_plan_id":"cebpf4jnsgd1na2vs0mg"},{"bike_id":"a5b2476d-9424-4c65-8028-058830b79a5d","system_id":"levelo_inurba_marseille","lat":43.27305,"lon":5.39108,"is_reserved":false,"is_disabled":false,"rental_uris":{"android":"levelo://app?vid=a5b2476d-9424-4c65-8028-058830b79a5d","ios":"levelo://app?vid=a5b2476d-9424-4c65-8028-058830b79a5d"},"vehicle_type_id":"4","last_reported":1774722372,"current_range_meters":6400,"station_id":"ce4bhgp2rcd13ifvqfe0","pricing_plan_id":"cebpf4jnsgd1na2vs0mg"},{"bike_id":"6d55693b-f207-45a6-8bc4-a39ad3c9ba7a","system_id":"levelo_inurba_marseille","lat":43.26799,"lon":5.38969,"is_reserved":false,"is_disabled":false,"rental_uris":{"android":"levelo://app?vid=6d55693b-f207-45a6-8bc4-a39ad3c9ba7a","ios":"levelo://app?vid=6d55693b-f207-45a6-8bc4-a39ad3c9ba7a"},"vehicle_type_id":"4","last_reported":1774722372,"current_range_meters":6400,"station_id":"","pricing_plan_id":"cebpf4jnsgd1na2vs0mg"},{"bike_id":"9e955995-81d3-4d62-89f5-f1517263c308","system_id":"levelo_inurba_marseille","lat":43.31683,"lon":5.38179,"is_reserved":false,"is_disabled":false,"rental_uris":{"android":"levelo://app?vid=9e955995-81d3-4d62-89f5-f1517263c308","ios":"levelo://app?vid=9e955995-81d3-4d62-89f5-f1517263c308"},"vehicle_type_id":"4","last_reported":1774722372,"current_range_meters":6400,"station_id":"","pricing_plan_id":"cebpf4jnsgd1na2vs0mg"},{"bike_id":"f6d4245b-c41c-4ec7-bb98-524c289bd3f3","system_id":"levelo_inurba_marseille","lat":43.25575,"lon":5.38242,"is_reserved":false,"is_disabled":false,"rental_uris":{"android":"levelo://app?vid=f6d4245b-c41c-4ec7-bb98-524c289bd3f3","ios":"levelo://app?vid=f6d4245b-c41c-4ec7-bb98-524c289bd3f3"},"vehicle_type_id":"4","last_reported":1774722372,"current_range_meters":6400,"station_id":"ce4bhih2rcd13ifvqfs0","pricing_plan_id":"cebpf4jnsgd1na2vs0mg"},{"bike_id":"9577e7be-5db5-4b61-9906-13c0daa63baa","system_id":"levelo_inurba_marseille","lat":43.27325,"lon":5.39106,"is_reserved":false,"is_disabled":false,"rental_uris":{"android":"levelo://app?vid=9577e7be-5db5-4b61-9906-13c0daa63baa","ios":"levelo://app?vid=9577e7be-5db5-4b61-9906-13c0daa63baa"},"vehicle_type_id":"4","last_reported":1774722372,"current_range_meters":6400,"station_id":"ce4bhgp2rcd13ifvqfe0","pricing_plan_id":"cebpf4jnsgd1na2vs0mg"},{"bike_id":"d43741e0-404a-4e29-990f-d50cd55ee5f7","system_id":"levelo_inurba_marseille","lat":43.27565,"lon":5.38428,"is_reserved":false,"is_disabled":false,"rental_uris":{"android":"levelo://app?vid=d43741e0-404a-4e29-990f-d50cd55ee5f7","ios":"levelo://app?vid=d43741e0-404a-4e29-990f-d50cd55ee5f7"},"vehicle_type_id":"4","last_reported":1774722372,"current_range_meters":6400,"station_id":"ce4bhh92rcd13ifvqfi0","pricing_plan_id":"cebpf4jnsgd1na2vs0mg"},{"bike_id":"3137e3ea-7797-4cae-a237-2a996dd9ad4a","system_id":"levelo_inurba_marseille","lat":43.28473,"lon":5.48403,"is_reserved":false,"is_disabled":false,"rental_uris":{"android":"levelo://app?vid=3137e3ea-7797-4cae-a237-2a996dd9ad4a","ios":"levelo://app?vid=3137e3ea-7797-4cae-a237-2a996dd9ad4a"},"vehicle_type_id":"4","last_reported":1774722372,"current_range_meters":6800,"station_id":"","pricing_plan_id":"cebpf4jnsgd1na2vs0mg"},{"bike_id":"068a61a3-392c-448d-95b3-6ff8732ebee0","system_id":"levelo_inurba_marseille","lat":43.25104,"lon":5.40322,"is_reserved":false,"is_disabled":false,"rental_uris":{"android":"levelo://app?vid=068a61a3-392c-448d-95b3-6ff8732ebee0","ios":"levelo://app?vid=068a61a3-392c-448d-95b3-6ff8732ebee0"},"vehicle_type_id":"4","last_reported":1774722372,"current_range_meters":6800,"station_id":"ce4bhlh2rcd13ifvqgig","pricing_plan_id":"cebpf4jnsgd1na2vs0mg"},{"bike_id":"b74978cb-5b51-4041-8c1c-97c8f4ca71d2","system_id":"levelo_inurba_marseille","lat":43.3118,"lon":5.4063,"is_reserved":false,"is_disabled":false,"rental_uris":{"android":"levelo://app?vid=b74978cb-5b51-4041-8c1c-97c8f4ca71d2","ios":"levelo://app?vid=b74978cb-5b51-4041-8c1c-97c8f4ca71d2"},"vehicle_type_id":"4","last_reported":1774722372,"current_range_meters":6800,"station_id":"","pricing_plan_id":"cebpf4jnsgd1na2vs0mg"},{"bike_id":"ce40357e-7726-4676-91b9-1ac78ffbca20","system_id":"levelo_inurba_marseille","lat":43.24395,"lon":5.37101,"is_reserved":false,"is_disabled":false,"rental_uris":{"android":"levelo://app?vid=ce40357e-7726-4676-91b9-1ac78ffbca20","ios":"levelo://app?vid=ce40357e-7726-4676-91b9-1ac78ffbca20"},"vehicle_type_id":"4","last_reported":1774722372,"current_range_meters":6800,"station_id":"ce4bhhh2rcd13ifvqfk0","pricing_plan_id":"cebpf4jnsgd1na2vs0mg"},{"bike_id":"18eddf02-1b59-4724-8b34-3fa740043546","system_id":"levelo_inurba_marseille","lat":43.22945,"lon":5.35423,"is_reserved":false,"is_disabled":false,"rental_uris":{"android":"levelo://app?vid=18eddf02-1b59-4724-8b34-3fa740043546","ios":"levelo://app?vid=18eddf02-1b59-4724-8b34-3fa740043546"},"vehicle_type_id":"4","last_reported":1774722372,"current_range_meters":6800,"station_id":"cpo3532slgdg3j2ikp40","pricing_plan_id":"cebpf4jnsgd1na2vs0mg"},{"bike_id":"2d5262be-582c-4d87-a7a2-b4c3f4ed4d38","system_id":"levelo_inurba_marseille","lat":43.22564,"lon":5.41621,"is_reserved":false,"is_disabled":false,"rental_uris":{"android":"levelo://app?vid=2d5262be-582c-4d87-a7a2-b4c3f4ed4d38","ios":"levelo://app?vid=2d5262be-582c-4d87-a7a2-b4c3f4ed4d38"},"vehicle_type_id":"4","last_reported":1774722372,"current_range_meters":6800,"station_id":"st_d2o4gvlbi1j2169b742g","pricing_plan_id":"cebpf4jnsgd1na2vs0mg"},{"bike_id":"20a80d48-b582-4670-b024-d043424a6446","system_id":"levelo_inurba_marseille","lat":43.24493,"lon":5.39759,"is_reserved":false,"is_disabled":false,"rental_uris":{"android":"levelo://app?vid=20a80d48-b582-4670-b024-d043424a6446","ios":"levelo://app?vid=20a80d48-b582-4670-b024-d043424a6446"},"vehicle_type_id":"4","last_reported":1774722372,"current_range_meters":6800,"station_id":"","pricing_plan_id":"cebpf4jnsgd1na2vs0mg"},{"bike_id":"277cf752-b9ed-41aa-a7a8-c21d885b59ac","system_id":"levelo_inurba_marseille","lat":43.24178,"lon":5.3642,"is_reserved":false,"is_disabled":false,"rental_uris":{"android":"levelo://app?vid=277cf752-b9ed-41aa-a7a8-c21d885b59ac","ios":"levelo://app?vid=277cf752-b9ed-41aa-a7a8-c21d885b59ac"},"vehicle_type_id":"4","last_reported":1774722372,"current_range_meters":6800,"station_id":"cpo36qri1sfpv3e86is0","pricing_plan_id":"cebpf4jnsgd1na2vs0mg"},{"bike_id":"3e80a70b-d902-4f38-bb78-001cfd129e63","system_id":"levelo_inurba_marseille","lat":43.28391,"lon":5.34968,"is_reserved":false,"is_disabled":false,"rental_uris":{"android":"levelo://app?vid=3e80a70b-d902-4f38-bb78-001cfd129e63","ios":"levelo://app?vid=3e80a70b-d902-4f38-bb78-001cfd129e63"},"vehicle_type_id":"4","last_reported":1774722372,"current_range_meters":6800,"station_id":"ce4bhbh2rcd13ifvqepg","pricing_plan_id":"cebpf4jnsgd1na2vs0mg"},{"bike_id":"c7af05b3-4ddb-499c-ae8b-c6fd8683ba94","system_id":"levelo_inurba_marseille","lat":43.29565,"lon":5.38348,"is_reserved":false,"is_disabled":false,"rental_uris":{"android":"levelo://app?vid=c7af05b3-4ddb-499c-ae8b-c6fd8683ba94","ios":"levelo://app?vid=c7af05b3-4ddb-499c-ae8b-c6fd8683ba94"},"vehicle_type_id":"4","last_reported":1774722372,"current_range_meters":6800,"station_id":"","pricing_plan_id":"cebpf4jnsgd1na2vs0mg"},{"bike_id":"9709251e-5ad5-4906-9dfa-1a6b13cca19d","system_id":"levelo_inurba_marseille","lat":43.28464,"lon":5.38444,"is_reserved":false,"is_disabled":false,"rental_uris":{"android":"levelo://app?vid=9709251e-5ad5-4906-9dfa-1a6b13cca19d","ios":"levelo://app?vid=9709251e-5ad5-4906-9dfa-1a6b13cca19d"},"vehicle_type_id":"4","last_reported":1774722372,"current_range_meters":6800,"station_id":"ce4bh512rcd13ifvqe3g","pricing_plan_id":"cebpf4jnsgd1na2vs0mg"},{"bike_id":"4d98f2fd-604f-4e96-8fec-c6afe75b7fc6","system_id":"levelo_inurba_marseille","lat":43.25581,"lon":5.38236,"is_reserved":false,"is_disabled":false,"rental_uris":{"android":"levelo://app?vid=4d98f2fd-604f-4e96-8fec-c6afe75b7fc6","ios":"levelo://app?vid=4d98f2fd-604f-4e96-8fec-c6afe75b7fc6"},"vehicle_type_id":"4","last_reported":1774722372,"current_range_meters":6800,"station_id":"ce4bhih2rcd13ifvqfs0","pricing_plan_id":"cebpf4jnsgd1na2vs0mg"},{"bike_id":"060e80a2-6bd4-4746-9259-a437570c99ac","system_id":"levelo_inurba_marseille","lat":43.2512,"lon":5.40357,"is_reserved":false,"is_disabled":false,"rental_uris":{"android":"levelo://app?vid=060e80a2-6bd4-4746-9259-a437570c99ac","ios":"levelo://app?vid=060e80a2-6bd4-4746-9259-a437570c99ac"},"vehicle_type_id":"4","last_reported":1774722372,"current_range_meters":6800,"station_id":"ce4bhlh2rcd13ifvqgig","pricing_plan_id":"cebpf4jnsgd1na2vs0mg"},{"bike_id":"2b01827c-f623-4c35-9e9a-c4041e4e2538","system_id":"levelo_inurba_marseille","lat":43.27325,"lon":5.39094,"is_reserved":false,"is_disabled":false,"rental_uris":{"android":"levelo://app?vid=2b01827c-f623-4c35-9e9a-c4041e4e2538","ios":"levelo://app?vid=2b01827c-f623-4c35-9e9a-c4041e4e2538"},"vehicle_type_id":"4","last_reported":1774722372,"current_range_meters":6800,"station_id":"ce4bhgp2rcd13ifvqfe0","pricing_plan_id":"cebpf4jnsgd1na2vs0mg"},{"bike_id":"6f4505a3-1fe1-4e47-884a-61f61037e712","system_id":"levelo_inurba_marseille","lat":43.27072,"lon":5.40259,"is_reserved":false,"is_disabled":false,"rental_uris":{"android":"levelo://app?vid=6f4505a3-1fe1-4e47-884a-61f61037e712","ios":"levelo://app?vid=6f4505a3-1fe1-4e47-884a-61f61037e712"},"vehicle_type_id":"4","last_reported":1774722372,"current_range_meters":7200,"station_id":"ce4bhk92rcd13ifvqgc0","pricing_plan_id":"cebpf4jnsgd1na2vs0mg"},{"bike_id":"a0e1fe6f-1b0c-4b69-b699-3f3295a2fce0","system_id":"levelo_inurba_marseille","lat":43.28404,"lon":5.35006,"is_reserved":false,"is_disabled":false,"rental_uris":{"android":"levelo://app?vid=a0e1fe6f-1b0c-4b69-b699-3f3295a2fce0","ios":"levelo://app?vid=a0e1fe6f-1b0c-4b69-b699-3f3295a2fce0"},"vehicle_type_id":"4","last_reported":1774722372,"current_range_meters":7200,"station_id":"ce4bhbh2rcd13ifvqepg","pricing_plan_id":"cebpf4jnsgd1na2vs0mg"},{"bike_id":"c82691aa-ba67-49e2-8ab8-9f87a1546b96","system_id":"levelo_inurba_marseille","lat":43.23215,"lon":5.35531,"is_reserved":false,"is_disabled":false,"rental_uris":{"android":"levelo://app?vid=c82691aa-ba67-49e2-8ab8-9f87a1546b96","ios":"levelo://app?vid=c82691aa-ba67-49e2-8ab8-9f87a1546b96"},"vehicle_type_id":"4","last_reported":1774722372,"current_range_meters":7200,"station_id":"ce4bhu92rcd13ifvqi70","pricing_plan_id":"cebpf4jnsgd1na2vs0mg"},{"bike_id":"899c9f36-9b83-4ce9-bd7d-0f95dd541b6a","system_id":"levelo_inurba_marseille","lat":43.3235,"lon":5.36739,"is_reserved":false,"is_disabled":false,"rental_uris":{"android":"levelo://app?vid=899c9f36-9b83-4ce9-bd7d-0f95dd541b6a","ios":"levelo://app?vid=899c9f36-9b83-4ce9-bd7d-0f95dd541b6a"},"vehicle_type_id":"4","last_reported":1774722372,"current_range_meters":7200,"station_id":"ce4bhsh2rcd13ifvqi2g","pricing_plan_id":"cebpf4jnsgd1na2vs0mg"},{"bike_id":"2457fc1b-679d-4a71-90e9-ad408ab6ed9d","system_id":"levelo_inurba_marseille","lat":43.33483,"lon":5.3797,"is_reserved":false,"is_disabled":false,"rental_uris":{"android":"levelo://app?vid=2457fc1b-679d-4a71-90e9-ad408ab6ed9d","ios":"levelo://app?vid=2457fc1b-679d-4a71-90e9-ad408ab6ed9d"},"vehicle_type_id":"4","last_reported":1774722372,"current_range_meters":7200,"station_id":"","pricing_plan_id":"cebpf4jnsgd1na2vs0mg"},{"bike_id":"c420f719-a4cc-4702-b6da-68e6d0f37e6c","system_id":"levelo_inurba_marseille","lat":43.28532,"lon":5.44108,"is_reserved":false,"is_disabled":false,"rental_uris":{"android":"levelo://app?vid=c420f719-a4cc-4702-b6da-68e6d0f37e6c","ios":"levelo://app?vid=c420f719-a4cc-4702-b6da-68e6d0f37e6c"},"vehicle_type_id":"4","last_reported":1774722372,"current_range_meters":7200,"station_id":"st_d3j3df2ikq2c7380ej80","pricing_plan_id":"cebpf4jnsgd1na2vs0mg"},{"bike_id":"f057f137-0cac-4b50-91e6-948f8581886d","system_id":"levelo_inurba_marseille","lat":43.24658,"lon":5.38153,"is_reserved":false,"is_disabled":false,"rental_uris":{"android":"levelo://app?vid=f057f137-0cac-4b50-91e6-948f8581886d","ios":"levelo://app?vid=f057f137-0cac-4b50-91e6-948f8581886d"},"vehicle_type_id":"4","last_reported":1774722372,"current_range_meters":7200,"station_id":"ce4bhih2rcd13ifvqfr0","pricing_plan_id":"cebpf4jnsgd1na2vs0mg"},{"bike_id":"1bca506e-2c43-43d5-9cab-3f814da8f5fe","system_id":"levelo_inurba_marseille","lat":43.2256,"lon":5.41655,"is_reserved":false,"is_disabled":false,"rental_uris":{"android":"levelo://app?vid=1bca506e-2c43-43d5-9cab-3f814da8f5fe","ios":"levelo://app?vid=1bca506e-2c43-43d5-9cab-3f814da8f5fe"},"vehicle_type_id":"4","last_reported":1774722372,"current_range_meters":7200,"station_id":"st_d2o4gvlbi1j2169b742g","pricing_plan_id":"cebpf4jnsgd1na2vs0mg"},{"bike_id":"598de7c3-29c3-4bfd-a135-53426a11f776","system_id":"levelo_inurba_marseille","lat":43.27201,"lon":5.3919,"is_reserved":false,"is_disabled":false,"rental_uris":{"android":"levelo://app?vid=598de7c3-29c3-4bfd-a135-53426a11f776","ios":"levelo://app?vid=598de7c3-29c3-4bfd-a135-53426a11f776"},"vehicle_type_id":"4","last_reported":1774722372,"current_range_meters":7200,"station_id":"ce4bhhp2rcd13ifvqfm0","pricing_plan_id":"cebpf4jnsgd1na2vs0mg"},{"bike_id":"44e6ef2e-f582-4dae-8b58-95600b73b872","system_id":"levelo_inurba_marseille","lat":43.33545,"lon":5.37477,"is_reserved":false,"is_disabled":false,"rental_uris":{"android":"levelo://app?vid=44e6ef2e-f582-4dae-8b58-95600b73b872","ios":"levelo://app?vid=44e6ef2e-f582-4dae-8b58-95600b73b872"},"vehicle_type_id":"4","last_reported":1774722372,"current_range_meters":7200,"station_id":"st_d46tts09ee8s73dlu43g","pricing_plan_id":"cebpf4jnsgd1na2vs0mg"},{"bike_id":"8a3d2e4a-a185-4de9-ab00-c730d8904995","system_id":"levelo_inurba_marseille","lat":43.27205,"lon":5.39185,"is_reserved":false,"is_disabled":false,"rental_uris":{"android":"levelo://app?vid=8a3d2e4a-a185-4de9-ab00-c730d8904995","ios":"levelo://app?vid=8a3d2e4a-a185-4de9-ab00-c730d8904995"},"vehicle_type_id":"4","last_reported":1774722372,"current_range_meters":7200,"station_id":"ce4bhhp2rcd13ifvqfm0","pricing_plan_id":"cebpf4jnsgd1na2vs0mg"},{"bike_id":"3558ea35-7992-4ccb-8605-1b3d24e2540d","system_id":"levelo_inurba_marseille","lat":43.22934,"lon":5.35394,"is_reserved":false,"is_disabled":false,"rental_uris":{"android":"levelo://app?vid=3558ea35-7992-4ccb-8605-1b3d24e2540d","ios":"levelo://app?vid=3558ea35-7992-4ccb-8605-1b3d24e2540d"},"vehicle_type_id":"4","last_reported":1774722372,"current_range_meters":7200,"station_id":"cpo3532slgdg3j2ikp40","pricing_plan_id":"cebpf4jnsgd1na2vs0mg"},{"bike_id":"2e9e98fd-4713-4ee9-87be-8d47d65eb147","system_id":"levelo_inurba_marseille","lat":43.24669,"lon":5.3817,"is_reserved":false,"is_disabled":false,"rental_uris":{"android":"levelo://app?vid=2e9e98fd-4713-4ee9-87be-8d47d65eb147","ios":"levelo://app?vid=2e9e98fd-4713-4ee9-87be-8d47d65eb147"},"vehicle_type_id":"4","last_reported":1774722372,"current_range_meters":7200,"station_id":"ce4bhih2rcd13ifvqfr0","pricing_plan_id":"cebpf4jnsgd1na2vs0mg"},{"bike_id":"bab40366-8cfc-4f6f-9aea-0588a19224d7","system_id":"levelo_inurba_marseille","lat":43.25,"lon":5.38945,"is_reserved":false,"is_disabled":false,"rental_uris":{"android":"levelo://app?vid=bab40366-8cfc-4f6f-9aea-0588a19224d7","ios":"levelo://app?vid=bab40366-8cfc-4f6f-9aea-0588a19224d7"},"vehicle_type_id":"4","last_reported":1774722372,"current_range_meters":7200,"station_id":"ce4bhgp2rcd13ifvqfd0","pricing_plan_id":"cebpf4jnsgd1na2vs0mg"},{"bike_id":"d81decec-1336-453f-8815-0de2ad63968a","system_id":"levelo_inurba_marseille","lat":43.24803,"lon":5.37448,"is_reserved":false,"is_disabled":false,"rental_uris":{"android":"levelo://app?vid=d81decec-1336-453f-8815-0de2ad63968a","ios":"levelo://app?vid=d81decec-1336-453f-8815-0de2ad63968a"},"vehicle_type_id":"4","last_reported":1774722372,"current_range_meters":7200,"station_id":"ce4bhgh2rcd13ifvqfb0","pricing_plan_id":"cebpf4jnsgd1na2vs0mg"},{"bike_id":"f103cc34-96c3-4868-ad5e-e0c28779d718","system_id":"levelo_inurba_marseille","lat":43.23062,"lon":5.3552,"is_reserved":false,"is_disabled":false,"rental_uris":{"android":"levelo://app?vid=f103cc34-96c3-4868-ad5e-e0c28779d718","ios":"levelo://app?vid=f103cc34-96c3-4868-ad5e-e0c28779d718"},"vehicle_type_id":"4","last_reported":1774722372,"current_range_meters":7200,"station_id":"cpo3342slgdg3j2ifvpg","pricing_plan_id":"cebpf4jnsgd1na2vs0mg"},{"bike_id":"c3fff5a6-2e0a-4dd3-ab9b-1629aafdc602","system_id":"levelo_inurba_marseille","lat":43.27378,"lon":5.36265,"is_reserved":false,"is_disabled":false,"rental_uris":{"android":"levelo://app?vid=c3fff5a6-2e0a-4dd3-ab9b-1629aafdc602","ios":"levelo://app?vid=c3fff5a6-2e0a-4dd3-ab9b-1629aafdc602"},"vehicle_type_id":"4","last_reported":1774722372,"current_range_meters":7200,"station_id":"ce4bhbh2rcd13ifvqeo0","pricing_plan_id":"cebpf4jnsgd1na2vs0mg"},{"bike_id":"2bf237c2-c4a5-409d-aaf2-b153a3e1ff10","system_id":"levelo_inurba_marseille","lat":43.21745,"lon":5.34611,"is_reserved":false,"is_disabled":false,"rental_uris":{"android":"levelo://app?vid=2bf237c2-c4a5-409d-aaf2-b153a3e1ff10","ios":"levelo://app?vid=2bf237c2-c4a5-409d-aaf2-b153a3e1ff10"},"vehicle_type_id":"4","last_reported":1774722372,"current_range_meters":8000,"station_id":"st_cvj6r9ubvosntc0bgbag","pricing_plan_id":"cebpf4jnsgd1na2vs0mg"},{"bike_id":"290afd09-0584-4963-a797-1ed96debbdfe","system_id":"levelo_inurba_marseille","lat":43.21193,"lon":5.35069,"is_reserved":false,"is_disabled":false,"rental_uris":{"android":"levelo://app?vid=290afd09-0584-4963-a797-1ed96debbdfe","ios":"levelo://app?vid=290afd09-0584-4963-a797-1ed96debbdfe"},"vehicle_type_id":"4","last_reported":1774722372,"current_range_meters":8000,"station_id":"st_cvj6sg6p6f1abm77japg","pricing_plan_id":"cebpf4jnsgd1na2vs0mg"},{"bike_id":"86f7d59c-a22b-4e47-a2f3-5d1e8d6a7a53","system_id":"levelo_inurba_marseille","lat":43.27446,"lon":5.39412,"is_reserved":false,"is_disabled":false,"rental_uris":{"android":"levelo://app?vid=86f7d59c-a22b-4e47-a2f3-5d1e8d6a7a53","ios":"levelo://app?vid=86f7d59c-a22b-4e47-a2f3-5d1e8d6a7a53"},"vehicle_type_id":"4","last_reported":1774722372,"current_range_meters":8000,"station_id":"ce4bhdp2rcd13ifvqf20","pricing_plan_id":"cebpf4jnsgd1na2vs0mg"},{"bike_id":"ace402cd-5a43-4700-8e53-9f597a013620","system_id":"levelo_inurba_marseille","lat":43.28269,"lon":5.35059,"is_reserved":false,"is_disabled":false,"rental_uris":{"android":"levelo://app?vid=ace402cd-5a43-4700-8e53-9f597a013620","ios":"levelo://app?vid=ace402cd-5a43-4700-8e53-9f597a013620"},"vehicle_type_id":"4","last_reported":1774722372,"current_range_meters":8000,"station_id":"ce4bhbp2rcd13ifvqerg","pricing_plan_id":"cebpf4jnsgd1na2vs0mg"},{"bike_id":"c7c3e063-adb8-4b03-b245-c9b643b84b17","system_id":"levelo_inurba_marseille","lat":43.27046,"lon":5.40259,"is_reserved":false,"is_disabled":false,"rental_uris":{"android":"levelo://app?vid=c7c3e063-adb8-4b03-b245-c9b643b84b17","ios":"levelo://app?vid=c7c3e063-adb8-4b03-b245-c9b643b84b17"},"vehicle_type_id":"4","last_reported":1774722372,"current_range_meters":8000,"station_id":"ce4bhk92rcd13ifvqgc0","pricing_plan_id":"cebpf4jnsgd1na2vs0mg"},{"bike_id":"41a4a19f-10ba-4905-88c4-5927e719dc9e","system_id":"levelo_inurba_marseille","lat":43.27322,"lon":5.39102,"is_reserved":false,"is_disabled":false,"rental_uris":{"android":"levelo://app?vid=41a4a19f-10ba-4905-88c4-5927e719dc9e","ios":"levelo://app?vid=41a4a19f-10ba-4905-88c4-5927e719dc9e"},"vehicle_type_id":"4","last_reported":1774722372,"current_range_meters":8000,"station_id":"ce4bhgp2rcd13ifvqfe0","pricing_plan_id":"cebpf4jnsgd1na2vs0mg"},{"bike_id":"8683ab0d-4a2a-48af-b0e7-633359d29ce3","system_id":"levelo_inurba_marseille","lat":43.30576,"lon":5.3671,"is_reserved":false,"is_disabled":false,"rental_uris":{"android":"levelo://app?vid=8683ab0d-4a2a-48af-b0e7-633359d29ce3","ios":"levelo://app?vid=8683ab0d-4a2a-48af-b0e7-633359d29ce3"},"vehicle_type_id":"4","last_reported":1774722372,"current_range_meters":8000,"station_id":"ce4bgrp2rcd13ifvqc9g","pricing_plan_id":"cebpf4jnsgd1na2vs0mg"},{"bike_id":"cac65e9a-4f7e-4ab5-8945-0eea67327b18","system_id":"levelo_inurba_marseille","lat":43.30536,"lon":5.36534,"is_reserved":false,"is_disabled":false,"rental_uris":{"android":"levelo://app?vid=cac65e9a-4f7e-4ab5-8945-0eea67327b18","ios":"levelo://app?vid=cac65e9a-4f7e-4ab5-8945-0eea67327b18"},"vehicle_type_id":"4","last_reported":1774722372,"current_range_meters":8000,"station_id":"ce4bgs12rcd13ifvqcag","pricing_plan_id":"cebpf4jnsgd1na2vs0mg"},{"bike_id":"129ae7f3-4fc9-4799-9c60-c7057f2a0117","system_id":"levelo_inurba_marseille","lat":43.28536,"lon":5.4413,"is_reserved":false,"is_disabled":false,"rental_uris":{"android":"levelo://app?vid=129ae7f3-4fc9-4799-9c60-c7057f2a0117","ios":"levelo://app?vid=129ae7f3-4fc9-4799-9c60-c7057f2a0117"},"vehicle_type_id":"4","last_reported":1774722372,"current_range_meters":8000,"station_id":"st_d3j3df2ikq2c7380ej80","pricing_plan_id":"cebpf4jnsgd1na2vs0mg"},{"bike_id":"1961bb3e-d5c8-4c76-b4b1-96f51bad8908","system_id":"levelo_inurba_marseille","lat":43.26559,"lon":5.37286,"is_reserved":false,"is_disabled":false,"rental_uris":{"android":"levelo://app?vid=1961bb3e-d5c8-4c76-b4b1-96f51bad8908","ios":"levelo://app?vid=1961bb3e-d5c8-4c76-b4b1-96f51bad8908"},"vehicle_type_id":"4","last_reported":1774722372,"current_range_meters":8000,"station_id":"ce4bhg12rcd13ifvqf70","pricing_plan_id":"cebpf4jnsgd1na2vs0mg"},{"bike_id":"6627d87e-d8cc-4315-9870-c98a872f12b5","system_id":"levelo_inurba_marseille","lat":43.24671,"lon":5.38167,"is_reserved":false,"is_disabled":false,"rental_uris":{"android":"levelo://app?vid=6627d87e-d8cc-4315-9870-c98a872f12b5","ios":"levelo://app?vid=6627d87e-d8cc-4315-9870-c98a872f12b5"},"vehicle_type_id":"4","last_reported":1774722372,"current_range_meters":8000,"station_id":"ce4bhih2rcd13ifvqfr0","pricing_plan_id":"cebpf4jnsgd1na2vs0mg"},{"bike_id":"4f1943b2-e7ba-417a-88a7-44cb05f7a9c9","system_id":"levelo_inurba_marseille","lat":43.295,"lon":5.38696,"is_reserved":false,"is_disabled":false,"rental_uris":{"android":"levelo://app?vid=4f1943b2-e7ba-417a-88a7-44cb05f7a9c9","ios":"levelo://app?vid=4f1943b2-e7ba-417a-88a7-44cb05f7a9c9"},"vehicle_type_id":"4","last_reported":1774722372,"current_range_meters":8000,"station_id":"","pricing_plan_id":"cebpf4jnsgd1na2vs0mg"},{"bike_id":"d32aa1bf-1440-405b-937c-d48e8423d1b5","system_id":"levelo_inurba_marseille","lat":43.31221,"lon":5.36874,"is_reserved":false,"is_disabled":false,"rental_uris":{"android":"levelo://app?vid=d32aa1bf-1440-405b-937c-d48e8423d1b5","ios":"levelo://app?vid=d32aa1bf-1440-405b-937c-d48e8423d1b5"},"vehicle_type_id":"4","last_reported":1774722372,"current_range_meters":8000,"station_id":"ce4bgl92rcd13ifvqbq0","pricing_plan_id":"cebpf4jnsgd1na2vs0mg"},{"bike_id":"2503cf11-d25b-454f-850c-d735d4d3ed09","system_id":"levelo_inurba_marseille","lat":43.28026,"lon":5.36949,"is_reserved":false,"is_disabled":false,"rental_uris":{"android":"levelo://app?vid=2503cf11-d25b-454f-850c-d735d4d3ed09","ios":"levelo://app?vid=2503cf11-d25b-454f-850c-d735d4d3ed09"},"vehicle_type_id":"4","last_reported":1774722372,"current_range_meters":8000,"station_id":"ce4bha12rcd13ifvqef0","pricing_plan_id":"cebpf4jnsgd1na2vs0mg"},{"bike_id":"e8bd8254-2909-4d6d-a6a9-c5d493a3c617","system_id":"levelo_inurba_marseille","lat":43.26956,"lon":5.40272,"is_reserved":false,"is_disabled":false,"rental_uris":{"android":"levelo://app?vid=e8bd8254-2909-4d6d-a6a9-c5d493a3c617","ios":"levelo://app?vid=e8bd8254-2909-4d6d-a6a9-c5d493a3c617"},"vehicle_type_id":"4","last_reported":1774722372,"current_range_meters":8000,"station_id":"cjm6bp8fraef2m0cb0m0","pricing_plan_id":"cebpf4jnsgd1na2vs0mg"},{"bike_id":"fadb9bc0-68a6-44e7-984d-9151bdc84414","system_id":"levelo_inurba_marseille","lat":43.31363,"lon":5.38501,"is_reserved":false,"is_disabled":false,"rental_uris":{"android":"levelo://app?vid=fadb9bc0-68a6-44e7-984d-9151bdc84414","ios":"levelo://app?vid=fadb9bc0-68a6-44e7-984d-9151bdc84414"},"vehicle_type_id":"4","last_reported":1774722372,"current_range_meters":8000,"station_id":"ce4bgt92rcd13ifvqcf0","pricing_plan_id":"cebpf4jnsgd1na2vs0mg"},{"bike_id":"c2981b41-70b3-4e70-8d06-dc1902aed07f","system_id":"levelo_inurba_marseille","lat":43.28608,"lon":5.35101,"is_reserved":false,"is_disabled":false,"rental_uris":{"android":"levelo://app?vid=c2981b41-70b3-4e70-8d06-dc1902aed07f","ios":"levelo://app?vid=c2981b41-70b3-4e70-8d06-dc1902aed07f"},"vehicle_type_id":"4","last_reported":1774722372,"current_range_meters":8000,"station_id":"ce4bhch2rcd13ifvqeug","pricing_plan_id":"cebpf4jnsgd1na2vs0mg"},{"bike_id":"ef935ed1-650a-4632-b4dd-10e5cb1ef5b4","system_id":"levelo_inurba_marseille","lat":43.28429,"lon":5.34994,"is_reserved":false,"is_disabled":false,"rental_uris":{"android":"levelo://app?vid=ef935ed1-650a-4632-b4dd-10e5cb1ef5b4","ios":"levelo://app?vid=ef935ed1-650a-4632-b4dd-10e5cb1ef5b4"},"vehicle_type_id":"4","last_reported":1774722372,"current_range_meters":8000,"station_id":"ce4bhbh2rcd13ifvqepg","pricing_plan_id":"cebpf4jnsgd1na2vs0mg"},{"bike_id":"ae7817b9-016d-4d7c-a1d3-576ef8677ca0","system_id":"levelo_inurba_marseille","lat":43.27619,"lon":5.36103,"is_reserved":false,"is_disabled":false,"rental_uris":{"android":"levelo://app?vid=ae7817b9-016d-4d7c-a1d3-576ef8677ca0","ios":"levelo://app?vid=ae7817b9-016d-4d7c-a1d3-576ef8677ca0"},"vehicle_type_id":"4","last_reported":1774722372,"current_range_meters":8000,"station_id":"ce4bgj92rcd13ifvqbe0","pricing_plan_id":"cebpf4jnsgd1na2vs0mg"},{"bike_id":"67c1c6e6-4211-4250-be02-a52880e1c23a","system_id":"levelo_inurba_marseille","lat":43.2653,"lon":5.4071,"is_reserved":false,"is_disabled":false,"rental_uris":{"android":"levelo://app?vid=67c1c6e6-4211-4250-be02-a52880e1c23a","ios":"levelo://app?vid=67c1c6e6-4211-4250-be02-a52880e1c23a"},"vehicle_type_id":"4","last_reported":1774722372,"current_range_meters":8000,"station_id":"","pricing_plan_id":"cebpf4jnsgd1na2vs0mg"},{"bike_id":"4f5cf7ef-ddb5-4d25-9c0b-bec33f5f4447","system_id":"levelo_inurba_marseille","lat":43.30911,"lon":5.36801,"is_reserved":false,"is_disabled":false,"rental_uris":{"android":"levelo://app?vid=4f5cf7ef-ddb5-4d25-9c0b-bec33f5f4447","ios":"levelo://app?vid=4f5cf7ef-ddb5-4d25-9c0b-bec33f5f4447"},"vehicle_type_id":"4","last_reported":1774722372,"current_range_meters":8000,"station_id":"ce4bgn92rcd13ifvqbvg","pricing_plan_id":"cebpf4jnsgd1na2vs0mg"},{"bike_id":"be4a1afc-a843-49e6-a087-d809924f7dda","system_id":"levelo_inurba_marseille","lat":43.28966,"lon":5.38413,"is_reserved":false,"is_disabled":true,"rental_uris":{"android":"levelo://app?vid=be4a1afc-a843-49e6-a087-d809924f7dda","ios":"levelo://app?vid=be4a1afc-a843-49e6-a087-d809924f7dda"},"vehicle_type_id":"4","last_reported":1774722372,"current_range_meters":8000,"station_id":"ce4bh612rcd13ifvqe6g","pricing_plan_id":"cebpf4jnsgd1na2vs0mg"},{"bike_id":"659ed71c-7828-4d0b-ab05-6c93cf3bbcb4","system_id":"levelo_inurba_marseille","lat":43.30448,"lon":5.38881,"is_reserved":false,"is_disabled":false,"rental_uris":{"android":"levelo://app?vid=659ed71c-7828-4d0b-ab05-6c93cf3bbcb4","ios":"levelo://app?vid=659ed71c-7828-4d0b-ab05-6c93cf3bbcb4"},"vehicle_type_id":"4","last_reported":1774722372,"current_range_meters":8400,"station_id":"ce4bgk12rcd13ifvqbi0","pricing_plan_id":"cebpf4jnsgd1na2vs0mg"},{"bike_id":"2467f598-920a-477f-9c27-52d7293cbf42","system_id":"levelo_inurba_marseille","lat":43.28421,"lon":5.34985,"is_reserved":false,"is_disabled":false,"rental_uris":{"android":"levelo://app?vid=2467f598-920a-477f-9c27-52d7293cbf42","ios":"levelo://app?vid=2467f598-920a-477f-9c27-52d7293cbf42"},"vehicle_type_id":"4","last_reported":1774722372,"current_range_meters":8400,"station_id":"ce4bhbh2rcd13ifvqepg","pricing_plan_id":"cebpf4jnsgd1na2vs0mg"},{"bike_id":"b1e731c5-a019-40fb-b94c-b458e0eddb64","system_id":"levelo_inurba_marseille","lat":43.238,"lon":5.38624,"is_reserved":false,"is_disabled":false,"rental_uris":{"android":"levelo://app?vid=b1e731c5-a019-40fb-b94c-b458e0eddb64","ios":"levelo://app?vid=b1e731c5-a019-40fb-b94c-b458e0eddb64"},"vehicle_type_id":"4","last_reported":1774722372,"current_range_meters":8400,"station_id":"","pricing_plan_id":"cebpf4jnsgd1na2vs0mg"},{"bike_id":"66d1b840-1f8c-4910-b4b8-0236bb3e36e6","system_id":"levelo_inurba_marseille","lat":43.26582,"lon":5.39046,"is_reserved":false,"is_disabled":false,"rental_uris":{"android":"levelo://app?vid=66d1b840-1f8c-4910-b4b8-0236bb3e36e6","ios":"levelo://app?vid=66d1b840-1f8c-4910-b4b8-0236bb3e36e6"},"vehicle_type_id":"4","last_reported":1774722372,"current_range_meters":8400,"station_id":"ce4bhe12rcd13ifvqf30","pricing_plan_id":"cebpf4jnsgd1na2vs0mg"},{"bike_id":"015ad18d-3d69-4699-987a-2a91bd78292f","system_id":"levelo_inurba_marseille","lat":43.31713,"lon":5.43711,"is_reserved":false,"is_disabled":false,"rental_uris":{"android":"levelo://app?vid=015ad18d-3d69-4699-987a-2a91bd78292f","ios":"levelo://app?vid=015ad18d-3d69-4699-987a-2a91bd78292f"},"vehicle_type_id":"4","last_reported":1774722372,"current_range_meters":8400,"station_id":"ce4bhp92rcd13ifvqhcg","pricing_plan_id":"cebpf4jnsgd1na2vs0mg"},{"bike_id":"225e8b45-99f9-4029-a985-3d023789841e","system_id":"levelo_inurba_marseille","lat":43.29709,"lon":5.38986,"is_reserved":false,"is_disabled":false,"rental_uris":{"android":"levelo://app?vid=225e8b45-99f9-4029-a985-3d023789841e","ios":"levelo://app?vid=225e8b45-99f9-4029-a985-3d023789841e"},"vehicle_type_id":"4","last_reported":1774722372,"current_range_meters":8400,"station_id":"","pricing_plan_id":"cebpf4jnsgd1na2vs0mg"},{"bike_id":"44b061ea-ac90-4ccb-8d43-7cab8ff1f0e0","system_id":"levelo_inurba_marseille","lat":43.26046,"lon":5.39372,"is_reserved":false,"is_disabled":false,"rental_uris":{"android":"levelo://app?vid=44b061ea-ac90-4ccb-8d43-7cab8ff1f0e0","ios":"levelo://app?vid=44b061ea-ac90-4ccb-8d43-7cab8ff1f0e0"},"vehicle_type_id":"4","last_reported":1774722372,"current_range_meters":8400,"station_id":"ce4bhh92rcd13ifvqfj0","pricing_plan_id":"cebpf4jnsgd1na2vs0mg"},{"bike_id":"a8070160-f932-4ae2-8cc2-f25f51c56f92","system_id":"levelo_inurba_marseille","lat":43.2732,"lon":5.39075,"is_reserved":false,"is_disabled":false,"rental_uris":{"android":"levelo://app?vid=a8070160-f932-4ae2-8cc2-f25f51c56f92","ios":"levelo://app?vid=a8070160-f932-4ae2-8cc2-f25f51c56f92"},"vehicle_type_id":"4","last_reported":1774722372,"current_range_meters":8400,"station_id":"ce4bhgp2rcd13ifvqfe0","pricing_plan_id":"cebpf4jnsgd1na2vs0mg"},{"bike_id":"92cb4986-12bc-44d4-ad49-496427bf2b45","system_id":"levelo_inurba_marseille","lat":43.28526,"lon":5.44109,"is_reserved":false,"is_disabled":false,"rental_uris":{"android":"levelo://app?vid=92cb4986-12bc-44d4-ad49-496427bf2b45","ios":"levelo://app?vid=92cb4986-12bc-44d4-ad49-496427bf2b45"},"vehicle_type_id":"4","last_reported":1774722372,"current_range_meters":8400,"station_id":"st_d3j3df2ikq2c7380ej80","pricing_plan_id":"cebpf4jnsgd1na2vs0mg"},{"bike_id":"669e310f-d17b-431a-94cf-7805aaddff80","system_id":"levelo_inurba_marseille","lat":43.27336,"lon":5.39073,"is_reserved":false,"is_disabled":false,"rental_uris":{"android":"levelo://app?vid=669e310f-d17b-431a-94cf-7805aaddff80","ios":"levelo://app?vid=669e310f-d17b-431a-94cf-7805aaddff80"},"vehicle_type_id":"4","last_reported":1774722372,"current_range_meters":8400,"station_id":"ce4bhgp2rcd13ifvqfe0","pricing_plan_id":"cebpf4jnsgd1na2vs0mg"},{"bike_id":"c09263af-5f3c-4487-9b20-dca4afc4c1ed","system_id":"levelo_inurba_marseille","lat":43.28628,"lon":5.3511,"is_reserved":false,"is_disabled":false,"rental_uris":{"android":"levelo://app?vid=c09263af-5f3c-4487-9b20-dca4afc4c1ed","ios":"levelo://app?vid=c09263af-5f3c-4487-9b20-dca4afc4c1ed"},"vehicle_type_id":"4","last_reported":1774722372,"current_range_meters":8400,"station_id":"ce4bhch2rcd13ifvqeug","pricing_plan_id":"cebpf4jnsgd1na2vs0mg"},{"bike_id":"3ed4eab2-4337-4180-944e-25a1895e5709","system_id":"levelo_inurba_marseille","lat":43.31053,"lon":5.37144,"is_reserved":false,"is_disabled":false,"rental_uris":{"android":"levelo://app?vid=3ed4eab2-4337-4180-944e-25a1895e5709","ios":"levelo://app?vid=3ed4eab2-4337-4180-944e-25a1895e5709"},"vehicle_type_id":"4","last_reported":1774722372,"current_range_meters":8400,"station_id":"st_d4kl2rp97mjs73e7tdfg","pricing_plan_id":"cebpf4jnsgd1na2vs0mg"},{"bike_id":"b44a4693-952f-4f72-9715-9477a81beee3","system_id":"levelo_inurba_marseille","lat":43.21748,"lon":5.34621,"is_reserved":false,"is_disabled":false,"rental_uris":{"android":"levelo://app?vid=b44a4693-952f-4f72-9715-9477a81beee3","ios":"levelo://app?vid=b44a4693-952f-4f72-9715-9477a81beee3"},"vehicle_type_id":"4","last_reported":1774722372,"current_range_meters":8400,"station_id":"st_cvj6r9ubvosntc0bgbag","pricing_plan_id":"cebpf4jnsgd1na2vs0mg"},{"bike_id":"d42918c2-5949-42d0-8ebe-a9ca1daba3bd","system_id":"levelo_inurba_marseille","lat":43.28479,"lon":5.35975,"is_reserved":false,"is_disabled":true,"rental_uris":{"android":"levelo://app?vid=d42918c2-5949-42d0-8ebe-a9ca1daba3bd","ios":"levelo://app?vid=d42918c2-5949-42d0-8ebe-a9ca1daba3bd"},"vehicle_type_id":"4","last_reported":1774722372,"current_range_meters":8400,"station_id":"ce4bhah2rcd13ifvqei0","pricing_plan_id":"cebpf4jnsgd1na2vs0mg"},{"bike_id":"f4f7db7c-e955-4443-817b-0fa4b526ad74","system_id":"levelo_inurba_marseille","lat":43.26887,"lon":5.40214,"is_reserved":false,"is_disabled":false,"rental_uris":{"android":"levelo://app?vid=f4f7db7c-e955-4443-817b-0fa4b526ad74","ios":"levelo://app?vid=f4f7db7c-e955-4443-817b-0fa4b526ad74"},"vehicle_type_id":"4","last_reported":1774722372,"current_range_meters":8400,"station_id":"","pricing_plan_id":"cebpf4jnsgd1na2vs0mg"},{"bike_id":"32c16b1d-fde7-41b8-88af-f932c3c8aedf","system_id":"levelo_inurba_marseille","lat":43.2733,"lon":5.39091,"is_reserved":false,"is_disabled":false,"rental_uris":{"android":"levelo://app?vid=32c16b1d-fde7-41b8-88af-f932c3c8aedf","ios":"levelo://app?vid=32c16b1d-fde7-41b8-88af-f932c3c8aedf"},"vehicle_type_id":"4","last_reported":1774722372,"current_range_meters":8400,"station_id":"ce4bhgp2rcd13ifvqfe0","pricing_plan_id":"cebpf4jnsgd1na2vs0mg"},{"bike_id":"4a78e52d-0071-48f8-a4d3-13a8b2126ecd","system_id":"levelo_inurba_marseille","lat":43.29528,"lon":5.37504,"is_reserved":false,"is_disabled":false,"rental_uris":{"android":"levelo://app?vid=4a78e52d-0071-48f8-a4d3-13a8b2126ecd","ios":"levelo://app?vid=4a78e52d-0071-48f8-a4d3-13a8b2126ecd"},"vehicle_type_id":"4","last_reported":1774722372,"current_range_meters":8400,"station_id":"ce4bgkp2rcd13ifvqbmg","pricing_plan_id":"cebpf4jnsgd1na2vs0mg"},{"bike_id":"e6133046-4be1-45e0-976a-3b79e863bbb5","system_id":"levelo_inurba_marseille","lat":43.266804,"lon":5.382751,"is_reserved":false,"is_disabled":false,"rental_uris":{"android":"levelo://app?vid=e6133046-4be1-45e0-976a-3b79e863bbb5","ios":"levelo://app?vid=e6133046-4be1-45e0-976a-3b79e863bbb5"},"vehicle_type_id":"4","last_reported":1774722372,"current_range_meters":8400,"station_id":"ce4bhg92rcd13ifvqf90","pricing_plan_id":"cebpf4jnsgd1na2vs0mg"},{"bike_id":"2890b77e-7b82-4cf9-8b35-b2e9af77bfcf","system_id":"levelo_inurba_marseille","lat":43.25334,"lon":5.4217,"is_reserved":false,"is_disabled":false,"rental_uris":{"android":"levelo://app?vid=2890b77e-7b82-4cf9-8b35-b2e9af77bfcf","ios":"levelo://app?vid=2890b77e-7b82-4cf9-8b35-b2e9af77bfcf"},"vehicle_type_id":"4","last_reported":1774722372,"current_range_meters":8800,"station_id":"st_d2m65c5bi1j21697t3ng","pricing_plan_id":"cebpf4jnsgd1na2vs0mg"},{"bike_id":"a9176eb7-c188-4ff4-912f-d4e94b60be86","system_id":"levelo_inurba_marseille","lat":43.23786,"lon":5.36664,"is_reserved":false,"is_disabled":false,"rental_uris":{"android":"levelo://app?vid=a9176eb7-c188-4ff4-912f-d4e94b60be86","ios":"levelo://app?vid=a9176eb7-c188-4ff4-912f-d4e94b60be86"},"vehicle_type_id":"4","last_reported":1774722372,"current_range_meters":8800,"station_id":"st_d3nk18o9ro0c73en2l3g","pricing_plan_id":"cebpf4jnsgd1na2vs0mg"},{"bike_id":"38a4770b-aa61-4e1e-82ea-9b5ee50912c9","system_id":"levelo_inurba_marseille","lat":43.26188,"lon":5.3746,"is_reserved":false,"is_disabled":false,"rental_uris":{"android":"levelo://app?vid=38a4770b-aa61-4e1e-82ea-9b5ee50912c9","ios":"levelo://app?vid=38a4770b-aa61-4e1e-82ea-9b5ee50912c9"},"vehicle_type_id":"4","last_reported":1774722372,"current_range_meters":8800,"station_id":"ce4bhgp2rcd13ifvqfc0","pricing_plan_id":"cebpf4jnsgd1na2vs0mg"},{"bike_id":"36141db5-b3a5-4009-8266-2dd4f38320ae","system_id":"levelo_inurba_marseille","lat":43.23782,"lon":5.36631,"is_reserved":false,"is_disabled":false,"rental_uris":{"android":"levelo://app?vid=36141db5-b3a5-4009-8266-2dd4f38320ae","ios":"levelo://app?vid=36141db5-b3a5-4009-8266-2dd4f38320ae"},"vehicle_type_id":"4","last_reported":1774722372,"current_range_meters":8800,"station_id":"st_d3nk18o9ro0c73en2l3g","pricing_plan_id":"cebpf4jnsgd1na2vs0mg"},{"bike_id":"970c0018-efd3-4265-ba0d-669fd24b3e90","system_id":"levelo_inurba_marseille","lat":43.30959,"lon":5.3903,"is_reserved":false,"is_disabled":true,"rental_uris":{"android":"levelo://app?vid=970c0018-efd3-4265-ba0d-669fd24b3e90","ios":"levelo://app?vid=970c0018-efd3-4265-ba0d-669fd24b3e90"},"vehicle_type_id":"4","last_reported":1774722372,"current_range_meters":8800,"station_id":"ce4bgup2rcd13ifvqco0","pricing_plan_id":"cebpf4jnsgd1na2vs0mg"},{"bike_id":"bff5654d-0dcd-44a1-9ab1-bc2510cbcecf","system_id":"levelo_inurba_marseille","lat":43.28251,"lon":5.35059,"is_reserved":false,"is_disabled":false,"rental_uris":{"android":"levelo://app?vid=bff5654d-0dcd-44a1-9ab1-bc2510cbcecf","ios":"levelo://app?vid=bff5654d-0dcd-44a1-9ab1-bc2510cbcecf"},"vehicle_type_id":"4","last_reported":1774722372,"current_range_meters":8800,"station_id":"ce4bhbp2rcd13ifvqerg","pricing_plan_id":"cebpf4jnsgd1na2vs0mg"},{"bike_id":"2c76498e-1409-4d1d-aa11-912dd68ff926","system_id":"levelo_inurba_marseille","lat":43.28513,"lon":5.44134,"is_reserved":false,"is_disabled":false,"rental_uris":{"android":"levelo://app?vid=2c76498e-1409-4d1d-aa11-912dd68ff926","ios":"levelo://app?vid=2c76498e-1409-4d1d-aa11-912dd68ff926"},"vehicle_type_id":"4","last_reported":1774722372,"current_range_meters":8800,"station_id":"st_d3j3df2ikq2c7380ej80","pricing_plan_id":"cebpf4jnsgd1na2vs0mg"},{"bike_id":"253bfbd1-c3f6-4b72-a716-55890f3b4db7","system_id":"levelo_inurba_marseille","lat":43.28487,"lon":5.48424,"is_reserved":false,"is_disabled":false,"rental_uris":{"android":"levelo://app?vid=253bfbd1-c3f6-4b72-a716-55890f3b4db7","ios":"levelo://app?vid=253bfbd1-c3f6-4b72-a716-55890f3b4db7"},"vehicle_type_id":"4","last_reported":1774722372,"current_range_meters":8800,"station_id":"","pricing_plan_id":"cebpf4jnsgd1na2vs0mg"},{"bike_id":"951ccfa0-2bbb-441f-98aa-0e6f6567daed","system_id":"levelo_inurba_marseille","lat":43.28694,"lon":5.37329,"is_reserved":false,"is_disabled":false,"rental_uris":{"android":"levelo://app?vid=951ccfa0-2bbb-441f-98aa-0e6f6567daed","ios":"levelo://app?vid=951ccfa0-2bbb-441f-98aa-0e6f6567daed"},"vehicle_type_id":"4","last_reported":1774722372,"current_range_meters":8800,"station_id":"ce4bh3p2rcd13ifvqdq0","pricing_plan_id":"cebpf4jnsgd1na2vs0mg"},{"bike_id":"d9275995-6199-47cd-9641-416f87712e15","system_id":"levelo_inurba_marseille","lat":43.2378,"lon":5.36636,"is_reserved":false,"is_disabled":false,"rental_uris":{"android":"levelo://app?vid=d9275995-6199-47cd-9641-416f87712e15","ios":"levelo://app?vid=d9275995-6199-47cd-9641-416f87712e15"},"vehicle_type_id":"4","last_reported":1774722372,"current_range_meters":8800,"station_id":"st_d3nk18o9ro0c73en2l3g","pricing_plan_id":"cebpf4jnsgd1na2vs0mg"},{"bike_id":"cc59f728-d7ea-44ba-a83b-ab5dcd4ed237","system_id":"levelo_inurba_marseille","lat":43.30553,"lon":5.36538,"is_reserved":false,"is_disabled":false,"rental_uris":{"android":"levelo://app?vid=cc59f728-d7ea-44ba-a83b-ab5dcd4ed237","ios":"levelo://app?vid=cc59f728-d7ea-44ba-a83b-ab5dcd4ed237"},"vehicle_type_id":"4","last_reported":1774722372,"current_range_meters":8800,"station_id":"ce4bgs12rcd13ifvqcag","pricing_plan_id":"cebpf4jnsgd1na2vs0mg"},{"bike_id":"76201515-ae70-408c-82ba-b2d7c39b0327","system_id":"levelo_inurba_marseille","lat":43.25108,"lon":5.40329,"is_reserved":false,"is_disabled":false,"rental_uris":{"android":"levelo://app?vid=76201515-ae70-408c-82ba-b2d7c39b0327","ios":"levelo://app?vid=76201515-ae70-408c-82ba-b2d7c39b0327"},"vehicle_type_id":"4","last_reported":1774722372,"current_range_meters":8800,"station_id":"ce4bhlh2rcd13ifvqgig","pricing_plan_id":"cebpf4jnsgd1na2vs0mg"},{"bike_id":"e7bd119b-30de-4df6-bef1-c0224e1d1fa7","system_id":"levelo_inurba_marseille","lat":43.30538,"lon":5.36536,"is_reserved":false,"is_disabled":false,"rental_uris":{"android":"levelo://app?vid=e7bd119b-30de-4df6-bef1-c0224e1d1fa7","ios":"levelo://app?vid=e7bd119b-30de-4df6-bef1-c0224e1d1fa7"},"vehicle_type_id":"4","last_reported":1774722372,"current_range_meters":8800,"station_id":"ce4bgs12rcd13ifvqcag","pricing_plan_id":"cebpf4jnsgd1na2vs0mg"},{"bike_id":"169f3c1b-c2db-476e-bb9f-8a4024988cd2","system_id":"levelo_inurba_marseille","lat":43.26945,"lon":5.4025,"is_reserved":false,"is_disabled":false,"rental_uris":{"android":"levelo://app?vid=169f3c1b-c2db-476e-bb9f-8a4024988cd2","ios":"levelo://app?vid=169f3c1b-c2db-476e-bb9f-8a4024988cd2"},"vehicle_type_id":"4","last_reported":1774722372,"current_range_meters":8800,"station_id":"cjm6bp8fraef2m0cb0m0","pricing_plan_id":"cebpf4jnsgd1na2vs0mg"},{"bike_id":"c609aa61-79d9-47bd-b7b7-62d640d7b9ef","system_id":"levelo_inurba_marseille","lat":43.2654,"lon":5.37314,"is_reserved":false,"is_disabled":true,"rental_uris":{"android":"levelo://app?vid=c609aa61-79d9-47bd-b7b7-62d640d7b9ef","ios":"levelo://app?vid=c609aa61-79d9-47bd-b7b7-62d640d7b9ef"},"vehicle_type_id":"4","last_reported":1774722372,"current_range_meters":8800,"station_id":"ce4bhg12rcd13ifvqf70","pricing_plan_id":"cebpf4jnsgd1na2vs0mg"},{"bike_id":"9734b273-60f7-470c-811a-4ce9630fdf91","system_id":"levelo_inurba_marseille","lat":43.26781,"lon":5.39444,"is_reserved":false,"is_disabled":false,"rental_uris":{"android":"levelo://app?vid=9734b273-60f7-470c-811a-4ce9630fdf91","ios":"levelo://app?vid=9734b273-60f7-470c-811a-4ce9630fdf91"},"vehicle_type_id":"4","last_reported":1774722372,"current_range_meters":8800,"station_id":"ce4bhh12rcd13ifvqfg0","pricing_plan_id":"cebpf4jnsgd1na2vs0mg"},{"bike_id":"752abf57-2523-4a36-ab7b-c328452703b1","system_id":"levelo_inurba_marseille","lat":43.24824,"lon":5.37446,"is_reserved":false,"is_disabled":false,"rental_uris":{"android":"levelo://app?vid=752abf57-2523-4a36-ab7b-c328452703b1","ios":"levelo://app?vid=752abf57-2523-4a36-ab7b-c328452703b1"},"vehicle_type_id":"4","last_reported":1774722372,"current_range_meters":8800,"station_id":"ce4bhgh2rcd13ifvqfb0","pricing_plan_id":"cebpf4jnsgd1na2vs0mg"},{"bike_id":"1ea3e1de-9ff6-46ee-aeb3-d3d825c6b6c3","system_id":"levelo_inurba_marseille","lat":43.26961,"lon":5.40245,"is_reserved":false,"is_disabled":false,"rental_uris":{"android":"levelo://app?vid=1ea3e1de-9ff6-46ee-aeb3-d3d825c6b6c3","ios":"levelo://app?vid=1ea3e1de-9ff6-46ee-aeb3-d3d825c6b6c3"},"vehicle_type_id":"4","last_reported":1774722372,"current_range_meters":8800,"station_id":"cjm6bp8fraef2m0cb0m0","pricing_plan_id":"cebpf4jnsgd1na2vs0mg"},{"bike_id":"56603236-0b6d-44e6-924a-3489e7c8fead","system_id":"levelo_inurba_marseille","lat":43.25848,"lon":5.3877,"is_reserved":false,"is_disabled":false,"rental_uris":{"android":"levelo://app?vid=56603236-0b6d-44e6-924a-3489e7c8fead","ios":"levelo://app?vid=56603236-0b6d-44e6-924a-3489e7c8fead"},"vehicle_type_id":"4","last_reported":1774722372,"current_range_meters":8800,"station_id":"","pricing_plan_id":"cebpf4jnsgd1na2vs0mg"},{"bike_id":"4e79269e-310f-484d-b648-1a1907f3534d","system_id":"levelo_inurba_marseille","lat":43.30425,"lon":5.38869,"is_reserved":false,"is_disabled":false,"rental_uris":{"android":"levelo://app?vid=4e79269e-310f-484d-b648-1a1907f3534d","ios":"levelo://app?vid=4e79269e-310f-484d-b648-1a1907f3534d"},"vehicle_type_id":"4","last_reported":1774722372,"current_range_meters":8800,"station_id":"ce4bgk12rcd13ifvqbi0","pricing_plan_id":"cebpf4jnsgd1na2vs0mg"},{"bike_id":"56ed71d3-4f24-4bcb-9e63-f10b7aa4866e","system_id":"levelo_inurba_marseille","lat":43.28426,"lon":5.35,"is_reserved":false,"is_disabled":false,"rental_uris":{"android":"levelo://app?vid=56ed71d3-4f24-4bcb-9e63-f10b7aa4866e","ios":"levelo://app?vid=56ed71d3-4f24-4bcb-9e63-f10b7aa4866e"},"vehicle_type_id":"4","last_reported":1774722372,"current_range_meters":8800,"station_id":"ce4bhbh2rcd13ifvqepg","pricing_plan_id":"cebpf4jnsgd1na2vs0mg"},{"bike_id":"d63efcf3-297a-4057-a80e-3ad0ad21111e","system_id":"levelo_inurba_marseille","lat":43.27316,"lon":5.39095,"is_reserved":false,"is_disabled":false,"rental_uris":{"android":"levelo://app?vid=d63efcf3-297a-4057-a80e-3ad0ad21111e","ios":"levelo://app?vid=d63efcf3-297a-4057-a80e-3ad0ad21111e"},"vehicle_type_id":"4","last_reported":1774722372,"current_range_meters":8800,"station_id":"ce4bhgp2rcd13ifvqfe0","pricing_plan_id":"cebpf4jnsgd1na2vs0mg"},{"bike_id":"5ecab434-8e19-46ce-9cce-324a319f3a65","system_id":"levelo_inurba_marseille","lat":43.27311,"lon":5.39047,"is_reserved":false,"is_disabled":false,"rental_uris":{"android":"levelo://app?vid=5ecab434-8e19-46ce-9cce-324a319f3a65","ios":"levelo://app?vid=5ecab434-8e19-46ce-9cce-324a319f3a65"},"vehicle_type_id":"4","last_reported":1774722372,"current_range_meters":8800,"station_id":"ce4bhgp2rcd13ifvqfe0","pricing_plan_id":"cebpf4jnsgd1na2vs0mg"},{"bike_id":"a20860db-5e6f-4257-b103-c77c212b043f","system_id":"levelo_inurba_marseille","lat":43.29811,"lon":5.39351,"is_reserved":false,"is_disabled":true,"rental_uris":{"android":"levelo://app?vid=a20860db-5e6f-4257-b103-c77c212b043f","ios":"levelo://app?vid=a20860db-5e6f-4257-b103-c77c212b043f"},"vehicle_type_id":"4","last_reported":1774722372,"current_range_meters":8800,"station_id":"chh1huq6cuj3fo74tm60","pricing_plan_id":"cebpf4jnsgd1na2vs0mg"},{"bike_id":"659ccfdf-569f-4f01-84dd-6c9bbfa33ac4","system_id":"levelo_inurba_marseille","lat":43.2381,"lon":5.36641,"is_reserved":false,"is_disabled":false,"rental_uris":{"android":"levelo://app?vid=659ccfdf-569f-4f01-84dd-6c9bbfa33ac4","ios":"levelo://app?vid=659ccfdf-569f-4f01-84dd-6c9bbfa33ac4"},"vehicle_type_id":"4","last_reported":1774722372,"current_range_meters":8800,"station_id":"st_d3nk18o9ro0c73en2l3g","pricing_plan_id":"cebpf4jnsgd1na2vs0mg"},{"bike_id":"92bf22ba-7fc3-4cf6-b1ef-b0b91d5c25fc","system_id":"levelo_inurba_marseille","lat":43.24389,"lon":5.37067,"is_reserved":false,"is_disabled":false,"rental_uris":{"android":"levelo://app?vid=92bf22ba-7fc3-4cf6-b1ef-b0b91d5c25fc","ios":"levelo://app?vid=92bf22ba-7fc3-4cf6-b1ef-b0b91d5c25fc"},"vehicle_type_id":"4","last_reported":1774722372,"current_range_meters":8800,"station_id":"ce4bhhh2rcd13ifvqfk0","pricing_plan_id":"cebpf4jnsgd1na2vs0mg"},{"bike_id":"2f2b1d2c-1be4-402e-a839-6d84d3bfb79f","system_id":"levelo_inurba_marseille","lat":43.28436,"lon":5.34994,"is_reserved":false,"is_disabled":false,"rental_uris":{"android":"levelo://app?vid=2f2b1d2c-1be4-402e-a839-6d84d3bfb79f","ios":"levelo://app?vid=2f2b1d2c-1be4-402e-a839-6d84d3bfb79f"},"vehicle_type_id":"4","last_reported":1774722372,"current_range_meters":8800,"station_id":"ce4bhbh2rcd13ifvqepg","pricing_plan_id":"cebpf4jnsgd1na2vs0mg"},{"bike_id":"a67fc460-c077-4ade-9390-37cad8d5479c","system_id":"levelo_inurba_marseille","lat":43.21761,"lon":5.3459,"is_reserved":false,"is_disabled":false,"rental_uris":{"android":"levelo://app?vid=a67fc460-c077-4ade-9390-37cad8d5479c","ios":"levelo://app?vid=a67fc460-c077-4ade-9390-37cad8d5479c"},"vehicle_type_id":"4","last_reported":1774722372,"current_range_meters":8800,"station_id":"st_cvj6r9ubvosntc0bgbag","pricing_plan_id":"cebpf4jnsgd1na2vs0mg"},{"bike_id":"e2a44bf3-fe9b-4908-a18f-7e0f62bce54b","system_id":"levelo_inurba_marseille","lat":43.27051,"lon":5.40259,"is_reserved":false,"is_disabled":false,"rental_uris":{"android":"levelo://app?vid=e2a44bf3-fe9b-4908-a18f-7e0f62bce54b","ios":"levelo://app?vid=e2a44bf3-fe9b-4908-a18f-7e0f62bce54b"},"vehicle_type_id":"4","last_reported":1774722372,"current_range_meters":8800,"station_id":"ce4bhk92rcd13ifvqgc0","pricing_plan_id":"cebpf4jnsgd1na2vs0mg"},{"bike_id":"6bb0b471-d9fd-4829-afb8-629af606a0a9","system_id":"levelo_inurba_marseille","lat":43.26784,"lon":5.39445,"is_reserved":false,"is_disabled":false,"rental_uris":{"android":"levelo://app?vid=6bb0b471-d9fd-4829-afb8-629af606a0a9","ios":"levelo://app?vid=6bb0b471-d9fd-4829-afb8-629af606a0a9"},"vehicle_type_id":"4","last_reported":1774722372,"current_range_meters":9200,"station_id":"ce4bhh12rcd13ifvqfg0","pricing_plan_id":"cebpf4jnsgd1na2vs0mg"},{"bike_id":"4247c776-2951-4741-b1a8-85d5eef00372","system_id":"levelo_inurba_marseille","lat":43.27381,"lon":5.36267,"is_reserved":false,"is_disabled":false,"rental_uris":{"android":"levelo://app?vid=4247c776-2951-4741-b1a8-85d5eef00372","ios":"levelo://app?vid=4247c776-2951-4741-b1a8-85d5eef00372"},"vehicle_type_id":"4","last_reported":1774722372,"current_range_meters":9200,"station_id":"ce4bhbh2rcd13ifvqeo0","pricing_plan_id":"cebpf4jnsgd1na2vs0mg"},{"bike_id":"4a2c0f41-33ad-4d27-89ae-3ec521f606e9","system_id":"levelo_inurba_marseille","lat":43.28428,"lon":5.35047,"is_reserved":false,"is_disabled":false,"rental_uris":{"android":"levelo://app?vid=4a2c0f41-33ad-4d27-89ae-3ec521f606e9","ios":"levelo://app?vid=4a2c0f41-33ad-4d27-89ae-3ec521f606e9"},"vehicle_type_id":"4","last_reported":1774722372,"current_range_meters":9200,"station_id":"","pricing_plan_id":"cebpf4jnsgd1na2vs0mg"},{"bike_id":"0f430097-8d5e-4a5a-9147-4fc5e40a362e","system_id":"levelo_inurba_marseille","lat":43.33547,"lon":5.37436,"is_reserved":false,"is_disabled":false,"rental_uris":{"android":"levelo://app?vid=0f430097-8d5e-4a5a-9147-4fc5e40a362e","ios":"levelo://app?vid=0f430097-8d5e-4a5a-9147-4fc5e40a362e"},"vehicle_type_id":"4","last_reported":1774722372,"current_range_meters":9200,"station_id":"st_d46tts09ee8s73dlu43g","pricing_plan_id":"cebpf4jnsgd1na2vs0mg"},{"bike_id":"dd2afc2a-d3f5-42c3-a3d7-6c4ed376f5b8","system_id":"levelo_inurba_marseille","lat":43.232,"lon":5.35553,"is_reserved":false,"is_disabled":false,"rental_uris":{"android":"levelo://app?vid=dd2afc2a-d3f5-42c3-a3d7-6c4ed376f5b8","ios":"levelo://app?vid=dd2afc2a-d3f5-42c3-a3d7-6c4ed376f5b8"},"vehicle_type_id":"4","last_reported":1774722372,"current_range_meters":9200,"station_id":"ce4bhu92rcd13ifvqi70","pricing_plan_id":"cebpf4jnsgd1na2vs0mg"},{"bike_id":"c6cc4343-ac3b-4f05-8d8a-717c0018d1fc","system_id":"levelo_inurba_marseille","lat":43.25095,"lon":5.40322,"is_reserved":false,"is_disabled":false,"rental_uris":{"android":"levelo://app?vid=c6cc4343-ac3b-4f05-8d8a-717c0018d1fc","ios":"levelo://app?vid=c6cc4343-ac3b-4f05-8d8a-717c0018d1fc"},"vehicle_type_id":"4","last_reported":1774722372,"current_range_meters":9200,"station_id":"ce4bhlh2rcd13ifvqgig","pricing_plan_id":"cebpf4jnsgd1na2vs0mg"},{"bike_id":"54ea3d34-d79a-4ab1-886f-1335ba6b438a","system_id":"levelo_inurba_marseille","lat":43.30179,"lon":5.38115,"is_reserved":false,"is_disabled":true,"rental_uris":{"android":"levelo://app?vid=54ea3d34-d79a-4ab1-886f-1335ba6b438a","ios":"levelo://app?vid=54ea3d34-d79a-4ab1-886f-1335ba6b438a"},"vehicle_type_id":"4","last_reported":1774722372,"current_range_meters":9200,"station_id":"ce4bgjp2rcd13ifvqbh0","pricing_plan_id":"cebpf4jnsgd1na2vs0mg"},{"bike_id":"3f200426-1eba-4d5e-acb1-a1a43666133b","system_id":"levelo_inurba_marseille","lat":43.21189,"lon":5.35083,"is_reserved":false,"is_disabled":false,"rental_uris":{"android":"levelo://app?vid=3f200426-1eba-4d5e-acb1-a1a43666133b","ios":"levelo://app?vid=3f200426-1eba-4d5e-acb1-a1a43666133b"},"vehicle_type_id":"4","last_reported":1774722372,"current_range_meters":9200,"station_id":"st_cvj6sg6p6f1abm77japg","pricing_plan_id":"cebpf4jnsgd1na2vs0mg"},{"bike_id":"2d0fdc3d-338a-4727-826c-caea44a0cbfa","system_id":"levelo_inurba_marseille","lat":43.29811,"lon":5.44064,"is_reserved":false,"is_disabled":false,"rental_uris":{"android":"levelo://app?vid=2d0fdc3d-338a-4727-826c-caea44a0cbfa","ios":"levelo://app?vid=2d0fdc3d-338a-4727-826c-caea44a0cbfa"},"vehicle_type_id":"4","last_reported":1774722372,"current_range_meters":9200,"station_id":"st_d3jp68qikq2c7381ktn0","pricing_plan_id":"cebpf4jnsgd1na2vs0mg"},{"bike_id":"7005161c-2e0d-4cdc-b67a-ab23e115a888","system_id":"levelo_inurba_marseille","lat":43.30543,"lon":5.36554,"is_reserved":false,"is_disabled":false,"rental_uris":{"android":"levelo://app?vid=7005161c-2e0d-4cdc-b67a-ab23e115a888","ios":"levelo://app?vid=7005161c-2e0d-4cdc-b67a-ab23e115a888"},"vehicle_type_id":"4","last_reported":1774722372,"current_range_meters":9200,"station_id":"ce4bgs12rcd13ifvqcag","pricing_plan_id":"cebpf4jnsgd1na2vs0mg"},{"bike_id":"145b4d3d-82ce-46ba-9f78-b3ea4a179fa9","system_id":"levelo_inurba_marseille","lat":43.27418,"lon":5.39433,"is_reserved":false,"is_disabled":false,"rental_uris":{"android":"levelo://app?vid=145b4d3d-82ce-46ba-9f78-b3ea4a179fa9","ios":"levelo://app?vid=145b4d3d-82ce-46ba-9f78-b3ea4a179fa9"},"vehicle_type_id":"4","last_reported":1774722372,"current_range_meters":9200,"station_id":"ce4bhdp2rcd13ifvqf20","pricing_plan_id":"cebpf4jnsgd1na2vs0mg"},{"bike_id":"7f256ee3-3098-44ab-be53-a2b8c1a93022","system_id":"levelo_inurba_marseille","lat":43.2718,"lon":5.41008,"is_reserved":false,"is_disabled":false,"rental_uris":{"android":"levelo://app?vid=7f256ee3-3098-44ab-be53-a2b8c1a93022","ios":"levelo://app?vid=7f256ee3-3098-44ab-be53-a2b8c1a93022"},"vehicle_type_id":"4","last_reported":1774722372,"current_range_meters":9200,"station_id":"ce4bhl12rcd13ifvqgf0","pricing_plan_id":"cebpf4jnsgd1na2vs0mg"},{"bike_id":"90aaae4f-4bea-44a9-9991-726dd88eccf2","system_id":"levelo_inurba_marseille","lat":43.2338,"lon":5.41258,"is_reserved":false,"is_disabled":true,"rental_uris":{"android":"levelo://app?vid=90aaae4f-4bea-44a9-9991-726dd88eccf2","ios":"levelo://app?vid=90aaae4f-4bea-44a9-9991-726dd88eccf2"},"vehicle_type_id":"4","last_reported":1774722372,"current_range_meters":9200,"station_id":"","pricing_plan_id":"cebpf4jnsgd1na2vs0mg"},{"bike_id":"32a7a92c-b34f-4be3-bc6d-bf21d2e60027","system_id":"levelo_inurba_marseille","lat":43.32705,"lon":5.36654,"is_reserved":false,"is_disabled":true,"rental_uris":{"android":"levelo://app?vid=32a7a92c-b34f-4be3-bc6d-bf21d2e60027","ios":"levelo://app?vid=32a7a92c-b34f-4be3-bc6d-bf21d2e60027"},"vehicle_type_id":"4","last_reported":1774722372,"current_range_meters":9200,"station_id":"","pricing_plan_id":"cebpf4jnsgd1na2vs0mg"},{"bike_id":"5dc7a0c1-467a-4151-97ef-a8a655c4f7a5","system_id":"levelo_inurba_marseille","lat":43.28478,"lon":5.48396,"is_reserved":false,"is_disabled":false,"rental_uris":{"android":"levelo://app?vid=5dc7a0c1-467a-4151-97ef-a8a655c4f7a5","ios":"levelo://app?vid=5dc7a0c1-467a-4151-97ef-a8a655c4f7a5"},"vehicle_type_id":"4","last_reported":1774722372,"current_range_meters":9200,"station_id":"","pricing_plan_id":"cebpf4jnsgd1na2vs0mg"},{"bike_id":"b8bf157e-659b-4230-b7a5-7abce9abcca2","system_id":"levelo_inurba_marseille","lat":43.24697,"lon":5.38187,"is_reserved":false,"is_disabled":false,"rental_uris":{"android":"levelo://app?vid=b8bf157e-659b-4230-b7a5-7abce9abcca2","ios":"levelo://app?vid=b8bf157e-659b-4230-b7a5-7abce9abcca2"},"vehicle_type_id":"4","last_reported":1774722372,"current_range_meters":9200,"station_id":"ce4bhih2rcd13ifvqfr0","pricing_plan_id":"cebpf4jnsgd1na2vs0mg"},{"bike_id":"d62a5d15-d30d-45a6-9d77-7acbb1d6ccb8","system_id":"levelo_inurba_marseille","lat":43.30433,"lon":5.39752,"is_reserved":false,"is_disabled":false,"rental_uris":{"android":"levelo://app?vid=d62a5d15-d30d-45a6-9d77-7acbb1d6ccb8","ios":"levelo://app?vid=d62a5d15-d30d-45a6-9d77-7acbb1d6ccb8"},"vehicle_type_id":"4","last_reported":1774722372,"current_range_meters":9200,"station_id":"ce4bh092rcd13ifvqd20","pricing_plan_id":"cebpf4jnsgd1na2vs0mg"},{"bike_id":"ffbbe2a9-7484-4d0d-b2fd-42cde22f05be","system_id":"levelo_inurba_marseille","lat":43.25507,"lon":5.3765,"is_reserved":false,"is_disabled":false,"rental_uris":{"android":"levelo://app?vid=ffbbe2a9-7484-4d0d-b2fd-42cde22f05be","ios":"levelo://app?vid=ffbbe2a9-7484-4d0d-b2fd-42cde22f05be"},"vehicle_type_id":"4","last_reported":1774722372,"current_range_meters":9200,"station_id":"ce4bhh12rcd13ifvqff0","pricing_plan_id":"cebpf4jnsgd1na2vs0mg"},{"bike_id":"2e6de7a7-a9a4-4365-839e-c18232cb6718","system_id":"levelo_inurba_marseille","lat":43.27236,"lon":5.39211,"is_reserved":false,"is_disabled":false,"rental_uris":{"android":"levelo://app?vid=2e6de7a7-a9a4-4365-839e-c18232cb6718","ios":"levelo://app?vid=2e6de7a7-a9a4-4365-839e-c18232cb6718"},"vehicle_type_id":"4","last_reported":1774722372,"current_range_meters":9200,"station_id":"ce4bhhp2rcd13ifvqfm0","pricing_plan_id":"cebpf4jnsgd1na2vs0mg"},{"bike_id":"6cd08817-61b4-4fc1-aeda-8267dd2c4320","system_id":"levelo_inurba_marseille","lat":43.2853,"lon":5.44094,"is_reserved":false,"is_disabled":false,"rental_uris":{"android":"levelo://app?vid=6cd08817-61b4-4fc1-aeda-8267dd2c4320","ios":"levelo://app?vid=6cd08817-61b4-4fc1-aeda-8267dd2c4320"},"vehicle_type_id":"4","last_reported":1774722372,"current_range_meters":9200,"station_id":"st_d3j3df2ikq2c7380ej80","pricing_plan_id":"cebpf4jnsgd1na2vs0mg"},{"bike_id":"511cceea-4805-4050-b653-fce2a82fe2e1","system_id":"levelo_inurba_marseille","lat":43.28412,"lon":5.37522,"is_reserved":false,"is_disabled":false,"rental_uris":{"android":"levelo://app?vid=511cceea-4805-4050-b653-fce2a82fe2e1","ios":"levelo://app?vid=511cceea-4805-4050-b653-fce2a82fe2e1"},"vehicle_type_id":"4","last_reported":1774722372,"current_range_meters":9200,"station_id":"ce4bh412rcd13ifvqds0","pricing_plan_id":"cebpf4jnsgd1na2vs0mg"},{"bike_id":"39102ed9-35ac-4967-ba12-75c9c7fa9d3b","system_id":"levelo_inurba_marseille","lat":43.27086,"lon":5.40079,"is_reserved":false,"is_disabled":false,"rental_uris":{"android":"levelo://app?vid=39102ed9-35ac-4967-ba12-75c9c7fa9d3b","ios":"levelo://app?vid=39102ed9-35ac-4967-ba12-75c9c7fa9d3b"},"vehicle_type_id":"4","last_reported":1774722372,"current_range_meters":9200,"station_id":"","pricing_plan_id":"cebpf4jnsgd1na2vs0mg"},{"bike_id":"7e062c85-62a8-4bf8-8853-bbfeeca718da","system_id":"levelo_inurba_marseille","lat":43.27306,"lon":5.39088,"is_reserved":false,"is_disabled":false,"rental_uris":{"android":"levelo://app?vid=7e062c85-62a8-4bf8-8853-bbfeeca718da","ios":"levelo://app?vid=7e062c85-62a8-4bf8-8853-bbfeeca718da"},"vehicle_type_id":"4","last_reported":1774722372,"current_range_meters":9200,"station_id":"ce4bhgp2rcd13ifvqfe0","pricing_plan_id":"cebpf4jnsgd1na2vs0mg"},{"bike_id":"4c9a3293-f2c3-4e99-b5e1-94195ca699a4","system_id":"levelo_inurba_marseille","lat":43.28529,"lon":5.44146,"is_reserved":false,"is_disabled":false,"rental_uris":{"android":"levelo://app?vid=4c9a3293-f2c3-4e99-b5e1-94195ca699a4","ios":"levelo://app?vid=4c9a3293-f2c3-4e99-b5e1-94195ca699a4"},"vehicle_type_id":"4","last_reported":1774722372,"current_range_meters":9200,"station_id":"st_d3j3df2ikq2c7380ej80","pricing_plan_id":"cebpf4jnsgd1na2vs0mg"},{"bike_id":"bb10d408-984a-4b7b-ba0d-d1d72717ee7f","system_id":"levelo_inurba_marseille","lat":43.26985,"lon":5.40295,"is_reserved":false,"is_disabled":false,"rental_uris":{"android":"levelo://app?vid=bb10d408-984a-4b7b-ba0d-d1d72717ee7f","ios":"levelo://app?vid=bb10d408-984a-4b7b-ba0d-d1d72717ee7f"},"vehicle_type_id":"4","last_reported":1774722372,"current_range_meters":9200,"station_id":"cjm6bp8fraef2m0cb0m0","pricing_plan_id":"cebpf4jnsgd1na2vs0mg"},{"bike_id":"8de19b64-d378-465f-9aa8-ff69a194f602","system_id":"levelo_inurba_marseille","lat":43.27197,"lon":5.39159,"is_reserved":false,"is_disabled":false,"rental_uris":{"android":"levelo://app?vid=8de19b64-d378-465f-9aa8-ff69a194f602","ios":"levelo://app?vid=8de19b64-d378-465f-9aa8-ff69a194f602"},"vehicle_type_id":"4","last_reported":1774722372,"current_range_meters":9600,"station_id":"ce4bhhp2rcd13ifvqfm0","pricing_plan_id":"cebpf4jnsgd1na2vs0mg"},{"bike_id":"c2c2fdc2-88a9-4727-9a80-676fa95d9041","system_id":"levelo_inurba_marseille","lat":43.30546,"lon":5.36701,"is_reserved":false,"is_disabled":false,"rental_uris":{"android":"levelo://app?vid=c2c2fdc2-88a9-4727-9a80-676fa95d9041","ios":"levelo://app?vid=c2c2fdc2-88a9-4727-9a80-676fa95d9041"},"vehicle_type_id":"4","last_reported":1774722372,"current_range_meters":9600,"station_id":"ce4bgrp2rcd13ifvqc9g","pricing_plan_id":"cebpf4jnsgd1na2vs0mg"},{"bike_id":"2934d88c-6221-44dd-bee3-989a0775ea80","system_id":"levelo_inurba_marseille","lat":43.31063,"lon":5.37174,"is_reserved":false,"is_disabled":false,"rental_uris":{"android":"levelo://app?vid=2934d88c-6221-44dd-bee3-989a0775ea80","ios":"levelo://app?vid=2934d88c-6221-44dd-bee3-989a0775ea80"},"vehicle_type_id":"4","last_reported":1774722372,"current_range_meters":9600,"station_id":"st_d4kl2rp97mjs73e7tdfg","pricing_plan_id":"cebpf4jnsgd1na2vs0mg"},{"bike_id":"2de38fd0-4d56-4129-8633-4ee1741a5e1b","system_id":"levelo_inurba_marseille","lat":43.21194,"lon":5.35084,"is_reserved":false,"is_disabled":false,"rental_uris":{"android":"levelo://app?vid=2de38fd0-4d56-4129-8633-4ee1741a5e1b","ios":"levelo://app?vid=2de38fd0-4d56-4129-8633-4ee1741a5e1b"},"vehicle_type_id":"4","last_reported":1774722372,"current_range_meters":9600,"station_id":"st_cvj6sg6p6f1abm77japg","pricing_plan_id":"cebpf4jnsgd1na2vs0mg"},{"bike_id":"d98f9ba3-1e58-4555-a077-b1f57432e1ea","system_id":"levelo_inurba_marseille","lat":43.27065,"lon":5.40237,"is_reserved":false,"is_disabled":false,"rental_uris":{"android":"levelo://app?vid=d98f9ba3-1e58-4555-a077-b1f57432e1ea","ios":"levelo://app?vid=d98f9ba3-1e58-4555-a077-b1f57432e1ea"},"vehicle_type_id":"4","last_reported":1774722372,"current_range_meters":9600,"station_id":"ce4bhk92rcd13ifvqgc0","pricing_plan_id":"cebpf4jnsgd1na2vs0mg"},{"bike_id":"25a215c0-6185-4988-a946-459e463e94c2","system_id":"levelo_inurba_marseille","lat":43.28626,"lon":5.35094,"is_reserved":false,"is_disabled":false,"rental_uris":{"android":"levelo://app?vid=25a215c0-6185-4988-a946-459e463e94c2","ios":"levelo://app?vid=25a215c0-6185-4988-a946-459e463e94c2"},"vehicle_type_id":"4","last_reported":1774722372,"current_range_meters":9600,"station_id":"ce4bhch2rcd13ifvqeug","pricing_plan_id":"cebpf4jnsgd1na2vs0mg"},{"bike_id":"48c12b74-6f3a-40a8-94b3-e62be28f6fcf","system_id":"levelo_inurba_marseille","lat":43.32337,"lon":5.36762,"is_reserved":false,"is_disabled":false,"rental_uris":{"android":"levelo://app?vid=48c12b74-6f3a-40a8-94b3-e62be28f6fcf","ios":"levelo://app?vid=48c12b74-6f3a-40a8-94b3-e62be28f6fcf"},"vehicle_type_id":"4","last_reported":1774722372,"current_range_meters":9600,"station_id":"ce4bhsh2rcd13ifvqi2g","pricing_plan_id":"cebpf4jnsgd1na2vs0mg"},{"bike_id":"cada5dc9-6ff8-4a41-b6b3-669f52d669f0","system_id":"levelo_inurba_marseille","lat":43.28694,"lon":5.38667,"is_reserved":false,"is_disabled":false,"rental_uris":{"android":"levelo://app?vid=cada5dc9-6ff8-4a41-b6b3-669f52d669f0","ios":"levelo://app?vid=cada5dc9-6ff8-4a41-b6b3-669f52d669f0"},"vehicle_type_id":"4","last_reported":1774722372,"current_range_meters":9600,"station_id":"ce4bh492rcd13ifvqdug","pricing_plan_id":"cebpf4jnsgd1na2vs0mg"},{"bike_id":"bdaed5e7-39fc-4f15-88b1-8c6e200d65a7","system_id":"levelo_inurba_marseille","lat":43.27209,"lon":5.39231,"is_reserved":false,"is_disabled":false,"rental_uris":{"android":"levelo://app?vid=bdaed5e7-39fc-4f15-88b1-8c6e200d65a7","ios":"levelo://app?vid=bdaed5e7-39fc-4f15-88b1-8c6e200d65a7"},"vehicle_type_id":"4","last_reported":1774722372,"current_range_meters":9600,"station_id":"ce4bhhp2rcd13ifvqfm0","pricing_plan_id":"cebpf4jnsgd1na2vs0mg"},