{"last_updated":1706720801,"ttl":30,"version":"2.2","data":{"bikes":[{"bike_id":"c60494c0-faa4-4a9d-8c8f-45e1dcc03346","system_id":"levelo_inurba_marseille","lat":43.31341,"lon":5.367098,"is_reserved":false,"is_disabled":false,"rental_uris":{"android":"levelo://app?vid=c60494c0-faa4-4a9d-8c8f-45e1dcc03346","ios":"levelo://app?vid=c60494c0-faa4-4a9d-8c8f-45e1dcc03346"},"vehicle_type_id":"4","last_reported":1706720801,"current_range_meters":0,"station_id":"ce4bgr92rcd13ifvqc6g","pricing_plan_id":"free"},{"bike_id":"b4478244-e3ba-4ec2-ba9d-737016839a7a","system_id":"levelo_inurba_marseille","lat":43.314811,"lon":5.373103,"is_reserved":false,"is_disabled":false,"rental_uris":{"android":"levelo://app?vid=b4478244-e3ba-4ec2-ba9d-737016839a7a","ios":"levelo://app?vid=b4478244-e3ba-4ec2-ba9d-737016839a7a"},"vehicle_type_id":"4","last_reported":1706720801,"current_range_meters":400,"station_id":"ce4bgt12rcd13ifvqcd0","pricing_plan_id":"free"},{"bike_id":"9aac5573-234a-4f17-98c6-23d73dc66385","system_id":"levelo_inurba_marseille","lat":43.30902,"lon":5.37194,"is_reserved":false,"is_disabled":false,"rental_uris":{"android":"levelo://app?vid=9aac5573-234a-4f17-98c6-23d73dc66385","ios":"levelo://app?vid=9aac5573-234a-4f17-98c6-23d73dc66385"},"vehicle_type_id":"4","last_reported":1706720801,"current_range_meters":0,"station_id":"ce4bguh2rcd13ifvqckg","pricing_plan_id":"free"},{"bike_id":"f3600257-7939-473a-bc22-549dc0e5258e","system_id":"levelo_inurba_marseille","lat":43.309039,"lon":5.371797,"is_reserved":false,"is_disabled":false,"rental_uris":{"android":"levelo://app?vid=f3600257-7939-473a-bc22-549dc0e5258e","ios":"levelo://app?vid=f3600257-7939-473a-bc22-549dc0e5258e"},"vehicle_type_id":"4","last_reported":1706720801,"current_range_meters":28400,"station_id":"ce4bguh2rcd13ifvqckg","pricing_plan_id":"free"},{"bike_id":"2d96c2be-c98f-448b-9056-e6b4399d5025","system_id":"levelo_inurba_marseille","lat":43.30886,"lon":5.37195,"is_reserved":false,"is_disabled":false,"rental_uris":{"android":"levelo://app?vid=2d96c2be-c98f-448b-9056-e6b4399d5025","ios":"levelo://app?vid=2d96c2be-c98f-448b-9056-e6b4399d5025"},"vehicle_type_id":"4","last_reported":1706720801,"current_range_meters":0,"station_id":"ce4bguh2rcd13ifvqckg","pricing_plan_id":"free"},{"bike_id":"764af938-cc38-4109-b2d4-77615a2be0cd","system_id":"levelo_inurba_marseille","lat":43.305567,"lon":5.366969,"is_reserved":false,"is_disabled":false,"rental_uris":{"android":"levelo://app?vid=764af938-cc38-4109-b2d4-77615a2be0cd","ios":"levelo://app?vid=764af938-cc38-4109-b2d4-77615a2be0cd"},"vehicle_type_id":"4","last_reported":1706720801,"current_range_meters":24800,"station_id":"ce4bgrp2rcd13ifvqc9g","pricing_plan_id":"free"},{"bike_id":"8cc324d3-5410-4034-9a99-b6ccec2ecbf1","system_id":"levelo_inurba_marseille","lat":43.30537,"lon":5.367345,"is_reserved":false,"is_disabled":false,"rental_uris":{"android":"levelo://app?vid=8cc324d3-5410-4034-9a99-b6ccec2ecbf1","ios":"levelo://app?vid=8cc324d3-5410-4034-9a99-b6ccec2ecbf1"},"vehicle_type_id":"4","last_reported":1706720801,"current_range_meters":20800,"station_id":"ce4bgrp2rcd13ifvqc9g","pricing_plan_id":"free"},{"bike_id":"07b562b7-43c9-4550-9539-db961b2022dd","system_id":"levelo_inurba_marseille","lat":43.30537,"lon":5.367345,"is_reserved":false,"is_disabled":false,"rental_uris":{"android":"levelo://app?vid=07b562b7-43c9-4550-9539-db961b2022dd","ios":"levelo://app?vid=07b562b7-43c9-4550-9539-db961b2022dd"},"vehicle_type_id":"4","last_reported":1706720801,"current_range_meters":0,"station_id":"ce4bgrp2rcd13ifvqc9g","pricing_plan_id":"free"},{"bike_id":"8d0ec196-aad7-47aa-8dbf-e5dfc32fe049","system_id":"levelo_inurba_marseille","lat":43.30537,"lon":5.367345,"is_reserved":false,"is_disabled":false,"rental_uris":{"android":"levelo://app?vid=8d0ec196-aad7-47aa-8dbf-e5dfc32fe049","ios":"levelo://app?vid=8d0ec196-aad7-47aa-8dbf-e5dfc32fe049"},"vehicle_type_id":"4","last_reported":1706720801,"current_range_meters":20800,"station_id":"ce4bgrp2rcd13ifvqc9g","pricing_plan_id":"free"},{"bike_id":"91abd920-4acd-45be-987e-506db5b96414","system_id":"levelo_inurba_marseille","lat":43.30557,"lon":5.36527,"is_reserved":false,"is_disabled":false,"rental_uris":{"android":"levelo://app?vid=91abd920-4acd-45be-987e-506db5b96414","ios":"levelo://app?vid=91abd920-4acd-45be-987e-506db5b96414"},"vehicle_type_id":"4","last_reported":1706720801,"current_range_meters":0,"station_id":"ce4bgs12rcd13ifvqcag","pricing_plan_id":"free"},{"bike_id":"fd0eff68-1caf-43e5-a763-3e9dd406775e","system_id":"levelo_inurba_marseille","lat":43.30537,"lon":5.367345,"is_reserved":false,"is_disabled":false,"rental_uris":{"android":"levelo://app?vid=fd0eff68-1caf-43e5-a763-3e9dd406775e","ios":"levelo://app?vid=fd0eff68-1caf-43e5-a763-3e9dd406775e"},"vehicle_type_id":"4","last_reported":1706720801,"current_range_meters":6400,"station_id":"ce4bgrp2rcd13ifvqc9g","pricing_plan_id":"free"},{"bike_id":"00c01501-e1f9-4f2a-a84c-4312d696ebf4","system_id":"levelo_inurba_marseille","lat":43.305542,"lon":5.365419,"is_reserved":false,"is_disabled":false,"rental_uris":{"android":"levelo://app?vid=00c01501-e1f9-4f2a-a84c-4312d696ebf4","ios":"levelo://app?vid=00c01501-e1f9-4f2a-a84c-4312d696ebf4"},"vehicle_type_id":"4","last_reported":1706720801,"current_range_meters":0,"station_id":"ce4bgs12rcd13ifvqcag","pricing_plan_id":"free"},{"bike_id":"b65f74ff-8348-4fd7-941d-af4452bbcb9c","system_id":"levelo_inurba_marseille","lat":43.30537,"lon":5.367345,"is_reserved":false,"is_disabled":false,"rental_uris":{"android":"levelo://app?vid=b65f74ff-8348-4fd7-941d-af4452bbcb9c","ios":"levelo://app?vid=b65f74ff-8348-4fd7-941d-af4452bbcb9c"},"vehicle_type_id":"4","last_reported":1706720801,"current_range_meters":21600,"station_id":"ce4bgrp2rcd13ifvqc9g","pricing_plan_id":"free"},{"bike_id":"ae01ed09-f31b-480f-9fce-768052166673","system_id":"levelo_inurba_marseille","lat":43.305494,"lon":5.36532,"is_reserved":false,"is_disabled":false,"rental_uris":{"android":"levelo://app?vid=ae01ed09-f31b-480f-9fce-768052166673","ios":"levelo://app?vid=ae01ed09-f31b-480f-9fce-768052166673"},"vehicle_type_id":"4","last_reported":1706720801,"current_range_meters":5600,"station_id":"ce4bgs12rcd13ifvqcag","pricing_plan_id":"free"},{"bike_id":"fbeb6779-ff5c-4c10-9b3b-a4646a3a2f8f","system_id":"levelo_inurba_marseille","lat":43.30535,"lon":5.36724,"is_reserved":false,"is_disabled":false,"rental_uris":{"android":"levelo://app?vid=fbeb6779-ff5c-4c10-9b3b-a4646a3a2f8f","ios":"levelo://app?vid=fbeb6779-ff5c-4c10-9b3b-a4646a3a2f8f"},"vehicle_type_id":"4","last_reported":1706720801,"current_range_meters":0,"station_id":"ce4bgrp2rcd13ifvqc9g","pricing_plan_id":"free"},{"bike_id":"29690331-324a-4a25-ad9b-a082081197d2","system_id":"levelo_inurba_marseille","lat":43.305343,"lon":5.367067,"is_reserved":false,"is_disabled":false,"rental_uris":{"android":"levelo://app?vid=29690331-324a-4a25-ad9b-a082081197d2","ios":"levelo://app?vid=29690331-324a-4a25-ad9b-a082081197d2"},"vehicle_type_id":"4","last_reported":1706720801,"current_range_meters":0,"station_id":"ce4bgrp2rcd13ifvqc9g","pricing_plan_id":"free"},{"bike_id":"7dedfe46-a908-46f1-a2eb-eff6af8b8404","system_id":"levelo_inurba_marseille","lat":43.30542,"lon":5.365407,"is_reserved":false,"is_disabled":false,"rental_uris":{"android":"levelo://app?vid=7dedfe46-a908-46f1-a2eb-eff6af8b8404","ios":"levelo://app?vid=7dedfe46-a908-46f1-a2eb-eff6af8b8404"},"vehicle_type_id":"4","last_reported":1706720801,"current_range_meters":19200,"station_id":"ce4bgs12rcd13ifvqcag","pricing_plan_id":"free"},{"bike_id":"f6ad36c1-845a-4812-a4c6-010691d684cc","system_id":"levelo_inurba_marseille","lat":43.30541,"lon":5.365384,"is_reserved":false,"is_disabled":false,"rental_uris":{"android":"levelo://app?vid=f6ad36c1-845a-4812-a4c6-010691d684cc","ios":"levelo://app?vid=f6ad36c1-845a-4812-a4c6-010691d684cc"},"vehicle_type_id":"4","last_reported":1706720801,"current_range_meters":0,"station_id":"ce4bgs12rcd13ifvqcag","pricing_plan_id":"free"},{"bike_id":"df582353-e51c-4cd2-9bd5-4cf14dcebf9e","system_id":"levelo_inurba_marseille","lat":43.305714,"lon":5.365633,"is_reserved":false,"is_disabled":false,"rental_uris":{"android":"levelo://app?vid=df582353-e51c-4cd2-9bd5-4cf14dcebf9e","ios":"levelo://app?vid=df582353-e51c-4cd2-9bd5-4cf14dcebf9e"},"vehicle_type_id":"4","last_reported":1706720801,"current_range_meters":0,"station_id":"ce4bgs12rcd13ifvqcag","pricing_plan_id":"free"},{"bike_id":"8aed1337-c02a-4665-b8b8-5e59a31332ce","system_id":"levelo_inurba_marseille","lat":43.305407,"lon":5.365343,"is_reserved":false,"is_disabled":false,"rental_uris":{"android":"levelo://app?vid=8aed1337-c02a-4665-b8b8-5e59a31332ce","ios":"levelo://app?vid=8aed1337-c02a-4665-b8b8-5e59a31332ce"},"vehicle_type_id":"4","last_reported":1706720801,"current_range_meters":22400,"station_id":"ce4bgs12rcd13ifvqcag","pricing_plan_id":"free"},{"bike_id":"1098144e-206b-4ca6-b396-53d350c7f49f","system_id":"levelo_inurba_marseille","lat":43.30538,"lon":5.36534,"is_reserved":false,"is_disabled":false,"rental_uris":{"android":"levelo://app?vid=1098144e-206b-4ca6-b396-53d350c7f49f","ios":"levelo://app?vid=1098144e-206b-4ca6-b396-53d350c7f49f"},"vehicle_type_id":"4","last_reported":1706720801,"current_range_meters":0,"station_id":"ce4bgs12rcd13ifvqcag","pricing_plan_id":"free"},{"bike_id":"27c50e65-6151-4346-8712-5b77fd72f827","system_id":"levelo_inurba_marseille","lat":43.305072,"lon":5.367198,"is_reserved":false,"is_disabled":false,"rental_uris":{"android":"levelo://app?vid=27c50e65-6151-4346-8712-5b77fd72f827","ios":"levelo://app?vid=27c50e65-6151-4346-8712-5b77fd72f827"},"vehicle_type_id":"4","last_reported":1706720801,"current_range_meters":0,"station_id":"","pricing_plan_id":"free"},{"bike_id":"f564286a-4009-47c5-90b3-4c615f646065","system_id":"levelo_inurba_marseille","lat":43.305989,"lon":5.37225,"is_reserved":false,"is_disabled":false,"rental_uris":{"android":"levelo://app?vid=f564286a-4009-47c5-90b3-4c615f646065","ios":"levelo://app?vid=f564286a-4009-47c5-90b3-4c615f646065"},"vehicle_type_id":"4","last_reported":1706720801,"current_range_meters":22800,"station_id":"ce4bgqh2rcd13ifvqc4g","pricing_plan_id":"free"},{"bike_id":"ab3844af-a1b5-4df2-8c43-db0090fb1ba1","system_id":"levelo_inurba_marseille","lat":43.311131,"lon":5.377651,"is_reserved":false,"is_disabled":false,"rental_uris":{"android":"levelo://app?vid=ab3844af-a1b5-4df2-8c43-db0090fb1ba1","ios":"levelo://app?vid=ab3844af-a1b5-4df2-8c43-db0090fb1ba1"},"vehicle_type_id":"4","last_reported":1706720801,"current_range_meters":3200,"station_id":"ce4bgt92rcd13ifvqcg0","pricing_plan_id":"free"},{"bike_id":"4c78c4c3-dad9-4a59-b596-432626bd6d3d","system_id":"levelo_inurba_marseille","lat":43.307945,"lon":5.376487,"is_reserved":false,"is_disabled":false,"rental_uris":{"android":"levelo://app?vid=4c78c4c3-dad9-4a59-b596-432626bd6d3d","ios":"levelo://app?vid=4c78c4c3-dad9-4a59-b596-432626bd6d3d"},"vehicle_type_id":"4","last_reported":1706720801,"current_range_meters":10800,"station_id":"ce4bgv92rcd13ifvqcq0","pricing_plan_id":"free"},{"bike_id":"055175fc-df42-4510-8567-6595062cff10","system_id":"levelo_inurba_marseille","lat":43.307945,"lon":5.376487,"is_reserved":false,"is_disabled":false,"rental_uris":{"android":"levelo://app?vid=055175fc-df42-4510-8567-6595062cff10","ios":"levelo://app?vid=055175fc-df42-4510-8567-6595062cff10"},"vehicle_type_id":"4","last_reported":1706720801,"current_range_meters":3200,"station_id":"ce4bgv92rcd13ifvqcq0","pricing_plan_id":"free"},{"bike_id":"420c4e24-81e0-4b13-82c4-1bbcb1f913a8","system_id":"levelo_inurba_marseille","lat":43.317075,"lon":5.377367,"is_reserved":false,"is_disabled":false,"rental_uris":{"android":"levelo://app?vid=420c4e24-81e0-4b13-82c4-1bbcb1f913a8","ios":"levelo://app?vid=420c4e24-81e0-4b13-82c4-1bbcb1f913a8"},"vehicle_type_id":"4","last_reported":1706720801,"current_range_meters":10400,"station_id":"ce4bgth2rcd13ifvqch0","pricing_plan_id":"free"},{"bike_id":"d621c7c6-f8f7-4aff-8255-da4375603046","system_id":"levelo_inurba_marseille","lat":43.301939,"lon":5.366286,"is_reserved":false,"is_disabled":false,"rental_uris":{"android":"levelo://app?vid=d621c7c6-f8f7-4aff-8255-da4375603046","ios":"levelo://app?vid=d621c7c6-f8f7-4aff-8255-da4375603046"},"vehicle_type_id":"4","last_reported":1706720801,"current_range_meters":4800,"station_id":"ce4bgrh2rcd13ifvqc8g","pricing_plan_id":"free"},{"bike_id":"260b0501-7ae7-4c72-8834-eb46c9795ad3","system_id":"levelo_inurba_marseille","lat":43.301939,"lon":5.366286,"is_reserved":false,"is_disabled":false,"rental_uris":{"android":"levelo://app?vid=260b0501-7ae7-4c72-8834-eb46c9795ad3","ios":"levelo://app?vid=260b0501-7ae7-4c72-8834-eb46c9795ad3"},"vehicle_type_id":"4","last_reported":1706720801,"current_range_meters":2800,"station_id":"ce4bgrh2rcd13ifvqc8g","pricing_plan_id":"free"},{"bike_id":"a12a7a1a-bbd5-44d0-ae65-2b1bb534a971","system_id":"levelo_inurba_marseille","lat":43.304606,"lon":5.379026,"is_reserved":false,"is_disabled":false,"rental_uris":{"android":"levelo://app?vid=a12a7a1a-bbd5-44d0-ae65-2b1bb534a971","ios":"levelo://app?vid=a12a7a1a-bbd5-44d0-ae65-2b1bb534a971"},"vehicle_type_id":"4","last_reported":1706720801,"current_range_meters":1200,"station_id":"ce4bgup2rcd13ifvqcn0","pricing_plan_id":"free"},{"bike_id":"f9b3aa5a-40af-4040-a917-268c7acc95ae","system_id":"levelo_inurba_marseille","lat":43.32482,"lon":5.3657,"is_reserved":false,"is_disabled":false,"rental_uris":{"android":"levelo://app?vid=f9b3aa5a-40af-4040-a917-268c7acc95ae","ios":"levelo://app?vid=f9b3aa5a-40af-4040-a917-268c7acc95ae"},"vehicle_type_id":"4","last_reported":1706720801,"current_range_meters":16400,"station_id":"ce4bhs12rcd13ifvqhvg","pricing_plan_id":"free"},{"bike_id":"4c1d912b-8425-4b28-bcd4-0691a1724560","system_id":"levelo_inurba_marseille","lat":43.324827,"lon":5.365772,"is_reserved":false,"is_disabled":false,"rental_uris":{"android":"levelo://app?vid=4c1d912b-8425-4b28-bcd4-0691a1724560","ios":"levelo://app?vid=4c1d912b-8425-4b28-bcd4-0691a1724560"},"vehicle_type_id":"4","last_reported":1706720801,"current_range_meters":18400,"station_id":"ce4bhs12rcd13ifvqhvg","pricing_plan_id":"free"},{"bike_id":"3ceea840-8a7b-4df3-b49c-930ddadd2ed0","system_id":"levelo_inurba_marseille","lat":43.324771,"lon":5.36557,"is_reserved":false,"is_disabled":false,"rental_uris":{"android":"levelo://app?vid=3ceea840-8a7b-4df3-b49c-930ddadd2ed0","ios":"levelo://app?vid=3ceea840-8a7b-4df3-b49c-930ddadd2ed0"},"vehicle_type_id":"4","last_reported":1706720801,"current_range_meters":7200,"station_id":"ce4bhs12rcd13ifvqhvg","pricing_plan_id":"free"},{"bike_id":"0b2e1b2d-27a1-491b-80bd-a736996f27ea","system_id":"levelo_inurba_marseille","lat":43.30154,"lon":5.37425,"is_reserved":false,"is_disabled":false,"rental_uris":{"android":"levelo://app?vid=0b2e1b2d-27a1-491b-80bd-a736996f27ea","ios":"levelo://app?vid=0b2e1b2d-27a1-491b-80bd-a736996f27ea"},"vehicle_type_id":"4","last_reported":1706720801,"current_range_meters":21600,"station_id":"ce4bgs92rcd13ifvqcc0","pricing_plan_id":"free"},{"bike_id":"74a5bc9b-7b98-4c08-b89d-ae418136b231","system_id":"levelo_inurba_marseille","lat":43.31027,"lon":5.38445,"is_reserved":false,"is_disabled":false,"rental_uris":{"android":"levelo://app?vid=74a5bc9b-7b98-4c08-b89d-ae418136b231","ios":"levelo://app?vid=74a5bc9b-7b98-4c08-b89d-ae418136b231"},"vehicle_type_id":"4","last_reported":1706720801,"current_range_meters":6800,"station_id":"","pricing_plan_id":"free"},{"bike_id":"a068c3fd-e968-47f0-98e4-a22288366783","system_id":"levelo_inurba_marseille","lat":43.31373,"lon":5.3849,"is_reserved":false,"is_disabled":false,"rental_uris":{"android":"levelo://app?vid=a068c3fd-e968-47f0-98e4-a22288366783","ios":"levelo://app?vid=a068c3fd-e968-47f0-98e4-a22288366783"},"vehicle_type_id":"4","last_reported":1706720801,"current_range_meters":13600,"station_id":"ce4bgt92rcd13ifvqcf0","pricing_plan_id":"free"},{"bike_id":"7093aeb1-f627-4795-a49f-2e16253cb58b","system_id":"levelo_inurba_marseille","lat":43.313571,"lon":5.384829,"is_reserved":false,"is_disabled":false,"rental_uris":{"android":"levelo://app?vid=7093aeb1-f627-4795-a49f-2e16253cb58b","ios":"levelo://app?vid=7093aeb1-f627-4795-a49f-2e16253cb58b"},"vehicle_type_id":"4","last_reported":1706720801,"current_range_meters":6800,"station_id":"ce4bgt92rcd13ifvqcf0","pricing_plan_id":"free"},{"bike_id":"aab261e8-6388-470c-a0a1-5422f6be4201","system_id":"levelo_inurba_marseille","lat":43.29946,"lon":5.37233,"is_reserved":false,"is_disabled":false,"rental_uris":{"android":"levelo://app?vid=aab261e8-6388-470c-a0a1-5422f6be4201","ios":"levelo://app?vid=aab261e8-6388-470c-a0a1-5422f6be4201"},"vehicle_type_id":"4","last_reported":1706720801,"current_range_meters":21600,"station_id":"","pricing_plan_id":"free"},{"bike_id":"dcbe9aad-4b89-4278-a41e-4433643b3c16","system_id":"levelo_inurba_marseille","lat":43.298433,"lon":5.362774,"is_reserved":false,"is_disabled":false,"rental_uris":{"android":"levelo://app?vid=dcbe9aad-4b89-4278-a41e-4433643b3c16","ios":"levelo://app?vid=dcbe9aad-4b89-4278-a41e-4433643b3c16"},"vehicle_type_id":"4","last_reported":1706720801,"current_range_meters":4800,"station_id":"ce4bgpp2rcd13ifvqc3g","pricing_plan_id":"free"},{"bike_id":"ae315675-f641-49d2-a27e-67a7c47eadd5","system_id":"levelo_inurba_marseille","lat":43.311722,"lon":5.387247,"is_reserved":false,"is_disabled":false,"rental_uris":{"android":"levelo://app?vid=ae315675-f641-49d2-a27e-67a7c47eadd5","ios":"levelo://app?vid=ae315675-f641-49d2-a27e-67a7c47eadd5"},"vehicle_type_id":"4","last_reported":1706720801,"current_range_meters":20000,"station_id":"ce4bgv12rcd13ifvqcp0","pricing_plan_id":"free"},{"bike_id":"e0d2a9eb-61df-41eb-90fe-b82f6647b495","system_id":"levelo_inurba_marseille","lat":43.299243,"lon":5.37481,"is_reserved":false,"is_disabled":false,"rental_uris":{"android":"levelo://app?vid=e0d2a9eb-61df-41eb-90fe-b82f6647b495","ios":"levelo://app?vid=e0d2a9eb-61df-41eb-90fe-b82f6647b495"},"vehicle_type_id":"4","last_reported":1706720801,"current_range_meters":12800,"station_id":"ce4bgjh2rcd13ifvqbg0","pricing_plan_id":"free"},{"bike_id":"2b65db30-3315-4a51-a4c6-1bedc9bd51c7","system_id":"levelo_inurba_marseille","lat":43.322872,"lon":5.382756,"is_reserved":false,"is_disabled":false,"rental_uris":{"android":"levelo://app?vid=2b65db30-3315-4a51-a4c6-1bedc9bd51c7","ios":"levelo://app?vid=2b65db30-3315-4a51-a4c6-1bedc9bd51c7"},"vehicle_type_id":"4","last_reported":1706720801,"current_range_meters":29200,"station_id":"ce4bhr12rcd13ifvqhqg","pricing_plan_id":"free"},{"bike_id":"639a58a8-5679-4a20-9014-ed1eb921742b","system_id":"levelo_inurba_marseille","lat":43.322872,"lon":5.382756,"is_reserved":false,"is_disabled":false,"rental_uris":{"android":"levelo://app?vid=639a58a8-5679-4a20-9014-ed1eb921742b","ios":"levelo://app?vid=639a58a8-5679-4a20-9014-ed1eb921742b"},"vehicle_type_id":"4","last_reported":1706720801,"current_range_meters":8800,"station_id":"ce4bhr12rcd13ifvqhqg","pricing_plan_id":"free"},{"bike_id":"19e08926-8857-44b7-a342-a968b5312c1d","system_id":"levelo_inurba_marseille","lat":43.32289,"lon":5.38273,"is_reserved":false,"is_disabled":false,"rental_uris":{"android":"levelo://app?vid=19e08926-8857-44b7-a342-a968b5312c1d","ios":"levelo://app?vid=19e08926-8857-44b7-a342-a968b5312c1d"},"vehicle_type_id":"4","last_reported":1706720801,"current_range_meters":10000,"station_id":"ce4bhr12rcd13ifvqhqg","pricing_plan_id":"free"},{"bike_id":"d54749f2-afe6-40a1-a18e-d1935eb8f708","system_id":"levelo_inurba_marseille","lat":43.328371,"lon":5.366909,"is_reserved":false,"is_disabled":false,"rental_uris":{"android":"levelo://app?vid=d54749f2-afe6-40a1-a18e-d1935eb8f708","ios":"levelo://app?vid=d54749f2-afe6-40a1-a18e-d1935eb8f708"},"vehicle_type_id":"4","last_reported":1706720801,"current_range_meters":24400,"station_id":"ce4bhs92rcd13ifvqi0g","pricing_plan_id":"free"},{"bike_id":"fb557cad-0e1f-48b9-a5c3-dcbde92ac39e","system_id":"levelo_inurba_marseille","lat":43.297163,"lon":5.365866,"is_reserved":false,"is_disabled":false,"rental_uris":{"android":"levelo://app?vid=fb557cad-0e1f-48b9-a5c3-dcbde92ac39e","ios":"levelo://app?vid=fb557cad-0e1f-48b9-a5c3-dcbde92ac39e"},"vehicle_type_id":"4","last_reported":1706720801,"current_range_meters":18400,"station_id":"ce4bgn12rcd13ifvqbt0","pricing_plan_id":"free"},{"bike_id":"1224020f-6f01-4e58-9666-b2c41dd4e6d8","system_id":"levelo_inurba_marseille","lat":43.297163,"lon":5.365866,"is_reserved":false,"is_disabled":false,"rental_uris":{"android":"levelo://app?vid=1224020f-6f01-4e58-9666-b2c41dd4e6d8","ios":"levelo://app?vid=1224020f-6f01-4e58-9666-b2c41dd4e6d8"},"vehicle_type_id":"4","last_reported":1706720801,"current_range_meters":2000,"station_id":"ce4bgn12rcd13ifvqbt0","pricing_plan_id":"free"},{"bike_id":"9f158f6e-bebf-4e16-a920-4a5ab4eb6921","system_id":"levelo_inurba_marseille","lat":43.328544,"lon":5.366881,"is_reserved":false,"is_disabled":false,"rental_uris":{"android":"levelo://app?vid=9f158f6e-bebf-4e16-a920-4a5ab4eb6921","ios":"levelo://app?vid=9f158f6e-bebf-4e16-a920-4a5ab4eb6921"},"vehicle_type_id":"4","last_reported":1706720801,"current_range_meters":19600,"station_id":"","pricing_plan_id":"free"},{"bike_id":"e20c350f-2a5f-4549-8054-783981923fd8","system_id":"levelo_inurba_marseille","lat":43.2968,"lon":5.37291,"is_reserved":false,"is_disabled":false,"rental_uris":{"android":"levelo://app?vid=e20c350f-2a5f-4549-8054-783981923fd8","ios":"levelo://app?vid=e20c350f-2a5f-4549-8054-783981923fd8"},"vehicle_type_id":"4","last_reported":1706720801,"current_range_meters":3600,"station_id":"ce4bgk12rcd13ifvqbj0","pricing_plan_id":"free"},{"bike_id":"359edfee-a8b5-4e14-8bc4-a7fa356532b9","system_id":"levelo_inurba_marseille","lat":43.31751,"lon":5.38907,"is_reserved":false,"is_disabled":false,"rental_uris":{"android":"levelo://app?vid=359edfee-a8b5-4e14-8bc4-a7fa356532b9","ios":"levelo://app?vid=359edfee-a8b5-4e14-8bc4-a7fa356532b9"},"vehicle_type_id":"4","last_reported":1706720801,"current_range_meters":27200,"station_id":"","pricing_plan_id":"free"},{"bike_id":"e2d10ee8-6d86-45e2-a755-57231a88c428","system_id":"levelo_inurba_marseille","lat":43.296131,"lon":5.370791,"is_reserved":false,"is_disabled":false,"rental_uris":{"android":"levelo://app?vid=e2d10ee8-6d86-45e2-a755-57231a88c428","ios":"levelo://app?vid=e2d10ee8-6d86-45e2-a755-57231a88c428"},"vehicle_type_id":"4","last_reported":1706720801,"current_range_meters":23200,"station_id":"ce4bgnh2rcd13ifvqc0g","pricing_plan_id":"free"},{"bike_id":"7e058f3a-90c6-4ce1-8fdc-33fd26e31658","system_id":"levelo_inurba_marseille","lat":43.299028,"lon":5.381509,"is_reserved":false,"is_disabled":false,"rental_uris":{"android":"levelo://app?vid=7e058f3a-90c6-4ce1-8fdc-33fd26e31658","ios":"levelo://app?vid=7e058f3a-90c6-4ce1-8fdc-33fd26e31658"},"vehicle_type_id":"4","last_reported":1706720801,"current_range_meters":20800,"station_id":"ce4bgj12rcd13ifvqbc0","pricing_plan_id":"free"},{"bike_id":"3b551901-08bc-4d51-9e26-6ce4dac0c9f5","system_id":"levelo_inurba_marseille","lat":43.296935,"lon":5.376544,"is_reserved":false,"is_disabled":false,"rental_uris":{"android":"levelo://app?vid=3b551901-08bc-4d51-9e26-6ce4dac0c9f5","ios":"levelo://app?vid=3b551901-08bc-4d51-9e26-6ce4dac0c9f5"},"vehicle_type_id":"4","last_reported":1706720801,"current_range_meters":16000,"station_id":"ce4bgkh2rcd13ifvqbl0","pricing_plan_id":"free"},{"bike_id":"7a652f64-f192-425e-9599-df57a21325c7","system_id":"levelo_inurba_marseille","lat":43.299028,"lon":5.381509,"is_reserved":false,"is_disabled":false,"rental_uris":{"android":"levelo://app?vid=7a652f64-f192-425e-9599-df57a21325c7","ios":"levelo://app?vid=7a652f64-f192-425e-9599-df57a21325c7"},"vehicle_type_id":"4","last_reported":1706720801,"current_range_meters":0,"station_id":"ce4bgj12rcd13ifvqbc0","pricing_plan_id":"free"},{"bike_id":"7afe9903-ce72-4c33-9428-a620b7908559","system_id":"levelo_inurba_marseille","lat":43.30955,"lon":5.39033,"is_reserved":false,"is_disabled":false,"rental_uris":{"android":"levelo://app?vid=7afe9903-ce72-4c33-9428-a620b7908559","ios":"levelo://app?vid=7afe9903-ce72-4c33-9428-a620b7908559"},"vehicle_type_id":"4","last_reported":1706720801,"current_range_meters":0,"station_id":"ce4bgup2rcd13ifvqco0","pricing_plan_id":"free"},{"bike_id":"5c418e59-b7d3-4bca-857f-e45c5aedab62","system_id":"levelo_inurba_marseille","lat":43.298037,"lon":5.381066,"is_reserved":false,"is_disabled":false,"rental_uris":{"android":"levelo://app?vid=5c418e59-b7d3-4bca-857f-e45c5aedab62","ios":"levelo://app?vid=5c418e59-b7d3-4bca-857f-e45c5aedab62"},"vehicle_type_id":"4","last_reported":1706720801,"current_range_meters":18400,"station_id":"ce4bgip2rcd13ifvqbb0","pricing_plan_id":"free"},{"bike_id":"1e75c555-3b09-4dfe-825c-37ec84c7c850","system_id":"levelo_inurba_marseille","lat":43.298037,"lon":5.381066,"is_reserved":false,"is_disabled":false,"rental_uris":{"android":"levelo://app?vid=1e75c555-3b09-4dfe-825c-37ec84c7c850","ios":"levelo://app?vid=1e75c555-3b09-4dfe-825c-37ec84c7c850"},"vehicle_type_id":"4","last_reported":1706720801,"current_range_meters":15200,"station_id":"ce4bgip2rcd13ifvqbb0","pricing_plan_id":"free"},{"bike_id":"eb5cf493-d900-41f1-a688-98b85e70306c","system_id":"levelo_inurba_marseille","lat":43.295748,"lon":5.37522,"is_reserved":false,"is_disabled":false,"rental_uris":{"android":"levelo://app?vid=eb5cf493-d900-41f1-a688-98b85e70306c","ios":"levelo://app?vid=eb5cf493-d900-41f1-a688-98b85e70306c"},"vehicle_type_id":"4","last_reported":1706720801,"current_range_meters":0,"station_id":"ce4bgh92rcd13ifvqb50","pricing_plan_id":"free"},{"bike_id":"9dc36039-8f8d-49f4-b25f-afae2020679c","system_id":"levelo_inurba_marseille","lat":43.298037,"lon":5.381066,"is_reserved":false,"is_disabled":false,"rental_uris":{"android":"levelo://app?vid=9dc36039-8f8d-49f4-b25f-afae2020679c","ios":"levelo://app?vid=9dc36039-8f8d-49f4-b25f-afae2020679c"},"vehicle_type_id":"4","last_reported":1706720801,"current_range_meters":24000,"station_id":"ce4bgip2rcd13ifvqbb0","pricing_plan_id":"free"},{"bike_id":"c27d5510-cef4-4123-9dd1-d007c083c3aa","system_id":"levelo_inurba_marseille","lat":43.30434,"lon":5.38894,"is_reserved":false,"is_disabled":false,"rental_uris":{"android":"levelo://app?vid=c27d5510-cef4-4123-9dd1-d007c083c3aa","ios":"levelo://app?vid=c27d5510-cef4-4123-9dd1-d007c083c3aa"},"vehicle_type_id":"4","last_reported":1706720801,"current_range_meters":8800,"station_id":"ce4bgk12rcd13ifvqbi0","pricing_plan_id":"free"},{"bike_id":"9b463098-daff-456a-a2da-a1e1e9bb586a","system_id":"levelo_inurba_marseille","lat":43.304343,"lon":5.388967,"is_reserved":false,"is_disabled":false,"rental_uris":{"android":"levelo://app?vid=9b463098-daff-456a-a2da-a1e1e9bb586a","ios":"levelo://app?vid=9b463098-daff-456a-a2da-a1e1e9bb586a"},"vehicle_type_id":"4","last_reported":1706720801,"current_range_meters":6400,"station_id":"ce4bgk12rcd13ifvqbi0","pricing_plan_id":"free"},{"bike_id":"7b0b5cba-eb9a-451b-aa6e-d8ab9d68cc97","system_id":"levelo_inurba_marseille","lat":43.295748,"lon":5.37522,"is_reserved":false,"is_disabled":false,"rental_uris":{"android":"levelo://app?vid=7b0b5cba-eb9a-451b-aa6e-d8ab9d68cc97","ios":"levelo://app?vid=7b0b5cba-eb9a-451b-aa6e-d8ab9d68cc97"},"vehicle_type_id":"4","last_reported":1706720801,"current_range_meters":0,"station_id":"ce4bgh92rcd13ifvqb50","pricing_plan_id":"free"},{"bike_id":"2e4ce19c-5bcd-4ec4-b547-86307f028c78","system_id":"levelo_inurba_marseille","lat":43.29979,"lon":5.38485,"is_reserved":false,"is_disabled":false,"rental_uris":{"android":"levelo://app?vid=2e4ce19c-5bcd-4ec4-b547-86307f028c78","ios":"levelo://app?vid=2e4ce19c-5bcd-4ec4-b547-86307f028c78"},"vehicle_type_id":"4","last_reported":1706720801,"current_range_meters":0,"station_id":"ce4bgj92rcd13ifvqbd0","pricing_plan_id":"free"},{"bike_id":"084db30c-4b99-45cc-95c0-db07e015bd32","system_id":"levelo_inurba_marseille","lat":43.29526,"lon":5.375,"is_reserved":false,"is_disabled":false,"rental_uris":{"android":"levelo://app?vid=084db30c-4b99-45cc-95c0-db07e015bd32","ios":"levelo://app?vid=084db30c-4b99-45cc-95c0-db07e015bd32"},"vehicle_type_id":"4","last_reported":1706720801,"current_range_meters":6000,"station_id":"ce4bgkp2rcd13ifvqbmg","pricing_plan_id":"free"},{"bike_id":"a3468455-8216-4c95-b061-82925f7778eb","system_id":"levelo_inurba_marseille","lat":43.29973,"lon":5.3849,"is_reserved":false,"is_disabled":false,"rental_uris":{"android":"levelo://app?vid=a3468455-8216-4c95-b061-82925f7778eb","ios":"levelo://app?vid=a3468455-8216-4c95-b061-82925f7778eb"},"vehicle_type_id":"4","last_reported":1706720801,"current_range_meters":0,"station_id":"ce4bgj92rcd13ifvqbd0","pricing_plan_id":"free"},{"bike_id":"62f1202c-3887-41cf-ae44-f51fc7dcb791","system_id":"levelo_inurba_marseille","lat":43.29971,"lon":5.38492,"is_reserved":false,"is_disabled":false,"rental_uris":{"android":"levelo://app?vid=62f1202c-3887-41cf-ae44-f51fc7dcb791","ios":"levelo://app?vid=62f1202c-3887-41cf-ae44-f51fc7dcb791"},"vehicle_type_id":"4","last_reported":1706720801,"current_range_meters":0,"station_id":"ce4bgj92rcd13ifvqbd0","pricing_plan_id":"free"},{"bike_id":"a2cf5758-b918-463d-86be-913830d611d3","system_id":"levelo_inurba_marseille","lat":43.29966,"lon":5.38493,"is_reserved":false,"is_disabled":false,"rental_uris":{"android":"levelo://app?vid=a2cf5758-b918-463d-86be-913830d611d3","ios":"levelo://app?vid=a2cf5758-b918-463d-86be-913830d611d3"},"vehicle_type_id":"4","last_reported":1706720801,"current_range_meters":20800,"station_id":"ce4bgj92rcd13ifvqbd0","pricing_plan_id":"free"},{"bike_id":"8d1b387f-dad2-4eca-b89d-15a2990580a2","system_id":"levelo_inurba_marseille","lat":43.29966,"lon":5.38499,"is_reserved":false,"is_disabled":false,"rental_uris":{"android":"levelo://app?vid=8d1b387f-dad2-4eca-b89d-15a2990580a2","ios":"levelo://app?vid=8d1b387f-dad2-4eca-b89d-15a2990580a2"},"vehicle_type_id":"4","last_reported":1706720801,"current_range_meters":0,"station_id":"ce4bgj92rcd13ifvqbd0","pricing_plan_id":"free"},{"bike_id":"de25d637-84ec-4203-b892-3e1c2d7c4ddb","system_id":"levelo_inurba_marseille","lat":43.33171,"lon":5.364424,"is_reserved":false,"is_disabled":false,"rental_uris":{"android":"levelo://app?vid=de25d637-84ec-4203-b892-3e1c2d7c4ddb","ios":"levelo://app?vid=de25d637-84ec-4203-b892-3e1c2d7c4ddb"},"vehicle_type_id":"4","last_reported":1706720801,"current_range_meters":6400,"station_id":"","pricing_plan_id":"free"},{"bike_id":"3304c29f-fdd7-464a-8890-39b8a8474937","system_id":"levelo_inurba_marseille","lat":43.30273,"lon":5.38946,"is_reserved":false,"is_disabled":false,"rental_uris":{"android":"levelo://app?vid=3304c29f-fdd7-464a-8890-39b8a8474937","ios":"levelo://app?vid=3304c29f-fdd7-464a-8890-39b8a8474937"},"vehicle_type_id":"4","last_reported":1706720801,"current_range_meters":9200,"station_id":"","pricing_plan_id":"free"},{"bike_id":"202df9dd-3b20-4310-9dde-7a88eca4db2d","system_id":"levelo_inurba_marseille","lat":43.32367,"lon":5.38865,"is_reserved":false,"is_disabled":false,"rental_uris":{"android":"levelo://app?vid=202df9dd-3b20-4310-9dde-7a88eca4db2d","ios":"levelo://app?vid=202df9dd-3b20-4310-9dde-7a88eca4db2d"},"vehicle_type_id":"4","last_reported":1706720801,"current_range_meters":8800,"station_id":"ce4bhqp2rcd13ifvqhog","pricing_plan_id":"free"},{"bike_id":"9d96e890-f217-4bf9-bd9c-21a3d0283f11","system_id":"levelo_inurba_marseille","lat":43.32367,"lon":5.388836,"is_reserved":false,"is_disabled":false,"rental_uris":{"android":"levelo://app?vid=9d96e890-f217-4bf9-bd9c-21a3d0283f11","ios":"levelo://app?vid=9d96e890-f217-4bf9-bd9c-21a3d0283f11"},"vehicle_type_id":"4","last_reported":1706720801,"current_range_meters":19600,"station_id":"ce4bhqp2rcd13ifvqhog","pricing_plan_id":"free"},{"bike_id":"d584b349-8d0b-442f-9755-58f261f5465d","system_id":"levelo_inurba_marseille","lat":43.292749,"lon":5.368402,"is_reserved":false,"is_disabled":false,"rental_uris":{"android":"levelo://app?vid=d584b349-8d0b-442f-9755-58f261f5465d","ios":"levelo://app?vid=d584b349-8d0b-442f-9755-58f261f5465d"},"vehicle_type_id":"4","last_reported":1706720801,"current_range_meters":3600,"station_id":"ce4bhbp2rcd13ifvqesg","pricing_plan_id":"free"},{"bike_id":"dc8429fb-c043-4fbe-8820-7a257ac8d93b","system_id":"levelo_inurba_marseille","lat":43.292749,"lon":5.368402,"is_reserved":false,"is_disabled":false,"rental_uris":{"android":"levelo://app?vid=dc8429fb-c043-4fbe-8820-7a257ac8d93b","ios":"levelo://app?vid=dc8429fb-c043-4fbe-8820-7a257ac8d93b"},"vehicle_type_id":"4","last_reported":1706720801,"current_range_meters":14400,"station_id":"ce4bhbp2rcd13ifvqesg","pricing_plan_id":"free"},{"bike_id":"b49588ab-4ccf-43d7-b920-78f7123c98c5","system_id":"levelo_inurba_marseille","lat":43.292749,"lon":5.368398,"is_reserved":false,"is_disabled":false,"rental_uris":{"android":"levelo://app?vid=b49588ab-4ccf-43d7-b920-78f7123c98c5","ios":"levelo://app?vid=b49588ab-4ccf-43d7-b920-78f7123c98c5"},"vehicle_type_id":"4","last_reported":1706720801,"current_range_meters":2800,"station_id":"ce4bhbp2rcd13ifvqesg","pricing_plan_id":"free"},{"bike_id":"e61bcf90-d69c-4e13-a5f9-b8180bb93032","system_id":"levelo_inurba_marseille","lat":43.292749,"lon":5.368398,"is_reserved":false,"is_disabled":false,"rental_uris":{"android":"levelo://app?vid=e61bcf90-d69c-4e13-a5f9-b8180bb93032","ios":"levelo://app?vid=e61bcf90-d69c-4e13-a5f9-b8180bb93032"},"vehicle_type_id":"4","last_reported":1706720801,"current_range_meters":22000,"station_id":"ce4bhbp2rcd13ifvqesg","pricing_plan_id":"free"},{"bike_id":"1066d80c-128a-41e4-8931-17782967c04e","system_id":"levelo_inurba_marseille","lat":43.305994,"lon":5.393687,"is_reserved":false,"is_disabled":false,"rental_uris":{"android":"levelo://app?vid=1066d80c-128a-41e4-8931-17782967c04e","ios":"levelo://app?vid=1066d80c-128a-41e4-8931-17782967c04e"},"vehicle_type_id":"4","last_reported":1706720801,"current_range_meters":4800,"station_id":"ce4bh0p2rcd13ifvqd80","pricing_plan_id":"free"},{"bike_id":"4eafde33-b4ef-450f-8711-12ea8c3f862c","system_id":"levelo_inurba_marseille","lat":43.293009,"lon":5.374584,"is_reserved":false,"is_disabled":false,"rental_uris":{"android":"levelo://app?vid=4eafde33-b4ef-450f-8711-12ea8c3f862c","ios":"levelo://app?vid=4eafde33-b4ef-450f-8711-12ea8c3f862c"},"vehicle_type_id":"4","last_reported":1706720801,"current_range_meters":21200,"station_id":"ce4bgi12rcd13ifvqb70","pricing_plan_id":"free"},{"bike_id":"7cc00cef-f13d-4b9b-ad52-4090def52b1d","system_id":"levelo_inurba_marseille","lat":43.30596,"lon":5.39363,"is_reserved":false,"is_disabled":false,"rental_uris":{"android":"levelo://app?vid=7cc00cef-f13d-4b9b-ad52-4090def52b1d","ios":"levelo://app?vid=7cc00cef-f13d-4b9b-ad52-4090def52b1d"},"vehicle_type_id":"4","last_reported":1706720801,"current_range_meters":0,"station_id":"ce4bh0p2rcd13ifvqd80","pricing_plan_id":"free"},{"bike_id":"3f0114e7-c247-421d-9348-5c3b2a0a8e70","system_id":"levelo_inurba_marseille","lat":43.293009,"lon":5.374584,"is_reserved":false,"is_disabled":false,"rental_uris":{"android":"levelo://app?vid=3f0114e7-c247-421d-9348-5c3b2a0a8e70","ios":"levelo://app?vid=3f0114e7-c247-421d-9348-5c3b2a0a8e70"},"vehicle_type_id":"4","last_reported":1706720801,"current_range_meters":0,"station_id":"ce4bgi12rcd13ifvqb70","pricing_plan_id":"free"},{"bike_id":"168a8de4-1e38-4b20-b248-9875e90aa2e9","system_id":"levelo_inurba_marseille","lat":43.303002,"lon":5.392142,"is_reserved":false,"is_disabled":false,"rental_uris":{"android":"levelo://app?vid=168a8de4-1e38-4b20-b248-9875e90aa2e9","ios":"levelo://app?vid=168a8de4-1e38-4b20-b248-9875e90aa2e9"},"vehicle_type_id":"4","last_reported":1706720801,"current_range_meters":4800,"station_id":"ce4bgkh2rcd13ifvqbk0","pricing_plan_id":"free"},{"bike_id":"4050bfd6-686e-4273-b323-7782895efe21","system_id":"levelo_inurba_marseille","lat":43.292311,"lon":5.360731,"is_reserved":false,"is_disabled":false,"rental_uris":{"android":"levelo://app?vid=4050bfd6-686e-4273-b323-7782895efe21","ios":"levelo://app?vid=4050bfd6-686e-4273-b323-7782895efe21"},"vehicle_type_id":"4","last_reported":1706720801,"current_range_meters":27200,"station_id":"ce4bhbh2rcd13ifvqeqg","pricing_plan_id":"free"},{"bike_id":"be211e57-dcc3-4570-bacb-fb4c66ec8858","system_id":"levelo_inurba_marseille","lat":43.292311,"lon":5.360731,"is_reserved":false,"is_disabled":false,"rental_uris":{"android":"levelo://app?vid=be211e57-dcc3-4570-bacb-fb4c66ec8858","ios":"levelo://app?vid=be211e57-dcc3-4570-bacb-fb4c66ec8858"},"vehicle_type_id":"4","last_reported":1706720801,"current_range_meters":0,"station_id":"ce4bhbh2rcd13ifvqeqg","pricing_plan_id":"free"},{"bike_id":"0e37a041-7283-4046-b0af-adb55cf2e1f5","system_id":"levelo_inurba_marseille","lat":43.292311,"lon":5.360731,"is_reserved":false,"is_disabled":false,"rental_uris":{"android":"levelo://app?vid=0e37a041-7283-4046-b0af-adb55cf2e1f5","ios":"levelo://app?vid=0e37a041-7283-4046-b0af-adb55cf2e1f5"},"vehicle_type_id":"4","last_reported":1706720801,"current_range_meters":19200,"station_id":"ce4bhbh2rcd13ifvqeqg","pricing_plan_id":"free"},{"bike_id":"2700de05-64bd-4734-b2b0-5ac7e79a344d","system_id":"levelo_inurba_marseille","lat":43.292311,"lon":5.360731,"is_reserved":false,"is_disabled":false,"rental_uris":{"android":"levelo://app?vid=2700de05-64bd-4734-b2b0-5ac7e79a344d","ios":"levelo://app?vid=2700de05-64bd-4734-b2b0-5ac7e79a344d"},"vehicle_type_id":"4","last_reported":1706720801,"current_range_meters":7200,"station_id":"ce4bhbh2rcd13ifvqeqg","pricing_plan_id":"free"},{"bike_id":"1c2794fe-8b9c-4d35-9237-d96263069c0b","system_id":"levelo_inurba_marseille","lat":43.292311,"lon":5.360731,"is_reserved":false,"is_disabled":false,"rental_uris":{"android":"levelo://app?vid=1c2794fe-8b9c-4d35-9237-d96263069c0b","ios":"levelo://app?vid=1c2794fe-8b9c-4d35-9237-d96263069c0b"},"vehicle_type_id":"4","last_reported":1706720801,"current_range_meters":18000,"station_id":"ce4bhbh2rcd13ifvqeqg","pricing_plan_id":"free"},{"bike_id":"934d9ef9-d97d-4c1d-87a3-c8334614064a","system_id":"levelo_inurba_marseille","lat":43.292311,"lon":5.360731,"is_reserved":false,"is_disabled":false,"rental_uris":{"android":"levelo://app?vid=934d9ef9-d97d-4c1d-87a3-c8334614064a","ios":"levelo://app?vid=934d9ef9-d97d-4c1d-87a3-c8334614064a"},"vehicle_type_id":"4","last_reported":1706720801,"current_range_meters":5600,"station_id":"ce4bhbh2rcd13ifvqeqg","pricing_plan_id":"free"},{"bike_id":"1d5b0f19-6c44-4bf9-a33a-ec4791ee2626","system_id":"levelo_inurba_marseille","lat":43.292311,"lon":5.360731,"is_reserved":false,"is_disabled":false,"rental_uris":{"android":"levelo://app?vid=1d5b0f19-6c44-4bf9-a33a-ec4791ee2626","ios":"levelo://app?vid=1d5b0f19-6c44-4bf9-a33a-ec4791ee2626"},"vehicle_type_id":"4","last_reported":1706720801,"current_range_meters":15600,"station_id":"ce4bhbh2rcd13ifvqeqg","pricing_plan_id":"free"},{"bike_id":"be0f44e4-a5fa-4e69-b9e6-c01b0a49b4a9","system_id":"levelo_inurba_marseille","lat":43.300852,"lon":5.390859,"is_reserved":false,"is_disabled":false,"rental_uris":{"android":"levelo://app?vid=be0f44e4-a5fa-4e69-b9e6-c01b0a49b4a9","ios":"levelo://app?vid=be0f44e4-a5fa-4e69-b9e6-c01b0a49b4a9"},"vehicle_type_id":"4","last_reported":1706720801,"current_range_meters":22400,"station_id":"ce4bh192rcd13ifvqdb0","pricing_plan_id":"free"},{"bike_id":"ea207568-a3a9-46de-9d5c-0e2d7682ec5f","system_id":"levelo_inurba_marseille","lat":43.292311,"lon":5.360731,"is_reserved":false,"is_disabled":false,"rental_uris":{"android":"levelo://app?vid=ea207568-a3a9-46de-9d5c-0e2d7682ec5f","ios":"levelo://app?vid=ea207568-a3a9-46de-9d5c-0e2d7682ec5f"},"vehicle_type_id":"4","last_reported":1706720801,"current_range_meters":5600,"station_id":"ce4bhbh2rcd13ifvqeqg","pricing_plan_id":"free"},{"bike_id":"107bd944-459a-4ea1-a3f7-09f2d96cc030","system_id":"levelo_inurba_marseille","lat":43.30092,"lon":5.39084,"is_reserved":false,"is_disabled":false,"rental_uris":{"android":"levelo://app?vid=107bd944-459a-4ea1-a3f7-09f2d96cc030","ios":"levelo://app?vid=107bd944-459a-4ea1-a3f7-09f2d96cc030"},"vehicle_type_id":"4","last_reported":1706720801,"current_range_meters":0,"station_id":"ce4bh192rcd13ifvqdb0","pricing_plan_id":"free"},{"bike_id":"7f5ad576-2dc1-494c-9055-a19f23db12e4","system_id":"levelo_inurba_marseille","lat":43.292311,"lon":5.360731,"is_reserved":false,"is_disabled":false,"rental_uris":{"android":"levelo://app?vid=7f5ad576-2dc1-494c-9055-a19f23db12e4","ios":"levelo://app?vid=7f5ad576-2dc1-494c-9055-a19f23db12e4"},"vehicle_type_id":"4","last_reported":1706720801,"current_range_meters":6400,"station_id":"ce4bhbh2rcd13ifvqeqg","pricing_plan_id":"free"},{"bike_id":"8732e8fe-8481-494d-a092-2f662df5fe1e","system_id":"levelo_inurba_marseille","lat":43.292311,"lon":5.360731,"is_reserved":false,"is_disabled":false,"rental_uris":{"android":"levelo://app?vid=8732e8fe-8481-494d-a092-2f662df5fe1e","ios":"levelo://app?vid=8732e8fe-8481-494d-a092-2f662df5fe1e"},"vehicle_type_id":"4","last_reported":1706720801,"current_range_meters":10400,"station_id":"ce4bhbh2rcd13ifvqeqg","pricing_plan_id":"free"},{"bike_id":"dd36c765-e898-4054-91cd-e2e117d5f212","system_id":"levelo_inurba_marseille","lat":43.298764,"lon":5.388973,"is_reserved":false,"is_disabled":false,"rental_uris":{"android":"levelo://app?vid=dd36c765-e898-4054-91cd-e2e117d5f212","ios":"levelo://app?vid=dd36c765-e898-4054-91cd-e2e117d5f212"},"vehicle_type_id":"4","last_reported":1706720801,"current_range_meters":29200,"station_id":"ce4bh392rcd13ifvqdl0","pricing_plan_id":"free"},{"bike_id":"4c7d060b-4553-4ad9-a074-3dbce7449d79","system_id":"levelo_inurba_marseille","lat":43.298764,"lon":5.388973,"is_reserved":false,"is_disabled":false,"rental_uris":{"android":"levelo://app?vid=4c7d060b-4553-4ad9-a074-3dbce7449d79","ios":"levelo://app?vid=4c7d060b-4553-4ad9-a074-3dbce7449d79"},"vehicle_type_id":"4","last_reported":1706720801,"current_range_meters":16400,"station_id":"ce4bh392rcd13ifvqdl0","pricing_plan_id":"free"},{"bike_id":"ad8af2da-52ee-42cb-8c5d-6a7991160938","system_id":"levelo_inurba_marseille","lat":43.298764,"lon":5.388973,"is_reserved":false,"is_disabled":false,"rental_uris":{"android":"levelo://app?vid=ad8af2da-52ee-42cb-8c5d-6a7991160938","ios":"levelo://app?vid=ad8af2da-52ee-42cb-8c5d-6a7991160938"},"vehicle_type_id":"4","last_reported":1706720801,"current_range_meters":14000,"station_id":"ce4bh392rcd13ifvqdl0","pricing_plan_id":"free"},{"bike_id":"f76cc7e3-c706-4bf5-82a5-314d24b7f022","system_id":"levelo_inurba_marseille","lat":43.291675,"lon":5.371583,"is_reserved":false,"is_disabled":false,"rental_uris":{"android":"levelo://app?vid=f76cc7e3-c706-4bf5-82a5-314d24b7f022","ios":"levelo://app?vid=f76cc7e3-c706-4bf5-82a5-314d24b7f022"},"vehicle_type_id":"4","last_reported":1706720801,"current_range_meters":29600,"station_id":"ce4bha92rcd13ifvqeh0","pricing_plan_id":"free"},{"bike_id":"01af3e26-c5e6-4f46-b9d5-cb16d627663b","system_id":"levelo_inurba_marseille","lat":43.298764,"lon":5.388973,"is_reserved":false,"is_disabled":false,"rental_uris":{"android":"levelo://app?vid=01af3e26-c5e6-4f46-b9d5-cb16d627663b","ios":"levelo://app?vid=01af3e26-c5e6-4f46-b9d5-cb16d627663b"},"vehicle_type_id":"4","last_reported":1706720801,"current_range_meters":30400,"station_id":"ce4bh392rcd13ifvqdl0","pricing_plan_id":"free"},{"bike_id":"78f3c2d9-a08f-45c9-a860-8dbae5071766","system_id":"levelo_inurba_marseille","lat":43.298764,"lon":5.388973,"is_reserved":false,"is_disabled":false,"rental_uris":{"android":"levelo://app?vid=78f3c2d9-a08f-45c9-a860-8dbae5071766","ios":"levelo://app?vid=78f3c2d9-a08f-45c9-a860-8dbae5071766"},"vehicle_type_id":"4","last_reported":1706720801,"current_range_meters":21200,"station_id":"ce4bh392rcd13ifvqdl0","pricing_plan_id":"free"},{"bike_id":"77732b10-c938-476a-b0a7-005599d93524","system_id":"levelo_inurba_marseille","lat":43.298725,"lon":5.389265,"is_reserved":false,"is_disabled":false,"rental_uris":{"android":"levelo://app?vid=77732b10-c938-476a-b0a7-005599d93524","ios":"levelo://app?vid=77732b10-c938-476a-b0a7-005599d93524"},"vehicle_type_id":"4","last_reported":1706720801,"current_range_meters":21600,"station_id":"ce4bh392rcd13ifvqdl0","pricing_plan_id":"free"},{"bike_id":"36512bc8-4777-447a-80c4-3e0628106cf2","system_id":"levelo_inurba_marseille","lat":43.313291,"lon":5.396838,"is_reserved":false,"is_disabled":false,"rental_uris":{"android":"levelo://app?vid=36512bc8-4777-447a-80c4-3e0628106cf2","ios":"levelo://app?vid=36512bc8-4777-447a-80c4-3e0628106cf2"},"vehicle_type_id":"4","last_reported":1706720801,"current_range_meters":15600,"station_id":"ce4bgvp2rcd13ifvqcu0","pricing_plan_id":"free"},{"bike_id":"e92eb082-79db-4263-b1b1-25ddfde8aaa6","system_id":"levelo_inurba_marseille","lat":43.309047,"lon":5.396551,"is_reserved":false,"is_disabled":false,"rental_uris":{"android":"levelo://app?vid=e92eb082-79db-4263-b1b1-25ddfde8aaa6","ios":"levelo://app?vid=e92eb082-79db-4263-b1b1-25ddfde8aaa6"},"vehicle_type_id":"4","last_reported":1706720801,"current_range_meters":14400,"station_id":"ce4bh012rcd13ifvqcv0","pricing_plan_id":"free"},{"bike_id":"c43c37cc-5ab4-4832-8f4f-6d864d287eb6","system_id":"levelo_inurba_marseille","lat":43.309038,"lon":5.396546,"is_reserved":false,"is_disabled":false,"rental_uris":{"android":"levelo://app?vid=c43c37cc-5ab4-4832-8f4f-6d864d287eb6","ios":"levelo://app?vid=c43c37cc-5ab4-4832-8f4f-6d864d287eb6"},"vehicle_type_id":"4","last_reported":1706720801,"current_range_meters":1200,"station_id":"ce4bh012rcd13ifvqcv0","pricing_plan_id":"free"},{"bike_id":"96a5ad8c-71a9-4035-9554-7bf7fc678da2","system_id":"levelo_inurba_marseille","lat":43.309038,"lon":5.396546,"is_reserved":false,"is_disabled":false,"rental_uris":{"android":"levelo://app?vid=96a5ad8c-71a9-4035-9554-7bf7fc678da2","ios":"levelo://app?vid=96a5ad8c-71a9-4035-9554-7bf7fc678da2"},"vehicle_type_id":"4","last_reported":1706720801,"current_range_meters":16800,"station_id":"ce4bh012rcd13ifvqcv0","pricing_plan_id":"free"},{"bike_id":"b38f9ba4-a7ec-4f17-a89b-7a869ca11512","system_id":"levelo_inurba_marseille","lat":43.309047,"lon":5.396551,"is_reserved":false,"is_disabled":false,"rental_uris":{"android":"levelo://app?vid=b38f9ba4-a7ec-4f17-a89b-7a869ca11512","ios":"levelo://app?vid=b38f9ba4-a7ec-4f17-a89b-7a869ca11512"},"vehicle_type_id":"4","last_reported":1706720801,"current_range_meters":14000,"station_id":"ce4bh012rcd13ifvqcv0","pricing_plan_id":"free"},{"bike_id":"ed78de58-7d47-4949-b6b4-ce26b6ed0452","system_id":"levelo_inurba_marseille","lat":43.309038,"lon":5.396546,"is_reserved":false,"is_disabled":false,"rental_uris":{"android":"levelo://app?vid=ed78de58-7d47-4949-b6b4-ce26b6ed0452","ios":"levelo://app?vid=ed78de58-7d47-4949-b6b4-ce26b6ed0452"},"vehicle_type_id":"4","last_reported":1706720801,"current_range_meters":20800,"station_id":"ce4bh012rcd13ifvqcv0","pricing_plan_id":"free"},{"bike_id":"96240df8-1166-47f5-adf7-3acc2736f754","system_id":"levelo_inurba_marseille","lat":43.309047,"lon":5.396551,"is_reserved":false,"is_disabled":false,"rental_uris":{"android":"levelo://app?vid=96240df8-1166-47f5-adf7-3acc2736f754","ios":"levelo://app?vid=96240df8-1166-47f5-adf7-3acc2736f754"},"vehicle_type_id":"4","last_reported":1706720801,"current_range_meters":10800,"station_id":"ce4bh012rcd13ifvqcv0","pricing_plan_id":"free"},{"bike_id":"b38030bc-e1b3-41c5-9575-e0da08d3be54","system_id":"levelo_inurba_marseille","lat":43.29529,"lon":5.385581,"is_reserved":false,"is_disabled":false,"rental_uris":{"android":"levelo://app?vid=b38030bc-e1b3-41c5-9575-e0da08d3be54","ios":"levelo://app?vid=b38030bc-e1b3-41c5-9575-e0da08d3be54"},"vehicle_type_id":"4","last_reported":1706720801,"current_range_meters":15200,"station_id":"ce4bgih2rcd13ifvqba0","pricing_plan_id":"free"},{"bike_id":"a5b9c79f-1704-454d-a82e-551687786e55","system_id":"levelo_inurba_marseille","lat":43.29529,"lon":5.385581,"is_reserved":false,"is_disabled":false,"rental_uris":{"android":"levelo://app?vid=a5b9c79f-1704-454d-a82e-551687786e55","ios":"levelo://app?vid=a5b9c79f-1704-454d-a82e-551687786e55"},"vehicle_type_id":"4","last_reported":1706720801,"current_range_meters":0,"station_id":"ce4bgih2rcd13ifvqba0","pricing_plan_id":"free"},{"bike_id":"dbac8d81-ce1c-45c5-801f-4a5a7492c5ac","system_id":"levelo_inurba_marseille","lat":43.29529,"lon":5.385581,"is_reserved":false,"is_disabled":false,"rental_uris":{"android":"levelo://app?vid=dbac8d81-ce1c-45c5-801f-4a5a7492c5ac","ios":"levelo://app?vid=dbac8d81-ce1c-45c5-801f-4a5a7492c5ac"},"vehicle_type_id":"4","last_reported":1706720801,"current_range_meters":0,"station_id":"ce4bgih2rcd13ifvqba0","pricing_plan_id":"free"},{"bike_id":"90231a53-f8d3-4a57-a06f-946d4ec3dfee","system_id":"levelo_inurba_marseille","lat":43.29529,"lon":5.385581,"is_reserved":false,"is_disabled":false,"rental_uris":{"android":"levelo://app?vid=90231a53-f8d3-4a57-a06f-946d4ec3dfee","ios":"levelo://app?vid=90231a53-f8d3-4a57-a06f-946d4ec3dfee"},"vehicle_type_id":"4","last_reported":1706720801,"current_range_meters":0,"station_id":"ce4bgih2rcd13ifvqba0","pricing_plan_id":"free"},{"bike_id":"9204efed-1635-4897-aa06-1f184de6b459","system_id":"levelo_inurba_marseille","lat":43.29533,"lon":5.38546,"is_reserved":false,"is_disabled":false,"rental_uris":{"android":"levelo://app?vid=9204efed-1635-4897-aa06-1f184de6b459","ios":"levelo://app?vid=9204efed-1635-4897-aa06-1f184de6b459"},"vehicle_type_id":"4","last_reported":1706720801,"current_range_meters":0,"station_id":"ce4bgih2rcd13ifvqba0","pricing_plan_id":"free"},{"bike_id":"0913c4fe-bdaf-496b-879c-817964f4bef5","system_id":"levelo_inurba_marseille","lat":43.29529,"lon":5.385581,"is_reserved":false,"is_disabled":false,"rental_uris":{"android":"levelo://app?vid=0913c4fe-bdaf-496b-879c-817964f4bef5","ios":"levelo://app?vid=0913c4fe-bdaf-496b-879c-817964f4bef5"},"vehicle_type_id":"4","last_reported":1706720801,"current_range_meters":11200,"station_id":"ce4bgih2rcd13ifvqba0","pricing_plan_id":"free"},{"bike_id":"ab12ea50-7449-4efc-8f77-89ec66ee1556","system_id":"levelo_inurba_marseille","lat":43.29527,"lon":5.38543,"is_reserved":false,"is_disabled":false,"rental_uris":{"android":"levelo://app?vid=ab12ea50-7449-4efc-8f77-89ec66ee1556","ios":"levelo://app?vid=ab12ea50-7449-4efc-8f77-89ec66ee1556"},"vehicle_type_id":"4","last_reported":1706720801,"current_range_meters":0,"station_id":"ce4bgih2rcd13ifvqba0","pricing_plan_id":"free"},{"bike_id":"616adcec-eabb-4a02-8ecf-11e4fbc220cf","system_id":"levelo_inurba_marseille","lat":43.29529,"lon":5.385581,"is_reserved":false,"is_disabled":false,"rental_uris":{"android":"levelo://app?vid=616adcec-eabb-4a02-8ecf-11e4fbc220cf","ios":"levelo://app?vid=616adcec-eabb-4a02-8ecf-11e4fbc220cf"},"vehicle_type_id":"4","last_reported":1706720801,"current_range_meters":0,"station_id":"ce4bgih2rcd13ifvqba0","pricing_plan_id":"free"},{"bike_id":"14884857-8600-49e3-baee-a6a978da98f2","system_id":"levelo_inurba_marseille","lat":43.29528,"lon":5.38547,"is_reserved":false,"is_disabled":false,"rental_uris":{"android":"levelo://app?vid=14884857-8600-49e3-baee-a6a978da98f2","ios":"levelo://app?vid=14884857-8600-49e3-baee-a6a978da98f2"},"vehicle_type_id":"4","last_reported":1706720801,"current_range_meters":0,"station_id":"ce4bgih2rcd13ifvqba0","pricing_plan_id":"free"},{"bike_id":"efbd7d48-b1eb-4f0a-8b3f-b2a66e048b49","system_id":"levelo_inurba_marseille","lat":43.29529,"lon":5.385581,"is_reserved":false,"is_disabled":false,"rental_uris":{"android":"levelo://app?vid=efbd7d48-b1eb-4f0a-8b3f-b2a66e048b49","ios":"levelo://app?vid=efbd7d48-b1eb-4f0a-8b3f-b2a66e048b49"},"vehicle_type_id":"4","last_reported":1706720801,"current_range_meters":6400,"station_id":"ce4bgih2rcd13ifvqba0","pricing_plan_id":"free"},{"bike_id":"2f15daa3-275d-4527-ba64-588b2b8f7d2e","system_id":"levelo_inurba_marseille","lat":43.309038,"lon":5.396546,"is_reserved":false,"is_disabled":false,"rental_uris":{"android":"levelo://app?vid=2f15daa3-275d-4527-ba64-588b2b8f7d2e","ios":"levelo://app?vid=2f15daa3-275d-4527-ba64-588b2b8f7d2e"},"vehicle_type_id":"4","last_reported":1706720801,"current_range_meters":14000,"station_id":"ce4bh012rcd13ifvqcv0","pricing_plan_id":"free"},{"bike_id":"77dbe63a-037c-4832-8853-3d321b830a95","system_id":"levelo_inurba_marseille","lat":43.290624,"lon":5.359245,"is_reserved":false,"is_disabled":false,"rental_uris":{"android":"levelo://app?vid=77dbe63a-037c-4832-8853-3d321b830a95","ios":"levelo://app?vid=77dbe63a-037c-4832-8853-3d321b830a95"},"vehicle_type_id":"4","last_reported":1706720801,"current_range_meters":4800,"station_id":"ce4bha92rcd13ifvqeg0","pricing_plan_id":"free"},{"bike_id":"88e9ff32-9927-4d47-aa12-1910d252cea3","system_id":"levelo_inurba_marseille","lat":43.290624,"lon":5.359245,"is_reserved":false,"is_disabled":false,"rental_uris":{"android":"levelo://app?vid=88e9ff32-9927-4d47-aa12-1910d252cea3","ios":"levelo://app?vid=88e9ff32-9927-4d47-aa12-1910d252cea3"},"vehicle_type_id":"4","last_reported":1706720801,"current_range_meters":20800,"station_id":"ce4bha92rcd13ifvqeg0","pricing_plan_id":"free"},{"bike_id":"e26a3cc8-f51d-4c1a-af30-da7e141aa81d","system_id":"levelo_inurba_marseille","lat":43.290624,"lon":5.359245,"is_reserved":false,"is_disabled":false,"rental_uris":{"android":"levelo://app?vid=e26a3cc8-f51d-4c1a-af30-da7e141aa81d","ios":"levelo://app?vid=e26a3cc8-f51d-4c1a-af30-da7e141aa81d"},"vehicle_type_id":"4","last_reported":1706720801,"current_range_meters":10400,"station_id":"ce4bha92rcd13ifvqeg0","pricing_plan_id":"free"},{"bike_id":"2c1e47ad-3478-424c-8c66-23a600b1f0dc","system_id":"levelo_inurba_marseille","lat":43.290441,"lon":5.359123,"is_reserved":false,"is_disabled":false,"rental_uris":{"android":"levelo://app?vid=2c1e47ad-3478-424c-8c66-23a600b1f0dc","ios":"levelo://app?vid=2c1e47ad-3478-424c-8c66-23a600b1f0dc"},"vehicle_type_id":"4","last_reported":1706720801,"current_range_meters":13600,"station_id":"","pricing_plan_id":"free"},{"bike_id":"1282c12c-921b-4a48-a884-f0289abe0b90","system_id":"levelo_inurba_marseille","lat":43.294153,"lon":5.386305,"is_reserved":false,"is_disabled":false,"rental_uris":{"android":"levelo://app?vid=1282c12c-921b-4a48-a884-f0289abe0b90","ios":"levelo://app?vid=1282c12c-921b-4a48-a884-f0289abe0b90"},"vehicle_type_id":"4","last_reported":1706720801,"current_range_meters":6000,"station_id":"ce4bh2h2rcd13ifvqdh0","pricing_plan_id":"free"},{"bike_id":"64be3f33-cb23-491d-9ed4-41762c4d04b9","system_id":"levelo_inurba_marseille","lat":43.2942,"lon":5.38625,"is_reserved":false,"is_disabled":false,"rental_uris":{"android":"levelo://app?vid=64be3f33-cb23-491d-9ed4-41762c4d04b9","ios":"levelo://app?vid=64be3f33-cb23-491d-9ed4-41762c4d04b9"},"vehicle_type_id":"4","last_reported":1706720801,"current_range_meters":6800,"station_id":"ce4bh2h2rcd13ifvqdh0","pricing_plan_id":"free"},{"bike_id":"040c4416-88ac-48cb-934b-76636fb9050a","system_id":"levelo_inurba_marseille","lat":43.29416,"lon":5.3862,"is_reserved":false,"is_disabled":false,"rental_uris":{"android":"levelo://app?vid=040c4416-88ac-48cb-934b-76636fb9050a","ios":"levelo://app?vid=040c4416-88ac-48cb-934b-76636fb9050a"},"vehicle_type_id":"4","last_reported":1706720801,"current_range_meters":4800,"station_id":"ce4bh2h2rcd13ifvqdh0","pricing_plan_id":"free"},{"bike_id":"97a2683b-1835-4623-b6b2-d331534a37ae","system_id":"levelo_inurba_marseille","lat":43.29418,"lon":5.38626,"is_reserved":false,"is_disabled":false,"rental_uris":{"android":"levelo://app?vid=97a2683b-1835-4623-b6b2-d331534a37ae","ios":"levelo://app?vid=97a2683b-1835-4623-b6b2-d331534a37ae"},"vehicle_type_id":"4","last_reported":1706720801,"current_range_meters":1600,"station_id":"ce4bh2h2rcd13ifvqdh0","pricing_plan_id":"free"},{"bike_id":"1ed25439-ff79-439b-b0b6-7002364f4e56","system_id":"levelo_inurba_marseille","lat":43.290319,"lon":5.375732,"is_reserved":false,"is_disabled":false,"rental_uris":{"android":"levelo://app?vid=1ed25439-ff79-439b-b0b6-7002364f4e56","ios":"levelo://app?vid=1ed25439-ff79-439b-b0b6-7002364f4e56"},"vehicle_type_id":"4","last_reported":1706720801,"current_range_meters":26800,"station_id":"ce4bh692rcd13ifvqe90","pricing_plan_id":"free"},{"bike_id":"28f3da58-5aff-488f-a9b4-60d8b6efe704","system_id":"levelo_inurba_marseille","lat":43.294153,"lon":5.386305,"is_reserved":false,"is_disabled":false,"rental_uris":{"android":"levelo://app?vid=28f3da58-5aff-488f-a9b4-60d8b6efe704","ios":"levelo://app?vid=28f3da58-5aff-488f-a9b4-60d8b6efe704"},"vehicle_type_id":"4","last_reported":1706720801,"current_range_meters":1200,"station_id":"ce4bh2h2rcd13ifvqdh0","pricing_plan_id":"free"},{"bike_id":"dce4d2fd-b7e8-405e-8dfb-bdd5ff2c826a","system_id":"levelo_inurba_marseille","lat":43.289184,"lon":5.366408,"is_reserved":false,"is_disabled":false,"rental_uris":{"android":"levelo://app?vid=dce4d2fd-b7e8-405e-8dfb-bdd5ff2c826a","ios":"levelo://app?vid=dce4d2fd-b7e8-405e-8dfb-bdd5ff2c826a"},"vehicle_type_id":"4","last_reported":1706720801,"current_range_meters":1600,"station_id":"ce4bhap2rcd13ifvqek0","pricing_plan_id":"free"},{"bike_id":"645b71b1-ff5f-4dfb-9cba-f34235ecea51","system_id":"levelo_inurba_marseille","lat":43.289184,"lon":5.366408,"is_reserved":false,"is_disabled":false,"rental_uris":{"android":"levelo://app?vid=645b71b1-ff5f-4dfb-9cba-f34235ecea51","ios":"levelo://app?vid=645b71b1-ff5f-4dfb-9cba-f34235ecea51"},"vehicle_type_id":"4","last_reported":1706720801,"current_range_meters":3600,"station_id":"ce4bhap2rcd13ifvqek0","pricing_plan_id":"free"},{"bike_id":"edca5b5f-b0cc-46a8-9e30-bcf1b73fe563","system_id":"levelo_inurba_marseille","lat":43.294153,"lon":5.386305,"is_reserved":false,"is_disabled":false,"rental_uris":{"android":"levelo://app?vid=edca5b5f-b0cc-46a8-9e30-bcf1b73fe563","ios":"levelo://app?vid=edca5b5f-b0cc-46a8-9e30-bcf1b73fe563"},"vehicle_type_id":"4","last_reported":1706720801,"current_range_meters":0,"station_id":"ce4bh2h2rcd13ifvqdh0","pricing_plan_id":"free"},{"bike_id":"f5d47bd5-37ce-494f-886a-3e921292a79d","system_id":"levelo_inurba_marseille","lat":43.289184,"lon":5.366408,"is_reserved":false,"is_disabled":false,"rental_uris":{"android":"levelo://app?vid=f5d47bd5-37ce-494f-886a-3e921292a79d","ios":"levelo://app?vid=f5d47bd5-37ce-494f-886a-3e921292a79d"},"vehicle_type_id":"4","last_reported":1706720801,"current_range_meters":6400,"station_id":"ce4bhap2rcd13ifvqek0","pricing_plan_id":"free"},{"bike_id":"0a9c8c4f-b8ab-4fd4-b079-61a852011143","system_id":"levelo_inurba_marseille","lat":43.32847,"lon":5.39167,"is_reserved":false,"is_disabled":false,"rental_uris":{"android":"levelo://app?vid=0a9c8c4f-b8ab-4fd4-b079-61a852011143","ios":"levelo://app?vid=0a9c8c4f-b8ab-4fd4-b079-61a852011143"},"vehicle_type_id":"4","last_reported":1706720801,"current_range_meters":24400,"station_id":"","pricing_plan_id":"free"},{"bike_id":"16cf20ee-a00a-4a17-a3de-92ade8c1755e","system_id":"levelo_inurba_marseille","lat":43.290995,"lon":5.381361,"is_reserved":false,"is_disabled":false,"rental_uris":{"android":"levelo://app?vid=16cf20ee-a00a-4a17-a3de-92ade8c1755e","ios":"levelo://app?vid=16cf20ee-a00a-4a17-a3de-92ade8c1755e"},"vehicle_type_id":"4","last_reported":1706720801,"current_range_meters":11600,"station_id":"ce4bh512rcd13ifvqe2g","pricing_plan_id":"free"},{"bike_id":"874bf21e-bb84-41e9-9a9d-962df0b3197e","system_id":"levelo_inurba_marseille","lat":43.290995,"lon":5.381361,"is_reserved":false,"is_disabled":false,"rental_uris":{"android":"levelo://app?vid=874bf21e-bb84-41e9-9a9d-962df0b3197e","ios":"levelo://app?vid=874bf21e-bb84-41e9-9a9d-962df0b3197e"},"vehicle_type_id":"4","last_reported":1706720801,"current_range_meters":15200,"station_id":"ce4bh512rcd13ifvqe2g","pricing_plan_id":"free"},{"bike_id":"eb5c7c05-041c-4236-9e15-5839f79381d8","system_id":"levelo_inurba_marseille","lat":43.290995,"lon":5.381361,"is_reserved":false,"is_disabled":false,"rental_uris":{"android":"levelo://app?vid=eb5c7c05-041c-4236-9e15-5839f79381d8","ios":"levelo://app?vid=eb5c7c05-041c-4236-9e15-5839f79381d8"},"vehicle_type_id":"4","last_reported":1706720801,"current_range_meters":12800,"station_id":"ce4bh512rcd13ifvqe2g","pricing_plan_id":"free"},{"bike_id":"dc27bb04-e4e8-403c-a727-d52b8165b5c2","system_id":"levelo_inurba_marseille","lat":43.29785,"lon":5.39338,"is_reserved":false,"is_disabled":false,"rental_uris":{"android":"levelo://app?vid=dc27bb04-e4e8-403c-a727-d52b8165b5c2","ios":"levelo://app?vid=dc27bb04-e4e8-403c-a727-d52b8165b5c2"},"vehicle_type_id":"4","last_reported":1706720801,"current_range_meters":22800,"station_id":"chh1huq6cuj3fo74tm60","pricing_plan_id":"free"},{"bike_id":"c42483e5-6373-433f-a3a1-f4be1f1a8387","system_id":"levelo_inurba_marseille","lat":43.295169,"lon":5.390426,"is_reserved":false,"is_disabled":false,"rental_uris":{"android":"levelo://app?vid=c42483e5-6373-433f-a3a1-f4be1f1a8387","ios":"levelo://app?vid=c42483e5-6373-433f-a3a1-f4be1f1a8387"},"vehicle_type_id":"4","last_reported":1706720801,"current_range_meters":6400,"station_id":"ce4bh3p2rcd13ifvqdp0","pricing_plan_id":"free"},{"bike_id":"e6b8d29e-bfa7-4d3c-a9b0-1f5cb8102974","system_id":"levelo_inurba_marseille","lat":43.297815,"lon":5.393548,"is_reserved":false,"is_disabled":false,"rental_uris":{"android":"levelo://app?vid=e6b8d29e-bfa7-4d3c-a9b0-1f5cb8102974","ios":"levelo://app?vid=e6b8d29e-bfa7-4d3c-a9b0-1f5cb8102974"},"vehicle_type_id":"4","last_reported":1706720801,"current_range_meters":4800,"station_id":"chh1huq6cuj3fo74tm60","pricing_plan_id":"free"},{"bike_id":"a05fd3ed-b8f2-4cdb-8f48-fdfc6ba6f61a","system_id":"levelo_inurba_marseille","lat":43.297815,"lon":5.393548,"is_reserved":false,"is_disabled":false,"rental_uris":{"android":"levelo://app?vid=a05fd3ed-b8f2-4cdb-8f48-fdfc6ba6f61a","ios":"levelo://app?vid=a05fd3ed-b8f2-4cdb-8f48-fdfc6ba6f61a"},"vehicle_type_id":"4","last_reported":1706720801,"current_range_meters":1200,"station_id":"chh1huq6cuj3fo74tm60","pricing_plan_id":"free"},{"bike_id":"f16e5f89-5426-4883-9eb2-053457ad1b07","system_id":"levelo_inurba_marseille","lat":43.295169,"lon":5.390426,"is_reserved":false,"is_disabled":false,"rental_uris":{"android":"levelo://app?vid=f16e5f89-5426-4883-9eb2-053457ad1b07","ios":"levelo://app?vid=f16e5f89-5426-4883-9eb2-053457ad1b07"},"vehicle_type_id":"4","last_reported":1706720801,"current_range_meters":10400,"station_id":"ce4bh3p2rcd13ifvqdp0","pricing_plan_id":"free"},{"bike_id":"8e2a75d9-d954-4dce-a114-01a90cc13b7a","system_id":"levelo_inurba_marseille","lat":43.33023,"lon":5.3904,"is_reserved":false,"is_disabled":false,"rental_uris":{"android":"levelo://app?vid=8e2a75d9-d954-4dce-a114-01a90cc13b7a","ios":"levelo://app?vid=8e2a75d9-d954-4dce-a114-01a90cc13b7a"},"vehicle_type_id":"4","last_reported":1706720801,"current_range_meters":0,"station_id":"ce4bhr92rcd13ifvqhrg","pricing_plan_id":"free"},{"bike_id":"38d6d5d9-211f-4492-87b5-7ad24c532790","system_id":"levelo_inurba_marseille","lat":43.330442,"lon":5.389148,"is_reserved":false,"is_disabled":false,"rental_uris":{"android":"levelo://app?vid=38d6d5d9-211f-4492-87b5-7ad24c532790","ios":"levelo://app?vid=38d6d5d9-211f-4492-87b5-7ad24c532790"},"vehicle_type_id":"4","last_reported":1706720801,"current_range_meters":800,"station_id":"ce4bhr92rcd13ifvqhrg","pricing_plan_id":"free"},{"bike_id":"b1ab14f4-2878-45aa-9fbd-2e06b8f21083","system_id":"levelo_inurba_marseille","lat":43.330442,"lon":5.389148,"is_reserved":false,"is_disabled":false,"rental_uris":{"android":"levelo://app?vid=b1ab14f4-2878-45aa-9fbd-2e06b8f21083","ios":"levelo://app?vid=b1ab14f4-2878-45aa-9fbd-2e06b8f21083"},"vehicle_type_id":"4","last_reported":1706720801,"current_range_meters":15600,"station_id":"ce4bhr92rcd13ifvqhrg","pricing_plan_id":"free"},{"bike_id":"bcd04d77-89ce-4902-a5e1-2aac8e238102","system_id":"levelo_inurba_marseille","lat":43.330442,"lon":5.389148,"is_reserved":false,"is_disabled":false,"rental_uris":{"android":"levelo://app?vid=bcd04d77-89ce-4902-a5e1-2aac8e238102","ios":"levelo://app?vid=bcd04d77-89ce-4902-a5e1-2aac8e238102"},"vehicle_type_id":"4","last_reported":1706720801,"current_range_meters":8400,"station_id":"ce4bhr92rcd13ifvqhrg","pricing_plan_id":"free"},{"bike_id":"c64bec3a-e763-4d70-b301-e7b1e50281c8","system_id":"levelo_inurba_marseille","lat":43.295169,"lon":5.390426,"is_reserved":false,"is_disabled":false,"rental_uris":{"android":"levelo://app?vid=c64bec3a-e763-4d70-b301-e7b1e50281c8","ios":"levelo://app?vid=c64bec3a-e763-4d70-b301-e7b1e50281c8"},"vehicle_type_id":"4","last_reported":1706720801,"current_range_meters":4800,"station_id":"ce4bh3p2rcd13ifvqdp0","pricing_plan_id":"free"},{"bike_id":"04767495-9689-45e9-83cd-046341cdaa7a","system_id":"levelo_inurba_marseille","lat":43.29778,"lon":5.39355,"is_reserved":false,"is_disabled":false,"rental_uris":{"android":"levelo://app?vid=04767495-9689-45e9-83cd-046341cdaa7a","ios":"levelo://app?vid=04767495-9689-45e9-83cd-046341cdaa7a"},"vehicle_type_id":"4","last_reported":1706720801,"current_range_meters":2400,"station_id":"chh1huq6cuj3fo74tm60","pricing_plan_id":"free"},{"bike_id":"80970a35-cb25-48cb-8dda-b0128b14caa5","system_id":"levelo_inurba_marseille","lat":43.312609,"lon":5.401662,"is_reserved":false,"is_disabled":false,"rental_uris":{"android":"levelo://app?vid=80970a35-cb25-48cb-8dda-b0128b14caa5","ios":"levelo://app?vid=80970a35-cb25-48cb-8dda-b0128b14caa5"},"vehicle_type_id":"4","last_reported":1706720801,"current_range_meters":8800,"station_id":"ce4bh092rcd13ifvqd30","pricing_plan_id":"free"},{"bike_id":"45212af7-a6fa-455c-be70-bc509008c231","system_id":"levelo_inurba_marseille","lat":43.2901,"lon":5.381269,"is_reserved":false,"is_disabled":false,"rental_uris":{"android":"levelo://app?vid=45212af7-a6fa-455c-be70-bc509008c231","ios":"levelo://app?vid=45212af7-a6fa-455c-be70-bc509008c231"},"vehicle_type_id":"4","last_reported":1706720801,"current_range_meters":11200,"station_id":"ce4bh4p2rcd13ifvqe1g","pricing_plan_id":"free"},{"bike_id":"47de7ac7-d150-41e4-a312-7a8e7f82eda8","system_id":"levelo_inurba_marseille","lat":43.28856,"lon":5.358371,"is_reserved":false,"is_disabled":false,"rental_uris":{"android":"levelo://app?vid=47de7ac7-d150-41e4-a312-7a8e7f82eda8","ios":"levelo://app?vid=47de7ac7-d150-41e4-a312-7a8e7f82eda8"},"vehicle_type_id":"4","last_reported":1706720801,"current_range_meters":0,"station_id":"ce4bhb12rcd13ifvqem0","pricing_plan_id":"free"},{"bike_id":"d85e73cc-0091-45d8-b104-cfa06fbfa938","system_id":"levelo_inurba_marseille","lat":43.28857,"lon":5.35835,"is_reserved":false,"is_disabled":false,"rental_uris":{"android":"levelo://app?vid=d85e73cc-0091-45d8-b104-cfa06fbfa938","ios":"levelo://app?vid=d85e73cc-0091-45d8-b104-cfa06fbfa938"},"vehicle_type_id":"4","last_reported":1706720801,"current_range_meters":0,"station_id":"ce4bhb12rcd13ifvqem0","pricing_plan_id":"free"},{"bike_id":"f7bcc24b-317a-4f37-a99b-5e688e57824a","system_id":"levelo_inurba_marseille","lat":43.28846,"lon":5.3583,"is_reserved":false,"is_disabled":false,"rental_uris":{"android":"levelo://app?vid=f7bcc24b-317a-4f37-a99b-5e688e57824a","ios":"levelo://app?vid=f7bcc24b-317a-4f37-a99b-5e688e57824a"},"vehicle_type_id":"4","last_reported":1706720801,"current_range_meters":28400,"station_id":"ce4bhb12rcd13ifvqem0","pricing_plan_id":"free"},{"bike_id":"69fc39f7-326e-4127-8377-bfb3e3304975","system_id":"levelo_inurba_marseille","lat":43.33723,"lon":5.37438,"is_reserved":false,"is_disabled":false,"rental_uris":{"android":"levelo://app?vid=69fc39f7-326e-4127-8377-bfb3e3304975","ios":"levelo://app?vid=69fc39f7-326e-4127-8377-bfb3e3304975"},"vehicle_type_id":"4","last_reported":1706720801,"current_range_meters":28800,"station_id":"","pricing_plan_id":"free"},{"bike_id":"abfe1efa-c58d-485e-9965-49f1107e9644","system_id":"levelo_inurba_marseille","lat":43.28839,"lon":5.35846,"is_reserved":false,"is_disabled":false,"rental_uris":{"android":"levelo://app?vid=abfe1efa-c58d-485e-9965-49f1107e9644","ios":"levelo://app?vid=abfe1efa-c58d-485e-9965-49f1107e9644"},"vehicle_type_id":"4","last_reported":1706720801,"current_range_meters":0,"station_id":"ce4bhb12rcd13ifvqem0","pricing_plan_id":"free"},{"bike_id":"b964d9fd-972c-4750-b880-29a57e9d7707","system_id":"levelo_inurba_marseille","lat":43.312609,"lon":5.401662,"is_reserved":false,"is_disabled":false,"rental_uris":{"android":"levelo://app?vid=b964d9fd-972c-4750-b880-29a57e9d7707","ios":"levelo://app?vid=b964d9fd-972c-4750-b880-29a57e9d7707"},"vehicle_type_id":"4","last_reported":1706720801,"current_range_meters":0,"station_id":"ce4bh092rcd13ifvqd30","pricing_plan_id":"free"},{"bike_id":"3a9fbb0e-5c5a-4876-817e-0d05a9186890","system_id":"levelo_inurba_marseille","lat":43.308156,"lon":5.401124,"is_reserved":false,"is_disabled":false,"rental_uris":{"android":"levelo://app?vid=3a9fbb0e-5c5a-4876-817e-0d05a9186890","ios":"levelo://app?vid=3a9fbb0e-5c5a-4876-817e-0d05a9186890"},"vehicle_type_id":"4","last_reported":1706720801,"current_range_meters":0,"station_id":"","pricing_plan_id":"free"},{"bike_id":"b4d85829-ffae-4a59-aa2a-c43afc09c240","system_id":"levelo_inurba_marseille","lat":43.33745,"lon":5.37446,"is_reserved":false,"is_disabled":false,"rental_uris":{"android":"levelo://app?vid=b4d85829-ffae-4a59-aa2a-c43afc09c240","ios":"levelo://app?vid=b4d85829-ffae-4a59-aa2a-c43afc09c240"},"vehicle_type_id":"4","last_reported":1706720801,"current_range_meters":22000,"station_id":"","pricing_plan_id":"free"},{"bike_id":"286f917e-0a5a-4a5d-a8b9-fc4f7abedf84","system_id":"levelo_inurba_marseille","lat":43.33746,"lon":5.37459,"is_reserved":false,"is_disabled":false,"rental_uris":{"android":"levelo://app?vid=286f917e-0a5a-4a5d-a8b9-fc4f7abedf84","ios":"levelo://app?vid=286f917e-0a5a-4a5d-a8b9-fc4f7abedf84"},"vehicle_type_id":"4","last_reported":1706720801,"current_range_meters":18400,"station_id":"","pricing_plan_id":"free"},{"bike_id":"3f922606-09b3-4449-bedc-e379481e6f30","system_id":"levelo_inurba_marseille","lat":43.309371,"lon":5.401449,"is_reserved":false,"is_disabled":false,"rental_uris":{"android":"levelo://app?vid=3f922606-09b3-4449-bedc-e379481e6f30","ios":"levelo://app?vid=3f922606-09b3-4449-bedc-e379481e6f30"},"vehicle_type_id":"4","last_reported":1706720801,"current_range_meters":16800,"station_id":"ce4bgvp2rcd13ifvqct0","pricing_plan_id":"free"},{"bike_id":"b7d3b81d-d85a-44b5-a0c7-8f9c9f74639e","system_id":"levelo_inurba_marseille","lat":43.337587,"lon":5.374576,"is_reserved":false,"is_disabled":false,"rental_uris":{"android":"levelo://app?vid=b7d3b81d-d85a-44b5-a0c7-8f9c9f74639e","ios":"levelo://app?vid=b7d3b81d-d85a-44b5-a0c7-8f9c9f74639e"},"vehicle_type_id":"4","last_reported":1706720801,"current_range_meters":14800,"station_id":"","pricing_plan_id":"free"},{"bike_id":"12568932-a9a7-4d52-8b2c-668683b75358","system_id":"levelo_inurba_marseille","lat":43.33754,"lon":5.375013,"is_reserved":false,"is_disabled":false,"rental_uris":{"android":"levelo://app?vid=12568932-a9a7-4d52-8b2c-668683b75358","ios":"levelo://app?vid=12568932-a9a7-4d52-8b2c-668683b75358"},"vehicle_type_id":"4","last_reported":1706720801,"current_range_meters":16800,"station_id":"","pricing_plan_id":"free"},{"bike_id":"1facbbf3-baac-42f8-85eb-cb1e36f3e4b9","system_id":"levelo_inurba_marseille","lat":43.337623,"lon":5.374883,"is_reserved":false,"is_disabled":false,"rental_uris":{"android":"levelo://app?vid=1facbbf3-baac-42f8-85eb-cb1e36f3e4b9","ios":"levelo://app?vid=1facbbf3-baac-42f8-85eb-cb1e36f3e4b9"},"vehicle_type_id":"4","last_reported":1706720801,"current_range_meters":3200,"station_id":"","pricing_plan_id":"free"},{"bike_id":"e101c5be-7f89-4962-9878-2971db06a1f0","system_id":"levelo_inurba_marseille","lat":43.306412,"lon":5.401035,"is_reserved":false,"is_disabled":false,"rental_uris":{"android":"levelo://app?vid=e101c5be-7f89-4962-9878-2971db06a1f0","ios":"levelo://app?vid=e101c5be-7f89-4962-9878-2971db06a1f0"},"vehicle_type_id":"4","last_reported":1706720801,"current_range_meters":10800,"station_id":"ce4bh112rcd13ifvqda0","pricing_plan_id":"free"},{"bike_id":"a325d2e5-bd08-406e-aa24-f6e903d5a592","system_id":"levelo_inurba_marseille","lat":43.30642,"lon":5.401031,"is_reserved":false,"is_disabled":false,"rental_uris":{"android":"levelo://app?vid=a325d2e5-bd08-406e-aa24-f6e903d5a592","ios":"levelo://app?vid=a325d2e5-bd08-406e-aa24-f6e903d5a592"},"vehicle_type_id":"4","last_reported":1706720801,"current_range_meters":6400,"station_id":"ce4bh112rcd13ifvqda0","pricing_plan_id":"free"},{"bike_id":"7b6c2f24-74fa-4b24-9a41-bede95cb1bb8","system_id":"levelo_inurba_marseille","lat":43.30642,"lon":5.401031,"is_reserved":false,"is_disabled":false,"rental_uris":{"android":"levelo://app?vid=7b6c2f24-74fa-4b24-9a41-bede95cb1bb8","ios":"levelo://app?vid=7b6c2f24-74fa-4b24-9a41-bede95cb1bb8"},"vehicle_type_id":"4","last_reported":1706720801,"current_range_meters":4400,"station_id":"ce4bh112rcd13ifvqda0","pricing_plan_id":"free"},{"bike_id":"9383a6a4-26f7-457e-892e-c4c24f622a73","system_id":"levelo_inurba_marseille","lat":43.29948,"lon":5.397,"is_reserved":false,"is_disabled":false,"rental_uris":{"android":"levelo://app?vid=9383a6a4-26f7-457e-892e-c4c24f622a73","ios":"levelo://app?vid=9383a6a4-26f7-457e-892e-c4c24f622a73"},"vehicle_type_id":"4","last_reported":1706720801,"current_range_meters":0,"station_id":"","pricing_plan_id":"free"},{"bike_id":"e867fd52-5216-492c-adce-f157b4588629","system_id":"levelo_inurba_marseille","lat":43.285856,"lon":5.350771,"is_reserved":false,"is_disabled":false,"rental_uris":{"android":"levelo://app?vid=e867fd52-5216-492c-adce-f157b4588629","ios":"levelo://app?vid=e867fd52-5216-492c-adce-f157b4588629"},"vehicle_type_id":"4","last_reported":1706720801,"current_range_meters":18000,"station_id":"ce4bhch2rcd13ifvqeug","pricing_plan_id":"free"},{"bike_id":"8ace6342-3010-4aad-a715-3c2ebc3fdf71","system_id":"levelo_inurba_marseille","lat":43.284534,"lon":5.358662,"is_reserved":false,"is_disabled":false,"rental_uris":{"android":"levelo://app?vid=8ace6342-3010-4aad-a715-3c2ebc3fdf71","ios":"levelo://app?vid=8ace6342-3010-4aad-a715-3c2ebc3fdf71"},"vehicle_type_id":"4","last_reported":1706720801,"current_range_meters":4000,"station_id":"ce4bhah2rcd13ifvqei0","pricing_plan_id":"free"},{"bike_id":"c02e0d1a-3535-4be9-bf47-e3f09a38c777","system_id":"levelo_inurba_marseille","lat":43.301117,"lon":5.398795,"is_reserved":false,"is_disabled":false,"rental_uris":{"android":"levelo://app?vid=c02e0d1a-3535-4be9-bf47-e3f09a38c777","ios":"levelo://app?vid=c02e0d1a-3535-4be9-bf47-e3f09a38c777"},"vehicle_type_id":"4","last_reported":1706720801,"current_range_meters":7600,"station_id":"ce4bh0h2rcd13ifvqd40","pricing_plan_id":"free"},{"bike_id":"0c57ca09-8143-44e5-94a8-ff344ab6f432","system_id":"levelo_inurba_marseille","lat":43.28719,"lon":5.36088,"is_reserved":false,"is_disabled":false,"rental_uris":{"android":"levelo://app?vid=0c57ca09-8143-44e5-94a8-ff344ab6f432","ios":"levelo://app?vid=0c57ca09-8143-44e5-94a8-ff344ab6f432"},"vehicle_type_id":"4","last_reported":1706720801,"current_range_meters":0,"station_id":"cki0cbj6b192h4jlfktg","pricing_plan_id":"free"},{"bike_id":"701d04c3-f591-42c2-812f-82ae0b104c98","system_id":"levelo_inurba_marseille","lat":43.286593,"lon":5.363346,"is_reserved":false,"is_disabled":false,"rental_uris":{"android":"levelo://app?vid=701d04c3-f591-42c2-812f-82ae0b104c98","ios":"levelo://app?vid=701d04c3-f591-42c2-812f-82ae0b104c98"},"vehicle_type_id":"4","last_reported":1706720801,"current_range_meters":3600,"station_id":"ce4bhah2rcd13ifvqej0","pricing_plan_id":"free"},{"bike_id":"14d0ef62-1764-41e7-af4c-4664d45255ba","system_id":"levelo_inurba_marseille","lat":43.295748,"lon":5.37522,"is_reserved":false,"is_disabled":false,"rental_uris":{"android":"levelo://app?vid=14d0ef62-1764-41e7-af4c-4664d45255ba","ios":"levelo://app?vid=14d0ef62-1764-41e7-af4c-4664d45255ba"},"vehicle_type_id":"4","last_reported":1706720801,"current_range_meters":21200,"station_id":"ce4bgh92rcd13ifvqb50","pricing_plan_id":"free"},{"bike_id":"a281143c-cebd-4223-ad16-56a835a8d133","system_id":"levelo_inurba_marseille","lat":43.286961,"lon":5.373785,"is_reserved":false,"is_disabled":false,"rental_uris":{"android":"levelo://app?vid=a281143c-cebd-4223-ad16-56a835a8d133","ios":"levelo://app?vid=a281143c-cebd-4223-ad16-56a835a8d133"},"vehicle_type_id":"4","last_reported":1706720801,"current_range_meters":25600,"station_id":"ce4bh3p2rcd13ifvqdq0","pricing_plan_id":"free"},{"bike_id":"b70e1ac6-4e33-4559-9de3-43d6a12dac02","system_id":"levelo_inurba_marseille","lat":43.286593,"lon":5.363346,"is_reserved":false,"is_disabled":false,"rental_uris":{"android":"levelo://app?vid=b70e1ac6-4e33-4559-9de3-43d6a12dac02","ios":"levelo://app?vid=b70e1ac6-4e33-4559-9de3-43d6a12dac02"},"vehicle_type_id":"4","last_reported":1706720801,"current_range_meters":6400,"station_id":"ce4bhah2rcd13ifvqej0","pricing_plan_id":"free"},{"bike_id":"76c1eb3a-ccb9-441f-8fc5-039905c537ed","system_id":"levelo_inurba_marseille","lat":43.295196,"lon":5.39397,"is_reserved":false,"is_disabled":false,"rental_uris":{"android":"levelo://app?vid=76c1eb3a-ccb9-441f-8fc5-039905c537ed","ios":"levelo://app?vid=76c1eb3a-ccb9-441f-8fc5-039905c537ed"},"vehicle_type_id":"4","last_reported":1706720801,"current_range_meters":21600,"station_id":"ce4bh292rcd13ifvqdf0","pricing_plan_id":"free"},{"bike_id":"3c2a8e4c-0367-41e8-a5a5-266ddd334c2a","system_id":"levelo_inurba_marseille","lat":43.295196,"lon":5.39397,"is_reserved":false,"is_disabled":false,"rental_uris":{"android":"levelo://app?vid=3c2a8e4c-0367-41e8-a5a5-266ddd334c2a","ios":"levelo://app?vid=3c2a8e4c-0367-41e8-a5a5-266ddd334c2a"},"vehicle_type_id":"4","last_reported":1706720801,"current_range_meters":2000,"station_id":"ce4bh292rcd13ifvqdf0","pricing_plan_id":"free"},{"bike_id":"0518c58f-1793-4238-bcc6-a80072a054d1","system_id":"levelo_inurba_marseille","lat":43.295194,"lon":5.39397,"is_reserved":false,"is_disabled":false,"rental_uris":{"android":"levelo://app?vid=0518c58f-1793-4238-bcc6-a80072a054d1","ios":"levelo://app?vid=0518c58f-1793-4238-bcc6-a80072a054d1"},"vehicle_type_id":"4","last_reported":1706720801,"current_range_meters":6800,"station_id":"ce4bh292rcd13ifvqdf0","pricing_plan_id":"free"},{"bike_id":"61c91cad-894c-4d38-8632-9a48e86da1b9","system_id":"levelo_inurba_marseille","lat":43.295194,"lon":5.39397,"is_reserved":false,"is_disabled":false,"rental_uris":{"android":"levelo://app?vid=61c91cad-894c-4d38-8632-9a48e86da1b9","ios":"levelo://app?vid=61c91cad-894c-4d38-8632-9a48e86da1b9"},"vehicle_type_id":"4","last_reported":1706720801,"current_range_meters":7600,"station_id":"ce4bh292rcd13ifvqdf0","pricing_plan_id":"free"},{"bike_id":"efdafd31-e3cd-444b-a93c-824c55fa1438","system_id":"levelo_inurba_marseille","lat":43.295196,"lon":5.39397,"is_reserved":false,"is_disabled":false,"rental_uris":{"android":"levelo://app?vid=efdafd31-e3cd-444b-a93c-824c55fa1438","ios":"levelo://app?vid=efdafd31-e3cd-444b-a93c-824c55fa1438"},"vehicle_type_id":"4","last_reported":1706720801,"current_range_meters":30000,"station_id":"ce4bh292rcd13ifvqdf0","pricing_plan_id":"free"},{"bike_id":"a9ca356d-bc28-47c9-8f75-c4819610b8ea","system_id":"levelo_inurba_marseille","lat":43.302525,"lon":5.400495,"is_reserved":false,"is_disabled":false,"rental_uris":{"android":"levelo://app?vid=a9ca356d-bc28-47c9-8f75-c4819610b8ea","ios":"levelo://app?vid=a9ca356d-bc28-47c9-8f75-c4819610b8ea"},"vehicle_type_id":"4","last_reported":1706720801,"current_range_meters":0,"station_id":"ce4bgvh2rcd13ifvqcs0","pricing_plan_id":"free"},{"bike_id":"7b4c20b1-7f65-4e60-afbe-01b5a20c0397","system_id":"levelo_inurba_marseille","lat":43.302759,"lon":5.400793,"is_reserved":false,"is_disabled":false,"rental_uris":{"android":"levelo://app?vid=7b4c20b1-7f65-4e60-afbe-01b5a20c0397","ios":"levelo://app?vid=7b4c20b1-7f65-4e60-afbe-01b5a20c0397"},"vehicle_type_id":"4","last_reported":1706720801,"current_range_meters":0,"station_id":"ce4bgvh2rcd13ifvqcs0","pricing_plan_id":"free"},{"bike_id":"b02f2093-a3fc-45d1-a914-d58f96d4c8dd","system_id":"levelo_inurba_marseille","lat":43.30247,"lon":5.40057,"is_reserved":false,"is_disabled":false,"rental_uris":{"android":"levelo://app?vid=b02f2093-a3fc-45d1-a914-d58f96d4c8dd","ios":"levelo://app?vid=b02f2093-a3fc-45d1-a914-d58f96d4c8dd"},"vehicle_type_id":"4","last_reported":1706720801,"current_range_meters":0,"station_id":"ce4bgvh2rcd13ifvqcs0","pricing_plan_id":"free"},{"bike_id":"68c95815-40b2-41da-845a-d2efc3069811","system_id":"levelo_inurba_marseille","lat":43.290336,"lon":5.386425,"is_reserved":false,"is_disabled":false,"rental_uris":{"android":"levelo://app?vid=68c95815-40b2-41da-845a-d2efc3069811","ios":"levelo://app?vid=68c95815-40b2-41da-845a-d2efc3069811"},"vehicle_type_id":"4","last_reported":1706720801,"current_range_meters":7200,"station_id":"ce4bh4p2rcd13ifvqe0g","pricing_plan_id":"free"},{"bike_id":"e020831e-c16d-4d23-b23a-0422e76c01c4","system_id":"levelo_inurba_marseille","lat":43.290336,"lon":5.386425,"is_reserved":false,"is_disabled":false,"rental_uris":{"android":"levelo://app?vid=e020831e-c16d-4d23-b23a-0422e76c01c4","ios":"levelo://app?vid=e020831e-c16d-4d23-b23a-0422e76c01c4"},"vehicle_type_id":"4","last_reported":1706720801,"current_range_meters":17200,"station_id":"ce4bh4p2rcd13ifvqe0g","pricing_plan_id":"free"},{"bike_id":"15a18b8e-875b-41ed-85c9-9bbcccf5823e","system_id":"levelo_inurba_marseille","lat":43.290345,"lon":5.38646,"is_reserved":false,"is_disabled":false,"rental_uris":{"android":"levelo://app?vid=15a18b8e-875b-41ed-85c9-9bbcccf5823e","ios":"levelo://app?vid=15a18b8e-875b-41ed-85c9-9bbcccf5823e"},"vehicle_type_id":"4","last_reported":1706720801,"current_range_meters":800,"station_id":"ce4bh4p2rcd13ifvqe0g","pricing_plan_id":"free"},{"bike_id":"5b8c776c-aec6-4857-b2d7-d46ed220deac","system_id":"levelo_inurba_marseille","lat":43.302511,"lon":5.400653,"is_reserved":false,"is_disabled":false,"rental_uris":{"android":"levelo://app?vid=5b8c776c-aec6-4857-b2d7-d46ed220deac","ios":"levelo://app?vid=5b8c776c-aec6-4857-b2d7-d46ed220deac"},"vehicle_type_id":"4","last_reported":1706720801,"current_range_meters":0,"station_id":"ce4bgth2rcd13ifvqch0","pricing_plan_id":"free"},{"bike_id":"a27440f6-5cb2-4f3a-9608-1e30ad6c7abc","system_id":"levelo_inurba_marseille","lat":43.295196,"lon":5.39397,"is_reserved":false,"is_disabled":false,"rental_uris":{"android":"levelo://app?vid=a27440f6-5cb2-4f3a-9608-1e30ad6c7abc","ios":"levelo://app?vid=a27440f6-5cb2-4f3a-9608-1e30ad6c7abc"},"vehicle_type_id":"4","last_reported":1706720801,"current_range_meters":25600,"station_id":"ce4bh292rcd13ifvqdf0","pricing_plan_id":"free"},{"bike_id":"bf18ba82-0ec0-4e1c-acff-3678de13ac35","system_id":"levelo_inurba_marseille","lat":43.302759,"lon":5.400793,"is_reserved":false,"is_disabled":false,"rental_uris":{"android":"levelo://app?vid=bf18ba82-0ec0-4e1c-acff-3678de13ac35","ios":"levelo://app?vid=bf18ba82-0ec0-4e1c-acff-3678de13ac35"},"vehicle_type_id":"4","last_reported":1706720801,"current_range_meters":8000,"station_id":"ce4bgvh2rcd13ifvqcs0","pricing_plan_id":"free"},{"bike_id":"38b8d158-a78c-4bc7-8f0e-d6af9c2131f2","system_id":"levelo_inurba_marseille","lat":43.302759,"lon":5.400793,"is_reserved":false,"is_disabled":false,"rental_uris":{"android":"levelo://app?vid=38b8d158-a78c-4bc7-8f0e-d6af9c2131f2","ios":"levelo://app?vid=38b8d158-a78c-4bc7-8f0e-d6af9c2131f2"},"vehicle_type_id":"4","last_reported":1706720801,"current_range_meters":800,"station_id":"ce4bgvh2rcd13ifvqcs0","pricing_plan_id":"free"},{"bike_id":"f1000da9-50af-4f20-bbed-f7e02c844e9e","system_id":"levelo_inurba_marseille","lat":43.302759,"lon":5.400793,"is_reserved":false,"is_disabled":false,"rental_uris":{"android":"levelo://app?vid=f1000da9-50af-4f20-bbed-f7e02c844e9e","ios":"levelo://app?vid=f1000da9-50af-4f20-bbed-f7e02c844e9e"},"vehicle_type_id":"4","last_reported":1706720801,"current_range_meters":400,"station_id":"ce4bgvh2rcd13ifvqcs0","pricing_plan_id":"free"},{"bike_id":"ce8afc52-24d4-46bd-b4e4-a6d0796bc52d","system_id":"levelo_inurba_marseille","lat":43.286039,"lon":5.370679,"is_reserved":false,"is_disabled":false,"rental_uris":{"android":"levelo://app?vid=ce8afc52-24d4-46bd-b4e4-a6d0796bc52d","ios":"levelo://app?vid=ce8afc52-24d4-46bd-b4e4-a6d0796bc52d"},"vehicle_type_id":"4","last_reported":1706720801,"current_range_meters":9200,"station_id":"ce4bht12rcd13ifvqi60","pricing_plan_id":"free"},{"bike_id":"3285b43b-c943-4df9-ac6d-5c94fdb9c40c","system_id":"levelo_inurba_marseille","lat":43.286039,"lon":5.370679,"is_reserved":false,"is_disabled":false,"rental_uris":{"android":"levelo://app?vid=3285b43b-c943-4df9-ac6d-5c94fdb9c40c","ios":"levelo://app?vid=3285b43b-c943-4df9-ac6d-5c94fdb9c40c"},"vehicle_type_id":"4","last_reported":1706720801,"current_range_meters":31200,"station_id":"ce4bht12rcd13ifvqi60","pricing_plan_id":"free"},{"bike_id":"7ca128cb-df0e-475d-b35b-92b6831f28f2","system_id":"levelo_inurba_marseille","lat":43.286039,"lon":5.370679,"is_reserved":false,"is_disabled":false,"rental_uris":{"android":"levelo://app?vid=7ca128cb-df0e-475d-b35b-92b6831f28f2","ios":"levelo://app?vid=7ca128cb-df0e-475d-b35b-92b6831f28f2"},"vehicle_type_id":"4","last_reported":1706720801,"current_range_meters":16400,"station_id":"ce4bht12rcd13ifvqi60","pricing_plan_id":"free"},{"bike_id":"d52a3fe3-270d-4b2a-9f14-9f265fe01f6d","system_id":"levelo_inurba_marseille","lat":43.287184,"lon":5.37937,"is_reserved":false,"is_disabled":false,"rental_uris":{"android":"levelo://app?vid=d52a3fe3-270d-4b2a-9f14-9f265fe01f6d","ios":"levelo://app?vid=d52a3fe3-270d-4b2a-9f14-9f265fe01f6d"},"vehicle_type_id":"4","last_reported":1706720801,"current_range_meters":16800,"station_id":"ce4bh9p2rcd13ifvqec0","pricing_plan_id":"free"},{"bike_id":"3bc144a0-2576-4411-9ae8-095540fe00aa","system_id":"levelo_inurba_marseille","lat":43.28718,"lon":5.379455,"is_reserved":false,"is_disabled":false,"rental_uris":{"android":"levelo://app?vid=3bc144a0-2576-4411-9ae8-095540fe00aa","ios":"levelo://app?vid=3bc144a0-2576-4411-9ae8-095540fe00aa"},"vehicle_type_id":"4","last_reported":1706720801,"current_range_meters":31200,"station_id":"ce4bh9p2rcd13ifvqec0","pricing_plan_id":"free"},{"bike_id":"ea42f0bb-fd97-4088-a841-3cd3dd5a1d94","system_id":"levelo_inurba_marseille","lat":43.287185,"lon":5.379373,"is_reserved":false,"is_disabled":false,"rental_uris":{"android":"levelo://app?vid=ea42f0bb-fd97-4088-a841-3cd3dd5a1d94","ios":"levelo://app?vid=ea42f0bb-fd97-4088-a841-3cd3dd5a1d94"},"vehicle_type_id":"4","last_reported":1706720801,"current_range_meters":27600,"station_id":"ce4bh9p2rcd13ifvqec0","pricing_plan_id":"free"},{"bike_id":"a309df38-660a-464c-a46f-48132bc83d81","system_id":"levelo_inurba_marseille","lat":43.287184,"lon":5.37937,"is_reserved":false,"is_disabled":false,"rental_uris":{"android":"levelo://app?vid=a309df38-660a-464c-a46f-48132bc83d81","ios":"levelo://app?vid=a309df38-660a-464c-a46f-48132bc83d81"},"vehicle_type_id":"4","last_reported":1706720801,"current_range_meters":4800,"station_id":"ce4bh9p2rcd13ifvqec0","pricing_plan_id":"free"},{"bike_id":"fa952bc2-1bc9-4777-83a6-f0913c7f67bc","system_id":"levelo_inurba_marseille","lat":43.287135,"lon":5.379465,"is_reserved":false,"is_disabled":false,"rental_uris":{"android":"levelo://app?vid=fa952bc2-1bc9-4777-83a6-f0913c7f67bc","ios":"levelo://app?vid=fa952bc2-1bc9-4777-83a6-f0913c7f67bc"},"vehicle_type_id":"4","last_reported":1706720801,"current_range_meters":31200,"station_id":"ce4bh9p2rcd13ifvqec0","pricing_plan_id":"free"},{"bike_id":"1db26e94-9fd4-4c7c-bc40-732903c52862","system_id":"levelo_inurba_marseille","lat":43.287077,"lon":5.37943,"is_reserved":false,"is_disabled":false,"rental_uris":{"android":"levelo://app?vid=1db26e94-9fd4-4c7c-bc40-732903c52862","ios":"levelo://app?vid=1db26e94-9fd4-4c7c-bc40-732903c52862"},"vehicle_type_id":"4","last_reported":1706720801,"current_range_meters":29200,"station_id":"ce4bh9p2rcd13ifvqec0","pricing_plan_id":"free"},{"bike_id":"f0276032-3218-42ac-8957-e2439d506661","system_id":"levelo_inurba_marseille","lat":43.316821,"lon":5.404737,"is_reserved":false,"is_disabled":false,"rental_uris":{"android":"levelo://app?vid=f0276032-3218-42ac-8957-e2439d506661","ios":"levelo://app?vid=f0276032-3218-42ac-8957-e2439d506661"},"vehicle_type_id":"4","last_reported":1706720801,"current_range_meters":0,"station_id":"ce4bh012rcd13ifvqd00","pricing_plan_id":"free"},{"bike_id":"dab90844-fd52-4b29-a651-9d7990c77576","system_id":"levelo_inurba_marseille","lat":43.291994,"lon":5.392907,"is_reserved":false,"is_disabled":false,"rental_uris":{"android":"levelo://app?vid=dab90844-fd52-4b29-a651-9d7990c77576","ios":"levelo://app?vid=dab90844-fd52-4b29-a651-9d7990c77576"},"vehicle_type_id":"4","last_reported":1706720801,"current_range_meters":17200,"station_id":"ce4bh192rcd13ifvqdd0","pricing_plan_id":"free"},{"bike_id":"0f8a78e9-2508-47d0-8562-8c4117580af6","system_id":"levelo_inurba_marseille","lat":43.291994,"lon":5.392907,"is_reserved":false,"is_disabled":false,"rental_uris":{"android":"levelo://app?vid=0f8a78e9-2508-47d0-8562-8c4117580af6","ios":"levelo://app?vid=0f8a78e9-2508-47d0-8562-8c4117580af6"},"vehicle_type_id":"4","last_reported":1706720801,"current_range_meters":14400,"station_id":"ce4bh192rcd13ifvqdd0","pricing_plan_id":"free"},{"bike_id":"9c03bb9a-b879-4844-bdce-2422b1c1352f","system_id":"levelo_inurba_marseille","lat":43.28538,"lon":5.37779,"is_reserved":false,"is_disabled":false,"rental_uris":{"android":"levelo://app?vid=9c03bb9a-b879-4844-bdce-2422b1c1352f","ios":"levelo://app?vid=9c03bb9a-b879-4844-bdce-2422b1c1352f"},"vehicle_type_id":"4","last_reported":1706720801,"current_range_meters":800,"station_id":"ce4bhjp2rcd13ifvqga0","pricing_plan_id":"free"},{"bike_id":"620160d6-fda2-4466-9778-913ab5080656","system_id":"levelo_inurba_marseille","lat":43.28468,"lon":5.35886,"is_reserved":false,"is_disabled":false,"rental_uris":{"android":"levelo://app?vid=620160d6-fda2-4466-9778-913ab5080656","ios":"levelo://app?vid=620160d6-fda2-4466-9778-913ab5080656"},"vehicle_type_id":"4","last_reported":1706720801,"current_range_meters":10000,"station_id":"ce4bhah2rcd13ifvqei0","pricing_plan_id":"free"},{"bike_id":"b93da919-f631-4897-bea1-eb2f764fad35","system_id":"levelo_inurba_marseille","lat":43.284534,"lon":5.358662,"is_reserved":false,"is_disabled":false,"rental_uris":{"android":"levelo://app?vid=b93da919-f631-4897-bea1-eb2f764fad35","ios":"levelo://app?vid=b93da919-f631-4897-bea1-eb2f764fad35"},"vehicle_type_id":"4","last_reported":1706720801,"current_range_meters":5200,"station_id":"ce4bhah2rcd13ifvqei0","pricing_plan_id":"free"},{"bike_id":"64d9d2f1-2eb7-4371-9ab8-a29ed80cbf5e","system_id":"levelo_inurba_marseille","lat":43.28464,"lon":5.35882,"is_reserved":false,"is_disabled":false,"rental_uris":{"android":"levelo://app?vid=64d9d2f1-2eb7-4371-9ab8-a29ed80cbf5e","ios":"levelo://app?vid=64d9d2f1-2eb7-4371-9ab8-a29ed80cbf5e"},"vehicle_type_id":"4","last_reported":1706720801,"current_range_meters":0,"station_id":"ce4bhah2rcd13ifvqei0","pricing_plan_id":"free"},{"bike_id":"ec5943f2-c4ac-41ec-a9df-362a20c9ee85","system_id":"levelo_inurba_marseille","lat":43.284616,"lon":5.358864,"is_reserved":false,"is_disabled":false,"rental_uris":{"android":"levelo://app?vid=ec5943f2-c4ac-41ec-a9df-362a20c9ee85","ios":"levelo://app?vid=ec5943f2-c4ac-41ec-a9df-362a20c9ee85"},"vehicle_type_id":"4","last_reported":1706720801,"current_range_meters":8800,"station_id":"ce4bhah2rcd13ifvqei0","pricing_plan_id":"free"},{"bike_id":"c5d11f7a-c22a-4169-a4c3-122aeac942fe","system_id":"levelo_inurba_marseille","lat":43.284534,"lon":5.358662,"is_reserved":false,"is_disabled":false,"rental_uris":{"android":"levelo://app?vid=c5d11f7a-c22a-4169-a4c3-122aeac942fe","ios":"levelo://app?vid=c5d11f7a-c22a-4169-a4c3-122aeac942fe"},"vehicle_type_id":"4","last_reported":1706720801,"current_range_meters":1600,"station_id":"ce4bhah2rcd13ifvqei0","pricing_plan_id":"free"},{"bike_id":"b2a597ef-beb9-4a6a-9501-e0ef8af0f72e","system_id":"levelo_inurba_marseille","lat":43.28455,"lon":5.35891,"is_reserved":false,"is_disabled":false,"rental_uris":{"android":"levelo://app?vid=b2a597ef-beb9-4a6a-9501-e0ef8af0f72e","ios":"levelo://app?vid=b2a597ef-beb9-4a6a-9501-e0ef8af0f72e"},"vehicle_type_id":"4","last_reported":1706720801,"current_range_meters":4400,"station_id":"ce4bhah2rcd13ifvqei0","pricing_plan_id":"free"},{"bike_id":"1273b7c9-c7d3-4dff-afa0-ce5b734d9c97","system_id":"levelo_inurba_marseille","lat":43.294314,"lon":5.397498,"is_reserved":false,"is_disabled":false,"rental_uris":{"android":"levelo://app?vid=1273b7c9-c7d3-4dff-afa0-ce5b734d9c97","ios":"levelo://app?vid=1273b7c9-c7d3-4dff-afa0-ce5b734d9c97"},"vehicle_type_id":"4","last_reported":1706720801,"current_range_meters":0,"station_id":"ce4bh3h2rcd13ifvqdo0","pricing_plan_id":"free"},{"bike_id":"ff48841d-199b-47ab-bdd1-b64e270eff69","system_id":"levelo_inurba_marseille","lat":43.294314,"lon":5.397498,"is_reserved":false,"is_disabled":false,"rental_uris":{"android":"levelo://app?vid=ff48841d-199b-47ab-bdd1-b64e270eff69","ios":"levelo://app?vid=ff48841d-199b-47ab-bdd1-b64e270eff69"},"vehicle_type_id":"4","last_reported":1706720801,"current_range_meters":23200,"station_id":"ce4bh3h2rcd13ifvqdo0","pricing_plan_id":"free"},{"bike_id":"5d0ffb7d-de3c-4ac1-84e2-4340d6722b50","system_id":"levelo_inurba_marseille","lat":43.284534,"lon":5.358662,"is_reserved":false,"is_disabled":false,"rental_uris":{"android":"levelo://app?vid=5d0ffb7d-de3c-4ac1-84e2-4340d6722b50","ios":"levelo://app?vid=5d0ffb7d-de3c-4ac1-84e2-4340d6722b50"},"vehicle_type_id":"4","last_reported":1706720801,"current_range_meters":8000,"station_id":"ce4bhah2rcd13ifvqei0","pricing_plan_id":"free"},{"bike_id":"6913903d-597e-4cbd-b29f-c6a779d05d88","system_id":"levelo_inurba_marseille","lat":43.284534,"lon":5.358662,"is_reserved":false,"is_disabled":false,"rental_uris":{"android":"levelo://app?vid=6913903d-597e-4cbd-b29f-c6a779d05d88","ios":"levelo://app?vid=6913903d-597e-4cbd-b29f-c6a779d05d88"},"vehicle_type_id":"4","last_reported":1706720801,"current_range_meters":6800,"station_id":"ce4bhah2rcd13ifvqei0","pricing_plan_id":"free"},{"bike_id":"bcbe4272-c4f1-4ce3-8903-0fe3fcbb61fc","system_id":"levelo_inurba_marseille","lat":43.28619,"lon":5.35104,"is_reserved":false,"is_disabled":false,"rental_uris":{"android":"levelo://app?vid=bcbe4272-c4f1-4ce3-8903-0fe3fcbb61fc","ios":"levelo://app?vid=bcbe4272-c4f1-4ce3-8903-0fe3fcbb61fc"},"vehicle_type_id":"4","last_reported":1706720801,"current_range_meters":15600,"station_id":"ce4bhch2rcd13ifvqeug","pricing_plan_id":"free"},{"bike_id":"c99bad25-04d6-418a-a2a2-c09f7a5cab15","system_id":"levelo_inurba_marseille","lat":43.28618,"lon":5.35106,"is_reserved":false,"is_disabled":false,"rental_uris":{"android":"levelo://app?vid=c99bad25-04d6-418a-a2a2-c09f7a5cab15","ios":"levelo://app?vid=c99bad25-04d6-418a-a2a2-c09f7a5cab15"},"vehicle_type_id":"4","last_reported":1706720801,"current_range_meters":24800,"station_id":"ce4bhch2rcd13ifvqeug","pricing_plan_id":"free"},{"bike_id":"39185aa2-dc3e-4ff2-a6ae-30d5971d8007","system_id":"levelo_inurba_marseille","lat":43.28615,"lon":5.35103,"is_reserved":false,"is_disabled":false,"rental_uris":{"android":"levelo://app?vid=39185aa2-dc3e-4ff2-a6ae-30d5971d8007","ios":"levelo://app?vid=39185aa2-dc3e-4ff2-a6ae-30d5971d8007"},"vehicle_type_id":"4","last_reported":1706720801,"current_range_meters":12000,"station_id":"ce4bhch2rcd13ifvqeug","pricing_plan_id":"free"},{"bike_id":"d2b33224-03b2-44ac-be7a-222083141c6a","system_id":"levelo_inurba_marseille","lat":43.295713,"lon":5.399639,"is_reserved":false,"is_disabled":false,"rental_uris":{"android":"levelo://app?vid=d2b33224-03b2-44ac-be7a-222083141c6a","ios":"levelo://app?vid=d2b33224-03b2-44ac-be7a-222083141c6a"},"vehicle_type_id":"4","last_reported":1706720801,"current_range_meters":9200,"station_id":"ce4bh312rcd13ifvqdj0","pricing_plan_id":"free"},{"bike_id":"42602a4c-bbf4-4d4d-b767-75b24f078135","system_id":"levelo_inurba_marseille","lat":43.295713,"lon":5.399639,"is_reserved":false,"is_disabled":false,"rental_uris":{"android":"levelo://app?vid=42602a4c-bbf4-4d4d-b767-75b24f078135","ios":"levelo://app?vid=42602a4c-bbf4-4d4d-b767-75b24f078135"},"vehicle_type_id":"4","last_reported":1706720801,"current_range_meters":23200,"station_id":"ce4bh312rcd13ifvqdj0","pricing_plan_id":"free"},{"bike_id":"8a580124-fceb-4db6-bb0f-c5563568f981","system_id":"levelo_inurba_marseille","lat":43.295713,"lon":5.399639,"is_reserved":false,"is_disabled":false,"rental_uris":{"android":"levelo://app?vid=8a580124-fceb-4db6-bb0f-c5563568f981","ios":"levelo://app?vid=8a580124-fceb-4db6-bb0f-c5563568f981"},"vehicle_type_id":"4","last_reported":1706720801,"current_range_meters":6000,"station_id":"ce4bh312rcd13ifvqdj0","pricing_plan_id":"free"},{"bike_id":"9ab09db8-9d2b-4719-a50d-c6aa624d3030","system_id":"levelo_inurba_marseille","lat":43.286595,"lon":5.386795,"is_reserved":false,"is_disabled":false,"rental_uris":{"android":"levelo://app?vid=9ab09db8-9d2b-4719-a50d-c6aa624d3030","ios":"levelo://app?vid=9ab09db8-9d2b-4719-a50d-c6aa624d3030"},"vehicle_type_id":"4","last_reported":1706720801,"current_range_meters":0,"station_id":"ce4bh492rcd13ifvqdug","pricing_plan_id":"free"},{"bike_id":"b972f002-263e-4e45-a21b-60901131c77e","system_id":"levelo_inurba_marseille","lat":43.33717,"lon":5.391857,"is_reserved":false,"is_disabled":false,"rental_uris":{"android":"levelo://app?vid=b972f002-263e-4e45-a21b-60901131c77e","ios":"levelo://app?vid=b972f002-263e-4e45-a21b-60901131c77e"},"vehicle_type_id":"4","last_reported":1706720801,"current_range_meters":14000,"station_id":"ce4bhr92rcd13ifvqhsg","pricing_plan_id":"free"},{"bike_id":"d020e9a9-6157-4fbf-8de4-015b5d5fb4b0","system_id":"levelo_inurba_marseille","lat":43.28481,"lon":5.38417,"is_reserved":false,"is_disabled":false,"rental_uris":{"android":"levelo://app?vid=d020e9a9-6157-4fbf-8de4-015b5d5fb4b0","ios":"levelo://app?vid=d020e9a9-6157-4fbf-8de4-015b5d5fb4b0"},"vehicle_type_id":"4","last_reported":1706720801,"current_range_meters":0,"station_id":"ce4bh512rcd13ifvqe3g","pricing_plan_id":"free"},{"bike_id":"e413aa88-382b-415c-9f93-d60bc4088cf3","system_id":"levelo_inurba_marseille","lat":43.297946,"lon":5.404063,"is_reserved":false,"is_disabled":false,"rental_uris":{"android":"levelo://app?vid=e413aa88-382b-415c-9f93-d60bc4088cf3","ios":"levelo://app?vid=e413aa88-382b-415c-9f93-d60bc4088cf3"},"vehicle_type_id":"4","last_reported":1706720801,"current_range_meters":14000,"station_id":"ce4bh112rcd13ifvqd90","pricing_plan_id":"free"},{"bike_id":"b23417fc-ab55-4520-a19b-edcebb935c50","system_id":"levelo_inurba_marseille","lat":43.288497,"lon":5.393089,"is_reserved":false,"is_disabled":false,"rental_uris":{"android":"levelo://app?vid=b23417fc-ab55-4520-a19b-edcebb935c50","ios":"levelo://app?vid=b23417fc-ab55-4520-a19b-edcebb935c50"},"vehicle_type_id":"4","last_reported":1706720801,"current_range_meters":8400,"station_id":"ce4bh2p2rcd13ifvqdi0","pricing_plan_id":"free"},{"bike_id":"72ede273-6d16-48a8-9e1d-18982747e49b","system_id":"levelo_inurba_marseille","lat":43.297946,"lon":5.404063,"is_reserved":false,"is_disabled":false,"rental_uris":{"android":"levelo://app?vid=72ede273-6d16-48a8-9e1d-18982747e49b","ios":"levelo://app?vid=72ede273-6d16-48a8-9e1d-18982747e49b"},"vehicle_type_id":"4","last_reported":1706720801,"current_range_meters":5600,"station_id":"ce4bh112rcd13ifvqd90","pricing_plan_id":"free"},{"bike_id":"8709fd81-860b-4cc8-a531-b278bfcc5b37","system_id":"levelo_inurba_marseille","lat":43.29795,"lon":5.404086,"is_reserved":false,"is_disabled":false,"rental_uris":{"android":"levelo://app?vid=8709fd81-860b-4cc8-a531-b278bfcc5b37","ios":"levelo://app?vid=8709fd81-860b-4cc8-a531-b278bfcc5b37"},"vehicle_type_id":"4","last_reported":1706720801,"current_range_meters":16000,"station_id":"ce4bh112rcd13ifvqd90","pricing_plan_id":"free"},{"bike_id":"50fca456-253f-490a-8fbb-33ff33e8ca05","system_id":"levelo_inurba_marseille","lat":43.288497,"lon":5.393089,"is_reserved":false,"is_disabled":false,"rental_uris":{"android":"levelo://app?vid=50fca456-253f-490a-8fbb-33ff33e8ca05","ios":"levelo://app?vid=50fca456-253f-490a-8fbb-33ff33e8ca05"},"vehicle_type_id":"4","last_reported":1706720801,"current_range_meters":4000,"station_id":"ce4bh2p2rcd13ifvqdi0","pricing_plan_id":"free"},