{"last_updated":1706166437,"ttl":30,"version":"2.2","data":{"bikes":[{"bike_id":"5c6ca3a0-aab1-4500-b991-5f6177c5b1cd","system_id":"levelo_inurba_marseille","lat":43.313391,"lon":5.36706,"is_reserved":false,"is_disabled":false,"rental_uris":{"android":"levelo://app?vid=5c6ca3a0-aab1-4500-b991-5f6177c5b1cd","ios":"levelo://app?vid=5c6ca3a0-aab1-4500-b991-5f6177c5b1cd"},"vehicle_type_id":"4","last_reported":1706166437,"current_range_meters":16000,"station_id":"ce4bgr92rcd13ifvqc6g","pricing_plan_id":"free"},{"bike_id":"9de966e0-2572-49de-85f8-660ad83bcc39","system_id":"levelo_inurba_marseille","lat":43.313391,"lon":5.36706,"is_reserved":false,"is_disabled":false,"rental_uris":{"android":"levelo://app?vid=9de966e0-2572-49de-85f8-660ad83bcc39","ios":"levelo://app?vid=9de966e0-2572-49de-85f8-660ad83bcc39"},"vehicle_type_id":"4","last_reported":1706166437,"current_range_meters":21600,"station_id":"ce4bgr92rcd13ifvqc6g","pricing_plan_id":"free"},{"bike_id":"81102d26-0e75-4f0d-855e-dca2893146d6","system_id":"levelo_inurba_marseille","lat":43.31344,"lon":5.36728,"is_reserved":false,"is_disabled":false,"rental_uris":{"android":"levelo://app?vid=81102d26-0e75-4f0d-855e-dca2893146d6","ios":"levelo://app?vid=81102d26-0e75-4f0d-855e-dca2893146d6"},"vehicle_type_id":"4","last_reported":1706166437,"current_range_meters":19600,"station_id":"ce4bgr92rcd13ifvqc6g","pricing_plan_id":"free"},{"bike_id":"5fd171ea-2bd1-416c-8ef4-3c56cc61d7cc","system_id":"levelo_inurba_marseille","lat":43.313391,"lon":5.36706,"is_reserved":false,"is_disabled":false,"rental_uris":{"android":"levelo://app?vid=5fd171ea-2bd1-416c-8ef4-3c56cc61d7cc","ios":"levelo://app?vid=5fd171ea-2bd1-416c-8ef4-3c56cc61d7cc"},"vehicle_type_id":"4","last_reported":1706166437,"current_range_meters":22000,"station_id":"ce4bgr92rcd13ifvqc6g","pricing_plan_id":"free"},{"bike_id":"7af57cb0-6b77-4ac9-aeba-dd8ead31b99c","system_id":"levelo_inurba_marseille","lat":43.313391,"lon":5.36706,"is_reserved":false,"is_disabled":false,"rental_uris":{"android":"levelo://app?vid=7af57cb0-6b77-4ac9-aeba-dd8ead31b99c","ios":"levelo://app?vid=7af57cb0-6b77-4ac9-aeba-dd8ead31b99c"},"vehicle_type_id":"4","last_reported":1706166437,"current_range_meters":31600,"station_id":"ce4bgr92rcd13ifvqc6g","pricing_plan_id":"free"},{"bike_id":"43eee53e-2a11-42ca-906b-4937079b09fd","system_id":"levelo_inurba_marseille","lat":43.313391,"lon":5.36706,"is_reserved":false,"is_disabled":false,"rental_uris":{"android":"levelo://app?vid=43eee53e-2a11-42ca-906b-4937079b09fd","ios":"levelo://app?vid=43eee53e-2a11-42ca-906b-4937079b09fd"},"vehicle_type_id":"4","last_reported":1706166437,"current_range_meters":24400,"station_id":"ce4bgr92rcd13ifvqc6g","pricing_plan_id":"free"},{"bike_id":"0d764fd9-42e4-425c-9842-186c6db242c8","system_id":"levelo_inurba_marseille","lat":43.313391,"lon":5.36706,"is_reserved":false,"is_disabled":false,"rental_uris":{"android":"levelo://app?vid=0d764fd9-42e4-425c-9842-186c6db242c8","ios":"levelo://app?vid=0d764fd9-42e4-425c-9842-186c6db242c8"},"vehicle_type_id":"4","last_reported":1706166437,"current_range_meters":21600,"station_id":"ce4bgr92rcd13ifvqc6g","pricing_plan_id":"free"},{"bike_id":"43eb64c3-a84e-4cf4-ad38-79959fb28c6a","system_id":"levelo_inurba_marseille","lat":43.31341,"lon":5.367098,"is_reserved":false,"is_disabled":false,"rental_uris":{"android":"levelo://app?vid=43eb64c3-a84e-4cf4-ad38-79959fb28c6a","ios":"levelo://app?vid=43eb64c3-a84e-4cf4-ad38-79959fb28c6a"},"vehicle_type_id":"4","last_reported":1706166437,"current_range_meters":21200,"station_id":"ce4bgr92rcd13ifvqc6g","pricing_plan_id":"free"},{"bike_id":"5067d59a-c661-4539-98a5-69203d5514bd","system_id":"levelo_inurba_marseille","lat":43.31219,"lon":5.36836,"is_reserved":false,"is_disabled":false,"rental_uris":{"android":"levelo://app?vid=5067d59a-c661-4539-98a5-69203d5514bd","ios":"levelo://app?vid=5067d59a-c661-4539-98a5-69203d5514bd"},"vehicle_type_id":"4","last_reported":1706166437,"current_range_meters":31200,"station_id":"ce4bgl92rcd13ifvqbq0","pricing_plan_id":"free"},{"bike_id":"e348f819-388e-485b-a113-a8e7b282a5ec","system_id":"levelo_inurba_marseille","lat":43.31341,"lon":5.367098,"is_reserved":false,"is_disabled":false,"rental_uris":{"android":"levelo://app?vid=e348f819-388e-485b-a113-a8e7b282a5ec","ios":"levelo://app?vid=e348f819-388e-485b-a113-a8e7b282a5ec"},"vehicle_type_id":"4","last_reported":1706166437,"current_range_meters":13600,"station_id":"ce4bgr92rcd13ifvqc6g","pricing_plan_id":"free"},{"bike_id":"e9879ec2-b42a-4d47-b600-b63f49e5cd94","system_id":"levelo_inurba_marseille","lat":43.309076,"lon":5.368465,"is_reserved":false,"is_disabled":false,"rental_uris":{"android":"levelo://app?vid=e9879ec2-b42a-4d47-b600-b63f49e5cd94","ios":"levelo://app?vid=e9879ec2-b42a-4d47-b600-b63f49e5cd94"},"vehicle_type_id":"4","last_reported":1706166437,"current_range_meters":26800,"station_id":"ce4bgn92rcd13ifvqbvg","pricing_plan_id":"free"},{"bike_id":"e8339b85-d7fb-41f4-857b-f77d67c52877","system_id":"levelo_inurba_marseille","lat":43.309076,"lon":5.368465,"is_reserved":false,"is_disabled":false,"rental_uris":{"android":"levelo://app?vid=e8339b85-d7fb-41f4-857b-f77d67c52877","ios":"levelo://app?vid=e8339b85-d7fb-41f4-857b-f77d67c52877"},"vehicle_type_id":"4","last_reported":1706166437,"current_range_meters":0,"station_id":"ce4bgn92rcd13ifvqbvg","pricing_plan_id":"free"},{"bike_id":"30f056b5-aadc-4263-a793-516695540364","system_id":"levelo_inurba_marseille","lat":43.309076,"lon":5.368465,"is_reserved":false,"is_disabled":false,"rental_uris":{"android":"levelo://app?vid=30f056b5-aadc-4263-a793-516695540364","ios":"levelo://app?vid=30f056b5-aadc-4263-a793-516695540364"},"vehicle_type_id":"4","last_reported":1706166437,"current_range_meters":6800,"station_id":"ce4bgn92rcd13ifvqbvg","pricing_plan_id":"free"},{"bike_id":"b930f819-e4e5-4050-9989-3a6017313cf8","system_id":"levelo_inurba_marseille","lat":43.314811,"lon":5.373103,"is_reserved":false,"is_disabled":false,"rental_uris":{"android":"levelo://app?vid=b930f819-e4e5-4050-9989-3a6017313cf8","ios":"levelo://app?vid=b930f819-e4e5-4050-9989-3a6017313cf8"},"vehicle_type_id":"4","last_reported":1706166437,"current_range_meters":2000,"station_id":"ce4bgt12rcd13ifvqcd0","pricing_plan_id":"free"},{"bike_id":"a1702d80-82dd-4ac2-be51-8f82fdd950f0","system_id":"levelo_inurba_marseille","lat":43.314824,"lon":5.373097,"is_reserved":false,"is_disabled":false,"rental_uris":{"android":"levelo://app?vid=a1702d80-82dd-4ac2-be51-8f82fdd950f0","ios":"levelo://app?vid=a1702d80-82dd-4ac2-be51-8f82fdd950f0"},"vehicle_type_id":"4","last_reported":1706166437,"current_range_meters":5600,"station_id":"ce4bgt12rcd13ifvqcd0","pricing_plan_id":"free"},{"bike_id":"1afcbf86-7dba-4184-9eda-4afc72cc258e","system_id":"levelo_inurba_marseille","lat":43.31486,"lon":5.3731,"is_reserved":false,"is_disabled":false,"rental_uris":{"android":"levelo://app?vid=1afcbf86-7dba-4184-9eda-4afc72cc258e","ios":"levelo://app?vid=1afcbf86-7dba-4184-9eda-4afc72cc258e"},"vehicle_type_id":"4","last_reported":1706166437,"current_range_meters":28800,"station_id":"ce4bgt12rcd13ifvqcd0","pricing_plan_id":"free"},{"bike_id":"027cd732-2a86-4fae-a360-85dc74192eda","system_id":"levelo_inurba_marseille","lat":43.314811,"lon":5.373104,"is_reserved":false,"is_disabled":false,"rental_uris":{"android":"levelo://app?vid=027cd732-2a86-4fae-a360-85dc74192eda","ios":"levelo://app?vid=027cd732-2a86-4fae-a360-85dc74192eda"},"vehicle_type_id":"4","last_reported":1706166437,"current_range_meters":5200,"station_id":"ce4bgt12rcd13ifvqcd0","pricing_plan_id":"free"},{"bike_id":"970cfe61-aa77-44ef-a4ea-abfe2a58151b","system_id":"levelo_inurba_marseille","lat":43.309039,"lon":5.371797,"is_reserved":false,"is_disabled":false,"rental_uris":{"android":"levelo://app?vid=970cfe61-aa77-44ef-a4ea-abfe2a58151b","ios":"levelo://app?vid=970cfe61-aa77-44ef-a4ea-abfe2a58151b"},"vehicle_type_id":"4","last_reported":1706166437,"current_range_meters":24000,"station_id":"ce4bguh2rcd13ifvqckg","pricing_plan_id":"free"},{"bike_id":"55d315f8-9df7-4bf2-9bf9-c756af23f1ba","system_id":"levelo_inurba_marseille","lat":43.305368,"lon":5.367343,"is_reserved":false,"is_disabled":false,"rental_uris":{"android":"levelo://app?vid=55d315f8-9df7-4bf2-9bf9-c756af23f1ba","ios":"levelo://app?vid=55d315f8-9df7-4bf2-9bf9-c756af23f1ba"},"vehicle_type_id":"4","last_reported":1706166437,"current_range_meters":23600,"station_id":"ce4bgrp2rcd13ifvqc9g","pricing_plan_id":"free"},{"bike_id":"858c6c00-e4f9-402c-903f-5493a75219cf","system_id":"levelo_inurba_marseille","lat":43.305368,"lon":5.367343,"is_reserved":false,"is_disabled":false,"rental_uris":{"android":"levelo://app?vid=858c6c00-e4f9-402c-903f-5493a75219cf","ios":"levelo://app?vid=858c6c00-e4f9-402c-903f-5493a75219cf"},"vehicle_type_id":"4","last_reported":1706166437,"current_range_meters":10400,"station_id":"ce4bgrp2rcd13ifvqc9g","pricing_plan_id":"free"},{"bike_id":"ae2b7ed9-b415-4eaa-a625-c88e3011d220","system_id":"levelo_inurba_marseille","lat":43.305714,"lon":5.365633,"is_reserved":false,"is_disabled":false,"rental_uris":{"android":"levelo://app?vid=ae2b7ed9-b415-4eaa-a625-c88e3011d220","ios":"levelo://app?vid=ae2b7ed9-b415-4eaa-a625-c88e3011d220"},"vehicle_type_id":"4","last_reported":1706166437,"current_range_meters":8000,"station_id":"ce4bgs12rcd13ifvqcag","pricing_plan_id":"free"},{"bike_id":"eb340d28-5bc7-4b58-84ae-125c74b58d25","system_id":"levelo_inurba_marseille","lat":43.305706,"lon":5.365654,"is_reserved":false,"is_disabled":false,"rental_uris":{"android":"levelo://app?vid=eb340d28-5bc7-4b58-84ae-125c74b58d25","ios":"levelo://app?vid=eb340d28-5bc7-4b58-84ae-125c74b58d25"},"vehicle_type_id":"4","last_reported":1706166437,"current_range_meters":12400,"station_id":"ce4bgs12rcd13ifvqcag","pricing_plan_id":"free"},{"bike_id":"75435a74-ff8b-49e6-a4ad-e2aa57631724","system_id":"levelo_inurba_marseille","lat":43.30541,"lon":5.36561,"is_reserved":false,"is_disabled":false,"rental_uris":{"android":"levelo://app?vid=75435a74-ff8b-49e6-a4ad-e2aa57631724","ios":"levelo://app?vid=75435a74-ff8b-49e6-a4ad-e2aa57631724"},"vehicle_type_id":"4","last_reported":1706166437,"current_range_meters":24800,"station_id":"ce4bgs12rcd13ifvqcag","pricing_plan_id":"free"},{"bike_id":"9443e511-2e2d-41e7-a2cd-4c95bf03992f","system_id":"levelo_inurba_marseille","lat":43.31384,"lon":5.37698,"is_reserved":false,"is_disabled":false,"rental_uris":{"android":"levelo://app?vid=9443e511-2e2d-41e7-a2cd-4c95bf03992f","ios":"levelo://app?vid=9443e511-2e2d-41e7-a2cd-4c95bf03992f"},"vehicle_type_id":"4","last_reported":1706166437,"current_range_meters":21600,"station_id":"","pricing_plan_id":"free"},{"bike_id":"fe1a621a-2a1c-47b8-93fd-7129e5fa31a2","system_id":"levelo_inurba_marseille","lat":43.305402,"lon":5.365513,"is_reserved":false,"is_disabled":false,"rental_uris":{"android":"levelo://app?vid=fe1a621a-2a1c-47b8-93fd-7129e5fa31a2","ios":"levelo://app?vid=fe1a621a-2a1c-47b8-93fd-7129e5fa31a2"},"vehicle_type_id":"4","last_reported":1706166437,"current_range_meters":24000,"station_id":"ce4bgs12rcd13ifvqcag","pricing_plan_id":"free"},{"bike_id":"7f046c39-de76-4b0b-bda6-d110b647e81a","system_id":"levelo_inurba_marseille","lat":43.30539,"lon":5.36551,"is_reserved":false,"is_disabled":false,"rental_uris":{"android":"levelo://app?vid=7f046c39-de76-4b0b-bda6-d110b647e81a","ios":"levelo://app?vid=7f046c39-de76-4b0b-bda6-d110b647e81a"},"vehicle_type_id":"4","last_reported":1706166437,"current_range_meters":26400,"station_id":"ce4bgs12rcd13ifvqcag","pricing_plan_id":"free"},{"bike_id":"4f5b8b80-1189-422f-9644-7453068dc1c5","system_id":"levelo_inurba_marseille","lat":43.30537,"lon":5.36559,"is_reserved":false,"is_disabled":false,"rental_uris":{"android":"levelo://app?vid=4f5b8b80-1189-422f-9644-7453068dc1c5","ios":"levelo://app?vid=4f5b8b80-1189-422f-9644-7453068dc1c5"},"vehicle_type_id":"4","last_reported":1706166437,"current_range_meters":9200,"station_id":"ce4bgs12rcd13ifvqcag","pricing_plan_id":"free"},{"bike_id":"5cce5202-ed52-45fe-9a4d-defa6b202901","system_id":"levelo_inurba_marseille","lat":43.305714,"lon":5.365633,"is_reserved":false,"is_disabled":false,"rental_uris":{"android":"levelo://app?vid=5cce5202-ed52-45fe-9a4d-defa6b202901","ios":"levelo://app?vid=5cce5202-ed52-45fe-9a4d-defa6b202901"},"vehicle_type_id":"4","last_reported":1706166437,"current_range_meters":6800,"station_id":"ce4bgs12rcd13ifvqcag","pricing_plan_id":"free"},{"bike_id":"991758bb-997e-4183-93eb-03cbe59f75de","system_id":"levelo_inurba_marseille","lat":43.305706,"lon":5.365654,"is_reserved":false,"is_disabled":false,"rental_uris":{"android":"levelo://app?vid=991758bb-997e-4183-93eb-03cbe59f75de","ios":"levelo://app?vid=991758bb-997e-4183-93eb-03cbe59f75de"},"vehicle_type_id":"4","last_reported":1706166437,"current_range_meters":31200,"station_id":"ce4bgs12rcd13ifvqcag","pricing_plan_id":"free"},{"bike_id":"27d306e8-42dc-42df-b0a0-4fa707a32413","system_id":"levelo_inurba_marseille","lat":43.317075,"lon":5.377367,"is_reserved":false,"is_disabled":false,"rental_uris":{"android":"levelo://app?vid=27d306e8-42dc-42df-b0a0-4fa707a32413","ios":"levelo://app?vid=27d306e8-42dc-42df-b0a0-4fa707a32413"},"vehicle_type_id":"4","last_reported":1706166437,"current_range_meters":30000,"station_id":"ce4bgth2rcd13ifvqch0","pricing_plan_id":"free"},{"bike_id":"e90d3370-0d35-4620-8112-0a34f0845ff5","system_id":"levelo_inurba_marseille","lat":43.303046,"lon":5.368981,"is_reserved":false,"is_disabled":false,"rental_uris":{"android":"levelo://app?vid=e90d3370-0d35-4620-8112-0a34f0845ff5","ios":"levelo://app?vid=e90d3370-0d35-4620-8112-0a34f0845ff5"},"vehicle_type_id":"4","last_reported":1706166437,"current_range_meters":20000,"station_id":"ce4bgqh2rcd13ifvqc5g","pricing_plan_id":"free"},{"bike_id":"53d1d0ce-e6ed-4e44-bf21-c1e325c83a7b","system_id":"levelo_inurba_marseille","lat":43.31537,"lon":5.38024,"is_reserved":false,"is_disabled":false,"rental_uris":{"android":"levelo://app?vid=53d1d0ce-e6ed-4e44-bf21-c1e325c83a7b","ios":"levelo://app?vid=53d1d0ce-e6ed-4e44-bf21-c1e325c83a7b"},"vehicle_type_id":"4","last_reported":1706166437,"current_range_meters":7200,"station_id":"ce4bhsp2rcd13ifvqi50","pricing_plan_id":"free"},{"bike_id":"ba735871-1cd4-481b-882b-778e84d948df","system_id":"levelo_inurba_marseille","lat":43.308012,"lon":5.381511,"is_reserved":false,"is_disabled":false,"rental_uris":{"android":"levelo://app?vid=ba735871-1cd4-481b-882b-778e84d948df","ios":"levelo://app?vid=ba735871-1cd4-481b-882b-778e84d948df"},"vehicle_type_id":"4","last_reported":1706166437,"current_range_meters":30000,"station_id":"ce4bgt12rcd13ifvqce0","pricing_plan_id":"free"},{"bike_id":"e87578e3-026b-4f4a-86a4-9a4155079f56","system_id":"levelo_inurba_marseille","lat":43.308012,"lon":5.381511,"is_reserved":false,"is_disabled":false,"rental_uris":{"android":"levelo://app?vid=e87578e3-026b-4f4a-86a4-9a4155079f56","ios":"levelo://app?vid=e87578e3-026b-4f4a-86a4-9a4155079f56"},"vehicle_type_id":"4","last_reported":1706166437,"current_range_meters":21600,"station_id":"ce4bgt12rcd13ifvqce0","pricing_plan_id":"free"},{"bike_id":"d744969b-2853-4793-ae29-2a50269114bb","system_id":"levelo_inurba_marseille","lat":43.304606,"lon":5.379026,"is_reserved":false,"is_disabled":false,"rental_uris":{"android":"levelo://app?vid=d744969b-2853-4793-ae29-2a50269114bb","ios":"levelo://app?vid=d744969b-2853-4793-ae29-2a50269114bb"},"vehicle_type_id":"4","last_reported":1706166437,"current_range_meters":25600,"station_id":"ce4bgup2rcd13ifvqcn0","pricing_plan_id":"free"},{"bike_id":"df647848-9357-4832-94c2-88d2ef77b89d","system_id":"levelo_inurba_marseille","lat":43.304606,"lon":5.379026,"is_reserved":false,"is_disabled":false,"rental_uris":{"android":"levelo://app?vid=df647848-9357-4832-94c2-88d2ef77b89d","ios":"levelo://app?vid=df647848-9357-4832-94c2-88d2ef77b89d"},"vehicle_type_id":"4","last_reported":1706166437,"current_range_meters":7600,"station_id":"ce4bgup2rcd13ifvqcn0","pricing_plan_id":"free"},{"bike_id":"f9b5833f-54e5-4d3e-9894-e2322a6fff39","system_id":"levelo_inurba_marseille","lat":43.304606,"lon":5.379026,"is_reserved":false,"is_disabled":false,"rental_uris":{"android":"levelo://app?vid=f9b5833f-54e5-4d3e-9894-e2322a6fff39","ios":"levelo://app?vid=f9b5833f-54e5-4d3e-9894-e2322a6fff39"},"vehicle_type_id":"4","last_reported":1706166437,"current_range_meters":22000,"station_id":"ce4bgup2rcd13ifvqcn0","pricing_plan_id":"free"},{"bike_id":"aee6ae7b-80be-458a-ab70-59a866735ddf","system_id":"levelo_inurba_marseille","lat":43.304606,"lon":5.379026,"is_reserved":false,"is_disabled":false,"rental_uris":{"android":"levelo://app?vid=aee6ae7b-80be-458a-ab70-59a866735ddf","ios":"levelo://app?vid=aee6ae7b-80be-458a-ab70-59a866735ddf"},"vehicle_type_id":"4","last_reported":1706166437,"current_range_meters":10000,"station_id":"ce4bgup2rcd13ifvqcn0","pricing_plan_id":"free"},{"bike_id":"c94808d2-af37-4014-a71d-0a664fabc235","system_id":"levelo_inurba_marseille","lat":43.304606,"lon":5.379026,"is_reserved":false,"is_disabled":false,"rental_uris":{"android":"levelo://app?vid=c94808d2-af37-4014-a71d-0a664fabc235","ios":"levelo://app?vid=c94808d2-af37-4014-a71d-0a664fabc235"},"vehicle_type_id":"4","last_reported":1706166437,"current_range_meters":19200,"station_id":"ce4bgup2rcd13ifvqcn0","pricing_plan_id":"free"},{"bike_id":"f210023f-4e44-41b7-aa33-b3aef02c1929","system_id":"levelo_inurba_marseille","lat":43.304606,"lon":5.379026,"is_reserved":false,"is_disabled":false,"rental_uris":{"android":"levelo://app?vid=f210023f-4e44-41b7-aa33-b3aef02c1929","ios":"levelo://app?vid=f210023f-4e44-41b7-aa33-b3aef02c1929"},"vehicle_type_id":"4","last_reported":1706166437,"current_range_meters":8000,"station_id":"ce4bgup2rcd13ifvqcn0","pricing_plan_id":"free"},{"bike_id":"7b697e2d-1415-4011-a5d6-757c7bff9721","system_id":"levelo_inurba_marseille","lat":43.304606,"lon":5.379026,"is_reserved":false,"is_disabled":false,"rental_uris":{"android":"levelo://app?vid=7b697e2d-1415-4011-a5d6-757c7bff9721","ios":"levelo://app?vid=7b697e2d-1415-4011-a5d6-757c7bff9721"},"vehicle_type_id":"4","last_reported":1706166437,"current_range_meters":0,"station_id":"ce4bgup2rcd13ifvqcn0","pricing_plan_id":"free"},{"bike_id":"de5a77cd-e474-4f8d-bc13-ef859d658459","system_id":"levelo_inurba_marseille","lat":43.304606,"lon":5.379026,"is_reserved":false,"is_disabled":false,"rental_uris":{"android":"levelo://app?vid=de5a77cd-e474-4f8d-bc13-ef859d658459","ios":"levelo://app?vid=de5a77cd-e474-4f8d-bc13-ef859d658459"},"vehicle_type_id":"4","last_reported":1706166437,"current_range_meters":24000,"station_id":"ce4bgup2rcd13ifvqcn0","pricing_plan_id":"free"},{"bike_id":"0658786e-049c-4ad9-8028-e50d8e03e3c4","system_id":"levelo_inurba_marseille","lat":43.304606,"lon":5.379026,"is_reserved":false,"is_disabled":false,"rental_uris":{"android":"levelo://app?vid=0658786e-049c-4ad9-8028-e50d8e03e3c4","ios":"levelo://app?vid=0658786e-049c-4ad9-8028-e50d8e03e3c4"},"vehicle_type_id":"4","last_reported":1706166437,"current_range_meters":31200,"station_id":"ce4bgup2rcd13ifvqcn0","pricing_plan_id":"free"},{"bike_id":"fba03f22-649b-4be7-ab95-4480d3533e02","system_id":"levelo_inurba_marseille","lat":43.304606,"lon":5.379026,"is_reserved":false,"is_disabled":false,"rental_uris":{"android":"levelo://app?vid=fba03f22-649b-4be7-ab95-4480d3533e02","ios":"levelo://app?vid=fba03f22-649b-4be7-ab95-4480d3533e02"},"vehicle_type_id":"4","last_reported":1706166437,"current_range_meters":22400,"station_id":"ce4bgup2rcd13ifvqcn0","pricing_plan_id":"free"},{"bike_id":"b36ef803-73eb-4eca-a89a-5c71741a76e2","system_id":"levelo_inurba_marseille","lat":43.304606,"lon":5.379026,"is_reserved":false,"is_disabled":false,"rental_uris":{"android":"levelo://app?vid=b36ef803-73eb-4eca-a89a-5c71741a76e2","ios":"levelo://app?vid=b36ef803-73eb-4eca-a89a-5c71741a76e2"},"vehicle_type_id":"4","last_reported":1706166437,"current_range_meters":28800,"station_id":"ce4bgup2rcd13ifvqcn0","pricing_plan_id":"free"},{"bike_id":"8bee4518-2cd5-4246-91f1-5faf431f1cdb","system_id":"levelo_inurba_marseille","lat":43.304606,"lon":5.379026,"is_reserved":false,"is_disabled":false,"rental_uris":{"android":"levelo://app?vid=8bee4518-2cd5-4246-91f1-5faf431f1cdb","ios":"levelo://app?vid=8bee4518-2cd5-4246-91f1-5faf431f1cdb"},"vehicle_type_id":"4","last_reported":1706166437,"current_range_meters":29200,"station_id":"ce4bgup2rcd13ifvqcn0","pricing_plan_id":"free"},{"bike_id":"254a6a91-e635-468f-89dc-0dc51d499c3d","system_id":"levelo_inurba_marseille","lat":43.304606,"lon":5.379026,"is_reserved":false,"is_disabled":false,"rental_uris":{"android":"levelo://app?vid=254a6a91-e635-468f-89dc-0dc51d499c3d","ios":"levelo://app?vid=254a6a91-e635-468f-89dc-0dc51d499c3d"},"vehicle_type_id":"4","last_reported":1706166437,"current_range_meters":15600,"station_id":"ce4bgup2rcd13ifvqcn0","pricing_plan_id":"free"},{"bike_id":"b691a123-fa15-491d-a380-e63f1790faa0","system_id":"levelo_inurba_marseille","lat":43.304606,"lon":5.379026,"is_reserved":false,"is_disabled":false,"rental_uris":{"android":"levelo://app?vid=b691a123-fa15-491d-a380-e63f1790faa0","ios":"levelo://app?vid=b691a123-fa15-491d-a380-e63f1790faa0"},"vehicle_type_id":"4","last_reported":1706166437,"current_range_meters":30800,"station_id":"ce4bgup2rcd13ifvqcn0","pricing_plan_id":"free"},{"bike_id":"9d69dc27-7551-4ec2-8d16-d4d19bf59aa6","system_id":"levelo_inurba_marseille","lat":43.304606,"lon":5.379026,"is_reserved":false,"is_disabled":false,"rental_uris":{"android":"levelo://app?vid=9d69dc27-7551-4ec2-8d16-d4d19bf59aa6","ios":"levelo://app?vid=9d69dc27-7551-4ec2-8d16-d4d19bf59aa6"},"vehicle_type_id":"4","last_reported":1706166437,"current_range_meters":18800,"station_id":"ce4bgup2rcd13ifvqcn0","pricing_plan_id":"free"},{"bike_id":"bdc07c17-9c78-497d-b644-9b67a38c8b08","system_id":"levelo_inurba_marseille","lat":43.304606,"lon":5.379026,"is_reserved":false,"is_disabled":false,"rental_uris":{"android":"levelo://app?vid=bdc07c17-9c78-497d-b644-9b67a38c8b08","ios":"levelo://app?vid=bdc07c17-9c78-497d-b644-9b67a38c8b08"},"vehicle_type_id":"4","last_reported":1706166437,"current_range_meters":24400,"station_id":"ce4bgup2rcd13ifvqcn0","pricing_plan_id":"free"},{"bike_id":"ef2bce33-174b-4ff7-91f2-8ba2ac8f3806","system_id":"levelo_inurba_marseille","lat":43.304606,"lon":5.379026,"is_reserved":false,"is_disabled":false,"rental_uris":{"android":"levelo://app?vid=ef2bce33-174b-4ff7-91f2-8ba2ac8f3806","ios":"levelo://app?vid=ef2bce33-174b-4ff7-91f2-8ba2ac8f3806"},"vehicle_type_id":"4","last_reported":1706166437,"current_range_meters":22000,"station_id":"ce4bgup2rcd13ifvqcn0","pricing_plan_id":"free"},{"bike_id":"99d33298-3967-4c4f-b22f-5d7ca0208ae1","system_id":"levelo_inurba_marseille","lat":43.304606,"lon":5.379026,"is_reserved":false,"is_disabled":false,"rental_uris":{"android":"levelo://app?vid=99d33298-3967-4c4f-b22f-5d7ca0208ae1","ios":"levelo://app?vid=99d33298-3967-4c4f-b22f-5d7ca0208ae1"},"vehicle_type_id":"4","last_reported":1706166437,"current_range_meters":20800,"station_id":"ce4bgup2rcd13ifvqcn0","pricing_plan_id":"free"},{"bike_id":"4ddfc312-07cf-43d0-9f67-36930d6b298d","system_id":"levelo_inurba_marseille","lat":43.304606,"lon":5.379026,"is_reserved":false,"is_disabled":false,"rental_uris":{"android":"levelo://app?vid=4ddfc312-07cf-43d0-9f67-36930d6b298d","ios":"levelo://app?vid=4ddfc312-07cf-43d0-9f67-36930d6b298d"},"vehicle_type_id":"4","last_reported":1706166437,"current_range_meters":25200,"station_id":"ce4bgup2rcd13ifvqcn0","pricing_plan_id":"free"},{"bike_id":"f67d94e1-d3c2-4458-818a-584b169fed96","system_id":"levelo_inurba_marseille","lat":43.304606,"lon":5.379026,"is_reserved":false,"is_disabled":false,"rental_uris":{"android":"levelo://app?vid=f67d94e1-d3c2-4458-818a-584b169fed96","ios":"levelo://app?vid=f67d94e1-d3c2-4458-818a-584b169fed96"},"vehicle_type_id":"4","last_reported":1706166437,"current_range_meters":25200,"station_id":"ce4bgup2rcd13ifvqcn0","pricing_plan_id":"free"},{"bike_id":"a9ae9fad-4561-4276-945d-7656a4bc012b","system_id":"levelo_inurba_marseille","lat":43.304606,"lon":5.379026,"is_reserved":false,"is_disabled":false,"rental_uris":{"android":"levelo://app?vid=a9ae9fad-4561-4276-945d-7656a4bc012b","ios":"levelo://app?vid=a9ae9fad-4561-4276-945d-7656a4bc012b"},"vehicle_type_id":"4","last_reported":1706166437,"current_range_meters":24400,"station_id":"ce4bgup2rcd13ifvqcn0","pricing_plan_id":"free"},{"bike_id":"8ae67b9c-887c-4e57-86c8-0130f250ce7f","system_id":"levelo_inurba_marseille","lat":43.304606,"lon":5.379026,"is_reserved":false,"is_disabled":false,"rental_uris":{"android":"levelo://app?vid=8ae67b9c-887c-4e57-86c8-0130f250ce7f","ios":"levelo://app?vid=8ae67b9c-887c-4e57-86c8-0130f250ce7f"},"vehicle_type_id":"4","last_reported":1706166437,"current_range_meters":20800,"station_id":"ce4bgup2rcd13ifvqcn0","pricing_plan_id":"free"},{"bike_id":"df267f90-38c9-41c4-8cd1-9755f36928ed","system_id":"levelo_inurba_marseille","lat":43.324771,"lon":5.36557,"is_reserved":false,"is_disabled":false,"rental_uris":{"android":"levelo://app?vid=df267f90-38c9-41c4-8cd1-9755f36928ed","ios":"levelo://app?vid=df267f90-38c9-41c4-8cd1-9755f36928ed"},"vehicle_type_id":"4","last_reported":1706166437,"current_range_meters":7200,"station_id":"ce4bhs12rcd13ifvqhvg","pricing_plan_id":"free"},{"bike_id":"cfe0012e-2583-46f9-a2df-2d5e87cd0a47","system_id":"levelo_inurba_marseille","lat":43.324771,"lon":5.36557,"is_reserved":false,"is_disabled":false,"rental_uris":{"android":"levelo://app?vid=cfe0012e-2583-46f9-a2df-2d5e87cd0a47","ios":"levelo://app?vid=cfe0012e-2583-46f9-a2df-2d5e87cd0a47"},"vehicle_type_id":"4","last_reported":1706166437,"current_range_meters":19200,"station_id":"ce4bhs12rcd13ifvqhvg","pricing_plan_id":"free"},{"bike_id":"c302ec42-fa3f-4c4b-b7ac-06228926cff4","system_id":"levelo_inurba_marseille","lat":43.289184,"lon":5.366408,"is_reserved":false,"is_disabled":false,"rental_uris":{"android":"levelo://app?vid=c302ec42-fa3f-4c4b-b7ac-06228926cff4","ios":"levelo://app?vid=c302ec42-fa3f-4c4b-b7ac-06228926cff4"},"vehicle_type_id":"4","last_reported":1706166437,"current_range_meters":20000,"station_id":"ce4bhap2rcd13ifvqek0","pricing_plan_id":"free"},{"bike_id":"57eefe8f-647d-474f-9a10-16a8bef9c36d","system_id":"levelo_inurba_marseille","lat":43.301431,"lon":5.374151,"is_reserved":false,"is_disabled":false,"rental_uris":{"android":"levelo://app?vid=57eefe8f-647d-474f-9a10-16a8bef9c36d","ios":"levelo://app?vid=57eefe8f-647d-474f-9a10-16a8bef9c36d"},"vehicle_type_id":"4","last_reported":1706166437,"current_range_meters":27600,"station_id":"ce4bgs92rcd13ifvqcc0","pricing_plan_id":"free"},{"bike_id":"421db049-4a70-4451-993d-923c41811ec5","system_id":"levelo_inurba_marseille","lat":43.304606,"lon":5.379026,"is_reserved":false,"is_disabled":false,"rental_uris":{"android":"levelo://app?vid=421db049-4a70-4451-993d-923c41811ec5","ios":"levelo://app?vid=421db049-4a70-4451-993d-923c41811ec5"},"vehicle_type_id":"4","last_reported":1706166437,"current_range_meters":10000,"station_id":"ce4bgup2rcd13ifvqcn0","pricing_plan_id":"free"},{"bike_id":"3be2a452-c708-43d8-bedc-0c78e000164d","system_id":"levelo_inurba_marseille","lat":43.302784,"lon":5.377158,"is_reserved":false,"is_disabled":false,"rental_uris":{"android":"levelo://app?vid=3be2a452-c708-43d8-bedc-0c78e000164d","ios":"levelo://app?vid=3be2a452-c708-43d8-bedc-0c78e000164d"},"vehicle_type_id":"4","last_reported":1706166437,"current_range_meters":24800,"station_id":"ce4bguh2rcd13ifvqcj0","pricing_plan_id":"free"},{"bike_id":"1c3bdad7-cfd7-48ef-9739-f87dfe802cb9","system_id":"levelo_inurba_marseille","lat":43.3199,"lon":5.38139,"is_reserved":false,"is_disabled":false,"rental_uris":{"android":"levelo://app?vid=1c3bdad7-cfd7-48ef-9739-f87dfe802cb9","ios":"levelo://app?vid=1c3bdad7-cfd7-48ef-9739-f87dfe802cb9"},"vehicle_type_id":"4","last_reported":1706166437,"current_range_meters":16000,"station_id":"ce4bhr12rcd13ifvqhpg","pricing_plan_id":"free"},{"bike_id":"dc49a2bc-c54f-43f8-bdaf-bfb9096d0275","system_id":"levelo_inurba_marseille","lat":43.319929,"lon":5.38148,"is_reserved":false,"is_disabled":false,"rental_uris":{"android":"levelo://app?vid=dc49a2bc-c54f-43f8-bdaf-bfb9096d0275","ios":"levelo://app?vid=dc49a2bc-c54f-43f8-bdaf-bfb9096d0275"},"vehicle_type_id":"4","last_reported":1706166437,"current_range_meters":0,"station_id":"ce4bhr12rcd13ifvqhpg","pricing_plan_id":"free"},{"bike_id":"fc51b747-b33f-40c9-9c2c-bd6f886bc3e2","system_id":"levelo_inurba_marseille","lat":43.319923,"lon":5.381507,"is_reserved":false,"is_disabled":false,"rental_uris":{"android":"levelo://app?vid=fc51b747-b33f-40c9-9c2c-bd6f886bc3e2","ios":"levelo://app?vid=fc51b747-b33f-40c9-9c2c-bd6f886bc3e2"},"vehicle_type_id":"4","last_reported":1706166437,"current_range_meters":20400,"station_id":"ce4bhr12rcd13ifvqhpg","pricing_plan_id":"free"},{"bike_id":"e8c597bb-73aa-4fd2-8517-e2a6a9010fa8","system_id":"levelo_inurba_marseille","lat":43.31992,"lon":5.38152,"is_reserved":false,"is_disabled":false,"rental_uris":{"android":"levelo://app?vid=e8c597bb-73aa-4fd2-8517-e2a6a9010fa8","ios":"levelo://app?vid=e8c597bb-73aa-4fd2-8517-e2a6a9010fa8"},"vehicle_type_id":"4","last_reported":1706166437,"current_range_meters":0,"station_id":"ce4bhr12rcd13ifvqhpg","pricing_plan_id":"free"},{"bike_id":"3ce3e68d-0313-40cb-afa9-858c717ce4c9","system_id":"levelo_inurba_marseille","lat":43.319935,"lon":5.381699,"is_reserved":false,"is_disabled":false,"rental_uris":{"android":"levelo://app?vid=3ce3e68d-0313-40cb-afa9-858c717ce4c9","ios":"levelo://app?vid=3ce3e68d-0313-40cb-afa9-858c717ce4c9"},"vehicle_type_id":"4","last_reported":1706166437,"current_range_meters":16000,"station_id":"ce4bhr12rcd13ifvqhpg","pricing_plan_id":"free"},{"bike_id":"db5640b8-520d-4779-8ec1-4a4bc253b2f8","system_id":"levelo_inurba_marseille","lat":43.31996,"lon":5.38149,"is_reserved":false,"is_disabled":false,"rental_uris":{"android":"levelo://app?vid=db5640b8-520d-4779-8ec1-4a4bc253b2f8","ios":"levelo://app?vid=db5640b8-520d-4779-8ec1-4a4bc253b2f8"},"vehicle_type_id":"4","last_reported":1706166437,"current_range_meters":2800,"station_id":"ce4bhr12rcd13ifvqhpg","pricing_plan_id":"free"},{"bike_id":"cc49fb07-820d-4047-984c-6077647af278","system_id":"levelo_inurba_marseille","lat":43.31994,"lon":5.38153,"is_reserved":false,"is_disabled":false,"rental_uris":{"android":"levelo://app?vid=cc49fb07-820d-4047-984c-6077647af278","ios":"levelo://app?vid=cc49fb07-820d-4047-984c-6077647af278"},"vehicle_type_id":"4","last_reported":1706166437,"current_range_meters":15200,"station_id":"ce4bhr12rcd13ifvqhpg","pricing_plan_id":"free"},{"bike_id":"88483b5e-a393-4bfe-9800-1971f45b7e52","system_id":"levelo_inurba_marseille","lat":43.319957,"lon":5.381514,"is_reserved":false,"is_disabled":false,"rental_uris":{"android":"levelo://app?vid=88483b5e-a393-4bfe-9800-1971f45b7e52","ios":"levelo://app?vid=88483b5e-a393-4bfe-9800-1971f45b7e52"},"vehicle_type_id":"4","last_reported":1706166437,"current_range_meters":13600,"station_id":"ce4bhr12rcd13ifvqhpg","pricing_plan_id":"free"},{"bike_id":"efc906f1-6d07-435f-9e36-8719175d637b","system_id":"levelo_inurba_marseille","lat":43.31999,"lon":5.38154,"is_reserved":false,"is_disabled":false,"rental_uris":{"android":"levelo://app?vid=efc906f1-6d07-435f-9e36-8719175d637b","ios":"levelo://app?vid=efc906f1-6d07-435f-9e36-8719175d637b"},"vehicle_type_id":"4","last_reported":1706166437,"current_range_meters":28000,"station_id":"ce4bhr12rcd13ifvqhpg","pricing_plan_id":"free"},{"bike_id":"fd388e30-6c90-4fbf-abdf-dd15ef425659","system_id":"levelo_inurba_marseille","lat":43.319967,"lon":5.381565,"is_reserved":false,"is_disabled":false,"rental_uris":{"android":"levelo://app?vid=fd388e30-6c90-4fbf-abdf-dd15ef425659","ios":"levelo://app?vid=fd388e30-6c90-4fbf-abdf-dd15ef425659"},"vehicle_type_id":"4","last_reported":1706166437,"current_range_meters":15200,"station_id":"ce4bhr12rcd13ifvqhpg","pricing_plan_id":"free"},{"bike_id":"1e0321e8-787e-4eeb-8275-971386bc8aa1","system_id":"levelo_inurba_marseille","lat":43.313571,"lon":5.384829,"is_reserved":false,"is_disabled":false,"rental_uris":{"android":"levelo://app?vid=1e0321e8-787e-4eeb-8275-971386bc8aa1","ios":"levelo://app?vid=1e0321e8-787e-4eeb-8275-971386bc8aa1"},"vehicle_type_id":"4","last_reported":1706166437,"current_range_meters":22000,"station_id":"ce4bgt92rcd13ifvqcf0","pricing_plan_id":"free"},{"bike_id":"5452b776-57b4-479a-8d3b-f633d58c0639","system_id":"levelo_inurba_marseille","lat":43.299222,"lon":5.365554,"is_reserved":false,"is_disabled":false,"rental_uris":{"android":"levelo://app?vid=5452b776-57b4-479a-8d3b-f633d58c0639","ios":"levelo://app?vid=5452b776-57b4-479a-8d3b-f633d58c0639"},"vehicle_type_id":"4","last_reported":1706166437,"current_range_meters":26000,"station_id":"ce4bgm92rcd13ifvqbr0","pricing_plan_id":"free"},{"bike_id":"c9788cf0-2415-49e6-bcee-3ab3269c6832","system_id":"levelo_inurba_marseille","lat":43.299209,"lon":5.365547,"is_reserved":false,"is_disabled":false,"rental_uris":{"android":"levelo://app?vid=c9788cf0-2415-49e6-bcee-3ab3269c6832","ios":"levelo://app?vid=c9788cf0-2415-49e6-bcee-3ab3269c6832"},"vehicle_type_id":"4","last_reported":1706166437,"current_range_meters":8800,"station_id":"ce4bgm92rcd13ifvqbr0","pricing_plan_id":"free"},{"bike_id":"2fe08c77-75c3-47e7-bba7-cb9313949024","system_id":"levelo_inurba_marseille","lat":43.30087,"lon":5.3771,"is_reserved":false,"is_disabled":false,"rental_uris":{"android":"levelo://app?vid=2fe08c77-75c3-47e7-bba7-cb9313949024","ios":"levelo://app?vid=2fe08c77-75c3-47e7-bba7-cb9313949024"},"vehicle_type_id":"4","last_reported":1706166437,"current_range_meters":7200,"station_id":"","pricing_plan_id":"free"},{"bike_id":"dd023720-b8a2-44ad-bec8-3d414fed0622","system_id":"levelo_inurba_marseille","lat":43.305364,"lon":5.384119,"is_reserved":false,"is_disabled":false,"rental_uris":{"android":"levelo://app?vid=dd023720-b8a2-44ad-bec8-3d414fed0622","ios":"levelo://app?vid=dd023720-b8a2-44ad-bec8-3d414fed0622"},"vehicle_type_id":"4","last_reported":1706166437,"current_range_meters":18000,"station_id":"ce4bgg92rcd13ifvqb30","pricing_plan_id":"free"},{"bike_id":"d28ce391-c96b-43f1-b1b0-16aa85e34f07","system_id":"levelo_inurba_marseille","lat":43.3053,"lon":5.38418,"is_reserved":false,"is_disabled":false,"rental_uris":{"android":"levelo://app?vid=d28ce391-c96b-43f1-b1b0-16aa85e34f07","ios":"levelo://app?vid=d28ce391-c96b-43f1-b1b0-16aa85e34f07"},"vehicle_type_id":"4","last_reported":1706166437,"current_range_meters":0,"station_id":"ce4bgg92rcd13ifvqb30","pricing_plan_id":"free"},{"bike_id":"44cb8a22-a6f0-4ef8-9909-bec106c420eb","system_id":"levelo_inurba_marseille","lat":43.299243,"lon":5.37481,"is_reserved":false,"is_disabled":false,"rental_uris":{"android":"levelo://app?vid=44cb8a22-a6f0-4ef8-9909-bec106c420eb","ios":"levelo://app?vid=44cb8a22-a6f0-4ef8-9909-bec106c420eb"},"vehicle_type_id":"4","last_reported":1706166437,"current_range_meters":19600,"station_id":"ce4bgjh2rcd13ifvqbg0","pricing_plan_id":"free"},{"bike_id":"0f7b7727-4e46-4ffd-9246-149047b0bdae","system_id":"levelo_inurba_marseille","lat":43.322872,"lon":5.382756,"is_reserved":false,"is_disabled":false,"rental_uris":{"android":"levelo://app?vid=0f7b7727-4e46-4ffd-9246-149047b0bdae","ios":"levelo://app?vid=0f7b7727-4e46-4ffd-9246-149047b0bdae"},"vehicle_type_id":"4","last_reported":1706166437,"current_range_meters":4000,"station_id":"ce4bhr12rcd13ifvqhqg","pricing_plan_id":"free"},{"bike_id":"efbab5b5-a18c-498a-b4db-a512d4e7acc7","system_id":"levelo_inurba_marseille","lat":43.322872,"lon":5.382756,"is_reserved":false,"is_disabled":false,"rental_uris":{"android":"levelo://app?vid=efbab5b5-a18c-498a-b4db-a512d4e7acc7","ios":"levelo://app?vid=efbab5b5-a18c-498a-b4db-a512d4e7acc7"},"vehicle_type_id":"4","last_reported":1706166437,"current_range_meters":0,"station_id":"ce4bhr12rcd13ifvqhqg","pricing_plan_id":"free"},{"bike_id":"e49b8dad-4a57-421f-9057-001d91de46d5","system_id":"levelo_inurba_marseille","lat":43.297163,"lon":5.365866,"is_reserved":false,"is_disabled":false,"rental_uris":{"android":"levelo://app?vid=e49b8dad-4a57-421f-9057-001d91de46d5","ios":"levelo://app?vid=e49b8dad-4a57-421f-9057-001d91de46d5"},"vehicle_type_id":"4","last_reported":1706166437,"current_range_meters":20400,"station_id":"ce4bgn12rcd13ifvqbt0","pricing_plan_id":"free"},{"bike_id":"a5074ab2-a179-41af-ac1d-ee2d4b47f7c2","system_id":"levelo_inurba_marseille","lat":43.322872,"lon":5.382756,"is_reserved":false,"is_disabled":false,"rental_uris":{"android":"levelo://app?vid=a5074ab2-a179-41af-ac1d-ee2d4b47f7c2","ios":"levelo://app?vid=a5074ab2-a179-41af-ac1d-ee2d4b47f7c2"},"vehicle_type_id":"4","last_reported":1706166437,"current_range_meters":28400,"station_id":"ce4bhr12rcd13ifvqhqg","pricing_plan_id":"free"},{"bike_id":"dd25f71b-90eb-4e7e-9930-534e074f9287","system_id":"levelo_inurba_marseille","lat":43.322872,"lon":5.382756,"is_reserved":false,"is_disabled":false,"rental_uris":{"android":"levelo://app?vid=dd25f71b-90eb-4e7e-9930-534e074f9287","ios":"levelo://app?vid=dd25f71b-90eb-4e7e-9930-534e074f9287"},"vehicle_type_id":"4","last_reported":1706166437,"current_range_meters":30400,"station_id":"ce4bhr12rcd13ifvqhqg","pricing_plan_id":"free"},{"bike_id":"8b39830c-6acc-4e7e-913a-a1f2146b14cd","system_id":"levelo_inurba_marseille","lat":43.322872,"lon":5.382756,"is_reserved":false,"is_disabled":false,"rental_uris":{"android":"levelo://app?vid=8b39830c-6acc-4e7e-913a-a1f2146b14cd","ios":"levelo://app?vid=8b39830c-6acc-4e7e-913a-a1f2146b14cd"},"vehicle_type_id":"4","last_reported":1706166437,"current_range_meters":31600,"station_id":"ce4bhr12rcd13ifvqhqg","pricing_plan_id":"free"},{"bike_id":"38d4b3c6-c1c4-4ada-b0ed-8e6826ac2770","system_id":"levelo_inurba_marseille","lat":43.328371,"lon":5.366912,"is_reserved":false,"is_disabled":false,"rental_uris":{"android":"levelo://app?vid=38d4b3c6-c1c4-4ada-b0ed-8e6826ac2770","ios":"levelo://app?vid=38d4b3c6-c1c4-4ada-b0ed-8e6826ac2770"},"vehicle_type_id":"4","last_reported":1706166437,"current_range_meters":8400,"station_id":"ce4bhs92rcd13ifvqi0g","pricing_plan_id":"free"},{"bike_id":"6da9db5a-42ba-4fa8-afc9-4fdbb45498c1","system_id":"levelo_inurba_marseille","lat":43.32824,"lon":5.36677,"is_reserved":false,"is_disabled":false,"rental_uris":{"android":"levelo://app?vid=6da9db5a-42ba-4fa8-afc9-4fdbb45498c1","ios":"levelo://app?vid=6da9db5a-42ba-4fa8-afc9-4fdbb45498c1"},"vehicle_type_id":"4","last_reported":1706166437,"current_range_meters":11200,"station_id":"ce4bhs92rcd13ifvqi0g","pricing_plan_id":"free"},{"bike_id":"abfb6348-9ad1-47ba-b109-7b0bf05e13b8","system_id":"levelo_inurba_marseille","lat":43.32825,"lon":5.3669,"is_reserved":false,"is_disabled":false,"rental_uris":{"android":"levelo://app?vid=abfb6348-9ad1-47ba-b109-7b0bf05e13b8","ios":"levelo://app?vid=abfb6348-9ad1-47ba-b109-7b0bf05e13b8"},"vehicle_type_id":"4","last_reported":1706166437,"current_range_meters":400,"station_id":"ce4bhs92rcd13ifvqi0g","pricing_plan_id":"free"},{"bike_id":"572c30ca-2698-4ebb-9720-28d9ee8291d9","system_id":"levelo_inurba_marseille","lat":43.328255,"lon":5.366808,"is_reserved":false,"is_disabled":false,"rental_uris":{"android":"levelo://app?vid=572c30ca-2698-4ebb-9720-28d9ee8291d9","ios":"levelo://app?vid=572c30ca-2698-4ebb-9720-28d9ee8291d9"},"vehicle_type_id":"4","last_reported":1706166437,"current_range_meters":10400,"station_id":"ce4bhs92rcd13ifvqi0g","pricing_plan_id":"free"},{"bike_id":"85cedcff-9e9a-415d-8415-195178ea3cb7","system_id":"levelo_inurba_marseille","lat":43.328257,"lon":5.36676,"is_reserved":false,"is_disabled":false,"rental_uris":{"android":"levelo://app?vid=85cedcff-9e9a-415d-8415-195178ea3cb7","ios":"levelo://app?vid=85cedcff-9e9a-415d-8415-195178ea3cb7"},"vehicle_type_id":"4","last_reported":1706166437,"current_range_meters":27600,"station_id":"ce4bhs92rcd13ifvqi0g","pricing_plan_id":"free"},{"bike_id":"73755ba0-1381-4d5d-8750-d3a07d3f4c75","system_id":"levelo_inurba_marseille","lat":43.328263,"lon":5.366737,"is_reserved":false,"is_disabled":false,"rental_uris":{"android":"levelo://app?vid=73755ba0-1381-4d5d-8750-d3a07d3f4c75","ios":"levelo://app?vid=73755ba0-1381-4d5d-8750-d3a07d3f4c75"},"vehicle_type_id":"4","last_reported":1706166437,"current_range_meters":23600,"station_id":"ce4bhs92rcd13ifvqi0g","pricing_plan_id":"free"},{"bike_id":"447532c0-56ca-46ac-9000-fea47d81b433","system_id":"levelo_inurba_marseille","lat":43.328264,"lon":5.366837,"is_reserved":false,"is_disabled":false,"rental_uris":{"android":"levelo://app?vid=447532c0-56ca-46ac-9000-fea47d81b433","ios":"levelo://app?vid=447532c0-56ca-46ac-9000-fea47d81b433"},"vehicle_type_id":"4","last_reported":1706166437,"current_range_meters":19600,"station_id":"ce4bhs92rcd13ifvqi0g","pricing_plan_id":"free"},{"bike_id":"ea0178f3-2c6b-4af6-b062-91b0b8dde1df","system_id":"levelo_inurba_marseille","lat":43.328272,"lon":5.366838,"is_reserved":false,"is_disabled":false,"rental_uris":{"android":"levelo://app?vid=ea0178f3-2c6b-4af6-b062-91b0b8dde1df","ios":"levelo://app?vid=ea0178f3-2c6b-4af6-b062-91b0b8dde1df"},"vehicle_type_id":"4","last_reported":1706166437,"current_range_meters":25600,"station_id":"ce4bhs92rcd13ifvqi0g","pricing_plan_id":"free"},{"bike_id":"6721428b-c74b-45c6-886b-c2d04f1acc8c","system_id":"levelo_inurba_marseille","lat":43.328276,"lon":5.3669,"is_reserved":false,"is_disabled":false,"rental_uris":{"android":"levelo://app?vid=6721428b-c74b-45c6-886b-c2d04f1acc8c","ios":"levelo://app?vid=6721428b-c74b-45c6-886b-c2d04f1acc8c"},"vehicle_type_id":"4","last_reported":1706166437,"current_range_meters":6000,"station_id":"ce4bhs92rcd13ifvqi0g","pricing_plan_id":"free"},{"bike_id":"040981f1-93fc-43ad-91af-a39e175f6224","system_id":"levelo_inurba_marseille","lat":43.32828,"lon":5.36675,"is_reserved":false,"is_disabled":false,"rental_uris":{"android":"levelo://app?vid=040981f1-93fc-43ad-91af-a39e175f6224","ios":"levelo://app?vid=040981f1-93fc-43ad-91af-a39e175f6224"},"vehicle_type_id":"4","last_reported":1706166437,"current_range_meters":29200,"station_id":"ce4bhs92rcd13ifvqi0g","pricing_plan_id":"free"},{"bike_id":"5b7aaccd-f0dd-4bc4-a5b7-1581df3aca1d","system_id":"levelo_inurba_marseille","lat":43.328371,"lon":5.366912,"is_reserved":false,"is_disabled":false,"rental_uris":{"android":"levelo://app?vid=5b7aaccd-f0dd-4bc4-a5b7-1581df3aca1d","ios":"levelo://app?vid=5b7aaccd-f0dd-4bc4-a5b7-1581df3aca1d"},"vehicle_type_id":"4","last_reported":1706166437,"current_range_meters":7600,"station_id":"ce4bhs92rcd13ifvqi0g","pricing_plan_id":"free"},{"bike_id":"f529af8b-6eb5-4dad-b929-2be8fdbdd47b","system_id":"levelo_inurba_marseille","lat":43.328371,"lon":5.366909,"is_reserved":false,"is_disabled":false,"rental_uris":{"android":"levelo://app?vid=f529af8b-6eb5-4dad-b929-2be8fdbdd47b","ios":"levelo://app?vid=f529af8b-6eb5-4dad-b929-2be8fdbdd47b"},"vehicle_type_id":"4","last_reported":1706166437,"current_range_meters":22400,"station_id":"ce4bhs92rcd13ifvqi0g","pricing_plan_id":"free"},{"bike_id":"e92d083a-dfb9-464f-a2d7-ffc480709cb3","system_id":"levelo_inurba_marseille","lat":43.328371,"lon":5.366912,"is_reserved":false,"is_disabled":false,"rental_uris":{"android":"levelo://app?vid=e92d083a-dfb9-464f-a2d7-ffc480709cb3","ios":"levelo://app?vid=e92d083a-dfb9-464f-a2d7-ffc480709cb3"},"vehicle_type_id":"4","last_reported":1706166437,"current_range_meters":6400,"station_id":"ce4bhs92rcd13ifvqi0g","pricing_plan_id":"free"},{"bike_id":"8e2e258c-9f25-408c-8291-bf6e5ba33180","system_id":"levelo_inurba_marseille","lat":43.328371,"lon":5.366909,"is_reserved":false,"is_disabled":false,"rental_uris":{"android":"levelo://app?vid=8e2e258c-9f25-408c-8291-bf6e5ba33180","ios":"levelo://app?vid=8e2e258c-9f25-408c-8291-bf6e5ba33180"},"vehicle_type_id":"4","last_reported":1706166437,"current_range_meters":22000,"station_id":"ce4bhs92rcd13ifvqi0g","pricing_plan_id":"free"},{"bike_id":"204738f6-469d-4db3-bd14-c2b38ef5e726","system_id":"levelo_inurba_marseille","lat":43.328371,"lon":5.366912,"is_reserved":false,"is_disabled":false,"rental_uris":{"android":"levelo://app?vid=204738f6-469d-4db3-bd14-c2b38ef5e726","ios":"levelo://app?vid=204738f6-469d-4db3-bd14-c2b38ef5e726"},"vehicle_type_id":"4","last_reported":1706166437,"current_range_meters":17200,"station_id":"ce4bhs92rcd13ifvqi0g","pricing_plan_id":"free"},{"bike_id":"fb5c81e7-2e43-4803-b381-527ab4102689","system_id":"levelo_inurba_marseille","lat":43.328371,"lon":5.366912,"is_reserved":false,"is_disabled":false,"rental_uris":{"android":"levelo://app?vid=fb5c81e7-2e43-4803-b381-527ab4102689","ios":"levelo://app?vid=fb5c81e7-2e43-4803-b381-527ab4102689"},"vehicle_type_id":"4","last_reported":1706166437,"current_range_meters":24800,"station_id":"ce4bhs92rcd13ifvqi0g","pricing_plan_id":"free"},{"bike_id":"d8b5260c-205c-4300-9784-22ead2fde86f","system_id":"levelo_inurba_marseille","lat":43.328371,"lon":5.366912,"is_reserved":false,"is_disabled":false,"rental_uris":{"android":"levelo://app?vid=d8b5260c-205c-4300-9784-22ead2fde86f","ios":"levelo://app?vid=d8b5260c-205c-4300-9784-22ead2fde86f"},"vehicle_type_id":"4","last_reported":1706166437,"current_range_meters":11200,"station_id":"ce4bhs92rcd13ifvqi0g","pricing_plan_id":"free"},{"bike_id":"79d2d98a-29f2-4ffd-ae01-bfd8a1fa05d5","system_id":"levelo_inurba_marseille","lat":43.328371,"lon":5.366912,"is_reserved":false,"is_disabled":false,"rental_uris":{"android":"levelo://app?vid=79d2d98a-29f2-4ffd-ae01-bfd8a1fa05d5","ios":"levelo://app?vid=79d2d98a-29f2-4ffd-ae01-bfd8a1fa05d5"},"vehicle_type_id":"4","last_reported":1706166437,"current_range_meters":23200,"station_id":"ce4bhs92rcd13ifvqi0g","pricing_plan_id":"free"},{"bike_id":"ef390625-a6a9-47b0-b1a6-a48d51da7161","system_id":"levelo_inurba_marseille","lat":43.297163,"lon":5.365866,"is_reserved":false,"is_disabled":false,"rental_uris":{"android":"levelo://app?vid=ef390625-a6a9-47b0-b1a6-a48d51da7161","ios":"levelo://app?vid=ef390625-a6a9-47b0-b1a6-a48d51da7161"},"vehicle_type_id":"4","last_reported":1706166437,"current_range_meters":20800,"station_id":"ce4bgn12rcd13ifvqbt0","pricing_plan_id":"free"},{"bike_id":"5b15edbb-eebc-482d-87cb-984b3725c75a","system_id":"levelo_inurba_marseille","lat":43.29589,"lon":5.36739,"is_reserved":false,"is_disabled":false,"rental_uris":{"android":"levelo://app?vid=5b15edbb-eebc-482d-87cb-984b3725c75a","ios":"levelo://app?vid=5b15edbb-eebc-482d-87cb-984b3725c75a"},"vehicle_type_id":"4","last_reported":1706166437,"current_range_meters":17200,"station_id":"ce4bgph2rcd13ifvqc2g","pricing_plan_id":"free"},{"bike_id":"556e02a6-2ae0-495b-b1ec-becb716f86db","system_id":"levelo_inurba_marseille","lat":43.299028,"lon":5.381509,"is_reserved":false,"is_disabled":false,"rental_uris":{"android":"levelo://app?vid=556e02a6-2ae0-495b-b1ec-becb716f86db","ios":"levelo://app?vid=556e02a6-2ae0-495b-b1ec-becb716f86db"},"vehicle_type_id":"4","last_reported":1706166437,"current_range_meters":12000,"station_id":"ce4bgj12rcd13ifvqbc0","pricing_plan_id":"free"},{"bike_id":"4daa3fa7-a85e-4e7f-a873-6ed313edb1db","system_id":"levelo_inurba_marseille","lat":43.309589,"lon":5.390258,"is_reserved":false,"is_disabled":false,"rental_uris":{"android":"levelo://app?vid=4daa3fa7-a85e-4e7f-a873-6ed313edb1db","ios":"levelo://app?vid=4daa3fa7-a85e-4e7f-a873-6ed313edb1db"},"vehicle_type_id":"4","last_reported":1706166437,"current_range_meters":0,"station_id":"ce4bgup2rcd13ifvqco0","pricing_plan_id":"free"},{"bike_id":"9399ac7b-8c1f-41d0-97d7-e67cc420f6fb","system_id":"levelo_inurba_marseille","lat":43.309589,"lon":5.390258,"is_reserved":false,"is_disabled":false,"rental_uris":{"android":"levelo://app?vid=9399ac7b-8c1f-41d0-97d7-e67cc420f6fb","ios":"levelo://app?vid=9399ac7b-8c1f-41d0-97d7-e67cc420f6fb"},"vehicle_type_id":"4","last_reported":1706166437,"current_range_meters":22400,"station_id":"ce4bgup2rcd13ifvqco0","pricing_plan_id":"free"},{"bike_id":"47748b6b-aaa1-4801-900e-96c284eda90c","system_id":"levelo_inurba_marseille","lat":43.317557,"lon":5.390173,"is_reserved":false,"is_disabled":false,"rental_uris":{"android":"levelo://app?vid=47748b6b-aaa1-4801-900e-96c284eda90c","ios":"levelo://app?vid=47748b6b-aaa1-4801-900e-96c284eda90c"},"vehicle_type_id":"4","last_reported":1706166437,"current_range_meters":30000,"station_id":"ce4bhqp2rcd13ifvqhng","pricing_plan_id":"free"},{"bike_id":"624e88ba-b956-437f-9024-d46aa952d36d","system_id":"levelo_inurba_marseille","lat":43.295748,"lon":5.37522,"is_reserved":false,"is_disabled":false,"rental_uris":{"android":"levelo://app?vid=624e88ba-b956-437f-9024-d46aa952d36d","ios":"levelo://app?vid=624e88ba-b956-437f-9024-d46aa952d36d"},"vehicle_type_id":"4","last_reported":1706166437,"current_range_meters":29600,"station_id":"ce4bgh92rcd13ifvqb50","pricing_plan_id":"free"},{"bike_id":"01af6473-fc76-4705-b923-60cce72ede11","system_id":"levelo_inurba_marseille","lat":43.298037,"lon":5.381066,"is_reserved":false,"is_disabled":false,"rental_uris":{"android":"levelo://app?vid=01af6473-fc76-4705-b923-60cce72ede11","ios":"levelo://app?vid=01af6473-fc76-4705-b923-60cce72ede11"},"vehicle_type_id":"4","last_reported":1706166437,"current_range_meters":21600,"station_id":"ce4bgip2rcd13ifvqbb0","pricing_plan_id":"free"},{"bike_id":"726519b3-0d52-47a7-b29f-e39ced48f9c7","system_id":"levelo_inurba_marseille","lat":43.295748,"lon":5.37522,"is_reserved":false,"is_disabled":false,"rental_uris":{"android":"levelo://app?vid=726519b3-0d52-47a7-b29f-e39ced48f9c7","ios":"levelo://app?vid=726519b3-0d52-47a7-b29f-e39ced48f9c7"},"vehicle_type_id":"4","last_reported":1706166437,"current_range_meters":24800,"station_id":"ce4bgh92rcd13ifvqb50","pricing_plan_id":"free"},{"bike_id":"34629a9c-ef05-4cfd-9559-2f2f4e0f9a29","system_id":"levelo_inurba_marseille","lat":43.295748,"lon":5.37522,"is_reserved":false,"is_disabled":false,"rental_uris":{"android":"levelo://app?vid=34629a9c-ef05-4cfd-9559-2f2f4e0f9a29","ios":"levelo://app?vid=34629a9c-ef05-4cfd-9559-2f2f4e0f9a29"},"vehicle_type_id":"4","last_reported":1706166437,"current_range_meters":12800,"station_id":"ce4bgh92rcd13ifvqb50","pricing_plan_id":"free"},{"bike_id":"c4e5fe23-c83f-4e49-b3ca-163d1ae51ab2","system_id":"levelo_inurba_marseille","lat":43.296263,"lon":5.377094,"is_reserved":false,"is_disabled":false,"rental_uris":{"android":"levelo://app?vid=c4e5fe23-c83f-4e49-b3ca-163d1ae51ab2","ios":"levelo://app?vid=c4e5fe23-c83f-4e49-b3ca-163d1ae51ab2"},"vehicle_type_id":"4","last_reported":1706166437,"current_range_meters":28000,"station_id":"ce4bgi92rcd13ifvqb90","pricing_plan_id":"free"},{"bike_id":"c17a3598-44f8-4ec2-b386-c9667f03a6e1","system_id":"levelo_inurba_marseille","lat":43.295279,"lon":5.375048,"is_reserved":false,"is_disabled":false,"rental_uris":{"android":"levelo://app?vid=c17a3598-44f8-4ec2-b386-c9667f03a6e1","ios":"levelo://app?vid=c17a3598-44f8-4ec2-b386-c9667f03a6e1"},"vehicle_type_id":"4","last_reported":1706166437,"current_range_meters":27200,"station_id":"ce4bgkp2rcd13ifvqbmg","pricing_plan_id":"free"},{"bike_id":"d2690fa3-a3e7-4aa1-be47-7ac67bd8dc31","system_id":"levelo_inurba_marseille","lat":43.299707,"lon":5.384859,"is_reserved":false,"is_disabled":false,"rental_uris":{"android":"levelo://app?vid=d2690fa3-a3e7-4aa1-be47-7ac67bd8dc31","ios":"levelo://app?vid=d2690fa3-a3e7-4aa1-be47-7ac67bd8dc31"},"vehicle_type_id":"4","last_reported":1706166437,"current_range_meters":19200,"station_id":"ce4bgj92rcd13ifvqbd0","pricing_plan_id":"free"},{"bike_id":"40996b4a-fac6-4cc2-a8e8-9a9ba72f10c9","system_id":"levelo_inurba_marseille","lat":43.298614,"lon":5.383962,"is_reserved":false,"is_disabled":false,"rental_uris":{"android":"levelo://app?vid=40996b4a-fac6-4cc2-a8e8-9a9ba72f10c9","ios":"levelo://app?vid=40996b4a-fac6-4cc2-a8e8-9a9ba72f10c9"},"vehicle_type_id":"4","last_reported":1706166437,"current_range_meters":17600,"station_id":"","pricing_plan_id":"free"},{"bike_id":"13e639e7-dde1-4a08-b51b-bcd4ae342930","system_id":"levelo_inurba_marseille","lat":43.296,"lon":5.38108,"is_reserved":false,"is_disabled":false,"rental_uris":{"android":"levelo://app?vid=13e639e7-dde1-4a08-b51b-bcd4ae342930","ios":"levelo://app?vid=13e639e7-dde1-4a08-b51b-bcd4ae342930"},"vehicle_type_id":"4","last_reported":1706166437,"current_range_meters":0,"station_id":"ce4bgl12rcd13ifvqbo0","pricing_plan_id":"free"},{"bike_id":"eea02caf-68d9-4313-9ed9-a1d160c6887f","system_id":"levelo_inurba_marseille","lat":43.305994,"lon":5.393687,"is_reserved":false,"is_disabled":false,"rental_uris":{"android":"levelo://app?vid=eea02caf-68d9-4313-9ed9-a1d160c6887f","ios":"levelo://app?vid=eea02caf-68d9-4313-9ed9-a1d160c6887f"},"vehicle_type_id":"4","last_reported":1706166437,"current_range_meters":18800,"station_id":"ce4bh0p2rcd13ifvqd80","pricing_plan_id":"free"},{"bike_id":"d3c2731e-4c9c-42d6-ac3d-ff9efaef1170","system_id":"levelo_inurba_marseille","lat":43.305994,"lon":5.393687,"is_reserved":false,"is_disabled":false,"rental_uris":{"android":"levelo://app?vid=d3c2731e-4c9c-42d6-ac3d-ff9efaef1170","ios":"levelo://app?vid=d3c2731e-4c9c-42d6-ac3d-ff9efaef1170"},"vehicle_type_id":"4","last_reported":1706166437,"current_range_meters":31600,"station_id":"ce4bh0p2rcd13ifvqd80","pricing_plan_id":"free"},{"bike_id":"26a17eec-086f-4600-bb79-0e984e87a592","system_id":"levelo_inurba_marseille","lat":43.305994,"lon":5.393687,"is_reserved":false,"is_disabled":false,"rental_uris":{"android":"levelo://app?vid=26a17eec-086f-4600-bb79-0e984e87a592","ios":"levelo://app?vid=26a17eec-086f-4600-bb79-0e984e87a592"},"vehicle_type_id":"4","last_reported":1706166437,"current_range_meters":31600,"station_id":"ce4bh0p2rcd13ifvqd80","pricing_plan_id":"free"},{"bike_id":"e8483336-0375-49e0-a07f-28a1363f8e61","system_id":"levelo_inurba_marseille","lat":43.305994,"lon":5.393687,"is_reserved":false,"is_disabled":false,"rental_uris":{"android":"levelo://app?vid=e8483336-0375-49e0-a07f-28a1363f8e61","ios":"levelo://app?vid=e8483336-0375-49e0-a07f-28a1363f8e61"},"vehicle_type_id":"4","last_reported":1706166437,"current_range_meters":31600,"station_id":"ce4bh0p2rcd13ifvqd80","pricing_plan_id":"free"},{"bike_id":"89820ed6-8b50-4794-97ba-9162267155e5","system_id":"levelo_inurba_marseille","lat":43.305994,"lon":5.393687,"is_reserved":false,"is_disabled":false,"rental_uris":{"android":"levelo://app?vid=89820ed6-8b50-4794-97ba-9162267155e5","ios":"levelo://app?vid=89820ed6-8b50-4794-97ba-9162267155e5"},"vehicle_type_id":"4","last_reported":1706166437,"current_range_meters":24000,"station_id":"ce4bh0p2rcd13ifvqd80","pricing_plan_id":"free"},{"bike_id":"fae0b2e7-80fe-4942-836c-51bf7b584fda","system_id":"levelo_inurba_marseille","lat":43.305994,"lon":5.393687,"is_reserved":false,"is_disabled":false,"rental_uris":{"android":"levelo://app?vid=fae0b2e7-80fe-4942-836c-51bf7b584fda","ios":"levelo://app?vid=fae0b2e7-80fe-4942-836c-51bf7b584fda"},"vehicle_type_id":"4","last_reported":1706166437,"current_range_meters":13600,"station_id":"ce4bh0p2rcd13ifvqd80","pricing_plan_id":"free"},{"bike_id":"d226b26f-2904-4f6e-bcc8-134165cdf1e8","system_id":"levelo_inurba_marseille","lat":43.305994,"lon":5.393687,"is_reserved":false,"is_disabled":false,"rental_uris":{"android":"levelo://app?vid=d226b26f-2904-4f6e-bcc8-134165cdf1e8","ios":"levelo://app?vid=d226b26f-2904-4f6e-bcc8-134165cdf1e8"},"vehicle_type_id":"4","last_reported":1706166437,"current_range_meters":22400,"station_id":"ce4bh0p2rcd13ifvqd80","pricing_plan_id":"free"},{"bike_id":"7511ce0c-6e65-4556-9d80-d50356eff95b","system_id":"levelo_inurba_marseille","lat":43.305994,"lon":5.393687,"is_reserved":false,"is_disabled":false,"rental_uris":{"android":"levelo://app?vid=7511ce0c-6e65-4556-9d80-d50356eff95b","ios":"levelo://app?vid=7511ce0c-6e65-4556-9d80-d50356eff95b"},"vehicle_type_id":"4","last_reported":1706166437,"current_range_meters":7200,"station_id":"ce4bh0p2rcd13ifvqd80","pricing_plan_id":"free"},{"bike_id":"385998bf-5645-4d84-9599-2be878fba776","system_id":"levelo_inurba_marseille","lat":43.305994,"lon":5.393687,"is_reserved":false,"is_disabled":false,"rental_uris":{"android":"levelo://app?vid=385998bf-5645-4d84-9599-2be878fba776","ios":"levelo://app?vid=385998bf-5645-4d84-9599-2be878fba776"},"vehicle_type_id":"4","last_reported":1706166437,"current_range_meters":18000,"station_id":"ce4bh0p2rcd13ifvqd80","pricing_plan_id":"free"},{"bike_id":"9f6fc842-51b4-4884-bec2-519e235058de","system_id":"levelo_inurba_marseille","lat":43.305994,"lon":5.393687,"is_reserved":false,"is_disabled":false,"rental_uris":{"android":"levelo://app?vid=9f6fc842-51b4-4884-bec2-519e235058de","ios":"levelo://app?vid=9f6fc842-51b4-4884-bec2-519e235058de"},"vehicle_type_id":"4","last_reported":1706166437,"current_range_meters":11200,"station_id":"ce4bh0p2rcd13ifvqd80","pricing_plan_id":"free"},{"bike_id":"dcae6d84-d05a-4a18-9bf8-d99c9cba0a1c","system_id":"levelo_inurba_marseille","lat":43.303053,"lon":5.392055,"is_reserved":false,"is_disabled":false,"rental_uris":{"android":"levelo://app?vid=dcae6d84-d05a-4a18-9bf8-d99c9cba0a1c","ios":"levelo://app?vid=dcae6d84-d05a-4a18-9bf8-d99c9cba0a1c"},"vehicle_type_id":"4","last_reported":1706166437,"current_range_meters":25600,"station_id":"ce4bgkh2rcd13ifvqbk0","pricing_plan_id":"free"},{"bike_id":"bb77cad6-c91e-492d-a1bd-83d2bd3d95ce","system_id":"levelo_inurba_marseille","lat":43.292311,"lon":5.360731,"is_reserved":false,"is_disabled":false,"rental_uris":{"android":"levelo://app?vid=bb77cad6-c91e-492d-a1bd-83d2bd3d95ce","ios":"levelo://app?vid=bb77cad6-c91e-492d-a1bd-83d2bd3d95ce"},"vehicle_type_id":"4","last_reported":1706166437,"current_range_meters":24800,"station_id":"ce4bhbh2rcd13ifvqeqg","pricing_plan_id":"free"},{"bike_id":"ec3540c4-4784-4a4d-8a93-d6ad62f270f0","system_id":"levelo_inurba_marseille","lat":43.292311,"lon":5.360731,"is_reserved":false,"is_disabled":false,"rental_uris":{"android":"levelo://app?vid=ec3540c4-4784-4a4d-8a93-d6ad62f270f0","ios":"levelo://app?vid=ec3540c4-4784-4a4d-8a93-d6ad62f270f0"},"vehicle_type_id":"4","last_reported":1706166437,"current_range_meters":19200,"station_id":"ce4bhbh2rcd13ifvqeqg","pricing_plan_id":"free"},{"bike_id":"54e41ba3-35f6-4e66-8273-298d71c4b971","system_id":"levelo_inurba_marseille","lat":43.292311,"lon":5.360731,"is_reserved":false,"is_disabled":false,"rental_uris":{"android":"levelo://app?vid=54e41ba3-35f6-4e66-8273-298d71c4b971","ios":"levelo://app?vid=54e41ba3-35f6-4e66-8273-298d71c4b971"},"vehicle_type_id":"4","last_reported":1706166437,"current_range_meters":28400,"station_id":"ce4bhbh2rcd13ifvqeqg","pricing_plan_id":"free"},{"bike_id":"4a314a5f-3e6f-442c-a0df-1e43fc3daee0","system_id":"levelo_inurba_marseille","lat":43.292311,"lon":5.360731,"is_reserved":false,"is_disabled":false,"rental_uris":{"android":"levelo://app?vid=4a314a5f-3e6f-442c-a0df-1e43fc3daee0","ios":"levelo://app?vid=4a314a5f-3e6f-442c-a0df-1e43fc3daee0"},"vehicle_type_id":"4","last_reported":1706166437,"current_range_meters":22000,"station_id":"ce4bhbh2rcd13ifvqeqg","pricing_plan_id":"free"},{"bike_id":"b59f6a56-e505-4647-9bcf-03ef4a2bf16a","system_id":"levelo_inurba_marseille","lat":43.298764,"lon":5.388973,"is_reserved":false,"is_disabled":false,"rental_uris":{"android":"levelo://app?vid=b59f6a56-e505-4647-9bcf-03ef4a2bf16a","ios":"levelo://app?vid=b59f6a56-e505-4647-9bcf-03ef4a2bf16a"},"vehicle_type_id":"4","last_reported":1706166437,"current_range_meters":16400,"station_id":"ce4bh392rcd13ifvqdl0","pricing_plan_id":"free"},{"bike_id":"8f5a84b6-78f3-42d6-b1aa-08957ab04a01","system_id":"levelo_inurba_marseille","lat":43.298764,"lon":5.388973,"is_reserved":false,"is_disabled":false,"rental_uris":{"android":"levelo://app?vid=8f5a84b6-78f3-42d6-b1aa-08957ab04a01","ios":"levelo://app?vid=8f5a84b6-78f3-42d6-b1aa-08957ab04a01"},"vehicle_type_id":"4","last_reported":1706166437,"current_range_meters":5600,"station_id":"ce4bh392rcd13ifvqdl0","pricing_plan_id":"free"},{"bike_id":"ff3cd820-e33f-4ed4-9096-44a5d1fd7469","system_id":"levelo_inurba_marseille","lat":43.309038,"lon":5.396546,"is_reserved":false,"is_disabled":false,"rental_uris":{"android":"levelo://app?vid=ff3cd820-e33f-4ed4-9096-44a5d1fd7469","ios":"levelo://app?vid=ff3cd820-e33f-4ed4-9096-44a5d1fd7469"},"vehicle_type_id":"4","last_reported":1706166437,"current_range_meters":9200,"station_id":"ce4bh012rcd13ifvqcv0","pricing_plan_id":"free"},{"bike_id":"1e2a5530-c6e2-4dbf-a249-6b0935961ba7","system_id":"levelo_inurba_marseille","lat":43.29531,"lon":5.38531,"is_reserved":false,"is_disabled":false,"rental_uris":{"android":"levelo://app?vid=1e2a5530-c6e2-4dbf-a249-6b0935961ba7","ios":"levelo://app?vid=1e2a5530-c6e2-4dbf-a249-6b0935961ba7"},"vehicle_type_id":"4","last_reported":1706166437,"current_range_meters":14800,"station_id":"ce4bgih2rcd13ifvqba0","pricing_plan_id":"free"},{"bike_id":"53c8f48a-75db-432d-9c8e-c9a00ec9181a","system_id":"levelo_inurba_marseille","lat":43.29529,"lon":5.385581,"is_reserved":false,"is_disabled":false,"rental_uris":{"android":"levelo://app?vid=53c8f48a-75db-432d-9c8e-c9a00ec9181a","ios":"levelo://app?vid=53c8f48a-75db-432d-9c8e-c9a00ec9181a"},"vehicle_type_id":"4","last_reported":1706166437,"current_range_meters":0,"station_id":"ce4bgih2rcd13ifvqba0","pricing_plan_id":"free"},{"bike_id":"9581baf4-3df4-40e1-bf1e-82aaac6375b0","system_id":"levelo_inurba_marseille","lat":43.294068,"lon":5.383677,"is_reserved":false,"is_disabled":false,"rental_uris":{"android":"levelo://app?vid=9581baf4-3df4-40e1-bf1e-82aaac6375b0","ios":"levelo://app?vid=9581baf4-3df4-40e1-bf1e-82aaac6375b0"},"vehicle_type_id":"4","last_reported":1706166437,"current_range_meters":10000,"station_id":"","pricing_plan_id":"free"},{"bike_id":"419e18fe-d288-4ff3-8678-78cbecf35895","system_id":"levelo_inurba_marseille","lat":43.302008,"lon":5.394694,"is_reserved":false,"is_disabled":false,"rental_uris":{"android":"levelo://app?vid=419e18fe-d288-4ff3-8678-78cbecf35895","ios":"levelo://app?vid=419e18fe-d288-4ff3-8678-78cbecf35895"},"vehicle_type_id":"4","last_reported":1706166437,"current_range_meters":30000,"station_id":"ce4bh0p2rcd13ifvqd70","pricing_plan_id":"free"},{"bike_id":"286c0166-df48-475e-baae-ad963da35ff3","system_id":"levelo_inurba_marseille","lat":43.30216,"lon":5.39467,"is_reserved":false,"is_disabled":false,"rental_uris":{"android":"levelo://app?vid=286c0166-df48-475e-baae-ad963da35ff3","ios":"levelo://app?vid=286c0166-df48-475e-baae-ad963da35ff3"},"vehicle_type_id":"4","last_reported":1706166437,"current_range_meters":18400,"station_id":"ce4bh0p2rcd13ifvqd70","pricing_plan_id":"free"},{"bike_id":"f7c88fbb-d40c-4a20-af81-fa4809fddb2d","system_id":"levelo_inurba_marseille","lat":43.302158,"lon":5.394677,"is_reserved":false,"is_disabled":false,"rental_uris":{"android":"levelo://app?vid=f7c88fbb-d40c-4a20-af81-fa4809fddb2d","ios":"levelo://app?vid=f7c88fbb-d40c-4a20-af81-fa4809fddb2d"},"vehicle_type_id":"4","last_reported":1706166437,"current_range_meters":14000,"station_id":"ce4bh0p2rcd13ifvqd70","pricing_plan_id":"free"},{"bike_id":"64c2619e-cba3-402c-9afa-1cfbcd61978d","system_id":"levelo_inurba_marseille","lat":43.302159,"lon":5.394682,"is_reserved":false,"is_disabled":false,"rental_uris":{"android":"levelo://app?vid=64c2619e-cba3-402c-9afa-1cfbcd61978d","ios":"levelo://app?vid=64c2619e-cba3-402c-9afa-1cfbcd61978d"},"vehicle_type_id":"4","last_reported":1706166437,"current_range_meters":25600,"station_id":"ce4bh0p2rcd13ifvqd70","pricing_plan_id":"free"},{"bike_id":"c8563f4d-6fa1-467f-b8a2-16141aadf2f0","system_id":"levelo_inurba_marseille","lat":43.302142,"lon":5.39468,"is_reserved":false,"is_disabled":false,"rental_uris":{"android":"levelo://app?vid=c8563f4d-6fa1-467f-b8a2-16141aadf2f0","ios":"levelo://app?vid=c8563f4d-6fa1-467f-b8a2-16141aadf2f0"},"vehicle_type_id":"4","last_reported":1706166437,"current_range_meters":22000,"station_id":"ce4bh0p2rcd13ifvqd70","pricing_plan_id":"free"},{"bike_id":"2fd17b26-1996-48a0-82d6-50fef82794e6","system_id":"levelo_inurba_marseille","lat":43.302129,"lon":5.394692,"is_reserved":false,"is_disabled":false,"rental_uris":{"android":"levelo://app?vid=2fd17b26-1996-48a0-82d6-50fef82794e6","ios":"levelo://app?vid=2fd17b26-1996-48a0-82d6-50fef82794e6"},"vehicle_type_id":"4","last_reported":1706166437,"current_range_meters":4000,"station_id":"ce4bh0p2rcd13ifvqd70","pricing_plan_id":"free"},{"bike_id":"316ab50e-5f93-4782-8a64-47fe82c4b339","system_id":"levelo_inurba_marseille","lat":43.29032,"lon":5.35902,"is_reserved":false,"is_disabled":false,"rental_uris":{"android":"levelo://app?vid=316ab50e-5f93-4782-8a64-47fe82c4b339","ios":"levelo://app?vid=316ab50e-5f93-4782-8a64-47fe82c4b339"},"vehicle_type_id":"4","last_reported":1706166437,"current_range_meters":28000,"station_id":"ce4bha92rcd13ifvqeg0","pricing_plan_id":"free"},{"bike_id":"f7a802cf-11bf-4702-80d1-0133139dcb97","system_id":"levelo_inurba_marseille","lat":43.289184,"lon":5.366408,"is_reserved":false,"is_disabled":false,"rental_uris":{"android":"levelo://app?vid=f7a802cf-11bf-4702-80d1-0133139dcb97","ios":"levelo://app?vid=f7a802cf-11bf-4702-80d1-0133139dcb97"},"vehicle_type_id":"4","last_reported":1706166437,"current_range_meters":7200,"station_id":"ce4bhap2rcd13ifvqek0","pricing_plan_id":"free"},{"bike_id":"494d0f79-08ac-4320-a27c-c0db86438ed5","system_id":"levelo_inurba_marseille","lat":43.289184,"lon":5.366408,"is_reserved":false,"is_disabled":false,"rental_uris":{"android":"levelo://app?vid=494d0f79-08ac-4320-a27c-c0db86438ed5","ios":"levelo://app?vid=494d0f79-08ac-4320-a27c-c0db86438ed5"},"vehicle_type_id":"4","last_reported":1706166437,"current_range_meters":18400,"station_id":"ce4bhap2rcd13ifvqek0","pricing_plan_id":"free"},{"bike_id":"98349df7-458a-45e4-b5b7-34025074d30d","system_id":"levelo_inurba_marseille","lat":43.289184,"lon":5.366408,"is_reserved":false,"is_disabled":false,"rental_uris":{"android":"levelo://app?vid=98349df7-458a-45e4-b5b7-34025074d30d","ios":"levelo://app?vid=98349df7-458a-45e4-b5b7-34025074d30d"},"vehicle_type_id":"4","last_reported":1706166437,"current_range_meters":25600,"station_id":"ce4bhap2rcd13ifvqek0","pricing_plan_id":"free"},{"bike_id":"632a26d8-5bf6-4d4e-bec8-f359106062d7","system_id":"levelo_inurba_marseille","lat":43.289184,"lon":5.366408,"is_reserved":false,"is_disabled":false,"rental_uris":{"android":"levelo://app?vid=632a26d8-5bf6-4d4e-bec8-f359106062d7","ios":"levelo://app?vid=632a26d8-5bf6-4d4e-bec8-f359106062d7"},"vehicle_type_id":"4","last_reported":1706166437,"current_range_meters":31600,"station_id":"ce4bhap2rcd13ifvqek0","pricing_plan_id":"free"},{"bike_id":"04ca653f-8730-49e1-8f28-15cba6cee719","system_id":"levelo_inurba_marseille","lat":43.289468,"lon":5.363719,"is_reserved":false,"is_disabled":false,"rental_uris":{"android":"levelo://app?vid=04ca653f-8730-49e1-8f28-15cba6cee719","ios":"levelo://app?vid=04ca653f-8730-49e1-8f28-15cba6cee719"},"vehicle_type_id":"4","last_reported":1706166437,"current_range_meters":6800,"station_id":"ce4bhc92rcd13ifvqetg","pricing_plan_id":"free"},{"bike_id":"999e2b48-3354-4b27-ac52-316d8fded163","system_id":"levelo_inurba_marseille","lat":43.289184,"lon":5.366408,"is_reserved":false,"is_disabled":false,"rental_uris":{"android":"levelo://app?vid=999e2b48-3354-4b27-ac52-316d8fded163","ios":"levelo://app?vid=999e2b48-3354-4b27-ac52-316d8fded163"},"vehicle_type_id":"4","last_reported":1706166437,"current_range_meters":27200,"station_id":"ce4bhap2rcd13ifvqek0","pricing_plan_id":"free"},{"bike_id":"4f1c6d9a-19c2-458f-8e0b-9be7fd2f8e79","system_id":"levelo_inurba_marseille","lat":43.289184,"lon":5.366408,"is_reserved":false,"is_disabled":false,"rental_uris":{"android":"levelo://app?vid=4f1c6d9a-19c2-458f-8e0b-9be7fd2f8e79","ios":"levelo://app?vid=4f1c6d9a-19c2-458f-8e0b-9be7fd2f8e79"},"vehicle_type_id":"4","last_reported":1706166437,"current_range_meters":23600,"station_id":"ce4bhap2rcd13ifvqek0","pricing_plan_id":"free"},{"bike_id":"ec491555-cbb2-4fcc-a74a-2d881d9f86f8","system_id":"levelo_inurba_marseille","lat":43.289468,"lon":5.363719,"is_reserved":false,"is_disabled":false,"rental_uris":{"android":"levelo://app?vid=ec491555-cbb2-4fcc-a74a-2d881d9f86f8","ios":"levelo://app?vid=ec491555-cbb2-4fcc-a74a-2d881d9f86f8"},"vehicle_type_id":"4","last_reported":1706166437,"current_range_meters":4000,"station_id":"ce4bhc92rcd13ifvqetg","pricing_plan_id":"free"},{"bike_id":"bf3b408c-42b4-4cbb-9318-908e65f45ad2","system_id":"levelo_inurba_marseille","lat":43.289391,"lon":5.363948,"is_reserved":false,"is_disabled":false,"rental_uris":{"android":"levelo://app?vid=bf3b408c-42b4-4cbb-9318-908e65f45ad2","ios":"levelo://app?vid=bf3b408c-42b4-4cbb-9318-908e65f45ad2"},"vehicle_type_id":"4","last_reported":1706166437,"current_range_meters":30000,"station_id":"ce4bhc92rcd13ifvqetg","pricing_plan_id":"free"},{"bike_id":"6acc1332-90f7-403d-87b2-5362f5699da7","system_id":"levelo_inurba_marseille","lat":43.289468,"lon":5.363719,"is_reserved":false,"is_disabled":false,"rental_uris":{"android":"levelo://app?vid=6acc1332-90f7-403d-87b2-5362f5699da7","ios":"levelo://app?vid=6acc1332-90f7-403d-87b2-5362f5699da7"},"vehicle_type_id":"4","last_reported":1706166437,"current_range_meters":16800,"station_id":"ce4bhc92rcd13ifvqetg","pricing_plan_id":"free"},{"bike_id":"de3a0466-e365-4dca-a2f4-4e1a19d4afba","system_id":"levelo_inurba_marseille","lat":43.290103,"lon":5.356114,"is_reserved":false,"is_disabled":false,"rental_uris":{"android":"levelo://app?vid=de3a0466-e365-4dca-a2f4-4e1a19d4afba","ios":"levelo://app?vid=de3a0466-e365-4dca-a2f4-4e1a19d4afba"},"vehicle_type_id":"4","last_reported":1706166437,"current_range_meters":25600,"station_id":"ce4bhb92rcd13ifvqen0","pricing_plan_id":"free"},{"bike_id":"0f1fb6ed-851c-48e8-a746-b97b8e81ce78","system_id":"levelo_inurba_marseille","lat":43.29007,"lon":5.35611,"is_reserved":false,"is_disabled":false,"rental_uris":{"android":"levelo://app?vid=0f1fb6ed-851c-48e8-a746-b97b8e81ce78","ios":"levelo://app?vid=0f1fb6ed-851c-48e8-a746-b97b8e81ce78"},"vehicle_type_id":"4","last_reported":1706166437,"current_range_meters":0,"station_id":"ce4bhb92rcd13ifvqen0","pricing_plan_id":"free"},{"bike_id":"bf78609f-1f09-464e-8bbe-44cc372ebb1f","system_id":"levelo_inurba_marseille","lat":43.29005,"lon":5.35615,"is_reserved":false,"is_disabled":false,"rental_uris":{"android":"levelo://app?vid=bf78609f-1f09-464e-8bbe-44cc372ebb1f","ios":"levelo://app?vid=bf78609f-1f09-464e-8bbe-44cc372ebb1f"},"vehicle_type_id":"4","last_reported":1706166437,"current_range_meters":24400,"station_id":"ce4bhb92rcd13ifvqen0","pricing_plan_id":"free"},{"bike_id":"c52d3386-ce24-480e-94af-1b96102b8984","system_id":"levelo_inurba_marseille","lat":43.29005,"lon":5.35613,"is_reserved":false,"is_disabled":false,"rental_uris":{"android":"levelo://app?vid=c52d3386-ce24-480e-94af-1b96102b8984","ios":"levelo://app?vid=c52d3386-ce24-480e-94af-1b96102b8984"},"vehicle_type_id":"4","last_reported":1706166437,"current_range_meters":24000,"station_id":"ce4bhb92rcd13ifvqen0","pricing_plan_id":"free"},{"bike_id":"f06d97c5-90ff-43e3-b693-c551516dd61e","system_id":"levelo_inurba_marseille","lat":43.29006,"lon":5.35608,"is_reserved":false,"is_disabled":false,"rental_uris":{"android":"levelo://app?vid=f06d97c5-90ff-43e3-b693-c551516dd61e","ios":"levelo://app?vid=f06d97c5-90ff-43e3-b693-c551516dd61e"},"vehicle_type_id":"4","last_reported":1706166437,"current_range_meters":22400,"station_id":"ce4bhb92rcd13ifvqen0","pricing_plan_id":"free"},{"bike_id":"6f14e314-e27c-41c1-8b2e-dc5b0b97d397","system_id":"levelo_inurba_marseille","lat":43.29004,"lon":5.35613,"is_reserved":false,"is_disabled":false,"rental_uris":{"android":"levelo://app?vid=6f14e314-e27c-41c1-8b2e-dc5b0b97d397","ios":"levelo://app?vid=6f14e314-e27c-41c1-8b2e-dc5b0b97d397"},"vehicle_type_id":"4","last_reported":1706166437,"current_range_meters":25200,"station_id":"ce4bhb92rcd13ifvqen0","pricing_plan_id":"free"},{"bike_id":"a8109862-91d6-4cef-b269-754b07f0d004","system_id":"levelo_inurba_marseille","lat":43.29003,"lon":5.35612,"is_reserved":false,"is_disabled":false,"rental_uris":{"android":"levelo://app?vid=a8109862-91d6-4cef-b269-754b07f0d004","ios":"levelo://app?vid=a8109862-91d6-4cef-b269-754b07f0d004"},"vehicle_type_id":"4","last_reported":1706166437,"current_range_meters":28000,"station_id":"ce4bhb92rcd13ifvqen0","pricing_plan_id":"free"},{"bike_id":"e794db63-d036-439e-bee9-7ccaa1093e3a","system_id":"levelo_inurba_marseille","lat":43.29001,"lon":5.35618,"is_reserved":false,"is_disabled":false,"rental_uris":{"android":"levelo://app?vid=e794db63-d036-439e-bee9-7ccaa1093e3a","ios":"levelo://app?vid=e794db63-d036-439e-bee9-7ccaa1093e3a"},"vehicle_type_id":"4","last_reported":1706166437,"current_range_meters":24400,"station_id":"ce4bhb92rcd13ifvqen0","pricing_plan_id":"free"},{"bike_id":"7c22c7ee-cead-458d-9c4a-9160ea344ad5","system_id":"levelo_inurba_marseille","lat":43.29004,"lon":5.35606,"is_reserved":false,"is_disabled":false,"rental_uris":{"android":"levelo://app?vid=7c22c7ee-cead-458d-9c4a-9160ea344ad5","ios":"levelo://app?vid=7c22c7ee-cead-458d-9c4a-9160ea344ad5"},"vehicle_type_id":"4","last_reported":1706166437,"current_range_meters":28400,"station_id":"ce4bhb92rcd13ifvqen0","pricing_plan_id":"free"},{"bike_id":"bada45d3-6b3a-458d-92fd-0025bfc10c5e","system_id":"levelo_inurba_marseille","lat":43.29003,"lon":5.35607,"is_reserved":false,"is_disabled":false,"rental_uris":{"android":"levelo://app?vid=bada45d3-6b3a-458d-92fd-0025bfc10c5e","ios":"levelo://app?vid=bada45d3-6b3a-458d-92fd-0025bfc10c5e"},"vehicle_type_id":"4","last_reported":1706166437,"current_range_meters":20800,"station_id":"ce4bhb92rcd13ifvqen0","pricing_plan_id":"free"},{"bike_id":"a834a987-7a96-4dd6-9e5c-861678a09424","system_id":"levelo_inurba_marseille","lat":43.28998,"lon":5.35609,"is_reserved":false,"is_disabled":false,"rental_uris":{"android":"levelo://app?vid=a834a987-7a96-4dd6-9e5c-861678a09424","ios":"levelo://app?vid=a834a987-7a96-4dd6-9e5c-861678a09424"},"vehicle_type_id":"4","last_reported":1706166437,"current_range_meters":19600,"station_id":"ce4bhb92rcd13ifvqen0","pricing_plan_id":"free"},{"bike_id":"c3509969-e135-47f7-911c-c75a4ef21109","system_id":"levelo_inurba_marseille","lat":43.290995,"lon":5.381361,"is_reserved":false,"is_disabled":false,"rental_uris":{"android":"levelo://app?vid=c3509969-e135-47f7-911c-c75a4ef21109","ios":"levelo://app?vid=c3509969-e135-47f7-911c-c75a4ef21109"},"vehicle_type_id":"4","last_reported":1706166437,"current_range_meters":13600,"station_id":"ce4bh512rcd13ifvqe2g","pricing_plan_id":"free"},{"bike_id":"a390278a-093f-422c-bd82-d8aeb63f0fe5","system_id":"levelo_inurba_marseille","lat":43.289743,"lon":5.378304,"is_reserved":false,"is_disabled":false,"rental_uris":{"android":"levelo://app?vid=a390278a-093f-422c-bd82-d8aeb63f0fe5","ios":"levelo://app?vid=a390278a-093f-422c-bd82-d8aeb63f0fe5"},"vehicle_type_id":"4","last_reported":1706166437,"current_range_meters":12400,"station_id":"ce4bh9p2rcd13ifvqed0","pricing_plan_id":"free"},{"bike_id":"43334567-5851-4273-b804-eaebb42ceae2","system_id":"levelo_inurba_marseille","lat":43.295169,"lon":5.390426,"is_reserved":false,"is_disabled":false,"rental_uris":{"android":"levelo://app?vid=43334567-5851-4273-b804-eaebb42ceae2","ios":"levelo://app?vid=43334567-5851-4273-b804-eaebb42ceae2"},"vehicle_type_id":"4","last_reported":1706166437,"current_range_meters":26400,"station_id":"ce4bh3p2rcd13ifvqdp0","pricing_plan_id":"free"},{"bike_id":"46b58999-041b-4644-bf98-35d9bf412ba7","system_id":"levelo_inurba_marseille","lat":43.289741,"lon":5.378306,"is_reserved":false,"is_disabled":false,"rental_uris":{"android":"levelo://app?vid=46b58999-041b-4644-bf98-35d9bf412ba7","ios":"levelo://app?vid=46b58999-041b-4644-bf98-35d9bf412ba7"},"vehicle_type_id":"4","last_reported":1706166437,"current_range_meters":4000,"station_id":"ce4bh9p2rcd13ifvqed0","pricing_plan_id":"free"},{"bike_id":"bbe62761-d029-4a58-b865-577aecc1db47","system_id":"levelo_inurba_marseille","lat":43.28856,"lon":5.358371,"is_reserved":false,"is_disabled":false,"rental_uris":{"android":"levelo://app?vid=bbe62761-d029-4a58-b865-577aecc1db47","ios":"levelo://app?vid=bbe62761-d029-4a58-b865-577aecc1db47"},"vehicle_type_id":"4","last_reported":1706166437,"current_range_meters":7600,"station_id":"ce4bhb12rcd13ifvqem0","pricing_plan_id":"free"},{"bike_id":"e8df541c-4a9b-43f7-bca6-afa9d4902683","system_id":"levelo_inurba_marseille","lat":43.288605,"lon":5.358275,"is_reserved":false,"is_disabled":false,"rental_uris":{"android":"levelo://app?vid=e8df541c-4a9b-43f7-bca6-afa9d4902683","ios":"levelo://app?vid=e8df541c-4a9b-43f7-bca6-afa9d4902683"},"vehicle_type_id":"4","last_reported":1706166437,"current_range_meters":31200,"station_id":"ce4bhb12rcd13ifvqem0","pricing_plan_id":"free"},{"bike_id":"378b7f83-2666-4542-a37d-80c84a37ff01","system_id":"levelo_inurba_marseille","lat":43.28856,"lon":5.358371,"is_reserved":false,"is_disabled":false,"rental_uris":{"android":"levelo://app?vid=378b7f83-2666-4542-a37d-80c84a37ff01","ios":"levelo://app?vid=378b7f83-2666-4542-a37d-80c84a37ff01"},"vehicle_type_id":"4","last_reported":1706166437,"current_range_meters":31600,"station_id":"ce4bhb12rcd13ifvqem0","pricing_plan_id":"free"},{"bike_id":"a869e38b-c42e-469b-b2b7-9764139d62ea","system_id":"levelo_inurba_marseille","lat":43.28856,"lon":5.358371,"is_reserved":false,"is_disabled":false,"rental_uris":{"android":"levelo://app?vid=a869e38b-c42e-469b-b2b7-9764139d62ea","ios":"levelo://app?vid=a869e38b-c42e-469b-b2b7-9764139d62ea"},"vehicle_type_id":"4","last_reported":1706166437,"current_range_meters":0,"station_id":"ce4bhb12rcd13ifvqem0","pricing_plan_id":"free"},{"bike_id":"53ff162f-ccb3-404c-9a2a-aeccfdc37863","system_id":"levelo_inurba_marseille","lat":43.28856,"lon":5.358371,"is_reserved":false,"is_disabled":false,"rental_uris":{"android":"levelo://app?vid=53ff162f-ccb3-404c-9a2a-aeccfdc37863","ios":"levelo://app?vid=53ff162f-ccb3-404c-9a2a-aeccfdc37863"},"vehicle_type_id":"4","last_reported":1706166437,"current_range_meters":31600,"station_id":"ce4bhb12rcd13ifvqem0","pricing_plan_id":"free"},{"bike_id":"be164b57-1eca-44bd-8464-e8aa5e23e65d","system_id":"levelo_inurba_marseille","lat":43.28856,"lon":5.358371,"is_reserved":false,"is_disabled":false,"rental_uris":{"android":"levelo://app?vid=be164b57-1eca-44bd-8464-e8aa5e23e65d","ios":"levelo://app?vid=be164b57-1eca-44bd-8464-e8aa5e23e65d"},"vehicle_type_id":"4","last_reported":1706166437,"current_range_meters":30400,"station_id":"ce4bhb12rcd13ifvqem0","pricing_plan_id":"free"},{"bike_id":"2fbdbaa6-553c-4d09-a568-05df1ba0add9","system_id":"levelo_inurba_marseille","lat":43.28856,"lon":5.358371,"is_reserved":false,"is_disabled":false,"rental_uris":{"android":"levelo://app?vid=2fbdbaa6-553c-4d09-a568-05df1ba0add9","ios":"levelo://app?vid=2fbdbaa6-553c-4d09-a568-05df1ba0add9"},"vehicle_type_id":"4","last_reported":1706166437,"current_range_meters":29200,"station_id":"ce4bhb12rcd13ifvqem0","pricing_plan_id":"free"},{"bike_id":"f509025c-a003-4a5d-8e29-5e3836946180","system_id":"levelo_inurba_marseille","lat":43.30925,"lon":5.40144,"is_reserved":false,"is_disabled":false,"rental_uris":{"android":"levelo://app?vid=f509025c-a003-4a5d-8e29-5e3836946180","ios":"levelo://app?vid=f509025c-a003-4a5d-8e29-5e3836946180"},"vehicle_type_id":"4","last_reported":1706166437,"current_range_meters":24400,"station_id":"ce4bgvp2rcd13ifvqct0","pricing_plan_id":"free"},{"bike_id":"5bac92f2-539e-4408-9f18-bfdcad36e751","system_id":"levelo_inurba_marseille","lat":43.3093,"lon":5.40146,"is_reserved":false,"is_disabled":false,"rental_uris":{"android":"levelo://app?vid=5bac92f2-539e-4408-9f18-bfdcad36e751","ios":"levelo://app?vid=5bac92f2-539e-4408-9f18-bfdcad36e751"},"vehicle_type_id":"4","last_reported":1706166437,"current_range_meters":31200,"station_id":"ce4bgvp2rcd13ifvqct0","pricing_plan_id":"free"},{"bike_id":"172fadc1-a985-42e3-83c9-abd2ecd0300f","system_id":"levelo_inurba_marseille","lat":43.30642,"lon":5.401031,"is_reserved":false,"is_disabled":false,"rental_uris":{"android":"levelo://app?vid=172fadc1-a985-42e3-83c9-abd2ecd0300f","ios":"levelo://app?vid=172fadc1-a985-42e3-83c9-abd2ecd0300f"},"vehicle_type_id":"4","last_reported":1706166437,"current_range_meters":30800,"station_id":"ce4bh112rcd13ifvqda0","pricing_plan_id":"free"},{"bike_id":"a13b634f-71a5-4865-969a-a7c398abdd72","system_id":"levelo_inurba_marseille","lat":43.30642,"lon":5.401031,"is_reserved":false,"is_disabled":false,"rental_uris":{"android":"levelo://app?vid=a13b634f-71a5-4865-969a-a7c398abdd72","ios":"levelo://app?vid=a13b634f-71a5-4865-969a-a7c398abdd72"},"vehicle_type_id":"4","last_reported":1706166437,"current_range_meters":31200,"station_id":"ce4bh112rcd13ifvqda0","pricing_plan_id":"free"},{"bike_id":"f4062b5a-f4ed-454a-bac5-7e0112aa2594","system_id":"levelo_inurba_marseille","lat":43.301117,"lon":5.398795,"is_reserved":false,"is_disabled":false,"rental_uris":{"android":"levelo://app?vid=f4062b5a-f4ed-454a-bac5-7e0112aa2594","ios":"levelo://app?vid=f4062b5a-f4ed-454a-bac5-7e0112aa2594"},"vehicle_type_id":"4","last_reported":1706166437,"current_range_meters":28400,"station_id":"ce4bh0h2rcd13ifvqd40","pricing_plan_id":"free"},{"bike_id":"50dee26e-34b7-42f3-8b1d-5f49357884cb","system_id":"levelo_inurba_marseille","lat":43.28727,"lon":5.36078,"is_reserved":false,"is_disabled":false,"rental_uris":{"android":"levelo://app?vid=50dee26e-34b7-42f3-8b1d-5f49357884cb","ios":"levelo://app?vid=50dee26e-34b7-42f3-8b1d-5f49357884cb"},"vehicle_type_id":"4","last_reported":1706166437,"current_range_meters":10000,"station_id":"cki0cbj6b192h4jlfktg","pricing_plan_id":"free"},{"bike_id":"58346490-3dbe-42b8-a4f0-7dc15c8d737c","system_id":"levelo_inurba_marseille","lat":43.28727,"lon":5.36078,"is_reserved":false,"is_disabled":false,"rental_uris":{"android":"levelo://app?vid=58346490-3dbe-42b8-a4f0-7dc15c8d737c","ios":"levelo://app?vid=58346490-3dbe-42b8-a4f0-7dc15c8d737c"},"vehicle_type_id":"4","last_reported":1706166437,"current_range_meters":9600,"station_id":"cki0cbj6b192h4jlfktg","pricing_plan_id":"free"},{"bike_id":"7645d48e-56ba-44a2-9a14-388e7db6010e","system_id":"levelo_inurba_marseille","lat":43.28727,"lon":5.36078,"is_reserved":false,"is_disabled":false,"rental_uris":{"android":"levelo://app?vid=7645d48e-56ba-44a2-9a14-388e7db6010e","ios":"levelo://app?vid=7645d48e-56ba-44a2-9a14-388e7db6010e"},"vehicle_type_id":"4","last_reported":1706166437,"current_range_meters":28400,"station_id":"cki0cbj6b192h4jlfktg","pricing_plan_id":"free"},{"bike_id":"b0655fb6-d054-4a75-8d24-ba57051c9940","system_id":"levelo_inurba_marseille","lat":43.30464,"lon":5.400657,"is_reserved":false,"is_disabled":false,"rental_uris":{"android":"levelo://app?vid=b0655fb6-d054-4a75-8d24-ba57051c9940","ios":"levelo://app?vid=b0655fb6-d054-4a75-8d24-ba57051c9940"},"vehicle_type_id":"4","last_reported":1706166437,"current_range_meters":18000,"station_id":"","pricing_plan_id":"free"},{"bike_id":"31342f0a-35b1-47ed-94ab-f06c8a547e41","system_id":"levelo_inurba_marseille","lat":43.301117,"lon":5.398795,"is_reserved":false,"is_disabled":false,"rental_uris":{"android":"levelo://app?vid=31342f0a-35b1-47ed-94ab-f06c8a547e41","ios":"levelo://app?vid=31342f0a-35b1-47ed-94ab-f06c8a547e41"},"vehicle_type_id":"4","last_reported":1706166437,"current_range_meters":30400,"station_id":"ce4bh0h2rcd13ifvqd40","pricing_plan_id":"free"},{"bike_id":"b9109675-893e-4b41-b66a-46ee04f6b257","system_id":"levelo_inurba_marseille","lat":43.28727,"lon":5.36078,"is_reserved":false,"is_disabled":false,"rental_uris":{"android":"levelo://app?vid=b9109675-893e-4b41-b66a-46ee04f6b257","ios":"levelo://app?vid=b9109675-893e-4b41-b66a-46ee04f6b257"},"vehicle_type_id":"4","last_reported":1706166437,"current_range_meters":30800,"station_id":"cki0cbj6b192h4jlfktg","pricing_plan_id":"free"},{"bike_id":"102eefb2-f451-49c5-8b34-9944b31df482","system_id":"levelo_inurba_marseille","lat":43.28727,"lon":5.36078,"is_reserved":false,"is_disabled":false,"rental_uris":{"android":"levelo://app?vid=102eefb2-f451-49c5-8b34-9944b31df482","ios":"levelo://app?vid=102eefb2-f451-49c5-8b34-9944b31df482"},"vehicle_type_id":"4","last_reported":1706166437,"current_range_meters":400,"station_id":"cki0cbj6b192h4jlfktg","pricing_plan_id":"free"},{"bike_id":"8b600344-4d01-490d-b6e3-e8dccc9b04a6","system_id":"levelo_inurba_marseille","lat":43.28712,"lon":5.37385,"is_reserved":false,"is_disabled":false,"rental_uris":{"android":"levelo://app?vid=8b600344-4d01-490d-b6e3-e8dccc9b04a6","ios":"levelo://app?vid=8b600344-4d01-490d-b6e3-e8dccc9b04a6"},"vehicle_type_id":"4","last_reported":1706166437,"current_range_meters":30400,"station_id":"ce4bh3p2rcd13ifvqdq0","pricing_plan_id":"free"},{"bike_id":"8e3fa07b-1682-4b7c-b8e3-8a88979380c0","system_id":"levelo_inurba_marseille","lat":43.287052,"lon":5.373816,"is_reserved":false,"is_disabled":false,"rental_uris":{"android":"levelo://app?vid=8e3fa07b-1682-4b7c-b8e3-8a88979380c0","ios":"levelo://app?vid=8e3fa07b-1682-4b7c-b8e3-8a88979380c0"},"vehicle_type_id":"4","last_reported":1706166437,"current_range_meters":29200,"station_id":"ce4bh3p2rcd13ifvqdq0","pricing_plan_id":"free"},{"bike_id":"30f0b4c7-693e-4916-974e-a7624cbcb5ce","system_id":"levelo_inurba_marseille","lat":43.286591,"lon":5.363346,"is_reserved":false,"is_disabled":false,"rental_uris":{"android":"levelo://app?vid=30f0b4c7-693e-4916-974e-a7624cbcb5ce","ios":"levelo://app?vid=30f0b4c7-693e-4916-974e-a7624cbcb5ce"},"vehicle_type_id":"4","last_reported":1706166437,"current_range_meters":31600,"station_id":"ce4bhah2rcd13ifvqej0","pricing_plan_id":"free"},{"bike_id":"5daf5a1d-04fc-44f2-a747-a030a67c1115","system_id":"levelo_inurba_marseille","lat":43.286591,"lon":5.363346,"is_reserved":false,"is_disabled":false,"rental_uris":{"android":"levelo://app?vid=5daf5a1d-04fc-44f2-a747-a030a67c1115","ios":"levelo://app?vid=5daf5a1d-04fc-44f2-a747-a030a67c1115"},"vehicle_type_id":"4","last_reported":1706166437,"current_range_meters":31200,"station_id":"ce4bhah2rcd13ifvqej0","pricing_plan_id":"free"},{"bike_id":"0dbff94c-4cd3-40dc-b285-84ce7e4cf750","system_id":"levelo_inurba_marseille","lat":43.286961,"lon":5.373785,"is_reserved":false,"is_disabled":false,"rental_uris":{"android":"levelo://app?vid=0dbff94c-4cd3-40dc-b285-84ce7e4cf750","ios":"levelo://app?vid=0dbff94c-4cd3-40dc-b285-84ce7e4cf750"},"vehicle_type_id":"4","last_reported":1706166437,"current_range_meters":25200,"station_id":"ce4bh3p2rcd13ifvqdq0","pricing_plan_id":"free"},{"bike_id":"b0bd9def-62e5-46c0-8a40-07376555d4b4","system_id":"levelo_inurba_marseille","lat":43.28662,"lon":5.36343,"is_reserved":false,"is_disabled":false,"rental_uris":{"android":"levelo://app?vid=b0bd9def-62e5-46c0-8a40-07376555d4b4","ios":"levelo://app?vid=b0bd9def-62e5-46c0-8a40-07376555d4b4"},"vehicle_type_id":"4","last_reported":1706166437,"current_range_meters":29600,"station_id":"ce4bhah2rcd13ifvqej0","pricing_plan_id":"free"},{"bike_id":"4eae3a4d-26a8-4d48-9e66-d18dac9367fe","system_id":"levelo_inurba_marseille","lat":43.289307,"lon":5.38406,"is_reserved":false,"is_disabled":false,"rental_uris":{"android":"levelo://app?vid=4eae3a4d-26a8-4d48-9e66-d18dac9367fe","ios":"levelo://app?vid=4eae3a4d-26a8-4d48-9e66-d18dac9367fe"},"vehicle_type_id":"4","last_reported":1706166437,"current_range_meters":30000,"station_id":"ce4bh612rcd13ifvqe6g","pricing_plan_id":"free"},{"bike_id":"3e05b6ca-552b-49be-a22a-3ac2b4a726ce","system_id":"levelo_inurba_marseille","lat":43.30256,"lon":5.40063,"is_reserved":false,"is_disabled":false,"rental_uris":{"android":"levelo://app?vid=3e05b6ca-552b-49be-a22a-3ac2b4a726ce","ios":"levelo://app?vid=3e05b6ca-552b-49be-a22a-3ac2b4a726ce"},"vehicle_type_id":"4","last_reported":1706166437,"current_range_meters":4400,"station_id":"ce4bgvh2rcd13ifvqcs0","pricing_plan_id":"free"},{"bike_id":"a0d0e467-c749-46a7-a4ea-e5d61094dc98","system_id":"levelo_inurba_marseille","lat":43.302759,"lon":5.400793,"is_reserved":false,"is_disabled":false,"rental_uris":{"android":"levelo://app?vid=a0d0e467-c749-46a7-a4ea-e5d61094dc98","ios":"levelo://app?vid=a0d0e467-c749-46a7-a4ea-e5d61094dc98"},"vehicle_type_id":"4","last_reported":1706166437,"current_range_meters":14000,"station_id":"ce4bgvh2rcd13ifvqcs0","pricing_plan_id":"free"},{"bike_id":"23216013-a07d-45b9-bef6-e02f6c552bea","system_id":"levelo_inurba_marseille","lat":43.302759,"lon":5.400793,"is_reserved":false,"is_disabled":false,"rental_uris":{"android":"levelo://app?vid=23216013-a07d-45b9-bef6-e02f6c552bea","ios":"levelo://app?vid=23216013-a07d-45b9-bef6-e02f6c552bea"},"vehicle_type_id":"4","last_reported":1706166437,"current_range_meters":27600,"station_id":"ce4bgvh2rcd13ifvqcs0","pricing_plan_id":"free"},{"bike_id":"862c149e-cd6e-4b6b-9d57-7cc32d48eca7","system_id":"levelo_inurba_marseille","lat":43.287184,"lon":5.37937,"is_reserved":false,"is_disabled":false,"rental_uris":{"android":"levelo://app?vid=862c149e-cd6e-4b6b-9d57-7cc32d48eca7","ios":"levelo://app?vid=862c149e-cd6e-4b6b-9d57-7cc32d48eca7"},"vehicle_type_id":"4","last_reported":1706166437,"current_range_meters":29200,"station_id":"ce4bh9p2rcd13ifvqec0","pricing_plan_id":"free"},{"bike_id":"607e43be-1fbf-4ae3-a9a0-a8dbb3957049","system_id":"levelo_inurba_marseille","lat":43.287184,"lon":5.37937,"is_reserved":false,"is_disabled":false,"rental_uris":{"android":"levelo://app?vid=607e43be-1fbf-4ae3-a9a0-a8dbb3957049","ios":"levelo://app?vid=607e43be-1fbf-4ae3-a9a0-a8dbb3957049"},"vehicle_type_id":"4","last_reported":1706166437,"current_range_meters":2000,"station_id":"ce4bh9p2rcd13ifvqec0","pricing_plan_id":"free"},{"bike_id":"4fc3bfd7-1624-40f6-af97-3db79cfeac27","system_id":"levelo_inurba_marseille","lat":43.287185,"lon":5.379373,"is_reserved":false,"is_disabled":false,"rental_uris":{"android":"levelo://app?vid=4fc3bfd7-1624-40f6-af97-3db79cfeac27","ios":"levelo://app?vid=4fc3bfd7-1624-40f6-af97-3db79cfeac27"},"vehicle_type_id":"4","last_reported":1706166437,"current_range_meters":18800,"station_id":"ce4bh9p2rcd13ifvqec0","pricing_plan_id":"free"},{"bike_id":"f4cd0096-2c28-48c5-a766-23dd7348d232","system_id":"levelo_inurba_marseille","lat":43.287185,"lon":5.379373,"is_reserved":false,"is_disabled":false,"rental_uris":{"android":"levelo://app?vid=f4cd0096-2c28-48c5-a766-23dd7348d232","ios":"levelo://app?vid=f4cd0096-2c28-48c5-a766-23dd7348d232"},"vehicle_type_id":"4","last_reported":1706166437,"current_range_meters":25200,"station_id":"ce4bh9p2rcd13ifvqec0","pricing_plan_id":"free"},{"bike_id":"aadb5b2c-9d5d-48de-ba3f-d4d7d3e49b74","system_id":"levelo_inurba_marseille","lat":43.287184,"lon":5.37937,"is_reserved":false,"is_disabled":false,"rental_uris":{"android":"levelo://app?vid=aadb5b2c-9d5d-48de-ba3f-d4d7d3e49b74","ios":"levelo://app?vid=aadb5b2c-9d5d-48de-ba3f-d4d7d3e49b74"},"vehicle_type_id":"4","last_reported":1706166437,"current_range_meters":4400,"station_id":"ce4bh9p2rcd13ifvqec0","pricing_plan_id":"free"},{"bike_id":"9d151400-2585-426f-9a7d-d5b329f80bfb","system_id":"levelo_inurba_marseille","lat":43.316946,"lon":5.40454,"is_reserved":false,"is_disabled":false,"rental_uris":{"android":"levelo://app?vid=9d151400-2585-426f-9a7d-d5b329f80bfb","ios":"levelo://app?vid=9d151400-2585-426f-9a7d-d5b329f80bfb"},"vehicle_type_id":"4","last_reported":1706166437,"current_range_meters":25200,"station_id":"ce4bh012rcd13ifvqd00","pricing_plan_id":"free"},{"bike_id":"618e297f-dd58-412d-9d0c-5cb6183979ff","system_id":"levelo_inurba_marseille","lat":43.316905,"lon":5.404666,"is_reserved":false,"is_disabled":false,"rental_uris":{"android":"levelo://app?vid=618e297f-dd58-412d-9d0c-5cb6183979ff","ios":"levelo://app?vid=618e297f-dd58-412d-9d0c-5cb6183979ff"},"vehicle_type_id":"4","last_reported":1706166437,"current_range_meters":4000,"station_id":"ce4bh012rcd13ifvqd00","pricing_plan_id":"free"},{"bike_id":"bd23c709-94db-4021-976c-e91d92286124","system_id":"levelo_inurba_marseille","lat":43.31688,"lon":5.40469,"is_reserved":false,"is_disabled":false,"rental_uris":{"android":"levelo://app?vid=bd23c709-94db-4021-976c-e91d92286124","ios":"levelo://app?vid=bd23c709-94db-4021-976c-e91d92286124"},"vehicle_type_id":"4","last_reported":1706166437,"current_range_meters":22000,"station_id":"ce4bh012rcd13ifvqd00","pricing_plan_id":"free"},{"bike_id":"ecec451f-2f62-4812-823e-24efc7e037f0","system_id":"levelo_inurba_marseille","lat":43.291994,"lon":5.392907,"is_reserved":false,"is_disabled":false,"rental_uris":{"android":"levelo://app?vid=ecec451f-2f62-4812-823e-24efc7e037f0","ios":"levelo://app?vid=ecec451f-2f62-4812-823e-24efc7e037f0"},"vehicle_type_id":"4","last_reported":1706166437,"current_range_meters":28400,"station_id":"ce4bh192rcd13ifvqdd0","pricing_plan_id":"free"},{"bike_id":"02e8fdd0-b375-4392-87be-ee2f1a9baeab","system_id":"levelo_inurba_marseille","lat":43.291994,"lon":5.392907,"is_reserved":false,"is_disabled":false,"rental_uris":{"android":"levelo://app?vid=02e8fdd0-b375-4392-87be-ee2f1a9baeab","ios":"levelo://app?vid=02e8fdd0-b375-4392-87be-ee2f1a9baeab"},"vehicle_type_id":"4","last_reported":1706166437,"current_range_meters":30800,"station_id":"ce4bh192rcd13ifvqdd0","pricing_plan_id":"free"},{"bike_id":"7feee575-0988-48e8-95ad-c02a7bc82613","system_id":"levelo_inurba_marseille","lat":43.291994,"lon":5.392907,"is_reserved":false,"is_disabled":false,"rental_uris":{"android":"levelo://app?vid=7feee575-0988-48e8-95ad-c02a7bc82613","ios":"levelo://app?vid=7feee575-0988-48e8-95ad-c02a7bc82613"},"vehicle_type_id":"4","last_reported":1706166437,"current_range_meters":24400,"station_id":"ce4bh192rcd13ifvqdd0","pricing_plan_id":"free"},{"bike_id":"b7f0a7bb-2388-40fb-aaf6-83236174c3c3","system_id":"levelo_inurba_marseille","lat":43.28463,"lon":5.35897,"is_reserved":false,"is_disabled":false,"rental_uris":{"android":"levelo://app?vid=b7f0a7bb-2388-40fb-aaf6-83236174c3c3","ios":"levelo://app?vid=b7f0a7bb-2388-40fb-aaf6-83236174c3c3"},"vehicle_type_id":"4","last_reported":1706166437,"current_range_meters":30000,"station_id":"ce4bhah2rcd13ifvqei0","pricing_plan_id":"free"},{"bike_id":"edcc1aa9-1d24-494f-bc74-bdce88f7ba8a","system_id":"levelo_inurba_marseille","lat":43.28463,"lon":5.35889,"is_reserved":false,"is_disabled":false,"rental_uris":{"android":"levelo://app?vid=edcc1aa9-1d24-494f-bc74-bdce88f7ba8a","ios":"levelo://app?vid=edcc1aa9-1d24-494f-bc74-bdce88f7ba8a"},"vehicle_type_id":"4","last_reported":1706166437,"current_range_meters":24400,"station_id":"ce4bhah2rcd13ifvqei0","pricing_plan_id":"free"},{"bike_id":"ee817d50-e91c-4382-913c-e76df497f1cf","system_id":"levelo_inurba_marseille","lat":43.284534,"lon":5.358662,"is_reserved":false,"is_disabled":false,"rental_uris":{"android":"levelo://app?vid=ee817d50-e91c-4382-913c-e76df497f1cf","ios":"levelo://app?vid=ee817d50-e91c-4382-913c-e76df497f1cf"},"vehicle_type_id":"4","last_reported":1706166437,"current_range_meters":20800,"station_id":"ce4bhah2rcd13ifvqei0","pricing_plan_id":"free"},{"bike_id":"53eb2a6e-603b-4bb8-83c9-aa769e792912","system_id":"levelo_inurba_marseille","lat":43.284613,"lon":5.358884,"is_reserved":false,"is_disabled":false,"rental_uris":{"android":"levelo://app?vid=53eb2a6e-603b-4bb8-83c9-aa769e792912","ios":"levelo://app?vid=53eb2a6e-603b-4bb8-83c9-aa769e792912"},"vehicle_type_id":"4","last_reported":1706166437,"current_range_meters":21600,"station_id":"ce4bhah2rcd13ifvqei0","pricing_plan_id":"free"},{"bike_id":"45ec31e5-afcd-4e7e-b069-8da343c658a9","system_id":"levelo_inurba_marseille","lat":43.2846,"lon":5.35892,"is_reserved":false,"is_disabled":false,"rental_uris":{"android":"levelo://app?vid=45ec31e5-afcd-4e7e-b069-8da343c658a9","ios":"levelo://app?vid=45ec31e5-afcd-4e7e-b069-8da343c658a9"},"vehicle_type_id":"4","last_reported":1706166437,"current_range_meters":1600,"station_id":"ce4bhah2rcd13ifvqei0","pricing_plan_id":"free"},{"bike_id":"1af514a2-6cc2-4e2e-aa99-c65e11be335e","system_id":"levelo_inurba_marseille","lat":43.28458,"lon":5.35893,"is_reserved":false,"is_disabled":false,"rental_uris":{"android":"levelo://app?vid=1af514a2-6cc2-4e2e-aa99-c65e11be335e","ios":"levelo://app?vid=1af514a2-6cc2-4e2e-aa99-c65e11be335e"},"vehicle_type_id":"4","last_reported":1706166437,"current_range_meters":28400,"station_id":"ce4bhah2rcd13ifvqei0","pricing_plan_id":"free"},{"bike_id":"c4df2dbc-f80f-4b3b-b9ee-0baf7a057780","system_id":"levelo_inurba_marseille","lat":43.284534,"lon":5.358662,"is_reserved":false,"is_disabled":false,"rental_uris":{"android":"levelo://app?vid=c4df2dbc-f80f-4b3b-b9ee-0baf7a057780","ios":"levelo://app?vid=c4df2dbc-f80f-4b3b-b9ee-0baf7a057780"},"vehicle_type_id":"4","last_reported":1706166437,"current_range_meters":31600,"station_id":"ce4bhah2rcd13ifvqei0","pricing_plan_id":"free"},{"bike_id":"633ee731-5ab6-4936-ab28-d58f332b7abc","system_id":"levelo_inurba_marseille","lat":43.28459,"lon":5.358834,"is_reserved":false,"is_disabled":false,"rental_uris":{"android":"levelo://app?vid=633ee731-5ab6-4936-ab28-d58f332b7abc","ios":"levelo://app?vid=633ee731-5ab6-4936-ab28-d58f332b7abc"},"vehicle_type_id":"4","last_reported":1706166437,"current_range_meters":26400,"station_id":"ce4bhah2rcd13ifvqei0","pricing_plan_id":"free"},{"bike_id":"69f8d698-ef72-4227-9b11-6949dcd95b68","system_id":"levelo_inurba_marseille","lat":43.284534,"lon":5.358662,"is_reserved":false,"is_disabled":false,"rental_uris":{"android":"levelo://app?vid=69f8d698-ef72-4227-9b11-6949dcd95b68","ios":"levelo://app?vid=69f8d698-ef72-4227-9b11-6949dcd95b68"},"vehicle_type_id":"4","last_reported":1706166437,"current_range_meters":2800,"station_id":"ce4bhah2rcd13ifvqei0","pricing_plan_id":"free"},{"bike_id":"ca467e09-7f2f-4ef9-95f8-81cd3f0b5a36","system_id":"levelo_inurba_marseille","lat":43.284573,"lon":5.358941,"is_reserved":false,"is_disabled":false,"rental_uris":{"android":"levelo://app?vid=ca467e09-7f2f-4ef9-95f8-81cd3f0b5a36","ios":"levelo://app?vid=ca467e09-7f2f-4ef9-95f8-81cd3f0b5a36"},"vehicle_type_id":"4","last_reported":1706166437,"current_range_meters":17600,"station_id":"ce4bhah2rcd13ifvqei0","pricing_plan_id":"free"},{"bike_id":"52e1102f-fc57-4d55-b9a3-2b470160f51e","system_id":"levelo_inurba_marseille","lat":43.28457,"lon":5.35888,"is_reserved":false,"is_disabled":false,"rental_uris":{"android":"levelo://app?vid=52e1102f-fc57-4d55-b9a3-2b470160f51e","ios":"levelo://app?vid=52e1102f-fc57-4d55-b9a3-2b470160f51e"},"vehicle_type_id":"4","last_reported":1706166437,"current_range_meters":6000,"station_id":"ce4bhah2rcd13ifvqei0","pricing_plan_id":"free"},{"bike_id":"c1e4f293-7f37-4b70-9b1c-790fa625efe1","system_id":"levelo_inurba_marseille","lat":43.284558,"lon":5.358901,"is_reserved":false,"is_disabled":false,"rental_uris":{"android":"levelo://app?vid=c1e4f293-7f37-4b70-9b1c-790fa625efe1","ios":"levelo://app?vid=c1e4f293-7f37-4b70-9b1c-790fa625efe1"},"vehicle_type_id":"4","last_reported":1706166437,"current_range_meters":16800,"station_id":"ce4bhah2rcd13ifvqei0","pricing_plan_id":"free"},{"bike_id":"4f98b82e-dfba-4f81-9ba7-2b548ddd8de8","system_id":"levelo_inurba_marseille","lat":43.284553,"lon":5.358928,"is_reserved":false,"is_disabled":false,"rental_uris":{"android":"levelo://app?vid=4f98b82e-dfba-4f81-9ba7-2b548ddd8de8","ios":"levelo://app?vid=4f98b82e-dfba-4f81-9ba7-2b548ddd8de8"},"vehicle_type_id":"4","last_reported":1706166437,"current_range_meters":30800,"station_id":"ce4bhah2rcd13ifvqei0","pricing_plan_id":"free"},{"bike_id":"a087fe4a-8cc2-4f12-9bfa-2f791508b968","system_id":"levelo_inurba_marseille","lat":43.284534,"lon":5.358662,"is_reserved":false,"is_disabled":false,"rental_uris":{"android":"levelo://app?vid=a087fe4a-8cc2-4f12-9bfa-2f791508b968","ios":"levelo://app?vid=a087fe4a-8cc2-4f12-9bfa-2f791508b968"},"vehicle_type_id":"4","last_reported":1706166437,"current_range_meters":2400,"station_id":"ce4bhah2rcd13ifvqei0","pricing_plan_id":"free"},{"bike_id":"9509fd30-e325-4103-b2f0-c3c960179e5c","system_id":"levelo_inurba_marseille","lat":43.284534,"lon":5.358662,"is_reserved":false,"is_disabled":false,"rental_uris":{"android":"levelo://app?vid=9509fd30-e325-4103-b2f0-c3c960179e5c","ios":"levelo://app?vid=9509fd30-e325-4103-b2f0-c3c960179e5c"},"vehicle_type_id":"4","last_reported":1706166437,"current_range_meters":31200,"station_id":"ce4bhah2rcd13ifvqei0","pricing_plan_id":"free"},