{"last_updated":1717524649,"ttl":30,"version":"2.2","data":{"bikes":[{"bike_id":"54b694b0-a449-402c-9803-5d5d2a8edb10","system_id":"levelo_inurba_marseille","lat":43.312239,"lon":5.368562,"is_reserved":false,"is_disabled":false,"rental_uris":{"android":"levelo://app?vid=54b694b0-a449-402c-9803-5d5d2a8edb10","ios":"levelo://app?vid=54b694b0-a449-402c-9803-5d5d2a8edb10"},"vehicle_type_id":"4","last_reported":1717524649,"current_range_meters":1200,"station_id":"ce4bgl92rcd13ifvqbq0","pricing_plan_id":"cebpf4jnsgd1na2vs0mg"},{"bike_id":"ff52c592-26a8-4492-b9b5-8bb4593266fc","system_id":"levelo_inurba_marseille","lat":43.312239,"lon":5.368562,"is_reserved":false,"is_disabled":false,"rental_uris":{"android":"levelo://app?vid=ff52c592-26a8-4492-b9b5-8bb4593266fc","ios":"levelo://app?vid=ff52c592-26a8-4492-b9b5-8bb4593266fc"},"vehicle_type_id":"4","last_reported":1717524649,"current_range_meters":16400,"station_id":"ce4bgl92rcd13ifvqbq0","pricing_plan_id":"cebpf4jnsgd1na2vs0mg"},{"bike_id":"4849a2e9-2a76-4a22-a294-7058840cdefb","system_id":"levelo_inurba_marseille","lat":43.312239,"lon":5.368562,"is_reserved":false,"is_disabled":false,"rental_uris":{"android":"levelo://app?vid=4849a2e9-2a76-4a22-a294-7058840cdefb","ios":"levelo://app?vid=4849a2e9-2a76-4a22-a294-7058840cdefb"},"vehicle_type_id":"4","last_reported":1717524649,"current_range_meters":0,"station_id":"ce4bgl92rcd13ifvqbq0","pricing_plan_id":"cebpf4jnsgd1na2vs0mg"},{"bike_id":"fbb0fff8-956d-46b3-b30d-0bf14d039beb","system_id":"levelo_inurba_marseille","lat":43.314811,"lon":5.373103,"is_reserved":false,"is_disabled":false,"rental_uris":{"android":"levelo://app?vid=fbb0fff8-956d-46b3-b30d-0bf14d039beb","ios":"levelo://app?vid=fbb0fff8-956d-46b3-b30d-0bf14d039beb"},"vehicle_type_id":"4","last_reported":1717524649,"current_range_meters":0,"station_id":"ce4bgt12rcd13ifvqcd0","pricing_plan_id":"cebpf4jnsgd1na2vs0mg"},{"bike_id":"a3791359-038b-4a8a-b0a3-33a33687dda4","system_id":"levelo_inurba_marseille","lat":43.314811,"lon":5.373104,"is_reserved":false,"is_disabled":false,"rental_uris":{"android":"levelo://app?vid=a3791359-038b-4a8a-b0a3-33a33687dda4","ios":"levelo://app?vid=a3791359-038b-4a8a-b0a3-33a33687dda4"},"vehicle_type_id":"4","last_reported":1717524649,"current_range_meters":2000,"station_id":"ce4bgt12rcd13ifvqcd0","pricing_plan_id":"cebpf4jnsgd1na2vs0mg"},{"bike_id":"fb5fb84e-e82e-4950-8639-8c2dac2b0d30","system_id":"levelo_inurba_marseille","lat":43.309034,"lon":5.371783,"is_reserved":false,"is_disabled":false,"rental_uris":{"android":"levelo://app?vid=fb5fb84e-e82e-4950-8639-8c2dac2b0d30","ios":"levelo://app?vid=fb5fb84e-e82e-4950-8639-8c2dac2b0d30"},"vehicle_type_id":"4","last_reported":1717524649,"current_range_meters":23200,"station_id":"ce4bguh2rcd13ifvqckg","pricing_plan_id":"cebpf4jnsgd1na2vs0mg"},{"bike_id":"618f5471-2803-41a6-b95f-08dbc13db155","system_id":"levelo_inurba_marseille","lat":43.30537,"lon":5.367345,"is_reserved":false,"is_disabled":false,"rental_uris":{"android":"levelo://app?vid=618f5471-2803-41a6-b95f-08dbc13db155","ios":"levelo://app?vid=618f5471-2803-41a6-b95f-08dbc13db155"},"vehicle_type_id":"4","last_reported":1717524649,"current_range_meters":0,"station_id":"ce4bgrp2rcd13ifvqc9g","pricing_plan_id":"cebpf4jnsgd1na2vs0mg"},{"bike_id":"a0b3bffe-24f0-4d55-88c8-ad543a3807df","system_id":"levelo_inurba_marseille","lat":43.305989,"lon":5.37225,"is_reserved":false,"is_disabled":false,"rental_uris":{"android":"levelo://app?vid=a0b3bffe-24f0-4d55-88c8-ad543a3807df","ios":"levelo://app?vid=a0b3bffe-24f0-4d55-88c8-ad543a3807df"},"vehicle_type_id":"4","last_reported":1717524649,"current_range_meters":12000,"station_id":"ce4bgqh2rcd13ifvqc4g","pricing_plan_id":"cebpf4jnsgd1na2vs0mg"},{"bike_id":"00c23ba8-230b-4c30-afaa-49456e0f7189","system_id":"levelo_inurba_marseille","lat":43.305989,"lon":5.37225,"is_reserved":false,"is_disabled":false,"rental_uris":{"android":"levelo://app?vid=00c23ba8-230b-4c30-afaa-49456e0f7189","ios":"levelo://app?vid=00c23ba8-230b-4c30-afaa-49456e0f7189"},"vehicle_type_id":"4","last_reported":1717524649,"current_range_meters":3600,"station_id":"ce4bgqh2rcd13ifvqc4g","pricing_plan_id":"cebpf4jnsgd1na2vs0mg"},{"bike_id":"03fdd8fc-817a-4f56-839b-e5846b2e89bb","system_id":"levelo_inurba_marseille","lat":43.305989,"lon":5.37225,"is_reserved":false,"is_disabled":false,"rental_uris":{"android":"levelo://app?vid=03fdd8fc-817a-4f56-839b-e5846b2e89bb","ios":"levelo://app?vid=03fdd8fc-817a-4f56-839b-e5846b2e89bb"},"vehicle_type_id":"4","last_reported":1717524649,"current_range_meters":1600,"station_id":"ce4bgqh2rcd13ifvqc4g","pricing_plan_id":"cebpf4jnsgd1na2vs0mg"},{"bike_id":"3f0b9396-c30f-47cf-964a-d73c342e8122","system_id":"levelo_inurba_marseille","lat":43.305989,"lon":5.37225,"is_reserved":false,"is_disabled":false,"rental_uris":{"android":"levelo://app?vid=3f0b9396-c30f-47cf-964a-d73c342e8122","ios":"levelo://app?vid=3f0b9396-c30f-47cf-964a-d73c342e8122"},"vehicle_type_id":"4","last_reported":1717524649,"current_range_meters":4800,"station_id":"ce4bgqh2rcd13ifvqc4g","pricing_plan_id":"cebpf4jnsgd1na2vs0mg"},{"bike_id":"3aa79274-3212-4023-b306-da2cdb7e2975","system_id":"levelo_inurba_marseille","lat":43.307945,"lon":5.376487,"is_reserved":false,"is_disabled":false,"rental_uris":{"android":"levelo://app?vid=3aa79274-3212-4023-b306-da2cdb7e2975","ios":"levelo://app?vid=3aa79274-3212-4023-b306-da2cdb7e2975"},"vehicle_type_id":"4","last_reported":1717524649,"current_range_meters":12800,"station_id":"ce4bgv92rcd13ifvqcq0","pricing_plan_id":"cebpf4jnsgd1na2vs0mg"},{"bike_id":"c6ad30ce-3cee-43c2-9f6c-d6f56f5888d3","system_id":"levelo_inurba_marseille","lat":43.317075,"lon":5.377367,"is_reserved":false,"is_disabled":false,"rental_uris":{"android":"levelo://app?vid=c6ad30ce-3cee-43c2-9f6c-d6f56f5888d3","ios":"levelo://app?vid=c6ad30ce-3cee-43c2-9f6c-d6f56f5888d3"},"vehicle_type_id":"4","last_reported":1717524649,"current_range_meters":3200,"station_id":"ce4bgth2rcd13ifvqch0","pricing_plan_id":"cebpf4jnsgd1na2vs0mg"},{"bike_id":"5401ff84-06c4-4c94-b76e-411da2f5ffe9","system_id":"levelo_inurba_marseille","lat":43.321376,"lon":5.371374,"is_reserved":false,"is_disabled":false,"rental_uris":{"android":"levelo://app?vid=5401ff84-06c4-4c94-b76e-411da2f5ffe9","ios":"levelo://app?vid=5401ff84-06c4-4c94-b76e-411da2f5ffe9"},"vehicle_type_id":"4","last_reported":1717524649,"current_range_meters":10800,"station_id":"","pricing_plan_id":"cebpf4jnsgd1na2vs0mg"},{"bike_id":"26e732d7-4cff-4265-a08d-cbb5ede10cc0","system_id":"levelo_inurba_marseille","lat":43.303046,"lon":5.368981,"is_reserved":false,"is_disabled":false,"rental_uris":{"android":"levelo://app?vid=26e732d7-4cff-4265-a08d-cbb5ede10cc0","ios":"levelo://app?vid=26e732d7-4cff-4265-a08d-cbb5ede10cc0"},"vehicle_type_id":"4","last_reported":1717524649,"current_range_meters":0,"station_id":"ce4bgqh2rcd13ifvqc5g","pricing_plan_id":"cebpf4jnsgd1na2vs0mg"},{"bike_id":"c119af97-54a6-4079-97a8-15d8ea1d7361","system_id":"levelo_inurba_marseille","lat":43.303046,"lon":5.368981,"is_reserved":false,"is_disabled":false,"rental_uris":{"android":"levelo://app?vid=c119af97-54a6-4079-97a8-15d8ea1d7361","ios":"levelo://app?vid=c119af97-54a6-4079-97a8-15d8ea1d7361"},"vehicle_type_id":"4","last_reported":1717524649,"current_range_meters":7200,"station_id":"ce4bgqh2rcd13ifvqc5g","pricing_plan_id":"cebpf4jnsgd1na2vs0mg"},{"bike_id":"08809f29-0bf1-48d0-8036-de46975a6f22","system_id":"levelo_inurba_marseille","lat":43.315342,"lon":5.380341,"is_reserved":false,"is_disabled":false,"rental_uris":{"android":"levelo://app?vid=08809f29-0bf1-48d0-8036-de46975a6f22","ios":"levelo://app?vid=08809f29-0bf1-48d0-8036-de46975a6f22"},"vehicle_type_id":"4","last_reported":1717524649,"current_range_meters":0,"station_id":"ce4bhsp2rcd13ifvqi50","pricing_plan_id":"cebpf4jnsgd1na2vs0mg"},{"bike_id":"cd2142bd-bf5b-45e4-89c7-11c062c5db3a","system_id":"levelo_inurba_marseille","lat":43.301939,"lon":5.366286,"is_reserved":false,"is_disabled":false,"rental_uris":{"android":"levelo://app?vid=cd2142bd-bf5b-45e4-89c7-11c062c5db3a","ios":"levelo://app?vid=cd2142bd-bf5b-45e4-89c7-11c062c5db3a"},"vehicle_type_id":"4","last_reported":1717524649,"current_range_meters":9600,"station_id":"ce4bgrh2rcd13ifvqc8g","pricing_plan_id":"cebpf4jnsgd1na2vs0mg"},{"bike_id":"22f13f02-3bf9-4419-9020-6eb9dc3c9fd2","system_id":"levelo_inurba_marseille","lat":43.301939,"lon":5.366286,"is_reserved":false,"is_disabled":false,"rental_uris":{"android":"levelo://app?vid=22f13f02-3bf9-4419-9020-6eb9dc3c9fd2","ios":"levelo://app?vid=22f13f02-3bf9-4419-9020-6eb9dc3c9fd2"},"vehicle_type_id":"4","last_reported":1717524649,"current_range_meters":14400,"station_id":"ce4bgrh2rcd13ifvqc8g","pricing_plan_id":"cebpf4jnsgd1na2vs0mg"},{"bike_id":"0bfa5ed5-be5b-40b2-bd6f-595057ec6469","system_id":"levelo_inurba_marseille","lat":43.322872,"lon":5.382756,"is_reserved":false,"is_disabled":false,"rental_uris":{"android":"levelo://app?vid=0bfa5ed5-be5b-40b2-bd6f-595057ec6469","ios":"levelo://app?vid=0bfa5ed5-be5b-40b2-bd6f-595057ec6469"},"vehicle_type_id":"4","last_reported":1717524649,"current_range_meters":5200,"station_id":"ce4bhr12rcd13ifvqhqg","pricing_plan_id":"cebpf4jnsgd1na2vs0mg"},{"bike_id":"0ded590f-b708-438f-911c-95631c553f8a","system_id":"levelo_inurba_marseille","lat":43.308012,"lon":5.381511,"is_reserved":false,"is_disabled":false,"rental_uris":{"android":"levelo://app?vid=0ded590f-b708-438f-911c-95631c553f8a","ios":"levelo://app?vid=0ded590f-b708-438f-911c-95631c553f8a"},"vehicle_type_id":"4","last_reported":1717524649,"current_range_meters":11200,"station_id":"ce4bgt12rcd13ifvqce0","pricing_plan_id":"cebpf4jnsgd1na2vs0mg"},{"bike_id":"2cc9c1ef-c0cc-4a3d-a541-8015482828d1","system_id":"levelo_inurba_marseille","lat":43.304606,"lon":5.379026,"is_reserved":false,"is_disabled":false,"rental_uris":{"android":"levelo://app?vid=2cc9c1ef-c0cc-4a3d-a541-8015482828d1","ios":"levelo://app?vid=2cc9c1ef-c0cc-4a3d-a541-8015482828d1"},"vehicle_type_id":"4","last_reported":1717524649,"current_range_meters":2400,"station_id":"ce4bgup2rcd13ifvqcn0","pricing_plan_id":"cebpf4jnsgd1na2vs0mg"},{"bike_id":"1b5ae2ba-5305-43b6-9afb-7f302ff2c633","system_id":"levelo_inurba_marseille","lat":43.324771,"lon":5.36557,"is_reserved":false,"is_disabled":false,"rental_uris":{"android":"levelo://app?vid=1b5ae2ba-5305-43b6-9afb-7f302ff2c633","ios":"levelo://app?vid=1b5ae2ba-5305-43b6-9afb-7f302ff2c633"},"vehicle_type_id":"4","last_reported":1717524649,"current_range_meters":13200,"station_id":"ce4bhs12rcd13ifvqhvg","pricing_plan_id":"cebpf4jnsgd1na2vs0mg"},{"bike_id":"1a48df33-b22c-4419-94b8-72d016575dc1","system_id":"levelo_inurba_marseille","lat":43.324864,"lon":5.365744,"is_reserved":false,"is_disabled":false,"rental_uris":{"android":"levelo://app?vid=1a48df33-b22c-4419-94b8-72d016575dc1","ios":"levelo://app?vid=1a48df33-b22c-4419-94b8-72d016575dc1"},"vehicle_type_id":"4","last_reported":1717524649,"current_range_meters":0,"station_id":"ce4bhs12rcd13ifvqhvg","pricing_plan_id":"cebpf4jnsgd1na2vs0mg"},{"bike_id":"92e1deed-3c96-44e2-844f-59bd781fffad","system_id":"levelo_inurba_marseille","lat":43.324771,"lon":5.36557,"is_reserved":false,"is_disabled":false,"rental_uris":{"android":"levelo://app?vid=92e1deed-3c96-44e2-844f-59bd781fffad","ios":"levelo://app?vid=92e1deed-3c96-44e2-844f-59bd781fffad"},"vehicle_type_id":"4","last_reported":1717524649,"current_range_meters":0,"station_id":"ce4bhs12rcd13ifvqhvg","pricing_plan_id":"cebpf4jnsgd1na2vs0mg"},{"bike_id":"c06e82ac-c6dc-4e34-bc1c-abcd2a19c14a","system_id":"levelo_inurba_marseille","lat":43.310734,"lon":5.38353,"is_reserved":false,"is_disabled":false,"rental_uris":{"android":"levelo://app?vid=c06e82ac-c6dc-4e34-bc1c-abcd2a19c14a","ios":"levelo://app?vid=c06e82ac-c6dc-4e34-bc1c-abcd2a19c14a"},"vehicle_type_id":"4","last_reported":1717524649,"current_range_meters":0,"station_id":"ce4bgv92rcd13ifvqcr0","pricing_plan_id":"cebpf4jnsgd1na2vs0mg"},{"bike_id":"b1843842-0906-460d-aeff-46b15b554d59","system_id":"levelo_inurba_marseille","lat":43.310804,"lon":5.38359,"is_reserved":false,"is_disabled":false,"rental_uris":{"android":"levelo://app?vid=b1843842-0906-460d-aeff-46b15b554d59","ios":"levelo://app?vid=b1843842-0906-460d-aeff-46b15b554d59"},"vehicle_type_id":"4","last_reported":1717524649,"current_range_meters":13600,"station_id":"ce4bgv92rcd13ifvqcr0","pricing_plan_id":"cebpf4jnsgd1na2vs0mg"},{"bike_id":"fc632096-fd85-47ec-9673-823e6be54d78","system_id":"levelo_inurba_marseille","lat":43.310804,"lon":5.38359,"is_reserved":false,"is_disabled":false,"rental_uris":{"android":"levelo://app?vid=fc632096-fd85-47ec-9673-823e6be54d78","ios":"levelo://app?vid=fc632096-fd85-47ec-9673-823e6be54d78"},"vehicle_type_id":"4","last_reported":1717524649,"current_range_meters":0,"station_id":"ce4bgv92rcd13ifvqcr0","pricing_plan_id":"cebpf4jnsgd1na2vs0mg"},{"bike_id":"0de36e3d-89d6-428f-a00b-30b749a5bf5c","system_id":"levelo_inurba_marseille","lat":43.30055,"lon":5.372194,"is_reserved":false,"is_disabled":false,"rental_uris":{"android":"levelo://app?vid=0de36e3d-89d6-428f-a00b-30b749a5bf5c","ios":"levelo://app?vid=0de36e3d-89d6-428f-a00b-30b749a5bf5c"},"vehicle_type_id":"4","last_reported":1717524649,"current_range_meters":15600,"station_id":"","pricing_plan_id":"cebpf4jnsgd1na2vs0mg"},{"bike_id":"ef064d45-e9a3-440f-81e3-2b1bbb56d9e6","system_id":"levelo_inurba_marseille","lat":43.319935,"lon":5.381699,"is_reserved":false,"is_disabled":false,"rental_uris":{"android":"levelo://app?vid=ef064d45-e9a3-440f-81e3-2b1bbb56d9e6","ios":"levelo://app?vid=ef064d45-e9a3-440f-81e3-2b1bbb56d9e6"},"vehicle_type_id":"4","last_reported":1717524649,"current_range_meters":1200,"station_id":"ce4bhr12rcd13ifvqhpg","pricing_plan_id":"cebpf4jnsgd1na2vs0mg"},{"bike_id":"816bf89a-24c7-4580-a48b-7cd2170fe034","system_id":"levelo_inurba_marseille","lat":43.319935,"lon":5.381699,"is_reserved":false,"is_disabled":false,"rental_uris":{"android":"levelo://app?vid=816bf89a-24c7-4580-a48b-7cd2170fe034","ios":"levelo://app?vid=816bf89a-24c7-4580-a48b-7cd2170fe034"},"vehicle_type_id":"4","last_reported":1717524649,"current_range_meters":3200,"station_id":"ce4bhr12rcd13ifvqhpg","pricing_plan_id":"cebpf4jnsgd1na2vs0mg"},{"bike_id":"2d17fa2e-55cb-40df-8eed-88ca99ae2dd3","system_id":"levelo_inurba_marseille","lat":43.319935,"lon":5.381699,"is_reserved":false,"is_disabled":false,"rental_uris":{"android":"levelo://app?vid=2d17fa2e-55cb-40df-8eed-88ca99ae2dd3","ios":"levelo://app?vid=2d17fa2e-55cb-40df-8eed-88ca99ae2dd3"},"vehicle_type_id":"4","last_reported":1717524649,"current_range_meters":0,"station_id":"ce4bhr12rcd13ifvqhpg","pricing_plan_id":"cebpf4jnsgd1na2vs0mg"},{"bike_id":"0acc1f92-28fd-4bdf-8149-41d9082822be","system_id":"levelo_inurba_marseille","lat":43.313571,"lon":5.384829,"is_reserved":false,"is_disabled":false,"rental_uris":{"android":"levelo://app?vid=0acc1f92-28fd-4bdf-8149-41d9082822be","ios":"levelo://app?vid=0acc1f92-28fd-4bdf-8149-41d9082822be"},"vehicle_type_id":"4","last_reported":1717524649,"current_range_meters":6400,"station_id":"ce4bgt92rcd13ifvqcf0","pricing_plan_id":"cebpf4jnsgd1na2vs0mg"},{"bike_id":"494e4e6d-2f1b-4b76-899e-5e9095861b97","system_id":"levelo_inurba_marseille","lat":43.313571,"lon":5.384829,"is_reserved":false,"is_disabled":false,"rental_uris":{"android":"levelo://app?vid=494e4e6d-2f1b-4b76-899e-5e9095861b97","ios":"levelo://app?vid=494e4e6d-2f1b-4b76-899e-5e9095861b97"},"vehicle_type_id":"4","last_reported":1717524649,"current_range_meters":8400,"station_id":"ce4bgt92rcd13ifvqcf0","pricing_plan_id":"cebpf4jnsgd1na2vs0mg"},{"bike_id":"1280eb24-e1ee-42be-ba23-9dfa81f335c2","system_id":"levelo_inurba_marseille","lat":43.305364,"lon":5.384119,"is_reserved":false,"is_disabled":false,"rental_uris":{"android":"levelo://app?vid=1280eb24-e1ee-42be-ba23-9dfa81f335c2","ios":"levelo://app?vid=1280eb24-e1ee-42be-ba23-9dfa81f335c2"},"vehicle_type_id":"4","last_reported":1717524649,"current_range_meters":7600,"station_id":"ce4bgg92rcd13ifvqb30","pricing_plan_id":"cebpf4jnsgd1na2vs0mg"},{"bike_id":"97c24c12-05a1-47ab-8a07-fb30781808f7","system_id":"levelo_inurba_marseille","lat":43.29849,"lon":5.36281,"is_reserved":false,"is_disabled":false,"rental_uris":{"android":"levelo://app?vid=97c24c12-05a1-47ab-8a07-fb30781808f7","ios":"levelo://app?vid=97c24c12-05a1-47ab-8a07-fb30781808f7"},"vehicle_type_id":"4","last_reported":1717524649,"current_range_meters":0,"station_id":"ce4bgpp2rcd13ifvqc3g","pricing_plan_id":"cebpf4jnsgd1na2vs0mg"},{"bike_id":"7c0279c4-785e-41cc-9875-11b1aa5697b0","system_id":"levelo_inurba_marseille","lat":43.298433,"lon":5.362774,"is_reserved":false,"is_disabled":false,"rental_uris":{"android":"levelo://app?vid=7c0279c4-785e-41cc-9875-11b1aa5697b0","ios":"levelo://app?vid=7c0279c4-785e-41cc-9875-11b1aa5697b0"},"vehicle_type_id":"4","last_reported":1717524649,"current_range_meters":28800,"station_id":"ce4bgpp2rcd13ifvqc3g","pricing_plan_id":"cebpf4jnsgd1na2vs0mg"},{"bike_id":"68bff547-3fff-4a4f-8c69-af9f88633e6d","system_id":"levelo_inurba_marseille","lat":43.299167,"lon":5.37467,"is_reserved":false,"is_disabled":false,"rental_uris":{"android":"levelo://app?vid=68bff547-3fff-4a4f-8c69-af9f88633e6d","ios":"levelo://app?vid=68bff547-3fff-4a4f-8c69-af9f88633e6d"},"vehicle_type_id":"4","last_reported":1717524649,"current_range_meters":0,"station_id":"ce4bgjh2rcd13ifvqbg0","pricing_plan_id":"cebpf4jnsgd1na2vs0mg"},{"bike_id":"b18d198a-e722-4d5e-93f8-e7cffa94ee52","system_id":"levelo_inurba_marseille","lat":43.299243,"lon":5.374807,"is_reserved":false,"is_disabled":false,"rental_uris":{"android":"levelo://app?vid=b18d198a-e722-4d5e-93f8-e7cffa94ee52","ios":"levelo://app?vid=b18d198a-e722-4d5e-93f8-e7cffa94ee52"},"vehicle_type_id":"4","last_reported":1717524649,"current_range_meters":21200,"station_id":"ce4bgjh2rcd13ifvqbg0","pricing_plan_id":"cebpf4jnsgd1na2vs0mg"},{"bike_id":"015a39fb-c887-4874-b3e5-f60e2bc39e3c","system_id":"levelo_inurba_marseille","lat":43.311722,"lon":5.387247,"is_reserved":false,"is_disabled":false,"rental_uris":{"android":"levelo://app?vid=015a39fb-c887-4874-b3e5-f60e2bc39e3c","ios":"levelo://app?vid=015a39fb-c887-4874-b3e5-f60e2bc39e3c"},"vehicle_type_id":"4","last_reported":1717524649,"current_range_meters":4400,"station_id":"ce4bgv12rcd13ifvqcp0","pricing_plan_id":"cebpf4jnsgd1na2vs0mg"},{"bike_id":"009c68a3-03f7-40dc-ba43-197ed62ee38b","system_id":"levelo_inurba_marseille","lat":43.297818,"lon":5.37088,"is_reserved":false,"is_disabled":false,"rental_uris":{"android":"levelo://app?vid=009c68a3-03f7-40dc-ba43-197ed62ee38b","ios":"levelo://app?vid=009c68a3-03f7-40dc-ba43-197ed62ee38b"},"vehicle_type_id":"4","last_reported":1717524649,"current_range_meters":0,"station_id":"ce4bgop2rcd13ifvqc1g","pricing_plan_id":"cebpf4jnsgd1na2vs0mg"},{"bike_id":"3789c448-f5e2-4da5-97d3-b215c4922d3f","system_id":"levelo_inurba_marseille","lat":43.322872,"lon":5.382756,"is_reserved":false,"is_disabled":false,"rental_uris":{"android":"levelo://app?vid=3789c448-f5e2-4da5-97d3-b215c4922d3f","ios":"levelo://app?vid=3789c448-f5e2-4da5-97d3-b215c4922d3f"},"vehicle_type_id":"4","last_reported":1717524649,"current_range_meters":22800,"station_id":"ce4bhr12rcd13ifvqhqg","pricing_plan_id":"cebpf4jnsgd1na2vs0mg"},{"bike_id":"06e2d2f3-481f-405f-892b-a600e28871b6","system_id":"levelo_inurba_marseille","lat":43.322872,"lon":5.382756,"is_reserved":false,"is_disabled":false,"rental_uris":{"android":"levelo://app?vid=06e2d2f3-481f-405f-892b-a600e28871b6","ios":"levelo://app?vid=06e2d2f3-481f-405f-892b-a600e28871b6"},"vehicle_type_id":"4","last_reported":1717524649,"current_range_meters":9200,"station_id":"ce4bhr12rcd13ifvqhqg","pricing_plan_id":"cebpf4jnsgd1na2vs0mg"},{"bike_id":"c1f69bca-9c85-44fb-97e8-6680022d8d18","system_id":"levelo_inurba_marseille","lat":43.29706,"lon":5.365998,"is_reserved":false,"is_disabled":false,"rental_uris":{"android":"levelo://app?vid=c1f69bca-9c85-44fb-97e8-6680022d8d18","ios":"levelo://app?vid=c1f69bca-9c85-44fb-97e8-6680022d8d18"},"vehicle_type_id":"4","last_reported":1717524649,"current_range_meters":0,"station_id":"ce4bgn12rcd13ifvqbt0","pricing_plan_id":"cebpf4jnsgd1na2vs0mg"},{"bike_id":"a82397b5-af7f-42d9-93fd-8cc0f35766ad","system_id":"levelo_inurba_marseille","lat":43.296131,"lon":5.370773,"is_reserved":false,"is_disabled":false,"rental_uris":{"android":"levelo://app?vid=a82397b5-af7f-42d9-93fd-8cc0f35766ad","ios":"levelo://app?vid=a82397b5-af7f-42d9-93fd-8cc0f35766ad"},"vehicle_type_id":"4","last_reported":1717524649,"current_range_meters":9200,"station_id":"ce4bgnh2rcd13ifvqc0g","pricing_plan_id":"cebpf4jnsgd1na2vs0mg"},{"bike_id":"48395f4f-f7c3-40fd-a565-e2bc5c6661a9","system_id":"levelo_inurba_marseille","lat":43.296131,"lon":5.370791,"is_reserved":false,"is_disabled":false,"rental_uris":{"android":"levelo://app?vid=48395f4f-f7c3-40fd-a565-e2bc5c6661a9","ios":"levelo://app?vid=48395f4f-f7c3-40fd-a565-e2bc5c6661a9"},"vehicle_type_id":"4","last_reported":1717524649,"current_range_meters":9200,"station_id":"ce4bgnh2rcd13ifvqc0g","pricing_plan_id":"cebpf4jnsgd1na2vs0mg"},{"bike_id":"c2ec12af-5ba9-413a-84a8-b5c1ab4ea72f","system_id":"levelo_inurba_marseille","lat":43.29575,"lon":5.36742,"is_reserved":false,"is_disabled":false,"rental_uris":{"android":"levelo://app?vid=c2ec12af-5ba9-413a-84a8-b5c1ab4ea72f","ios":"levelo://app?vid=c2ec12af-5ba9-413a-84a8-b5c1ab4ea72f"},"vehicle_type_id":"4","last_reported":1717524649,"current_range_meters":0,"station_id":"ce4bgph2rcd13ifvqc2g","pricing_plan_id":"cebpf4jnsgd1na2vs0mg"},{"bike_id":"4b1e6b98-494b-4259-a2f6-f8a9b27f8f76","system_id":"levelo_inurba_marseille","lat":43.296921,"lon":5.376579,"is_reserved":false,"is_disabled":false,"rental_uris":{"android":"levelo://app?vid=4b1e6b98-494b-4259-a2f6-f8a9b27f8f76","ios":"levelo://app?vid=4b1e6b98-494b-4259-a2f6-f8a9b27f8f76"},"vehicle_type_id":"4","last_reported":1717524649,"current_range_meters":3200,"station_id":"ce4bgkh2rcd13ifvqbl0","pricing_plan_id":"cebpf4jnsgd1na2vs0mg"},{"bike_id":"be08900c-af82-4eeb-a69d-087a8e289929","system_id":"levelo_inurba_marseille","lat":43.296935,"lon":5.376544,"is_reserved":false,"is_disabled":false,"rental_uris":{"android":"levelo://app?vid=be08900c-af82-4eeb-a69d-087a8e289929","ios":"levelo://app?vid=be08900c-af82-4eeb-a69d-087a8e289929"},"vehicle_type_id":"4","last_reported":1717524649,"current_range_meters":0,"station_id":"ce4bgkh2rcd13ifvqbl0","pricing_plan_id":"cebpf4jnsgd1na2vs0mg"},{"bike_id":"5569f799-312f-4225-8525-666902b4f23d","system_id":"levelo_inurba_marseille","lat":43.30953,"lon":5.39036,"is_reserved":false,"is_disabled":false,"rental_uris":{"android":"levelo://app?vid=5569f799-312f-4225-8525-666902b4f23d","ios":"levelo://app?vid=5569f799-312f-4225-8525-666902b4f23d"},"vehicle_type_id":"4","last_reported":1717524649,"current_range_meters":0,"station_id":"ce4bgup2rcd13ifvqco0","pricing_plan_id":"cebpf4jnsgd1na2vs0mg"},{"bike_id":"7333d8be-5f96-4135-a142-de0d1d4b311e","system_id":"levelo_inurba_marseille","lat":43.309502,"lon":5.390359,"is_reserved":false,"is_disabled":false,"rental_uris":{"android":"levelo://app?vid=7333d8be-5f96-4135-a142-de0d1d4b311e","ios":"levelo://app?vid=7333d8be-5f96-4135-a142-de0d1d4b311e"},"vehicle_type_id":"4","last_reported":1717524649,"current_range_meters":0,"station_id":"ce4bgup2rcd13ifvqco0","pricing_plan_id":"cebpf4jnsgd1na2vs0mg"},{"bike_id":"090a12d3-b309-4556-9e05-b70f937a365d","system_id":"levelo_inurba_marseille","lat":43.317557,"lon":5.390173,"is_reserved":false,"is_disabled":false,"rental_uris":{"android":"levelo://app?vid=090a12d3-b309-4556-9e05-b70f937a365d","ios":"levelo://app?vid=090a12d3-b309-4556-9e05-b70f937a365d"},"vehicle_type_id":"4","last_reported":1717524649,"current_range_meters":18800,"station_id":"ce4bhqp2rcd13ifvqhng","pricing_plan_id":"cebpf4jnsgd1na2vs0mg"},{"bike_id":"a6f8f726-af2a-41fa-bd92-3e0b536990e3","system_id":"levelo_inurba_marseille","lat":43.317557,"lon":5.390173,"is_reserved":false,"is_disabled":false,"rental_uris":{"android":"levelo://app?vid=a6f8f726-af2a-41fa-bd92-3e0b536990e3","ios":"levelo://app?vid=a6f8f726-af2a-41fa-bd92-3e0b536990e3"},"vehicle_type_id":"4","last_reported":1717524649,"current_range_meters":22800,"station_id":"ce4bhqp2rcd13ifvqhng","pricing_plan_id":"cebpf4jnsgd1na2vs0mg"},{"bike_id":"20462e70-8d7e-4dfb-a76d-5b4f426db555","system_id":"levelo_inurba_marseille","lat":43.309589,"lon":5.390258,"is_reserved":false,"is_disabled":false,"rental_uris":{"android":"levelo://app?vid=20462e70-8d7e-4dfb-a76d-5b4f426db555","ios":"levelo://app?vid=20462e70-8d7e-4dfb-a76d-5b4f426db555"},"vehicle_type_id":"4","last_reported":1717524649,"current_range_meters":31200,"station_id":"ce4bgup2rcd13ifvqco0","pricing_plan_id":"cebpf4jnsgd1na2vs0mg"},{"bike_id":"3dee4708-6cf2-4fc9-a451-db9507a906bb","system_id":"levelo_inurba_marseille","lat":43.317557,"lon":5.390173,"is_reserved":false,"is_disabled":false,"rental_uris":{"android":"levelo://app?vid=3dee4708-6cf2-4fc9-a451-db9507a906bb","ios":"levelo://app?vid=3dee4708-6cf2-4fc9-a451-db9507a906bb"},"vehicle_type_id":"4","last_reported":1717524649,"current_range_meters":22400,"station_id":"ce4bhqp2rcd13ifvqhng","pricing_plan_id":"cebpf4jnsgd1na2vs0mg"},{"bike_id":"5e88a2f6-0afa-4141-9cd5-f418ce4c3742","system_id":"levelo_inurba_marseille","lat":43.317557,"lon":5.390173,"is_reserved":false,"is_disabled":false,"rental_uris":{"android":"levelo://app?vid=5e88a2f6-0afa-4141-9cd5-f418ce4c3742","ios":"levelo://app?vid=5e88a2f6-0afa-4141-9cd5-f418ce4c3742"},"vehicle_type_id":"4","last_reported":1717524649,"current_range_meters":1200,"station_id":"ce4bhqp2rcd13ifvqhng","pricing_plan_id":"cebpf4jnsgd1na2vs0mg"},{"bike_id":"f8f51f43-829a-4025-b930-bc684756852b","system_id":"levelo_inurba_marseille","lat":43.317557,"lon":5.390173,"is_reserved":false,"is_disabled":false,"rental_uris":{"android":"levelo://app?vid=f8f51f43-829a-4025-b930-bc684756852b","ios":"levelo://app?vid=f8f51f43-829a-4025-b930-bc684756852b"},"vehicle_type_id":"4","last_reported":1717524649,"current_range_meters":20000,"station_id":"ce4bhqp2rcd13ifvqhng","pricing_plan_id":"cebpf4jnsgd1na2vs0mg"},{"bike_id":"0a303aa8-8e62-49b4-b634-9703449f55a1","system_id":"levelo_inurba_marseille","lat":43.304278,"lon":5.388868,"is_reserved":false,"is_disabled":false,"rental_uris":{"android":"levelo://app?vid=0a303aa8-8e62-49b4-b634-9703449f55a1","ios":"levelo://app?vid=0a303aa8-8e62-49b4-b634-9703449f55a1"},"vehicle_type_id":"4","last_reported":1717524649,"current_range_meters":12400,"station_id":"ce4bgk12rcd13ifvqbi0","pricing_plan_id":"cebpf4jnsgd1na2vs0mg"},{"bike_id":"dfbc4b7e-ce25-4a15-8332-3327c6bbc918","system_id":"levelo_inurba_marseille","lat":43.295742,"lon":5.375009,"is_reserved":false,"is_disabled":false,"rental_uris":{"android":"levelo://app?vid=dfbc4b7e-ce25-4a15-8332-3327c6bbc918","ios":"levelo://app?vid=dfbc4b7e-ce25-4a15-8332-3327c6bbc918"},"vehicle_type_id":"4","last_reported":1717524649,"current_range_meters":0,"station_id":"ce4bgh92rcd13ifvqb50","pricing_plan_id":"cebpf4jnsgd1na2vs0mg"},{"bike_id":"cc8292c7-7820-494c-80b4-feb43d356b0a","system_id":"levelo_inurba_marseille","lat":43.298037,"lon":5.381066,"is_reserved":false,"is_disabled":false,"rental_uris":{"android":"levelo://app?vid=cc8292c7-7820-494c-80b4-feb43d356b0a","ios":"levelo://app?vid=cc8292c7-7820-494c-80b4-feb43d356b0a"},"vehicle_type_id":"4","last_reported":1717524649,"current_range_meters":0,"station_id":"ce4bgip2rcd13ifvqbb0","pricing_plan_id":"cebpf4jnsgd1na2vs0mg"},{"bike_id":"05e322a6-66fb-4bed-9c9f-da5317f52b79","system_id":"levelo_inurba_marseille","lat":43.296263,"lon":5.377094,"is_reserved":false,"is_disabled":false,"rental_uris":{"android":"levelo://app?vid=05e322a6-66fb-4bed-9c9f-da5317f52b79","ios":"levelo://app?vid=05e322a6-66fb-4bed-9c9f-da5317f52b79"},"vehicle_type_id":"4","last_reported":1717524649,"current_range_meters":0,"station_id":"ce4bgi92rcd13ifvqb90","pricing_plan_id":"cebpf4jnsgd1na2vs0mg"},{"bike_id":"44f9de44-b164-4d5b-bc90-7b154e6fa170","system_id":"levelo_inurba_marseille","lat":43.304266,"lon":5.388899,"is_reserved":false,"is_disabled":false,"rental_uris":{"android":"levelo://app?vid=44f9de44-b164-4d5b-bc90-7b154e6fa170","ios":"levelo://app?vid=44f9de44-b164-4d5b-bc90-7b154e6fa170"},"vehicle_type_id":"4","last_reported":1717524649,"current_range_meters":0,"station_id":"ce4bgk12rcd13ifvqbi0","pricing_plan_id":"cebpf4jnsgd1na2vs0mg"},{"bike_id":"09483d4a-9704-47b2-8e6c-67cffb78c9b2","system_id":"levelo_inurba_marseille","lat":43.2962,"lon":5.37707,"is_reserved":false,"is_disabled":false,"rental_uris":{"android":"levelo://app?vid=09483d4a-9704-47b2-8e6c-67cffb78c9b2","ios":"levelo://app?vid=09483d4a-9704-47b2-8e6c-67cffb78c9b2"},"vehicle_type_id":"4","last_reported":1717524649,"current_range_meters":0,"station_id":"ce4bgi92rcd13ifvqb90","pricing_plan_id":"cebpf4jnsgd1na2vs0mg"},{"bike_id":"c9bc73b9-8a01-4de6-98c4-0fa538403edf","system_id":"levelo_inurba_marseille","lat":43.292311,"lon":5.360731,"is_reserved":false,"is_disabled":false,"rental_uris":{"android":"levelo://app?vid=c9bc73b9-8a01-4de6-98c4-0fa538403edf","ios":"levelo://app?vid=c9bc73b9-8a01-4de6-98c4-0fa538403edf"},"vehicle_type_id":"4","last_reported":1717524649,"current_range_meters":0,"station_id":"ce4bhbh2rcd13ifvqeqg","pricing_plan_id":"cebpf4jnsgd1na2vs0mg"},{"bike_id":"386b08ef-481c-4d29-9b74-66015564baa4","system_id":"levelo_inurba_marseille","lat":43.296263,"lon":5.377094,"is_reserved":false,"is_disabled":false,"rental_uris":{"android":"levelo://app?vid=386b08ef-481c-4d29-9b74-66015564baa4","ios":"levelo://app?vid=386b08ef-481c-4d29-9b74-66015564baa4"},"vehicle_type_id":"4","last_reported":1717524649,"current_range_meters":18000,"station_id":"ce4bgi92rcd13ifvqb90","pricing_plan_id":"cebpf4jnsgd1na2vs0mg"},{"bike_id":"f9c409dd-d4fe-4114-bb05-a75ce2c362bc","system_id":"levelo_inurba_marseille","lat":43.295279,"lon":5.375048,"is_reserved":false,"is_disabled":false,"rental_uris":{"android":"levelo://app?vid=f9c409dd-d4fe-4114-bb05-a75ce2c362bc","ios":"levelo://app?vid=f9c409dd-d4fe-4114-bb05-a75ce2c362bc"},"vehicle_type_id":"4","last_reported":1717524649,"current_range_meters":0,"station_id":"ce4bgkp2rcd13ifvqbmg","pricing_plan_id":"cebpf4jnsgd1na2vs0mg"},{"bike_id":"07ca5946-f457-4eab-8e57-65b583c430e2","system_id":"levelo_inurba_marseille","lat":43.299723,"lon":5.384863,"is_reserved":false,"is_disabled":false,"rental_uris":{"android":"levelo://app?vid=07ca5946-f457-4eab-8e57-65b583c430e2","ios":"levelo://app?vid=07ca5946-f457-4eab-8e57-65b583c430e2"},"vehicle_type_id":"4","last_reported":1717524649,"current_range_meters":12800,"station_id":"","pricing_plan_id":"cebpf4jnsgd1na2vs0mg"},{"bike_id":"d600db62-b181-4a2f-9331-9dcebb15449b","system_id":"levelo_inurba_marseille","lat":43.295279,"lon":5.375048,"is_reserved":false,"is_disabled":false,"rental_uris":{"android":"levelo://app?vid=d600db62-b181-4a2f-9331-9dcebb15449b","ios":"levelo://app?vid=d600db62-b181-4a2f-9331-9dcebb15449b"},"vehicle_type_id":"4","last_reported":1717524649,"current_range_meters":0,"station_id":"ce4bgkp2rcd13ifvqbmg","pricing_plan_id":"cebpf4jnsgd1na2vs0mg"},{"bike_id":"cbe48e69-ce80-4d47-a37e-69c434667500","system_id":"levelo_inurba_marseille","lat":43.299681,"lon":5.384855,"is_reserved":false,"is_disabled":false,"rental_uris":{"android":"levelo://app?vid=cbe48e69-ce80-4d47-a37e-69c434667500","ios":"levelo://app?vid=cbe48e69-ce80-4d47-a37e-69c434667500"},"vehicle_type_id":"4","last_reported":1717524649,"current_range_meters":19600,"station_id":"ce4bgj92rcd13ifvqbd0","pricing_plan_id":"cebpf4jnsgd1na2vs0mg"},{"bike_id":"592fdc66-234b-4588-9ddc-aa1cec34adad","system_id":"levelo_inurba_marseille","lat":43.299717,"lon":5.384845,"is_reserved":false,"is_disabled":false,"rental_uris":{"android":"levelo://app?vid=592fdc66-234b-4588-9ddc-aa1cec34adad","ios":"levelo://app?vid=592fdc66-234b-4588-9ddc-aa1cec34adad"},"vehicle_type_id":"4","last_reported":1717524649,"current_range_meters":21600,"station_id":"ce4bgj92rcd13ifvqbd0","pricing_plan_id":"cebpf4jnsgd1na2vs0mg"},{"bike_id":"c33daa5c-aa79-4933-8501-5338595a8f2a","system_id":"levelo_inurba_marseille","lat":43.295201,"lon":5.375036,"is_reserved":false,"is_disabled":false,"rental_uris":{"android":"levelo://app?vid=c33daa5c-aa79-4933-8501-5338595a8f2a","ios":"levelo://app?vid=c33daa5c-aa79-4933-8501-5338595a8f2a"},"vehicle_type_id":"4","last_reported":1717524649,"current_range_meters":0,"station_id":"ce4bgkp2rcd13ifvqbmg","pricing_plan_id":"cebpf4jnsgd1na2vs0mg"},{"bike_id":"9a5206eb-3f99-4d07-a01a-653d1aaea649","system_id":"levelo_inurba_marseille","lat":43.322872,"lon":5.382756,"is_reserved":false,"is_disabled":false,"rental_uris":{"android":"levelo://app?vid=9a5206eb-3f99-4d07-a01a-653d1aaea649","ios":"levelo://app?vid=9a5206eb-3f99-4d07-a01a-653d1aaea649"},"vehicle_type_id":"4","last_reported":1717524649,"current_range_meters":27200,"station_id":"ce4bhr12rcd13ifvqhqg","pricing_plan_id":"cebpf4jnsgd1na2vs0mg"},{"bike_id":"a857a36c-4e5d-4eb4-bb4e-07d3edf0d18c","system_id":"levelo_inurba_marseille","lat":43.299724,"lon":5.384848,"is_reserved":false,"is_disabled":false,"rental_uris":{"android":"levelo://app?vid=a857a36c-4e5d-4eb4-bb4e-07d3edf0d18c","ios":"levelo://app?vid=a857a36c-4e5d-4eb4-bb4e-07d3edf0d18c"},"vehicle_type_id":"4","last_reported":1717524649,"current_range_meters":0,"station_id":"ce4bgj92rcd13ifvqbd0","pricing_plan_id":"cebpf4jnsgd1na2vs0mg"},{"bike_id":"befc21f9-71b4-425c-b76f-0d3590918e1e","system_id":"levelo_inurba_marseille","lat":43.32366,"lon":5.38883,"is_reserved":false,"is_disabled":false,"rental_uris":{"android":"levelo://app?vid=befc21f9-71b4-425c-b76f-0d3590918e1e","ios":"levelo://app?vid=befc21f9-71b4-425c-b76f-0d3590918e1e"},"vehicle_type_id":"4","last_reported":1717524649,"current_range_meters":0,"station_id":"ce4bhqp2rcd13ifvqhog","pricing_plan_id":"cebpf4jnsgd1na2vs0mg"},{"bike_id":"e2e4d6b1-3496-49b2-9ef2-e8848a9b4505","system_id":"levelo_inurba_marseille","lat":43.32367,"lon":5.388836,"is_reserved":false,"is_disabled":false,"rental_uris":{"android":"levelo://app?vid=e2e4d6b1-3496-49b2-9ef2-e8848a9b4505","ios":"levelo://app?vid=e2e4d6b1-3496-49b2-9ef2-e8848a9b4505"},"vehicle_type_id":"4","last_reported":1717524649,"current_range_meters":6800,"station_id":"ce4bhqp2rcd13ifvqhog","pricing_plan_id":"cebpf4jnsgd1na2vs0mg"},{"bike_id":"d4e27ae2-d64f-4c35-b51f-3bf0de7deff1","system_id":"levelo_inurba_marseille","lat":43.293559,"lon":5.371736,"is_reserved":false,"is_disabled":false,"rental_uris":{"android":"levelo://app?vid=d4e27ae2-d64f-4c35-b51f-3bf0de7deff1","ios":"levelo://app?vid=d4e27ae2-d64f-4c35-b51f-3bf0de7deff1"},"vehicle_type_id":"4","last_reported":1717524649,"current_range_meters":0,"station_id":"ce4bgh92rcd13ifvqb40","pricing_plan_id":"cebpf4jnsgd1na2vs0mg"},{"bike_id":"bc15769f-7ad2-481f-8782-c4d77b4ae235","system_id":"levelo_inurba_marseille","lat":43.29288,"lon":5.36851,"is_reserved":false,"is_disabled":false,"rental_uris":{"android":"levelo://app?vid=bc15769f-7ad2-481f-8782-c4d77b4ae235","ios":"levelo://app?vid=bc15769f-7ad2-481f-8782-c4d77b4ae235"},"vehicle_type_id":"4","last_reported":1717524649,"current_range_meters":7200,"station_id":"ce4bhbp2rcd13ifvqesg","pricing_plan_id":"cebpf4jnsgd1na2vs0mg"},{"bike_id":"2ef8f429-c3ad-4ec3-b722-062bba076501","system_id":"levelo_inurba_marseille","lat":43.293259,"lon":5.371586,"is_reserved":false,"is_disabled":false,"rental_uris":{"android":"levelo://app?vid=2ef8f429-c3ad-4ec3-b722-062bba076501","ios":"levelo://app?vid=2ef8f429-c3ad-4ec3-b722-062bba076501"},"vehicle_type_id":"4","last_reported":1717524649,"current_range_meters":15600,"station_id":"ce4bgh92rcd13ifvqb40","pricing_plan_id":"cebpf4jnsgd1na2vs0mg"},{"bike_id":"37ec99ec-d5d2-4987-b363-76cf2e807cb9","system_id":"levelo_inurba_marseille","lat":43.292749,"lon":5.368402,"is_reserved":false,"is_disabled":false,"rental_uris":{"android":"levelo://app?vid=37ec99ec-d5d2-4987-b363-76cf2e807cb9","ios":"levelo://app?vid=37ec99ec-d5d2-4987-b363-76cf2e807cb9"},"vehicle_type_id":"4","last_reported":1717524649,"current_range_meters":11600,"station_id":"ce4bhbp2rcd13ifvqesg","pricing_plan_id":"cebpf4jnsgd1na2vs0mg"},{"bike_id":"303e3fb3-3126-4f4e-8dfc-d19e65e19d31","system_id":"levelo_inurba_marseille","lat":43.292749,"lon":5.368402,"is_reserved":false,"is_disabled":false,"rental_uris":{"android":"levelo://app?vid=303e3fb3-3126-4f4e-8dfc-d19e65e19d31","ios":"levelo://app?vid=303e3fb3-3126-4f4e-8dfc-d19e65e19d31"},"vehicle_type_id":"4","last_reported":1717524649,"current_range_meters":0,"station_id":"ce4bhbp2rcd13ifvqesg","pricing_plan_id":"cebpf4jnsgd1na2vs0mg"},{"bike_id":"5aa75247-b375-4129-8366-084c9e285a1d","system_id":"levelo_inurba_marseille","lat":43.292717,"lon":5.366776,"is_reserved":false,"is_disabled":false,"rental_uris":{"android":"levelo://app?vid=5aa75247-b375-4129-8366-084c9e285a1d","ios":"levelo://app?vid=5aa75247-b375-4129-8366-084c9e285a1d"},"vehicle_type_id":"4","last_reported":1717524649,"current_range_meters":14000,"station_id":"ce4bhg12rcd13ifvqf70","pricing_plan_id":"cebpf4jnsgd1na2vs0mg"},{"bike_id":"3e1a190d-3230-4fea-a5f8-27b13b5309dc","system_id":"levelo_inurba_marseille","lat":43.29273,"lon":5.36837,"is_reserved":false,"is_disabled":false,"rental_uris":{"android":"levelo://app?vid=3e1a190d-3230-4fea-a5f8-27b13b5309dc","ios":"levelo://app?vid=3e1a190d-3230-4fea-a5f8-27b13b5309dc"},"vehicle_type_id":"4","last_reported":1717524649,"current_range_meters":0,"station_id":"ce4bhbp2rcd13ifvqesg","pricing_plan_id":"cebpf4jnsgd1na2vs0mg"},{"bike_id":"02419c7a-874d-4aa7-a477-437962a3cfdb","system_id":"levelo_inurba_marseille","lat":43.2927,"lon":5.3684,"is_reserved":false,"is_disabled":false,"rental_uris":{"android":"levelo://app?vid=02419c7a-874d-4aa7-a477-437962a3cfdb","ios":"levelo://app?vid=02419c7a-874d-4aa7-a477-437962a3cfdb"},"vehicle_type_id":"4","last_reported":1717524649,"current_range_meters":21600,"station_id":"ce4bhbp2rcd13ifvqesg","pricing_plan_id":"cebpf4jnsgd1na2vs0mg"},{"bike_id":"0669de97-b65e-4565-b264-06219b095c9a","system_id":"levelo_inurba_marseille","lat":43.293009,"lon":5.374584,"is_reserved":false,"is_disabled":false,"rental_uris":{"android":"levelo://app?vid=0669de97-b65e-4565-b264-06219b095c9a","ios":"levelo://app?vid=0669de97-b65e-4565-b264-06219b095c9a"},"vehicle_type_id":"4","last_reported":1717524649,"current_range_meters":4400,"station_id":"ce4bgi12rcd13ifvqb70","pricing_plan_id":"cebpf4jnsgd1na2vs0mg"},{"bike_id":"a8a9e26c-c00e-4ef1-9624-6917258cdddc","system_id":"levelo_inurba_marseille","lat":43.305994,"lon":5.393687,"is_reserved":false,"is_disabled":false,"rental_uris":{"android":"levelo://app?vid=a8a9e26c-c00e-4ef1-9624-6917258cdddc","ios":"levelo://app?vid=a8a9e26c-c00e-4ef1-9624-6917258cdddc"},"vehicle_type_id":"4","last_reported":1717524649,"current_range_meters":0,"station_id":"ce4bh0p2rcd13ifvqd80","pricing_plan_id":"cebpf4jnsgd1na2vs0mg"},{"bike_id":"09906352-e46e-4b24-b607-820e907a85f2","system_id":"levelo_inurba_marseille","lat":43.293054,"lon":5.3746,"is_reserved":false,"is_disabled":false,"rental_uris":{"android":"levelo://app?vid=09906352-e46e-4b24-b607-820e907a85f2","ios":"levelo://app?vid=09906352-e46e-4b24-b607-820e907a85f2"},"vehicle_type_id":"4","last_reported":1717524649,"current_range_meters":0,"station_id":"ce4bgi12rcd13ifvqb70","pricing_plan_id":"cebpf4jnsgd1na2vs0mg"},{"bike_id":"9f0dded8-cb34-486e-9ad6-93844b4f8968","system_id":"levelo_inurba_marseille","lat":43.29303,"lon":5.3745,"is_reserved":false,"is_disabled":false,"rental_uris":{"android":"levelo://app?vid=9f0dded8-cb34-486e-9ad6-93844b4f8968","ios":"levelo://app?vid=9f0dded8-cb34-486e-9ad6-93844b4f8968"},"vehicle_type_id":"4","last_reported":1717524649,"current_range_meters":0,"station_id":"ce4bgi12rcd13ifvqb70","pricing_plan_id":"cebpf4jnsgd1na2vs0mg"},{"bike_id":"65c11a49-0f34-491c-9b52-8d8436115a9a","system_id":"levelo_inurba_marseille","lat":43.293009,"lon":5.374584,"is_reserved":false,"is_disabled":false,"rental_uris":{"android":"levelo://app?vid=65c11a49-0f34-491c-9b52-8d8436115a9a","ios":"levelo://app?vid=65c11a49-0f34-491c-9b52-8d8436115a9a"},"vehicle_type_id":"4","last_reported":1717524649,"current_range_meters":0,"station_id":"ce4bgi12rcd13ifvqb70","pricing_plan_id":"cebpf4jnsgd1na2vs0mg"},{"bike_id":"1155374b-1a43-4d60-b51a-e36d55c16947","system_id":"levelo_inurba_marseille","lat":43.303002,"lon":5.392142,"is_reserved":false,"is_disabled":false,"rental_uris":{"android":"levelo://app?vid=1155374b-1a43-4d60-b51a-e36d55c16947","ios":"levelo://app?vid=1155374b-1a43-4d60-b51a-e36d55c16947"},"vehicle_type_id":"4","last_reported":1717524649,"current_range_meters":20800,"station_id":"ce4bgkh2rcd13ifvqbk0","pricing_plan_id":"cebpf4jnsgd1na2vs0mg"},{"bike_id":"fd96fef2-3f3f-4aae-91e6-cb5e5c684ad4","system_id":"levelo_inurba_marseille","lat":43.30337,"lon":5.39252,"is_reserved":false,"is_disabled":false,"rental_uris":{"android":"levelo://app?vid=fd96fef2-3f3f-4aae-91e6-cb5e5c684ad4","ios":"levelo://app?vid=fd96fef2-3f3f-4aae-91e6-cb5e5c684ad4"},"vehicle_type_id":"4","last_reported":1717524649,"current_range_meters":4800,"station_id":"","pricing_plan_id":"cebpf4jnsgd1na2vs0mg"},{"bike_id":"11dba637-5e3a-4f43-b4a0-bd42a046d06c","system_id":"levelo_inurba_marseille","lat":43.30071,"lon":5.390378,"is_reserved":false,"is_disabled":false,"rental_uris":{"android":"levelo://app?vid=11dba637-5e3a-4f43-b4a0-bd42a046d06c","ios":"levelo://app?vid=11dba637-5e3a-4f43-b4a0-bd42a046d06c"},"vehicle_type_id":"4","last_reported":1717524649,"current_range_meters":0,"station_id":"ce4bh192rcd13ifvqdb0","pricing_plan_id":"cebpf4jnsgd1na2vs0mg"},{"bike_id":"646fe518-1924-47be-ac13-2c4a05a22a2f","system_id":"levelo_inurba_marseille","lat":43.292311,"lon":5.360731,"is_reserved":false,"is_disabled":false,"rental_uris":{"android":"levelo://app?vid=646fe518-1924-47be-ac13-2c4a05a22a2f","ios":"levelo://app?vid=646fe518-1924-47be-ac13-2c4a05a22a2f"},"vehicle_type_id":"4","last_reported":1717524649,"current_range_meters":27600,"station_id":"ce4bhbh2rcd13ifvqeqg","pricing_plan_id":"cebpf4jnsgd1na2vs0mg"},{"bike_id":"eb362ad9-2f4b-4ed5-bad9-0dd805ce0ae3","system_id":"levelo_inurba_marseille","lat":43.292311,"lon":5.360731,"is_reserved":false,"is_disabled":false,"rental_uris":{"android":"levelo://app?vid=eb362ad9-2f4b-4ed5-bad9-0dd805ce0ae3","ios":"levelo://app?vid=eb362ad9-2f4b-4ed5-bad9-0dd805ce0ae3"},"vehicle_type_id":"4","last_reported":1717524649,"current_range_meters":23200,"station_id":"ce4bhbh2rcd13ifvqeqg","pricing_plan_id":"cebpf4jnsgd1na2vs0mg"},{"bike_id":"11bab04b-f6c0-4108-8935-828e43a580dd","system_id":"levelo_inurba_marseille","lat":43.30085,"lon":5.390856,"is_reserved":false,"is_disabled":false,"rental_uris":{"android":"levelo://app?vid=11bab04b-f6c0-4108-8935-828e43a580dd","ios":"levelo://app?vid=11bab04b-f6c0-4108-8935-828e43a580dd"},"vehicle_type_id":"4","last_reported":1717524649,"current_range_meters":4000,"station_id":"ce4bh192rcd13ifvqdb0","pricing_plan_id":"cebpf4jnsgd1na2vs0mg"},{"bike_id":"4703de2f-7036-4540-a692-33b51c125f62","system_id":"levelo_inurba_marseille","lat":43.292311,"lon":5.360731,"is_reserved":false,"is_disabled":false,"rental_uris":{"android":"levelo://app?vid=4703de2f-7036-4540-a692-33b51c125f62","ios":"levelo://app?vid=4703de2f-7036-4540-a692-33b51c125f62"},"vehicle_type_id":"4","last_reported":1717524649,"current_range_meters":0,"station_id":"ce4bhbh2rcd13ifvqeqg","pricing_plan_id":"cebpf4jnsgd1na2vs0mg"},{"bike_id":"3947a4d4-a38a-4585-bd09-a779aa4583da","system_id":"levelo_inurba_marseille","lat":43.298764,"lon":5.388973,"is_reserved":false,"is_disabled":false,"rental_uris":{"android":"levelo://app?vid=3947a4d4-a38a-4585-bd09-a779aa4583da","ios":"levelo://app?vid=3947a4d4-a38a-4585-bd09-a779aa4583da"},"vehicle_type_id":"4","last_reported":1717524649,"current_range_meters":11200,"station_id":"ce4bh392rcd13ifvqdl0","pricing_plan_id":"cebpf4jnsgd1na2vs0mg"},{"bike_id":"83603110-5b0b-41a9-8bcd-a43955fa63c7","system_id":"levelo_inurba_marseille","lat":43.300852,"lon":5.390859,"is_reserved":false,"is_disabled":false,"rental_uris":{"android":"levelo://app?vid=83603110-5b0b-41a9-8bcd-a43955fa63c7","ios":"levelo://app?vid=83603110-5b0b-41a9-8bcd-a43955fa63c7"},"vehicle_type_id":"4","last_reported":1717524649,"current_range_meters":8000,"station_id":"ce4bh192rcd13ifvqdb0","pricing_plan_id":"cebpf4jnsgd1na2vs0mg"},{"bike_id":"6ff42318-c673-4af9-ac5b-9177a785b271","system_id":"levelo_inurba_marseille","lat":43.292311,"lon":5.360731,"is_reserved":false,"is_disabled":false,"rental_uris":{"android":"levelo://app?vid=6ff42318-c673-4af9-ac5b-9177a785b271","ios":"levelo://app?vid=6ff42318-c673-4af9-ac5b-9177a785b271"},"vehicle_type_id":"4","last_reported":1717524649,"current_range_meters":0,"station_id":"ce4bhbh2rcd13ifvqeqg","pricing_plan_id":"cebpf4jnsgd1na2vs0mg"},{"bike_id":"4677bb6d-4a67-452c-9b88-385252b171be","system_id":"levelo_inurba_marseille","lat":43.298764,"lon":5.388973,"is_reserved":false,"is_disabled":false,"rental_uris":{"android":"levelo://app?vid=4677bb6d-4a67-452c-9b88-385252b171be","ios":"levelo://app?vid=4677bb6d-4a67-452c-9b88-385252b171be"},"vehicle_type_id":"4","last_reported":1717524649,"current_range_meters":24000,"station_id":"ce4bh392rcd13ifvqdl0","pricing_plan_id":"cebpf4jnsgd1na2vs0mg"},{"bike_id":"bebbf1b5-89fe-4151-98f7-a7286eb978d6","system_id":"levelo_inurba_marseille","lat":43.291671,"lon":5.371575,"is_reserved":false,"is_disabled":false,"rental_uris":{"android":"levelo://app?vid=bebbf1b5-89fe-4151-98f7-a7286eb978d6","ios":"levelo://app?vid=bebbf1b5-89fe-4151-98f7-a7286eb978d6"},"vehicle_type_id":"4","last_reported":1717524649,"current_range_meters":24800,"station_id":"ce4bha92rcd13ifvqeh0","pricing_plan_id":"cebpf4jnsgd1na2vs0mg"},{"bike_id":"d812084a-6d2f-4919-bf84-932e30a597fd","system_id":"levelo_inurba_marseille","lat":43.298764,"lon":5.388973,"is_reserved":false,"is_disabled":false,"rental_uris":{"android":"levelo://app?vid=d812084a-6d2f-4919-bf84-932e30a597fd","ios":"levelo://app?vid=d812084a-6d2f-4919-bf84-932e30a597fd"},"vehicle_type_id":"4","last_reported":1717524649,"current_range_meters":8800,"station_id":"ce4bh392rcd13ifvqdl0","pricing_plan_id":"cebpf4jnsgd1na2vs0mg"},{"bike_id":"817cf1e7-c466-49d3-9b95-966b93e138bc","system_id":"levelo_inurba_marseille","lat":43.291675,"lon":5.371583,"is_reserved":false,"is_disabled":false,"rental_uris":{"android":"levelo://app?vid=817cf1e7-c466-49d3-9b95-966b93e138bc","ios":"levelo://app?vid=817cf1e7-c466-49d3-9b95-966b93e138bc"},"vehicle_type_id":"4","last_reported":1717524649,"current_range_meters":400,"station_id":"ce4bha92rcd13ifvqeh0","pricing_plan_id":"cebpf4jnsgd1na2vs0mg"},{"bike_id":"fd71f131-44cf-4922-9b9c-79a40e8f7b7e","system_id":"levelo_inurba_marseille","lat":43.291449,"lon":5.370217,"is_reserved":false,"is_disabled":false,"rental_uris":{"android":"levelo://app?vid=fd71f131-44cf-4922-9b9c-79a40e8f7b7e","ios":"levelo://app?vid=fd71f131-44cf-4922-9b9c-79a40e8f7b7e"},"vehicle_type_id":"4","last_reported":1717524649,"current_range_meters":18800,"station_id":"ce4bhah2rcd13ifvqej0","pricing_plan_id":"cebpf4jnsgd1na2vs0mg"},{"bike_id":"5c21550b-eef0-4e34-bba5-a81094e143ec","system_id":"levelo_inurba_marseille","lat":43.298613,"lon":5.389258,"is_reserved":false,"is_disabled":false,"rental_uris":{"android":"levelo://app?vid=5c21550b-eef0-4e34-bba5-a81094e143ec","ios":"levelo://app?vid=5c21550b-eef0-4e34-bba5-a81094e143ec"},"vehicle_type_id":"4","last_reported":1717524649,"current_range_meters":0,"station_id":"ce4bh392rcd13ifvqdl0","pricing_plan_id":"cebpf4jnsgd1na2vs0mg"},{"bike_id":"e7d1a1cf-be97-4eb9-a745-6e813b22b71a","system_id":"levelo_inurba_marseille","lat":43.313291,"lon":5.396838,"is_reserved":false,"is_disabled":false,"rental_uris":{"android":"levelo://app?vid=e7d1a1cf-be97-4eb9-a745-6e813b22b71a","ios":"levelo://app?vid=e7d1a1cf-be97-4eb9-a745-6e813b22b71a"},"vehicle_type_id":"4","last_reported":1717524649,"current_range_meters":23600,"station_id":"ce4bgvp2rcd13ifvqcu0","pricing_plan_id":"cebpf4jnsgd1na2vs0mg"},{"bike_id":"8288d5da-1d2b-4615-a81e-313e7255f46d","system_id":"levelo_inurba_marseille","lat":43.313291,"lon":5.396838,"is_reserved":false,"is_disabled":false,"rental_uris":{"android":"levelo://app?vid=8288d5da-1d2b-4615-a81e-313e7255f46d","ios":"levelo://app?vid=8288d5da-1d2b-4615-a81e-313e7255f46d"},"vehicle_type_id":"4","last_reported":1717524649,"current_range_meters":12000,"station_id":"ce4bgvp2rcd13ifvqcu0","pricing_plan_id":"cebpf4jnsgd1na2vs0mg"},{"bike_id":"744eb4cd-fb94-4f4c-9126-8f64ef1c10fc","system_id":"levelo_inurba_marseille","lat":43.29194,"lon":5.357946,"is_reserved":false,"is_disabled":false,"rental_uris":{"android":"levelo://app?vid=744eb4cd-fb94-4f4c-9126-8f64ef1c10fc","ios":"levelo://app?vid=744eb4cd-fb94-4f4c-9126-8f64ef1c10fc"},"vehicle_type_id":"4","last_reported":1717524649,"current_range_meters":0,"station_id":"ce4bhb12rcd13ifvqel0","pricing_plan_id":"cebpf4jnsgd1na2vs0mg"},{"bike_id":"91733019-1ac7-42ad-b5d3-4c0346a85b59","system_id":"levelo_inurba_marseille","lat":43.29193,"lon":5.35794,"is_reserved":false,"is_disabled":false,"rental_uris":{"android":"levelo://app?vid=91733019-1ac7-42ad-b5d3-4c0346a85b59","ios":"levelo://app?vid=91733019-1ac7-42ad-b5d3-4c0346a85b59"},"vehicle_type_id":"4","last_reported":1717524649,"current_range_meters":3600,"station_id":"ce4bhb12rcd13ifvqel0","pricing_plan_id":"cebpf4jnsgd1na2vs0mg"},{"bike_id":"34e3851e-1323-4280-af5e-ba37f280829a","system_id":"levelo_inurba_marseille","lat":43.313291,"lon":5.396838,"is_reserved":false,"is_disabled":false,"rental_uris":{"android":"levelo://app?vid=34e3851e-1323-4280-af5e-ba37f280829a","ios":"levelo://app?vid=34e3851e-1323-4280-af5e-ba37f280829a"},"vehicle_type_id":"4","last_reported":1717524649,"current_range_meters":2400,"station_id":"ce4bgvp2rcd13ifvqcu0","pricing_plan_id":"cebpf4jnsgd1na2vs0mg"},{"bike_id":"cb67bfed-74ff-4df6-af97-bef14298cf3f","system_id":"levelo_inurba_marseille","lat":43.313291,"lon":5.396838,"is_reserved":false,"is_disabled":false,"rental_uris":{"android":"levelo://app?vid=cb67bfed-74ff-4df6-af97-bef14298cf3f","ios":"levelo://app?vid=cb67bfed-74ff-4df6-af97-bef14298cf3f"},"vehicle_type_id":"4","last_reported":1717524649,"current_range_meters":15600,"station_id":"ce4bgvp2rcd13ifvqcu0","pricing_plan_id":"cebpf4jnsgd1na2vs0mg"},{"bike_id":"91202ba7-e721-4b91-ae9c-1a277a54a7e4","system_id":"levelo_inurba_marseille","lat":43.313291,"lon":5.396838,"is_reserved":false,"is_disabled":false,"rental_uris":{"android":"levelo://app?vid=91202ba7-e721-4b91-ae9c-1a277a54a7e4","ios":"levelo://app?vid=91202ba7-e721-4b91-ae9c-1a277a54a7e4"},"vehicle_type_id":"4","last_reported":1717524649,"current_range_meters":0,"station_id":"ce4bgvp2rcd13ifvqcu0","pricing_plan_id":"cebpf4jnsgd1na2vs0mg"},{"bike_id":"07e696ca-4a83-463e-83f3-fffac8f2bd7c","system_id":"levelo_inurba_marseille","lat":43.313291,"lon":5.396838,"is_reserved":false,"is_disabled":false,"rental_uris":{"android":"levelo://app?vid=07e696ca-4a83-463e-83f3-fffac8f2bd7c","ios":"levelo://app?vid=07e696ca-4a83-463e-83f3-fffac8f2bd7c"},"vehicle_type_id":"4","last_reported":1717524649,"current_range_meters":0,"station_id":"ce4bgvp2rcd13ifvqcu0","pricing_plan_id":"cebpf4jnsgd1na2vs0mg"},{"bike_id":"4d3c82a3-c6c6-4d5c-a61a-301f82f9bcdc","system_id":"levelo_inurba_marseille","lat":43.313291,"lon":5.396838,"is_reserved":false,"is_disabled":false,"rental_uris":{"android":"levelo://app?vid=4d3c82a3-c6c6-4d5c-a61a-301f82f9bcdc","ios":"levelo://app?vid=4d3c82a3-c6c6-4d5c-a61a-301f82f9bcdc"},"vehicle_type_id":"4","last_reported":1717524649,"current_range_meters":28400,"station_id":"ce4bgvp2rcd13ifvqcu0","pricing_plan_id":"cebpf4jnsgd1na2vs0mg"},{"bike_id":"46013d53-cbe6-4c63-8b71-6023868109b4","system_id":"levelo_inurba_marseille","lat":43.313291,"lon":5.396838,"is_reserved":false,"is_disabled":false,"rental_uris":{"android":"levelo://app?vid=46013d53-cbe6-4c63-8b71-6023868109b4","ios":"levelo://app?vid=46013d53-cbe6-4c63-8b71-6023868109b4"},"vehicle_type_id":"4","last_reported":1717524649,"current_range_meters":2800,"station_id":"ce4bgvp2rcd13ifvqcu0","pricing_plan_id":"cebpf4jnsgd1na2vs0mg"},{"bike_id":"75b5f6d1-456d-409a-80fa-f6d5e9be64dc","system_id":"levelo_inurba_marseille","lat":43.29188,"lon":5.3579,"is_reserved":false,"is_disabled":false,"rental_uris":{"android":"levelo://app?vid=75b5f6d1-456d-409a-80fa-f6d5e9be64dc","ios":"levelo://app?vid=75b5f6d1-456d-409a-80fa-f6d5e9be64dc"},"vehicle_type_id":"4","last_reported":1717524649,"current_range_meters":20400,"station_id":"ce4bhb12rcd13ifvqel0","pricing_plan_id":"cebpf4jnsgd1na2vs0mg"},{"bike_id":"90150e45-4e93-42ce-bf2d-644b3bcfeaed","system_id":"levelo_inurba_marseille","lat":43.29183,"lon":5.35806,"is_reserved":false,"is_disabled":false,"rental_uris":{"android":"levelo://app?vid=90150e45-4e93-42ce-bf2d-644b3bcfeaed","ios":"levelo://app?vid=90150e45-4e93-42ce-bf2d-644b3bcfeaed"},"vehicle_type_id":"4","last_reported":1717524649,"current_range_meters":0,"station_id":"ce4bhb12rcd13ifvqel0","pricing_plan_id":"cebpf4jnsgd1na2vs0mg"},{"bike_id":"43632675-0625-4dae-9868-1a7be9c5427b","system_id":"levelo_inurba_marseille","lat":43.3086,"lon":5.39655,"is_reserved":false,"is_disabled":false,"rental_uris":{"android":"levelo://app?vid=43632675-0625-4dae-9868-1a7be9c5427b","ios":"levelo://app?vid=43632675-0625-4dae-9868-1a7be9c5427b"},"vehicle_type_id":"4","last_reported":1717524649,"current_range_meters":0,"station_id":"ce4bh012rcd13ifvqcv0","pricing_plan_id":"cebpf4jnsgd1na2vs0mg"},{"bike_id":"e6698e50-c292-456b-8509-87a388d22858","system_id":"levelo_inurba_marseille","lat":43.290779,"lon":5.371482,"is_reserved":false,"is_disabled":false,"rental_uris":{"android":"levelo://app?vid=e6698e50-c292-456b-8509-87a388d22858","ios":"levelo://app?vid=e6698e50-c292-456b-8509-87a388d22858"},"vehicle_type_id":"4","last_reported":1717524649,"current_range_meters":10400,"station_id":"ce4bh5p2rcd13ifvqe4g","pricing_plan_id":"cebpf4jnsgd1na2vs0mg"},{"bike_id":"28062e67-2298-4746-9c0f-f39361f294f1","system_id":"levelo_inurba_marseille","lat":43.29063,"lon":5.3715,"is_reserved":false,"is_disabled":false,"rental_uris":{"android":"levelo://app?vid=28062e67-2298-4746-9c0f-f39361f294f1","ios":"levelo://app?vid=28062e67-2298-4746-9c0f-f39361f294f1"},"vehicle_type_id":"4","last_reported":1717524649,"current_range_meters":8800,"station_id":"ce4bh5p2rcd13ifvqe4g","pricing_plan_id":"cebpf4jnsgd1na2vs0mg"},{"bike_id":"360ad3f0-9835-4a44-86b1-5dcbcceb3356","system_id":"levelo_inurba_marseille","lat":43.302008,"lon":5.394694,"is_reserved":false,"is_disabled":false,"rental_uris":{"android":"levelo://app?vid=360ad3f0-9835-4a44-86b1-5dcbcceb3356","ios":"levelo://app?vid=360ad3f0-9835-4a44-86b1-5dcbcceb3356"},"vehicle_type_id":"4","last_reported":1717524649,"current_range_meters":0,"station_id":"ce4bh0p2rcd13ifvqd70","pricing_plan_id":"cebpf4jnsgd1na2vs0mg"},{"bike_id":"6a99eb4c-2bda-4d09-94f6-61b9d03b91f1","system_id":"levelo_inurba_marseille","lat":43.290995,"lon":5.381361,"is_reserved":false,"is_disabled":false,"rental_uris":{"android":"levelo://app?vid=6a99eb4c-2bda-4d09-94f6-61b9d03b91f1","ios":"levelo://app?vid=6a99eb4c-2bda-4d09-94f6-61b9d03b91f1"},"vehicle_type_id":"4","last_reported":1717524649,"current_range_meters":0,"station_id":"ce4bh512rcd13ifvqe2g","pricing_plan_id":"cebpf4jnsgd1na2vs0mg"},{"bike_id":"9f2ca63d-16ab-44d4-8197-38537bdad2f2","system_id":"levelo_inurba_marseille","lat":43.290624,"lon":5.359245,"is_reserved":false,"is_disabled":false,"rental_uris":{"android":"levelo://app?vid=9f2ca63d-16ab-44d4-8197-38537bdad2f2","ios":"levelo://app?vid=9f2ca63d-16ab-44d4-8197-38537bdad2f2"},"vehicle_type_id":"4","last_reported":1717524649,"current_range_meters":14400,"station_id":"ce4bha92rcd13ifvqeg0","pricing_plan_id":"cebpf4jnsgd1na2vs0mg"},{"bike_id":"79dc1931-cb44-4576-afa6-651c489e179f","system_id":"levelo_inurba_marseille","lat":43.290327,"lon":5.375711,"is_reserved":false,"is_disabled":false,"rental_uris":{"android":"levelo://app?vid=79dc1931-cb44-4576-afa6-651c489e179f","ios":"levelo://app?vid=79dc1931-cb44-4576-afa6-651c489e179f"},"vehicle_type_id":"4","last_reported":1717524649,"current_range_meters":400,"station_id":"ce4bh692rcd13ifvqe90","pricing_plan_id":"cebpf4jnsgd1na2vs0mg"},{"bike_id":"861d23ca-64a4-4ae3-8509-a16d8e1a9bc1","system_id":"levelo_inurba_marseille","lat":43.2942,"lon":5.386209,"is_reserved":false,"is_disabled":false,"rental_uris":{"android":"levelo://app?vid=861d23ca-64a4-4ae3-8509-a16d8e1a9bc1","ios":"levelo://app?vid=861d23ca-64a4-4ae3-8509-a16d8e1a9bc1"},"vehicle_type_id":"4","last_reported":1717524649,"current_range_meters":0,"station_id":"ce4bh2h2rcd13ifvqdh0","pricing_plan_id":"cebpf4jnsgd1na2vs0mg"},{"bike_id":"8ea7b5b8-78bb-4065-b998-bd149690907e","system_id":"levelo_inurba_marseille","lat":43.289184,"lon":5.366408,"is_reserved":false,"is_disabled":false,"rental_uris":{"android":"levelo://app?vid=8ea7b5b8-78bb-4065-b998-bd149690907e","ios":"levelo://app?vid=8ea7b5b8-78bb-4065-b998-bd149690907e"},"vehicle_type_id":"4","last_reported":1717524649,"current_range_meters":9600,"station_id":"ce4bhap2rcd13ifvqek0","pricing_plan_id":"cebpf4jnsgd1na2vs0mg"},{"bike_id":"59a3fa68-ee56-40d0-a12c-3ed4614536dc","system_id":"levelo_inurba_marseille","lat":43.290319,"lon":5.375732,"is_reserved":false,"is_disabled":false,"rental_uris":{"android":"levelo://app?vid=59a3fa68-ee56-40d0-a12c-3ed4614536dc","ios":"levelo://app?vid=59a3fa68-ee56-40d0-a12c-3ed4614536dc"},"vehicle_type_id":"4","last_reported":1717524649,"current_range_meters":0,"station_id":"ce4bh692rcd13ifvqe90","pricing_plan_id":"cebpf4jnsgd1na2vs0mg"},{"bike_id":"a604b50d-577d-418f-8753-be31df4225f4","system_id":"levelo_inurba_marseille","lat":43.294309,"lon":5.386458,"is_reserved":false,"is_disabled":false,"rental_uris":{"android":"levelo://app?vid=a604b50d-577d-418f-8753-be31df4225f4","ios":"levelo://app?vid=a604b50d-577d-418f-8753-be31df4225f4"},"vehicle_type_id":"4","last_reported":1717524649,"current_range_meters":800,"station_id":"ce4bh2h2rcd13ifvqdh0","pricing_plan_id":"cebpf4jnsgd1na2vs0mg"},{"bike_id":"3dfdcdcc-799a-4211-bb19-c5f8451103b7","system_id":"levelo_inurba_marseille","lat":43.294153,"lon":5.386305,"is_reserved":false,"is_disabled":false,"rental_uris":{"android":"levelo://app?vid=3dfdcdcc-799a-4211-bb19-c5f8451103b7","ios":"levelo://app?vid=3dfdcdcc-799a-4211-bb19-c5f8451103b7"},"vehicle_type_id":"4","last_reported":1717524649,"current_range_meters":0,"station_id":"ce4bh2h2rcd13ifvqdh0","pricing_plan_id":"cebpf4jnsgd1na2vs0mg"},{"bike_id":"9cb97937-8789-47d7-bc48-d656402d71dc","system_id":"levelo_inurba_marseille","lat":43.29029,"lon":5.37554,"is_reserved":false,"is_disabled":false,"rental_uris":{"android":"levelo://app?vid=9cb97937-8789-47d7-bc48-d656402d71dc","ios":"levelo://app?vid=9cb97937-8789-47d7-bc48-d656402d71dc"},"vehicle_type_id":"4","last_reported":1717524649,"current_range_meters":26000,"station_id":"ce4bh692rcd13ifvqe90","pricing_plan_id":"cebpf4jnsgd1na2vs0mg"},{"bike_id":"013a0212-8fe3-4b4a-90e7-0378cedfa5c7","system_id":"levelo_inurba_marseille","lat":43.289184,"lon":5.366408,"is_reserved":false,"is_disabled":false,"rental_uris":{"android":"levelo://app?vid=013a0212-8fe3-4b4a-90e7-0378cedfa5c7","ios":"levelo://app?vid=013a0212-8fe3-4b4a-90e7-0378cedfa5c7"},"vehicle_type_id":"4","last_reported":1717524649,"current_range_meters":400,"station_id":"ce4bhap2rcd13ifvqek0","pricing_plan_id":"cebpf4jnsgd1na2vs0mg"},{"bike_id":"2d3bea60-1205-4e2a-a0ee-f4020662a2b9","system_id":"levelo_inurba_marseille","lat":43.28938,"lon":5.36634,"is_reserved":false,"is_disabled":false,"rental_uris":{"android":"levelo://app?vid=2d3bea60-1205-4e2a-a0ee-f4020662a2b9","ios":"levelo://app?vid=2d3bea60-1205-4e2a-a0ee-f4020662a2b9"},"vehicle_type_id":"4","last_reported":1717524649,"current_range_meters":0,"station_id":"ce4bhap2rcd13ifvqek0","pricing_plan_id":"cebpf4jnsgd1na2vs0mg"},{"bike_id":"1472ac61-c0e5-4a49-a5c4-cad57ca9ed60","system_id":"levelo_inurba_marseille","lat":43.289184,"lon":5.366408,"is_reserved":false,"is_disabled":false,"rental_uris":{"android":"levelo://app?vid=1472ac61-c0e5-4a49-a5c4-cad57ca9ed60","ios":"levelo://app?vid=1472ac61-c0e5-4a49-a5c4-cad57ca9ed60"},"vehicle_type_id":"4","last_reported":1717524649,"current_range_meters":0,"station_id":"ce4bhap2rcd13ifvqek0","pricing_plan_id":"cebpf4jnsgd1na2vs0mg"},{"bike_id":"6272f956-e715-4bf7-a874-f8039eea34ca","system_id":"levelo_inurba_marseille","lat":43.289701,"lon":5.372277,"is_reserved":false,"is_disabled":false,"rental_uris":{"android":"levelo://app?vid=6272f956-e715-4bf7-a874-f8039eea34ca","ios":"levelo://app?vid=6272f956-e715-4bf7-a874-f8039eea34ca"},"vehicle_type_id":"4","last_reported":1717524649,"current_range_meters":14400,"station_id":"ce4bh3p2rcd13ifvqdq0","pricing_plan_id":"cebpf4jnsgd1na2vs0mg"},{"bike_id":"9e75fc62-994a-40af-a106-8b175955ccc4","system_id":"levelo_inurba_marseille","lat":43.28934,"lon":5.36627,"is_reserved":false,"is_disabled":false,"rental_uris":{"android":"levelo://app?vid=9e75fc62-994a-40af-a106-8b175955ccc4","ios":"levelo://app?vid=9e75fc62-994a-40af-a106-8b175955ccc4"},"vehicle_type_id":"4","last_reported":1717524649,"current_range_meters":0,"station_id":"ce4bhap2rcd13ifvqek0","pricing_plan_id":"cebpf4jnsgd1na2vs0mg"},{"bike_id":"a51a0bac-4620-431d-a27f-7242ac3800a3","system_id":"levelo_inurba_marseille","lat":43.289184,"lon":5.366408,"is_reserved":false,"is_disabled":false,"rental_uris":{"android":"levelo://app?vid=a51a0bac-4620-431d-a27f-7242ac3800a3","ios":"levelo://app?vid=a51a0bac-4620-431d-a27f-7242ac3800a3"},"vehicle_type_id":"4","last_reported":1717524649,"current_range_meters":10000,"station_id":"ce4bhap2rcd13ifvqek0","pricing_plan_id":"cebpf4jnsgd1na2vs0mg"},{"bike_id":"d13aaa95-245b-4caf-81db-597f485247f0","system_id":"levelo_inurba_marseille","lat":43.289184,"lon":5.366408,"is_reserved":false,"is_disabled":false,"rental_uris":{"android":"levelo://app?vid=d13aaa95-245b-4caf-81db-597f485247f0","ios":"levelo://app?vid=d13aaa95-245b-4caf-81db-597f485247f0"},"vehicle_type_id":"4","last_reported":1717524649,"current_range_meters":31200,"station_id":"ce4bhap2rcd13ifvqek0","pricing_plan_id":"cebpf4jnsgd1na2vs0mg"},{"bike_id":"0dc527cd-0cba-48dd-9493-b0971a5fd082","system_id":"levelo_inurba_marseille","lat":43.289184,"lon":5.366408,"is_reserved":false,"is_disabled":false,"rental_uris":{"android":"levelo://app?vid=0dc527cd-0cba-48dd-9493-b0971a5fd082","ios":"levelo://app?vid=0dc527cd-0cba-48dd-9493-b0971a5fd082"},"vehicle_type_id":"4","last_reported":1717524649,"current_range_meters":17600,"station_id":"ce4bhap2rcd13ifvqek0","pricing_plan_id":"cebpf4jnsgd1na2vs0mg"},{"bike_id":"898de22c-d41b-4120-b931-54d4bc81b927","system_id":"levelo_inurba_marseille","lat":43.289743,"lon":5.378304,"is_reserved":false,"is_disabled":false,"rental_uris":{"android":"levelo://app?vid=898de22c-d41b-4120-b931-54d4bc81b927","ios":"levelo://app?vid=898de22c-d41b-4120-b931-54d4bc81b927"},"vehicle_type_id":"4","last_reported":1717524649,"current_range_meters":2800,"station_id":"ce4bh9p2rcd13ifvqed0","pricing_plan_id":"cebpf4jnsgd1na2vs0mg"},{"bike_id":"58dd02bc-7c6b-4148-9030-2bbce8d1cb59","system_id":"levelo_inurba_marseille","lat":43.289468,"lon":5.363719,"is_reserved":false,"is_disabled":false,"rental_uris":{"android":"levelo://app?vid=58dd02bc-7c6b-4148-9030-2bbce8d1cb59","ios":"levelo://app?vid=58dd02bc-7c6b-4148-9030-2bbce8d1cb59"},"vehicle_type_id":"4","last_reported":1717524649,"current_range_meters":4400,"station_id":"ce4bhc92rcd13ifvqetg","pricing_plan_id":"cebpf4jnsgd1na2vs0mg"},{"bike_id":"53c96cc8-4b43-4e5f-b60b-a0263da8e945","system_id":"levelo_inurba_marseille","lat":43.292644,"lon":5.384257,"is_reserved":false,"is_disabled":false,"rental_uris":{"android":"levelo://app?vid=53c96cc8-4b43-4e5f-b60b-a0263da8e945","ios":"levelo://app?vid=53c96cc8-4b43-4e5f-b60b-a0263da8e945"},"vehicle_type_id":"4","last_reported":1717524649,"current_range_meters":26400,"station_id":"ce4bh692rcd13ifvqea0","pricing_plan_id":"cebpf4jnsgd1na2vs0mg"},{"bike_id":"404d84e2-a828-4e9e-aeeb-d5c8f277d82b","system_id":"levelo_inurba_marseille","lat":43.29262,"lon":5.38446,"is_reserved":false,"is_disabled":false,"rental_uris":{"android":"levelo://app?vid=404d84e2-a828-4e9e-aeeb-d5c8f277d82b","ios":"levelo://app?vid=404d84e2-a828-4e9e-aeeb-d5c8f277d82b"},"vehicle_type_id":"4","last_reported":1717524649,"current_range_meters":0,"station_id":"ce4bh692rcd13ifvqea0","pricing_plan_id":"cebpf4jnsgd1na2vs0mg"},{"bike_id":"bd6bfb9d-272b-4963-b2cd-ff63dc03c31e","system_id":"levelo_inurba_marseille","lat":43.292644,"lon":5.384257,"is_reserved":false,"is_disabled":false,"rental_uris":{"android":"levelo://app?vid=bd6bfb9d-272b-4963-b2cd-ff63dc03c31e","ios":"levelo://app?vid=bd6bfb9d-272b-4963-b2cd-ff63dc03c31e"},"vehicle_type_id":"4","last_reported":1717524649,"current_range_meters":0,"station_id":"ce4bh692rcd13ifvqea0","pricing_plan_id":"cebpf4jnsgd1na2vs0mg"},{"bike_id":"877caa0d-1cdd-4d89-abf1-48a5df5f7a20","system_id":"levelo_inurba_marseille","lat":43.292642,"lon":5.384254,"is_reserved":false,"is_disabled":false,"rental_uris":{"android":"levelo://app?vid=877caa0d-1cdd-4d89-abf1-48a5df5f7a20","ios":"levelo://app?vid=877caa0d-1cdd-4d89-abf1-48a5df5f7a20"},"vehicle_type_id":"4","last_reported":1717524649,"current_range_meters":12400,"station_id":"ce4bh692rcd13ifvqea0","pricing_plan_id":"cebpf4jnsgd1na2vs0mg"},{"bike_id":"6795f70a-e98e-477d-8dd7-3b6daf512421","system_id":"levelo_inurba_marseille","lat":43.292644,"lon":5.384257,"is_reserved":false,"is_disabled":false,"rental_uris":{"android":"levelo://app?vid=6795f70a-e98e-477d-8dd7-3b6daf512421","ios":"levelo://app?vid=6795f70a-e98e-477d-8dd7-3b6daf512421"},"vehicle_type_id":"4","last_reported":1717524649,"current_range_meters":10800,"station_id":"ce4bh692rcd13ifvqea0","pricing_plan_id":"cebpf4jnsgd1na2vs0mg"},{"bike_id":"fe8a2f61-4703-4634-83cb-3692b08b078e","system_id":"levelo_inurba_marseille","lat":43.290234,"lon":5.355977,"is_reserved":false,"is_disabled":false,"rental_uris":{"android":"levelo://app?vid=fe8a2f61-4703-4634-83cb-3692b08b078e","ios":"levelo://app?vid=fe8a2f61-4703-4634-83cb-3692b08b078e"},"vehicle_type_id":"4","last_reported":1717524649,"current_range_meters":10800,"station_id":"ce4bhb92rcd13ifvqen0","pricing_plan_id":"cebpf4jnsgd1na2vs0mg"},{"bike_id":"e354dc1f-6b39-45d5-870b-218e85957060","system_id":"levelo_inurba_marseille","lat":43.292642,"lon":5.384254,"is_reserved":false,"is_disabled":false,"rental_uris":{"android":"levelo://app?vid=e354dc1f-6b39-45d5-870b-218e85957060","ios":"levelo://app?vid=e354dc1f-6b39-45d5-870b-218e85957060"},"vehicle_type_id":"4","last_reported":1717524649,"current_range_meters":6000,"station_id":"ce4bh692rcd13ifvqea0","pricing_plan_id":"cebpf4jnsgd1na2vs0mg"},{"bike_id":"3bf0368f-97cb-4450-9dbb-e563a3a8237c","system_id":"levelo_inurba_marseille","lat":43.29005,"lon":5.35617,"is_reserved":false,"is_disabled":false,"rental_uris":{"android":"levelo://app?vid=3bf0368f-97cb-4450-9dbb-e563a3a8237c","ios":"levelo://app?vid=3bf0368f-97cb-4450-9dbb-e563a3a8237c"},"vehicle_type_id":"4","last_reported":1717524649,"current_range_meters":0,"station_id":"ce4bhb92rcd13ifvqen0","pricing_plan_id":"cebpf4jnsgd1na2vs0mg"},{"bike_id":"995ef867-ad31-4f85-b989-d582cf0009c0","system_id":"levelo_inurba_marseille","lat":43.290104,"lon":5.356111,"is_reserved":false,"is_disabled":false,"rental_uris":{"android":"levelo://app?vid=995ef867-ad31-4f85-b989-d582cf0009c0","ios":"levelo://app?vid=995ef867-ad31-4f85-b989-d582cf0009c0"},"vehicle_type_id":"4","last_reported":1717524649,"current_range_meters":400,"station_id":"ce4bhb92rcd13ifvqen0","pricing_plan_id":"cebpf4jnsgd1na2vs0mg"},{"bike_id":"78177307-5c57-4fe0-83fc-d2beb65ed225","system_id":"levelo_inurba_marseille","lat":43.290995,"lon":5.381361,"is_reserved":false,"is_disabled":false,"rental_uris":{"android":"levelo://app?vid=78177307-5c57-4fe0-83fc-d2beb65ed225","ios":"levelo://app?vid=78177307-5c57-4fe0-83fc-d2beb65ed225"},"vehicle_type_id":"4","last_reported":1717524649,"current_range_meters":23200,"station_id":"ce4bh512rcd13ifvqe2g","pricing_plan_id":"cebpf4jnsgd1na2vs0mg"},{"bike_id":"fff9324d-2211-44fc-a84b-0e05abecee02","system_id":"levelo_inurba_marseille","lat":43.290995,"lon":5.381361,"is_reserved":false,"is_disabled":false,"rental_uris":{"android":"levelo://app?vid=fff9324d-2211-44fc-a84b-0e05abecee02","ios":"levelo://app?vid=fff9324d-2211-44fc-a84b-0e05abecee02"},"vehicle_type_id":"4","last_reported":1717524649,"current_range_meters":400,"station_id":"ce4bh512rcd13ifvqe2g","pricing_plan_id":"cebpf4jnsgd1na2vs0mg"},{"bike_id":"254192c8-7c0d-44f9-9081-f635c151e2f3","system_id":"levelo_inurba_marseille","lat":43.330442,"lon":5.389148,"is_reserved":false,"is_disabled":false,"rental_uris":{"android":"levelo://app?vid=254192c8-7c0d-44f9-9081-f635c151e2f3","ios":"levelo://app?vid=254192c8-7c0d-44f9-9081-f635c151e2f3"},"vehicle_type_id":"4","last_reported":1717524649,"current_range_meters":31600,"station_id":"ce4bhr92rcd13ifvqhrg","pricing_plan_id":"cebpf4jnsgd1na2vs0mg"},{"bike_id":"1d542ac7-aafc-4890-bb0b-6814af6337bf","system_id":"levelo_inurba_marseille","lat":43.330442,"lon":5.389148,"is_reserved":false,"is_disabled":false,"rental_uris":{"android":"levelo://app?vid=1d542ac7-aafc-4890-bb0b-6814af6337bf","ios":"levelo://app?vid=1d542ac7-aafc-4890-bb0b-6814af6337bf"},"vehicle_type_id":"4","last_reported":1717524649,"current_range_meters":9200,"station_id":"ce4bhr92rcd13ifvqhrg","pricing_plan_id":"cebpf4jnsgd1na2vs0mg"},{"bike_id":"d95c8bb1-43ec-416c-816b-abdce9c892a1","system_id":"levelo_inurba_marseille","lat":43.289743,"lon":5.378304,"is_reserved":false,"is_disabled":false,"rental_uris":{"android":"levelo://app?vid=d95c8bb1-43ec-416c-816b-abdce9c892a1","ios":"levelo://app?vid=d95c8bb1-43ec-416c-816b-abdce9c892a1"},"vehicle_type_id":"4","last_reported":1717524649,"current_range_meters":1600,"station_id":"ce4bh9p2rcd13ifvqed0","pricing_plan_id":"cebpf4jnsgd1na2vs0mg"},{"bike_id":"e6f6c3e0-afbb-4223-ac98-383858478339","system_id":"levelo_inurba_marseille","lat":43.295169,"lon":5.390426,"is_reserved":false,"is_disabled":false,"rental_uris":{"android":"levelo://app?vid=e6f6c3e0-afbb-4223-ac98-383858478339","ios":"levelo://app?vid=e6f6c3e0-afbb-4223-ac98-383858478339"},"vehicle_type_id":"4","last_reported":1717524649,"current_range_meters":28000,"station_id":"ce4bh3p2rcd13ifvqdp0","pricing_plan_id":"cebpf4jnsgd1na2vs0mg"},{"bike_id":"bbe4c5f5-ff83-40ae-8615-ca0fe4d73e68","system_id":"levelo_inurba_marseille","lat":43.330442,"lon":5.389148,"is_reserved":false,"is_disabled":false,"rental_uris":{"android":"levelo://app?vid=bbe4c5f5-ff83-40ae-8615-ca0fe4d73e68","ios":"levelo://app?vid=bbe4c5f5-ff83-40ae-8615-ca0fe4d73e68"},"vehicle_type_id":"4","last_reported":1717524649,"current_range_meters":8400,"station_id":"ce4bhr92rcd13ifvqhrg","pricing_plan_id":"cebpf4jnsgd1na2vs0mg"},{"bike_id":"67f203b7-592b-46ab-a92f-d2bdbf24b0eb","system_id":"levelo_inurba_marseille","lat":43.330442,"lon":5.389148,"is_reserved":false,"is_disabled":false,"rental_uris":{"android":"levelo://app?vid=67f203b7-592b-46ab-a92f-d2bdbf24b0eb","ios":"levelo://app?vid=67f203b7-592b-46ab-a92f-d2bdbf24b0eb"},"vehicle_type_id":"4","last_reported":1717524649,"current_range_meters":24000,"station_id":"ce4bhr92rcd13ifvqhrg","pricing_plan_id":"cebpf4jnsgd1na2vs0mg"},{"bike_id":"0beb7888-2e89-4ef9-8a87-b39fbfa2c062","system_id":"levelo_inurba_marseille","lat":43.330442,"lon":5.389148,"is_reserved":false,"is_disabled":false,"rental_uris":{"android":"levelo://app?vid=0beb7888-2e89-4ef9-8a87-b39fbfa2c062","ios":"levelo://app?vid=0beb7888-2e89-4ef9-8a87-b39fbfa2c062"},"vehicle_type_id":"4","last_reported":1717524649,"current_range_meters":12400,"station_id":"ce4bhr92rcd13ifvqhrg","pricing_plan_id":"cebpf4jnsgd1na2vs0mg"},{"bike_id":"dce62d08-aec7-4ef9-9fc1-b99ec4487b86","system_id":"levelo_inurba_marseille","lat":43.330442,"lon":5.389148,"is_reserved":false,"is_disabled":false,"rental_uris":{"android":"levelo://app?vid=dce62d08-aec7-4ef9-9fc1-b99ec4487b86","ios":"levelo://app?vid=dce62d08-aec7-4ef9-9fc1-b99ec4487b86"},"vehicle_type_id":"4","last_reported":1717524649,"current_range_meters":0,"station_id":"ce4bhr92rcd13ifvqhrg","pricing_plan_id":"cebpf4jnsgd1na2vs0mg"},{"bike_id":"200758cc-a980-439e-9a29-a167aae7a4a0","system_id":"levelo_inurba_marseille","lat":43.330442,"lon":5.389148,"is_reserved":false,"is_disabled":false,"rental_uris":{"android":"levelo://app?vid=200758cc-a980-439e-9a29-a167aae7a4a0","ios":"levelo://app?vid=200758cc-a980-439e-9a29-a167aae7a4a0"},"vehicle_type_id":"4","last_reported":1717524649,"current_range_meters":24800,"station_id":"ce4bhr92rcd13ifvqhrg","pricing_plan_id":"cebpf4jnsgd1na2vs0mg"},{"bike_id":"4775a8d1-0d5a-49df-b41a-7b403726af33","system_id":"levelo_inurba_marseille","lat":43.330442,"lon":5.389148,"is_reserved":false,"is_disabled":false,"rental_uris":{"android":"levelo://app?vid=4775a8d1-0d5a-49df-b41a-7b403726af33","ios":"levelo://app?vid=4775a8d1-0d5a-49df-b41a-7b403726af33"},"vehicle_type_id":"4","last_reported":1717524649,"current_range_meters":17600,"station_id":"ce4bhr92rcd13ifvqhrg","pricing_plan_id":"cebpf4jnsgd1na2vs0mg"},{"bike_id":"e7096369-178b-490c-ab74-f7f1da1d0fdf","system_id":"levelo_inurba_marseille","lat":43.330442,"lon":5.389148,"is_reserved":false,"is_disabled":false,"rental_uris":{"android":"levelo://app?vid=e7096369-178b-490c-ab74-f7f1da1d0fdf","ios":"levelo://app?vid=e7096369-178b-490c-ab74-f7f1da1d0fdf"},"vehicle_type_id":"4","last_reported":1717524649,"current_range_meters":20000,"station_id":"ce4bhr92rcd13ifvqhrg","pricing_plan_id":"cebpf4jnsgd1na2vs0mg"},{"bike_id":"dc37b1be-67b7-4423-ba4f-52260a48674f","system_id":"levelo_inurba_marseille","lat":43.330442,"lon":5.389148,"is_reserved":false,"is_disabled":false,"rental_uris":{"android":"levelo://app?vid=dc37b1be-67b7-4423-ba4f-52260a48674f","ios":"levelo://app?vid=dc37b1be-67b7-4423-ba4f-52260a48674f"},"vehicle_type_id":"4","last_reported":1717524649,"current_range_meters":12800,"station_id":"ce4bhr92rcd13ifvqhrg","pricing_plan_id":"cebpf4jnsgd1na2vs0mg"},{"bike_id":"47c7927e-81e4-453b-8eed-6b52232ec34c","system_id":"levelo_inurba_marseille","lat":43.330442,"lon":5.389148,"is_reserved":false,"is_disabled":false,"rental_uris":{"android":"levelo://app?vid=47c7927e-81e4-453b-8eed-6b52232ec34c","ios":"levelo://app?vid=47c7927e-81e4-453b-8eed-6b52232ec34c"},"vehicle_type_id":"4","last_reported":1717524649,"current_range_meters":31600,"station_id":"ce4bhr92rcd13ifvqhrg","pricing_plan_id":"cebpf4jnsgd1na2vs0mg"},{"bike_id":"6ea25449-2305-4161-9a48-52a8290c60f2","system_id":"levelo_inurba_marseille","lat":43.330442,"lon":5.389148,"is_reserved":false,"is_disabled":false,"rental_uris":{"android":"levelo://app?vid=6ea25449-2305-4161-9a48-52a8290c60f2","ios":"levelo://app?vid=6ea25449-2305-4161-9a48-52a8290c60f2"},"vehicle_type_id":"4","last_reported":1717524649,"current_range_meters":22800,"station_id":"ce4bhr92rcd13ifvqhrg","pricing_plan_id":"cebpf4jnsgd1na2vs0mg"},{"bike_id":"52082711-f349-40c9-8350-827066808b06","system_id":"levelo_inurba_marseille","lat":43.330442,"lon":5.389148,"is_reserved":false,"is_disabled":false,"rental_uris":{"android":"levelo://app?vid=52082711-f349-40c9-8350-827066808b06","ios":"levelo://app?vid=52082711-f349-40c9-8350-827066808b06"},"vehicle_type_id":"4","last_reported":1717524649,"current_range_meters":16400,"station_id":"ce4bhr92rcd13ifvqhrg","pricing_plan_id":"cebpf4jnsgd1na2vs0mg"},{"bike_id":"f9aa627e-3620-4096-ae76-0c38b21b39f5","system_id":"levelo_inurba_marseille","lat":43.330442,"lon":5.389148,"is_reserved":false,"is_disabled":false,"rental_uris":{"android":"levelo://app?vid=f9aa627e-3620-4096-ae76-0c38b21b39f5","ios":"levelo://app?vid=f9aa627e-3620-4096-ae76-0c38b21b39f5"},"vehicle_type_id":"4","last_reported":1717524649,"current_range_meters":17200,"station_id":"ce4bhr92rcd13ifvqhrg","pricing_plan_id":"cebpf4jnsgd1na2vs0mg"},{"bike_id":"cd0df220-8e0f-4a18-97af-8ccea2e94292","system_id":"levelo_inurba_marseille","lat":43.28856,"lon":5.358371,"is_reserved":false,"is_disabled":false,"rental_uris":{"android":"levelo://app?vid=cd0df220-8e0f-4a18-97af-8ccea2e94292","ios":"levelo://app?vid=cd0df220-8e0f-4a18-97af-8ccea2e94292"},"vehicle_type_id":"4","last_reported":1717524649,"current_range_meters":31200,"station_id":"ce4bhb12rcd13ifvqem0","pricing_plan_id":"cebpf4jnsgd1na2vs0mg"},{"bike_id":"63c69da3-78bf-4c1b-b6a4-548fde49100a","system_id":"levelo_inurba_marseille","lat":43.28856,"lon":5.358371,"is_reserved":false,"is_disabled":false,"rental_uris":{"android":"levelo://app?vid=63c69da3-78bf-4c1b-b6a4-548fde49100a","ios":"levelo://app?vid=63c69da3-78bf-4c1b-b6a4-548fde49100a"},"vehicle_type_id":"4","last_reported":1717524649,"current_range_meters":22800,"station_id":"ce4bhb12rcd13ifvqem0","pricing_plan_id":"cebpf4jnsgd1na2vs0mg"},{"bike_id":"e26b3948-6a8b-4fe4-b6f8-4a6dc3fb11ab","system_id":"levelo_inurba_marseille","lat":43.286593,"lon":5.363346,"is_reserved":false,"is_disabled":false,"rental_uris":{"android":"levelo://app?vid=e26b3948-6a8b-4fe4-b6f8-4a6dc3fb11ab","ios":"levelo://app?vid=e26b3948-6a8b-4fe4-b6f8-4a6dc3fb11ab"},"vehicle_type_id":"4","last_reported":1717524649,"current_range_meters":10400,"station_id":"ce4bhah2rcd13ifvqej0","pricing_plan_id":"cebpf4jnsgd1na2vs0mg"},{"bike_id":"ab521a06-8d29-4188-8b06-2ac6c642269b","system_id":"levelo_inurba_marseille","lat":43.29182,"lon":5.38597,"is_reserved":false,"is_disabled":false,"rental_uris":{"android":"levelo://app?vid=ab521a06-8d29-4188-8b06-2ac6c642269b","ios":"levelo://app?vid=ab521a06-8d29-4188-8b06-2ac6c642269b"},"vehicle_type_id":"4","last_reported":1717524649,"current_range_meters":14400,"station_id":"","pricing_plan_id":"cebpf4jnsgd1na2vs0mg"},{"bike_id":"8d14d34b-fe87-4912-86d2-62437992ec8a","system_id":"levelo_inurba_marseille","lat":43.312609,"lon":5.401662,"is_reserved":false,"is_disabled":false,"rental_uris":{"android":"levelo://app?vid=8d14d34b-fe87-4912-86d2-62437992ec8a","ios":"levelo://app?vid=8d14d34b-fe87-4912-86d2-62437992ec8a"},"vehicle_type_id":"4","last_reported":1717524649,"current_range_meters":0,"station_id":"ce4bh092rcd13ifvqd30","pricing_plan_id":"cebpf4jnsgd1na2vs0mg"},{"bike_id":"4cd1330a-0938-402e-b9be-7c20a9854b2b","system_id":"levelo_inurba_marseille","lat":43.312609,"lon":5.401662,"is_reserved":false,"is_disabled":false,"rental_uris":{"android":"levelo://app?vid=4cd1330a-0938-402e-b9be-7c20a9854b2b","ios":"levelo://app?vid=4cd1330a-0938-402e-b9be-7c20a9854b2b"},"vehicle_type_id":"4","last_reported":1717524649,"current_range_meters":0,"station_id":"ce4bh092rcd13ifvqd30","pricing_plan_id":"cebpf4jnsgd1na2vs0mg"},{"bike_id":"631693b2-fa82-4b04-a5df-c921b86e19a5","system_id":"levelo_inurba_marseille","lat":43.312609,"lon":5.401662,"is_reserved":false,"is_disabled":false,"rental_uris":{"android":"levelo://app?vid=631693b2-fa82-4b04-a5df-c921b86e19a5","ios":"levelo://app?vid=631693b2-fa82-4b04-a5df-c921b86e19a5"},"vehicle_type_id":"4","last_reported":1717524649,"current_range_meters":2800,"station_id":"ce4bh092rcd13ifvqd30","pricing_plan_id":"cebpf4jnsgd1na2vs0mg"},{"bike_id":"26e88c15-1ebf-4978-814d-f8bc280f73dc","system_id":"levelo_inurba_marseille","lat":43.337446,"lon":5.37483,"is_reserved":false,"is_disabled":false,"rental_uris":{"android":"levelo://app?vid=26e88c15-1ebf-4978-814d-f8bc280f73dc","ios":"levelo://app?vid=26e88c15-1ebf-4978-814d-f8bc280f73dc"},"vehicle_type_id":"4","last_reported":1717524649,"current_range_meters":22400,"station_id":"","pricing_plan_id":"cebpf4jnsgd1na2vs0mg"},{"bike_id":"ed10c4e4-d3ba-48d3-9097-538e65a623f5","system_id":"levelo_inurba_marseille","lat":43.33755,"lon":5.37452,"is_reserved":false,"is_disabled":false,"rental_uris":{"android":"levelo://app?vid=ed10c4e4-d3ba-48d3-9097-538e65a623f5","ios":"levelo://app?vid=ed10c4e4-d3ba-48d3-9097-538e65a623f5"},"vehicle_type_id":"4","last_reported":1717524649,"current_range_meters":27200,"station_id":"","pricing_plan_id":"cebpf4jnsgd1na2vs0mg"},{"bike_id":"9719ae2e-fcff-4f6e-9860-71674056887b","system_id":"levelo_inurba_marseille","lat":43.306412,"lon":5.401035,"is_reserved":false,"is_disabled":false,"rental_uris":{"android":"levelo://app?vid=9719ae2e-fcff-4f6e-9860-71674056887b","ios":"levelo://app?vid=9719ae2e-fcff-4f6e-9860-71674056887b"},"vehicle_type_id":"4","last_reported":1717524649,"current_range_meters":22000,"station_id":"ce4bh112rcd13ifvqda0","pricing_plan_id":"cebpf4jnsgd1na2vs0mg"},{"bike_id":"b0aa04e0-a8cd-49d4-936c-59dd306319e7","system_id":"levelo_inurba_marseille","lat":43.306412,"lon":5.401035,"is_reserved":false,"is_disabled":false,"rental_uris":{"android":"levelo://app?vid=b0aa04e0-a8cd-49d4-936c-59dd306319e7","ios":"levelo://app?vid=b0aa04e0-a8cd-49d4-936c-59dd306319e7"},"vehicle_type_id":"4","last_reported":1717524649,"current_range_meters":0,"station_id":"ce4bh112rcd13ifvqda0","pricing_plan_id":"cebpf4jnsgd1na2vs0mg"},{"bike_id":"736df736-349a-43a6-8ed8-83b44186380f","system_id":"levelo_inurba_marseille","lat":43.306412,"lon":5.401035,"is_reserved":false,"is_disabled":false,"rental_uris":{"android":"levelo://app?vid=736df736-349a-43a6-8ed8-83b44186380f","ios":"levelo://app?vid=736df736-349a-43a6-8ed8-83b44186380f"},"vehicle_type_id":"4","last_reported":1717524649,"current_range_meters":4000,"station_id":"ce4bh112rcd13ifvqda0","pricing_plan_id":"cebpf4jnsgd1na2vs0mg"},{"bike_id":"b3f64afe-2b6b-4fc9-bb1f-96adfd014e19","system_id":"levelo_inurba_marseille","lat":43.301117,"lon":5.398795,"is_reserved":false,"is_disabled":false,"rental_uris":{"android":"levelo://app?vid=b3f64afe-2b6b-4fc9-bb1f-96adfd014e19","ios":"levelo://app?vid=b3f64afe-2b6b-4fc9-bb1f-96adfd014e19"},"vehicle_type_id":"4","last_reported":1717524649,"current_range_meters":1600,"station_id":"ce4bh0h2rcd13ifvqd40","pricing_plan_id":"cebpf4jnsgd1na2vs0mg"},{"bike_id":"9db7792a-f3af-4935-9a02-922c9bd912d9","system_id":"levelo_inurba_marseille","lat":43.286591,"lon":5.363346,"is_reserved":false,"is_disabled":false,"rental_uris":{"android":"levelo://app?vid=9db7792a-f3af-4935-9a02-922c9bd912d9","ios":"levelo://app?vid=9db7792a-f3af-4935-9a02-922c9bd912d9"},"vehicle_type_id":"4","last_reported":1717524649,"current_range_meters":18400,"station_id":"ce4bhah2rcd13ifvqej0","pricing_plan_id":"cebpf4jnsgd1na2vs0mg"},{"bike_id":"079e72f6-d54f-4528-99a3-384dbda35749","system_id":"levelo_inurba_marseille","lat":43.304274,"lon":5.388873,"is_reserved":false,"is_disabled":false,"rental_uris":{"android":"levelo://app?vid=079e72f6-d54f-4528-99a3-384dbda35749","ios":"levelo://app?vid=079e72f6-d54f-4528-99a3-384dbda35749"},"vehicle_type_id":"4","last_reported":1717524649,"current_range_meters":0,"station_id":"ce4bgk12rcd13ifvqbi0","pricing_plan_id":"cebpf4jnsgd1na2vs0mg"},{"bike_id":"0050c040-d820-4fab-bb20-0bf322846beb","system_id":"levelo_inurba_marseille","lat":43.301117,"lon":5.398795,"is_reserved":false,"is_disabled":false,"rental_uris":{"android":"levelo://app?vid=0050c040-d820-4fab-bb20-0bf322846beb","ios":"levelo://app?vid=0050c040-d820-4fab-bb20-0bf322846beb"},"vehicle_type_id":"4","last_reported":1717524649,"current_range_meters":10400,"station_id":"ce4bh0h2rcd13ifvqd40","pricing_plan_id":"cebpf4jnsgd1na2vs0mg"},{"bike_id":"a2818981-3a6b-4968-979c-f2d988f84ba2","system_id":"levelo_inurba_marseille","lat":43.28727,"lon":5.36078,"is_reserved":false,"is_disabled":false,"rental_uris":{"android":"levelo://app?vid=a2818981-3a6b-4968-979c-f2d988f84ba2","ios":"levelo://app?vid=a2818981-3a6b-4968-979c-f2d988f84ba2"},"vehicle_type_id":"4","last_reported":1717524649,"current_range_meters":8400,"station_id":"cki0cbj6b192h4jlfktg","pricing_plan_id":"cebpf4jnsgd1na2vs0mg"},{"bike_id":"0c46c640-5613-41b7-a4b7-d86ebd3d607e","system_id":"levelo_inurba_marseille","lat":43.28727,"lon":5.36078,"is_reserved":false,"is_disabled":false,"rental_uris":{"android":"levelo://app?vid=0c46c640-5613-41b7-a4b7-d86ebd3d607e","ios":"levelo://app?vid=0c46c640-5613-41b7-a4b7-d86ebd3d607e"},"vehicle_type_id":"4","last_reported":1717524649,"current_range_meters":2000,"station_id":"cki0cbj6b192h4jlfktg","pricing_plan_id":"cebpf4jnsgd1na2vs0mg"},{"bike_id":"add55eed-832a-4026-b428-ecbf1f1b8b33","system_id":"levelo_inurba_marseille","lat":43.28727,"lon":5.36078,"is_reserved":false,"is_disabled":false,"rental_uris":{"android":"levelo://app?vid=add55eed-832a-4026-b428-ecbf1f1b8b33","ios":"levelo://app?vid=add55eed-832a-4026-b428-ecbf1f1b8b33"},"vehicle_type_id":"4","last_reported":1717524649,"current_range_meters":25600,"station_id":"cki0cbj6b192h4jlfktg","pricing_plan_id":"cebpf4jnsgd1na2vs0mg"},{"bike_id":"1f46e9b9-f042-4eda-b4fa-162777a50a24","system_id":"levelo_inurba_marseille","lat":43.28727,"lon":5.36078,"is_reserved":false,"is_disabled":false,"rental_uris":{"android":"levelo://app?vid=1f46e9b9-f042-4eda-b4fa-162777a50a24","ios":"levelo://app?vid=1f46e9b9-f042-4eda-b4fa-162777a50a24"},"vehicle_type_id":"4","last_reported":1717524649,"current_range_meters":32000,"station_id":"cki0cbj6b192h4jlfktg","pricing_plan_id":"cebpf4jnsgd1na2vs0mg"},{"bike_id":"ae086ea8-2b43-4a0f-8328-0430cb7fb9c4","system_id":"levelo_inurba_marseille","lat":43.28727,"lon":5.36078,"is_reserved":false,"is_disabled":false,"rental_uris":{"android":"levelo://app?vid=ae086ea8-2b43-4a0f-8328-0430cb7fb9c4","ios":"levelo://app?vid=ae086ea8-2b43-4a0f-8328-0430cb7fb9c4"},"vehicle_type_id":"4","last_reported":1717524649,"current_range_meters":9600,"station_id":"cki0cbj6b192h4jlfktg","pricing_plan_id":"cebpf4jnsgd1na2vs0mg"},{"bike_id":"7f9df186-dd77-4d11-a7bf-384b5b930681","system_id":"levelo_inurba_marseille","lat":43.28727,"lon":5.36078,"is_reserved":false,"is_disabled":false,"rental_uris":{"android":"levelo://app?vid=7f9df186-dd77-4d11-a7bf-384b5b930681","ios":"levelo://app?vid=7f9df186-dd77-4d11-a7bf-384b5b930681"},"vehicle_type_id":"4","last_reported":1717524649,"current_range_meters":18000,"station_id":"cki0cbj6b192h4jlfktg","pricing_plan_id":"cebpf4jnsgd1na2vs0mg"},{"bike_id":"f20729df-7025-44eb-9ef9-85fca6434b1d","system_id":"levelo_inurba_marseille","lat":43.286591,"lon":5.363346,"is_reserved":false,"is_disabled":false,"rental_uris":{"android":"levelo://app?vid=f20729df-7025-44eb-9ef9-85fca6434b1d","ios":"levelo://app?vid=f20729df-7025-44eb-9ef9-85fca6434b1d"},"vehicle_type_id":"4","last_reported":1717524649,"current_range_meters":20400,"station_id":"ce4bhah2rcd13ifvqej0","pricing_plan_id":"cebpf4jnsgd1na2vs0mg"},{"bike_id":"32470954-8a48-4c0a-a24f-7937cdb16b40","system_id":"levelo_inurba_marseille","lat":43.29875,"lon":5.39738,"is_reserved":false,"is_disabled":false,"rental_uris":{"android":"levelo://app?vid=32470954-8a48-4c0a-a24f-7937cdb16b40","ios":"levelo://app?vid=32470954-8a48-4c0a-a24f-7937cdb16b40"},"vehicle_type_id":"4","last_reported":1717524649,"current_range_meters":0,"station_id":"ce4bh0h2rcd13ifvqd50","pricing_plan_id":"cebpf4jnsgd1na2vs0mg"},{"bike_id":"06d56308-cdee-42ce-8b1e-74a323bca895","system_id":"levelo_inurba_marseille","lat":43.286593,"lon":5.363346,"is_reserved":false,"is_disabled":false,"rental_uris":{"android":"levelo://app?vid=06d56308-cdee-42ce-8b1e-74a323bca895","ios":"levelo://app?vid=06d56308-cdee-42ce-8b1e-74a323bca895"},"vehicle_type_id":"4","last_reported":1717524649,"current_range_meters":8000,"station_id":"ce4bhah2rcd13ifvqej0","pricing_plan_id":"cebpf4jnsgd1na2vs0mg"},{"bike_id":"16b3abea-2c0a-4542-8d1c-9beecb216285","system_id":"levelo_inurba_marseille","lat":43.28698,"lon":5.373849,"is_reserved":false,"is_disabled":false,"rental_uris":{"android":"levelo://app?vid=16b3abea-2c0a-4542-8d1c-9beecb216285","ios":"levelo://app?vid=16b3abea-2c0a-4542-8d1c-9beecb216285"},"vehicle_type_id":"4","last_reported":1717524649,"current_range_meters":0,"station_id":"ce4bh3p2rcd13ifvqdq0","pricing_plan_id":"cebpf4jnsgd1na2vs0mg"},{"bike_id":"3f5f9b12-1b9b-445b-add8-b9a23fe2215a","system_id":"levelo_inurba_marseille","lat":43.286591,"lon":5.363346,"is_reserved":false,"is_disabled":false,"rental_uris":{"android":"levelo://app?vid=3f5f9b12-1b9b-445b-add8-b9a23fe2215a","ios":"levelo://app?vid=3f5f9b12-1b9b-445b-add8-b9a23fe2215a"},"vehicle_type_id":"4","last_reported":1717524649,"current_range_meters":14000,"station_id":"ce4bhah2rcd13ifvqej0","pricing_plan_id":"cebpf4jnsgd1na2vs0mg"},{"bike_id":"2877a4b8-174f-43e8-968c-3869df89bde8","system_id":"levelo_inurba_marseille","lat":43.295237,"lon":5.394078,"is_reserved":false,"is_disabled":false,"rental_uris":{"android":"levelo://app?vid=2877a4b8-174f-43e8-968c-3869df89bde8","ios":"levelo://app?vid=2877a4b8-174f-43e8-968c-3869df89bde8"},"vehicle_type_id":"4","last_reported":1717524649,"current_range_meters":0,"station_id":"ce4bh292rcd13ifvqdf0","pricing_plan_id":"cebpf4jnsgd1na2vs0mg"},{"bike_id":"63aea722-6e7d-4358-8571-31845fbc064f","system_id":"levelo_inurba_marseille","lat":43.290336,"lon":5.386425,"is_reserved":false,"is_disabled":false,"rental_uris":{"android":"levelo://app?vid=63aea722-6e7d-4358-8571-31845fbc064f","ios":"levelo://app?vid=63aea722-6e7d-4358-8571-31845fbc064f"},"vehicle_type_id":"4","last_reported":1717524649,"current_range_meters":1200,"station_id":"ce4bh4p2rcd13ifvqe0g","pricing_plan_id":"cebpf4jnsgd1na2vs0mg"},{"bike_id":"fec51b19-0302-43dd-bdac-3c8b208f5373","system_id":"levelo_inurba_marseille","lat":43.302759,"lon":5.400793,"is_reserved":false,"is_disabled":false,"rental_uris":{"android":"levelo://app?vid=fec51b19-0302-43dd-bdac-3c8b208f5373","ios":"levelo://app?vid=fec51b19-0302-43dd-bdac-3c8b208f5373"},"vehicle_type_id":"4","last_reported":1717524649,"current_range_meters":0,"station_id":"ce4bgvh2rcd13ifvqcs0","pricing_plan_id":"cebpf4jnsgd1na2vs0mg"},{"bike_id":"82aa23b3-c6ec-471d-9b03-671d267457a1","system_id":"levelo_inurba_marseille","lat":43.302759,"lon":5.400793,"is_reserved":false,"is_disabled":false,"rental_uris":{"android":"levelo://app?vid=82aa23b3-c6ec-471d-9b03-671d267457a1","ios":"levelo://app?vid=82aa23b3-c6ec-471d-9b03-671d267457a1"},"vehicle_type_id":"4","last_reported":1717524649,"current_range_meters":20400,"station_id":"ce4bgvh2rcd13ifvqcs0","pricing_plan_id":"cebpf4jnsgd1na2vs0mg"},{"bike_id":"6572180c-9345-4176-882e-1020f9f3c4a4","system_id":"levelo_inurba_marseille","lat":43.28614,"lon":5.37059,"is_reserved":false,"is_disabled":false,"rental_uris":{"android":"levelo://app?vid=6572180c-9345-4176-882e-1020f9f3c4a4","ios":"levelo://app?vid=6572180c-9345-4176-882e-1020f9f3c4a4"},"vehicle_type_id":"4","last_reported":1717524649,"current_range_meters":26000,"station_id":"ce4bht12rcd13ifvqi60","pricing_plan_id":"cebpf4jnsgd1na2vs0mg"},{"bike_id":"91c4ce60-de74-43a9-ac88-fc0588db7565","system_id":"levelo_inurba_marseille","lat":43.28614,"lon":5.37069,"is_reserved":false,"is_disabled":false,"rental_uris":{"android":"levelo://app?vid=91c4ce60-de74-43a9-ac88-fc0588db7565","ios":"levelo://app?vid=91c4ce60-de74-43a9-ac88-fc0588db7565"},"vehicle_type_id":"4","last_reported":1717524649,"current_range_meters":30400,"station_id":"ce4bht12rcd13ifvqi60","pricing_plan_id":"cebpf4jnsgd1na2vs0mg"},{"bike_id":"4fd4dba8-1627-40fe-9e5e-a6567ec40b7f","system_id":"levelo_inurba_marseille","lat":43.28613,"lon":5.37061,"is_reserved":false,"is_disabled":false,"rental_uris":{"android":"levelo://app?vid=4fd4dba8-1627-40fe-9e5e-a6567ec40b7f","ios":"levelo://app?vid=4fd4dba8-1627-40fe-9e5e-a6567ec40b7f"},"vehicle_type_id":"4","last_reported":1717524649,"current_range_meters":30000,"station_id":"ce4bht12rcd13ifvqi60","pricing_plan_id":"cebpf4jnsgd1na2vs0mg"},{"bike_id":"a9466b26-03b2-465e-af2a-3ebe25341322","system_id":"levelo_inurba_marseille","lat":43.28612,"lon":5.37058,"is_reserved":false,"is_disabled":false,"rental_uris":{"android":"levelo://app?vid=a9466b26-03b2-465e-af2a-3ebe25341322","ios":"levelo://app?vid=a9466b26-03b2-465e-af2a-3ebe25341322"},"vehicle_type_id":"4","last_reported":1717524649,"current_range_meters":30400,"station_id":"ce4bht12rcd13ifvqi60","pricing_plan_id":"cebpf4jnsgd1na2vs0mg"},{"bike_id":"ce4bd049-9d36-48d4-b177-f97afd86682a","system_id":"levelo_inurba_marseille","lat":43.285938,"lon":5.37105,"is_reserved":false,"is_disabled":false,"rental_uris":{"android":"levelo://app?vid=ce4bd049-9d36-48d4-b177-f97afd86682a","ios":"levelo://app?vid=ce4bd049-9d36-48d4-b177-f97afd86682a"},"vehicle_type_id":"4","last_reported":1717524649,"current_range_meters":1600,"station_id":"ce4bht12rcd13ifvqi60","pricing_plan_id":"cebpf4jnsgd1na2vs0mg"},{"bike_id":"60e58e9a-8f5f-480e-9948-fc6b1dc4466e","system_id":"levelo_inurba_marseille","lat":43.28985,"lon":5.38673,"is_reserved":false,"is_disabled":false,"rental_uris":{"android":"levelo://app?vid=60e58e9a-8f5f-480e-9948-fc6b1dc4466e","ios":"levelo://app?vid=60e58e9a-8f5f-480e-9948-fc6b1dc4466e"},"vehicle_type_id":"4","last_reported":1717524649,"current_range_meters":0,"station_id":"ce4bh4p2rcd13ifvqe0g","pricing_plan_id":"cebpf4jnsgd1na2vs0mg"},{"bike_id":"61e9585a-412a-49e0-9d22-bdd9fd29e73a","system_id":"levelo_inurba_marseille","lat":43.287184,"lon":5.37937,"is_reserved":false,"is_disabled":false,"rental_uris":{"android":"levelo://app?vid=61e9585a-412a-49e0-9d22-bdd9fd29e73a","ios":"levelo://app?vid=61e9585a-412a-49e0-9d22-bdd9fd29e73a"},"vehicle_type_id":"4","last_reported":1717524649,"current_range_meters":13600,"station_id":"ce4bh9p2rcd13ifvqec0","pricing_plan_id":"cebpf4jnsgd1na2vs0mg"},{"bike_id":"e2960d2d-d055-40e9-9b51-d21c60303f07","system_id":"levelo_inurba_marseille","lat":43.287188,"lon":5.379483,"is_reserved":false,"is_disabled":false,"rental_uris":{"android":"levelo://app?vid=e2960d2d-d055-40e9-9b51-d21c60303f07","ios":"levelo://app?vid=e2960d2d-d055-40e9-9b51-d21c60303f07"},"vehicle_type_id":"4","last_reported":1717524649,"current_range_meters":0,"station_id":"ce4bh9p2rcd13ifvqec0","pricing_plan_id":"cebpf4jnsgd1na2vs0mg"},{"bike_id":"c3d1ee13-1d19-4150-b079-70668bf0329b","system_id":"levelo_inurba_marseille","lat":43.316821,"lon":5.404737,"is_reserved":false,"is_disabled":false,"rental_uris":{"android":"levelo://app?vid=c3d1ee13-1d19-4150-b079-70668bf0329b","ios":"levelo://app?vid=c3d1ee13-1d19-4150-b079-70668bf0329b"},"vehicle_type_id":"4","last_reported":1717524649,"current_range_meters":0,"station_id":"ce4bh012rcd13ifvqd00","pricing_plan_id":"cebpf4jnsgd1na2vs0mg"},{"bike_id":"e4eee8a1-fbab-49cb-aaea-1c4cd98a362c","system_id":"levelo_inurba_marseille","lat":43.316828,"lon":5.404723,"is_reserved":false,"is_disabled":false,"rental_uris":{"android":"levelo://app?vid=e4eee8a1-fbab-49cb-aaea-1c4cd98a362c","ios":"levelo://app?vid=e4eee8a1-fbab-49cb-aaea-1c4cd98a362c"},"vehicle_type_id":"4","last_reported":1717524649,"current_range_meters":0,"station_id":"ce4bh012rcd13ifvqd00","pricing_plan_id":"cebpf4jnsgd1na2vs0mg"},{"bike_id":"2f372463-1b81-4d9b-b8e1-95f8eff42dc6","system_id":"levelo_inurba_marseille","lat":43.284538,"lon":5.358657,"is_reserved":false,"is_disabled":false,"rental_uris":{"android":"levelo://app?vid=2f372463-1b81-4d9b-b8e1-95f8eff42dc6","ios":"levelo://app?vid=2f372463-1b81-4d9b-b8e1-95f8eff42dc6"},"vehicle_type_id":"4","last_reported":1717524649,"current_range_meters":8800,"station_id":"ce4bhah2rcd13ifvqei0","pricing_plan_id":"cebpf4jnsgd1na2vs0mg"},{"bike_id":"055595c2-a15e-40d5-b88e-65a2b8a4913b","system_id":"levelo_inurba_marseille","lat":43.284534,"lon":5.358662,"is_reserved":false,"is_disabled":false,"rental_uris":{"android":"levelo://app?vid=055595c2-a15e-40d5-b88e-65a2b8a4913b","ios":"levelo://app?vid=055595c2-a15e-40d5-b88e-65a2b8a4913b"},"vehicle_type_id":"4","last_reported":1717524649,"current_range_meters":16800,"station_id":"ce4bhah2rcd13ifvqei0","pricing_plan_id":"cebpf4jnsgd1na2vs0mg"},{"bike_id":"6c5d8905-41a6-47db-b31d-1af5e1bb390a","system_id":"levelo_inurba_marseille","lat":43.298719,"lon":5.400832,"is_reserved":false,"is_disabled":false,"rental_uris":{"android":"levelo://app?vid=6c5d8905-41a6-47db-b31d-1af5e1bb390a","ios":"levelo://app?vid=6c5d8905-41a6-47db-b31d-1af5e1bb390a"},"vehicle_type_id":"4","last_reported":1717524649,"current_range_meters":0,"station_id":"","pricing_plan_id":"cebpf4jnsgd1na2vs0mg"},{"bike_id":"73e4272b-8dcb-4d55-b01b-0c797a38e752","system_id":"levelo_inurba_marseille","lat":43.284534,"lon":5.358662,"is_reserved":false,"is_disabled":false,"rental_uris":{"android":"levelo://app?vid=73e4272b-8dcb-4d55-b01b-0c797a38e752","ios":"levelo://app?vid=73e4272b-8dcb-4d55-b01b-0c797a38e752"},"vehicle_type_id":"4","last_reported":1717524649,"current_range_meters":4000,"station_id":"ce4bhah2rcd13ifvqei0","pricing_plan_id":"cebpf4jnsgd1na2vs0mg"},{"bike_id":"4f5c3df0-915a-466f-97a4-0515241d3e3a","system_id":"levelo_inurba_marseille","lat":43.28465,"lon":5.3588,"is_reserved":false,"is_disabled":false,"rental_uris":{"android":"levelo://app?vid=4f5c3df0-915a-466f-97a4-0515241d3e3a","ios":"levelo://app?vid=4f5c3df0-915a-466f-97a4-0515241d3e3a"},"vehicle_type_id":"4","last_reported":1717524649,"current_range_meters":0,"station_id":"ce4bhah2rcd13ifvqei0","pricing_plan_id":"cebpf4jnsgd1na2vs0mg"},{"bike_id":"a85bcb5c-4e0e-4c43-bf8f-4008f1c59ea6","system_id":"levelo_inurba_marseille","lat":43.28459,"lon":5.35896,"is_reserved":false,"is_disabled":false,"rental_uris":{"android":"levelo://app?vid=a85bcb5c-4e0e-4c43-bf8f-4008f1c59ea6","ios":"levelo://app?vid=a85bcb5c-4e0e-4c43-bf8f-4008f1c59ea6"},"vehicle_type_id":"4","last_reported":1717524649,"current_range_meters":19200,"station_id":"ce4bhah2rcd13ifvqei0","pricing_plan_id":"cebpf4jnsgd1na2vs0mg"},{"bike_id":"0a94dc2c-61ad-4f57-94ef-5987e25ef0d2","system_id":"levelo_inurba_marseille","lat":43.28458,"lon":5.35884,"is_reserved":false,"is_disabled":false,"rental_uris":{"android":"levelo://app?vid=0a94dc2c-61ad-4f57-94ef-5987e25ef0d2","ios":"levelo://app?vid=0a94dc2c-61ad-4f57-94ef-5987e25ef0d2"},"vehicle_type_id":"4","last_reported":1717524649,"current_range_meters":1200,"station_id":"ce4bhah2rcd13ifvqei0","pricing_plan_id":"cebpf4jnsgd1na2vs0mg"},{"bike_id":"40c0f399-4160-410d-a181-fc3a1051a78f","system_id":"levelo_inurba_marseille","lat":43.28456,"lon":5.35885,"is_reserved":false,"is_disabled":false,"rental_uris":{"android":"levelo://app?vid=40c0f399-4160-410d-a181-fc3a1051a78f","ios":"levelo://app?vid=40c0f399-4160-410d-a181-fc3a1051a78f"},"vehicle_type_id":"4","last_reported":1717524649,"current_range_meters":1200,"station_id":"ce4bhah2rcd13ifvqei0","pricing_plan_id":"cebpf4jnsgd1na2vs0mg"},{"bike_id":"3a44cbe9-bfe4-46e5-9739-bd304f8f926e","system_id":"levelo_inurba_marseille","lat":43.286293,"lon":5.351176,"is_reserved":false,"is_disabled":false,"rental_uris":{"android":"levelo://app?vid=3a44cbe9-bfe4-46e5-9739-bd304f8f926e","ios":"levelo://app?vid=3a44cbe9-bfe4-46e5-9739-bd304f8f926e"},"vehicle_type_id":"4","last_reported":1717524649,"current_range_meters":0,"station_id":"ce4bhch2rcd13ifvqeug","pricing_plan_id":"cebpf4jnsgd1na2vs0mg"},{"bike_id":"5a98b3c3-7472-4bf6-8030-c4dffdefa9e1","system_id":"levelo_inurba_marseille","lat":43.28446,"lon":5.35887,"is_reserved":false,"is_disabled":false,"rental_uris":{"android":"levelo://app?vid=5a98b3c3-7472-4bf6-8030-c4dffdefa9e1","ios":"levelo://app?vid=5a98b3c3-7472-4bf6-8030-c4dffdefa9e1"},"vehicle_type_id":"4","last_reported":1717524649,"current_range_meters":0,"station_id":"ce4bhah2rcd13ifvqei0","pricing_plan_id":"cebpf4jnsgd1na2vs0mg"},{"bike_id":"6b407b85-a21b-4a73-b3e2-7a0e8989f0a7","system_id":"levelo_inurba_marseille","lat":43.28619,"lon":5.35104,"is_reserved":false,"is_disabled":false,"rental_uris":{"android":"levelo://app?vid=6b407b85-a21b-4a73-b3e2-7a0e8989f0a7","ios":"levelo://app?vid=6b407b85-a21b-4a73-b3e2-7a0e8989f0a7"},"vehicle_type_id":"4","last_reported":1717524649,"current_range_meters":0,"station_id":"ce4bhch2rcd13ifvqeug","pricing_plan_id":"cebpf4jnsgd1na2vs0mg"},{"bike_id":"64a2d2c5-c294-49f5-8f33-b0d707c15f86","system_id":"levelo_inurba_marseille","lat":43.28618,"lon":5.35105,"is_reserved":false,"is_disabled":false,"rental_uris":{"android":"levelo://app?vid=64a2d2c5-c294-49f5-8f33-b0d707c15f86","ios":"levelo://app?vid=64a2d2c5-c294-49f5-8f33-b0d707c15f86"},"vehicle_type_id":"4","last_reported":1717524649,"current_range_meters":0,"station_id":"ce4bhch2rcd13ifvqeug","pricing_plan_id":"cebpf4jnsgd1na2vs0mg"},