{"last_updated":1748545682,"ttl":60,"version":"2.2","data":{"bikes":[{"bike_id":"55d42eeb-6b71-4987-a0f2-3d758b10d43e","system_id":"levelo_inurba_marseille","lat":43.33771,"lon":5.37424,"is_reserved":false,"is_disabled":true,"rental_uris":{"android":"levelo://app?vid=55d42eeb-6b71-4987-a0f2-3d758b10d43e","ios":"levelo://app?vid=55d42eeb-6b71-4987-a0f2-3d758b10d43e"},"vehicle_type_id":"4","last_reported":1748545682,"current_range_meters":0,"station_id":"","pricing_plan_id":"cebpf4jnsgd1na2vs0mg"},{"bike_id":"8c7291be-ed63-4533-9817-ac4e5bc6776f","system_id":"levelo_inurba_marseille","lat":43.29215,"lon":5.35548,"is_reserved":false,"is_disabled":false,"rental_uris":{"android":"levelo://app?vid=8c7291be-ed63-4533-9817-ac4e5bc6776f","ios":"levelo://app?vid=8c7291be-ed63-4533-9817-ac4e5bc6776f"},"vehicle_type_id":"4","last_reported":1748545682,"current_range_meters":0,"station_id":"","pricing_plan_id":"cebpf4jnsgd1na2vs0mg"},{"bike_id":"b7fe4621-b706-42f0-9085-4811142f84e8","system_id":"levelo_inurba_marseille","lat":43.337499,"lon":5.374469,"is_reserved":false,"is_disabled":true,"rental_uris":{"android":"levelo://app?vid=b7fe4621-b706-42f0-9085-4811142f84e8","ios":"levelo://app?vid=b7fe4621-b706-42f0-9085-4811142f84e8"},"vehicle_type_id":"4","last_reported":1748545682,"current_range_meters":0,"station_id":"","pricing_plan_id":"cebpf4jnsgd1na2vs0mg"},{"bike_id":"026ed65d-07ee-4955-b98a-dcd4f8ac417e","system_id":"levelo_inurba_marseille","lat":43.2179,"lon":5.34581,"is_reserved":false,"is_disabled":true,"rental_uris":{"android":"levelo://app?vid=026ed65d-07ee-4955-b98a-dcd4f8ac417e","ios":"levelo://app?vid=026ed65d-07ee-4955-b98a-dcd4f8ac417e"},"vehicle_type_id":"4","last_reported":1748545682,"current_range_meters":0,"station_id":"","pricing_plan_id":"cebpf4jnsgd1na2vs0mg"},{"bike_id":"2a4c12b9-20f8-4a57-9dbe-920bc253b604","system_id":"levelo_inurba_marseille","lat":43.33026,"lon":5.38371,"is_reserved":false,"is_disabled":true,"rental_uris":{"android":"levelo://app?vid=2a4c12b9-20f8-4a57-9dbe-920bc253b604","ios":"levelo://app?vid=2a4c12b9-20f8-4a57-9dbe-920bc253b604"},"vehicle_type_id":"4","last_reported":1748545682,"current_range_meters":0,"station_id":"","pricing_plan_id":"cebpf4jnsgd1na2vs0mg"},{"bike_id":"ad402f0f-3192-410c-afac-8cf064a40c6d","system_id":"levelo_inurba_marseille","lat":43.337444,"lon":5.374475,"is_reserved":false,"is_disabled":true,"rental_uris":{"android":"levelo://app?vid=ad402f0f-3192-410c-afac-8cf064a40c6d","ios":"levelo://app?vid=ad402f0f-3192-410c-afac-8cf064a40c6d"},"vehicle_type_id":"4","last_reported":1748545682,"current_range_meters":0,"station_id":"","pricing_plan_id":"cebpf4jnsgd1na2vs0mg"},{"bike_id":"64fceeed-f4e8-40df-995a-9a2b05abc560","system_id":"levelo_inurba_marseille","lat":43.32558,"lon":5.42981,"is_reserved":false,"is_disabled":true,"rental_uris":{"android":"levelo://app?vid=64fceeed-f4e8-40df-995a-9a2b05abc560","ios":"levelo://app?vid=64fceeed-f4e8-40df-995a-9a2b05abc560"},"vehicle_type_id":"4","last_reported":1748545682,"current_range_meters":0,"station_id":"","pricing_plan_id":"cebpf4jnsgd1na2vs0mg"},{"bike_id":"06938951-e273-452e-94b8-4a2eaf56a0de","system_id":"levelo_inurba_marseille","lat":43.31973,"lon":5.37126,"is_reserved":false,"is_disabled":true,"rental_uris":{"android":"levelo://app?vid=06938951-e273-452e-94b8-4a2eaf56a0de","ios":"levelo://app?vid=06938951-e273-452e-94b8-4a2eaf56a0de"},"vehicle_type_id":"4","last_reported":1748545682,"current_range_meters":0,"station_id":"","pricing_plan_id":"cebpf4jnsgd1na2vs0mg"},{"bike_id":"80dc1064-d63f-4a22-ad21-d8abd70986c0","system_id":"levelo_inurba_marseille","lat":43.337481,"lon":5.374765,"is_reserved":false,"is_disabled":true,"rental_uris":{"android":"levelo://app?vid=80dc1064-d63f-4a22-ad21-d8abd70986c0","ios":"levelo://app?vid=80dc1064-d63f-4a22-ad21-d8abd70986c0"},"vehicle_type_id":"4","last_reported":1748545682,"current_range_meters":0,"station_id":"","pricing_plan_id":"cebpf4jnsgd1na2vs0mg"},{"bike_id":"2c08f058-11cb-4c96-b63a-5cf20fe05e84","system_id":"levelo_inurba_marseille","lat":43.301363,"lon":5.387826,"is_reserved":false,"is_disabled":true,"rental_uris":{"android":"levelo://app?vid=2c08f058-11cb-4c96-b63a-5cf20fe05e84","ios":"levelo://app?vid=2c08f058-11cb-4c96-b63a-5cf20fe05e84"},"vehicle_type_id":"4","last_reported":1748545682,"current_range_meters":0,"station_id":"","pricing_plan_id":"cebpf4jnsgd1na2vs0mg"},{"bike_id":"987b70df-a246-4bbc-966b-0c7b3f4b7350","system_id":"levelo_inurba_marseille","lat":43.2823,"lon":5.39051,"is_reserved":false,"is_disabled":true,"rental_uris":{"android":"levelo://app?vid=987b70df-a246-4bbc-966b-0c7b3f4b7350","ios":"levelo://app?vid=987b70df-a246-4bbc-966b-0c7b3f4b7350"},"vehicle_type_id":"4","last_reported":1748545682,"current_range_meters":0,"station_id":"","pricing_plan_id":"cebpf4jnsgd1na2vs0mg"},{"bike_id":"2fd7e160-685c-4858-b57b-dcaef27a8e94","system_id":"levelo_inurba_marseille","lat":43.230331,"lon":5.401847,"is_reserved":false,"is_disabled":true,"rental_uris":{"android":"levelo://app?vid=2fd7e160-685c-4858-b57b-dcaef27a8e94","ios":"levelo://app?vid=2fd7e160-685c-4858-b57b-dcaef27a8e94"},"vehicle_type_id":"4","last_reported":1748545682,"current_range_meters":0,"station_id":"","pricing_plan_id":"cebpf4jnsgd1na2vs0mg"},{"bike_id":"7056eebf-1b47-416f-9666-3f7518752188","system_id":"levelo_inurba_marseille","lat":43.29905,"lon":5.38128,"is_reserved":false,"is_disabled":true,"rental_uris":{"android":"levelo://app?vid=7056eebf-1b47-416f-9666-3f7518752188","ios":"levelo://app?vid=7056eebf-1b47-416f-9666-3f7518752188"},"vehicle_type_id":"4","last_reported":1748545682,"current_range_meters":0,"station_id":"ce4bgj12rcd13ifvqbc0","pricing_plan_id":"cebpf4jnsgd1na2vs0mg"},{"bike_id":"62055b92-8c48-426d-8773-56dc5d5a04cb","system_id":"levelo_inurba_marseille","lat":43.29921,"lon":5.37492,"is_reserved":false,"is_disabled":true,"rental_uris":{"android":"levelo://app?vid=62055b92-8c48-426d-8773-56dc5d5a04cb","ios":"levelo://app?vid=62055b92-8c48-426d-8773-56dc5d5a04cb"},"vehicle_type_id":"4","last_reported":1748545682,"current_range_meters":0,"station_id":"ce4bgjh2rcd13ifvqbg0","pricing_plan_id":"cebpf4jnsgd1na2vs0mg"},{"bike_id":"827da0fb-45e3-42cb-ac70-31dc031a50fa","system_id":"levelo_inurba_marseille","lat":43.30434,"lon":5.38897,"is_reserved":false,"is_disabled":true,"rental_uris":{"android":"levelo://app?vid=827da0fb-45e3-42cb-ac70-31dc031a50fa","ios":"levelo://app?vid=827da0fb-45e3-42cb-ac70-31dc031a50fa"},"vehicle_type_id":"4","last_reported":1748545682,"current_range_meters":0,"station_id":"ce4bgk12rcd13ifvqbi0","pricing_plan_id":"cebpf4jnsgd1na2vs0mg"},{"bike_id":"1cab0e17-cb7a-400b-9661-149ed91dbd16","system_id":"levelo_inurba_marseille","lat":43.303,"lon":5.3921,"is_reserved":false,"is_disabled":true,"rental_uris":{"android":"levelo://app?vid=1cab0e17-cb7a-400b-9661-149ed91dbd16","ios":"levelo://app?vid=1cab0e17-cb7a-400b-9661-149ed91dbd16"},"vehicle_type_id":"4","last_reported":1748545682,"current_range_meters":0,"station_id":"ce4bgkh2rcd13ifvqbk0","pricing_plan_id":"cebpf4jnsgd1na2vs0mg"},{"bike_id":"2baa78e9-016e-4ec1-a26c-e3d54ea81691","system_id":"levelo_inurba_marseille","lat":43.30249,"lon":5.4004,"is_reserved":false,"is_disabled":true,"rental_uris":{"android":"levelo://app?vid=2baa78e9-016e-4ec1-a26c-e3d54ea81691","ios":"levelo://app?vid=2baa78e9-016e-4ec1-a26c-e3d54ea81691"},"vehicle_type_id":"4","last_reported":1748545682,"current_range_meters":0,"station_id":"ce4bgvh2rcd13ifvqcs0","pricing_plan_id":"cebpf4jnsgd1na2vs0mg"},{"bike_id":"cd897d51-0466-4175-a09d-5e14460759c6","system_id":"levelo_inurba_marseille","lat":43.30248,"lon":5.40045,"is_reserved":false,"is_disabled":true,"rental_uris":{"android":"levelo://app?vid=cd897d51-0466-4175-a09d-5e14460759c6","ios":"levelo://app?vid=cd897d51-0466-4175-a09d-5e14460759c6"},"vehicle_type_id":"4","last_reported":1748545682,"current_range_meters":0,"station_id":"ce4bgvh2rcd13ifvqcs0","pricing_plan_id":"cebpf4jnsgd1na2vs0mg"},{"bike_id":"0a2e8024-718c-4be2-b4c3-21e4d242932d","system_id":"levelo_inurba_marseille","lat":43.29882,"lon":5.39724,"is_reserved":false,"is_disabled":true,"rental_uris":{"android":"levelo://app?vid=0a2e8024-718c-4be2-b4c3-21e4d242932d","ios":"levelo://app?vid=0a2e8024-718c-4be2-b4c3-21e4d242932d"},"vehicle_type_id":"4","last_reported":1748545682,"current_range_meters":0,"station_id":"ce4bh0h2rcd13ifvqd50","pricing_plan_id":"cebpf4jnsgd1na2vs0mg"},{"bike_id":"378fc85e-a775-4fcd-9d35-ddb9f932e3c5","system_id":"levelo_inurba_marseille","lat":43.28106,"lon":5.37837,"is_reserved":false,"is_disabled":true,"rental_uris":{"android":"levelo://app?vid=378fc85e-a775-4fcd-9d35-ddb9f932e3c5","ios":"levelo://app?vid=378fc85e-a775-4fcd-9d35-ddb9f932e3c5"},"vehicle_type_id":"4","last_reported":1748545682,"current_range_meters":0,"station_id":"ce4bha12rcd13ifvqee0","pricing_plan_id":"cebpf4jnsgd1na2vs0mg"},{"bike_id":"94d7fb14-e7ff-410a-8b44-1b90313dea87","system_id":"levelo_inurba_marseille","lat":43.2738,"lon":5.36251,"is_reserved":false,"is_disabled":true,"rental_uris":{"android":"levelo://app?vid=94d7fb14-e7ff-410a-8b44-1b90313dea87","ios":"levelo://app?vid=94d7fb14-e7ff-410a-8b44-1b90313dea87"},"vehicle_type_id":"4","last_reported":1748545682,"current_range_meters":0,"station_id":"ce4bhbh2rcd13ifvqeo0","pricing_plan_id":"cebpf4jnsgd1na2vs0mg"},{"bike_id":"549f7497-142a-49de-86e9-6934a376f193","system_id":"levelo_inurba_marseille","lat":43.2738,"lon":5.3626,"is_reserved":false,"is_disabled":true,"rental_uris":{"android":"levelo://app?vid=549f7497-142a-49de-86e9-6934a376f193","ios":"levelo://app?vid=549f7497-142a-49de-86e9-6934a376f193"},"vehicle_type_id":"4","last_reported":1748545682,"current_range_meters":0,"station_id":"ce4bhbh2rcd13ifvqeo0","pricing_plan_id":"cebpf4jnsgd1na2vs0mg"},{"bike_id":"10922916-3d65-45e6-aef3-7acf04097e6b","system_id":"levelo_inurba_marseille","lat":43.26579,"lon":5.39052,"is_reserved":false,"is_disabled":true,"rental_uris":{"android":"levelo://app?vid=10922916-3d65-45e6-aef3-7acf04097e6b","ios":"levelo://app?vid=10922916-3d65-45e6-aef3-7acf04097e6b"},"vehicle_type_id":"4","last_reported":1748545682,"current_range_meters":0,"station_id":"ce4bhe12rcd13ifvqf30","pricing_plan_id":"cebpf4jnsgd1na2vs0mg"},{"bike_id":"721bc3b1-4b45-4953-951d-97f1a7656a7a","system_id":"levelo_inurba_marseille","lat":43.27976,"lon":5.38727,"is_reserved":false,"is_disabled":true,"rental_uris":{"android":"levelo://app?vid=721bc3b1-4b45-4953-951d-97f1a7656a7a","ios":"levelo://app?vid=721bc3b1-4b45-4953-951d-97f1a7656a7a"},"vehicle_type_id":"4","last_reported":1748545682,"current_range_meters":0,"station_id":"ce4bhg12rcd13ifvqf80","pricing_plan_id":"cebpf4jnsgd1na2vs0mg"},{"bike_id":"68fbca69-6c1d-434c-8546-5363b266d8c5","system_id":"levelo_inurba_marseille","lat":43.276771,"lon":5.389204,"is_reserved":false,"is_disabled":true,"rental_uris":{"android":"levelo://app?vid=68fbca69-6c1d-434c-8546-5363b266d8c5","ios":"levelo://app?vid=68fbca69-6c1d-434c-8546-5363b266d8c5"},"vehicle_type_id":"4","last_reported":1748545682,"current_range_meters":0,"station_id":"ce4bhi12rcd13ifvqfo0","pricing_plan_id":"cebpf4jnsgd1na2vs0mg"},{"bike_id":"7ef9bb47-8217-4993-a51e-c3315d592a05","system_id":"levelo_inurba_marseille","lat":43.25121,"lon":5.40314,"is_reserved":false,"is_disabled":true,"rental_uris":{"android":"levelo://app?vid=7ef9bb47-8217-4993-a51e-c3315d592a05","ios":"levelo://app?vid=7ef9bb47-8217-4993-a51e-c3315d592a05"},"vehicle_type_id":"4","last_reported":1748545682,"current_range_meters":0,"station_id":"ce4bhlh2rcd13ifvqgig","pricing_plan_id":"cebpf4jnsgd1na2vs0mg"},{"bike_id":"66978107-4a4c-43dd-905e-f220dfbc78fe","system_id":"levelo_inurba_marseille","lat":43.24184,"lon":5.39723,"is_reserved":false,"is_disabled":true,"rental_uris":{"android":"levelo://app?vid=66978107-4a4c-43dd-905e-f220dfbc78fe","ios":"levelo://app?vid=66978107-4a4c-43dd-905e-f220dfbc78fe"},"vehicle_type_id":"4","last_reported":1748545682,"current_range_meters":0,"station_id":"ce4bhn12rcd13ifvqgpg","pricing_plan_id":"cebpf4jnsgd1na2vs0mg"},{"bike_id":"cd018a14-e83d-4d40-ac42-b66ab9d8e9cc","system_id":"levelo_inurba_marseille","lat":43.22506,"lon":5.34795,"is_reserved":false,"is_disabled":true,"rental_uris":{"android":"levelo://app?vid=cd018a14-e83d-4d40-ac42-b66ab9d8e9cc","ios":"levelo://app?vid=cd018a14-e83d-4d40-ac42-b66ab9d8e9cc"},"vehicle_type_id":"4","last_reported":1748545682,"current_range_meters":0,"station_id":"st_cvj5dfep6f1abm77gieg","pricing_plan_id":"cebpf4jnsgd1na2vs0mg"},{"bike_id":"8dcb4a7f-3dfb-4d58-b7f8-a5b3bd34c23f","system_id":"levelo_inurba_marseille","lat":43.24541,"lon":5.3953,"is_reserved":false,"is_disabled":true,"rental_uris":{"android":"levelo://app?vid=8dcb4a7f-3dfb-4d58-b7f8-a5b3bd34c23f","ios":"levelo://app?vid=8dcb4a7f-3dfb-4d58-b7f8-a5b3bd34c23f"},"vehicle_type_id":"4","last_reported":1748545682,"current_range_meters":400,"station_id":"ce4bhlp2rcd13ifvqgjg","pricing_plan_id":"cebpf4jnsgd1na2vs0mg"},{"bike_id":"aa65ca4f-c082-4513-bd14-2e984aa1f5f9","system_id":"levelo_inurba_marseille","lat":43.25927,"lon":5.40928,"is_reserved":false,"is_disabled":true,"rental_uris":{"android":"levelo://app?vid=aa65ca4f-c082-4513-bd14-2e984aa1f5f9","ios":"levelo://app?vid=aa65ca4f-c082-4513-bd14-2e984aa1f5f9"},"vehicle_type_id":"4","last_reported":1748545682,"current_range_meters":400,"station_id":"ce4bhm92rcd13ifvqglg","pricing_plan_id":"cebpf4jnsgd1na2vs0mg"},{"bike_id":"432eef5d-9ab8-4992-85fa-7fefc1d24756","system_id":"levelo_inurba_marseille","lat":43.32514,"lon":5.42455,"is_reserved":false,"is_disabled":true,"rental_uris":{"android":"levelo://app?vid=432eef5d-9ab8-4992-85fa-7fefc1d24756","ios":"levelo://app?vid=432eef5d-9ab8-4992-85fa-7fefc1d24756"},"vehicle_type_id":"4","last_reported":1748545682,"current_range_meters":800,"station_id":"","pricing_plan_id":"cebpf4jnsgd1na2vs0mg"},{"bike_id":"5215640d-2fd5-4a51-af38-ba665e8ec76a","system_id":"levelo_inurba_marseille","lat":43.32599,"lon":5.43072,"is_reserved":false,"is_disabled":true,"rental_uris":{"android":"levelo://app?vid=5215640d-2fd5-4a51-af38-ba665e8ec76a","ios":"levelo://app?vid=5215640d-2fd5-4a51-af38-ba665e8ec76a"},"vehicle_type_id":"4","last_reported":1748545682,"current_range_meters":1200,"station_id":"","pricing_plan_id":"cebpf4jnsgd1na2vs0mg"},{"bike_id":"180e4da0-00a9-4461-bfd1-11630824fb3b","system_id":"levelo_inurba_marseille","lat":43.2434,"lon":5.40153,"is_reserved":false,"is_disabled":true,"rental_uris":{"android":"levelo://app?vid=180e4da0-00a9-4461-bfd1-11630824fb3b","ios":"levelo://app?vid=180e4da0-00a9-4461-bfd1-11630824fb3b"},"vehicle_type_id":"4","last_reported":1748545682,"current_range_meters":1200,"station_id":"","pricing_plan_id":"cebpf4jnsgd1na2vs0mg"},{"bike_id":"f55f4fae-b3dc-444f-9c87-d81216cde249","system_id":"levelo_inurba_marseille","lat":43.29971,"lon":5.3853,"is_reserved":false,"is_disabled":true,"rental_uris":{"android":"levelo://app?vid=f55f4fae-b3dc-444f-9c87-d81216cde249","ios":"levelo://app?vid=f55f4fae-b3dc-444f-9c87-d81216cde249"},"vehicle_type_id":"4","last_reported":1748545682,"current_range_meters":1200,"station_id":"ce4bgj92rcd13ifvqbd0","pricing_plan_id":"cebpf4jnsgd1na2vs0mg"},{"bike_id":"ce1dd4b2-49f9-4e74-bdb7-7eefb529a94f","system_id":"levelo_inurba_marseille","lat":43.29937,"lon":5.36552,"is_reserved":false,"is_disabled":true,"rental_uris":{"android":"levelo://app?vid=ce1dd4b2-49f9-4e74-bdb7-7eefb529a94f","ios":"levelo://app?vid=ce1dd4b2-49f9-4e74-bdb7-7eefb529a94f"},"vehicle_type_id":"4","last_reported":1748545682,"current_range_meters":1200,"station_id":"ce4bgm92rcd13ifvqbr0","pricing_plan_id":"cebpf4jnsgd1na2vs0mg"},{"bike_id":"c6bc24d8-3091-4d22-be78-d248fd5b4caa","system_id":"levelo_inurba_marseille","lat":43.294128,"lon":5.386318,"is_reserved":false,"is_disabled":true,"rental_uris":{"android":"levelo://app?vid=c6bc24d8-3091-4d22-be78-d248fd5b4caa","ios":"levelo://app?vid=c6bc24d8-3091-4d22-be78-d248fd5b4caa"},"vehicle_type_id":"4","last_reported":1748545682,"current_range_meters":1200,"station_id":"ce4bh2h2rcd13ifvqdh0","pricing_plan_id":"cebpf4jnsgd1na2vs0mg"},{"bike_id":"90508595-1856-4329-ad58-fa760a1f30c8","system_id":"levelo_inurba_marseille","lat":43.27975,"lon":5.38747,"is_reserved":false,"is_disabled":true,"rental_uris":{"android":"levelo://app?vid=90508595-1856-4329-ad58-fa760a1f30c8","ios":"levelo://app?vid=90508595-1856-4329-ad58-fa760a1f30c8"},"vehicle_type_id":"4","last_reported":1748545682,"current_range_meters":1200,"station_id":"ce4bhg12rcd13ifvqf80","pricing_plan_id":"cebpf4jnsgd1na2vs0mg"},{"bike_id":"1d0adeb4-251f-4810-a55b-8a9aefc3c596","system_id":"levelo_inurba_marseille","lat":43.24808,"lon":5.37455,"is_reserved":false,"is_disabled":false,"rental_uris":{"android":"levelo://app?vid=1d0adeb4-251f-4810-a55b-8a9aefc3c596","ios":"levelo://app?vid=1d0adeb4-251f-4810-a55b-8a9aefc3c596"},"vehicle_type_id":"4","last_reported":1748545682,"current_range_meters":1200,"station_id":"ce4bhgh2rcd13ifvqfb0","pricing_plan_id":"cebpf4jnsgd1na2vs0mg"},{"bike_id":"119c7c38-f3ab-4f59-97b4-c8f46a504142","system_id":"levelo_inurba_marseille","lat":43.298944,"lon":5.436742,"is_reserved":false,"is_disabled":true,"rental_uris":{"android":"levelo://app?vid=119c7c38-f3ab-4f59-97b4-c8f46a504142","ios":"levelo://app?vid=119c7c38-f3ab-4f59-97b4-c8f46a504142"},"vehicle_type_id":"4","last_reported":1748545682,"current_range_meters":1200,"station_id":"ce4bhpp2rcd13ifvqhfg","pricing_plan_id":"cebpf4jnsgd1na2vs0mg"},{"bike_id":"6a2b7fe4-fbb2-4fd7-bf3d-77db1e27fe09","system_id":"levelo_inurba_marseille","lat":43.29427,"lon":5.38611,"is_reserved":false,"is_disabled":true,"rental_uris":{"android":"levelo://app?vid=6a2b7fe4-fbb2-4fd7-bf3d-77db1e27fe09","ios":"levelo://app?vid=6a2b7fe4-fbb2-4fd7-bf3d-77db1e27fe09"},"vehicle_type_id":"4","last_reported":1748545682,"current_range_meters":1600,"station_id":"ce4bh2h2rcd13ifvqdh0","pricing_plan_id":"cebpf4jnsgd1na2vs0mg"},{"bike_id":"73a9ab8c-d54c-4cc2-97c1-f1d31f3bbd82","system_id":"levelo_inurba_marseille","lat":43.26507,"lon":5.39539,"is_reserved":false,"is_disabled":true,"rental_uris":{"android":"levelo://app?vid=73a9ab8c-d54c-4cc2-97c1-f1d31f3bbd82","ios":"levelo://app?vid=73a9ab8c-d54c-4cc2-97c1-f1d31f3bbd82"},"vehicle_type_id":"4","last_reported":1748545682,"current_range_meters":1600,"station_id":"ce4bhi12rcd13ifvqfq0","pricing_plan_id":"cebpf4jnsgd1na2vs0mg"},{"bike_id":"dc65f5e7-7b25-4294-b245-bdb9d3d847f0","system_id":"levelo_inurba_marseille","lat":43.29379,"lon":5.37857,"is_reserved":false,"is_disabled":true,"rental_uris":{"android":"levelo://app?vid=dc65f5e7-7b25-4294-b245-bdb9d3d847f0","ios":"levelo://app?vid=dc65f5e7-7b25-4294-b245-bdb9d3d847f0"},"vehicle_type_id":"4","last_reported":1748545682,"current_range_meters":2000,"station_id":"ce4bgjh2rcd13ifvqbf0","pricing_plan_id":"cebpf4jnsgd1na2vs0mg"},{"bike_id":"66f450a3-35bb-4dec-85be-3968f9f1cd22","system_id":"levelo_inurba_marseille","lat":43.26956,"lon":5.38628,"is_reserved":false,"is_disabled":true,"rental_uris":{"android":"levelo://app?vid=66f450a3-35bb-4dec-85be-3968f9f1cd22","ios":"levelo://app?vid=66f450a3-35bb-4dec-85be-3968f9f1cd22"},"vehicle_type_id":"4","last_reported":1748545682,"current_range_meters":2000,"station_id":"ce4bhh92rcd13ifvqfh0","pricing_plan_id":"cebpf4jnsgd1na2vs0mg"},{"bike_id":"2e02d352-7abe-48f0-8225-d3bd0bdbdd07","system_id":"levelo_inurba_marseille","lat":43.303803,"lon":5.400947,"is_reserved":false,"is_disabled":false,"rental_uris":{"android":"levelo://app?vid=2e02d352-7abe-48f0-8225-d3bd0bdbdd07","ios":"levelo://app?vid=2e02d352-7abe-48f0-8225-d3bd0bdbdd07"},"vehicle_type_id":"4","last_reported":1748545682,"current_range_meters":2800,"station_id":"ce4bh112rcd13ifvqda0","pricing_plan_id":"cebpf4jnsgd1na2vs0mg"},{"bike_id":"d209b0a9-9553-4d63-8a0b-773ed16b85fb","system_id":"levelo_inurba_marseille","lat":43.25577,"lon":5.38233,"is_reserved":false,"is_disabled":false,"rental_uris":{"android":"levelo://app?vid=d209b0a9-9553-4d63-8a0b-773ed16b85fb","ios":"levelo://app?vid=d209b0a9-9553-4d63-8a0b-773ed16b85fb"},"vehicle_type_id":"4","last_reported":1748545682,"current_range_meters":2800,"station_id":"ce4bhih2rcd13ifvqfs0","pricing_plan_id":"cebpf4jnsgd1na2vs0mg"},{"bike_id":"d90baf97-e6b3-4c48-bcd2-63bc44243da4","system_id":"levelo_inurba_marseille","lat":43.21671,"lon":5.34319,"is_reserved":false,"is_disabled":false,"rental_uris":{"android":"levelo://app?vid=d90baf97-e6b3-4c48-bcd2-63bc44243da4","ios":"levelo://app?vid=d90baf97-e6b3-4c48-bcd2-63bc44243da4"},"vehicle_type_id":"4","last_reported":1748545682,"current_range_meters":3200,"station_id":"","pricing_plan_id":"cebpf4jnsgd1na2vs0mg"},{"bike_id":"a9deb61e-f8d6-4a9f-b61e-3f6beded66e9","system_id":"levelo_inurba_marseille","lat":43.29285,"lon":5.36858,"is_reserved":false,"is_disabled":false,"rental_uris":{"android":"levelo://app?vid=a9deb61e-f8d6-4a9f-b61e-3f6beded66e9","ios":"levelo://app?vid=a9deb61e-f8d6-4a9f-b61e-3f6beded66e9"},"vehicle_type_id":"4","last_reported":1748545682,"current_range_meters":3200,"station_id":"ce4bhbp2rcd13ifvqesg","pricing_plan_id":"cebpf4jnsgd1na2vs0mg"},{"bike_id":"e2e45ff9-2d3d-48df-a287-0d3f5548904e","system_id":"levelo_inurba_marseille","lat":43.26948,"lon":5.38642,"is_reserved":false,"is_disabled":false,"rental_uris":{"android":"levelo://app?vid=e2e45ff9-2d3d-48df-a287-0d3f5548904e","ios":"levelo://app?vid=e2e45ff9-2d3d-48df-a287-0d3f5548904e"},"vehicle_type_id":"4","last_reported":1748545682,"current_range_meters":3200,"station_id":"ce4bhh92rcd13ifvqfh0","pricing_plan_id":"cebpf4jnsgd1na2vs0mg"},{"bike_id":"b6248d4e-41a2-4ad7-baa6-b6867dc99581","system_id":"levelo_inurba_marseille","lat":43.27175,"lon":5.40991,"is_reserved":false,"is_disabled":false,"rental_uris":{"android":"levelo://app?vid=b6248d4e-41a2-4ad7-baa6-b6867dc99581","ios":"levelo://app?vid=b6248d4e-41a2-4ad7-baa6-b6867dc99581"},"vehicle_type_id":"4","last_reported":1748545682,"current_range_meters":3200,"station_id":"ce4bhl12rcd13ifvqgf0","pricing_plan_id":"cebpf4jnsgd1na2vs0mg"},{"bike_id":"79ed6200-aa89-44ad-8d68-7b784cfb5db8","system_id":"levelo_inurba_marseille","lat":43.294159,"lon":5.386309,"is_reserved":false,"is_disabled":false,"rental_uris":{"android":"levelo://app?vid=79ed6200-aa89-44ad-8d68-7b784cfb5db8","ios":"levelo://app?vid=79ed6200-aa89-44ad-8d68-7b784cfb5db8"},"vehicle_type_id":"4","last_reported":1748545682,"current_range_meters":3600,"station_id":"ce4bh2h2rcd13ifvqdh0","pricing_plan_id":"cebpf4jnsgd1na2vs0mg"},{"bike_id":"e8df95e5-29be-40eb-9d5f-cdd9bd91a3d5","system_id":"levelo_inurba_marseille","lat":43.29034,"lon":5.37568,"is_reserved":false,"is_disabled":false,"rental_uris":{"android":"levelo://app?vid=e8df95e5-29be-40eb-9d5f-cdd9bd91a3d5","ios":"levelo://app?vid=e8df95e5-29be-40eb-9d5f-cdd9bd91a3d5"},"vehicle_type_id":"4","last_reported":1748545682,"current_range_meters":3600,"station_id":"ce4bh692rcd13ifvqe90","pricing_plan_id":"cebpf4jnsgd1na2vs0mg"},{"bike_id":"1ad53b83-1017-4ab1-a2bd-5e099036d4da","system_id":"levelo_inurba_marseille","lat":43.28952,"lon":5.36622,"is_reserved":false,"is_disabled":false,"rental_uris":{"android":"levelo://app?vid=1ad53b83-1017-4ab1-a2bd-5e099036d4da","ios":"levelo://app?vid=1ad53b83-1017-4ab1-a2bd-5e099036d4da"},"vehicle_type_id":"4","last_reported":1748545682,"current_range_meters":3600,"station_id":"ce4bhap2rcd13ifvqek0","pricing_plan_id":"cebpf4jnsgd1na2vs0mg"},{"bike_id":"4406b867-e970-41fa-ab57-8085543c33d9","system_id":"levelo_inurba_marseille","lat":43.295709,"lon":5.375179,"is_reserved":false,"is_disabled":false,"rental_uris":{"android":"levelo://app?vid=4406b867-e970-41fa-ab57-8085543c33d9","ios":"levelo://app?vid=4406b867-e970-41fa-ab57-8085543c33d9"},"vehicle_type_id":"4","last_reported":1748545682,"current_range_meters":3600,"station_id":"ce4bhb12rcd13ifvqel0","pricing_plan_id":"cebpf4jnsgd1na2vs0mg"},{"bike_id":"b80ee325-09b2-4724-993d-4f8d3707c41c","system_id":"levelo_inurba_marseille","lat":43.25862,"lon":5.39902,"is_reserved":false,"is_disabled":false,"rental_uris":{"android":"levelo://app?vid=b80ee325-09b2-4724-993d-4f8d3707c41c","ios":"levelo://app?vid=b80ee325-09b2-4724-993d-4f8d3707c41c"},"vehicle_type_id":"4","last_reported":1748545682,"current_range_meters":3600,"station_id":"ce4bhl92rcd13ifvqghg","pricing_plan_id":"cebpf4jnsgd1na2vs0mg"},{"bike_id":"f33fb610-9f0b-4939-8e6c-9eb936301512","system_id":"levelo_inurba_marseille","lat":43.21193,"lon":5.3507,"is_reserved":false,"is_disabled":false,"rental_uris":{"android":"levelo://app?vid=f33fb610-9f0b-4939-8e6c-9eb936301512","ios":"levelo://app?vid=f33fb610-9f0b-4939-8e6c-9eb936301512"},"vehicle_type_id":"4","last_reported":1748545682,"current_range_meters":3600,"station_id":"st_cvj6sg6p6f1abm77japg","pricing_plan_id":"cebpf4jnsgd1na2vs0mg"},{"bike_id":"a1327cb7-5725-46c1-bd62-f344e45921e2","system_id":"levelo_inurba_marseille","lat":43.29305,"lon":5.37446,"is_reserved":false,"is_disabled":false,"rental_uris":{"android":"levelo://app?vid=a1327cb7-5725-46c1-bd62-f344e45921e2","ios":"levelo://app?vid=a1327cb7-5725-46c1-bd62-f344e45921e2"},"vehicle_type_id":"4","last_reported":1748545682,"current_range_meters":4000,"station_id":"ce4bgi12rcd13ifvqb70","pricing_plan_id":"cebpf4jnsgd1na2vs0mg"},{"bike_id":"aad91479-0b7d-44ff-a676-89e6dc488ebf","system_id":"levelo_inurba_marseille","lat":43.2953,"lon":5.38534,"is_reserved":false,"is_disabled":false,"rental_uris":{"android":"levelo://app?vid=aad91479-0b7d-44ff-a676-89e6dc488ebf","ios":"levelo://app?vid=aad91479-0b7d-44ff-a676-89e6dc488ebf"},"vehicle_type_id":"4","last_reported":1748545682,"current_range_meters":4000,"station_id":"ce4bgih2rcd13ifvqba0","pricing_plan_id":"cebpf4jnsgd1na2vs0mg"},{"bike_id":"080bcf12-72dd-4f89-a74f-0560387a867d","system_id":"levelo_inurba_marseille","lat":43.29193,"lon":5.35818,"is_reserved":false,"is_disabled":false,"rental_uris":{"android":"levelo://app?vid=080bcf12-72dd-4f89-a74f-0560387a867d","ios":"levelo://app?vid=080bcf12-72dd-4f89-a74f-0560387a867d"},"vehicle_type_id":"4","last_reported":1748545682,"current_range_meters":4000,"station_id":"ce4bhb12rcd13ifvqel0","pricing_plan_id":"cebpf4jnsgd1na2vs0mg"},{"bike_id":"e1f6ce08-f5ae-4e1f-b91b-0b71d50af565","system_id":"levelo_inurba_marseille","lat":43.25003,"lon":5.38933,"is_reserved":false,"is_disabled":false,"rental_uris":{"android":"levelo://app?vid=e1f6ce08-f5ae-4e1f-b91b-0b71d50af565","ios":"levelo://app?vid=e1f6ce08-f5ae-4e1f-b91b-0b71d50af565"},"vehicle_type_id":"4","last_reported":1748545682,"current_range_meters":4000,"station_id":"ce4bhgp2rcd13ifvqfd0","pricing_plan_id":"cebpf4jnsgd1na2vs0mg"},{"bike_id":"247bddf2-f4e5-4209-94da-8c4b3d280c35","system_id":"levelo_inurba_marseille","lat":43.26486,"lon":5.3955,"is_reserved":false,"is_disabled":false,"rental_uris":{"android":"levelo://app?vid=247bddf2-f4e5-4209-94da-8c4b3d280c35","ios":"levelo://app?vid=247bddf2-f4e5-4209-94da-8c4b3d280c35"},"vehicle_type_id":"4","last_reported":1748545682,"current_range_meters":4000,"station_id":"ce4bhi12rcd13ifvqfq0","pricing_plan_id":"cebpf4jnsgd1na2vs0mg"},{"bike_id":"9f37c2a5-0e6b-44cc-a5bd-5a171199ad3c","system_id":"levelo_inurba_marseille","lat":43.30266,"lon":5.4001,"is_reserved":false,"is_disabled":false,"rental_uris":{"android":"levelo://app?vid=9f37c2a5-0e6b-44cc-a5bd-5a171199ad3c","ios":"levelo://app?vid=9f37c2a5-0e6b-44cc-a5bd-5a171199ad3c"},"vehicle_type_id":"4","last_reported":1748545682,"current_range_meters":4400,"station_id":"","pricing_plan_id":"cebpf4jnsgd1na2vs0mg"},{"bike_id":"e7beecf5-566c-433c-8358-8879871abcbf","system_id":"levelo_inurba_marseille","lat":43.31063,"lon":5.38347,"is_reserved":false,"is_disabled":false,"rental_uris":{"android":"levelo://app?vid=e7beecf5-566c-433c-8358-8879871abcbf","ios":"levelo://app?vid=e7beecf5-566c-433c-8358-8879871abcbf"},"vehicle_type_id":"4","last_reported":1748545682,"current_range_meters":4400,"station_id":"ce4bgv92rcd13ifvqcr0","pricing_plan_id":"cebpf4jnsgd1na2vs0mg"},{"bike_id":"f8bc173a-daa9-4ce4-a9bf-8100197dee35","system_id":"levelo_inurba_marseille","lat":43.31328,"lon":5.39689,"is_reserved":false,"is_disabled":false,"rental_uris":{"android":"levelo://app?vid=f8bc173a-daa9-4ce4-a9bf-8100197dee35","ios":"levelo://app?vid=f8bc173a-daa9-4ce4-a9bf-8100197dee35"},"vehicle_type_id":"4","last_reported":1748545682,"current_range_meters":4400,"station_id":"ce4bgvp2rcd13ifvqcu0","pricing_plan_id":"cebpf4jnsgd1na2vs0mg"},{"bike_id":"6d7cfdcd-f061-4eee-b4e5-78d9b6729328","system_id":"levelo_inurba_marseille","lat":43.33004,"lon":5.43852,"is_reserved":false,"is_disabled":false,"rental_uris":{"android":"levelo://app?vid=6d7cfdcd-f061-4eee-b4e5-78d9b6729328","ios":"levelo://app?vid=6d7cfdcd-f061-4eee-b4e5-78d9b6729328"},"vehicle_type_id":"4","last_reported":1748545682,"current_range_meters":4800,"station_id":"","pricing_plan_id":"cebpf4jnsgd1na2vs0mg"},{"bike_id":"9a869239-5672-4a55-9235-38d7bbe8293b","system_id":"levelo_inurba_marseille","lat":43.32584,"lon":5.43064,"is_reserved":false,"is_disabled":false,"rental_uris":{"android":"levelo://app?vid=9a869239-5672-4a55-9235-38d7bbe8293b","ios":"levelo://app?vid=9a869239-5672-4a55-9235-38d7bbe8293b"},"vehicle_type_id":"4","last_reported":1748545682,"current_range_meters":4800,"station_id":"","pricing_plan_id":"cebpf4jnsgd1na2vs0mg"},{"bike_id":"6c32b47b-b1d7-439c-bc87-5683576a40e4","system_id":"levelo_inurba_marseille","lat":43.31497,"lon":5.37312,"is_reserved":false,"is_disabled":false,"rental_uris":{"android":"levelo://app?vid=6c32b47b-b1d7-439c-bc87-5683576a40e4","ios":"levelo://app?vid=6c32b47b-b1d7-439c-bc87-5683576a40e4"},"vehicle_type_id":"4","last_reported":1748545682,"current_range_meters":4800,"station_id":"ce4bgt12rcd13ifvqcd0","pricing_plan_id":"cebpf4jnsgd1na2vs0mg"},{"bike_id":"ac4e34a3-e5d8-4971-81ad-662ed20f5f93","system_id":"levelo_inurba_marseille","lat":43.27422,"lon":5.39416,"is_reserved":false,"is_disabled":false,"rental_uris":{"android":"levelo://app?vid=ac4e34a3-e5d8-4971-81ad-662ed20f5f93","ios":"levelo://app?vid=ac4e34a3-e5d8-4971-81ad-662ed20f5f93"},"vehicle_type_id":"4","last_reported":1748545682,"current_range_meters":4800,"station_id":"ce4bhdp2rcd13ifvqf20","pricing_plan_id":"cebpf4jnsgd1na2vs0mg"},{"bike_id":"c0c5027f-c041-4b12-acfa-e6b17680071b","system_id":"levelo_inurba_marseille","lat":43.23817,"lon":5.43569,"is_reserved":false,"is_disabled":false,"rental_uris":{"android":"levelo://app?vid=c0c5027f-c041-4b12-acfa-e6b17680071b","ios":"levelo://app?vid=c0c5027f-c041-4b12-acfa-e6b17680071b"},"vehicle_type_id":"4","last_reported":1748545682,"current_range_meters":5600,"station_id":"","pricing_plan_id":"cebpf4jnsgd1na2vs0mg"},{"bike_id":"057e9fc1-f422-4b36-8bcf-02167a59fdb2","system_id":"levelo_inurba_marseille","lat":43.29009,"lon":5.35614,"is_reserved":false,"is_disabled":false,"rental_uris":{"android":"levelo://app?vid=057e9fc1-f422-4b36-8bcf-02167a59fdb2","ios":"levelo://app?vid=057e9fc1-f422-4b36-8bcf-02167a59fdb2"},"vehicle_type_id":"4","last_reported":1748545682,"current_range_meters":5600,"station_id":"ce4bhb92rcd13ifvqen0","pricing_plan_id":"cebpf4jnsgd1na2vs0mg"},{"bike_id":"d944e5e8-5fbf-48ad-ba83-e2354a21c8f8","system_id":"levelo_inurba_marseille","lat":43.24803,"lon":5.37452,"is_reserved":false,"is_disabled":false,"rental_uris":{"android":"levelo://app?vid=d944e5e8-5fbf-48ad-ba83-e2354a21c8f8","ios":"levelo://app?vid=d944e5e8-5fbf-48ad-ba83-e2354a21c8f8"},"vehicle_type_id":"4","last_reported":1748545682,"current_range_meters":5600,"station_id":"ce4bhgh2rcd13ifvqfb0","pricing_plan_id":"cebpf4jnsgd1na2vs0mg"},{"bike_id":"bf7e6c34-1c47-46ae-82a4-1ce6fe010c95","system_id":"levelo_inurba_marseille","lat":43.2784,"lon":5.39211,"is_reserved":false,"is_disabled":false,"rental_uris":{"android":"levelo://app?vid=bf7e6c34-1c47-46ae-82a4-1ce6fe010c95","ios":"levelo://app?vid=bf7e6c34-1c47-46ae-82a4-1ce6fe010c95"},"vehicle_type_id":"4","last_reported":1748545682,"current_range_meters":5600,"station_id":"ce4bhjp2rcd13ifvqga0","pricing_plan_id":"cebpf4jnsgd1na2vs0mg"},{"bike_id":"bf6476a6-b4ab-404c-abb7-f0202c5ca64f","system_id":"levelo_inurba_marseille","lat":43.21194,"lon":5.35071,"is_reserved":false,"is_disabled":false,"rental_uris":{"android":"levelo://app?vid=bf6476a6-b4ab-404c-abb7-f0202c5ca64f","ios":"levelo://app?vid=bf6476a6-b4ab-404c-abb7-f0202c5ca64f"},"vehicle_type_id":"4","last_reported":1748545682,"current_range_meters":5600,"station_id":"st_cvj6sg6p6f1abm77japg","pricing_plan_id":"cebpf4jnsgd1na2vs0mg"},{"bike_id":"038d1940-4955-4931-a122-891cb77037b7","system_id":"levelo_inurba_marseille","lat":43.30891,"lon":5.39653,"is_reserved":false,"is_disabled":false,"rental_uris":{"android":"levelo://app?vid=038d1940-4955-4931-a122-891cb77037b7","ios":"levelo://app?vid=038d1940-4955-4931-a122-891cb77037b7"},"vehicle_type_id":"4","last_reported":1748545682,"current_range_meters":6000,"station_id":"","pricing_plan_id":"cebpf4jnsgd1na2vs0mg"},{"bike_id":"116dc4a6-5a2b-4f1f-98c5-367cdb71fd96","system_id":"levelo_inurba_marseille","lat":43.29529,"lon":5.37497,"is_reserved":false,"is_disabled":false,"rental_uris":{"android":"levelo://app?vid=116dc4a6-5a2b-4f1f-98c5-367cdb71fd96","ios":"levelo://app?vid=116dc4a6-5a2b-4f1f-98c5-367cdb71fd96"},"vehicle_type_id":"4","last_reported":1748545682,"current_range_meters":6000,"station_id":"ce4bgkp2rcd13ifvqbmg","pricing_plan_id":"cebpf4jnsgd1na2vs0mg"},{"bike_id":"68ed17d8-8b77-4b82-9577-b8e4d5e26e2d","system_id":"levelo_inurba_marseille","lat":43.292759,"lon":5.368455,"is_reserved":false,"is_disabled":false,"rental_uris":{"android":"levelo://app?vid=68ed17d8-8b77-4b82-9577-b8e4d5e26e2d","ios":"levelo://app?vid=68ed17d8-8b77-4b82-9577-b8e4d5e26e2d"},"vehicle_type_id":"4","last_reported":1748545682,"current_range_meters":6000,"station_id":"ce4bh4p2rcd13ifvqe0g","pricing_plan_id":"cebpf4jnsgd1na2vs0mg"},{"bike_id":"dfa27b37-94c3-4a02-8ac6-157d3238ea93","system_id":"levelo_inurba_marseille","lat":43.29194,"lon":5.35814,"is_reserved":false,"is_disabled":false,"rental_uris":{"android":"levelo://app?vid=dfa27b37-94c3-4a02-8ac6-157d3238ea93","ios":"levelo://app?vid=dfa27b37-94c3-4a02-8ac6-157d3238ea93"},"vehicle_type_id":"4","last_reported":1748545682,"current_range_meters":6000,"station_id":"ce4bhb12rcd13ifvqel0","pricing_plan_id":"cebpf4jnsgd1na2vs0mg"},{"bike_id":"f6a47009-c675-4b06-8efe-f673cb9fe3e8","system_id":"levelo_inurba_marseille","lat":43.2656,"lon":5.37283,"is_reserved":false,"is_disabled":false,"rental_uris":{"android":"levelo://app?vid=f6a47009-c675-4b06-8efe-f673cb9fe3e8","ios":"levelo://app?vid=f6a47009-c675-4b06-8efe-f673cb9fe3e8"},"vehicle_type_id":"4","last_reported":1748545682,"current_range_meters":6000,"station_id":"ce4bhg12rcd13ifvqf70","pricing_plan_id":"cebpf4jnsgd1na2vs0mg"},{"bike_id":"fc0c7546-37a7-438c-9337-61089d0895c5","system_id":"levelo_inurba_marseille","lat":43.28154,"lon":5.42646,"is_reserved":false,"is_disabled":false,"rental_uris":{"android":"levelo://app?vid=fc0c7546-37a7-438c-9337-61089d0895c5","ios":"levelo://app?vid=fc0c7546-37a7-438c-9337-61089d0895c5"},"vehicle_type_id":"4","last_reported":1748545682,"current_range_meters":6000,"station_id":"ce4bhnh2rcd13ifvqgug","pricing_plan_id":"cebpf4jnsgd1na2vs0mg"},{"bike_id":"0087ae07-be25-4bbf-ac3e-2897ab540c79","system_id":"levelo_inurba_marseille","lat":43.30799,"lon":5.43524,"is_reserved":false,"is_disabled":false,"rental_uris":{"android":"levelo://app?vid=0087ae07-be25-4bbf-ac3e-2897ab540c79","ios":"levelo://app?vid=0087ae07-be25-4bbf-ac3e-2897ab540c79"},"vehicle_type_id":"4","last_reported":1748545682,"current_range_meters":6000,"station_id":"ce4bhph2rcd13ifvqheg","pricing_plan_id":"cebpf4jnsgd1na2vs0mg"},{"bike_id":"1eed49fb-ce64-4ebd-9903-7d87835a2ccf","system_id":"levelo_inurba_marseille","lat":43.29786,"lon":5.45988,"is_reserved":false,"is_disabled":false,"rental_uris":{"android":"levelo://app?vid=1eed49fb-ce64-4ebd-9903-7d87835a2ccf","ios":"levelo://app?vid=1eed49fb-ce64-4ebd-9903-7d87835a2ccf"},"vehicle_type_id":"4","last_reported":1748545682,"current_range_meters":6400,"station_id":"","pricing_plan_id":"cebpf4jnsgd1na2vs0mg"},{"bike_id":"bf106879-ecde-48b6-8ced-379454d46ddc","system_id":"levelo_inurba_marseille","lat":43.26586,"lon":5.37273,"is_reserved":false,"is_disabled":false,"rental_uris":{"android":"levelo://app?vid=bf106879-ecde-48b6-8ced-379454d46ddc","ios":"levelo://app?vid=bf106879-ecde-48b6-8ced-379454d46ddc"},"vehicle_type_id":"4","last_reported":1748545682,"current_range_meters":6400,"station_id":"ce4bhg12rcd13ifvqf70","pricing_plan_id":"cebpf4jnsgd1na2vs0mg"},{"bike_id":"21269a47-fc82-4c15-9854-941f461a9d86","system_id":"levelo_inurba_marseille","lat":43.24813,"lon":5.37457,"is_reserved":false,"is_disabled":false,"rental_uris":{"android":"levelo://app?vid=21269a47-fc82-4c15-9854-941f461a9d86","ios":"levelo://app?vid=21269a47-fc82-4c15-9854-941f461a9d86"},"vehicle_type_id":"4","last_reported":1748545682,"current_range_meters":6400,"station_id":"ce4bhgh2rcd13ifvqfb0","pricing_plan_id":"cebpf4jnsgd1na2vs0mg"},{"bike_id":"b46e02e7-d4f5-4a07-9b97-c3eb2b22ab5b","system_id":"levelo_inurba_marseille","lat":43.29462,"lon":5.37448,"is_reserved":false,"is_disabled":false,"rental_uris":{"android":"levelo://app?vid=b46e02e7-d4f5-4a07-9b97-c3eb2b22ab5b","ios":"levelo://app?vid=b46e02e7-d4f5-4a07-9b97-c3eb2b22ab5b"},"vehicle_type_id":"4","last_reported":1748545682,"current_range_meters":6800,"station_id":"ce4bgkp2rcd13ifvqbmg","pricing_plan_id":"cebpf4jnsgd1na2vs0mg"},{"bike_id":"5dc52942-de87-4edf-9b33-26394f3ffa24","system_id":"levelo_inurba_marseille","lat":43.28675,"lon":5.38661,"is_reserved":false,"is_disabled":false,"rental_uris":{"android":"levelo://app?vid=5dc52942-de87-4edf-9b33-26394f3ffa24","ios":"levelo://app?vid=5dc52942-de87-4edf-9b33-26394f3ffa24"},"vehicle_type_id":"4","last_reported":1748545682,"current_range_meters":6800,"station_id":"ce4bh492rcd13ifvqdug","pricing_plan_id":"cebpf4jnsgd1na2vs0mg"},{"bike_id":"82245458-1fb7-4e15-a3db-045fcbf07015","system_id":"levelo_inurba_marseille","lat":43.28484,"lon":5.38423,"is_reserved":false,"is_disabled":false,"rental_uris":{"android":"levelo://app?vid=82245458-1fb7-4e15-a3db-045fcbf07015","ios":"levelo://app?vid=82245458-1fb7-4e15-a3db-045fcbf07015"},"vehicle_type_id":"4","last_reported":1748545682,"current_range_meters":6800,"station_id":"ce4bh512rcd13ifvqe3g","pricing_plan_id":"cebpf4jnsgd1na2vs0mg"},{"bike_id":"047bbed6-33d9-4486-b038-6c0f2513bd98","system_id":"levelo_inurba_marseille","lat":43.24675,"lon":5.38147,"is_reserved":false,"is_disabled":false,"rental_uris":{"android":"levelo://app?vid=047bbed6-33d9-4486-b038-6c0f2513bd98","ios":"levelo://app?vid=047bbed6-33d9-4486-b038-6c0f2513bd98"},"vehicle_type_id":"4","last_reported":1748545682,"current_range_meters":6800,"station_id":"ce4bhih2rcd13ifvqfr0","pricing_plan_id":"cebpf4jnsgd1na2vs0mg"},{"bike_id":"337b4521-7b24-430d-8a4e-21238e462c60","system_id":"levelo_inurba_marseille","lat":43.26227,"lon":5.40464,"is_reserved":false,"is_disabled":false,"rental_uris":{"android":"levelo://app?vid=337b4521-7b24-430d-8a4e-21238e462c60","ios":"levelo://app?vid=337b4521-7b24-430d-8a4e-21238e462c60"},"vehicle_type_id":"4","last_reported":1748545682,"current_range_meters":6800,"station_id":"ce4bhmh2rcd13ifvqgmg","pricing_plan_id":"cebpf4jnsgd1na2vs0mg"},{"bike_id":"ca1521de-6a8f-49b8-abb6-146fc1332426","system_id":"levelo_inurba_marseille","lat":43.28713,"lon":5.39991,"is_reserved":false,"is_disabled":false,"rental_uris":{"android":"levelo://app?vid=ca1521de-6a8f-49b8-abb6-146fc1332426","ios":"levelo://app?vid=ca1521de-6a8f-49b8-abb6-146fc1332426"},"vehicle_type_id":"4","last_reported":1748545682,"current_range_meters":6800,"station_id":"ce4bho92rcd13ifvqh3g","pricing_plan_id":"cebpf4jnsgd1na2vs0mg"},{"bike_id":"528e54e0-df6b-40ef-9929-2e4f1ee5a533","system_id":"levelo_inurba_marseille","lat":43.296742,"lon":5.387101,"is_reserved":false,"is_disabled":false,"rental_uris":{"android":"levelo://app?vid=528e54e0-df6b-40ef-9929-2e4f1ee5a533","ios":"levelo://app?vid=528e54e0-df6b-40ef-9929-2e4f1ee5a533"},"vehicle_type_id":"4","last_reported":1748545682,"current_range_meters":7200,"station_id":"","pricing_plan_id":"cebpf4jnsgd1na2vs0mg"},{"bike_id":"2f650bb1-6027-4191-83d2-16315820a0a7","system_id":"levelo_inurba_marseille","lat":43.299965,"lon":5.373487,"is_reserved":false,"is_disabled":false,"rental_uris":{"android":"levelo://app?vid=2f650bb1-6027-4191-83d2-16315820a0a7","ios":"levelo://app?vid=2f650bb1-6027-4191-83d2-16315820a0a7"},"vehicle_type_id":"4","last_reported":1748545682,"current_range_meters":7200,"station_id":"","pricing_plan_id":"cebpf4jnsgd1na2vs0mg"},{"bike_id":"ece14277-a1e5-45de-b872-3b5401b47b8b","system_id":"levelo_inurba_marseille","lat":43.30901,"lon":5.37198,"is_reserved":false,"is_disabled":false,"rental_uris":{"android":"levelo://app?vid=ece14277-a1e5-45de-b872-3b5401b47b8b","ios":"levelo://app?vid=ece14277-a1e5-45de-b872-3b5401b47b8b"},"vehicle_type_id":"4","last_reported":1748545682,"current_range_meters":7200,"station_id":"ce4bguh2rcd13ifvqckg","pricing_plan_id":"cebpf4jnsgd1na2vs0mg"},{"bike_id":"bd461d79-2516-47be-80e5-1e80b4e3719e","system_id":"levelo_inurba_marseille","lat":43.29275,"lon":5.36835,"is_reserved":false,"is_disabled":false,"rental_uris":{"android":"levelo://app?vid=bd461d79-2516-47be-80e5-1e80b4e3719e","ios":"levelo://app?vid=bd461d79-2516-47be-80e5-1e80b4e3719e"},"vehicle_type_id":"4","last_reported":1748545682,"current_range_meters":7200,"station_id":"ce4bhbp2rcd13ifvqesg","pricing_plan_id":"cebpf4jnsgd1na2vs0mg"},{"bike_id":"92ea9ae4-de38-48e1-88f2-c13da856b2e3","system_id":"levelo_inurba_marseille","lat":43.26209,"lon":5.37454,"is_reserved":false,"is_disabled":false,"rental_uris":{"android":"levelo://app?vid=92ea9ae4-de38-48e1-88f2-c13da856b2e3","ios":"levelo://app?vid=92ea9ae4-de38-48e1-88f2-c13da856b2e3"},"vehicle_type_id":"4","last_reported":1748545682,"current_range_meters":7200,"station_id":"ce4bhgp2rcd13ifvqfc0","pricing_plan_id":"cebpf4jnsgd1na2vs0mg"},{"bike_id":"8c8bc395-dc8e-4920-918d-42f8ef9b4892","system_id":"levelo_inurba_marseille","lat":43.32654,"lon":5.41001,"is_reserved":false,"is_disabled":false,"rental_uris":{"android":"levelo://app?vid=8c8bc395-dc8e-4920-918d-42f8ef9b4892","ios":"levelo://app?vid=8c8bc395-dc8e-4920-918d-42f8ef9b4892"},"vehicle_type_id":"4","last_reported":1748545682,"current_range_meters":7200,"station_id":"ce4bhpp2rcd13ifvqhgg","pricing_plan_id":"cebpf4jnsgd1na2vs0mg"},{"bike_id":"84adab0f-96c1-4426-bc86-147d47e6151b","system_id":"levelo_inurba_marseille","lat":43.23193,"lon":5.35554,"is_reserved":false,"is_disabled":false,"rental_uris":{"android":"levelo://app?vid=84adab0f-96c1-4426-bc86-147d47e6151b","ios":"levelo://app?vid=84adab0f-96c1-4426-bc86-147d47e6151b"},"vehicle_type_id":"4","last_reported":1748545682,"current_range_meters":7200,"station_id":"ce4bhu92rcd13ifvqi70","pricing_plan_id":"cebpf4jnsgd1na2vs0mg"},{"bike_id":"7ad6fa5f-df46-4408-be3a-66a4244a5a34","system_id":"levelo_inurba_marseille","lat":43.26564,"lon":5.40325,"is_reserved":false,"is_disabled":false,"rental_uris":{"android":"levelo://app?vid=7ad6fa5f-df46-4408-be3a-66a4244a5a34","ios":"levelo://app?vid=7ad6fa5f-df46-4408-be3a-66a4244a5a34"},"vehicle_type_id":"4","last_reported":1748545682,"current_range_meters":8000,"station_id":"","pricing_plan_id":"cebpf4jnsgd1na2vs0mg"},{"bike_id":"41514323-b333-4261-9bdd-2a03d30a8394","system_id":"levelo_inurba_marseille","lat":43.29942,"lon":5.36555,"is_reserved":false,"is_disabled":false,"rental_uris":{"android":"levelo://app?vid=41514323-b333-4261-9bdd-2a03d30a8394","ios":"levelo://app?vid=41514323-b333-4261-9bdd-2a03d30a8394"},"vehicle_type_id":"4","last_reported":1748545682,"current_range_meters":8000,"station_id":"ce4bgm92rcd13ifvqbr0","pricing_plan_id":"cebpf4jnsgd1na2vs0mg"},{"bike_id":"0b7cc989-d94a-40b3-81ea-f37020314baa","system_id":"levelo_inurba_marseille","lat":43.310759,"lon":5.383504,"is_reserved":false,"is_disabled":false,"rental_uris":{"android":"levelo://app?vid=0b7cc989-d94a-40b3-81ea-f37020314baa","ios":"levelo://app?vid=0b7cc989-d94a-40b3-81ea-f37020314baa"},"vehicle_type_id":"4","last_reported":1748545682,"current_range_meters":8000,"station_id":"ce4bgv92rcd13ifvqcr0","pricing_plan_id":"cebpf4jnsgd1na2vs0mg"},{"bike_id":"d3f92fd6-293c-4ace-9e82-475ffd1b302b","system_id":"levelo_inurba_marseille","lat":43.31328,"lon":5.39686,"is_reserved":false,"is_disabled":false,"rental_uris":{"android":"levelo://app?vid=d3f92fd6-293c-4ace-9e82-475ffd1b302b","ios":"levelo://app?vid=d3f92fd6-293c-4ace-9e82-475ffd1b302b"},"vehicle_type_id":"4","last_reported":1748545682,"current_range_meters":8000,"station_id":"ce4bgvp2rcd13ifvqcu0","pricing_plan_id":"cebpf4jnsgd1na2vs0mg"},{"bike_id":"8472c6ba-4097-4b01-afcd-c81b98519f37","system_id":"levelo_inurba_marseille","lat":43.24986,"lon":5.38938,"is_reserved":false,"is_disabled":false,"rental_uris":{"android":"levelo://app?vid=8472c6ba-4097-4b01-afcd-c81b98519f37","ios":"levelo://app?vid=8472c6ba-4097-4b01-afcd-c81b98519f37"},"vehicle_type_id":"4","last_reported":1748545682,"current_range_meters":8000,"station_id":"ce4bhgp2rcd13ifvqfd0","pricing_plan_id":"cebpf4jnsgd1na2vs0mg"},{"bike_id":"8cb85b40-b9b1-48f0-8376-28fc4bb26070","system_id":"levelo_inurba_marseille","lat":43.27944,"lon":5.41047,"is_reserved":false,"is_disabled":false,"rental_uris":{"android":"levelo://app?vid=8cb85b40-b9b1-48f0-8376-28fc4bb26070","ios":"levelo://app?vid=8cb85b40-b9b1-48f0-8376-28fc4bb26070"},"vehicle_type_id":"4","last_reported":1748545682,"current_range_meters":8000,"station_id":"ce4bhnp2rcd13ifvqh0g","pricing_plan_id":"cebpf4jnsgd1na2vs0mg"},{"bike_id":"c4510214-3cca-4084-b137-209eb9182377","system_id":"levelo_inurba_marseille","lat":43.28621,"lon":5.37048,"is_reserved":false,"is_disabled":false,"rental_uris":{"android":"levelo://app?vid=c4510214-3cca-4084-b137-209eb9182377","ios":"levelo://app?vid=c4510214-3cca-4084-b137-209eb9182377"},"vehicle_type_id":"4","last_reported":1748545682,"current_range_meters":8000,"station_id":"ce4bht12rcd13ifvqi60","pricing_plan_id":"cebpf4jnsgd1na2vs0mg"},{"bike_id":"86f11208-7f90-4009-a976-cc81e2c7825f","system_id":"levelo_inurba_marseille","lat":43.24169,"lon":5.364056,"is_reserved":false,"is_disabled":false,"rental_uris":{"android":"levelo://app?vid=86f11208-7f90-4009-a976-cc81e2c7825f","ios":"levelo://app?vid=86f11208-7f90-4009-a976-cc81e2c7825f"},"vehicle_type_id":"4","last_reported":1748545682,"current_range_meters":8000,"station_id":"cpo36qri1sfpv3e86is0","pricing_plan_id":"cebpf4jnsgd1na2vs0mg"},{"bike_id":"22771043-09b1-43eb-91e0-5c845144e1e3","system_id":"levelo_inurba_marseille","lat":43.27711,"lon":5.40839,"is_reserved":false,"is_disabled":false,"rental_uris":{"android":"levelo://app?vid=22771043-09b1-43eb-91e0-5c845144e1e3","ios":"levelo://app?vid=22771043-09b1-43eb-91e0-5c845144e1e3"},"vehicle_type_id":"4","last_reported":1748545682,"current_range_meters":8400,"station_id":"","pricing_plan_id":"cebpf4jnsgd1na2vs0mg"},{"bike_id":"a6f1b2b3-7ed2-4518-846f-76cad1f1c591","system_id":"levelo_inurba_marseille","lat":43.31364,"lon":5.38491,"is_reserved":false,"is_disabled":false,"rental_uris":{"android":"levelo://app?vid=a6f1b2b3-7ed2-4518-846f-76cad1f1c591","ios":"levelo://app?vid=a6f1b2b3-7ed2-4518-846f-76cad1f1c591"},"vehicle_type_id":"4","last_reported":1748545682,"current_range_meters":8400,"station_id":"ce4bgt92rcd13ifvqcf0","pricing_plan_id":"cebpf4jnsgd1na2vs0mg"},{"bike_id":"d7cf0d92-274f-43c6-a061-ba49e648e697","system_id":"levelo_inurba_marseille","lat":43.29274,"lon":5.40914,"is_reserved":false,"is_disabled":false,"rental_uris":{"android":"levelo://app?vid=d7cf0d92-274f-43c6-a061-ba49e648e697","ios":"levelo://app?vid=d7cf0d92-274f-43c6-a061-ba49e648e697"},"vehicle_type_id":"4","last_reported":1748545682,"current_range_meters":8400,"station_id":"ce4bh192rcd13ifvqdc0","pricing_plan_id":"cebpf4jnsgd1na2vs0mg"},{"bike_id":"55a45c80-8617-4961-91cc-6eca38533425","system_id":"levelo_inurba_marseille","lat":43.28457,"lon":5.35878,"is_reserved":false,"is_disabled":false,"rental_uris":{"android":"levelo://app?vid=55a45c80-8617-4961-91cc-6eca38533425","ios":"levelo://app?vid=55a45c80-8617-4961-91cc-6eca38533425"},"vehicle_type_id":"4","last_reported":1748545682,"current_range_meters":8400,"station_id":"ce4bhah2rcd13ifvqei0","pricing_plan_id":"cebpf4jnsgd1na2vs0mg"},{"bike_id":"e8c30c77-fba4-41f1-bdef-3212f7cf8b84","system_id":"levelo_inurba_marseille","lat":43.26564,"lon":5.37287,"is_reserved":false,"is_disabled":false,"rental_uris":{"android":"levelo://app?vid=e8c30c77-fba4-41f1-bdef-3212f7cf8b84","ios":"levelo://app?vid=e8c30c77-fba4-41f1-bdef-3212f7cf8b84"},"vehicle_type_id":"4","last_reported":1748545682,"current_range_meters":8400,"station_id":"ce4bhg12rcd13ifvqf70","pricing_plan_id":"cebpf4jnsgd1na2vs0mg"},{"bike_id":"7c6e48ab-b87e-4e89-9339-a1a2992e6797","system_id":"levelo_inurba_marseille","lat":43.26114,"lon":5.41466,"is_reserved":false,"is_disabled":false,"rental_uris":{"android":"levelo://app?vid=7c6e48ab-b87e-4e89-9339-a1a2992e6797","ios":"levelo://app?vid=7c6e48ab-b87e-4e89-9339-a1a2992e6797"},"vehicle_type_id":"4","last_reported":1748545682,"current_range_meters":8800,"station_id":"","pricing_plan_id":"cebpf4jnsgd1na2vs0mg"},{"bike_id":"b9ae16bc-ec39-406e-9e42-55cba52b28fe","system_id":"levelo_inurba_marseille","lat":43.2602,"lon":5.41739,"is_reserved":false,"is_disabled":false,"rental_uris":{"android":"levelo://app?vid=b9ae16bc-ec39-406e-9e42-55cba52b28fe","ios":"levelo://app?vid=b9ae16bc-ec39-406e-9e42-55cba52b28fe"},"vehicle_type_id":"4","last_reported":1748545682,"current_range_meters":8800,"station_id":"","pricing_plan_id":"cebpf4jnsgd1na2vs0mg"},{"bike_id":"c84b5411-883a-4314-88a4-66bffdab3589","system_id":"levelo_inurba_marseille","lat":43.31365,"lon":5.38501,"is_reserved":false,"is_disabled":false,"rental_uris":{"android":"levelo://app?vid=c84b5411-883a-4314-88a4-66bffdab3589","ios":"levelo://app?vid=c84b5411-883a-4314-88a4-66bffdab3589"},"vehicle_type_id":"4","last_reported":1748545682,"current_range_meters":8800,"station_id":"ce4bgt92rcd13ifvqcf0","pricing_plan_id":"cebpf4jnsgd1na2vs0mg"},{"bike_id":"044e6a56-b958-4fbe-9acd-eca7f5a14506","system_id":"levelo_inurba_marseille","lat":43.29422,"lon":5.38623,"is_reserved":false,"is_disabled":false,"rental_uris":{"android":"levelo://app?vid=044e6a56-b958-4fbe-9acd-eca7f5a14506","ios":"levelo://app?vid=044e6a56-b958-4fbe-9acd-eca7f5a14506"},"vehicle_type_id":"4","last_reported":1748545682,"current_range_meters":8800,"station_id":"ce4bh2h2rcd13ifvqdh0","pricing_plan_id":"cebpf4jnsgd1na2vs0mg"},{"bike_id":"bae85408-eec6-4110-983b-20569acb1947","system_id":"levelo_inurba_marseille","lat":43.24804,"lon":5.3746,"is_reserved":false,"is_disabled":false,"rental_uris":{"android":"levelo://app?vid=bae85408-eec6-4110-983b-20569acb1947","ios":"levelo://app?vid=bae85408-eec6-4110-983b-20569acb1947"},"vehicle_type_id":"4","last_reported":1748545682,"current_range_meters":8800,"station_id":"ce4bhgh2rcd13ifvqfb0","pricing_plan_id":"cebpf4jnsgd1na2vs0mg"},{"bike_id":"6af3c224-0761-4800-a562-e06feca0d455","system_id":"levelo_inurba_marseille","lat":43.25003,"lon":5.3893,"is_reserved":false,"is_disabled":false,"rental_uris":{"android":"levelo://app?vid=6af3c224-0761-4800-a562-e06feca0d455","ios":"levelo://app?vid=6af3c224-0761-4800-a562-e06feca0d455"},"vehicle_type_id":"4","last_reported":1748545682,"current_range_meters":8800,"station_id":"ce4bhgp2rcd13ifvqfd0","pricing_plan_id":"cebpf4jnsgd1na2vs0mg"},{"bike_id":"e071227d-bc0f-411a-86ef-e80500505df8","system_id":"levelo_inurba_marseille","lat":43.25503,"lon":5.37648,"is_reserved":false,"is_disabled":false,"rental_uris":{"android":"levelo://app?vid=e071227d-bc0f-411a-86ef-e80500505df8","ios":"levelo://app?vid=e071227d-bc0f-411a-86ef-e80500505df8"},"vehicle_type_id":"4","last_reported":1748545682,"current_range_meters":8800,"station_id":"ce4bhh12rcd13ifvqff0","pricing_plan_id":"cebpf4jnsgd1na2vs0mg"},{"bike_id":"41393039-4fda-48a5-9a5c-403ea21fcbd1","system_id":"levelo_inurba_marseille","lat":43.27065,"lon":5.40261,"is_reserved":false,"is_disabled":false,"rental_uris":{"android":"levelo://app?vid=41393039-4fda-48a5-9a5c-403ea21fcbd1","ios":"levelo://app?vid=41393039-4fda-48a5-9a5c-403ea21fcbd1"},"vehicle_type_id":"4","last_reported":1748545682,"current_range_meters":8800,"station_id":"ce4bhk92rcd13ifvqgc0","pricing_plan_id":"cebpf4jnsgd1na2vs0mg"},{"bike_id":"f74a9c32-b52e-40f0-8405-54f8639dee7e","system_id":"levelo_inurba_marseille","lat":43.27996,"lon":5.40003,"is_reserved":false,"is_disabled":false,"rental_uris":{"android":"levelo://app?vid=f74a9c32-b52e-40f0-8405-54f8639dee7e","ios":"levelo://app?vid=f74a9c32-b52e-40f0-8405-54f8639dee7e"},"vehicle_type_id":"4","last_reported":1748545682,"current_range_meters":8800,"station_id":"ce4bho92rcd13ifvqh4g","pricing_plan_id":"cebpf4jnsgd1na2vs0mg"},{"bike_id":"110e00ab-296c-471b-b41e-486a15760548","system_id":"levelo_inurba_marseille","lat":43.29899,"lon":5.43668,"is_reserved":false,"is_disabled":false,"rental_uris":{"android":"levelo://app?vid=110e00ab-296c-471b-b41e-486a15760548","ios":"levelo://app?vid=110e00ab-296c-471b-b41e-486a15760548"},"vehicle_type_id":"4","last_reported":1748545682,"current_range_meters":8800,"station_id":"ce4bhpp2rcd13ifvqhfg","pricing_plan_id":"cebpf4jnsgd1na2vs0mg"},{"bike_id":"96e17f5e-7bdd-4ddd-a389-5391a68bd29d","system_id":"levelo_inurba_marseille","lat":43.29874,"lon":5.37451,"is_reserved":false,"is_disabled":false,"rental_uris":{"android":"levelo://app?vid=96e17f5e-7bdd-4ddd-a389-5391a68bd29d","ios":"levelo://app?vid=96e17f5e-7bdd-4ddd-a389-5391a68bd29d"},"vehicle_type_id":"4","last_reported":1748545682,"current_range_meters":9200,"station_id":"ce4bgjh2rcd13ifvqbg0","pricing_plan_id":"cebpf4jnsgd1na2vs0mg"},{"bike_id":"8d2a980f-4a87-4be0-a310-d37fe5447743","system_id":"levelo_inurba_marseille","lat":43.29204,"lon":5.39325,"is_reserved":false,"is_disabled":false,"rental_uris":{"android":"levelo://app?vid=8d2a980f-4a87-4be0-a310-d37fe5447743","ios":"levelo://app?vid=8d2a980f-4a87-4be0-a310-d37fe5447743"},"vehicle_type_id":"4","last_reported":1748545682,"current_range_meters":9200,"station_id":"ce4bh192rcd13ifvqdd0","pricing_plan_id":"cebpf4jnsgd1na2vs0mg"},{"bike_id":"781d1653-d781-48d9-a24e-93a705285c8b","system_id":"levelo_inurba_marseille","lat":43.29027,"lon":5.38637,"is_reserved":false,"is_disabled":false,"rental_uris":{"android":"levelo://app?vid=781d1653-d781-48d9-a24e-93a705285c8b","ios":"levelo://app?vid=781d1653-d781-48d9-a24e-93a705285c8b"},"vehicle_type_id":"4","last_reported":1748545682,"current_range_meters":9200,"station_id":"ce4bh4p2rcd13ifvqe0g","pricing_plan_id":"cebpf4jnsgd1na2vs0mg"},{"bike_id":"4135f383-99e5-4a50-b9ff-8a8db5387cd1","system_id":"levelo_inurba_marseille","lat":43.292535,"lon":5.367606,"is_reserved":false,"is_disabled":false,"rental_uris":{"android":"levelo://app?vid=4135f383-99e5-4a50-b9ff-8a8db5387cd1","ios":"levelo://app?vid=4135f383-99e5-4a50-b9ff-8a8db5387cd1"},"vehicle_type_id":"4","last_reported":1748545682,"current_range_meters":9200,"station_id":"ce4bhb12rcd13ifvqel0","pricing_plan_id":"cebpf4jnsgd1na2vs0mg"},{"bike_id":"0c8ae947-1a9b-4a83-8baf-0b35f5a9263d","system_id":"levelo_inurba_marseille","lat":43.29273,"lon":5.3684,"is_reserved":false,"is_disabled":false,"rental_uris":{"android":"levelo://app?vid=0c8ae947-1a9b-4a83-8baf-0b35f5a9263d","ios":"levelo://app?vid=0c8ae947-1a9b-4a83-8baf-0b35f5a9263d"},"vehicle_type_id":"4","last_reported":1748545682,"current_range_meters":9200,"station_id":"ce4bhbp2rcd13ifvqesg","pricing_plan_id":"cebpf4jnsgd1na2vs0mg"},{"bike_id":"9185ed5c-57ff-4536-92b5-542bb4a5fbd6","system_id":"levelo_inurba_marseille","lat":43.28158,"lon":5.42637,"is_reserved":false,"is_disabled":false,"rental_uris":{"android":"levelo://app?vid=9185ed5c-57ff-4536-92b5-542bb4a5fbd6","ios":"levelo://app?vid=9185ed5c-57ff-4536-92b5-542bb4a5fbd6"},"vehicle_type_id":"4","last_reported":1748545682,"current_range_meters":9200,"station_id":"ce4bhnh2rcd13ifvqgug","pricing_plan_id":"cebpf4jnsgd1na2vs0mg"},{"bike_id":"c1e451e6-ad2d-4e1f-ad87-bfb77b3fd8c4","system_id":"levelo_inurba_marseille","lat":43.29117,"lon":5.35573,"is_reserved":false,"is_disabled":false,"rental_uris":{"android":"levelo://app?vid=c1e451e6-ad2d-4e1f-ad87-bfb77b3fd8c4","ios":"levelo://app?vid=c1e451e6-ad2d-4e1f-ad87-bfb77b3fd8c4"},"vehicle_type_id":"4","last_reported":1748545682,"current_range_meters":9600,"station_id":"","pricing_plan_id":"cebpf4jnsgd1na2vs0mg"},{"bike_id":"d6fcedd0-69c3-491e-b8bc-adf019b3a815","system_id":"levelo_inurba_marseille","lat":43.29305,"lon":5.37452,"is_reserved":false,"is_disabled":false,"rental_uris":{"android":"levelo://app?vid=d6fcedd0-69c3-491e-b8bc-adf019b3a815","ios":"levelo://app?vid=d6fcedd0-69c3-491e-b8bc-adf019b3a815"},"vehicle_type_id":"4","last_reported":1748545682,"current_range_meters":9600,"station_id":"ce4bgi12rcd13ifvqb70","pricing_plan_id":"cebpf4jnsgd1na2vs0mg"},{"bike_id":"a196b62c-4d9f-40de-964e-5e76cf7ab0bc","system_id":"levelo_inurba_marseille","lat":43.28412,"lon":5.37525,"is_reserved":false,"is_disabled":false,"rental_uris":{"android":"levelo://app?vid=a196b62c-4d9f-40de-964e-5e76cf7ab0bc","ios":"levelo://app?vid=a196b62c-4d9f-40de-964e-5e76cf7ab0bc"},"vehicle_type_id":"4","last_reported":1748545682,"current_range_meters":9600,"station_id":"ce4bh412rcd13ifvqds0","pricing_plan_id":"cebpf4jnsgd1na2vs0mg"},{"bike_id":"a307f8c0-d012-4f8b-9399-0d269cb01af4","system_id":"levelo_inurba_marseille","lat":43.29282,"lon":5.38447,"is_reserved":false,"is_disabled":false,"rental_uris":{"android":"levelo://app?vid=a307f8c0-d012-4f8b-9399-0d269cb01af4","ios":"levelo://app?vid=a307f8c0-d012-4f8b-9399-0d269cb01af4"},"vehicle_type_id":"4","last_reported":1748545682,"current_range_meters":9600,"station_id":"ce4bh692rcd13ifvqea0","pricing_plan_id":"cebpf4jnsgd1na2vs0mg"},{"bike_id":"ef2daef5-0690-44cd-99f3-58e9180d356a","system_id":"levelo_inurba_marseille","lat":43.25504,"lon":5.3765,"is_reserved":false,"is_disabled":false,"rental_uris":{"android":"levelo://app?vid=ef2daef5-0690-44cd-99f3-58e9180d356a","ios":"levelo://app?vid=ef2daef5-0690-44cd-99f3-58e9180d356a"},"vehicle_type_id":"4","last_reported":1748545682,"current_range_meters":9600,"station_id":"ce4bhh12rcd13ifvqff0","pricing_plan_id":"cebpf4jnsgd1na2vs0mg"},{"bike_id":"4ae4bbee-a06b-469b-b349-2cc77f76ff6a","system_id":"levelo_inurba_marseille","lat":43.245068,"lon":5.435689,"is_reserved":false,"is_disabled":false,"rental_uris":{"android":"levelo://app?vid=4ae4bbee-a06b-469b-b349-2cc77f76ff6a","ios":"levelo://app?vid=4ae4bbee-a06b-469b-b349-2cc77f76ff6a"},"vehicle_type_id":"4","last_reported":1748545682,"current_range_meters":9600,"station_id":"ce4bhmp2rcd13ifvqgog","pricing_plan_id":"cebpf4jnsgd1na2vs0mg"},{"bike_id":"d4f1fc23-8207-42c2-bd4d-e7c9bec8c86d","system_id":"levelo_inurba_marseille","lat":43.28439,"lon":5.39188,"is_reserved":false,"is_disabled":false,"rental_uris":{"android":"levelo://app?vid=d4f1fc23-8207-42c2-bd4d-e7c9bec8c86d","ios":"levelo://app?vid=d4f1fc23-8207-42c2-bd4d-e7c9bec8c86d"},"vehicle_type_id":"4","last_reported":1748545682,"current_range_meters":9600,"station_id":"ce4bhoh2rcd13ifvqh5g","pricing_plan_id":"cebpf4jnsgd1na2vs0mg"},{"bike_id":"f293ba09-4b7e-4261-9c45-5e8e5f6ff81c","system_id":"levelo_inurba_marseille","lat":43.303964,"lon":5.424926,"is_reserved":false,"is_disabled":false,"rental_uris":{"android":"levelo://app?vid=f293ba09-4b7e-4261-9c45-5e8e5f6ff81c","ios":"levelo://app?vid=f293ba09-4b7e-4261-9c45-5e8e5f6ff81c"},"vehicle_type_id":"4","last_reported":1748545682,"current_range_meters":9600,"station_id":"ce4bhoh2rcd13ifvqh6g","pricing_plan_id":"cebpf4jnsgd1na2vs0mg"},{"bike_id":"8c9428fa-2d33-4463-9684-f117805ce597","system_id":"levelo_inurba_marseille","lat":43.31753,"lon":5.39021,"is_reserved":false,"is_disabled":false,"rental_uris":{"android":"levelo://app?vid=8c9428fa-2d33-4463-9684-f117805ce597","ios":"levelo://app?vid=8c9428fa-2d33-4463-9684-f117805ce597"},"vehicle_type_id":"4","last_reported":1748545682,"current_range_meters":9600,"station_id":"ce4bhqp2rcd13ifvqhng","pricing_plan_id":"cebpf4jnsgd1na2vs0mg"},{"bike_id":"48d689ba-1776-48e9-b9b8-2206a6b00fc7","system_id":"levelo_inurba_marseille","lat":43.28621,"lon":5.37055,"is_reserved":false,"is_disabled":false,"rental_uris":{"android":"levelo://app?vid=48d689ba-1776-48e9-b9b8-2206a6b00fc7","ios":"levelo://app?vid=48d689ba-1776-48e9-b9b8-2206a6b00fc7"},"vehicle_type_id":"4","last_reported":1748545682,"current_range_meters":9600,"station_id":"ce4bht12rcd13ifvqi60","pricing_plan_id":"cebpf4jnsgd1na2vs0mg"},{"bike_id":"42dca157-bdb0-4361-8022-7979135f94aa","system_id":"levelo_inurba_marseille","lat":43.28571,"lon":5.36553,"is_reserved":false,"is_disabled":false,"rental_uris":{"android":"levelo://app?vid=42dca157-bdb0-4361-8022-7979135f94aa","ios":"levelo://app?vid=42dca157-bdb0-4361-8022-7979135f94aa"},"vehicle_type_id":"4","last_reported":1748545682,"current_range_meters":10000,"station_id":"","pricing_plan_id":"cebpf4jnsgd1na2vs0mg"},{"bike_id":"033bc839-f7e6-4b07-b34d-140eecfce297","system_id":"levelo_inurba_marseille","lat":43.28713,"lon":5.37395,"is_reserved":false,"is_disabled":false,"rental_uris":{"android":"levelo://app?vid=033bc839-f7e6-4b07-b34d-140eecfce297","ios":"levelo://app?vid=033bc839-f7e6-4b07-b34d-140eecfce297"},"vehicle_type_id":"4","last_reported":1748545682,"current_range_meters":10000,"station_id":"ce4bh3p2rcd13ifvqdq0","pricing_plan_id":"cebpf4jnsgd1na2vs0mg"},{"bike_id":"39d84839-f3e2-40d8-b4b9-447e7386cff3","system_id":"levelo_inurba_marseille","lat":43.29251,"lon":5.38438,"is_reserved":false,"is_disabled":false,"rental_uris":{"android":"levelo://app?vid=39d84839-f3e2-40d8-b4b9-447e7386cff3","ios":"levelo://app?vid=39d84839-f3e2-40d8-b4b9-447e7386cff3"},"vehicle_type_id":"4","last_reported":1748545682,"current_range_meters":10000,"station_id":"ce4bh692rcd13ifvqea0","pricing_plan_id":"cebpf4jnsgd1na2vs0mg"},{"bike_id":"f683b3c7-fc8a-4452-8fdc-2b300e231677","system_id":"levelo_inurba_marseille","lat":43.23177,"lon":5.39981,"is_reserved":false,"is_disabled":false,"rental_uris":{"android":"levelo://app?vid=f683b3c7-fc8a-4452-8fdc-2b300e231677","ios":"levelo://app?vid=f683b3c7-fc8a-4452-8fdc-2b300e231677"},"vehicle_type_id":"4","last_reported":1748545682,"current_range_meters":10000,"station_id":"ce4bhn12rcd13ifvqgqg","pricing_plan_id":"cebpf4jnsgd1na2vs0mg"},{"bike_id":"0e009545-9acc-491d-b143-22cbd0096db4","system_id":"levelo_inurba_marseille","lat":43.33831,"lon":5.39264,"is_reserved":false,"is_disabled":false,"rental_uris":{"android":"levelo://app?vid=0e009545-9acc-491d-b143-22cbd0096db4","ios":"levelo://app?vid=0e009545-9acc-491d-b143-22cbd0096db4"},"vehicle_type_id":"4","last_reported":1748545682,"current_range_meters":10800,"station_id":"","pricing_plan_id":"cebpf4jnsgd1na2vs0mg"},{"bike_id":"c58b4350-b167-4621-84df-7309144435ea","system_id":"levelo_inurba_marseille","lat":43.29541,"lon":5.38531,"is_reserved":false,"is_disabled":false,"rental_uris":{"android":"levelo://app?vid=c58b4350-b167-4621-84df-7309144435ea","ios":"levelo://app?vid=c58b4350-b167-4621-84df-7309144435ea"},"vehicle_type_id":"4","last_reported":1748545682,"current_range_meters":10800,"station_id":"ce4bgih2rcd13ifvqba0","pricing_plan_id":"cebpf4jnsgd1na2vs0mg"},{"bike_id":"5958fb68-c4f8-4a2d-bb68-86d422b6769b","system_id":"levelo_inurba_marseille","lat":43.31359,"lon":5.38487,"is_reserved":false,"is_disabled":false,"rental_uris":{"android":"levelo://app?vid=5958fb68-c4f8-4a2d-bb68-86d422b6769b","ios":"levelo://app?vid=5958fb68-c4f8-4a2d-bb68-86d422b6769b"},"vehicle_type_id":"4","last_reported":1748545682,"current_range_meters":10800,"station_id":"ce4bgt92rcd13ifvqcf0","pricing_plan_id":"cebpf4jnsgd1na2vs0mg"},{"bike_id":"ae1c2def-702a-4e8d-a15d-05b98fe2c84f","system_id":"levelo_inurba_marseille","lat":43.30895,"lon":5.39648,"is_reserved":false,"is_disabled":false,"rental_uris":{"android":"levelo://app?vid=ae1c2def-702a-4e8d-a15d-05b98fe2c84f","ios":"levelo://app?vid=ae1c2def-702a-4e8d-a15d-05b98fe2c84f"},"vehicle_type_id":"4","last_reported":1748545682,"current_range_meters":10800,"station_id":"ce4bh012rcd13ifvqcv0","pricing_plan_id":"cebpf4jnsgd1na2vs0mg"},{"bike_id":"621ad574-cf13-42e9-88fe-990f32a07f08","system_id":"levelo_inurba_marseille","lat":43.290306,"lon":5.375624,"is_reserved":false,"is_disabled":false,"rental_uris":{"android":"levelo://app?vid=621ad574-cf13-42e9-88fe-990f32a07f08","ios":"levelo://app?vid=621ad574-cf13-42e9-88fe-990f32a07f08"},"vehicle_type_id":"4","last_reported":1748545682,"current_range_meters":10800,"station_id":"ce4bh692rcd13ifvqe90","pricing_plan_id":"cebpf4jnsgd1na2vs0mg"},{"bike_id":"8275ed54-4e3f-4acd-87df-9189f84d4dba","system_id":"levelo_inurba_marseille","lat":43.2926,"lon":5.38444,"is_reserved":false,"is_disabled":false,"rental_uris":{"android":"levelo://app?vid=8275ed54-4e3f-4acd-87df-9189f84d4dba","ios":"levelo://app?vid=8275ed54-4e3f-4acd-87df-9189f84d4dba"},"vehicle_type_id":"4","last_reported":1748545682,"current_range_meters":10800,"station_id":"ce4bh692rcd13ifvqea0","pricing_plan_id":"cebpf4jnsgd1na2vs0mg"},{"bike_id":"de5cf318-1a36-4a98-a920-6d997a25c229","system_id":"levelo_inurba_marseille","lat":43.28947,"lon":5.36624,"is_reserved":false,"is_disabled":false,"rental_uris":{"android":"levelo://app?vid=de5cf318-1a36-4a98-a920-6d997a25c229","ios":"levelo://app?vid=de5cf318-1a36-4a98-a920-6d997a25c229"},"vehicle_type_id":"4","last_reported":1748545682,"current_range_meters":10800,"station_id":"ce4bhap2rcd13ifvqek0","pricing_plan_id":"cebpf4jnsgd1na2vs0mg"},{"bike_id":"d7849d0a-db2b-428a-8c95-abd2677939cb","system_id":"levelo_inurba_marseille","lat":43.29278,"lon":5.36837,"is_reserved":false,"is_disabled":false,"rental_uris":{"android":"levelo://app?vid=d7849d0a-db2b-428a-8c95-abd2677939cb","ios":"levelo://app?vid=d7849d0a-db2b-428a-8c95-abd2677939cb"},"vehicle_type_id":"4","last_reported":1748545682,"current_range_meters":10800,"station_id":"ce4bhbp2rcd13ifvqesg","pricing_plan_id":"cebpf4jnsgd1na2vs0mg"},{"bike_id":"6baca173-b4b3-4695-83af-9d17579262ce","system_id":"levelo_inurba_marseille","lat":43.26559,"lon":5.3728,"is_reserved":false,"is_disabled":false,"rental_uris":{"android":"levelo://app?vid=6baca173-b4b3-4695-83af-9d17579262ce","ios":"levelo://app?vid=6baca173-b4b3-4695-83af-9d17579262ce"},"vehicle_type_id":"4","last_reported":1748545682,"current_range_meters":10800,"station_id":"ce4bhg12rcd13ifvqf70","pricing_plan_id":"cebpf4jnsgd1na2vs0mg"},{"bike_id":"522184cf-f0c5-4fc8-99bc-7daea548b561","system_id":"levelo_inurba_marseille","lat":43.28628,"lon":5.37059,"is_reserved":false,"is_disabled":false,"rental_uris":{"android":"levelo://app?vid=522184cf-f0c5-4fc8-99bc-7daea548b561","ios":"levelo://app?vid=522184cf-f0c5-4fc8-99bc-7daea548b561"},"vehicle_type_id":"4","last_reported":1748545682,"current_range_meters":10800,"station_id":"ce4bht12rcd13ifvqi60","pricing_plan_id":"cebpf4jnsgd1na2vs0mg"},{"bike_id":"e4d5549a-94c4-473a-ade2-ab98c468246c","system_id":"levelo_inurba_marseille","lat":43.29018,"lon":5.4,"is_reserved":false,"is_disabled":false,"rental_uris":{"android":"levelo://app?vid=e4d5549a-94c4-473a-ade2-ab98c468246c","ios":"levelo://app?vid=e4d5549a-94c4-473a-ade2-ab98c468246c"},"vehicle_type_id":"4","last_reported":1748545682,"current_range_meters":11200,"station_id":"ce4bh392rcd13ifvqdm0","pricing_plan_id":"cebpf4jnsgd1na2vs0mg"},{"bike_id":"38b03462-97c0-42d9-b576-83ab623e0141","system_id":"levelo_inurba_marseille","lat":43.28664,"lon":5.36348,"is_reserved":false,"is_disabled":false,"rental_uris":{"android":"levelo://app?vid=38b03462-97c0-42d9-b576-83ab623e0141","ios":"levelo://app?vid=38b03462-97c0-42d9-b576-83ab623e0141"},"vehicle_type_id":"4","last_reported":1748545682,"current_range_meters":11200,"station_id":"ce4bhah2rcd13ifvqej0","pricing_plan_id":"cebpf4jnsgd1na2vs0mg"},{"bike_id":"f6f53fe3-812b-42c2-b88f-1e9c74de2334","system_id":"levelo_inurba_marseille","lat":43.24812,"lon":5.37459,"is_reserved":false,"is_disabled":false,"rental_uris":{"android":"levelo://app?vid=f6f53fe3-812b-42c2-b88f-1e9c74de2334","ios":"levelo://app?vid=f6f53fe3-812b-42c2-b88f-1e9c74de2334"},"vehicle_type_id":"4","last_reported":1748545682,"current_range_meters":11200,"station_id":"ce4bhgh2rcd13ifvqfb0","pricing_plan_id":"cebpf4jnsgd1na2vs0mg"},{"bike_id":"a3d81750-d3bd-41c9-a20f-8241d79696e3","system_id":"levelo_inurba_marseille","lat":43.26209,"lon":5.37442,"is_reserved":false,"is_disabled":false,"rental_uris":{"android":"levelo://app?vid=a3d81750-d3bd-41c9-a20f-8241d79696e3","ios":"levelo://app?vid=a3d81750-d3bd-41c9-a20f-8241d79696e3"},"vehicle_type_id":"4","last_reported":1748545682,"current_range_meters":11200,"station_id":"ce4bhgp2rcd13ifvqfc0","pricing_plan_id":"cebpf4jnsgd1na2vs0mg"},{"bike_id":"b0f67d6d-3250-42ef-8f19-4e74e6760f9a","system_id":"levelo_inurba_marseille","lat":43.344,"lon":5.38139,"is_reserved":false,"is_disabled":false,"rental_uris":{"android":"levelo://app?vid=b0f67d6d-3250-42ef-8f19-4e74e6760f9a","ios":"levelo://app?vid=b0f67d6d-3250-42ef-8f19-4e74e6760f9a"},"vehicle_type_id":"4","last_reported":1748545682,"current_range_meters":11600,"station_id":"","pricing_plan_id":"cebpf4jnsgd1na2vs0mg"},{"bike_id":"6b61f061-e940-4918-8419-76f8d8386ed9","system_id":"levelo_inurba_marseille","lat":43.292727,"lon":5.376193,"is_reserved":false,"is_disabled":false,"rental_uris":{"android":"levelo://app?vid=6b61f061-e940-4918-8419-76f8d8386ed9","ios":"levelo://app?vid=6b61f061-e940-4918-8419-76f8d8386ed9"},"vehicle_type_id":"4","last_reported":1748545682,"current_range_meters":11600,"station_id":"ce4bgi12rcd13ifvqb80","pricing_plan_id":"cebpf4jnsgd1na2vs0mg"},{"bike_id":"9b139157-0f80-48a4-800c-c730929e828e","system_id":"levelo_inurba_marseille","lat":43.29066,"lon":5.37169,"is_reserved":false,"is_disabled":false,"rental_uris":{"android":"levelo://app?vid=9b139157-0f80-48a4-800c-c730929e828e","ios":"levelo://app?vid=9b139157-0f80-48a4-800c-c730929e828e"},"vehicle_type_id":"4","last_reported":1748545682,"current_range_meters":11600,"station_id":"ce4bh5p2rcd13ifvqe4g","pricing_plan_id":"cebpf4jnsgd1na2vs0mg"},{"bike_id":"73b0fc2b-37e4-4224-a2c0-41e5e80d1f3d","system_id":"levelo_inurba_marseille","lat":43.25582,"lon":5.3822,"is_reserved":false,"is_disabled":false,"rental_uris":{"android":"levelo://app?vid=73b0fc2b-37e4-4224-a2c0-41e5e80d1f3d","ios":"levelo://app?vid=73b0fc2b-37e4-4224-a2c0-41e5e80d1f3d"},"vehicle_type_id":"4","last_reported":1748545682,"current_range_meters":11600,"station_id":"ce4bhih2rcd13ifvqfs0","pricing_plan_id":"cebpf4jnsgd1na2vs0mg"},{"bike_id":"8ef6e969-eaec-4646-9dd8-fd548430bc37","system_id":"levelo_inurba_marseille","lat":43.30144,"lon":5.37427,"is_reserved":false,"is_disabled":false,"rental_uris":{"android":"levelo://app?vid=8ef6e969-eaec-4646-9dd8-fd548430bc37","ios":"levelo://app?vid=8ef6e969-eaec-4646-9dd8-fd548430bc37"},"vehicle_type_id":"4","last_reported":1748545682,"current_range_meters":12000,"station_id":"ce4bgs92rcd13ifvqcc0","pricing_plan_id":"cebpf4jnsgd1na2vs0mg"},{"bike_id":"a8230de5-34c0-444f-a9cb-eb048c8a377c","system_id":"levelo_inurba_marseille","lat":43.31078,"lon":5.38356,"is_reserved":false,"is_disabled":false,"rental_uris":{"android":"levelo://app?vid=a8230de5-34c0-444f-a9cb-eb048c8a377c","ios":"levelo://app?vid=a8230de5-34c0-444f-a9cb-eb048c8a377c"},"vehicle_type_id":"4","last_reported":1748545682,"current_range_meters":12000,"station_id":"ce4bgv92rcd13ifvqcr0","pricing_plan_id":"cebpf4jnsgd1na2vs0mg"},{"bike_id":"92baf979-8e69-4492-a1ea-776c2ee8ddd4","system_id":"levelo_inurba_marseille","lat":43.29266,"lon":5.38431,"is_reserved":false,"is_disabled":false,"rental_uris":{"android":"levelo://app?vid=92baf979-8e69-4492-a1ea-776c2ee8ddd4","ios":"levelo://app?vid=92baf979-8e69-4492-a1ea-776c2ee8ddd4"},"vehicle_type_id":"4","last_reported":1748545682,"current_range_meters":12000,"station_id":"ce4bh692rcd13ifvqea0","pricing_plan_id":"cebpf4jnsgd1na2vs0mg"},{"bike_id":"0d61948e-614d-4423-a3de-7b08a3fff69a","system_id":"levelo_inurba_marseille","lat":43.280282,"lon":5.369502,"is_reserved":false,"is_disabled":false,"rental_uris":{"android":"levelo://app?vid=0d61948e-614d-4423-a3de-7b08a3fff69a","ios":"levelo://app?vid=0d61948e-614d-4423-a3de-7b08a3fff69a"},"vehicle_type_id":"4","last_reported":1748545682,"current_range_meters":12000,"station_id":"ce4bha12rcd13ifvqef0","pricing_plan_id":"cebpf4jnsgd1na2vs0mg"},{"bike_id":"148edbe0-be83-4092-86ad-524f02f4b0de","system_id":"levelo_inurba_marseille","lat":43.29041,"lon":5.35907,"is_reserved":false,"is_disabled":false,"rental_uris":{"android":"levelo://app?vid=148edbe0-be83-4092-86ad-524f02f4b0de","ios":"levelo://app?vid=148edbe0-be83-4092-86ad-524f02f4b0de"},"vehicle_type_id":"4","last_reported":1748545682,"current_range_meters":12000,"station_id":"ce4bha92rcd13ifvqeg0","pricing_plan_id":"cebpf4jnsgd1na2vs0mg"},{"bike_id":"6fa74942-2579-4587-ab6e-71e7ea3908ec","system_id":"levelo_inurba_marseille","lat":43.26678,"lon":5.38244,"is_reserved":false,"is_disabled":false,"rental_uris":{"android":"levelo://app?vid=6fa74942-2579-4587-ab6e-71e7ea3908ec","ios":"levelo://app?vid=6fa74942-2579-4587-ab6e-71e7ea3908ec"},"vehicle_type_id":"4","last_reported":1748545682,"current_range_meters":12000,"station_id":"ce4bhg92rcd13ifvqf90","pricing_plan_id":"cebpf4jnsgd1na2vs0mg"},{"bike_id":"72bd7460-3e12-43d5-b91c-0edf6d22ac5e","system_id":"levelo_inurba_marseille","lat":43.26212,"lon":5.3744,"is_reserved":false,"is_disabled":false,"rental_uris":{"android":"levelo://app?vid=72bd7460-3e12-43d5-b91c-0edf6d22ac5e","ios":"levelo://app?vid=72bd7460-3e12-43d5-b91c-0edf6d22ac5e"},"vehicle_type_id":"4","last_reported":1748545682,"current_range_meters":12000,"station_id":"ce4bhgp2rcd13ifvqfc0","pricing_plan_id":"cebpf4jnsgd1na2vs0mg"},{"bike_id":"6cddb488-bc63-402f-9ae9-4b2b965663c6","system_id":"levelo_inurba_marseille","lat":43.28076,"lon":5.39629,"is_reserved":false,"is_disabled":false,"rental_uris":{"android":"levelo://app?vid=6cddb488-bc63-402f-9ae9-4b2b965663c6","ios":"levelo://app?vid=6cddb488-bc63-402f-9ae9-4b2b965663c6"},"vehicle_type_id":"4","last_reported":1748545682,"current_range_meters":12000,"station_id":"ce4bho12rcd13ifvqh2g","pricing_plan_id":"cebpf4jnsgd1na2vs0mg"},{"bike_id":"bdbee15d-3458-4da8-8553-de9903cf45df","system_id":"levelo_inurba_marseille","lat":43.28441,"lon":5.392,"is_reserved":false,"is_disabled":false,"rental_uris":{"android":"levelo://app?vid=bdbee15d-3458-4da8-8553-de9903cf45df","ios":"levelo://app?vid=bdbee15d-3458-4da8-8553-de9903cf45df"},"vehicle_type_id":"4","last_reported":1748545682,"current_range_meters":12000,"station_id":"ce4bhoh2rcd13ifvqh5g","pricing_plan_id":"cebpf4jnsgd1na2vs0mg"},{"bike_id":"a426f99b-d34a-41bf-bbda-59f7dfd6939b","system_id":"levelo_inurba_marseille","lat":43.255796,"lon":5.382262,"is_reserved":false,"is_disabled":false,"rental_uris":{"android":"levelo://app?vid=a426f99b-d34a-41bf-bbda-59f7dfd6939b","ios":"levelo://app?vid=a426f99b-d34a-41bf-bbda-59f7dfd6939b"},"vehicle_type_id":"4","last_reported":1748545682,"current_range_meters":12000,"station_id":"ce501612rcd8frsf0b60","pricing_plan_id":"cebpf4jnsgd1na2vs0mg"},{"bike_id":"978e8fd3-01a7-4b79-b825-32f6f7ed896f","system_id":"levelo_inurba_marseille","lat":43.29607,"lon":5.37118,"is_reserved":false,"is_disabled":false,"rental_uris":{"android":"levelo://app?vid=978e8fd3-01a7-4b79-b825-32f6f7ed896f","ios":"levelo://app?vid=978e8fd3-01a7-4b79-b825-32f6f7ed896f"},"vehicle_type_id":"4","last_reported":1748545682,"current_range_meters":12400,"station_id":"","pricing_plan_id":"cebpf4jnsgd1na2vs0mg"},{"bike_id":"90e765d3-71bc-4949-957b-9e99d7615076","system_id":"levelo_inurba_marseille","lat":43.25605,"lon":5.40516,"is_reserved":false,"is_disabled":false,"rental_uris":{"android":"levelo://app?vid=90e765d3-71bc-4949-957b-9e99d7615076","ios":"levelo://app?vid=90e765d3-71bc-4949-957b-9e99d7615076"},"vehicle_type_id":"4","last_reported":1748545682,"current_range_meters":12400,"station_id":"","pricing_plan_id":"cebpf4jnsgd1na2vs0mg"},{"bike_id":"f5733814-9732-4748-bcc9-3b2fac8e1564","system_id":"levelo_inurba_marseille","lat":43.31256,"lon":5.37829,"is_reserved":false,"is_disabled":false,"rental_uris":{"android":"levelo://app?vid=f5733814-9732-4748-bcc9-3b2fac8e1564","ios":"levelo://app?vid=f5733814-9732-4748-bcc9-3b2fac8e1564"},"vehicle_type_id":"4","last_reported":1748545682,"current_range_meters":12400,"station_id":"","pricing_plan_id":"cebpf4jnsgd1na2vs0mg"},{"bike_id":"9eec7d16-f118-48f0-8071-eb3853c7b225","system_id":"levelo_inurba_marseille","lat":43.25606,"lon":5.40518,"is_reserved":false,"is_disabled":false,"rental_uris":{"android":"levelo://app?vid=9eec7d16-f118-48f0-8071-eb3853c7b225","ios":"levelo://app?vid=9eec7d16-f118-48f0-8071-eb3853c7b225"},"vehicle_type_id":"4","last_reported":1748545682,"current_range_meters":12400,"station_id":"","pricing_plan_id":"cebpf4jnsgd1na2vs0mg"},{"bike_id":"ce2d78f8-e92c-4682-a590-6ffab6f054ee","system_id":"levelo_inurba_marseille","lat":43.29523,"lon":5.37508,"is_reserved":false,"is_disabled":false,"rental_uris":{"android":"levelo://app?vid=ce2d78f8-e92c-4682-a590-6ffab6f054ee","ios":"levelo://app?vid=ce2d78f8-e92c-4682-a590-6ffab6f054ee"},"vehicle_type_id":"4","last_reported":1748545682,"current_range_meters":12400,"station_id":"","pricing_plan_id":"cebpf4jnsgd1na2vs0mg"},{"bike_id":"bc31b1a0-be0c-4fa3-96b5-7bfedf975664","system_id":"levelo_inurba_marseille","lat":43.30911,"lon":5.3684,"is_reserved":false,"is_disabled":false,"rental_uris":{"android":"levelo://app?vid=bc31b1a0-be0c-4fa3-96b5-7bfedf975664","ios":"levelo://app?vid=bc31b1a0-be0c-4fa3-96b5-7bfedf975664"},"vehicle_type_id":"4","last_reported":1748545682,"current_range_meters":12400,"station_id":"ce4bgn92rcd13ifvqbvg","pricing_plan_id":"cebpf4jnsgd1na2vs0mg"},{"bike_id":"e116c669-3dac-4470-b7a9-482e53d15fdb","system_id":"levelo_inurba_marseille","lat":43.28674,"lon":5.38685,"is_reserved":false,"is_disabled":false,"rental_uris":{"android":"levelo://app?vid=e116c669-3dac-4470-b7a9-482e53d15fdb","ios":"levelo://app?vid=e116c669-3dac-4470-b7a9-482e53d15fdb"},"vehicle_type_id":"4","last_reported":1748545682,"current_range_meters":12400,"station_id":"ce4bh492rcd13ifvqdug","pricing_plan_id":"cebpf4jnsgd1na2vs0mg"},{"bike_id":"f96d3350-c5bf-4b21-add4-93ecfdb5e9e5","system_id":"levelo_inurba_marseille","lat":43.26569,"lon":5.37291,"is_reserved":false,"is_disabled":false,"rental_uris":{"android":"levelo://app?vid=f96d3350-c5bf-4b21-add4-93ecfdb5e9e5","ios":"levelo://app?vid=f96d3350-c5bf-4b21-add4-93ecfdb5e9e5"},"vehicle_type_id":"4","last_reported":1748545682,"current_range_meters":12400,"station_id":"ce4bhg12rcd13ifvqf70","pricing_plan_id":"cebpf4jnsgd1na2vs0mg"},{"bike_id":"da279776-c099-4cdd-acd3-f802ffed4965","system_id":"levelo_inurba_marseille","lat":43.2956,"lon":5.42282,"is_reserved":false,"is_disabled":false,"rental_uris":{"android":"levelo://app?vid=da279776-c099-4cdd-acd3-f802ffed4965","ios":"levelo://app?vid=da279776-c099-4cdd-acd3-f802ffed4965"},"vehicle_type_id":"4","last_reported":1748545682,"current_range_meters":12400,"station_id":"ce4bhph2rcd13ifvqhdg","pricing_plan_id":"cebpf4jnsgd1na2vs0mg"},{"bike_id":"a12fc3b6-1dc1-480f-ae81-aa257502d1a1","system_id":"levelo_inurba_marseille","lat":43.23193,"lon":5.35552,"is_reserved":false,"is_disabled":false,"rental_uris":{"android":"levelo://app?vid=a12fc3b6-1dc1-480f-ae81-aa257502d1a1","ios":"levelo://app?vid=a12fc3b6-1dc1-480f-ae81-aa257502d1a1"},"vehicle_type_id":"4","last_reported":1748545682,"current_range_meters":12400,"station_id":"ce4bhu92rcd13ifvqi70","pricing_plan_id":"cebpf4jnsgd1na2vs0mg"},{"bike_id":"e9cda520-c6f4-465d-ad7f-8c059b3dc45a","system_id":"levelo_inurba_marseille","lat":43.313967,"lon":5.383993,"is_reserved":false,"is_disabled":false,"rental_uris":{"android":"levelo://app?vid=e9cda520-c6f4-465d-ad7f-8c059b3dc45a","ios":"levelo://app?vid=e9cda520-c6f4-465d-ad7f-8c059b3dc45a"},"vehicle_type_id":"4","last_reported":1748545682,"current_range_meters":12800,"station_id":"","pricing_plan_id":"cebpf4jnsgd1na2vs0mg"},{"bike_id":"dc69fc1e-c516-4b16-befd-3d8ae3cdcbcb","system_id":"levelo_inurba_marseille","lat":43.296955,"lon":5.376513,"is_reserved":false,"is_disabled":false,"rental_uris":{"android":"levelo://app?vid=dc69fc1e-c516-4b16-befd-3d8ae3cdcbcb","ios":"levelo://app?vid=dc69fc1e-c516-4b16-befd-3d8ae3cdcbcb"},"vehicle_type_id":"4","last_reported":1748545682,"current_range_meters":12800,"station_id":"ce4bgkh2rcd13ifvqbl0","pricing_plan_id":"cebpf4jnsgd1na2vs0mg"},{"bike_id":"23cb9038-8038-4af2-bba0-0e9cb88d5871","system_id":"levelo_inurba_marseille","lat":43.30906,"lon":5.36835,"is_reserved":false,"is_disabled":false,"rental_uris":{"android":"levelo://app?vid=23cb9038-8038-4af2-bba0-0e9cb88d5871","ios":"levelo://app?vid=23cb9038-8038-4af2-bba0-0e9cb88d5871"},"vehicle_type_id":"4","last_reported":1748545682,"current_range_meters":12800,"station_id":"ce4bgn92rcd13ifvqbvg","pricing_plan_id":"cebpf4jnsgd1na2vs0mg"},{"bike_id":"243329ec-61f4-47d0-ac7f-0dbb82dc38af","system_id":"levelo_inurba_marseille","lat":43.26047,"lon":5.37537,"is_reserved":false,"is_disabled":false,"rental_uris":{"android":"levelo://app?vid=243329ec-61f4-47d0-ac7f-0dbb82dc38af","ios":"levelo://app?vid=243329ec-61f4-47d0-ac7f-0dbb82dc38af"},"vehicle_type_id":"4","last_reported":1748545682,"current_range_meters":12800,"station_id":"ce4bhgh2rcd13ifvqfa0","pricing_plan_id":"cebpf4jnsgd1na2vs0mg"},{"bike_id":"c6edeaa8-286a-4072-9db4-ae3a11de5279","system_id":"levelo_inurba_marseille","lat":43.26941,"lon":5.40246,"is_reserved":false,"is_disabled":false,"rental_uris":{"android":"levelo://app?vid=c6edeaa8-286a-4072-9db4-ae3a11de5279","ios":"levelo://app?vid=c6edeaa8-286a-4072-9db4-ae3a11de5279"},"vehicle_type_id":"4","last_reported":1748545682,"current_range_meters":12800,"station_id":"cjm6bp8fraef2m0cb0m0","pricing_plan_id":"cebpf4jnsgd1na2vs0mg"},{"bike_id":"29e5c24f-7c1c-45da-861a-71f71e1552f9","system_id":"levelo_inurba_marseille","lat":43.29975,"lon":5.38494,"is_reserved":false,"is_disabled":false,"rental_uris":{"android":"levelo://app?vid=29e5c24f-7c1c-45da-861a-71f71e1552f9","ios":"levelo://app?vid=29e5c24f-7c1c-45da-861a-71f71e1552f9"},"vehicle_type_id":"4","last_reported":1748545682,"current_range_meters":13600,"station_id":"ce4bgj92rcd13ifvqbd0","pricing_plan_id":"cebpf4jnsgd1na2vs0mg"},{"bike_id":"57fdd487-7d86-4238-a650-bbff02800ce3","system_id":"levelo_inurba_marseille","lat":43.30891,"lon":5.39625,"is_reserved":false,"is_disabled":false,"rental_uris":{"android":"levelo://app?vid=57fdd487-7d86-4238-a650-bbff02800ce3","ios":"levelo://app?vid=57fdd487-7d86-4238-a650-bbff02800ce3"},"vehicle_type_id":"4","last_reported":1748545682,"current_range_meters":13600,"station_id":"ce4bh012rcd13ifvqcv0","pricing_plan_id":"cebpf4jnsgd1na2vs0mg"},{"bike_id":"e072d125-b441-4b9b-b608-065b4ad893ba","system_id":"levelo_inurba_marseille","lat":43.301337,"lon":5.398723,"is_reserved":false,"is_disabled":false,"rental_uris":{"android":"levelo://app?vid=e072d125-b441-4b9b-b608-065b4ad893ba","ios":"levelo://app?vid=e072d125-b441-4b9b-b608-065b4ad893ba"},"vehicle_type_id":"4","last_reported":1748545682,"current_range_meters":13600,"station_id":"ce4bh0h2rcd13ifvqd40","pricing_plan_id":"cebpf4jnsgd1na2vs0mg"},{"bike_id":"edb3f92f-1d81-4f98-bddb-cea2921bbb6c","system_id":"levelo_inurba_marseille","lat":43.29423,"lon":5.3862,"is_reserved":false,"is_disabled":false,"rental_uris":{"android":"levelo://app?vid=edb3f92f-1d81-4f98-bddb-cea2921bbb6c","ios":"levelo://app?vid=edb3f92f-1d81-4f98-bddb-cea2921bbb6c"},"vehicle_type_id":"4","last_reported":1748545682,"current_range_meters":13600,"station_id":"ce4bh2h2rcd13ifvqdh0","pricing_plan_id":"cebpf4jnsgd1na2vs0mg"},{"bike_id":"12d71f9f-a636-4180-b1fc-1786dcd244be","system_id":"levelo_inurba_marseille","lat":43.29246,"lon":5.3845,"is_reserved":false,"is_disabled":false,"rental_uris":{"android":"levelo://app?vid=12d71f9f-a636-4180-b1fc-1786dcd244be","ios":"levelo://app?vid=12d71f9f-a636-4180-b1fc-1786dcd244be"},"vehicle_type_id":"4","last_reported":1748545682,"current_range_meters":13600,"station_id":"ce4bh692rcd13ifvqea0","pricing_plan_id":"cebpf4jnsgd1na2vs0mg"},{"bike_id":"2a3a017c-e0d9-4ed2-8a87-ccf085889724","system_id":"levelo_inurba_marseille","lat":43.29275,"lon":5.3684,"is_reserved":false,"is_disabled":false,"rental_uris":{"android":"levelo://app?vid=2a3a017c-e0d9-4ed2-8a87-ccf085889724","ios":"levelo://app?vid=2a3a017c-e0d9-4ed2-8a87-ccf085889724"},"vehicle_type_id":"4","last_reported":1748545682,"current_range_meters":13600,"station_id":"ce4bhbp2rcd13ifvqesg","pricing_plan_id":"cebpf4jnsgd1na2vs0mg"},{"bike_id":"a804ebc5-6c95-4ca6-b6fb-56b20c58d806","system_id":"levelo_inurba_marseille","lat":43.255021,"lon":5.376482,"is_reserved":false,"is_disabled":false,"rental_uris":{"android":"levelo://app?vid=a804ebc5-6c95-4ca6-b6fb-56b20c58d806","ios":"levelo://app?vid=a804ebc5-6c95-4ca6-b6fb-56b20c58d806"},"vehicle_type_id":"4","last_reported":1748545682,"current_range_meters":13600,"station_id":"ce4bhh12rcd13ifvqff0","pricing_plan_id":"cebpf4jnsgd1na2vs0mg"},{"bike_id":"bb44d196-d9e0-4306-be2a-c6bc58dafccc","system_id":"levelo_inurba_marseille","lat":43.27087,"lon":5.4029,"is_reserved":false,"is_disabled":false,"rental_uris":{"android":"levelo://app?vid=bb44d196-d9e0-4306-be2a-c6bc58dafccc","ios":"levelo://app?vid=bb44d196-d9e0-4306-be2a-c6bc58dafccc"},"vehicle_type_id":"4","last_reported":1748545682,"current_range_meters":13600,"station_id":"ce4bhk92rcd13ifvqgc0","pricing_plan_id":"cebpf4jnsgd1na2vs0mg"},{"bike_id":"d2194095-52f0-44b2-9c32-a4332a95867e","system_id":"levelo_inurba_marseille","lat":43.27061,"lon":5.40252,"is_reserved":false,"is_disabled":false,"rental_uris":{"android":"levelo://app?vid=d2194095-52f0-44b2-9c32-a4332a95867e","ios":"levelo://app?vid=d2194095-52f0-44b2-9c32-a4332a95867e"},"vehicle_type_id":"4","last_reported":1748545682,"current_range_meters":13600,"station_id":"ce4bhk92rcd13ifvqgc0","pricing_plan_id":"cebpf4jnsgd1na2vs0mg"},{"bike_id":"747224c9-7e52-4c58-9390-d943c4f5446c","system_id":"levelo_inurba_marseille","lat":43.27198,"lon":5.40991,"is_reserved":false,"is_disabled":false,"rental_uris":{"android":"levelo://app?vid=747224c9-7e52-4c58-9390-d943c4f5446c","ios":"levelo://app?vid=747224c9-7e52-4c58-9390-d943c4f5446c"},"vehicle_type_id":"4","last_reported":1748545682,"current_range_meters":13600,"station_id":"ce4bhl12rcd13ifvqgf0","pricing_plan_id":"cebpf4jnsgd1na2vs0mg"},{"bike_id":"6c1af83b-8165-4ed5-8e72-64939ace1986","system_id":"levelo_inurba_marseille","lat":43.27993,"lon":5.41662,"is_reserved":false,"is_disabled":false,"rental_uris":{"android":"levelo://app?vid=6c1af83b-8165-4ed5-8e72-64939ace1986","ios":"levelo://app?vid=6c1af83b-8165-4ed5-8e72-64939ace1986"},"vehicle_type_id":"4","last_reported":1748545682,"current_range_meters":13600,"station_id":"ce4bho12rcd13ifvqh1g","pricing_plan_id":"cebpf4jnsgd1na2vs0mg"},{"bike_id":"89527f10-1804-4136-9f29-4b4553047a6c","system_id":"levelo_inurba_marseille","lat":43.310701,"lon":5.383571,"is_reserved":false,"is_disabled":false,"rental_uris":{"android":"levelo://app?vid=89527f10-1804-4136-9f29-4b4553047a6c","ios":"levelo://app?vid=89527f10-1804-4136-9f29-4b4553047a6c"},"vehicle_type_id":"4","last_reported":1748545682,"current_range_meters":14000,"station_id":"ce4bgv92rcd13ifvqcr0","pricing_plan_id":"cebpf4jnsgd1na2vs0mg"},{"bike_id":"e7192470-fe54-473d-9ed4-afba302bb325","system_id":"levelo_inurba_marseille","lat":43.290239,"lon":5.381295,"is_reserved":false,"is_disabled":false,"rental_uris":{"android":"levelo://app?vid=e7192470-fe54-473d-9ed4-afba302bb325","ios":"levelo://app?vid=e7192470-fe54-473d-9ed4-afba302bb325"},"vehicle_type_id":"4","last_reported":1748545682,"current_range_meters":14000,"station_id":"ce4bh4p2rcd13ifvqe1g","pricing_plan_id":"cebpf4jnsgd1na2vs0mg"},{"bike_id":"3372052f-b9b8-4c17-b5b2-d5eeb7cec67a","system_id":"levelo_inurba_marseille","lat":43.28102,"lon":5.37836,"is_reserved":false,"is_disabled":false,"rental_uris":{"android":"levelo://app?vid=3372052f-b9b8-4c17-b5b2-d5eeb7cec67a","ios":"levelo://app?vid=3372052f-b9b8-4c17-b5b2-d5eeb7cec67a"},"vehicle_type_id":"4","last_reported":1748545682,"current_range_meters":14000,"station_id":"ce4bha12rcd13ifvqee0","pricing_plan_id":"cebpf4jnsgd1na2vs0mg"},{"bike_id":"cf4b76b9-b005-4f46-9571-a49c1abc7b65","system_id":"levelo_inurba_marseille","lat":43.27205,"lon":5.39183,"is_reserved":false,"is_disabled":false,"rental_uris":{"android":"levelo://app?vid=cf4b76b9-b005-4f46-9571-a49c1abc7b65","ios":"levelo://app?vid=cf4b76b9-b005-4f46-9571-a49c1abc7b65"},"vehicle_type_id":"4","last_reported":1748545682,"current_range_meters":14000,"station_id":"ce4bhhp2rcd13ifvqfm0","pricing_plan_id":"cebpf4jnsgd1na2vs0mg"},{"bike_id":"4f8225b5-c797-459e-b55a-6b2df80e7bdd","system_id":"levelo_inurba_marseille","lat":43.24665,"lon":5.38158,"is_reserved":false,"is_disabled":false,"rental_uris":{"android":"levelo://app?vid=4f8225b5-c797-459e-b55a-6b2df80e7bdd","ios":"levelo://app?vid=4f8225b5-c797-459e-b55a-6b2df80e7bdd"},"vehicle_type_id":"4","last_reported":1748545682,"current_range_meters":14000,"station_id":"ce4bhih2rcd13ifvqfr0","pricing_plan_id":"cebpf4jnsgd1na2vs0mg"},{"bike_id":"bd952391-b1db-4642-b9cf-3c7685be9105","system_id":"levelo_inurba_marseille","lat":43.26749,"lon":5.41264,"is_reserved":false,"is_disabled":false,"rental_uris":{"android":"levelo://app?vid=bd952391-b1db-4642-b9cf-3c7685be9105","ios":"levelo://app?vid=bd952391-b1db-4642-b9cf-3c7685be9105"},"vehicle_type_id":"4","last_reported":1748545682,"current_range_meters":14400,"station_id":"","pricing_plan_id":"cebpf4jnsgd1na2vs0mg"},{"bike_id":"5ebcab2d-592d-446c-bba6-9706c8bc4b45","system_id":"levelo_inurba_marseille","lat":43.313486,"lon":5.367074,"is_reserved":false,"is_disabled":false,"rental_uris":{"android":"levelo://app?vid=5ebcab2d-592d-446c-bba6-9706c8bc4b45","ios":"levelo://app?vid=5ebcab2d-592d-446c-bba6-9706c8bc4b45"},"vehicle_type_id":"4","last_reported":1748545682,"current_range_meters":14400,"station_id":"ce4bgr92rcd13ifvqc6g","pricing_plan_id":"cebpf4jnsgd1na2vs0mg"},{"bike_id":"0c3f7e02-b482-413a-a39e-153c207a1247","system_id":"levelo_inurba_marseille","lat":43.29418,"lon":5.38625,"is_reserved":false,"is_disabled":false,"rental_uris":{"android":"levelo://app?vid=0c3f7e02-b482-413a-a39e-153c207a1247","ios":"levelo://app?vid=0c3f7e02-b482-413a-a39e-153c207a1247"},"vehicle_type_id":"4","last_reported":1748545682,"current_range_meters":14400,"station_id":"ce4bh2h2rcd13ifvqdh0","pricing_plan_id":"cebpf4jnsgd1na2vs0mg"},{"bike_id":"6df048b1-b400-44e3-98b5-b9feb6ceddd4","system_id":"levelo_inurba_marseille","lat":43.29031,"lon":5.3864,"is_reserved":false,"is_disabled":false,"rental_uris":{"android":"levelo://app?vid=6df048b1-b400-44e3-98b5-b9feb6ceddd4","ios":"levelo://app?vid=6df048b1-b400-44e3-98b5-b9feb6ceddd4"},"vehicle_type_id":"4","last_reported":1748545682,"current_range_meters":14400,"station_id":"ce4bh4p2rcd13ifvqe0g","pricing_plan_id":"cebpf4jnsgd1na2vs0mg"},{"bike_id":"8812f9b2-7682-497d-bcf0-493235c16f10","system_id":"levelo_inurba_marseille","lat":43.29064,"lon":5.37167,"is_reserved":false,"is_disabled":false,"rental_uris":{"android":"levelo://app?vid=8812f9b2-7682-497d-bcf0-493235c16f10","ios":"levelo://app?vid=8812f9b2-7682-497d-bcf0-493235c16f10"},"vehicle_type_id":"4","last_reported":1748545682,"current_range_meters":14400,"station_id":"ce4bh5p2rcd13ifvqe4g","pricing_plan_id":"cebpf4jnsgd1na2vs0mg"},{"bike_id":"48e26ea8-1795-4299-a1c4-724bbc46d8d5","system_id":"levelo_inurba_marseille","lat":43.28937,"lon":5.36642,"is_reserved":false,"is_disabled":false,"rental_uris":{"android":"levelo://app?vid=48e26ea8-1795-4299-a1c4-724bbc46d8d5","ios":"levelo://app?vid=48e26ea8-1795-4299-a1c4-724bbc46d8d5"},"vehicle_type_id":"4","last_reported":1748545682,"current_range_meters":14400,"station_id":"ce4bhap2rcd13ifvqek0","pricing_plan_id":"cebpf4jnsgd1na2vs0mg"},{"bike_id":"2a1f7569-8aec-4d14-8e05-189f1ecce514","system_id":"levelo_inurba_marseille","lat":43.29279,"lon":5.36846,"is_reserved":false,"is_disabled":false,"rental_uris":{"android":"levelo://app?vid=2a1f7569-8aec-4d14-8e05-189f1ecce514","ios":"levelo://app?vid=2a1f7569-8aec-4d14-8e05-189f1ecce514"},"vehicle_type_id":"4","last_reported":1748545682,"current_range_meters":14400,"station_id":"ce4bhbp2rcd13ifvqesg","pricing_plan_id":"cebpf4jnsgd1na2vs0mg"},{"bike_id":"141081eb-70ea-454c-8697-f55dc105691d","system_id":"levelo_inurba_marseille","lat":43.28596,"lon":5.37057,"is_reserved":false,"is_disabled":false,"rental_uris":{"android":"levelo://app?vid=141081eb-70ea-454c-8697-f55dc105691d","ios":"levelo://app?vid=141081eb-70ea-454c-8697-f55dc105691d"},"vehicle_type_id":"4","last_reported":1748545682,"current_range_meters":14400,"station_id":"ce4bht12rcd13ifvqi60","pricing_plan_id":"cebpf4jnsgd1na2vs0mg"},{"bike_id":"9a86381f-51bc-4d54-858d-d27c0e51d901","system_id":"levelo_inurba_marseille","lat":43.3073,"lon":5.42447,"is_reserved":false,"is_disabled":false,"rental_uris":{"android":"levelo://app?vid=9a86381f-51bc-4d54-858d-d27c0e51d901","ios":"levelo://app?vid=9a86381f-51bc-4d54-858d-d27c0e51d901"},"vehicle_type_id":"4","last_reported":1748545682,"current_range_meters":14400,"station_id":"st_cvj6ca6bvosntc0bfgr0","pricing_plan_id":"cebpf4jnsgd1na2vs0mg"},{"bike_id":"e044c9db-ce02-4ecf-bf86-8eaa46f9c414","system_id":"levelo_inurba_marseille","lat":43.257,"lon":5.39163,"is_reserved":false,"is_disabled":false,"rental_uris":{"android":"levelo://app?vid=e044c9db-ce02-4ecf-bf86-8eaa46f9c414","ios":"levelo://app?vid=e044c9db-ce02-4ecf-bf86-8eaa46f9c414"},"vehicle_type_id":"4","last_reported":1748545682,"current_range_meters":14800,"station_id":"","pricing_plan_id":"cebpf4jnsgd1na2vs0mg"},{"bike_id":"0810923e-9ba2-4ec1-a37e-496821d3fbd6","system_id":"levelo_inurba_marseille","lat":43.29569,"lon":5.37535,"is_reserved":false,"is_disabled":false,"rental_uris":{"android":"levelo://app?vid=0810923e-9ba2-4ec1-a37e-496821d3fbd6","ios":"levelo://app?vid=0810923e-9ba2-4ec1-a37e-496821d3fbd6"},"vehicle_type_id":"4","last_reported":1748545682,"current_range_meters":14800,"station_id":"ce4bgh92rcd13ifvqb50","pricing_plan_id":"cebpf4jnsgd1na2vs0mg"},{"bike_id":"13bed428-c03a-4684-8d63-d182e8dca0c1","system_id":"levelo_inurba_marseille","lat":43.294128,"lon":5.386296,"is_reserved":false,"is_disabled":false,"rental_uris":{"android":"levelo://app?vid=13bed428-c03a-4684-8d63-d182e8dca0c1","ios":"levelo://app?vid=13bed428-c03a-4684-8d63-d182e8dca0c1"},"vehicle_type_id":"4","last_reported":1748545682,"current_range_meters":14800,"station_id":"ce4bh2h2rcd13ifvqdh0","pricing_plan_id":"cebpf4jnsgd1na2vs0mg"},{"bike_id":"1a3bfc78-a7fb-4188-bf74-224057e3d99e","system_id":"levelo_inurba_marseille","lat":43.29098,"lon":5.38138,"is_reserved":false,"is_disabled":false,"rental_uris":{"android":"levelo://app?vid=1a3bfc78-a7fb-4188-bf74-224057e3d99e","ios":"levelo://app?vid=1a3bfc78-a7fb-4188-bf74-224057e3d99e"},"vehicle_type_id":"4","last_reported":1748545682,"current_range_meters":14800,"station_id":"ce4bh512rcd13ifvqe2g","pricing_plan_id":"cebpf4jnsgd1na2vs0mg"},{"bike_id":"c7976280-845b-4c77-bb3e-bc4afeb3150a","system_id":"levelo_inurba_marseille","lat":43.294098,"lon":5.386344,"is_reserved":false,"is_disabled":false,"rental_uris":{"android":"levelo://app?vid=c7976280-845b-4c77-bb3e-bc4afeb3150a","ios":"levelo://app?vid=c7976280-845b-4c77-bb3e-bc4afeb3150a"},"vehicle_type_id":"4","last_reported":1748545682,"current_range_meters":15200,"station_id":"ce4bh2h2rcd13ifvqdh0","pricing_plan_id":"cebpf4jnsgd1na2vs0mg"},{"bike_id":"3fb40fb1-2684-4101-9069-62143343ec16","system_id":"levelo_inurba_marseille","lat":43.2893,"lon":5.3839,"is_reserved":false,"is_disabled":false,"rental_uris":{"android":"levelo://app?vid=3fb40fb1-2684-4101-9069-62143343ec16","ios":"levelo://app?vid=3fb40fb1-2684-4101-9069-62143343ec16"},"vehicle_type_id":"4","last_reported":1748545682,"current_range_meters":15200,"station_id":"ce4bh612rcd13ifvqe6g","pricing_plan_id":"cebpf4jnsgd1na2vs0mg"},{"bike_id":"b14cd402-b862-4038-94d8-b2bb9afab6b2","system_id":"levelo_inurba_marseille","lat":43.289621,"lon":5.364401,"is_reserved":false,"is_disabled":false,"rental_uris":{"android":"levelo://app?vid=b14cd402-b862-4038-94d8-b2bb9afab6b2","ios":"levelo://app?vid=b14cd402-b862-4038-94d8-b2bb9afab6b2"},"vehicle_type_id":"4","last_reported":1748545682,"current_range_meters":15200,"station_id":"ce4bhap2rcd13ifvqek0","pricing_plan_id":"cebpf4jnsgd1na2vs0mg"},{"bike_id":"88228f15-fa9e-4587-b5ca-0c8ce68adbd0","system_id":"levelo_inurba_marseille","lat":43.26699,"lon":5.38269,"is_reserved":false,"is_disabled":false,"rental_uris":{"android":"levelo://app?vid=88228f15-fa9e-4587-b5ca-0c8ce68adbd0","ios":"levelo://app?vid=88228f15-fa9e-4587-b5ca-0c8ce68adbd0"},"vehicle_type_id":"4","last_reported":1748545682,"current_range_meters":15200,"station_id":"ce4bhg92rcd13ifvqf90","pricing_plan_id":"cebpf4jnsgd1na2vs0mg"},{"bike_id":"5d36f071-ecb4-43f3-9724-3088cf5239cf","system_id":"levelo_inurba_marseille","lat":43.24071,"lon":5.37765,"is_reserved":false,"is_disabled":false,"rental_uris":{"android":"levelo://app?vid=5d36f071-ecb4-43f3-9724-3088cf5239cf","ios":"levelo://app?vid=5d36f071-ecb4-43f3-9724-3088cf5239cf"},"vehicle_type_id":"4","last_reported":1748545682,"current_range_meters":15200,"station_id":"ce4bhnp2rcd13ifvqgvg","pricing_plan_id":"cebpf4jnsgd1na2vs0mg"},{"bike_id":"584b86dd-11a4-4a1b-af3c-32390f9e55cf","system_id":"levelo_inurba_marseille","lat":43.282478,"lon":5.398353,"is_reserved":false,"is_disabled":false,"rental_uris":{"android":"levelo://app?vid=584b86dd-11a4-4a1b-af3c-32390f9e55cf","ios":"levelo://app?vid=584b86dd-11a4-4a1b-af3c-32390f9e55cf"},"vehicle_type_id":"4","last_reported":1748545682,"current_range_meters":15200,"station_id":"ce4bhr12rcd13ifvqhqg","pricing_plan_id":"cebpf4jnsgd1na2vs0mg"},{"bike_id":"4f199198-1970-4d8e-9d7f-b3dde3f3adfe","system_id":"levelo_inurba_marseille","lat":43.24169,"lon":5.36393,"is_reserved":false,"is_disabled":false,"rental_uris":{"android":"levelo://app?vid=4f199198-1970-4d8e-9d7f-b3dde3f3adfe","ios":"levelo://app?vid=4f199198-1970-4d8e-9d7f-b3dde3f3adfe"},"vehicle_type_id":"4","last_reported":1748545682,"current_range_meters":15200,"station_id":"cpo36qri1sfpv3e86is0","pricing_plan_id":"cebpf4jnsgd1na2vs0mg"},{"bike_id":"7243d7c8-02f5-4392-89cf-8c360e846d55","system_id":"levelo_inurba_marseille","lat":43.2528,"lon":5.37829,"is_reserved":false,"is_disabled":false,"rental_uris":{"android":"levelo://app?vid=7243d7c8-02f5-4392-89cf-8c360e846d55","ios":"levelo://app?vid=7243d7c8-02f5-4392-89cf-8c360e846d55"},"vehicle_type_id":"4","last_reported":1748545682,"current_range_meters":16000,"station_id":"","pricing_plan_id":"cebpf4jnsgd1na2vs0mg"},{"bike_id":"d041ba9b-b157-420b-92de-857f860b4947","system_id":"levelo_inurba_marseille","lat":43.28227,"lon":5.39057,"is_reserved":false,"is_disabled":false,"rental_uris":{"android":"levelo://app?vid=d041ba9b-b157-420b-92de-857f860b4947","ios":"levelo://app?vid=d041ba9b-b157-420b-92de-857f860b4947"},"vehicle_type_id":"4","last_reported":1748545682,"current_range_meters":16000,"station_id":"","pricing_plan_id":"cebpf4jnsgd1na2vs0mg"},{"bike_id":"464b48f1-6f4b-429c-b299-c6320426f912","system_id":"levelo_inurba_marseille","lat":43.29936,"lon":5.3655,"is_reserved":false,"is_disabled":false,"rental_uris":{"android":"levelo://app?vid=464b48f1-6f4b-429c-b299-c6320426f912","ios":"levelo://app?vid=464b48f1-6f4b-429c-b299-c6320426f912"},"vehicle_type_id":"4","last_reported":1748545682,"current_range_meters":16000,"station_id":"ce4bgm92rcd13ifvqbr0","pricing_plan_id":"cebpf4jnsgd1na2vs0mg"},{"bike_id":"d476b36a-9c5c-445d-adb1-ea097f131b5b","system_id":"levelo_inurba_marseille","lat":43.30952,"lon":5.39023,"is_reserved":false,"is_disabled":false,"rental_uris":{"android":"levelo://app?vid=d476b36a-9c5c-445d-adb1-ea097f131b5b","ios":"levelo://app?vid=d476b36a-9c5c-445d-adb1-ea097f131b5b"},"vehicle_type_id":"4","last_reported":1748545682,"current_range_meters":16000,"station_id":"ce4bgup2rcd13ifvqco0","pricing_plan_id":"cebpf4jnsgd1na2vs0mg"},