{"last_updated":1737051094,"ttl":60,"version":"2.2","data":{"bikes":[{"bike_id":"97285aa9-5761-409a-831f-0e86e3084153","system_id":"levelo_inurba_marseille","lat":43.313267,"lon":5.396946,"is_reserved":false,"is_disabled":false,"rental_uris":{"android":"levelo://app?vid=97285aa9-5761-409a-831f-0e86e3084153","ios":"levelo://app?vid=97285aa9-5761-409a-831f-0e86e3084153"},"vehicle_type_id":"4","last_reported":1737051095,"current_range_meters":11600,"station_id":"ce4bgvp2rcd13ifvqcu0","pricing_plan_id":"cebpf4jnsgd1na2vs0mg"},{"bike_id":"fbba789f-860c-4d62-8452-c64ff2ef0dd3","system_id":"levelo_inurba_marseille","lat":43.25114,"lon":5.40324,"is_reserved":false,"is_disabled":false,"rental_uris":{"android":"levelo://app?vid=fbba789f-860c-4d62-8452-c64ff2ef0dd3","ios":"levelo://app?vid=fbba789f-860c-4d62-8452-c64ff2ef0dd3"},"vehicle_type_id":"4","last_reported":1737051095,"current_range_meters":9600,"station_id":"ce4bhlh2rcd13ifvqgig","pricing_plan_id":"cebpf4jnsgd1na2vs0mg"},{"bike_id":"db12cfc1-af08-452a-b2eb-5e4e20cc35a8","system_id":"levelo_inurba_marseille","lat":43.2945,"lon":5.3974,"is_reserved":false,"is_disabled":false,"rental_uris":{"android":"levelo://app?vid=db12cfc1-af08-452a-b2eb-5e4e20cc35a8","ios":"levelo://app?vid=db12cfc1-af08-452a-b2eb-5e4e20cc35a8"},"vehicle_type_id":"4","last_reported":1737051095,"current_range_meters":13600,"station_id":"ce4bh3h2rcd13ifvqdo0","pricing_plan_id":"cebpf4jnsgd1na2vs0mg"},{"bike_id":"2ef7b2c3-9a0f-4543-abfd-c4f9968e67cc","system_id":"levelo_inurba_marseille","lat":43.2903,"lon":5.38646,"is_reserved":false,"is_disabled":false,"rental_uris":{"android":"levelo://app?vid=2ef7b2c3-9a0f-4543-abfd-c4f9968e67cc","ios":"levelo://app?vid=2ef7b2c3-9a0f-4543-abfd-c4f9968e67cc"},"vehicle_type_id":"4","last_reported":1737051095,"current_range_meters":18000,"station_id":"ce4bh4p2rcd13ifvqe0g","pricing_plan_id":"cebpf4jnsgd1na2vs0mg"},{"bike_id":"6bf20a36-cd76-4558-a422-f3890e620e17","system_id":"levelo_inurba_marseille","lat":43.27623,"lon":5.36119,"is_reserved":false,"is_disabled":false,"rental_uris":{"android":"levelo://app?vid=6bf20a36-cd76-4558-a422-f3890e620e17","ios":"levelo://app?vid=6bf20a36-cd76-4558-a422-f3890e620e17"},"vehicle_type_id":"4","last_reported":1737051095,"current_range_meters":38000,"station_id":"ce4bgj92rcd13ifvqbe0","pricing_plan_id":"cebpf4jnsgd1na2vs0mg"},{"bike_id":"a39c946b-f215-435b-b58f-d6dc4c7b0aaf","system_id":"levelo_inurba_marseille","lat":43.28162,"lon":5.42656,"is_reserved":false,"is_disabled":true,"rental_uris":{"android":"levelo://app?vid=a39c946b-f215-435b-b58f-d6dc4c7b0aaf","ios":"levelo://app?vid=a39c946b-f215-435b-b58f-d6dc4c7b0aaf"},"vehicle_type_id":"4","last_reported":1737051095,"current_range_meters":37600,"station_id":"ce4bhnh2rcd13ifvqgug","pricing_plan_id":"cebpf4jnsgd1na2vs0mg"},{"bike_id":"f920b982-cf2b-4f22-a8e5-d4ce681958df","system_id":"levelo_inurba_marseille","lat":43.298087,"lon":5.404073,"is_reserved":false,"is_disabled":false,"rental_uris":{"android":"levelo://app?vid=f920b982-cf2b-4f22-a8e5-d4ce681958df","ios":"levelo://app?vid=f920b982-cf2b-4f22-a8e5-d4ce681958df"},"vehicle_type_id":"4","last_reported":1737051095,"current_range_meters":38400,"station_id":"ce4bh112rcd13ifvqd90","pricing_plan_id":"cebpf4jnsgd1na2vs0mg"},{"bike_id":"6dbcf464-485c-42ff-ba50-2b033017559e","system_id":"levelo_inurba_marseille","lat":43.2867,"lon":5.36354,"is_reserved":false,"is_disabled":false,"rental_uris":{"android":"levelo://app?vid=6dbcf464-485c-42ff-ba50-2b033017559e","ios":"levelo://app?vid=6dbcf464-485c-42ff-ba50-2b033017559e"},"vehicle_type_id":"4","last_reported":1737051095,"current_range_meters":8000,"station_id":"ce4bhah2rcd13ifvqej0","pricing_plan_id":"cebpf4jnsgd1na2vs0mg"},{"bike_id":"a9302831-a977-42c7-a552-458f0d4a525a","system_id":"levelo_inurba_marseille","lat":43.29135,"lon":5.38082,"is_reserved":false,"is_disabled":false,"rental_uris":{"android":"levelo://app?vid=a9302831-a977-42c7-a552-458f0d4a525a","ios":"levelo://app?vid=a9302831-a977-42c7-a552-458f0d4a525a"},"vehicle_type_id":"4","last_reported":1737051095,"current_range_meters":31200,"station_id":"","pricing_plan_id":"cebpf4jnsgd1na2vs0mg"},{"bike_id":"62b37538-a9cc-4cfb-9f35-c1bffa9f5c35","system_id":"levelo_inurba_marseille","lat":43.29274,"lon":5.40138,"is_reserved":false,"is_disabled":false,"rental_uris":{"android":"levelo://app?vid=62b37538-a9cc-4cfb-9f35-c1bffa9f5c35","ios":"levelo://app?vid=62b37538-a9cc-4cfb-9f35-c1bffa9f5c35"},"vehicle_type_id":"4","last_reported":1737051095,"current_range_meters":25200,"station_id":"ce4bh312rcd13ifvqdk0","pricing_plan_id":"cebpf4jnsgd1na2vs0mg"},{"bike_id":"25b01166-8b4c-49d6-8386-8f83eb8111f5","system_id":"levelo_inurba_marseille","lat":43.2582,"lon":5.39443,"is_reserved":false,"is_disabled":false,"rental_uris":{"android":"levelo://app?vid=25b01166-8b4c-49d6-8386-8f83eb8111f5","ios":"levelo://app?vid=25b01166-8b4c-49d6-8386-8f83eb8111f5"},"vehicle_type_id":"4","last_reported":1737051095,"current_range_meters":8000,"station_id":"ce4bhip2rcd13ifvqft0","pricing_plan_id":"cebpf4jnsgd1na2vs0mg"},{"bike_id":"f0a92fb5-a1b4-48f0-adca-077cea1d20a2","system_id":"levelo_inurba_marseille","lat":43.27844,"lon":5.39199,"is_reserved":false,"is_disabled":false,"rental_uris":{"android":"levelo://app?vid=f0a92fb5-a1b4-48f0-adca-077cea1d20a2","ios":"levelo://app?vid=f0a92fb5-a1b4-48f0-adca-077cea1d20a2"},"vehicle_type_id":"4","last_reported":1737051095,"current_range_meters":38800,"station_id":"ce4bhjp2rcd13ifvqga0","pricing_plan_id":"cebpf4jnsgd1na2vs0mg"},{"bike_id":"4c981b7a-6a20-4f99-8f7f-b78dfe740cbc","system_id":"levelo_inurba_marseille","lat":43.27903,"lon":5.39578,"is_reserved":false,"is_disabled":false,"rental_uris":{"android":"levelo://app?vid=4c981b7a-6a20-4f99-8f7f-b78dfe740cbc","ios":"levelo://app?vid=4c981b7a-6a20-4f99-8f7f-b78dfe740cbc"},"vehicle_type_id":"4","last_reported":1737051095,"current_range_meters":38800,"station_id":"ce4bhf92rcd13ifvqf40","pricing_plan_id":"cebpf4jnsgd1na2vs0mg"},{"bike_id":"e9ed9015-c413-42e5-81bd-431fd886da21","system_id":"levelo_inurba_marseille","lat":43.29025,"lon":5.38625,"is_reserved":false,"is_disabled":false,"rental_uris":{"android":"levelo://app?vid=e9ed9015-c413-42e5-81bd-431fd886da21","ios":"levelo://app?vid=e9ed9015-c413-42e5-81bd-431fd886da21"},"vehicle_type_id":"4","last_reported":1737051095,"current_range_meters":38000,"station_id":"ce4bh4p2rcd13ifvqe0g","pricing_plan_id":"cebpf4jnsgd1na2vs0mg"},{"bike_id":"bdaf5706-2a80-4e7f-917d-c04b957c0216","system_id":"levelo_inurba_marseille","lat":43.30798,"lon":5.38158,"is_reserved":false,"is_disabled":false,"rental_uris":{"android":"levelo://app?vid=bdaf5706-2a80-4e7f-917d-c04b957c0216","ios":"levelo://app?vid=bdaf5706-2a80-4e7f-917d-c04b957c0216"},"vehicle_type_id":"4","last_reported":1737051095,"current_range_meters":26800,"station_id":"ce4bgt12rcd13ifvqce0","pricing_plan_id":"cebpf4jnsgd1na2vs0mg"},{"bike_id":"8800286a-027a-4841-87ae-71bd90fd9e19","system_id":"levelo_inurba_marseille","lat":43.28664,"lon":5.36363,"is_reserved":false,"is_disabled":false,"rental_uris":{"android":"levelo://app?vid=8800286a-027a-4841-87ae-71bd90fd9e19","ios":"levelo://app?vid=8800286a-027a-4841-87ae-71bd90fd9e19"},"vehicle_type_id":"4","last_reported":1737051095,"current_range_meters":38000,"station_id":"ce4bhah2rcd13ifvqej0","pricing_plan_id":"cebpf4jnsgd1na2vs0mg"},{"bike_id":"eecf3b32-af9e-4a17-b6fb-3e0537ff5677","system_id":"levelo_inurba_marseille","lat":43.2989,"lon":5.39724,"is_reserved":false,"is_disabled":false,"rental_uris":{"android":"levelo://app?vid=eecf3b32-af9e-4a17-b6fb-3e0537ff5677","ios":"levelo://app?vid=eecf3b32-af9e-4a17-b6fb-3e0537ff5677"},"vehicle_type_id":"4","last_reported":1737051095,"current_range_meters":28000,"station_id":"ce4bh0h2rcd13ifvqd50","pricing_plan_id":"cebpf4jnsgd1na2vs0mg"},{"bike_id":"88e18478-dee8-4600-a655-3bb4b2a8da0d","system_id":"levelo_inurba_marseille","lat":43.30444,"lon":5.38892,"is_reserved":false,"is_disabled":false,"rental_uris":{"android":"levelo://app?vid=88e18478-dee8-4600-a655-3bb4b2a8da0d","ios":"levelo://app?vid=88e18478-dee8-4600-a655-3bb4b2a8da0d"},"vehicle_type_id":"4","last_reported":1737051095,"current_range_meters":24800,"station_id":"ce4bgk12rcd13ifvqbi0","pricing_plan_id":"cebpf4jnsgd1na2vs0mg"},{"bike_id":"85272152-97bb-44d9-a6b4-13a9679c701e","system_id":"levelo_inurba_marseille","lat":43.27938,"lon":5.41053,"is_reserved":false,"is_disabled":false,"rental_uris":{"android":"levelo://app?vid=85272152-97bb-44d9-a6b4-13a9679c701e","ios":"levelo://app?vid=85272152-97bb-44d9-a6b4-13a9679c701e"},"vehicle_type_id":"4","last_reported":1737051095,"current_range_meters":8800,"station_id":"ce4bhnp2rcd13ifvqh0g","pricing_plan_id":"cebpf4jnsgd1na2vs0mg"},{"bike_id":"85697b48-7ca0-4d57-bbd7-b28f626dd05b","system_id":"levelo_inurba_marseille","lat":43.28577,"lon":5.3598,"is_reserved":false,"is_disabled":false,"rental_uris":{"android":"levelo://app?vid=85697b48-7ca0-4d57-bbd7-b28f626dd05b","ios":"levelo://app?vid=85697b48-7ca0-4d57-bbd7-b28f626dd05b"},"vehicle_type_id":"4","last_reported":1737051095,"current_range_meters":4800,"station_id":"","pricing_plan_id":"cebpf4jnsgd1na2vs0mg"},{"bike_id":"eeb9604c-7e9d-4b54-8249-5ca22b527a8f","system_id":"levelo_inurba_marseille","lat":43.31704,"lon":5.37769,"is_reserved":false,"is_disabled":false,"rental_uris":{"android":"levelo://app?vid=eeb9604c-7e9d-4b54-8249-5ca22b527a8f","ios":"levelo://app?vid=eeb9604c-7e9d-4b54-8249-5ca22b527a8f"},"vehicle_type_id":"4","last_reported":1737051095,"current_range_meters":25600,"station_id":"ce4bgth2rcd13ifvqch0","pricing_plan_id":"cebpf4jnsgd1na2vs0mg"},{"bike_id":"42d5999b-64f2-46d9-ac73-aa7dceafe4d5","system_id":"levelo_inurba_marseille","lat":43.26781,"lon":5.39421,"is_reserved":false,"is_disabled":false,"rental_uris":{"android":"levelo://app?vid=42d5999b-64f2-46d9-ac73-aa7dceafe4d5","ios":"levelo://app?vid=42d5999b-64f2-46d9-ac73-aa7dceafe4d5"},"vehicle_type_id":"4","last_reported":1737051095,"current_range_meters":24400,"station_id":"ce4bhh12rcd13ifvqfg0","pricing_plan_id":"cebpf4jnsgd1na2vs0mg"},{"bike_id":"c4fc9679-1008-473b-9e9b-26f1ed62312e","system_id":"levelo_inurba_marseille","lat":43.229309,"lon":5.353821,"is_reserved":false,"is_disabled":false,"rental_uris":{"android":"levelo://app?vid=c4fc9679-1008-473b-9e9b-26f1ed62312e","ios":"levelo://app?vid=c4fc9679-1008-473b-9e9b-26f1ed62312e"},"vehicle_type_id":"4","last_reported":1737051095,"current_range_meters":22400,"station_id":"cpo3532slgdg3j2ikp40","pricing_plan_id":"cebpf4jnsgd1na2vs0mg"},{"bike_id":"db056047-4fbb-4678-a51c-6164043f9c08","system_id":"levelo_inurba_marseille","lat":43.24998,"lon":5.38942,"is_reserved":false,"is_disabled":false,"rental_uris":{"android":"levelo://app?vid=db056047-4fbb-4678-a51c-6164043f9c08","ios":"levelo://app?vid=db056047-4fbb-4678-a51c-6164043f9c08"},"vehicle_type_id":"4","last_reported":1737051095,"current_range_meters":27200,"station_id":"ce4bhgp2rcd13ifvqfd0","pricing_plan_id":"cebpf4jnsgd1na2vs0mg"},{"bike_id":"0e842b39-329d-48e2-b781-7e3babc96cf4","system_id":"levelo_inurba_marseille","lat":43.22937,"lon":5.35374,"is_reserved":false,"is_disabled":false,"rental_uris":{"android":"levelo://app?vid=0e842b39-329d-48e2-b781-7e3babc96cf4","ios":"levelo://app?vid=0e842b39-329d-48e2-b781-7e3babc96cf4"},"vehicle_type_id":"4","last_reported":1737051095,"current_range_meters":14000,"station_id":"cpo3532slgdg3j2ikp40","pricing_plan_id":"cebpf4jnsgd1na2vs0mg"},{"bike_id":"b45bf315-b8dc-41a5-b213-4b0c7bdfbe59","system_id":"levelo_inurba_marseille","lat":43.30304,"lon":5.36887,"is_reserved":false,"is_disabled":false,"rental_uris":{"android":"levelo://app?vid=b45bf315-b8dc-41a5-b213-4b0c7bdfbe59","ios":"levelo://app?vid=b45bf315-b8dc-41a5-b213-4b0c7bdfbe59"},"vehicle_type_id":"4","last_reported":1737051095,"current_range_meters":35600,"station_id":"ce4bgqh2rcd13ifvqc5g","pricing_plan_id":"cebpf4jnsgd1na2vs0mg"},{"bike_id":"871856dd-5594-4a84-90c5-1f7714cebc6c","system_id":"levelo_inurba_marseille","lat":43.28934,"lon":5.36632,"is_reserved":false,"is_disabled":true,"rental_uris":{"android":"levelo://app?vid=871856dd-5594-4a84-90c5-1f7714cebc6c","ios":"levelo://app?vid=871856dd-5594-4a84-90c5-1f7714cebc6c"},"vehicle_type_id":"4","last_reported":1737051095,"current_range_meters":1600,"station_id":"ce4bhap2rcd13ifvqek0","pricing_plan_id":"cebpf4jnsgd1na2vs0mg"},{"bike_id":"99edffd1-a5ba-4759-befa-f12a00faec89","system_id":"levelo_inurba_marseille","lat":43.28566,"lon":5.39499,"is_reserved":false,"is_disabled":true,"rental_uris":{"android":"levelo://app?vid=99edffd1-a5ba-4759-befa-f12a00faec89","ios":"levelo://app?vid=99edffd1-a5ba-4759-befa-f12a00faec89"},"vehicle_type_id":"4","last_reported":1737051095,"current_range_meters":13600,"station_id":"ce4bh292rcd13ifvqdg0","pricing_plan_id":"cebpf4jnsgd1na2vs0mg"},{"bike_id":"8312db66-0d07-4e6b-95ed-6f003e104b4c","system_id":"levelo_inurba_marseille","lat":43.2885,"lon":5.39334,"is_reserved":false,"is_disabled":false,"rental_uris":{"android":"levelo://app?vid=8312db66-0d07-4e6b-95ed-6f003e104b4c","ios":"levelo://app?vid=8312db66-0d07-4e6b-95ed-6f003e104b4c"},"vehicle_type_id":"4","last_reported":1737051095,"current_range_meters":36800,"station_id":"ce4bh2p2rcd13ifvqdi0","pricing_plan_id":"cebpf4jnsgd1na2vs0mg"},{"bike_id":"240793b7-2334-47eb-b07b-36073cab0422","system_id":"levelo_inurba_marseille","lat":43.23187,"lon":5.39979,"is_reserved":false,"is_disabled":false,"rental_uris":{"android":"levelo://app?vid=240793b7-2334-47eb-b07b-36073cab0422","ios":"levelo://app?vid=240793b7-2334-47eb-b07b-36073cab0422"},"vehicle_type_id":"4","last_reported":1737051095,"current_range_meters":39200,"station_id":"ce4bhn12rcd13ifvqgqg","pricing_plan_id":"cebpf4jnsgd1na2vs0mg"},{"bike_id":"afb36142-c30c-4785-9da0-e023e97583ed","system_id":"levelo_inurba_marseille","lat":43.28159,"lon":5.42657,"is_reserved":false,"is_disabled":false,"rental_uris":{"android":"levelo://app?vid=afb36142-c30c-4785-9da0-e023e97583ed","ios":"levelo://app?vid=afb36142-c30c-4785-9da0-e023e97583ed"},"vehicle_type_id":"4","last_reported":1737051095,"current_range_meters":9200,"station_id":"ce4bhnh2rcd13ifvqgug","pricing_plan_id":"cebpf4jnsgd1na2vs0mg"},{"bike_id":"3ec80500-790a-480b-9a49-5b6ed16fcae3","system_id":"levelo_inurba_marseille","lat":43.28695,"lon":5.40002,"is_reserved":false,"is_disabled":false,"rental_uris":{"android":"levelo://app?vid=3ec80500-790a-480b-9a49-5b6ed16fcae3","ios":"levelo://app?vid=3ec80500-790a-480b-9a49-5b6ed16fcae3"},"vehicle_type_id":"4","last_reported":1737051095,"current_range_meters":21600,"station_id":"ce4bho92rcd13ifvqh3g","pricing_plan_id":"cebpf4jnsgd1na2vs0mg"},{"bike_id":"a0692d70-e17f-48da-be55-0222287280f4","system_id":"levelo_inurba_marseille","lat":43.29578,"lon":5.4228,"is_reserved":false,"is_disabled":false,"rental_uris":{"android":"levelo://app?vid=a0692d70-e17f-48da-be55-0222287280f4","ios":"levelo://app?vid=a0692d70-e17f-48da-be55-0222287280f4"},"vehicle_type_id":"4","last_reported":1737051095,"current_range_meters":37600,"station_id":"ce4bhph2rcd13ifvqhdg","pricing_plan_id":"cebpf4jnsgd1na2vs0mg"},{"bike_id":"51f6af46-9926-41e4-8289-583974aa73d5","system_id":"levelo_inurba_marseille","lat":43.31356,"lon":5.38491,"is_reserved":false,"is_disabled":false,"rental_uris":{"android":"levelo://app?vid=51f6af46-9926-41e4-8289-583974aa73d5","ios":"levelo://app?vid=51f6af46-9926-41e4-8289-583974aa73d5"},"vehicle_type_id":"4","last_reported":1737051095,"current_range_meters":35600,"station_id":"ce4bgt92rcd13ifvqcf0","pricing_plan_id":"cebpf4jnsgd1na2vs0mg"},{"bike_id":"70199fc2-df6a-4ec4-910c-a63d7bb31e5e","system_id":"levelo_inurba_marseille","lat":43.29199,"lon":5.35814,"is_reserved":false,"is_disabled":false,"rental_uris":{"android":"levelo://app?vid=70199fc2-df6a-4ec4-910c-a63d7bb31e5e","ios":"levelo://app?vid=70199fc2-df6a-4ec4-910c-a63d7bb31e5e"},"vehicle_type_id":"4","last_reported":1737051095,"current_range_meters":39200,"station_id":"ce4bhb12rcd13ifvqel0","pricing_plan_id":"cebpf4jnsgd1na2vs0mg"},{"bike_id":"85b17b88-0932-436f-a3cd-d6633f9898b6","system_id":"levelo_inurba_marseille","lat":43.2319,"lon":5.39978,"is_reserved":false,"is_disabled":false,"rental_uris":{"android":"levelo://app?vid=85b17b88-0932-436f-a3cd-d6633f9898b6","ios":"levelo://app?vid=85b17b88-0932-436f-a3cd-d6633f9898b6"},"vehicle_type_id":"4","last_reported":1737051095,"current_range_meters":24400,"station_id":"ce4bhn12rcd13ifvqgqg","pricing_plan_id":"cebpf4jnsgd1na2vs0mg"},{"bike_id":"dbe416e8-9e43-4f2d-b382-655307084bbf","system_id":"levelo_inurba_marseille","lat":43.26197,"lon":5.37932,"is_reserved":false,"is_disabled":false,"rental_uris":{"android":"levelo://app?vid=dbe416e8-9e43-4f2d-b382-655307084bbf","ios":"levelo://app?vid=dbe416e8-9e43-4f2d-b382-655307084bbf"},"vehicle_type_id":"4","last_reported":1737051095,"current_range_meters":27600,"station_id":"ce4bhjp2rcd13ifvqg90","pricing_plan_id":"cebpf4jnsgd1na2vs0mg"},{"bike_id":"d2ed35f8-7da5-4b4b-8781-01e92d76cd9e","system_id":"levelo_inurba_marseille","lat":43.28416,"lon":5.37516,"is_reserved":false,"is_disabled":false,"rental_uris":{"android":"levelo://app?vid=d2ed35f8-7da5-4b4b-8781-01e92d76cd9e","ios":"levelo://app?vid=d2ed35f8-7da5-4b4b-8781-01e92d76cd9e"},"vehicle_type_id":"4","last_reported":1737051095,"current_range_meters":38800,"station_id":"ce4bh412rcd13ifvqds0","pricing_plan_id":"cebpf4jnsgd1na2vs0mg"},{"bike_id":"b70e13b7-3391-4c0e-9f63-5b7868985b1d","system_id":"levelo_inurba_marseille","lat":43.29036,"lon":5.38665,"is_reserved":false,"is_disabled":false,"rental_uris":{"android":"levelo://app?vid=b70e13b7-3391-4c0e-9f63-5b7868985b1d","ios":"levelo://app?vid=b70e13b7-3391-4c0e-9f63-5b7868985b1d"},"vehicle_type_id":"4","last_reported":1737051095,"current_range_meters":38800,"station_id":"ce4bh4p2rcd13ifvqe0g","pricing_plan_id":"cebpf4jnsgd1na2vs0mg"},{"bike_id":"396323e9-c67e-466f-a683-f8e12dfec855","system_id":"levelo_inurba_marseille","lat":43.28417,"lon":5.37512,"is_reserved":false,"is_disabled":false,"rental_uris":{"android":"levelo://app?vid=396323e9-c67e-466f-a683-f8e12dfec855","ios":"levelo://app?vid=396323e9-c67e-466f-a683-f8e12dfec855"},"vehicle_type_id":"4","last_reported":1737051095,"current_range_meters":37600,"station_id":"ce4bh412rcd13ifvqds0","pricing_plan_id":"cebpf4jnsgd1na2vs0mg"},{"bike_id":"de44c3ae-b86e-4827-bf81-fd23f07d8e64","system_id":"levelo_inurba_marseille","lat":43.30799,"lon":5.38168,"is_reserved":false,"is_disabled":false,"rental_uris":{"android":"levelo://app?vid=de44c3ae-b86e-4827-bf81-fd23f07d8e64","ios":"levelo://app?vid=de44c3ae-b86e-4827-bf81-fd23f07d8e64"},"vehicle_type_id":"4","last_reported":1737051095,"current_range_meters":20000,"station_id":"ce4bgt12rcd13ifvqce0","pricing_plan_id":"cebpf4jnsgd1na2vs0mg"},{"bike_id":"507d7b19-702d-4bfb-8bc8-0fc6d8c1a3a4","system_id":"levelo_inurba_marseille","lat":43.2988,"lon":5.39743,"is_reserved":false,"is_disabled":false,"rental_uris":{"android":"levelo://app?vid=507d7b19-702d-4bfb-8bc8-0fc6d8c1a3a4","ios":"levelo://app?vid=507d7b19-702d-4bfb-8bc8-0fc6d8c1a3a4"},"vehicle_type_id":"4","last_reported":1737051095,"current_range_meters":38800,"station_id":"ce4bh0h2rcd13ifvqd50","pricing_plan_id":"cebpf4jnsgd1na2vs0mg"},{"bike_id":"87707ecc-a555-4041-b4c9-046040370b07","system_id":"levelo_inurba_marseille","lat":43.32005,"lon":5.3817,"is_reserved":false,"is_disabled":true,"rental_uris":{"android":"levelo://app?vid=87707ecc-a555-4041-b4c9-046040370b07","ios":"levelo://app?vid=87707ecc-a555-4041-b4c9-046040370b07"},"vehicle_type_id":"4","last_reported":1737051095,"current_range_meters":800,"station_id":"ce4bhr12rcd13ifvqhpg","pricing_plan_id":"cebpf4jnsgd1na2vs0mg"},{"bike_id":"57391818-dc95-4878-86f9-a71a65a9ac74","system_id":"levelo_inurba_marseille","lat":43.29026,"lon":5.38134,"is_reserved":false,"is_disabled":false,"rental_uris":{"android":"levelo://app?vid=57391818-dc95-4878-86f9-a71a65a9ac74","ios":"levelo://app?vid=57391818-dc95-4878-86f9-a71a65a9ac74"},"vehicle_type_id":"4","last_reported":1737051095,"current_range_meters":20800,"station_id":"ce4bh4p2rcd13ifvqe1g","pricing_plan_id":"cebpf4jnsgd1na2vs0mg"},{"bike_id":"141897c9-dcda-4816-89f0-cf3f4e571b71","system_id":"levelo_inurba_marseille","lat":43.31368,"lon":5.38479,"is_reserved":false,"is_disabled":false,"rental_uris":{"android":"levelo://app?vid=141897c9-dcda-4816-89f0-cf3f4e571b71","ios":"levelo://app?vid=141897c9-dcda-4816-89f0-cf3f4e571b71"},"vehicle_type_id":"4","last_reported":1737051095,"current_range_meters":29600,"station_id":"ce4bgt92rcd13ifvqcf0","pricing_plan_id":"cebpf4jnsgd1na2vs0mg"},{"bike_id":"9d6d1f26-fb82-4e0f-b072-6abb7d08dc00","system_id":"levelo_inurba_marseille","lat":43.29531,"lon":5.38547,"is_reserved":false,"is_disabled":false,"rental_uris":{"android":"levelo://app?vid=9d6d1f26-fb82-4e0f-b072-6abb7d08dc00","ios":"levelo://app?vid=9d6d1f26-fb82-4e0f-b072-6abb7d08dc00"},"vehicle_type_id":"4","last_reported":1737051095,"current_range_meters":20400,"station_id":"ce4bgih2rcd13ifvqba0","pricing_plan_id":"cebpf4jnsgd1na2vs0mg"},{"bike_id":"fa53afd0-c3c0-46c2-be7e-d056eb14f6b8","system_id":"levelo_inurba_marseille","lat":43.26052,"lon":5.39385,"is_reserved":false,"is_disabled":false,"rental_uris":{"android":"levelo://app?vid=fa53afd0-c3c0-46c2-be7e-d056eb14f6b8","ios":"levelo://app?vid=fa53afd0-c3c0-46c2-be7e-d056eb14f6b8"},"vehicle_type_id":"4","last_reported":1737051095,"current_range_meters":38800,"station_id":"ce4bhh92rcd13ifvqfj0","pricing_plan_id":"cebpf4jnsgd1na2vs0mg"},{"bike_id":"a47874b2-92b6-4162-9330-775ee9873e24","system_id":"levelo_inurba_marseille","lat":43.3234,"lon":5.40627,"is_reserved":false,"is_disabled":false,"rental_uris":{"android":"levelo://app?vid=a47874b2-92b6-4162-9330-775ee9873e24","ios":"levelo://app?vid=a47874b2-92b6-4162-9330-775ee9873e24"},"vehicle_type_id":"4","last_reported":1737051095,"current_range_meters":17200,"station_id":"ce4bhq92rcd13ifvqhjg","pricing_plan_id":"cebpf4jnsgd1na2vs0mg"},{"bike_id":"50474f82-faae-4cb8-a970-291e2ad23fd2","system_id":"levelo_inurba_marseille","lat":43.29533,"lon":5.38544,"is_reserved":false,"is_disabled":false,"rental_uris":{"android":"levelo://app?vid=50474f82-faae-4cb8-a970-291e2ad23fd2","ios":"levelo://app?vid=50474f82-faae-4cb8-a970-291e2ad23fd2"},"vehicle_type_id":"4","last_reported":1737051095,"current_range_meters":34800,"station_id":"ce4bgih2rcd13ifvqba0","pricing_plan_id":"cebpf4jnsgd1na2vs0mg"},{"bike_id":"c010a914-dced-4fd4-91d3-f749933b63c9","system_id":"levelo_inurba_marseille","lat":43.29273,"lon":5.38437,"is_reserved":false,"is_disabled":false,"rental_uris":{"android":"levelo://app?vid=c010a914-dced-4fd4-91d3-f749933b63c9","ios":"levelo://app?vid=c010a914-dced-4fd4-91d3-f749933b63c9"},"vehicle_type_id":"4","last_reported":1737051095,"current_range_meters":16400,"station_id":"ce4bh692rcd13ifvqea0","pricing_plan_id":"cebpf4jnsgd1na2vs0mg"},{"bike_id":"155dbf4b-d6fe-46aa-9097-9994452a5158","system_id":"levelo_inurba_marseille","lat":43.23068,"lon":5.35494,"is_reserved":false,"is_disabled":false,"rental_uris":{"android":"levelo://app?vid=155dbf4b-d6fe-46aa-9097-9994452a5158","ios":"levelo://app?vid=155dbf4b-d6fe-46aa-9097-9994452a5158"},"vehicle_type_id":"4","last_reported":1737051095,"current_range_meters":8400,"station_id":"cpo3342slgdg3j2ifvpg","pricing_plan_id":"cebpf4jnsgd1na2vs0mg"},{"bike_id":"44d65a31-bb68-4e49-86bf-b4d0ff0902f2","system_id":"levelo_inurba_marseille","lat":43.28465,"lon":5.35893,"is_reserved":false,"is_disabled":false,"rental_uris":{"android":"levelo://app?vid=44d65a31-bb68-4e49-86bf-b4d0ff0902f2","ios":"levelo://app?vid=44d65a31-bb68-4e49-86bf-b4d0ff0902f2"},"vehicle_type_id":"4","last_reported":1737051095,"current_range_meters":6000,"station_id":"ce4bhah2rcd13ifvqei0","pricing_plan_id":"cebpf4jnsgd1na2vs0mg"},{"bike_id":"80bc6287-ce2b-4ae4-b9d5-67d3150daa6d","system_id":"levelo_inurba_marseille","lat":43.27177,"lon":5.40997,"is_reserved":false,"is_disabled":false,"rental_uris":{"android":"levelo://app?vid=80bc6287-ce2b-4ae4-b9d5-67d3150daa6d","ios":"levelo://app?vid=80bc6287-ce2b-4ae4-b9d5-67d3150daa6d"},"vehicle_type_id":"4","last_reported":1737051095,"current_range_meters":28000,"station_id":"ce4bhl12rcd13ifvqgf0","pricing_plan_id":"cebpf4jnsgd1na2vs0mg"},{"bike_id":"04d04638-5083-4b1f-a617-20b41b80e203","system_id":"levelo_inurba_marseille","lat":43.29977,"lon":5.38488,"is_reserved":false,"is_disabled":false,"rental_uris":{"android":"levelo://app?vid=04d04638-5083-4b1f-a617-20b41b80e203","ios":"levelo://app?vid=04d04638-5083-4b1f-a617-20b41b80e203"},"vehicle_type_id":"4","last_reported":1737051095,"current_range_meters":30000,"station_id":"ce4bgj92rcd13ifvqbd0","pricing_plan_id":"cebpf4jnsgd1na2vs0mg"},{"bike_id":"766ebb2e-9e6c-4da1-ac38-4ce5149def87","system_id":"levelo_inurba_marseille","lat":43.30121,"lon":5.38795,"is_reserved":false,"is_disabled":false,"rental_uris":{"android":"levelo://app?vid=766ebb2e-9e6c-4da1-ac38-4ce5149def87","ios":"levelo://app?vid=766ebb2e-9e6c-4da1-ac38-4ce5149def87"},"vehicle_type_id":"4","last_reported":1737051095,"current_range_meters":9200,"station_id":"ce4bghh2rcd13ifvqb60","pricing_plan_id":"cebpf4jnsgd1na2vs0mg"},{"bike_id":"31bbfcbf-90aa-49da-8603-41c413804280","system_id":"levelo_inurba_marseille","lat":43.32366,"lon":5.38886,"is_reserved":false,"is_disabled":false,"rental_uris":{"android":"levelo://app?vid=31bbfcbf-90aa-49da-8603-41c413804280","ios":"levelo://app?vid=31bbfcbf-90aa-49da-8603-41c413804280"},"vehicle_type_id":"4","last_reported":1737051095,"current_range_meters":35200,"station_id":"ce4bhqp2rcd13ifvqhog","pricing_plan_id":"cebpf4jnsgd1na2vs0mg"},{"bike_id":"ca0daeb3-551a-47db-9568-cfb249748609","system_id":"levelo_inurba_marseille","lat":43.29968,"lon":5.3852,"is_reserved":false,"is_disabled":true,"rental_uris":{"android":"levelo://app?vid=ca0daeb3-551a-47db-9568-cfb249748609","ios":"levelo://app?vid=ca0daeb3-551a-47db-9568-cfb249748609"},"vehicle_type_id":"4","last_reported":1737051095,"current_range_meters":28000,"station_id":"ce4bgj92rcd13ifvqbd0","pricing_plan_id":"cebpf4jnsgd1na2vs0mg"},{"bike_id":"160c4de7-7f2e-4ddd-89ef-4765ad4546e8","system_id":"levelo_inurba_marseille","lat":43.28998,"lon":5.35626,"is_reserved":false,"is_disabled":false,"rental_uris":{"android":"levelo://app?vid=160c4de7-7f2e-4ddd-89ef-4765ad4546e8","ios":"levelo://app?vid=160c4de7-7f2e-4ddd-89ef-4765ad4546e8"},"vehicle_type_id":"4","last_reported":1737051095,"current_range_meters":36800,"station_id":"ce4bhb92rcd13ifvqen0","pricing_plan_id":"cebpf4jnsgd1na2vs0mg"},{"bike_id":"fd11587d-2738-46f2-92a7-2edd7912ae40","system_id":"levelo_inurba_marseille","lat":43.26935,"lon":5.40253,"is_reserved":false,"is_disabled":false,"rental_uris":{"android":"levelo://app?vid=fd11587d-2738-46f2-92a7-2edd7912ae40","ios":"levelo://app?vid=fd11587d-2738-46f2-92a7-2edd7912ae40"},"vehicle_type_id":"4","last_reported":1737051095,"current_range_meters":38400,"station_id":"cjm6bp8fraef2m0cb0m0","pricing_plan_id":"cebpf4jnsgd1na2vs0mg"},{"bike_id":"41b0b4ec-7526-4290-96f9-44cbe4cd1ada","system_id":"levelo_inurba_marseille","lat":43.26852,"lon":5.39475,"is_reserved":false,"is_disabled":true,"rental_uris":{"android":"levelo://app?vid=41b0b4ec-7526-4290-96f9-44cbe4cd1ada","ios":"levelo://app?vid=41b0b4ec-7526-4290-96f9-44cbe4cd1ada"},"vehicle_type_id":"4","last_reported":1737051095,"current_range_meters":20800,"station_id":"ce4bhh12rcd13ifvqfg0","pricing_plan_id":"cebpf4jnsgd1na2vs0mg"},{"bike_id":"6851d26c-9ce1-4383-9e14-ab406b67b568","system_id":"levelo_inurba_marseille","lat":43.26496,"lon":5.39536,"is_reserved":false,"is_disabled":false,"rental_uris":{"android":"levelo://app?vid=6851d26c-9ce1-4383-9e14-ab406b67b568","ios":"levelo://app?vid=6851d26c-9ce1-4383-9e14-ab406b67b568"},"vehicle_type_id":"4","last_reported":1737051095,"current_range_meters":8400,"station_id":"ce4bhi12rcd13ifvqfq0","pricing_plan_id":"cebpf4jnsgd1na2vs0mg"},{"bike_id":"2dacbace-b120-4b84-9774-e8d28e615b7e","system_id":"levelo_inurba_marseille","lat":43.33023,"lon":5.39038,"is_reserved":false,"is_disabled":false,"rental_uris":{"android":"levelo://app?vid=2dacbace-b120-4b84-9774-e8d28e615b7e","ios":"levelo://app?vid=2dacbace-b120-4b84-9774-e8d28e615b7e"},"vehicle_type_id":"4","last_reported":1737051095,"current_range_meters":28400,"station_id":"ce4bhr92rcd13ifvqhrg","pricing_plan_id":"cebpf4jnsgd1na2vs0mg"},{"bike_id":"4d67d339-e8e1-4f5a-8086-1d6e90a5223c","system_id":"levelo_inurba_marseille","lat":43.31469,"lon":5.37595,"is_reserved":false,"is_disabled":false,"rental_uris":{"android":"levelo://app?vid=4d67d339-e8e1-4f5a-8086-1d6e90a5223c","ios":"levelo://app?vid=4d67d339-e8e1-4f5a-8086-1d6e90a5223c"},"vehicle_type_id":"4","last_reported":1737051095,"current_range_meters":38800,"station_id":"","pricing_plan_id":"cebpf4jnsgd1na2vs0mg"},{"bike_id":"ac21d323-c2d3-4db7-970e-a8266bd342d9","system_id":"levelo_inurba_marseille","lat":43.28665,"lon":5.36353,"is_reserved":false,"is_disabled":false,"rental_uris":{"android":"levelo://app?vid=ac21d323-c2d3-4db7-970e-a8266bd342d9","ios":"levelo://app?vid=ac21d323-c2d3-4db7-970e-a8266bd342d9"},"vehicle_type_id":"4","last_reported":1737051095,"current_range_meters":33600,"station_id":"ce4bhah2rcd13ifvqej0","pricing_plan_id":"cebpf4jnsgd1na2vs0mg"},{"bike_id":"2c839bfc-228b-4afd-9c45-0e54b8f36672","system_id":"levelo_inurba_marseille","lat":43.24655,"lon":5.38898,"is_reserved":false,"is_disabled":false,"rental_uris":{"android":"levelo://app?vid=2c839bfc-228b-4afd-9c45-0e54b8f36672","ios":"levelo://app?vid=2c839bfc-228b-4afd-9c45-0e54b8f36672"},"vehicle_type_id":"4","last_reported":1737051095,"current_range_meters":38800,"station_id":"ce4bhg12rcd13ifvqf60","pricing_plan_id":"cebpf4jnsgd1na2vs0mg"},{"bike_id":"b1ddeadc-31f1-42f9-9a80-512818b293b3","system_id":"levelo_inurba_marseille","lat":43.29454,"lon":5.38639,"is_reserved":false,"is_disabled":false,"rental_uris":{"android":"levelo://app?vid=b1ddeadc-31f1-42f9-9a80-512818b293b3","ios":"levelo://app?vid=b1ddeadc-31f1-42f9-9a80-512818b293b3"},"vehicle_type_id":"4","last_reported":1737051095,"current_range_meters":39200,"station_id":"ce4bh2h2rcd13ifvqdh0","pricing_plan_id":"cebpf4jnsgd1na2vs0mg"},{"bike_id":"0ffbb6d5-5f43-44c9-bcfe-382d025fc0c1","system_id":"levelo_inurba_marseille","lat":43.24663,"lon":5.38167,"is_reserved":false,"is_disabled":false,"rental_uris":{"android":"levelo://app?vid=0ffbb6d5-5f43-44c9-bcfe-382d025fc0c1","ios":"levelo://app?vid=0ffbb6d5-5f43-44c9-bcfe-382d025fc0c1"},"vehicle_type_id":"4","last_reported":1737051095,"current_range_meters":20800,"station_id":"ce4bhih2rcd13ifvqfr0","pricing_plan_id":"cebpf4jnsgd1na2vs0mg"},{"bike_id":"360eb22d-8ebb-4055-ba9c-5c0b15c136a5","system_id":"levelo_inurba_marseille","lat":43.26194,"lon":5.37461,"is_reserved":false,"is_disabled":false,"rental_uris":{"android":"levelo://app?vid=360eb22d-8ebb-4055-ba9c-5c0b15c136a5","ios":"levelo://app?vid=360eb22d-8ebb-4055-ba9c-5c0b15c136a5"},"vehicle_type_id":"4","last_reported":1737051095,"current_range_meters":32000,"station_id":"ce4bhgp2rcd13ifvqfc0","pricing_plan_id":"cebpf4jnsgd1na2vs0mg"},{"bike_id":"2498faab-5593-4302-bdc1-e3deb0d376d2","system_id":"levelo_inurba_marseille","lat":43.29629,"lon":5.40596,"is_reserved":false,"is_disabled":false,"rental_uris":{"android":"levelo://app?vid=2498faab-5593-4302-bdc1-e3deb0d376d2","ios":"levelo://app?vid=2498faab-5593-4302-bdc1-e3deb0d376d2"},"vehicle_type_id":"4","last_reported":1737051095,"current_range_meters":36400,"station_id":"ce4bh0h2rcd13ifvqd60","pricing_plan_id":"cebpf4jnsgd1na2vs0mg"},{"bike_id":"249ec570-62d6-4f42-9453-b09ee48c11d9","system_id":"levelo_inurba_marseille","lat":43.24394,"lon":5.37053,"is_reserved":false,"is_disabled":false,"rental_uris":{"android":"levelo://app?vid=249ec570-62d6-4f42-9453-b09ee48c11d9","ios":"levelo://app?vid=249ec570-62d6-4f42-9453-b09ee48c11d9"},"vehicle_type_id":"4","last_reported":1737051095,"current_range_meters":32000,"station_id":"ce4bhhh2rcd13ifvqfk0","pricing_plan_id":"cebpf4jnsgd1na2vs0mg"},{"bike_id":"f6785c8d-e6ca-414c-a30d-e75ed14ad662","system_id":"levelo_inurba_marseille","lat":43.27839,"lon":5.3922,"is_reserved":false,"is_disabled":false,"rental_uris":{"android":"levelo://app?vid=f6785c8d-e6ca-414c-a30d-e75ed14ad662","ios":"levelo://app?vid=f6785c8d-e6ca-414c-a30d-e75ed14ad662"},"vehicle_type_id":"4","last_reported":1737051095,"current_range_meters":38000,"station_id":"ce4bhjp2rcd13ifvqga0","pricing_plan_id":"cebpf4jnsgd1na2vs0mg"},{"bike_id":"a15980ac-c225-4e68-8982-6cc8c4cbfd79","system_id":"levelo_inurba_marseille","lat":43.23192,"lon":5.35548,"is_reserved":false,"is_disabled":false,"rental_uris":{"android":"levelo://app?vid=a15980ac-c225-4e68-8982-6cc8c4cbfd79","ios":"levelo://app?vid=a15980ac-c225-4e68-8982-6cc8c4cbfd79"},"vehicle_type_id":"4","last_reported":1737051095,"current_range_meters":38800,"station_id":"ce4bhu92rcd13ifvqi70","pricing_plan_id":"cebpf4jnsgd1na2vs0mg"},{"bike_id":"8d9e4166-b0a5-437b-8aea-8771c8d303eb","system_id":"levelo_inurba_marseille","lat":43.24812,"lon":5.37451,"is_reserved":false,"is_disabled":false,"rental_uris":{"android":"levelo://app?vid=8d9e4166-b0a5-437b-8aea-8771c8d303eb","ios":"levelo://app?vid=8d9e4166-b0a5-437b-8aea-8771c8d303eb"},"vehicle_type_id":"4","last_reported":1737051095,"current_range_meters":34000,"station_id":"ce4bhgh2rcd13ifvqfb0","pricing_plan_id":"cebpf4jnsgd1na2vs0mg"},{"bike_id":"00c5a083-e33e-4a56-8c92-47fa8bdc8cb5","system_id":"levelo_inurba_marseille","lat":43.29526,"lon":5.39046,"is_reserved":false,"is_disabled":false,"rental_uris":{"android":"levelo://app?vid=00c5a083-e33e-4a56-8c92-47fa8bdc8cb5","ios":"levelo://app?vid=00c5a083-e33e-4a56-8c92-47fa8bdc8cb5"},"vehicle_type_id":"4","last_reported":1737051095,"current_range_meters":23200,"station_id":"ce4bh3p2rcd13ifvqdp0","pricing_plan_id":"cebpf4jnsgd1na2vs0mg"},{"bike_id":"dfa1fdd1-1fbd-4df5-a7ef-53ed4bf6496d","system_id":"levelo_inurba_marseille","lat":43.30931,"lon":5.40147,"is_reserved":false,"is_disabled":false,"rental_uris":{"android":"levelo://app?vid=dfa1fdd1-1fbd-4df5-a7ef-53ed4bf6496d","ios":"levelo://app?vid=dfa1fdd1-1fbd-4df5-a7ef-53ed4bf6496d"},"vehicle_type_id":"4","last_reported":1737051095,"current_range_meters":39200,"station_id":"ce4bgvp2rcd13ifvqct0","pricing_plan_id":"cebpf4jnsgd1na2vs0mg"},{"bike_id":"2bf14e65-d93d-45bb-bad1-71fdf26cad9f","system_id":"levelo_inurba_marseille","lat":43.25123,"lon":5.4032,"is_reserved":false,"is_disabled":false,"rental_uris":{"android":"levelo://app?vid=2bf14e65-d93d-45bb-bad1-71fdf26cad9f","ios":"levelo://app?vid=2bf14e65-d93d-45bb-bad1-71fdf26cad9f"},"vehicle_type_id":"4","last_reported":1737051095,"current_range_meters":9600,"station_id":"ce4bhlh2rcd13ifvqgig","pricing_plan_id":"cebpf4jnsgd1na2vs0mg"},{"bike_id":"ba45637f-d8c9-4bd3-8a31-5f63ba3b6d97","system_id":"levelo_inurba_marseille","lat":43.29433,"lon":5.38622,"is_reserved":false,"is_disabled":false,"rental_uris":{"android":"levelo://app?vid=ba45637f-d8c9-4bd3-8a31-5f63ba3b6d97","ios":"levelo://app?vid=ba45637f-d8c9-4bd3-8a31-5f63ba3b6d97"},"vehicle_type_id":"4","last_reported":1737051095,"current_range_meters":38800,"station_id":"ce4bh2h2rcd13ifvqdh0","pricing_plan_id":"cebpf4jnsgd1na2vs0mg"},{"bike_id":"e6d52744-fcef-4b04-b3e0-4aafb92377b1","system_id":"levelo_inurba_marseille","lat":43.30535,"lon":5.36709,"is_reserved":false,"is_disabled":true,"rental_uris":{"android":"levelo://app?vid=e6d52744-fcef-4b04-b3e0-4aafb92377b1","ios":"levelo://app?vid=e6d52744-fcef-4b04-b3e0-4aafb92377b1"},"vehicle_type_id":"4","last_reported":1737051095,"current_range_meters":36800,"station_id":"ce4bgrp2rcd13ifvqc9g","pricing_plan_id":"cebpf4jnsgd1na2vs0mg"},{"bike_id":"6ea6f56f-ebf3-4137-a5bf-2c640d5a92bd","system_id":"levelo_inurba_marseille","lat":43.24084,"lon":5.37752,"is_reserved":false,"is_disabled":true,"rental_uris":{"android":"levelo://app?vid=6ea6f56f-ebf3-4137-a5bf-2c640d5a92bd","ios":"levelo://app?vid=6ea6f56f-ebf3-4137-a5bf-2c640d5a92bd"},"vehicle_type_id":"4","last_reported":1737051095,"current_range_meters":1600,"station_id":"ce4bhnp2rcd13ifvqgvg","pricing_plan_id":"cebpf4jnsgd1na2vs0mg"},{"bike_id":"9be957d2-26d1-49a4-9f85-b06ee3432064","system_id":"levelo_inurba_marseille","lat":43.33727,"lon":5.39192,"is_reserved":false,"is_disabled":false,"rental_uris":{"android":"levelo://app?vid=9be957d2-26d1-49a4-9f85-b06ee3432064","ios":"levelo://app?vid=9be957d2-26d1-49a4-9f85-b06ee3432064"},"vehicle_type_id":"4","last_reported":1737051095,"current_range_meters":33600,"station_id":"ce4bhr92rcd13ifvqhsg","pricing_plan_id":"cebpf4jnsgd1na2vs0mg"},{"bike_id":"4488423e-fb64-4bbe-9192-9966dc0edac0","system_id":"levelo_inurba_marseille","lat":43.3167,"lon":5.37856,"is_reserved":false,"is_disabled":false,"rental_uris":{"android":"levelo://app?vid=4488423e-fb64-4bbe-9192-9966dc0edac0","ios":"levelo://app?vid=4488423e-fb64-4bbe-9192-9966dc0edac0"},"vehicle_type_id":"4","last_reported":1737051095,"current_range_meters":38800,"station_id":"ce4bgth2rcd13ifvqch0","pricing_plan_id":"cebpf4jnsgd1na2vs0mg"},{"bike_id":"d7dbcc25-391a-4e8a-9b74-7b40604397fc","system_id":"levelo_inurba_marseille","lat":43.33031,"lon":5.39037,"is_reserved":false,"is_disabled":false,"rental_uris":{"android":"levelo://app?vid=d7dbcc25-391a-4e8a-9b74-7b40604397fc","ios":"levelo://app?vid=d7dbcc25-391a-4e8a-9b74-7b40604397fc"},"vehicle_type_id":"4","last_reported":1737051095,"current_range_meters":39200,"station_id":"ce4bhr92rcd13ifvqhrg","pricing_plan_id":"cebpf4jnsgd1na2vs0mg"},{"bike_id":"abdea3bd-f4b8-4e57-bdda-7bcd1af14341","system_id":"levelo_inurba_marseille","lat":43.31885,"lon":5.40746,"is_reserved":false,"is_disabled":false,"rental_uris":{"android":"levelo://app?vid=abdea3bd-f4b8-4e57-bdda-7bcd1af14341","ios":"levelo://app?vid=abdea3bd-f4b8-4e57-bdda-7bcd1af14341"},"vehicle_type_id":"4","last_reported":1737051095,"current_range_meters":36000,"station_id":"ce4bhq12rcd13ifvqhig","pricing_plan_id":"cebpf4jnsgd1na2vs0mg"},{"bike_id":"b35aa2a1-d8b9-43af-bb0b-5abe2399ad3f","system_id":"levelo_inurba_marseille","lat":43.26063,"lon":5.39395,"is_reserved":false,"is_disabled":false,"rental_uris":{"android":"levelo://app?vid=b35aa2a1-d8b9-43af-bb0b-5abe2399ad3f","ios":"levelo://app?vid=b35aa2a1-d8b9-43af-bb0b-5abe2399ad3f"},"vehicle_type_id":"4","last_reported":1737051095,"current_range_meters":18800,"station_id":"ce4bhh92rcd13ifvqfj0","pricing_plan_id":"cebpf4jnsgd1na2vs0mg"},{"bike_id":"3bea599d-9d1d-4ce1-a78c-b94821d3e8a3","system_id":"levelo_inurba_marseille","lat":43.2501,"lon":5.38938,"is_reserved":false,"is_disabled":false,"rental_uris":{"android":"levelo://app?vid=3bea599d-9d1d-4ce1-a78c-b94821d3e8a3","ios":"levelo://app?vid=3bea599d-9d1d-4ce1-a78c-b94821d3e8a3"},"vehicle_type_id":"4","last_reported":1737051095,"current_range_meters":38800,"station_id":"ce4bhgp2rcd13ifvqfd0","pricing_plan_id":"cebpf4jnsgd1na2vs0mg"},{"bike_id":"bcfd3719-998b-4795-974d-cc1dc47f76f9","system_id":"levelo_inurba_marseille","lat":43.28704,"lon":5.39994,"is_reserved":false,"is_disabled":false,"rental_uris":{"android":"levelo://app?vid=bcfd3719-998b-4795-974d-cc1dc47f76f9","ios":"levelo://app?vid=bcfd3719-998b-4795-974d-cc1dc47f76f9"},"vehicle_type_id":"4","last_reported":1737051095,"current_range_meters":8400,"station_id":"ce4bho92rcd13ifvqh3g","pricing_plan_id":"cebpf4jnsgd1na2vs0mg"},{"bike_id":"c72f0241-b8c1-44da-8744-7ccc8e668d26","system_id":"levelo_inurba_marseille","lat":43.248076,"lon":5.374583,"is_reserved":false,"is_disabled":false,"rental_uris":{"android":"levelo://app?vid=c72f0241-b8c1-44da-8744-7ccc8e668d26","ios":"levelo://app?vid=c72f0241-b8c1-44da-8744-7ccc8e668d26"},"vehicle_type_id":"4","last_reported":1737051095,"current_range_meters":34000,"station_id":"ce4bhgh2rcd13ifvqfb0","pricing_plan_id":"cebpf4jnsgd1na2vs0mg"},{"bike_id":"24e5daed-443a-42e6-b2a3-c646ea949322","system_id":"levelo_inurba_marseille","lat":43.28704,"lon":5.39972,"is_reserved":false,"is_disabled":true,"rental_uris":{"android":"levelo://app?vid=24e5daed-443a-42e6-b2a3-c646ea949322","ios":"levelo://app?vid=24e5daed-443a-42e6-b2a3-c646ea949322"},"vehicle_type_id":"4","last_reported":1737051095,"current_range_meters":0,"station_id":"ce4bho92rcd13ifvqh3g","pricing_plan_id":"cebpf4jnsgd1na2vs0mg"},{"bike_id":"18a4e803-9fed-490d-8b8f-cfa50d31713a","system_id":"levelo_inurba_marseille","lat":43.26053,"lon":5.39386,"is_reserved":false,"is_disabled":false,"rental_uris":{"android":"levelo://app?vid=18a4e803-9fed-490d-8b8f-cfa50d31713a","ios":"levelo://app?vid=18a4e803-9fed-490d-8b8f-cfa50d31713a"},"vehicle_type_id":"4","last_reported":1737051095,"current_range_meters":14400,"station_id":"ce4bhh92rcd13ifvqfj0","pricing_plan_id":"cebpf4jnsgd1na2vs0mg"},{"bike_id":"4b2a9951-e9c3-48e0-8b22-f77f1838dfc7","system_id":"levelo_inurba_marseille","lat":43.29585,"lon":5.37601,"is_reserved":false,"is_disabled":false,"rental_uris":{"android":"levelo://app?vid=4b2a9951-e9c3-48e0-8b22-f77f1838dfc7","ios":"levelo://app?vid=4b2a9951-e9c3-48e0-8b22-f77f1838dfc7"},"vehicle_type_id":"4","last_reported":1737051095,"current_range_meters":16000,"station_id":"","pricing_plan_id":"cebpf4jnsgd1na2vs0mg"},{"bike_id":"defe133f-d23d-48cd-a09a-030d2455d938","system_id":"levelo_inurba_marseille","lat":43.29553,"lon":5.4229,"is_reserved":false,"is_disabled":false,"rental_uris":{"android":"levelo://app?vid=defe133f-d23d-48cd-a09a-030d2455d938","ios":"levelo://app?vid=defe133f-d23d-48cd-a09a-030d2455d938"},"vehicle_type_id":"4","last_reported":1737051095,"current_range_meters":26000,"station_id":"ce4bhph2rcd13ifvqhdg","pricing_plan_id":"cebpf4jnsgd1na2vs0mg"},{"bike_id":"227e2104-9342-467a-bb13-dc81a29065f7","system_id":"levelo_inurba_marseille","lat":43.28487,"lon":5.3899,"is_reserved":false,"is_disabled":false,"rental_uris":{"android":"levelo://app?vid=227e2104-9342-467a-bb13-dc81a29065f7","ios":"levelo://app?vid=227e2104-9342-467a-bb13-dc81a29065f7"},"vehicle_type_id":"4","last_reported":1737051095,"current_range_meters":29600,"station_id":"","pricing_plan_id":"cebpf4jnsgd1na2vs0mg"},{"bike_id":"b2632576-d2f4-4f91-975b-2a6e65937421","system_id":"levelo_inurba_marseille","lat":43.2508,"lon":5.39521,"is_reserved":false,"is_disabled":false,"rental_uris":{"android":"levelo://app?vid=b2632576-d2f4-4f91-975b-2a6e65937421","ios":"levelo://app?vid=b2632576-d2f4-4f91-975b-2a6e65937421"},"vehicle_type_id":"4","last_reported":1737051095,"current_range_meters":33200,"station_id":"ce4bhm12rcd13ifvqgkg","pricing_plan_id":"cebpf4jnsgd1na2vs0mg"},{"bike_id":"9d741945-3528-496c-a5ff-06009caa3571","system_id":"levelo_inurba_marseille","lat":43.30301,"lon":5.36876,"is_reserved":false,"is_disabled":false,"rental_uris":{"android":"levelo://app?vid=9d741945-3528-496c-a5ff-06009caa3571","ios":"levelo://app?vid=9d741945-3528-496c-a5ff-06009caa3571"},"vehicle_type_id":"4","last_reported":1737051095,"current_range_meters":35200,"station_id":"ce4bgqh2rcd13ifvqc5g","pricing_plan_id":"cebpf4jnsgd1na2vs0mg"},{"bike_id":"6a1aca43-add9-4b6f-bb01-eda73237eebd","system_id":"levelo_inurba_marseille","lat":43.2926,"lon":5.38436,"is_reserved":false,"is_disabled":false,"rental_uris":{"android":"levelo://app?vid=6a1aca43-add9-4b6f-bb01-eda73237eebd","ios":"levelo://app?vid=6a1aca43-add9-4b6f-bb01-eda73237eebd"},"vehicle_type_id":"4","last_reported":1737051095,"current_range_meters":38800,"station_id":"ce4bh692rcd13ifvqea0","pricing_plan_id":"cebpf4jnsgd1na2vs0mg"},{"bike_id":"68eb4470-e3f7-4e61-9bd7-0d399c4603a7","system_id":"levelo_inurba_marseille","lat":43.30929,"lon":5.40155,"is_reserved":false,"is_disabled":false,"rental_uris":{"android":"levelo://app?vid=68eb4470-e3f7-4e61-9bd7-0d399c4603a7","ios":"levelo://app?vid=68eb4470-e3f7-4e61-9bd7-0d399c4603a7"},"vehicle_type_id":"4","last_reported":1737051095,"current_range_meters":16000,"station_id":"ce4bgvp2rcd13ifvqct0","pricing_plan_id":"cebpf4jnsgd1na2vs0mg"},{"bike_id":"c0d5e88a-4927-47a0-93f8-b153106467b9","system_id":"levelo_inurba_marseille","lat":43.23147,"lon":5.43715,"is_reserved":false,"is_disabled":false,"rental_uris":{"android":"levelo://app?vid=c0d5e88a-4927-47a0-93f8-b153106467b9","ios":"levelo://app?vid=c0d5e88a-4927-47a0-93f8-b153106467b9"},"vehicle_type_id":"4","last_reported":1737051095,"current_range_meters":36800,"station_id":"ce4bhmp2rcd13ifvqgog","pricing_plan_id":"cebpf4jnsgd1na2vs0mg"},{"bike_id":"1bc5285a-f8e6-470f-8534-9c1c69d7c06f","system_id":"levelo_inurba_marseille","lat":43.29585,"lon":5.37505,"is_reserved":false,"is_disabled":false,"rental_uris":{"android":"levelo://app?vid=1bc5285a-f8e6-470f-8534-9c1c69d7c06f","ios":"levelo://app?vid=1bc5285a-f8e6-470f-8534-9c1c69d7c06f"},"vehicle_type_id":"4","last_reported":1737051095,"current_range_meters":35600,"station_id":"ce4bgh92rcd13ifvqb50","pricing_plan_id":"cebpf4jnsgd1na2vs0mg"},{"bike_id":"bc27994f-9e72-40a2-8e99-ce421404c27c","system_id":"levelo_inurba_marseille","lat":43.30128,"lon":5.38781,"is_reserved":false,"is_disabled":false,"rental_uris":{"android":"levelo://app?vid=bc27994f-9e72-40a2-8e99-ce421404c27c","ios":"levelo://app?vid=bc27994f-9e72-40a2-8e99-ce421404c27c"},"vehicle_type_id":"4","last_reported":1737051095,"current_range_meters":22800,"station_id":"ce4bghh2rcd13ifvqb60","pricing_plan_id":"cebpf4jnsgd1na2vs0mg"},{"bike_id":"6d1544fb-3192-4cd9-b2cf-3e78a7f268e9","system_id":"levelo_inurba_marseille","lat":43.32176,"lon":5.41161,"is_reserved":false,"is_disabled":true,"rental_uris":{"android":"levelo://app?vid=6d1544fb-3192-4cd9-b2cf-3e78a7f268e9","ios":"levelo://app?vid=6d1544fb-3192-4cd9-b2cf-3e78a7f268e9"},"vehicle_type_id":"4","last_reported":1737051095,"current_range_meters":0,"station_id":"ce4bhq92rcd13ifvqhkg","pricing_plan_id":"cebpf4jnsgd1na2vs0mg"},{"bike_id":"8b636c79-4a49-40e3-9ea6-ad9baf60d593","system_id":"levelo_inurba_marseille","lat":43.29048,"lon":5.35911,"is_reserved":false,"is_disabled":false,"rental_uris":{"android":"levelo://app?vid=8b636c79-4a49-40e3-9ea6-ad9baf60d593","ios":"levelo://app?vid=8b636c79-4a49-40e3-9ea6-ad9baf60d593"},"vehicle_type_id":"4","last_reported":1737051095,"current_range_meters":19200,"station_id":"ce4bha92rcd13ifvqeg0","pricing_plan_id":"cebpf4jnsgd1na2vs0mg"},{"bike_id":"b39d74c1-700a-4f9a-a9e8-716e4dcb5a0a","system_id":"levelo_inurba_marseille","lat":43.29264,"lon":5.38439,"is_reserved":false,"is_disabled":false,"rental_uris":{"android":"levelo://app?vid=b39d74c1-700a-4f9a-a9e8-716e4dcb5a0a","ios":"levelo://app?vid=b39d74c1-700a-4f9a-a9e8-716e4dcb5a0a"},"vehicle_type_id":"4","last_reported":1737051095,"current_range_meters":27600,"station_id":"ce4bh692rcd13ifvqea0","pricing_plan_id":"cebpf4jnsgd1na2vs0mg"},{"bike_id":"450e4b2e-2717-46bb-9250-32754d000e21","system_id":"levelo_inurba_marseille","lat":43.31719,"lon":5.37721,"is_reserved":false,"is_disabled":false,"rental_uris":{"android":"levelo://app?vid=450e4b2e-2717-46bb-9250-32754d000e21","ios":"levelo://app?vid=450e4b2e-2717-46bb-9250-32754d000e21"},"vehicle_type_id":"4","last_reported":1737051095,"current_range_meters":38800,"station_id":"ce4bgth2rcd13ifvqch0","pricing_plan_id":"cebpf4jnsgd1na2vs0mg"},{"bike_id":"82e403ea-269c-4314-b0ed-e0d031b0cd41","system_id":"levelo_inurba_marseille","lat":43.30803,"lon":5.38176,"is_reserved":false,"is_disabled":false,"rental_uris":{"android":"levelo://app?vid=82e403ea-269c-4314-b0ed-e0d031b0cd41","ios":"levelo://app?vid=82e403ea-269c-4314-b0ed-e0d031b0cd41"},"vehicle_type_id":"4","last_reported":1737051095,"current_range_meters":38400,"station_id":"ce4bgt12rcd13ifvqce0","pricing_plan_id":"cebpf4jnsgd1na2vs0mg"},{"bike_id":"0f0eedc5-7df2-4fd9-bcaf-3cf757ddab04","system_id":"levelo_inurba_marseille","lat":43.29266,"lon":5.38445,"is_reserved":false,"is_disabled":false,"rental_uris":{"android":"levelo://app?vid=0f0eedc5-7df2-4fd9-bcaf-3cf757ddab04","ios":"levelo://app?vid=0f0eedc5-7df2-4fd9-bcaf-3cf757ddab04"},"vehicle_type_id":"4","last_reported":1737051095,"current_range_meters":38800,"station_id":"ce4bh692rcd13ifvqea0","pricing_plan_id":"cebpf4jnsgd1na2vs0mg"},{"bike_id":"3a6d1dc4-9c36-47dc-a08f-9eb94c40ac73","system_id":"levelo_inurba_marseille","lat":43.22932,"lon":5.35385,"is_reserved":false,"is_disabled":false,"rental_uris":{"android":"levelo://app?vid=3a6d1dc4-9c36-47dc-a08f-9eb94c40ac73","ios":"levelo://app?vid=3a6d1dc4-9c36-47dc-a08f-9eb94c40ac73"},"vehicle_type_id":"4","last_reported":1737051095,"current_range_meters":28800,"station_id":"cpo3532slgdg3j2ikp40","pricing_plan_id":"cebpf4jnsgd1na2vs0mg"},{"bike_id":"6e7b8cc0-f315-4c84-a3c0-c80589fba23d","system_id":"levelo_inurba_marseille","lat":43.27834,"lon":5.39204,"is_reserved":false,"is_disabled":false,"rental_uris":{"android":"levelo://app?vid=6e7b8cc0-f315-4c84-a3c0-c80589fba23d","ios":"levelo://app?vid=6e7b8cc0-f315-4c84-a3c0-c80589fba23d"},"vehicle_type_id":"4","last_reported":1737051095,"current_range_meters":16400,"station_id":"ce4bhjp2rcd13ifvqga0","pricing_plan_id":"cebpf4jnsgd1na2vs0mg"},{"bike_id":"3fcaa7b3-b514-4e4d-9328-6fc5015520da","system_id":"levelo_inurba_marseille","lat":43.30131,"lon":5.38778,"is_reserved":false,"is_disabled":false,"rental_uris":{"android":"levelo://app?vid=3fcaa7b3-b514-4e4d-9328-6fc5015520da","ios":"levelo://app?vid=3fcaa7b3-b514-4e4d-9328-6fc5015520da"},"vehicle_type_id":"4","last_reported":1737051095,"current_range_meters":29600,"station_id":"ce4bghh2rcd13ifvqb60","pricing_plan_id":"cebpf4jnsgd1na2vs0mg"},{"bike_id":"b8f8226c-3087-4177-968a-6603233543c4","system_id":"levelo_inurba_marseille","lat":43.26569,"lon":5.39005,"is_reserved":false,"is_disabled":false,"rental_uris":{"android":"levelo://app?vid=b8f8226c-3087-4177-968a-6603233543c4","ios":"levelo://app?vid=b8f8226c-3087-4177-968a-6603233543c4"},"vehicle_type_id":"4","last_reported":1737051095,"current_range_meters":30400,"station_id":"ce4bhe12rcd13ifvqf30","pricing_plan_id":"cebpf4jnsgd1na2vs0mg"},{"bike_id":"a4b779dc-e9f6-42d9-b786-46a4421bfccd","system_id":"levelo_inurba_marseille","lat":43.30595,"lon":5.37194,"is_reserved":false,"is_disabled":false,"rental_uris":{"android":"levelo://app?vid=a4b779dc-e9f6-42d9-b786-46a4421bfccd","ios":"levelo://app?vid=a4b779dc-e9f6-42d9-b786-46a4421bfccd"},"vehicle_type_id":"4","last_reported":1737051095,"current_range_meters":28400,"station_id":"ce4bgqh2rcd13ifvqc4g","pricing_plan_id":"cebpf4jnsgd1na2vs0mg"},{"bike_id":"184ef9cd-e2e9-4c90-af3c-4e5f5689be74","system_id":"levelo_inurba_marseille","lat":43.29532,"lon":5.39033,"is_reserved":false,"is_disabled":false,"rental_uris":{"android":"levelo://app?vid=184ef9cd-e2e9-4c90-af3c-4e5f5689be74","ios":"levelo://app?vid=184ef9cd-e2e9-4c90-af3c-4e5f5689be74"},"vehicle_type_id":"4","last_reported":1737051095,"current_range_meters":3600,"station_id":"ce4bh3p2rcd13ifvqdp0","pricing_plan_id":"cebpf4jnsgd1na2vs0mg"},{"bike_id":"20ee1fb3-a42e-43cf-9927-d459fdfe371d","system_id":"levelo_inurba_marseille","lat":43.29261,"lon":5.40907,"is_reserved":false,"is_disabled":false,"rental_uris":{"android":"levelo://app?vid=20ee1fb3-a42e-43cf-9927-d459fdfe371d","ios":"levelo://app?vid=20ee1fb3-a42e-43cf-9927-d459fdfe371d"},"vehicle_type_id":"4","last_reported":1737051095,"current_range_meters":36800,"station_id":"ce4bh192rcd13ifvqdc0","pricing_plan_id":"cebpf4jnsgd1na2vs0mg"},{"bike_id":"f21955f8-a46c-4890-be70-66409620de02","system_id":"levelo_inurba_marseille","lat":43.23183,"lon":5.39986,"is_reserved":false,"is_disabled":false,"rental_uris":{"android":"levelo://app?vid=f21955f8-a46c-4890-be70-66409620de02","ios":"levelo://app?vid=f21955f8-a46c-4890-be70-66409620de02"},"vehicle_type_id":"4","last_reported":1737051095,"current_range_meters":9200,"station_id":"ce4bhn12rcd13ifvqgqg","pricing_plan_id":"cebpf4jnsgd1na2vs0mg"},{"bike_id":"34709e64-d1c8-4538-88a5-33805792c0a5","system_id":"levelo_inurba_marseille","lat":43.25831,"lon":5.39441,"is_reserved":false,"is_disabled":false,"rental_uris":{"android":"levelo://app?vid=34709e64-d1c8-4538-88a5-33805792c0a5","ios":"levelo://app?vid=34709e64-d1c8-4538-88a5-33805792c0a5"},"vehicle_type_id":"4","last_reported":1737051095,"current_range_meters":38800,"station_id":"ce4bhip2rcd13ifvqft0","pricing_plan_id":"cebpf4jnsgd1na2vs0mg"},{"bike_id":"5629894f-4d5c-4f55-9e8f-12791e838546","system_id":"levelo_inurba_marseille","lat":43.25585,"lon":5.38231,"is_reserved":false,"is_disabled":false,"rental_uris":{"android":"levelo://app?vid=5629894f-4d5c-4f55-9e8f-12791e838546","ios":"levelo://app?vid=5629894f-4d5c-4f55-9e8f-12791e838546"},"vehicle_type_id":"4","last_reported":1737051095,"current_range_meters":38400,"station_id":"ce4bhih2rcd13ifvqfs0","pricing_plan_id":"cebpf4jnsgd1na2vs0mg"},{"bike_id":"d39da91a-b698-4714-a206-e0164b345cc7","system_id":"levelo_inurba_marseille","lat":43.25578,"lon":5.3822,"is_reserved":false,"is_disabled":false,"rental_uris":{"android":"levelo://app?vid=d39da91a-b698-4714-a206-e0164b345cc7","ios":"levelo://app?vid=d39da91a-b698-4714-a206-e0164b345cc7"},"vehicle_type_id":"4","last_reported":1737051095,"current_range_meters":37600,"station_id":"ce4bhih2rcd13ifvqfs0","pricing_plan_id":"cebpf4jnsgd1na2vs0mg"},{"bike_id":"f2be7778-b6de-4880-adcb-065b4a5b8e7d","system_id":"levelo_inurba_marseille","lat":43.32334,"lon":5.40621,"is_reserved":false,"is_disabled":false,"rental_uris":{"android":"levelo://app?vid=f2be7778-b6de-4880-adcb-065b4a5b8e7d","ios":"levelo://app?vid=f2be7778-b6de-4880-adcb-065b4a5b8e7d"},"vehicle_type_id":"4","last_reported":1737051095,"current_range_meters":38800,"station_id":"ce4bhq92rcd13ifvqhjg","pricing_plan_id":"cebpf4jnsgd1na2vs0mg"},{"bike_id":"7a26b63c-652f-4d2d-8353-1a9dfb4e945a","system_id":"levelo_inurba_marseille","lat":43.33718,"lon":5.39184,"is_reserved":false,"is_disabled":false,"rental_uris":{"android":"levelo://app?vid=7a26b63c-652f-4d2d-8353-1a9dfb4e945a","ios":"levelo://app?vid=7a26b63c-652f-4d2d-8353-1a9dfb4e945a"},"vehicle_type_id":"4","last_reported":1737051095,"current_range_meters":38800,"station_id":"ce4bhr92rcd13ifvqhsg","pricing_plan_id":"cebpf4jnsgd1na2vs0mg"},{"bike_id":"1507c27c-3d1f-46f6-91d1-76951176364b","system_id":"levelo_inurba_marseille","lat":43.29033,"lon":5.3757,"is_reserved":false,"is_disabled":false,"rental_uris":{"android":"levelo://app?vid=1507c27c-3d1f-46f6-91d1-76951176364b","ios":"levelo://app?vid=1507c27c-3d1f-46f6-91d1-76951176364b"},"vehicle_type_id":"4","last_reported":1737051095,"current_range_meters":38400,"station_id":"ce4bh692rcd13ifvqe90","pricing_plan_id":"cebpf4jnsgd1na2vs0mg"},{"bike_id":"56b8e9bc-f750-4815-bc98-9098414d16db","system_id":"levelo_inurba_marseille","lat":43.23191,"lon":5.35566,"is_reserved":false,"is_disabled":true,"rental_uris":{"android":"levelo://app?vid=56b8e9bc-f750-4815-bc98-9098414d16db","ios":"levelo://app?vid=56b8e9bc-f750-4815-bc98-9098414d16db"},"vehicle_type_id":"4","last_reported":1737051095,"current_range_meters":0,"station_id":"ce4bhu92rcd13ifvqi70","pricing_plan_id":"cebpf4jnsgd1na2vs0mg"},{"bike_id":"efc3d83f-d7a8-4c74-a1fb-2e2a9f71f030","system_id":"levelo_inurba_marseille","lat":43.29536,"lon":5.38544,"is_reserved":false,"is_disabled":false,"rental_uris":{"android":"levelo://app?vid=efc3d83f-d7a8-4c74-a1fb-2e2a9f71f030","ios":"levelo://app?vid=efc3d83f-d7a8-4c74-a1fb-2e2a9f71f030"},"vehicle_type_id":"4","last_reported":1737051095,"current_range_meters":29600,"station_id":"ce4bgih2rcd13ifvqba0","pricing_plan_id":"cebpf4jnsgd1na2vs0mg"},{"bike_id":"d7a710b0-adff-4c5c-bf44-f4013363962c","system_id":"levelo_inurba_marseille","lat":43.246906,"lon":5.394346,"is_reserved":false,"is_disabled":false,"rental_uris":{"android":"levelo://app?vid=d7a710b0-adff-4c5c-bf44-f4013363962c","ios":"levelo://app?vid=d7a710b0-adff-4c5c-bf44-f4013363962c"},"vehicle_type_id":"4","last_reported":1737051095,"current_range_meters":38800,"station_id":"","pricing_plan_id":"cebpf4jnsgd1na2vs0mg"},{"bike_id":"5b5b9902-6477-4816-81ea-170089f5c9a8","system_id":"levelo_inurba_marseille","lat":43.29265,"lon":5.409,"is_reserved":false,"is_disabled":false,"rental_uris":{"android":"levelo://app?vid=5b5b9902-6477-4816-81ea-170089f5c9a8","ios":"levelo://app?vid=5b5b9902-6477-4816-81ea-170089f5c9a8"},"vehicle_type_id":"4","last_reported":1737051095,"current_range_meters":36800,"station_id":"ce4bh192rcd13ifvqdc0","pricing_plan_id":"cebpf4jnsgd1na2vs0mg"},{"bike_id":"f47ab076-41f5-4143-87f1-14710ac278f6","system_id":"levelo_inurba_marseille","lat":43.29017,"lon":5.38647,"is_reserved":false,"is_disabled":false,"rental_uris":{"android":"levelo://app?vid=f47ab076-41f5-4143-87f1-14710ac278f6","ios":"levelo://app?vid=f47ab076-41f5-4143-87f1-14710ac278f6"},"vehicle_type_id":"4","last_reported":1737051095,"current_range_meters":39200,"station_id":"ce4bh4p2rcd13ifvqe0g","pricing_plan_id":"cebpf4jnsgd1na2vs0mg"},{"bike_id":"e3d9a33a-1891-4890-93e0-435a22ab97a5","system_id":"levelo_inurba_marseille","lat":43.28002,"lon":5.40009,"is_reserved":false,"is_disabled":false,"rental_uris":{"android":"levelo://app?vid=e3d9a33a-1891-4890-93e0-435a22ab97a5","ios":"levelo://app?vid=e3d9a33a-1891-4890-93e0-435a22ab97a5"},"vehicle_type_id":"4","last_reported":1737051095,"current_range_meters":35600,"station_id":"ce4bho92rcd13ifvqh4g","pricing_plan_id":"cebpf4jnsgd1na2vs0mg"},{"bike_id":"bb7daf91-0b2b-4c17-bfd2-ec6c0a04b185","system_id":"levelo_inurba_marseille","lat":43.24802,"lon":5.37454,"is_reserved":false,"is_disabled":false,"rental_uris":{"android":"levelo://app?vid=bb7daf91-0b2b-4c17-bfd2-ec6c0a04b185","ios":"levelo://app?vid=bb7daf91-0b2b-4c17-bfd2-ec6c0a04b185"},"vehicle_type_id":"4","last_reported":1737051095,"current_range_meters":25600,"station_id":"ce4bhgh2rcd13ifvqfb0","pricing_plan_id":"cebpf4jnsgd1na2vs0mg"},{"bike_id":"74d8c892-8d9e-40b1-a0a6-dfd17a82a2d0","system_id":"levelo_inurba_marseille","lat":43.28569,"lon":5.39509,"is_reserved":false,"is_disabled":false,"rental_uris":{"android":"levelo://app?vid=74d8c892-8d9e-40b1-a0a6-dfd17a82a2d0","ios":"levelo://app?vid=74d8c892-8d9e-40b1-a0a6-dfd17a82a2d0"},"vehicle_type_id":"4","last_reported":1737051095,"current_range_meters":33600,"station_id":"ce4bh292rcd13ifvqdg0","pricing_plan_id":"cebpf4jnsgd1na2vs0mg"},{"bike_id":"3badb9dc-30c2-4fd6-ba97-722705a3b10c","system_id":"levelo_inurba_marseille","lat":43.33024,"lon":5.39039,"is_reserved":false,"is_disabled":false,"rental_uris":{"android":"levelo://app?vid=3badb9dc-30c2-4fd6-ba97-722705a3b10c","ios":"levelo://app?vid=3badb9dc-30c2-4fd6-ba97-722705a3b10c"},"vehicle_type_id":"4","last_reported":1737051095,"current_range_meters":9600,"station_id":"ce4bhr92rcd13ifvqhrg","pricing_plan_id":"cebpf4jnsgd1na2vs0mg"},{"bike_id":"2e70836a-a10f-4618-953a-21e9a7e8b8d7","system_id":"levelo_inurba_marseille","lat":43.284105,"lon":5.375037,"is_reserved":false,"is_disabled":false,"rental_uris":{"android":"levelo://app?vid=2e70836a-a10f-4618-953a-21e9a7e8b8d7","ios":"levelo://app?vid=2e70836a-a10f-4618-953a-21e9a7e8b8d7"},"vehicle_type_id":"4","last_reported":1737051095,"current_range_meters":29600,"station_id":"ce4bh412rcd13ifvqds0","pricing_plan_id":"cebpf4jnsgd1na2vs0mg"},{"bike_id":"7607e5e4-bfb0-479d-9bfe-af6a7bc68285","system_id":"levelo_inurba_marseille","lat":43.28041,"lon":5.36958,"is_reserved":false,"is_disabled":false,"rental_uris":{"android":"levelo://app?vid=7607e5e4-bfb0-479d-9bfe-af6a7bc68285","ios":"levelo://app?vid=7607e5e4-bfb0-479d-9bfe-af6a7bc68285"},"vehicle_type_id":"4","last_reported":1737051095,"current_range_meters":16400,"station_id":"ce4bha12rcd13ifvqef0","pricing_plan_id":"cebpf4jnsgd1na2vs0mg"},{"bike_id":"22465212-93af-4e0b-b803-6ee82bba56d5","system_id":"levelo_inurba_marseille","lat":43.33778,"lon":5.37508,"is_reserved":false,"is_disabled":false,"rental_uris":{"android":"levelo://app?vid=22465212-93af-4e0b-b803-6ee82bba56d5","ios":"levelo://app?vid=22465212-93af-4e0b-b803-6ee82bba56d5"},"vehicle_type_id":"4","last_reported":1737051095,"current_range_meters":32800,"station_id":"","pricing_plan_id":"cebpf4jnsgd1na2vs0mg"},{"bike_id":"9e7b53dd-c14c-4582-8a3c-c931c2940189","system_id":"levelo_inurba_marseille","lat":43.30474,"lon":5.37897,"is_reserved":false,"is_disabled":true,"rental_uris":{"android":"levelo://app?vid=9e7b53dd-c14c-4582-8a3c-c931c2940189","ios":"levelo://app?vid=9e7b53dd-c14c-4582-8a3c-c931c2940189"},"vehicle_type_id":"4","last_reported":1737051095,"current_range_meters":1200,"station_id":"ce4bgup2rcd13ifvqcn0","pricing_plan_id":"cebpf4jnsgd1na2vs0mg"},{"bike_id":"ab8601b4-a134-45fb-aefe-455e31ba4f77","system_id":"levelo_inurba_marseille","lat":43.29196,"lon":5.39311,"is_reserved":false,"is_disabled":true,"rental_uris":{"android":"levelo://app?vid=ab8601b4-a134-45fb-aefe-455e31ba4f77","ios":"levelo://app?vid=ab8601b4-a134-45fb-aefe-455e31ba4f77"},"vehicle_type_id":"4","last_reported":1737051095,"current_range_meters":400,"station_id":"ce4bh192rcd13ifvqdd0","pricing_plan_id":"cebpf4jnsgd1na2vs0mg"},{"bike_id":"fc705563-96e6-45d0-adb3-8588f3962dd4","system_id":"levelo_inurba_marseille","lat":43.32356,"lon":5.38889,"is_reserved":false,"is_disabled":false,"rental_uris":{"android":"levelo://app?vid=fc705563-96e6-45d0-adb3-8588f3962dd4","ios":"levelo://app?vid=fc705563-96e6-45d0-adb3-8588f3962dd4"},"vehicle_type_id":"4","last_reported":1737051095,"current_range_meters":32400,"station_id":"ce4bhqp2rcd13ifvqhog","pricing_plan_id":"cebpf4jnsgd1na2vs0mg"},{"bike_id":"5c97235d-ea18-48ea-8ba2-f87f1c49c224","system_id":"levelo_inurba_marseille","lat":43.27231,"lon":5.38582,"is_reserved":false,"is_disabled":false,"rental_uris":{"android":"levelo://app?vid=5c97235d-ea18-48ea-8ba2-f87f1c49c224","ios":"levelo://app?vid=5c97235d-ea18-48ea-8ba2-f87f1c49c224"},"vehicle_type_id":"4","last_reported":1737051095,"current_range_meters":3600,"station_id":"cjm6bp8fraef2m0cb0m0","pricing_plan_id":"cebpf4jnsgd1na2vs0mg"},{"bike_id":"7276c8ad-124f-4c35-ae4c-ef20b2dbf667","system_id":"levelo_inurba_marseille","lat":43.29874,"lon":5.39732,"is_reserved":false,"is_disabled":false,"rental_uris":{"android":"levelo://app?vid=7276c8ad-124f-4c35-ae4c-ef20b2dbf667","ios":"levelo://app?vid=7276c8ad-124f-4c35-ae4c-ef20b2dbf667"},"vehicle_type_id":"4","last_reported":1737051095,"current_range_meters":14000,"station_id":"ce4bh0h2rcd13ifvqd50","pricing_plan_id":"cebpf4jnsgd1na2vs0mg"},{"bike_id":"2e8c06c7-c3d0-495b-9a87-27e2fd4a0d84","system_id":"levelo_inurba_marseille","lat":43.29801,"lon":5.38087,"is_reserved":false,"is_disabled":false,"rental_uris":{"android":"levelo://app?vid=2e8c06c7-c3d0-495b-9a87-27e2fd4a0d84","ios":"levelo://app?vid=2e8c06c7-c3d0-495b-9a87-27e2fd4a0d84"},"vehicle_type_id":"4","last_reported":1737051095,"current_range_meters":7200,"station_id":"ce4bgip2rcd13ifvqbb0","pricing_plan_id":"cebpf4jnsgd1na2vs0mg"},{"bike_id":"2c055046-9ad7-4f82-b46c-b8a857e56fd9","system_id":"levelo_inurba_marseille","lat":43.26683,"lon":5.38277,"is_reserved":false,"is_disabled":false,"rental_uris":{"android":"levelo://app?vid=2c055046-9ad7-4f82-b46c-b8a857e56fd9","ios":"levelo://app?vid=2c055046-9ad7-4f82-b46c-b8a857e56fd9"},"vehicle_type_id":"4","last_reported":1737051095,"current_range_meters":28000,"station_id":"ce4bhg92rcd13ifvqf90","pricing_plan_id":"cebpf4jnsgd1na2vs0mg"},{"bike_id":"e7d86f3a-8041-4e8d-adec-b30d049ab173","system_id":"levelo_inurba_marseille","lat":43.27311,"lon":5.39118,"is_reserved":false,"is_disabled":false,"rental_uris":{"android":"levelo://app?vid=e7d86f3a-8041-4e8d-adec-b30d049ab173","ios":"levelo://app?vid=e7d86f3a-8041-4e8d-adec-b30d049ab173"},"vehicle_type_id":"4","last_reported":1737051095,"current_range_meters":3200,"station_id":"ce4bhgp2rcd13ifvqfe0","pricing_plan_id":"cebpf4jnsgd1na2vs0mg"},{"bike_id":"6f9fff78-d4d1-4a6e-8ee2-3b3237244db2","system_id":"levelo_inurba_marseille","lat":43.29017,"lon":5.38636,"is_reserved":false,"is_disabled":false,"rental_uris":{"android":"levelo://app?vid=6f9fff78-d4d1-4a6e-8ee2-3b3237244db2","ios":"levelo://app?vid=6f9fff78-d4d1-4a6e-8ee2-3b3237244db2"},"vehicle_type_id":"4","last_reported":1737051095,"current_range_meters":20400,"station_id":"ce4bh4p2rcd13ifvqe0g","pricing_plan_id":"cebpf4jnsgd1na2vs0mg"},{"bike_id":"5f73b1c5-bb2a-4fac-9eb7-14c830fab3ce","system_id":"levelo_inurba_marseille","lat":43.29824,"lon":5.36269,"is_reserved":false,"is_disabled":false,"rental_uris":{"android":"levelo://app?vid=5f73b1c5-bb2a-4fac-9eb7-14c830fab3ce","ios":"levelo://app?vid=5f73b1c5-bb2a-4fac-9eb7-14c830fab3ce"},"vehicle_type_id":"4","last_reported":1737051095,"current_range_meters":37600,"station_id":"ce4bgpp2rcd13ifvqc3g","pricing_plan_id":"cebpf4jnsgd1na2vs0mg"},{"bike_id":"3cd05619-9ee7-44d6-b4c8-4f199045fa98","system_id":"levelo_inurba_marseille","lat":43.32058,"lon":5.41534,"is_reserved":false,"is_disabled":false,"rental_uris":{"android":"levelo://app?vid=3cd05619-9ee7-44d6-b4c8-4f199045fa98","ios":"levelo://app?vid=3cd05619-9ee7-44d6-b4c8-4f199045fa98"},"vehicle_type_id":"4","last_reported":1737051095,"current_range_meters":38800,"station_id":"ce4bhq92rcd13ifvqhkg","pricing_plan_id":"cebpf4jnsgd1na2vs0mg"},{"bike_id":"6a7366d7-ed8c-4629-bf0c-70c2abcda36d","system_id":"levelo_inurba_marseille","lat":43.23195,"lon":5.35542,"is_reserved":false,"is_disabled":false,"rental_uris":{"android":"levelo://app?vid=6a7366d7-ed8c-4629-bf0c-70c2abcda36d","ios":"levelo://app?vid=6a7366d7-ed8c-4629-bf0c-70c2abcda36d"},"vehicle_type_id":"4","last_reported":1737051095,"current_range_meters":10000,"station_id":"ce4bhu92rcd13ifvqi70","pricing_plan_id":"cebpf4jnsgd1na2vs0mg"},{"bike_id":"2d7f3353-743b-41e1-85f2-e32181d4ae48","system_id":"levelo_inurba_marseille","lat":43.320039,"lon":5.381523,"is_reserved":false,"is_disabled":false,"rental_uris":{"android":"levelo://app?vid=2d7f3353-743b-41e1-85f2-e32181d4ae48","ios":"levelo://app?vid=2d7f3353-743b-41e1-85f2-e32181d4ae48"},"vehicle_type_id":"4","last_reported":1737051095,"current_range_meters":32000,"station_id":"ce4bhr12rcd13ifvqhpg","pricing_plan_id":"cebpf4jnsgd1na2vs0mg"},{"bike_id":"573076c8-1172-47e5-b129-cb987286e5ee","system_id":"levelo_inurba_marseille","lat":43.278137,"lon":5.40715,"is_reserved":false,"is_disabled":false,"rental_uris":{"android":"levelo://app?vid=573076c8-1172-47e5-b129-cb987286e5ee","ios":"levelo://app?vid=573076c8-1172-47e5-b129-cb987286e5ee"},"vehicle_type_id":"4","last_reported":1737051095,"current_range_meters":3200,"station_id":"ce4bhnh2rcd13ifvqgtg","pricing_plan_id":"cebpf4jnsgd1na2vs0mg"},{"bike_id":"88793ffa-01a3-4e34-be8c-e520fd17e5e5","system_id":"levelo_inurba_marseille","lat":43.29417,"lon":5.38632,"is_reserved":false,"is_disabled":false,"rental_uris":{"android":"levelo://app?vid=88793ffa-01a3-4e34-be8c-e520fd17e5e5","ios":"levelo://app?vid=88793ffa-01a3-4e34-be8c-e520fd17e5e5"},"vehicle_type_id":"4","last_reported":1737051095,"current_range_meters":26000,"station_id":"ce4bh2h2rcd13ifvqdh0","pricing_plan_id":"cebpf4jnsgd1na2vs0mg"},{"bike_id":"35deb437-7ef2-4ee7-9ea5-27ce0001ca7b","system_id":"levelo_inurba_marseille","lat":43.26052,"lon":5.39392,"is_reserved":false,"is_disabled":false,"rental_uris":{"android":"levelo://app?vid=35deb437-7ef2-4ee7-9ea5-27ce0001ca7b","ios":"levelo://app?vid=35deb437-7ef2-4ee7-9ea5-27ce0001ca7b"},"vehicle_type_id":"4","last_reported":1737051095,"current_range_meters":38800,"station_id":"ce4bhh92rcd13ifvqfj0","pricing_plan_id":"cebpf4jnsgd1na2vs0mg"},{"bike_id":"132725b0-f834-47d4-a6df-774cd9a12634","system_id":"levelo_inurba_marseille","lat":43.290193,"lon":5.381334,"is_reserved":false,"is_disabled":false,"rental_uris":{"android":"levelo://app?vid=132725b0-f834-47d4-a6df-774cd9a12634","ios":"levelo://app?vid=132725b0-f834-47d4-a6df-774cd9a12634"},"vehicle_type_id":"4","last_reported":1737051095,"current_range_meters":18800,"station_id":"ce4bh4p2rcd13ifvqe1g","pricing_plan_id":"cebpf4jnsgd1na2vs0mg"},{"bike_id":"01170b6d-04e2-4875-aef2-edc164d849c9","system_id":"levelo_inurba_marseille","lat":43.28938,"lon":5.39633,"is_reserved":false,"is_disabled":false,"rental_uris":{"android":"levelo://app?vid=01170b6d-04e2-4875-aef2-edc164d849c9","ios":"levelo://app?vid=01170b6d-04e2-4875-aef2-edc164d849c9"},"vehicle_type_id":"4","last_reported":1737051095,"current_range_meters":36400,"station_id":"ce4bh3h2rcd13ifvqdn0","pricing_plan_id":"cebpf4jnsgd1na2vs0mg"},{"bike_id":"006eddf6-3b41-4a21-a985-f7a4350b5bf4","system_id":"levelo_inurba_marseille","lat":43.26064,"lon":5.39399,"is_reserved":false,"is_disabled":false,"rental_uris":{"android":"levelo://app?vid=006eddf6-3b41-4a21-a985-f7a4350b5bf4","ios":"levelo://app?vid=006eddf6-3b41-4a21-a985-f7a4350b5bf4"},"vehicle_type_id":"4","last_reported":1737051095,"current_range_meters":32400,"station_id":"ce4bhh92rcd13ifvqfj0","pricing_plan_id":"cebpf4jnsgd1na2vs0mg"},{"bike_id":"363546c0-7f8e-476d-96af-c34602432385","system_id":"levelo_inurba_marseille","lat":43.27057,"lon":5.40261,"is_reserved":false,"is_disabled":false,"rental_uris":{"android":"levelo://app?vid=363546c0-7f8e-476d-96af-c34602432385","ios":"levelo://app?vid=363546c0-7f8e-476d-96af-c34602432385"},"vehicle_type_id":"4","last_reported":1737051095,"current_range_meters":4400,"station_id":"ce4bhk92rcd13ifvqgc0","pricing_plan_id":"cebpf4jnsgd1na2vs0mg"},{"bike_id":"e2b2f78a-aa43-4460-82ba-2098e62e5e5c","system_id":"levelo_inurba_marseille","lat":43.32339,"lon":5.4063,"is_reserved":false,"is_disabled":false,"rental_uris":{"android":"levelo://app?vid=e2b2f78a-aa43-4460-82ba-2098e62e5e5c","ios":"levelo://app?vid=e2b2f78a-aa43-4460-82ba-2098e62e5e5c"},"vehicle_type_id":"4","last_reported":1737051095,"current_range_meters":38800,"station_id":"ce4bhq92rcd13ifvqhjg","pricing_plan_id":"cebpf4jnsgd1na2vs0mg"},{"bike_id":"5d42a98e-bef8-43af-946e-751274f82d4c","system_id":"levelo_inurba_marseille","lat":43.23654,"lon":5.43601,"is_reserved":false,"is_disabled":true,"rental_uris":{"android":"levelo://app?vid=5d42a98e-bef8-43af-946e-751274f82d4c","ios":"levelo://app?vid=5d42a98e-bef8-43af-946e-751274f82d4c"},"vehicle_type_id":"4","last_reported":1737051095,"current_range_meters":30800,"station_id":"","pricing_plan_id":"cebpf4jnsgd1na2vs0mg"},{"bike_id":"8cb4ad8b-15e2-4cb5-83c8-857e91244296","system_id":"levelo_inurba_marseille","lat":43.28925,"lon":5.38393,"is_reserved":false,"is_disabled":false,"rental_uris":{"android":"levelo://app?vid=8cb4ad8b-15e2-4cb5-83c8-857e91244296","ios":"levelo://app?vid=8cb4ad8b-15e2-4cb5-83c8-857e91244296"},"vehicle_type_id":"4","last_reported":1737051095,"current_range_meters":38800,"station_id":"ce4bh612rcd13ifvqe6g","pricing_plan_id":"cebpf4jnsgd1na2vs0mg"},{"bike_id":"11000566-2580-49a1-98ec-d88dfd03fd9a","system_id":"levelo_inurba_marseille","lat":43.27563,"lon":5.38422,"is_reserved":false,"is_disabled":false,"rental_uris":{"android":"levelo://app?vid=11000566-2580-49a1-98ec-d88dfd03fd9a","ios":"levelo://app?vid=11000566-2580-49a1-98ec-d88dfd03fd9a"},"vehicle_type_id":"4","last_reported":1737051095,"current_range_meters":38800,"station_id":"ce4bhh92rcd13ifvqfi0","pricing_plan_id":"cebpf4jnsgd1na2vs0mg"},{"bike_id":"a520de0a-aece-4bef-bc4c-eb5b0d8bc3be","system_id":"levelo_inurba_marseille","lat":43.28406,"lon":5.37518,"is_reserved":false,"is_disabled":false,"rental_uris":{"android":"levelo://app?vid=a520de0a-aece-4bef-bc4c-eb5b0d8bc3be","ios":"levelo://app?vid=a520de0a-aece-4bef-bc4c-eb5b0d8bc3be"},"vehicle_type_id":"4","last_reported":1737051095,"current_range_meters":25200,"station_id":"ce4bh412rcd13ifvqds0","pricing_plan_id":"cebpf4jnsgd1na2vs0mg"},{"bike_id":"c00bc195-a15c-4f3b-9a6a-fb6af373d505","system_id":"levelo_inurba_marseille","lat":43.33086,"lon":5.39029,"is_reserved":false,"is_disabled":false,"rental_uris":{"android":"levelo://app?vid=c00bc195-a15c-4f3b-9a6a-fb6af373d505","ios":"levelo://app?vid=c00bc195-a15c-4f3b-9a6a-fb6af373d505"},"vehicle_type_id":"4","last_reported":1737051095,"current_range_meters":25600,"station_id":"","pricing_plan_id":"cebpf4jnsgd1na2vs0mg"},{"bike_id":"be56aa01-feda-4da6-a214-5a333dfe3677","system_id":"levelo_inurba_marseille","lat":43.29175,"lon":5.37164,"is_reserved":false,"is_disabled":false,"rental_uris":{"android":"levelo://app?vid=be56aa01-feda-4da6-a214-5a333dfe3677","ios":"levelo://app?vid=be56aa01-feda-4da6-a214-5a333dfe3677"},"vehicle_type_id":"4","last_reported":1737051095,"current_range_meters":22800,"station_id":"ce4bha92rcd13ifvqeh0","pricing_plan_id":"cebpf4jnsgd1na2vs0mg"},{"bike_id":"0e8ee99a-1371-4f0b-88ce-1eb7da162eaa","system_id":"levelo_inurba_marseille","lat":43.24662,"lon":5.38167,"is_reserved":false,"is_disabled":false,"rental_uris":{"android":"levelo://app?vid=0e8ee99a-1371-4f0b-88ce-1eb7da162eaa","ios":"levelo://app?vid=0e8ee99a-1371-4f0b-88ce-1eb7da162eaa"},"vehicle_type_id":"4","last_reported":1737051095,"current_range_meters":22000,"station_id":"ce4bhih2rcd13ifvqfr0","pricing_plan_id":"cebpf4jnsgd1na2vs0mg"},{"bike_id":"e99994e2-e820-4cd7-95ff-53bdcb152d9d","system_id":"levelo_inurba_marseille","lat":43.3021,"lon":5.39763,"is_reserved":false,"is_disabled":false,"rental_uris":{"android":"levelo://app?vid=e99994e2-e820-4cd7-95ff-53bdcb152d9d","ios":"levelo://app?vid=e99994e2-e820-4cd7-95ff-53bdcb152d9d"},"vehicle_type_id":"4","last_reported":1737051095,"current_range_meters":16000,"station_id":"ce4bh0h2rcd13ifvqd60","pricing_plan_id":"cebpf4jnsgd1na2vs0mg"},{"bike_id":"e21a33db-4ff7-44b2-a73f-b5c05a38c476","system_id":"levelo_inurba_marseille","lat":43.254906,"lon":5.376489,"is_reserved":false,"is_disabled":false,"rental_uris":{"android":"levelo://app?vid=e21a33db-4ff7-44b2-a73f-b5c05a38c476","ios":"levelo://app?vid=e21a33db-4ff7-44b2-a73f-b5c05a38c476"},"vehicle_type_id":"4","last_reported":1737051095,"current_range_meters":37600,"station_id":"ce4bhh12rcd13ifvqff0","pricing_plan_id":"cebpf4jnsgd1na2vs0mg"},{"bike_id":"ea68a76e-b4c6-4be9-ab98-1a2f34b18dea","system_id":"levelo_inurba_marseille","lat":43.24188,"lon":5.39745,"is_reserved":false,"is_disabled":false,"rental_uris":{"android":"levelo://app?vid=ea68a76e-b4c6-4be9-ab98-1a2f34b18dea","ios":"levelo://app?vid=ea68a76e-b4c6-4be9-ab98-1a2f34b18dea"},"vehicle_type_id":"4","last_reported":1737051095,"current_range_meters":18800,"station_id":"ce4bhn12rcd13ifvqgpg","pricing_plan_id":"cebpf4jnsgd1na2vs0mg"},{"bike_id":"deed0929-0128-456e-9f76-6afc5444b63c","system_id":"levelo_inurba_marseille","lat":43.28467,"lon":5.35879,"is_reserved":false,"is_disabled":false,"rental_uris":{"android":"levelo://app?vid=deed0929-0128-456e-9f76-6afc5444b63c","ios":"levelo://app?vid=deed0929-0128-456e-9f76-6afc5444b63c"},"vehicle_type_id":"4","last_reported":1737051095,"current_range_meters":8400,"station_id":"ce4bhah2rcd13ifvqei0","pricing_plan_id":"cebpf4jnsgd1na2vs0mg"},{"bike_id":"b66c8a7c-98ac-480c-a383-f54813a2d5aa","system_id":"levelo_inurba_marseille","lat":43.2583,"lon":5.39424,"is_reserved":false,"is_disabled":false,"rental_uris":{"android":"levelo://app?vid=b66c8a7c-98ac-480c-a383-f54813a2d5aa","ios":"levelo://app?vid=b66c8a7c-98ac-480c-a383-f54813a2d5aa"},"vehicle_type_id":"4","last_reported":1737051095,"current_range_meters":38800,"station_id":"ce4bhip2rcd13ifvqft0","pricing_plan_id":"cebpf4jnsgd1na2vs0mg"},{"bike_id":"69ae9584-9a03-4c67-af99-00b3bcfab561","system_id":"levelo_inurba_marseille","lat":43.27817,"lon":5.40713,"is_reserved":false,"is_disabled":false,"rental_uris":{"android":"levelo://app?vid=69ae9584-9a03-4c67-af99-00b3bcfab561","ios":"levelo://app?vid=69ae9584-9a03-4c67-af99-00b3bcfab561"},"vehicle_type_id":"4","last_reported":1737051095,"current_range_meters":30800,"station_id":"ce4bhnh2rcd13ifvqgtg","pricing_plan_id":"cebpf4jnsgd1na2vs0mg"},{"bike_id":"9eb8e58d-02d8-47e4-a3bd-13b422680bda","system_id":"levelo_inurba_marseille","lat":43.29418,"lon":5.38638,"is_reserved":false,"is_disabled":false,"rental_uris":{"android":"levelo://app?vid=9eb8e58d-02d8-47e4-a3bd-13b422680bda","ios":"levelo://app?vid=9eb8e58d-02d8-47e4-a3bd-13b422680bda"},"vehicle_type_id":"4","last_reported":1737051095,"current_range_meters":38800,"station_id":"ce4bh2h2rcd13ifvqdh0","pricing_plan_id":"cebpf4jnsgd1na2vs0mg"},{"bike_id":"2b306c98-f95b-42a1-9aee-b5e32b2b0bbb","system_id":"levelo_inurba_marseille","lat":43.25581,"lon":5.38248,"is_reserved":false,"is_disabled":false,"rental_uris":{"android":"levelo://app?vid=2b306c98-f95b-42a1-9aee-b5e32b2b0bbb","ios":"levelo://app?vid=2b306c98-f95b-42a1-9aee-b5e32b2b0bbb"},"vehicle_type_id":"4","last_reported":1737051095,"current_range_meters":28800,"station_id":"ce4bhih2rcd13ifvqfs0","pricing_plan_id":"cebpf4jnsgd1na2vs0mg"},{"bike_id":"bb13a3cc-8197-4c21-94a0-0bda939710d0","system_id":"levelo_inurba_marseille","lat":43.24391,"lon":5.37059,"is_reserved":false,"is_disabled":false,"rental_uris":{"android":"levelo://app?vid=bb13a3cc-8197-4c21-94a0-0bda939710d0","ios":"levelo://app?vid=bb13a3cc-8197-4c21-94a0-0bda939710d0"},"vehicle_type_id":"4","last_reported":1737051095,"current_range_meters":38800,"station_id":"ce4bhhh2rcd13ifvqfk0","pricing_plan_id":"cebpf4jnsgd1na2vs0mg"},{"bike_id":"7bff17cc-1c44-40d8-87ad-42c14976da2f","system_id":"levelo_inurba_marseille","lat":43.30598,"lon":5.38092,"is_reserved":false,"is_disabled":false,"rental_uris":{"android":"levelo://app?vid=7bff17cc-1c44-40d8-87ad-42c14976da2f","ios":"levelo://app?vid=7bff17cc-1c44-40d8-87ad-42c14976da2f"},"vehicle_type_id":"4","last_reported":1737051095,"current_range_meters":11600,"station_id":"","pricing_plan_id":"cebpf4jnsgd1na2vs0mg"},{"bike_id":"44721705-52d0-4eba-b0b2-b41ea9586411","system_id":"levelo_inurba_marseille","lat":43.231908,"lon":5.355578,"is_reserved":false,"is_disabled":false,"rental_uris":{"android":"levelo://app?vid=44721705-52d0-4eba-b0b2-b41ea9586411","ios":"levelo://app?vid=44721705-52d0-4eba-b0b2-b41ea9586411"},"vehicle_type_id":"4","last_reported":1737051095,"current_range_meters":33200,"station_id":"ce4bhu92rcd13ifvqi70","pricing_plan_id":"cebpf4jnsgd1na2vs0mg"},{"bike_id":"b1c76eb4-e5ec-4ec4-abcf-d9d0a5284616","system_id":"levelo_inurba_marseille","lat":43.28702,"lon":5.37384,"is_reserved":false,"is_disabled":true,"rental_uris":{"android":"levelo://app?vid=b1c76eb4-e5ec-4ec4-abcf-d9d0a5284616","ios":"levelo://app?vid=b1c76eb4-e5ec-4ec4-abcf-d9d0a5284616"},"vehicle_type_id":"4","last_reported":1737051095,"current_range_meters":1200,"station_id":"ce4bh3p2rcd13ifvqdq0","pricing_plan_id":"cebpf4jnsgd1na2vs0mg"},{"bike_id":"dba9374b-546a-4a1d-9da1-1d5fd77e41a7","system_id":"levelo_inurba_marseille","lat":43.29367,"lon":5.37844,"is_reserved":false,"is_disabled":false,"rental_uris":{"android":"levelo://app?vid=dba9374b-546a-4a1d-9da1-1d5fd77e41a7","ios":"levelo://app?vid=dba9374b-546a-4a1d-9da1-1d5fd77e41a7"},"vehicle_type_id":"4","last_reported":1737051095,"current_range_meters":14000,"station_id":"ce4bgjh2rcd13ifvqbf0","pricing_plan_id":"cebpf4jnsgd1na2vs0mg"},{"bike_id":"23058c6b-7cec-4b64-b4eb-25111a16619b","system_id":"levelo_inurba_marseille","lat":43.27379,"lon":5.36261,"is_reserved":false,"is_disabled":false,"rental_uris":{"android":"levelo://app?vid=23058c6b-7cec-4b64-b4eb-25111a16619b","ios":"levelo://app?vid=23058c6b-7cec-4b64-b4eb-25111a16619b"},"vehicle_type_id":"4","last_reported":1737051095,"current_range_meters":37600,"station_id":"ce4bhbh2rcd13ifvqeo0","pricing_plan_id":"cebpf4jnsgd1na2vs0mg"},{"bike_id":"27371fc3-88d5-40e0-8fcb-13c0dd889d55","system_id":"levelo_inurba_marseille","lat":43.25879,"lon":5.39347,"is_reserved":false,"is_disabled":false,"rental_uris":{"android":"levelo://app?vid=27371fc3-88d5-40e0-8fcb-13c0dd889d55","ios":"levelo://app?vid=27371fc3-88d5-40e0-8fcb-13c0dd889d55"},"vehicle_type_id":"4","last_reported":1737051095,"current_range_meters":24400,"station_id":"ce4bhip2rcd13ifvqft0","pricing_plan_id":"cebpf4jnsgd1na2vs0mg"},{"bike_id":"de9dfabd-a91e-4abd-95a4-4862e4a5c50c","system_id":"levelo_inurba_marseille","lat":43.28943,"lon":5.36392,"is_reserved":false,"is_disabled":false,"rental_uris":{"android":"levelo://app?vid=de9dfabd-a91e-4abd-95a4-4862e4a5c50c","ios":"levelo://app?vid=de9dfabd-a91e-4abd-95a4-4862e4a5c50c"},"vehicle_type_id":"4","last_reported":1737051095,"current_range_meters":12000,"station_id":"ce4bhc92rcd13ifvqetg","pricing_plan_id":"cebpf4jnsgd1na2vs0mg"},{"bike_id":"e1f9a0b5-1419-4e67-ab24-a72ee45dfd85","system_id":"levelo_inurba_marseille","lat":43.24171,"lon":5.36394,"is_reserved":false,"is_disabled":false,"rental_uris":{"android":"levelo://app?vid=e1f9a0b5-1419-4e67-ab24-a72ee45dfd85","ios":"levelo://app?vid=e1f9a0b5-1419-4e67-ab24-a72ee45dfd85"},"vehicle_type_id":"4","last_reported":1737051095,"current_range_meters":20000,"station_id":"cpo36qri1sfpv3e86is0","pricing_plan_id":"cebpf4jnsgd1na2vs0mg"},{"bike_id":"9a582c56-bbf8-4319-a059-65116fb6f262","system_id":"levelo_inurba_marseille","lat":43.29647,"lon":5.40592,"is_reserved":false,"is_disabled":false,"rental_uris":{"android":"levelo://app?vid=9a582c56-bbf8-4319-a059-65116fb6f262","ios":"levelo://app?vid=9a582c56-bbf8-4319-a059-65116fb6f262"},"vehicle_type_id":"4","last_reported":1737051095,"current_range_meters":6000,"station_id":"ce4bh0h2rcd13ifvqd60","pricing_plan_id":"cebpf4jnsgd1na2vs0mg"},{"bike_id":"f7a93299-4b31-44c2-976e-82f7878bc418","system_id":"levelo_inurba_marseille","lat":43.25496,"lon":5.37658,"is_reserved":false,"is_disabled":false,"rental_uris":{"android":"levelo://app?vid=f7a93299-4b31-44c2-976e-82f7878bc418","ios":"levelo://app?vid=f7a93299-4b31-44c2-976e-82f7878bc418"},"vehicle_type_id":"4","last_reported":1737051095,"current_range_meters":39200,"station_id":"ce4bhh12rcd13ifvqff0","pricing_plan_id":"cebpf4jnsgd1na2vs0mg"},{"bike_id":"3d9c9263-63d7-45a7-9fea-4bbd176cc3e7","system_id":"levelo_inurba_marseille","lat":43.31167,"lon":5.38723,"is_reserved":false,"is_disabled":false,"rental_uris":{"android":"levelo://app?vid=3d9c9263-63d7-45a7-9fea-4bbd176cc3e7","ios":"levelo://app?vid=3d9c9263-63d7-45a7-9fea-4bbd176cc3e7"},"vehicle_type_id":"4","last_reported":1737051095,"current_range_meters":20000,"station_id":"ce4bgv12rcd13ifvqcp0","pricing_plan_id":"cebpf4jnsgd1na2vs0mg"},{"bike_id":"31f00ed0-b0ca-427a-9039-ac29c940ea2c","system_id":"levelo_inurba_marseille","lat":43.232,"lon":5.35553,"is_reserved":false,"is_disabled":false,"rental_uris":{"android":"levelo://app?vid=31f00ed0-b0ca-427a-9039-ac29c940ea2c","ios":"levelo://app?vid=31f00ed0-b0ca-427a-9039-ac29c940ea2c"},"vehicle_type_id":"4","last_reported":1737051095,"current_range_meters":18000,"station_id":"ce4bhu92rcd13ifvqi70","pricing_plan_id":"cebpf4jnsgd1na2vs0mg"},{"bike_id":"ff624642-87c1-428a-8fff-90059af01d1c","system_id":"levelo_inurba_marseille","lat":43.30284,"lon":5.396777,"is_reserved":false,"is_disabled":false,"rental_uris":{"android":"levelo://app?vid=ff624642-87c1-428a-8fff-90059af01d1c","ios":"levelo://app?vid=ff624642-87c1-428a-8fff-90059af01d1c"},"vehicle_type_id":"4","last_reported":1737051095,"current_range_meters":38800,"station_id":"ce4bgj92rcd13ifvqbd0","pricing_plan_id":"cebpf4jnsgd1na2vs0mg"},{"bike_id":"338fb549-b079-41f1-8868-93f63b36c832","system_id":"levelo_inurba_marseille","lat":43.27677,"lon":5.38881,"is_reserved":false,"is_disabled":true,"rental_uris":{"android":"levelo://app?vid=338fb549-b079-41f1-8868-93f63b36c832","ios":"levelo://app?vid=338fb549-b079-41f1-8868-93f63b36c832"},"vehicle_type_id":"4","last_reported":1737051095,"current_range_meters":0,"station_id":"ce4bhi12rcd13ifvqfo0","pricing_plan_id":"cebpf4jnsgd1na2vs0mg"},{"bike_id":"8ccdb8e3-5350-4cab-8a81-1bd6181a6c06","system_id":"levelo_inurba_marseille","lat":43.231995,"lon":5.355494,"is_reserved":false,"is_disabled":false,"rental_uris":{"android":"levelo://app?vid=8ccdb8e3-5350-4cab-8a81-1bd6181a6c06","ios":"levelo://app?vid=8ccdb8e3-5350-4cab-8a81-1bd6181a6c06"},"vehicle_type_id":"4","last_reported":1737051095,"current_range_meters":28800,"station_id":"ce4bhu92rcd13ifvqi70","pricing_plan_id":"cebpf4jnsgd1na2vs0mg"},{"bike_id":"8c5b2f85-de16-4494-824b-fd886a61b673","system_id":"levelo_inurba_marseille","lat":43.25828,"lon":5.39439,"is_reserved":false,"is_disabled":false,"rental_uris":{"android":"levelo://app?vid=8c5b2f85-de16-4494-824b-fd886a61b673","ios":"levelo://app?vid=8c5b2f85-de16-4494-824b-fd886a61b673"},"vehicle_type_id":"4","last_reported":1737051095,"current_range_meters":38800,"station_id":"ce4bhip2rcd13ifvqft0","pricing_plan_id":"cebpf4jnsgd1na2vs0mg"},{"bike_id":"debf1d68-8b1d-4b6b-9d17-2e6033da6eb8","system_id":"levelo_inurba_marseille","lat":43.31326,"lon":5.39687,"is_reserved":false,"is_disabled":false,"rental_uris":{"android":"levelo://app?vid=debf1d68-8b1d-4b6b-9d17-2e6033da6eb8","ios":"levelo://app?vid=debf1d68-8b1d-4b6b-9d17-2e6033da6eb8"},"vehicle_type_id":"4","last_reported":1737051095,"current_range_meters":39200,"station_id":"ce4bgvp2rcd13ifvqcu0","pricing_plan_id":"cebpf4jnsgd1na2vs0mg"},{"bike_id":"5cca5f23-9ab6-4994-b697-5685f184d0c2","system_id":"levelo_inurba_marseille","lat":43.29593,"lon":5.38111,"is_reserved":false,"is_disabled":false,"rental_uris":{"android":"levelo://app?vid=5cca5f23-9ab6-4994-b697-5685f184d0c2","ios":"levelo://app?vid=5cca5f23-9ab6-4994-b697-5685f184d0c2"},"vehicle_type_id":"4","last_reported":1737051095,"current_range_meters":27200,"station_id":"ce4bgl12rcd13ifvqbo0","pricing_plan_id":"cebpf4jnsgd1na2vs0mg"},{"bike_id":"f5863b18-13a1-4c6e-92de-5668ea912ad3","system_id":"levelo_inurba_marseille","lat":43.26221,"lon":5.40458,"is_reserved":false,"is_disabled":true,"rental_uris":{"android":"levelo://app?vid=f5863b18-13a1-4c6e-92de-5668ea912ad3","ios":"levelo://app?vid=f5863b18-13a1-4c6e-92de-5668ea912ad3"},"vehicle_type_id":"4","last_reported":1737051095,"current_range_meters":1200,"station_id":"","pricing_plan_id":"cebpf4jnsgd1na2vs0mg"},{"bike_id":"572c14a6-f649-4f12-958e-6ea2423c89a6","system_id":"levelo_inurba_marseille","lat":43.29532,"lon":5.390327,"is_reserved":false,"is_disabled":false,"rental_uris":{"android":"levelo://app?vid=572c14a6-f649-4f12-958e-6ea2423c89a6","ios":"levelo://app?vid=572c14a6-f649-4f12-958e-6ea2423c89a6"},"vehicle_type_id":"4","last_reported":1737051095,"current_range_meters":32400,"station_id":"ce4bh3p2rcd13ifvqdp0","pricing_plan_id":"cebpf4jnsgd1na2vs0mg"},{"bike_id":"a8fad254-19bb-48fe-801d-9e93d4767cef","system_id":"levelo_inurba_marseille","lat":43.31426,"lon":5.37407,"is_reserved":false,"is_disabled":true,"rental_uris":{"android":"levelo://app?vid=a8fad254-19bb-48fe-801d-9e93d4767cef","ios":"levelo://app?vid=a8fad254-19bb-48fe-801d-9e93d4767cef"},"vehicle_type_id":"4","last_reported":1737051095,"current_range_meters":1600,"station_id":"","pricing_plan_id":"cebpf4jnsgd1na2vs0mg"},{"bike_id":"37c3b29e-0263-444b-a673-4bd496b32d78","system_id":"levelo_inurba_marseille","lat":43.29527,"lon":5.38543,"is_reserved":false,"is_disabled":false,"rental_uris":{"android":"levelo://app?vid=37c3b29e-0263-444b-a673-4bd496b32d78","ios":"levelo://app?vid=37c3b29e-0263-444b-a673-4bd496b32d78"},"vehicle_type_id":"4","last_reported":1737051095,"current_range_meters":21600,"station_id":"ce4bgih2rcd13ifvqba0","pricing_plan_id":"cebpf4jnsgd1na2vs0mg"},{"bike_id":"026d94ea-1a76-449f-9e5d-c9dac35fe9cb","system_id":"levelo_inurba_marseille","lat":43.25081,"lon":5.39511,"is_reserved":false,"is_disabled":false,"rental_uris":{"android":"levelo://app?vid=026d94ea-1a76-449f-9e5d-c9dac35fe9cb","ios":"levelo://app?vid=026d94ea-1a76-449f-9e5d-c9dac35fe9cb"},"vehicle_type_id":"4","last_reported":1737051095,"current_range_meters":12000,"station_id":"ce4bhm12rcd13ifvqgkg","pricing_plan_id":"cebpf4jnsgd1na2vs0mg"},{"bike_id":"b80538f1-bed7-4fbe-806c-123f996da5e7","system_id":"levelo_inurba_marseille","lat":43.306497,"lon":5.40083,"is_reserved":false,"is_disabled":false,"rental_uris":{"android":"levelo://app?vid=b80538f1-bed7-4fbe-806c-123f996da5e7","ios":"levelo://app?vid=b80538f1-bed7-4fbe-806c-123f996da5e7"},"vehicle_type_id":"4","last_reported":1737051095,"current_range_meters":12400,"station_id":"ce4bh112rcd13ifvqda0","pricing_plan_id":"cebpf4jnsgd1na2vs0mg"},{"bike_id":"e5f71037-c3e2-4a5c-b185-51bcddd625d8","system_id":"levelo_inurba_marseille","lat":43.23062,"lon":5.35488,"is_reserved":false,"is_disabled":false,"rental_uris":{"android":"levelo://app?vid=e5f71037-c3e2-4a5c-b185-51bcddd625d8","ios":"levelo://app?vid=e5f71037-c3e2-4a5c-b185-51bcddd625d8"},"vehicle_type_id":"4","last_reported":1737051095,"current_range_meters":8000,"station_id":"cpo3342slgdg3j2ifvpg","pricing_plan_id":"cebpf4jnsgd1na2vs0mg"},{"bike_id":"42bb0286-2eda-476d-b88b-29807931aca7","system_id":"levelo_inurba_marseille","lat":43.31759,"lon":5.39019,"is_reserved":false,"is_disabled":false,"rental_uris":{"android":"levelo://app?vid=42bb0286-2eda-476d-b88b-29807931aca7","ios":"levelo://app?vid=42bb0286-2eda-476d-b88b-29807931aca7"},"vehicle_type_id":"4","last_reported":1737051095,"current_range_meters":19200,"station_id":"ce4bhqp2rcd13ifvqhng","pricing_plan_id":"cebpf4jnsgd1na2vs0mg"},{"bike_id":"26743e82-4e38-42f6-b2e8-0668d537b588","system_id":"levelo_inurba_marseille","lat":43.30934,"lon":5.40143,"is_reserved":false,"is_disabled":false,"rental_uris":{"android":"levelo://app?vid=26743e82-4e38-42f6-b2e8-0668d537b588","ios":"levelo://app?vid=26743e82-4e38-42f6-b2e8-0668d537b588"},"vehicle_type_id":"4","last_reported":1737051095,"current_range_meters":32000,"station_id":"ce4bgvp2rcd13ifvqct0","pricing_plan_id":"cebpf4jnsgd1na2vs0mg"},{"bike_id":"6d259853-0979-4a23-95b6-5166ac2d1ac5","system_id":"levelo_inurba_marseille","lat":43.28842,"lon":5.39323,"is_reserved":false,"is_disabled":false,"rental_uris":{"android":"levelo://app?vid=6d259853-0979-4a23-95b6-5166ac2d1ac5","ios":"levelo://app?vid=6d259853-0979-4a23-95b6-5166ac2d1ac5"},"vehicle_type_id":"4","last_reported":1737051095,"current_range_meters":4000,"station_id":"ce4bh2p2rcd13ifvqdi0","pricing_plan_id":"cebpf4jnsgd1na2vs0mg"},{"bike_id":"3d5a1262-2932-4ccd-9bd0-8d62fc0bdf09","system_id":"levelo_inurba_marseille","lat":43.269363,"lon":5.389268,"is_reserved":false,"is_disabled":false,"rental_uris":{"android":"levelo://app?vid=3d5a1262-2932-4ccd-9bd0-8d62fc0bdf09","ios":"levelo://app?vid=3d5a1262-2932-4ccd-9bd0-8d62fc0bdf09"},"vehicle_type_id":"4","last_reported":1737051095,"current_range_meters":38000,"station_id":"ce4bhhh2rcd13ifvqfl0","pricing_plan_id":"cebpf4jnsgd1na2vs0mg"},{"bike_id":"6b3d0828-a6fe-4b4e-a111-b0a46355d990","system_id":"levelo_inurba_marseille","lat":43.28477,"lon":5.38416,"is_reserved":false,"is_disabled":false,"rental_uris":{"android":"levelo://app?vid=6b3d0828-a6fe-4b4e-a111-b0a46355d990","ios":"levelo://app?vid=6b3d0828-a6fe-4b4e-a111-b0a46355d990"},"vehicle_type_id":"4","last_reported":1737051095,"current_range_meters":38000,"station_id":"ce4bh512rcd13ifvqe3g","pricing_plan_id":"cebpf4jnsgd1na2vs0mg"},{"bike_id":"c8fd9861-261a-4dc1-b31e-b1fb93392a22","system_id":"levelo_inurba_marseille","lat":43.28926,"lon":5.38406,"is_reserved":false,"is_disabled":false,"rental_uris":{"android":"levelo://app?vid=c8fd9861-261a-4dc1-b31e-b1fb93392a22","ios":"levelo://app?vid=c8fd9861-261a-4dc1-b31e-b1fb93392a22"},"vehicle_type_id":"4","last_reported":1737051095,"current_range_meters":30400,"station_id":"ce4bh612rcd13ifvqe6g","pricing_plan_id":"cebpf4jnsgd1na2vs0mg"},{"bike_id":"13433277-d3b0-4a08-a2db-33cf76017a6d","system_id":"levelo_inurba_marseille","lat":43.28673,"lon":5.38656,"is_reserved":false,"is_disabled":false,"rental_uris":{"android":"levelo://app?vid=13433277-d3b0-4a08-a2db-33cf76017a6d","ios":"levelo://app?vid=13433277-d3b0-4a08-a2db-33cf76017a6d"},"vehicle_type_id":"4","last_reported":1737051095,"current_range_meters":38000,"station_id":"ce4bh492rcd13ifvqdug","pricing_plan_id":"cebpf4jnsgd1na2vs0mg"},{"bike_id":"115471dd-6fb3-4d10-8ddf-325016643d6c","system_id":"levelo_inurba_marseille","lat":43.31725,"lon":5.42394,"is_reserved":false,"is_disabled":false,"rental_uris":{"android":"levelo://app?vid=115471dd-6fb3-4d10-8ddf-325016643d6c","ios":"levelo://app?vid=115471dd-6fb3-4d10-8ddf-325016643d6c"},"vehicle_type_id":"4","last_reported":1737051095,"current_range_meters":10000,"station_id":"ce4bhp92rcd13ifvqhbg","pricing_plan_id":"cebpf4jnsgd1na2vs0mg"},{"bike_id":"7198cadb-dcdf-432b-b5dc-cee5a17d6c58","system_id":"levelo_inurba_marseille","lat":43.3081,"lon":5.4353,"is_reserved":false,"is_disabled":false,"rental_uris":{"android":"levelo://app?vid=7198cadb-dcdf-432b-b5dc-cee5a17d6c58","ios":"levelo://app?vid=7198cadb-dcdf-432b-b5dc-cee5a17d6c58"},"vehicle_type_id":"4","last_reported":1737051095,"current_range_meters":20000,"station_id":"ce4bhph2rcd13ifvqheg","pricing_plan_id":"cebpf4jnsgd1na2vs0mg"},{"bike_id":"9f0842f2-4d3d-475b-bcfd-9c1ccebfe5a3","system_id":"levelo_inurba_marseille","lat":43.29604,"lon":5.38106,"is_reserved":false,"is_disabled":false,"rental_uris":{"android":"levelo://app?vid=9f0842f2-4d3d-475b-bcfd-9c1ccebfe5a3","ios":"levelo://app?vid=9f0842f2-4d3d-475b-bcfd-9c1ccebfe5a3"},"vehicle_type_id":"4","last_reported":1737051095,"current_range_meters":30800,"station_id":"ce4bgl12rcd13ifvqbo0","pricing_plan_id":"cebpf4jnsgd1na2vs0mg"},{"bike_id":"62f50241-3624-4ce7-8a8b-450a47290f5f","system_id":"levelo_inurba_marseille","lat":43.23182,"lon":5.39997,"is_reserved":false,"is_disabled":false,"rental_uris":{"android":"levelo://app?vid=62f50241-3624-4ce7-8a8b-450a47290f5f","ios":"levelo://app?vid=62f50241-3624-4ce7-8a8b-450a47290f5f"},"vehicle_type_id":"4","last_reported":1737051095,"current_range_meters":26000,"station_id":"ce4bhn12rcd13ifvqgqg","pricing_plan_id":"cebpf4jnsgd1na2vs0mg"},{"bike_id":"52b1461d-3df9-4f4b-bd92-e516995187e1","system_id":"levelo_inurba_marseille","lat":43.31691,"lon":5.4368,"is_reserved":false,"is_disabled":false,"rental_uris":{"android":"levelo://app?vid=52b1461d-3df9-4f4b-bd92-e516995187e1","ios":"levelo://app?vid=52b1461d-3df9-4f4b-bd92-e516995187e1"},"vehicle_type_id":"4","last_reported":1737051095,"current_range_meters":33200,"station_id":"ce4bhp92rcd13ifvqhcg","pricing_plan_id":"cebpf4jnsgd1na2vs0mg"},{"bike_id":"0e50758d-5b7b-4299-8d1e-ef52d09f91a0","system_id":"levelo_inurba_marseille","lat":43.298774,"lon":5.397342,"is_reserved":false,"is_disabled":false,"rental_uris":{"android":"levelo://app?vid=0e50758d-5b7b-4299-8d1e-ef52d09f91a0","ios":"levelo://app?vid=0e50758d-5b7b-4299-8d1e-ef52d09f91a0"},"vehicle_type_id":"4","last_reported":1737051095,"current_range_meters":3200,"station_id":"ce4bh0h2rcd13ifvqd50","pricing_plan_id":"cebpf4jnsgd1na2vs0mg"},{"bike_id":"6a7962fe-277b-47e1-a02c-2a5b4d88817e","system_id":"levelo_inurba_marseille","lat":43.24393,"lon":5.37057,"is_reserved":false,"is_disabled":false,"rental_uris":{"android":"levelo://app?vid=6a7962fe-277b-47e1-a02c-2a5b4d88817e","ios":"levelo://app?vid=6a7962fe-277b-47e1-a02c-2a5b4d88817e"},"vehicle_type_id":"4","last_reported":1737051095,"current_range_meters":39200,"station_id":"ce4bhhh2rcd13ifvqfk0","pricing_plan_id":"cebpf4jnsgd1na2vs0mg"},{"bike_id":"f6ce3c63-03cb-4646-a7c3-800d98cc789a","system_id":"levelo_inurba_marseille","lat":43.28076,"lon":5.39657,"is_reserved":false,"is_disabled":false,"rental_uris":{"android":"levelo://app?vid=f6ce3c63-03cb-4646-a7c3-800d98cc789a","ios":"levelo://app?vid=f6ce3c63-03cb-4646-a7c3-800d98cc789a"},"vehicle_type_id":"4","last_reported":1737051095,"current_range_meters":34800,"station_id":"ce4bho12rcd13ifvqh2g","pricing_plan_id":"cebpf4jnsgd1na2vs0mg"},{"bike_id":"f5a53e35-9bad-424d-92fb-4d154082ae80","system_id":"levelo_inurba_marseille","lat":43.28575,"lon":5.39508,"is_reserved":false,"is_disabled":false,"rental_uris":{"android":"levelo://app?vid=f5a53e35-9bad-424d-92fb-4d154082ae80","ios":"levelo://app?vid=f5a53e35-9bad-424d-92fb-4d154082ae80"},"vehicle_type_id":"4","last_reported":1737051095,"current_range_meters":32000,"station_id":"ce4bh292rcd13ifvqdg0","pricing_plan_id":"cebpf4jnsgd1na2vs0mg"},{"bike_id":"20e4b7af-d9f0-450d-bd64-c337cbfbf801","system_id":"levelo_inurba_marseille","lat":43.26501,"lon":5.39544,"is_reserved":false,"is_disabled":false,"rental_uris":{"android":"levelo://app?vid=20e4b7af-d9f0-450d-bd64-c337cbfbf801","ios":"levelo://app?vid=20e4b7af-d9f0-450d-bd64-c337cbfbf801"},"vehicle_type_id":"4","last_reported":1737051095,"current_range_meters":9200,"station_id":"ce4bhi12rcd13ifvqfq0","pricing_plan_id":"cebpf4jnsgd1na2vs0mg"},{"bike_id":"9a322479-111b-4487-9390-34a4338e8142","system_id":"levelo_inurba_marseille","lat":43.33022,"lon":5.39033,"is_reserved":false,"is_disabled":false,"rental_uris":{"android":"levelo://app?vid=9a322479-111b-4487-9390-34a4338e8142","ios":"levelo://app?vid=9a322479-111b-4487-9390-34a4338e8142"},"vehicle_type_id":"4","last_reported":1737051095,"current_range_meters":9600,"station_id":"ce4bhr92rcd13ifvqhrg","pricing_plan_id":"cebpf4jnsgd1na2vs0mg"},{"bike_id":"90d6e380-3326-429d-8750-22bef3f4fa3c","system_id":"levelo_inurba_marseille","lat":43.28419,"lon":5.37485,"is_reserved":false,"is_disabled":false,"rental_uris":{"android":"levelo://app?vid=90d6e380-3326-429d-8750-22bef3f4fa3c","ios":"levelo://app?vid=90d6e380-3326-429d-8750-22bef3f4fa3c"},"vehicle_type_id":"4","last_reported":1737051095,"current_range_meters":35200,"station_id":"ce4bh412rcd13ifvqds0","pricing_plan_id":"cebpf4jnsgd1na2vs0mg"},{"bike_id":"1e4fbeb9-1986-41df-b4b0-06b0b90b6c2f","system_id":"levelo_inurba_marseille","lat":43.27555,"lon":5.38461,"is_reserved":false,"is_disabled":false,"rental_uris":{"android":"levelo://app?vid=1e4fbeb9-1986-41df-b4b0-06b0b90b6c2f","ios":"levelo://app?vid=1e4fbeb9-1986-41df-b4b0-06b0b90b6c2f"},"vehicle_type_id":"4","last_reported":1737051095,"current_range_meters":16400,"station_id":"ce4bhh92rcd13ifvqfi0","pricing_plan_id":"cebpf4jnsgd1na2vs0mg"},{"bike_id":"9f891ba2-0425-4775-871a-ca4642450342","system_id":"levelo_inurba_marseille","lat":43.27059,"lon":5.40261,"is_reserved":false,"is_disabled":false,"rental_uris":{"android":"levelo://app?vid=9f891ba2-0425-4775-871a-ca4642450342","ios":"levelo://app?vid=9f891ba2-0425-4775-871a-ca4642450342"},"vehicle_type_id":"4","last_reported":1737051095,"current_range_meters":20400,"station_id":"ce4bhk92rcd13ifvqgc0","pricing_plan_id":"cebpf4jnsgd1na2vs0mg"},{"bike_id":"2320f80a-0468-48bb-916b-633f58ab53fe","system_id":"levelo_inurba_marseille","lat":43.33716,"lon":5.39189,"is_reserved":false,"is_disabled":false,"rental_uris":{"android":"levelo://app?vid=2320f80a-0468-48bb-916b-633f58ab53fe","ios":"levelo://app?vid=2320f80a-0468-48bb-916b-633f58ab53fe"},"vehicle_type_id":"4","last_reported":1737051095,"current_range_meters":24000,"station_id":"ce4bhr92rcd13ifvqhsg","pricing_plan_id":"cebpf4jnsgd1na2vs0mg"},{"bike_id":"0ab91b2f-8859-4081-a14d-c5c0c1c0e739","system_id":"levelo_inurba_marseille","lat":43.28035,"lon":5.36958,"is_reserved":false,"is_disabled":false,"rental_uris":{"android":"levelo://app?vid=0ab91b2f-8859-4081-a14d-c5c0c1c0e739","ios":"levelo://app?vid=0ab91b2f-8859-4081-a14d-c5c0c1c0e739"},"vehicle_type_id":"4","last_reported":1737051095,"current_range_meters":38800,"station_id":"ce4bha12rcd13ifvqef0","pricing_plan_id":"cebpf4jnsgd1na2vs0mg"},{"bike_id":"3fc466a4-5364-4636-99d9-c7e2cc2ff0c2","system_id":"levelo_inurba_marseille","lat":43.33031,"lon":5.39033,"is_reserved":false,"is_disabled":false,"rental_uris":{"android":"levelo://app?vid=3fc466a4-5364-4636-99d9-c7e2cc2ff0c2","ios":"levelo://app?vid=3fc466a4-5364-4636-99d9-c7e2cc2ff0c2"},"vehicle_type_id":"4","last_reported":1737051095,"current_range_meters":39200,"station_id":"ce4bhr92rcd13ifvqhrg","pricing_plan_id":"cebpf4jnsgd1na2vs0mg"},{"bike_id":"9fc2e505-732d-4b5e-a078-bf18a5ad6b1a","system_id":"levelo_inurba_marseille","lat":43.246491,"lon":5.388938,"is_reserved":false,"is_disabled":false,"rental_uris":{"android":"levelo://app?vid=9fc2e505-732d-4b5e-a078-bf18a5ad6b1a","ios":"levelo://app?vid=9fc2e505-732d-4b5e-a078-bf18a5ad6b1a"},"vehicle_type_id":"4","last_reported":1737051095,"current_range_meters":39200,"station_id":"ce4bhg12rcd13ifvqf60","pricing_plan_id":"cebpf4jnsgd1na2vs0mg"},{"bike_id":"c01bb0f2-fcda-4e0c-8a6d-e923392e1a08","system_id":"levelo_inurba_marseille","lat":43.23153,"lon":5.43721,"is_reserved":false,"is_disabled":false,"rental_uris":{"android":"levelo://app?vid=c01bb0f2-fcda-4e0c-8a6d-e923392e1a08","ios":"levelo://app?vid=c01bb0f2-fcda-4e0c-8a6d-e923392e1a08"},"vehicle_type_id":"4","last_reported":1737051095,"current_range_meters":9600,"station_id":"ce4bhmp2rcd13ifvqgog","pricing_plan_id":"cebpf4jnsgd1na2vs0mg"},