{"last_updated":1730113693,"ttl":60,"version":"2.2","data":{"bikes":[{"bike_id":"ea94e661-6ed0-437f-b1c9-98c767ce9e7b","system_id":"levelo_inurba_marseille","lat":43.24656,"lon":5.38155,"is_reserved":false,"is_disabled":false,"rental_uris":{"android":"levelo://app?vid=ea94e661-6ed0-437f-b1c9-98c767ce9e7b","ios":"levelo://app?vid=ea94e661-6ed0-437f-b1c9-98c767ce9e7b"},"vehicle_type_id":"4","last_reported":1730113694,"current_range_meters":6400,"station_id":"ce4bhih2rcd13ifvqfr0","pricing_plan_id":"cebpf4jnsgd1na2vs0mg"},{"bike_id":"3e99bd68-b9fe-4a4d-93e6-38516249f247","system_id":"levelo_inurba_marseille","lat":43.28943,"lon":5.39616,"is_reserved":false,"is_disabled":false,"rental_uris":{"android":"levelo://app?vid=3e99bd68-b9fe-4a4d-93e6-38516249f247","ios":"levelo://app?vid=3e99bd68-b9fe-4a4d-93e6-38516249f247"},"vehicle_type_id":"4","last_reported":1730113694,"current_range_meters":37600,"station_id":"ce4bh3h2rcd13ifvqdn0","pricing_plan_id":"cebpf4jnsgd1na2vs0mg"},{"bike_id":"6cd46184-ccd4-41a7-92e5-9f321ea4dee8","system_id":"levelo_inurba_marseille","lat":43.24081,"lon":5.37745,"is_reserved":false,"is_disabled":false,"rental_uris":{"android":"levelo://app?vid=6cd46184-ccd4-41a7-92e5-9f321ea4dee8","ios":"levelo://app?vid=6cd46184-ccd4-41a7-92e5-9f321ea4dee8"},"vehicle_type_id":"4","last_reported":1730113694,"current_range_meters":37600,"station_id":"ce4bhnp2rcd13ifvqgvg","pricing_plan_id":"cebpf4jnsgd1na2vs0mg"},{"bike_id":"c1ac75a9-9e75-40e8-830b-a685c6bfffb3","system_id":"levelo_inurba_marseille","lat":43.29849,"lon":5.3627,"is_reserved":false,"is_disabled":false,"rental_uris":{"android":"levelo://app?vid=c1ac75a9-9e75-40e8-830b-a685c6bfffb3","ios":"levelo://app?vid=c1ac75a9-9e75-40e8-830b-a685c6bfffb3"},"vehicle_type_id":"4","last_reported":1730113694,"current_range_meters":38400,"station_id":"ce4bgpp2rcd13ifvqc3g","pricing_plan_id":"cebpf4jnsgd1na2vs0mg"},{"bike_id":"90b09f7c-4665-4372-8e70-8220f506b4de","system_id":"levelo_inurba_marseille","lat":43.25728,"lon":5.41106,"is_reserved":false,"is_disabled":false,"rental_uris":{"android":"levelo://app?vid=90b09f7c-4665-4372-8e70-8220f506b4de","ios":"levelo://app?vid=90b09f7c-4665-4372-8e70-8220f506b4de"},"vehicle_type_id":"4","last_reported":1730113694,"current_range_meters":8400,"station_id":"ce4bhkp2rcd13ifvqgd0","pricing_plan_id":"cebpf4jnsgd1na2vs0mg"},{"bike_id":"7501dbaf-a35e-4bd2-9151-59352e5a8638","system_id":"levelo_inurba_marseille","lat":43.23152,"lon":5.43701,"is_reserved":false,"is_disabled":false,"rental_uris":{"android":"levelo://app?vid=7501dbaf-a35e-4bd2-9151-59352e5a8638","ios":"levelo://app?vid=7501dbaf-a35e-4bd2-9151-59352e5a8638"},"vehicle_type_id":"4","last_reported":1730113694,"current_range_meters":9600,"station_id":"ce4bhmp2rcd13ifvqgog","pricing_plan_id":"cebpf4jnsgd1na2vs0mg"},{"bike_id":"d5732414-209a-4544-a5bd-7367072c5af8","system_id":"levelo_inurba_marseille","lat":43.30959,"lon":5.39032,"is_reserved":false,"is_disabled":false,"rental_uris":{"android":"levelo://app?vid=d5732414-209a-4544-a5bd-7367072c5af8","ios":"levelo://app?vid=d5732414-209a-4544-a5bd-7367072c5af8"},"vehicle_type_id":"4","last_reported":1730113694,"current_range_meters":6800,"station_id":"ce4bgup2rcd13ifvqco0","pricing_plan_id":"cebpf4jnsgd1na2vs0mg"},{"bike_id":"a8652586-bac3-4066-8349-87b461f05426","system_id":"levelo_inurba_marseille","lat":43.3031,"lon":5.36907,"is_reserved":false,"is_disabled":false,"rental_uris":{"android":"levelo://app?vid=a8652586-bac3-4066-8349-87b461f05426","ios":"levelo://app?vid=a8652586-bac3-4066-8349-87b461f05426"},"vehicle_type_id":"4","last_reported":1730113694,"current_range_meters":35200,"station_id":"ce4bgqh2rcd13ifvqc5g","pricing_plan_id":"cebpf4jnsgd1na2vs0mg"},{"bike_id":"a9baa0c0-5cf2-4ea6-83ef-70fd4819b4f5","system_id":"levelo_inurba_marseille","lat":43.3015,"lon":5.38075,"is_reserved":false,"is_disabled":false,"rental_uris":{"android":"levelo://app?vid=a9baa0c0-5cf2-4ea6-83ef-70fd4819b4f5","ios":"levelo://app?vid=a9baa0c0-5cf2-4ea6-83ef-70fd4819b4f5"},"vehicle_type_id":"4","last_reported":1730113694,"current_range_meters":32800,"station_id":"ce4bgjp2rcd13ifvqbh0","pricing_plan_id":"cebpf4jnsgd1na2vs0mg"},{"bike_id":"5bc177fb-129b-46be-ac40-7f71844031db","system_id":"levelo_inurba_marseille","lat":43.31492,"lon":5.37297,"is_reserved":false,"is_disabled":false,"rental_uris":{"android":"levelo://app?vid=5bc177fb-129b-46be-ac40-7f71844031db","ios":"levelo://app?vid=5bc177fb-129b-46be-ac40-7f71844031db"},"vehicle_type_id":"4","last_reported":1730113694,"current_range_meters":18800,"station_id":"ce4bgt12rcd13ifvqcd0","pricing_plan_id":"cebpf4jnsgd1na2vs0mg"},{"bike_id":"5e711337-835d-4074-8388-4b991a161973","system_id":"levelo_inurba_marseille","lat":43.3361,"lon":5.41026,"is_reserved":false,"is_disabled":false,"rental_uris":{"android":"levelo://app?vid=5e711337-835d-4074-8388-4b991a161973","ios":"levelo://app?vid=5e711337-835d-4074-8388-4b991a161973"},"vehicle_type_id":"4","last_reported":1730113694,"current_range_meters":21600,"station_id":"ce4bhqh2rcd13ifvqhmg","pricing_plan_id":"cebpf4jnsgd1na2vs0mg"},{"bike_id":"165632c2-bf24-4ddf-9b0c-1ac1684518ef","system_id":"levelo_inurba_marseille","lat":43.31355,"lon":5.36704,"is_reserved":false,"is_disabled":false,"rental_uris":{"android":"levelo://app?vid=165632c2-bf24-4ddf-9b0c-1ac1684518ef","ios":"levelo://app?vid=165632c2-bf24-4ddf-9b0c-1ac1684518ef"},"vehicle_type_id":"4","last_reported":1730113694,"current_range_meters":24000,"station_id":"ce4bgr92rcd13ifvqc6g","pricing_plan_id":"cebpf4jnsgd1na2vs0mg"},{"bike_id":"76a28f5b-ab00-4d04-a1f7-c957914a592c","system_id":"levelo_inurba_marseille","lat":43.27206,"lon":5.39189,"is_reserved":false,"is_disabled":false,"rental_uris":{"android":"levelo://app?vid=76a28f5b-ab00-4d04-a1f7-c957914a592c","ios":"levelo://app?vid=76a28f5b-ab00-4d04-a1f7-c957914a592c"},"vehicle_type_id":"4","last_reported":1730113694,"current_range_meters":38800,"station_id":"ce4bhhp2rcd13ifvqfm0","pricing_plan_id":"cebpf4jnsgd1na2vs0mg"},{"bike_id":"103a834a-f5fc-4b86-a259-85b4d0e93ed5","system_id":"levelo_inurba_marseille","lat":43.29601,"lon":5.38099,"is_reserved":false,"is_disabled":false,"rental_uris":{"android":"levelo://app?vid=103a834a-f5fc-4b86-a259-85b4d0e93ed5","ios":"levelo://app?vid=103a834a-f5fc-4b86-a259-85b4d0e93ed5"},"vehicle_type_id":"4","last_reported":1730113694,"current_range_meters":28800,"station_id":"ce4bgl12rcd13ifvqbo0","pricing_plan_id":"cebpf4jnsgd1na2vs0mg"},{"bike_id":"9a96df8b-c717-47d1-8afa-55d78e019a81","system_id":"levelo_inurba_marseille","lat":43.29898,"lon":5.43667,"is_reserved":false,"is_disabled":false,"rental_uris":{"android":"levelo://app?vid=9a96df8b-c717-47d1-8afa-55d78e019a81","ios":"levelo://app?vid=9a96df8b-c717-47d1-8afa-55d78e019a81"},"vehicle_type_id":"4","last_reported":1730113694,"current_range_meters":8800,"station_id":"ce4bhpp2rcd13ifvqhfg","pricing_plan_id":"cebpf4jnsgd1na2vs0mg"},{"bike_id":"6932c530-201c-4220-8821-2b76deed5b19","system_id":"levelo_inurba_marseille","lat":43.27808,"lon":5.40721,"is_reserved":false,"is_disabled":false,"rental_uris":{"android":"levelo://app?vid=6932c530-201c-4220-8821-2b76deed5b19","ios":"levelo://app?vid=6932c530-201c-4220-8821-2b76deed5b19"},"vehicle_type_id":"4","last_reported":1730113694,"current_range_meters":38000,"station_id":"ce4bhnh2rcd13ifvqgtg","pricing_plan_id":"cebpf4jnsgd1na2vs0mg"},{"bike_id":"7c5d9e63-7c01-42f6-b487-1279c2072d94","system_id":"levelo_inurba_marseille","lat":43.29973,"lon":5.3717,"is_reserved":false,"is_disabled":false,"rental_uris":{"android":"levelo://app?vid=7c5d9e63-7c01-42f6-b487-1279c2072d94","ios":"levelo://app?vid=7c5d9e63-7c01-42f6-b487-1279c2072d94"},"vehicle_type_id":"4","last_reported":1730113694,"current_range_meters":37600,"station_id":"ce4bgr92rcd13ifvqc7g","pricing_plan_id":"cebpf4jnsgd1na2vs0mg"},{"bike_id":"35690d1a-8da3-4c2f-bec0-3e6180bc86f4","system_id":"levelo_inurba_marseille","lat":43.291759,"lon":5.371474,"is_reserved":false,"is_disabled":false,"rental_uris":{"android":"levelo://app?vid=35690d1a-8da3-4c2f-bec0-3e6180bc86f4","ios":"levelo://app?vid=35690d1a-8da3-4c2f-bec0-3e6180bc86f4"},"vehicle_type_id":"4","last_reported":1730113694,"current_range_meters":38000,"station_id":"ce4bha92rcd13ifvqeh0","pricing_plan_id":"cebpf4jnsgd1na2vs0mg"},{"bike_id":"eb74aa32-c49d-4202-bac3-91a96c4d4783","system_id":"levelo_inurba_marseille","lat":43.30453,"lon":5.37904,"is_reserved":false,"is_disabled":false,"rental_uris":{"android":"levelo://app?vid=eb74aa32-c49d-4202-bac3-91a96c4d4783","ios":"levelo://app?vid=eb74aa32-c49d-4202-bac3-91a96c4d4783"},"vehicle_type_id":"4","last_reported":1730113694,"current_range_meters":38800,"station_id":"ce4bgup2rcd13ifvqcn0","pricing_plan_id":"cebpf4jnsgd1na2vs0mg"},{"bike_id":"d5a7f095-a887-4678-9bb0-78c39a987a18","system_id":"levelo_inurba_marseille","lat":43.31487,"lon":5.37308,"is_reserved":false,"is_disabled":false,"rental_uris":{"android":"levelo://app?vid=d5a7f095-a887-4678-9bb0-78c39a987a18","ios":"levelo://app?vid=d5a7f095-a887-4678-9bb0-78c39a987a18"},"vehicle_type_id":"4","last_reported":1730113694,"current_range_meters":32800,"station_id":"ce4bgt12rcd13ifvqcd0","pricing_plan_id":"cebpf4jnsgd1na2vs0mg"},{"bike_id":"84e374c4-fc62-498f-bc8b-cb0b8a3e0a0c","system_id":"levelo_inurba_marseille","lat":43.25726,"lon":5.41103,"is_reserved":false,"is_disabled":false,"rental_uris":{"android":"levelo://app?vid=84e374c4-fc62-498f-bc8b-cb0b8a3e0a0c","ios":"levelo://app?vid=84e374c4-fc62-498f-bc8b-cb0b8a3e0a0c"},"vehicle_type_id":"4","last_reported":1730113694,"current_range_meters":38000,"station_id":"ce4bhkp2rcd13ifvqgd0","pricing_plan_id":"cebpf4jnsgd1na2vs0mg"},{"bike_id":"fca4de4b-4cc2-4fad-9ba2-58c0350dc750","system_id":"levelo_inurba_marseille","lat":43.30284,"lon":5.37699,"is_reserved":false,"is_disabled":false,"rental_uris":{"android":"levelo://app?vid=fca4de4b-4cc2-4fad-9ba2-58c0350dc750","ios":"levelo://app?vid=fca4de4b-4cc2-4fad-9ba2-58c0350dc750"},"vehicle_type_id":"4","last_reported":1730113694,"current_range_meters":38400,"station_id":"ce4bguh2rcd13ifvqcj0","pricing_plan_id":"cebpf4jnsgd1na2vs0mg"},{"bike_id":"de1761df-00cd-42a2-ad1e-06e3eec9a0e2","system_id":"levelo_inurba_marseille","lat":43.28865,"lon":5.3931,"is_reserved":false,"is_disabled":false,"rental_uris":{"android":"levelo://app?vid=de1761df-00cd-42a2-ad1e-06e3eec9a0e2","ios":"levelo://app?vid=de1761df-00cd-42a2-ad1e-06e3eec9a0e2"},"vehicle_type_id":"4","last_reported":1730113694,"current_range_meters":3600,"station_id":"ce4bh2p2rcd13ifvqdi0","pricing_plan_id":"cebpf4jnsgd1na2vs0mg"},{"bike_id":"ed6e060d-fb3d-405c-a0f4-687bf8dc788f","system_id":"levelo_inurba_marseille","lat":43.30543,"lon":5.36725,"is_reserved":false,"is_disabled":false,"rental_uris":{"android":"levelo://app?vid=ed6e060d-fb3d-405c-a0f4-687bf8dc788f","ios":"levelo://app?vid=ed6e060d-fb3d-405c-a0f4-687bf8dc788f"},"vehicle_type_id":"4","last_reported":1730113694,"current_range_meters":32400,"station_id":"ce4bgrp2rcd13ifvqc9g","pricing_plan_id":"cebpf4jnsgd1na2vs0mg"},{"bike_id":"aa1a1363-75e0-4182-98c8-cc9078e29595","system_id":"levelo_inurba_marseille","lat":43.26569,"lon":5.3901,"is_reserved":false,"is_disabled":false,"rental_uris":{"android":"levelo://app?vid=aa1a1363-75e0-4182-98c8-cc9078e29595","ios":"levelo://app?vid=aa1a1363-75e0-4182-98c8-cc9078e29595"},"vehicle_type_id":"4","last_reported":1730113694,"current_range_meters":31200,"station_id":"ce4bhe12rcd13ifvqf30","pricing_plan_id":"cebpf4jnsgd1na2vs0mg"},{"bike_id":"3d54babd-579a-4340-a7a8-49cd9404389a","system_id":"levelo_inurba_marseille","lat":43.28265,"lon":5.35077,"is_reserved":false,"is_disabled":false,"rental_uris":{"android":"levelo://app?vid=3d54babd-579a-4340-a7a8-49cd9404389a","ios":"levelo://app?vid=3d54babd-579a-4340-a7a8-49cd9404389a"},"vehicle_type_id":"4","last_reported":1730113694,"current_range_meters":24000,"station_id":"ce4bhbp2rcd13ifvqerg","pricing_plan_id":"cebpf4jnsgd1na2vs0mg"},{"bike_id":"f38c0e30-21f0-48de-9d7a-efe2a605c968","system_id":"levelo_inurba_marseille","lat":43.24071,"lon":5.37763,"is_reserved":false,"is_disabled":false,"rental_uris":{"android":"levelo://app?vid=f38c0e30-21f0-48de-9d7a-efe2a605c968","ios":"levelo://app?vid=f38c0e30-21f0-48de-9d7a-efe2a605c968"},"vehicle_type_id":"4","last_reported":1730113694,"current_range_meters":17200,"station_id":"ce4bhgh2rcd13ifvqfa0","pricing_plan_id":"cebpf4jnsgd1na2vs0mg"},{"bike_id":"2ab6a876-b383-42be-8174-3b09d00c2764","system_id":"levelo_inurba_marseille","lat":43.22929,"lon":5.35373,"is_reserved":false,"is_disabled":false,"rental_uris":{"android":"levelo://app?vid=2ab6a876-b383-42be-8174-3b09d00c2764","ios":"levelo://app?vid=2ab6a876-b383-42be-8174-3b09d00c2764"},"vehicle_type_id":"4","last_reported":1730113694,"current_range_meters":36800,"station_id":"cpo3532slgdg3j2ikp40","pricing_plan_id":"cebpf4jnsgd1na2vs0mg"},{"bike_id":"61da5b52-ac74-461a-95d5-143a6b50af3a","system_id":"levelo_inurba_marseille","lat":43.28429,"lon":5.34991,"is_reserved":false,"is_disabled":false,"rental_uris":{"android":"levelo://app?vid=61da5b52-ac74-461a-95d5-143a6b50af3a","ios":"levelo://app?vid=61da5b52-ac74-461a-95d5-143a6b50af3a"},"vehicle_type_id":"4","last_reported":1730113694,"current_range_meters":38800,"station_id":"ce4bhbh2rcd13ifvqepg","pricing_plan_id":"cebpf4jnsgd1na2vs0mg"},{"bike_id":"e9d2627b-0323-4f6a-bb61-f8fed2e2d6e2","system_id":"levelo_inurba_marseille","lat":43.24181,"lon":5.39719,"is_reserved":false,"is_disabled":false,"rental_uris":{"android":"levelo://app?vid=e9d2627b-0323-4f6a-bb61-f8fed2e2d6e2","ios":"levelo://app?vid=e9d2627b-0323-4f6a-bb61-f8fed2e2d6e2"},"vehicle_type_id":"4","last_reported":1730113694,"current_range_meters":9200,"station_id":"ce4bhn12rcd13ifvqgpg","pricing_plan_id":"cebpf4jnsgd1na2vs0mg"},{"bike_id":"74fa9a35-f25f-4514-99bb-79d58e39b732","system_id":"levelo_inurba_marseille","lat":43.29273,"lon":5.36846,"is_reserved":false,"is_disabled":false,"rental_uris":{"android":"levelo://app?vid=74fa9a35-f25f-4514-99bb-79d58e39b732","ios":"levelo://app?vid=74fa9a35-f25f-4514-99bb-79d58e39b732"},"vehicle_type_id":"4","last_reported":1730113694,"current_range_meters":26000,"station_id":"ce4bhbp2rcd13ifvqesg","pricing_plan_id":"cebpf4jnsgd1na2vs0mg"},{"bike_id":"80a3fad4-733d-4e21-a8c3-b037be64cb4c","system_id":"levelo_inurba_marseille","lat":43.28942,"lon":5.39632,"is_reserved":false,"is_disabled":false,"rental_uris":{"android":"levelo://app?vid=80a3fad4-733d-4e21-a8c3-b037be64cb4c","ios":"levelo://app?vid=80a3fad4-733d-4e21-a8c3-b037be64cb4c"},"vehicle_type_id":"4","last_reported":1730113694,"current_range_meters":29600,"station_id":"ce4bh3h2rcd13ifvqdn0","pricing_plan_id":"cebpf4jnsgd1na2vs0mg"},{"bike_id":"6891ef11-f9a7-480f-8e9f-d5738331b960","system_id":"levelo_inurba_marseille","lat":43.28973,"lon":5.37837,"is_reserved":false,"is_disabled":false,"rental_uris":{"android":"levelo://app?vid=6891ef11-f9a7-480f-8e9f-d5738331b960","ios":"levelo://app?vid=6891ef11-f9a7-480f-8e9f-d5738331b960"},"vehicle_type_id":"4","last_reported":1730113694,"current_range_meters":12800,"station_id":"ce4bh9p2rcd13ifvqed0","pricing_plan_id":"cebpf4jnsgd1na2vs0mg"},{"bike_id":"e9f0dc8a-d4b4-4a2a-b015-cbe601ee1dab","system_id":"levelo_inurba_marseille","lat":43.26554,"lon":5.37281,"is_reserved":false,"is_disabled":false,"rental_uris":{"android":"levelo://app?vid=e9f0dc8a-d4b4-4a2a-b015-cbe601ee1dab","ios":"levelo://app?vid=e9f0dc8a-d4b4-4a2a-b015-cbe601ee1dab"},"vehicle_type_id":"4","last_reported":1730113694,"current_range_meters":9600,"station_id":"ce4bhg12rcd13ifvqf70","pricing_plan_id":"cebpf4jnsgd1na2vs0mg"},{"bike_id":"ed785196-fb1d-4e58-8a59-6a72855b725b","system_id":"levelo_inurba_marseille","lat":43.30209,"lon":5.39465,"is_reserved":false,"is_disabled":false,"rental_uris":{"android":"levelo://app?vid=ed785196-fb1d-4e58-8a59-6a72855b725b","ios":"levelo://app?vid=ed785196-fb1d-4e58-8a59-6a72855b725b"},"vehicle_type_id":"4","last_reported":1730113694,"current_range_meters":34800,"station_id":"ce4bh0p2rcd13ifvqd70","pricing_plan_id":"cebpf4jnsgd1na2vs0mg"},{"bike_id":"d1dacee6-8f47-4ca5-823b-a2ea6c3413e8","system_id":"levelo_inurba_marseille","lat":43.23193,"lon":5.35553,"is_reserved":false,"is_disabled":false,"rental_uris":{"android":"levelo://app?vid=d1dacee6-8f47-4ca5-823b-a2ea6c3413e8","ios":"levelo://app?vid=d1dacee6-8f47-4ca5-823b-a2ea6c3413e8"},"vehicle_type_id":"4","last_reported":1730113694,"current_range_meters":38800,"station_id":"ce4bhu92rcd13ifvqi70","pricing_plan_id":"cebpf4jnsgd1na2vs0mg"},{"bike_id":"e562a7e7-b0c1-42aa-b5c4-9e90ac66f06f","system_id":"levelo_inurba_marseille","lat":43.29561,"lon":5.37508,"is_reserved":false,"is_disabled":false,"rental_uris":{"android":"levelo://app?vid=e562a7e7-b0c1-42aa-b5c4-9e90ac66f06f","ios":"levelo://app?vid=e562a7e7-b0c1-42aa-b5c4-9e90ac66f06f"},"vehicle_type_id":"4","last_reported":1730113694,"current_range_meters":36400,"station_id":"ce4bgh92rcd13ifvqb50","pricing_plan_id":"cebpf4jnsgd1na2vs0mg"},{"bike_id":"c098f11d-d79d-4077-ac98-74d9579435b8","system_id":"levelo_inurba_marseille","lat":43.2315,"lon":5.43714,"is_reserved":false,"is_disabled":false,"rental_uris":{"android":"levelo://app?vid=c098f11d-d79d-4077-ac98-74d9579435b8","ios":"levelo://app?vid=c098f11d-d79d-4077-ac98-74d9579435b8"},"vehicle_type_id":"4","last_reported":1730113694,"current_range_meters":4800,"station_id":"ce4bhmp2rcd13ifvqgog","pricing_plan_id":"cebpf4jnsgd1na2vs0mg"},{"bike_id":"0f7f731e-6ab7-4d25-a3a0-eb7f0800dfd6","system_id":"levelo_inurba_marseille","lat":43.29584,"lon":5.37628,"is_reserved":false,"is_disabled":false,"rental_uris":{"android":"levelo://app?vid=0f7f731e-6ab7-4d25-a3a0-eb7f0800dfd6","ios":"levelo://app?vid=0f7f731e-6ab7-4d25-a3a0-eb7f0800dfd6"},"vehicle_type_id":"4","last_reported":1730113694,"current_range_meters":38000,"station_id":"ce4bgi12rcd13ifvqb70","pricing_plan_id":"cebpf4jnsgd1na2vs0mg"},{"bike_id":"062c37a5-8c98-4262-a368-0baffa13b81a","system_id":"levelo_inurba_marseille","lat":43.2955,"lon":5.42287,"is_reserved":false,"is_disabled":false,"rental_uris":{"android":"levelo://app?vid=062c37a5-8c98-4262-a368-0baffa13b81a","ios":"levelo://app?vid=062c37a5-8c98-4262-a368-0baffa13b81a"},"vehicle_type_id":"4","last_reported":1730113694,"current_range_meters":18000,"station_id":"ce4bhph2rcd13ifvqhdg","pricing_plan_id":"cebpf4jnsgd1na2vs0mg"},{"bike_id":"542089d5-67d6-4682-8e76-e72d35898937","system_id":"levelo_inurba_marseille","lat":43.29518,"lon":5.39036,"is_reserved":false,"is_disabled":false,"rental_uris":{"android":"levelo://app?vid=542089d5-67d6-4682-8e76-e72d35898937","ios":"levelo://app?vid=542089d5-67d6-4682-8e76-e72d35898937"},"vehicle_type_id":"4","last_reported":1730113694,"current_range_meters":36800,"station_id":"ce4bh3p2rcd13ifvqdp0","pricing_plan_id":"cebpf4jnsgd1na2vs0mg"},{"bike_id":"af5db991-9eda-4a3b-8073-673671384abf","system_id":"levelo_inurba_marseille","lat":43.30953,"lon":5.39041,"is_reserved":false,"is_disabled":false,"rental_uris":{"android":"levelo://app?vid=af5db991-9eda-4a3b-8073-673671384abf","ios":"levelo://app?vid=af5db991-9eda-4a3b-8073-673671384abf"},"vehicle_type_id":"4","last_reported":1730113694,"current_range_meters":14400,"station_id":"ce4bgup2rcd13ifvqco0","pricing_plan_id":"cebpf4jnsgd1na2vs0mg"},{"bike_id":"8aaeb9b5-794f-423c-8c0a-bb1786925967","system_id":"levelo_inurba_marseille","lat":43.29258,"lon":5.36849,"is_reserved":false,"is_disabled":false,"rental_uris":{"android":"levelo://app?vid=8aaeb9b5-794f-423c-8c0a-bb1786925967","ios":"levelo://app?vid=8aaeb9b5-794f-423c-8c0a-bb1786925967"},"vehicle_type_id":"4","last_reported":1730113694,"current_range_meters":32000,"station_id":"ce4bhbp2rcd13ifvqesg","pricing_plan_id":"cebpf4jnsgd1na2vs0mg"},{"bike_id":"f166fcae-cd80-4a8e-9519-64e16d8dd52c","system_id":"levelo_inurba_marseille","lat":43.30915,"lon":5.36852,"is_reserved":false,"is_disabled":false,"rental_uris":{"android":"levelo://app?vid=f166fcae-cd80-4a8e-9519-64e16d8dd52c","ios":"levelo://app?vid=f166fcae-cd80-4a8e-9519-64e16d8dd52c"},"vehicle_type_id":"4","last_reported":1730113694,"current_range_meters":28400,"station_id":"ce4bgn92rcd13ifvqbvg","pricing_plan_id":"cebpf4jnsgd1na2vs0mg"},{"bike_id":"b953eceb-3ed9-4394-8d28-9bc7a648a5cb","system_id":"levelo_inurba_marseille","lat":43.23153,"lon":5.43709,"is_reserved":false,"is_disabled":false,"rental_uris":{"android":"levelo://app?vid=b953eceb-3ed9-4394-8d28-9bc7a648a5cb","ios":"levelo://app?vid=b953eceb-3ed9-4394-8d28-9bc7a648a5cb"},"vehicle_type_id":"4","last_reported":1730113694,"current_range_meters":14400,"station_id":"ce4bhmp2rcd13ifvqgog","pricing_plan_id":"cebpf4jnsgd1na2vs0mg"},{"bike_id":"662cd550-d576-4dfb-836b-d4a09502c2bc","system_id":"levelo_inurba_marseille","lat":43.31074,"lon":5.3835,"is_reserved":false,"is_disabled":false,"rental_uris":{"android":"levelo://app?vid=662cd550-d576-4dfb-836b-d4a09502c2bc","ios":"levelo://app?vid=662cd550-d576-4dfb-836b-d4a09502c2bc"},"vehicle_type_id":"4","last_reported":1730113694,"current_range_meters":36400,"station_id":"ce4bgv92rcd13ifvqcr0","pricing_plan_id":"cebpf4jnsgd1na2vs0mg"},{"bike_id":"27e3a7bb-7b04-400a-870d-a8cc40d1b96c","system_id":"levelo_inurba_marseille","lat":43.2893,"lon":5.35736,"is_reserved":false,"is_disabled":false,"rental_uris":{"android":"levelo://app?vid=27e3a7bb-7b04-400a-870d-a8cc40d1b96c","ios":"levelo://app?vid=27e3a7bb-7b04-400a-870d-a8cc40d1b96c"},"vehicle_type_id":"4","last_reported":1730113694,"current_range_meters":24800,"station_id":"ce4bhb92rcd13ifvqen0","pricing_plan_id":"cebpf4jnsgd1na2vs0mg"},{"bike_id":"19ac41ae-a7f3-410b-9bc3-f68db55f98cd","system_id":"levelo_inurba_marseille","lat":43.27371,"lon":5.36256,"is_reserved":false,"is_disabled":false,"rental_uris":{"android":"levelo://app?vid=19ac41ae-a7f3-410b-9bc3-f68db55f98cd","ios":"levelo://app?vid=19ac41ae-a7f3-410b-9bc3-f68db55f98cd"},"vehicle_type_id":"4","last_reported":1730113694,"current_range_meters":8800,"station_id":"ce4bhbh2rcd13ifvqeo0","pricing_plan_id":"cebpf4jnsgd1na2vs0mg"},{"bike_id":"6875a1a6-32b9-4783-93f5-84a3a0c85f67","system_id":"levelo_inurba_marseille","lat":43.23066,"lon":5.35491,"is_reserved":false,"is_disabled":false,"rental_uris":{"android":"levelo://app?vid=6875a1a6-32b9-4783-93f5-84a3a0c85f67","ios":"levelo://app?vid=6875a1a6-32b9-4783-93f5-84a3a0c85f67"},"vehicle_type_id":"4","last_reported":1730113694,"current_range_meters":19600,"station_id":"cpo3342slgdg3j2ifvpg","pricing_plan_id":"cebpf4jnsgd1na2vs0mg"},{"bike_id":"e19a5d1d-78c1-418f-b6f1-dee67bab9890","system_id":"levelo_inurba_marseille","lat":43.25583,"lon":5.3823,"is_reserved":false,"is_disabled":false,"rental_uris":{"android":"levelo://app?vid=e19a5d1d-78c1-418f-b6f1-dee67bab9890","ios":"levelo://app?vid=e19a5d1d-78c1-418f-b6f1-dee67bab9890"},"vehicle_type_id":"4","last_reported":1730113694,"current_range_meters":36000,"station_id":"ce4bhih2rcd13ifvqfs0","pricing_plan_id":"cebpf4jnsgd1na2vs0mg"},{"bike_id":"e89036ab-06cb-459b-91f1-830ff3435de6","system_id":"levelo_inurba_marseille","lat":43.23196,"lon":5.35549,"is_reserved":false,"is_disabled":false,"rental_uris":{"android":"levelo://app?vid=e89036ab-06cb-459b-91f1-830ff3435de6","ios":"levelo://app?vid=e89036ab-06cb-459b-91f1-830ff3435de6"},"vehicle_type_id":"4","last_reported":1730113694,"current_range_meters":37600,"station_id":"ce4bhu92rcd13ifvqi70","pricing_plan_id":"cebpf4jnsgd1na2vs0mg"},{"bike_id":"b1d55027-2f8a-47e1-9245-9ac2ee1613ea","system_id":"levelo_inurba_marseille","lat":43.30887,"lon":5.37184,"is_reserved":false,"is_disabled":false,"rental_uris":{"android":"levelo://app?vid=b1d55027-2f8a-47e1-9245-9ac2ee1613ea","ios":"levelo://app?vid=b1d55027-2f8a-47e1-9245-9ac2ee1613ea"},"vehicle_type_id":"4","last_reported":1730113694,"current_range_meters":19600,"station_id":"ce4bguh2rcd13ifvqckg","pricing_plan_id":"cebpf4jnsgd1na2vs0mg"},{"bike_id":"e7643966-1d67-4e1a-9d97-5a321bf7224e","system_id":"levelo_inurba_marseille","lat":43.33764,"lon":5.37439,"is_reserved":false,"is_disabled":false,"rental_uris":{"android":"levelo://app?vid=e7643966-1d67-4e1a-9d97-5a321bf7224e","ios":"levelo://app?vid=e7643966-1d67-4e1a-9d97-5a321bf7224e"},"vehicle_type_id":"4","last_reported":1730113694,"current_range_meters":34800,"station_id":"","pricing_plan_id":"cebpf4jnsgd1na2vs0mg"},{"bike_id":"7fe76d9c-88a1-4c85-8e5f-9f86d7557849","system_id":"levelo_inurba_marseille","lat":43.23145,"lon":5.43713,"is_reserved":false,"is_disabled":false,"rental_uris":{"android":"levelo://app?vid=7fe76d9c-88a1-4c85-8e5f-9f86d7557849","ios":"levelo://app?vid=7fe76d9c-88a1-4c85-8e5f-9f86d7557849"},"vehicle_type_id":"4","last_reported":1730113694,"current_range_meters":21600,"station_id":"ce4bhmp2rcd13ifvqgog","pricing_plan_id":"cebpf4jnsgd1na2vs0mg"},{"bike_id":"5d013205-968f-46f0-8cb2-f55d13ad5ff4","system_id":"levelo_inurba_marseille","lat":43.32483,"lon":5.36568,"is_reserved":false,"is_disabled":false,"rental_uris":{"android":"levelo://app?vid=5d013205-968f-46f0-8cb2-f55d13ad5ff4","ios":"levelo://app?vid=5d013205-968f-46f0-8cb2-f55d13ad5ff4"},"vehicle_type_id":"4","last_reported":1730113694,"current_range_meters":37600,"station_id":"ce4bhs12rcd13ifvqhvg","pricing_plan_id":"cebpf4jnsgd1na2vs0mg"},{"bike_id":"d27b705b-74d8-4d3a-8224-09965c117aa2","system_id":"levelo_inurba_marseille","lat":43.33731,"lon":5.39186,"is_reserved":false,"is_disabled":false,"rental_uris":{"android":"levelo://app?vid=d27b705b-74d8-4d3a-8224-09965c117aa2","ios":"levelo://app?vid=d27b705b-74d8-4d3a-8224-09965c117aa2"},"vehicle_type_id":"4","last_reported":1730113694,"current_range_meters":34800,"station_id":"ce4bhr92rcd13ifvqhsg","pricing_plan_id":"cebpf4jnsgd1na2vs0mg"},{"bike_id":"4aee1b18-b4c8-4ec8-a58f-6833accd77f8","system_id":"levelo_inurba_marseille","lat":43.2418,"lon":5.39717,"is_reserved":false,"is_disabled":false,"rental_uris":{"android":"levelo://app?vid=4aee1b18-b4c8-4ec8-a58f-6833accd77f8","ios":"levelo://app?vid=4aee1b18-b4c8-4ec8-a58f-6833accd77f8"},"vehicle_type_id":"4","last_reported":1730113694,"current_range_meters":18000,"station_id":"ce4bhn12rcd13ifvqgpg","pricing_plan_id":"cebpf4jnsgd1na2vs0mg"},{"bike_id":"84025638-7bd9-4363-8dd5-d0c493e669fe","system_id":"levelo_inurba_marseille","lat":43.29269,"lon":5.36851,"is_reserved":false,"is_disabled":false,"rental_uris":{"android":"levelo://app?vid=84025638-7bd9-4363-8dd5-d0c493e669fe","ios":"levelo://app?vid=84025638-7bd9-4363-8dd5-d0c493e669fe"},"vehicle_type_id":"4","last_reported":1730113694,"current_range_meters":24000,"station_id":"ce4bhbp2rcd13ifvqesg","pricing_plan_id":"cebpf4jnsgd1na2vs0mg"},{"bike_id":"07c10780-72be-44ce-82cf-878e6609e45b","system_id":"levelo_inurba_marseille","lat":43.29715,"lon":5.37684,"is_reserved":false,"is_disabled":false,"rental_uris":{"android":"levelo://app?vid=07c10780-72be-44ce-82cf-878e6609e45b","ios":"levelo://app?vid=07c10780-72be-44ce-82cf-878e6609e45b"},"vehicle_type_id":"4","last_reported":1730113694,"current_range_meters":36000,"station_id":"ce4bgkh2rcd13ifvqbl0","pricing_plan_id":"cebpf4jnsgd1na2vs0mg"},{"bike_id":"c9f299e7-44b3-4adc-a93d-769d4eadb8bd","system_id":"levelo_inurba_marseille","lat":43.23151,"lon":5.43727,"is_reserved":false,"is_disabled":false,"rental_uris":{"android":"levelo://app?vid=c9f299e7-44b3-4adc-a93d-769d4eadb8bd","ios":"levelo://app?vid=c9f299e7-44b3-4adc-a93d-769d4eadb8bd"},"vehicle_type_id":"4","last_reported":1730113694,"current_range_meters":34000,"station_id":"ce4bhmp2rcd13ifvqgog","pricing_plan_id":"cebpf4jnsgd1na2vs0mg"},{"bike_id":"f509f211-9808-4302-b3b5-97ea40c470b5","system_id":"levelo_inurba_marseille","lat":43.29928,"lon":5.3654,"is_reserved":false,"is_disabled":false,"rental_uris":{"android":"levelo://app?vid=f509f211-9808-4302-b3b5-97ea40c470b5","ios":"levelo://app?vid=f509f211-9808-4302-b3b5-97ea40c470b5"},"vehicle_type_id":"4","last_reported":1730113694,"current_range_meters":28000,"station_id":"ce4bgm92rcd13ifvqbr0","pricing_plan_id":"cebpf4jnsgd1na2vs0mg"},{"bike_id":"8b1435f2-e9dd-44c1-a5f6-f4cfccf31c9f","system_id":"levelo_inurba_marseille","lat":43.33117,"lon":5.38212,"is_reserved":false,"is_disabled":false,"rental_uris":{"android":"levelo://app?vid=8b1435f2-e9dd-44c1-a5f6-f4cfccf31c9f","ios":"levelo://app?vid=8b1435f2-e9dd-44c1-a5f6-f4cfccf31c9f"},"vehicle_type_id":"4","last_reported":1730113694,"current_range_meters":30000,"station_id":"","pricing_plan_id":"cebpf4jnsgd1na2vs0mg"},{"bike_id":"1959dbd9-0ee0-478d-a3dc-b3a0dfb37df2","system_id":"levelo_inurba_marseille","lat":43.30533,"lon":5.36534,"is_reserved":false,"is_disabled":false,"rental_uris":{"android":"levelo://app?vid=1959dbd9-0ee0-478d-a3dc-b3a0dfb37df2","ios":"levelo://app?vid=1959dbd9-0ee0-478d-a3dc-b3a0dfb37df2"},"vehicle_type_id":"4","last_reported":1730113694,"current_range_meters":35600,"station_id":"ce4bgs12rcd13ifvqcag","pricing_plan_id":"cebpf4jnsgd1na2vs0mg"},{"bike_id":"ac54c711-9c7f-4346-b1bd-7b0862fab3bb","system_id":"levelo_inurba_marseille","lat":43.3096,"lon":5.39031,"is_reserved":false,"is_disabled":false,"rental_uris":{"android":"levelo://app?vid=ac54c711-9c7f-4346-b1bd-7b0862fab3bb","ios":"levelo://app?vid=ac54c711-9c7f-4346-b1bd-7b0862fab3bb"},"vehicle_type_id":"4","last_reported":1730113694,"current_range_meters":6000,"station_id":"ce4bgup2rcd13ifvqco0","pricing_plan_id":"cebpf4jnsgd1na2vs0mg"},{"bike_id":"0fcab961-428f-4826-82c1-3801d353edc1","system_id":"levelo_inurba_marseille","lat":43.23154,"lon":5.43702,"is_reserved":false,"is_disabled":false,"rental_uris":{"android":"levelo://app?vid=0fcab961-428f-4826-82c1-3801d353edc1","ios":"levelo://app?vid=0fcab961-428f-4826-82c1-3801d353edc1"},"vehicle_type_id":"4","last_reported":1730113694,"current_range_meters":3600,"station_id":"ce4bhmp2rcd13ifvqgog","pricing_plan_id":"cebpf4jnsgd1na2vs0mg"},{"bike_id":"772ddeed-323f-47d4-a64e-1cd7e26706d3","system_id":"levelo_inurba_marseille","lat":43.30438,"lon":5.38892,"is_reserved":false,"is_disabled":false,"rental_uris":{"android":"levelo://app?vid=772ddeed-323f-47d4-a64e-1cd7e26706d3","ios":"levelo://app?vid=772ddeed-323f-47d4-a64e-1cd7e26706d3"},"vehicle_type_id":"4","last_reported":1730113694,"current_range_meters":24400,"station_id":"ce4bgk12rcd13ifvqbi0","pricing_plan_id":"cebpf4jnsgd1na2vs0mg"},{"bike_id":"ef915c69-a746-473b-bdc6-ca2cdbe5bac9","system_id":"levelo_inurba_marseille","lat":43.32291,"lon":5.38277,"is_reserved":false,"is_disabled":false,"rental_uris":{"android":"levelo://app?vid=ef915c69-a746-473b-bdc6-ca2cdbe5bac9","ios":"levelo://app?vid=ef915c69-a746-473b-bdc6-ca2cdbe5bac9"},"vehicle_type_id":"4","last_reported":1730113694,"current_range_meters":38800,"station_id":"ce4bhr12rcd13ifvqhqg","pricing_plan_id":"cebpf4jnsgd1na2vs0mg"},{"bike_id":"6e4158cd-dbb8-468e-827a-350a592e6481","system_id":"levelo_inurba_marseille","lat":43.3014,"lon":5.37422,"is_reserved":false,"is_disabled":false,"rental_uris":{"android":"levelo://app?vid=6e4158cd-dbb8-468e-827a-350a592e6481","ios":"levelo://app?vid=6e4158cd-dbb8-468e-827a-350a592e6481"},"vehicle_type_id":"4","last_reported":1730113694,"current_range_meters":24000,"station_id":"ce4bgs92rcd13ifvqcc0","pricing_plan_id":"cebpf4jnsgd1na2vs0mg"},{"bike_id":"cd8988cf-34e0-4cd8-92c1-67d3cd8c964e","system_id":"levelo_inurba_marseille","lat":43.23974,"lon":5.36612,"is_reserved":false,"is_disabled":false,"rental_uris":{"android":"levelo://app?vid=cd8988cf-34e0-4cd8-92c1-67d3cd8c964e","ios":"levelo://app?vid=cd8988cf-34e0-4cd8-92c1-67d3cd8c964e"},"vehicle_type_id":"4","last_reported":1730113694,"current_range_meters":10800,"station_id":"ce4bhi12rcd13ifvqfp0","pricing_plan_id":"cebpf4jnsgd1na2vs0mg"},{"bike_id":"eddeac4f-e623-438d-9cc0-6f5c23813c94","system_id":"levelo_inurba_marseille","lat":43.30553,"lon":5.36551,"is_reserved":false,"is_disabled":false,"rental_uris":{"android":"levelo://app?vid=eddeac4f-e623-438d-9cc0-6f5c23813c94","ios":"levelo://app?vid=eddeac4f-e623-438d-9cc0-6f5c23813c94"},"vehicle_type_id":"4","last_reported":1730113694,"current_range_meters":22800,"station_id":"ce4bgs12rcd13ifvqcag","pricing_plan_id":"cebpf4jnsgd1na2vs0mg"},{"bike_id":"24c053cc-373c-4d62-8b09-84a4d2361cd9","system_id":"levelo_inurba_marseille","lat":43.31344,"lon":5.36724,"is_reserved":false,"is_disabled":false,"rental_uris":{"android":"levelo://app?vid=24c053cc-373c-4d62-8b09-84a4d2361cd9","ios":"levelo://app?vid=24c053cc-373c-4d62-8b09-84a4d2361cd9"},"vehicle_type_id":"4","last_reported":1730113694,"current_range_meters":38800,"station_id":"ce4bgr92rcd13ifvqc6g","pricing_plan_id":"cebpf4jnsgd1na2vs0mg"},{"bike_id":"1b9bf462-0f74-47dd-87bf-5f5ca803ccff","system_id":"levelo_inurba_marseille","lat":43.26799,"lon":5.40266,"is_reserved":false,"is_disabled":false,"rental_uris":{"android":"levelo://app?vid=1b9bf462-0f74-47dd-87bf-5f5ca803ccff","ios":"levelo://app?vid=1b9bf462-0f74-47dd-87bf-5f5ca803ccff"},"vehicle_type_id":"4","last_reported":1730113694,"current_range_meters":38000,"station_id":"ce501612rcd8frsf0b60","pricing_plan_id":"cebpf4jnsgd1na2vs0mg"},{"bike_id":"eea34013-424f-4dc3-b864-a9a37cd72050","system_id":"levelo_inurba_marseille","lat":43.28611,"lon":5.37069,"is_reserved":false,"is_disabled":false,"rental_uris":{"android":"levelo://app?vid=eea34013-424f-4dc3-b864-a9a37cd72050","ios":"levelo://app?vid=eea34013-424f-4dc3-b864-a9a37cd72050"},"vehicle_type_id":"4","last_reported":1730113694,"current_range_meters":9200,"station_id":"ce4bht12rcd13ifvqi60","pricing_plan_id":"cebpf4jnsgd1na2vs0mg"},{"bike_id":"ed359f0a-e127-4b75-a938-306e58651b29","system_id":"levelo_inurba_marseille","lat":43.30291,"lon":5.37697,"is_reserved":false,"is_disabled":false,"rental_uris":{"android":"levelo://app?vid=ed359f0a-e127-4b75-a938-306e58651b29","ios":"levelo://app?vid=ed359f0a-e127-4b75-a938-306e58651b29"},"vehicle_type_id":"4","last_reported":1730113694,"current_range_meters":24800,"station_id":"ce4bguh2rcd13ifvqcj0","pricing_plan_id":"cebpf4jnsgd1na2vs0mg"},{"bike_id":"c259bf6b-2a32-45bd-889b-a3fa583c8867","system_id":"levelo_inurba_marseille","lat":43.29257,"lon":5.36848,"is_reserved":false,"is_disabled":false,"rental_uris":{"android":"levelo://app?vid=c259bf6b-2a32-45bd-889b-a3fa583c8867","ios":"levelo://app?vid=c259bf6b-2a32-45bd-889b-a3fa583c8867"},"vehicle_type_id":"4","last_reported":1730113694,"current_range_meters":28400,"station_id":"ce4bhbp2rcd13ifvqesg","pricing_plan_id":"cebpf4jnsgd1na2vs0mg"},{"bike_id":"bea43885-0856-455e-ac3f-50e3c52f4d9e","system_id":"levelo_inurba_marseille","lat":43.25106,"lon":5.40318,"is_reserved":false,"is_disabled":false,"rental_uris":{"android":"levelo://app?vid=bea43885-0856-455e-ac3f-50e3c52f4d9e","ios":"levelo://app?vid=bea43885-0856-455e-ac3f-50e3c52f4d9e"},"vehicle_type_id":"4","last_reported":1730113694,"current_range_meters":36800,"station_id":"ce4bhlh2rcd13ifvqgig","pricing_plan_id":"cebpf4jnsgd1na2vs0mg"},{"bike_id":"b863e791-dd48-46a4-b638-14ddd3ae6e32","system_id":"levelo_inurba_marseille","lat":43.32342,"lon":5.40618,"is_reserved":false,"is_disabled":false,"rental_uris":{"android":"levelo://app?vid=b863e791-dd48-46a4-b638-14ddd3ae6e32","ios":"levelo://app?vid=b863e791-dd48-46a4-b638-14ddd3ae6e32"},"vehicle_type_id":"4","last_reported":1730113694,"current_range_meters":10800,"station_id":"ce4bhq92rcd13ifvqhjg","pricing_plan_id":"cebpf4jnsgd1na2vs0mg"},{"bike_id":"aacb3cb6-ebb2-4c9a-9d59-1efc9a1b694e","system_id":"levelo_inurba_marseille","lat":43.25103,"lon":5.40323,"is_reserved":false,"is_disabled":false,"rental_uris":{"android":"levelo://app?vid=aacb3cb6-ebb2-4c9a-9d59-1efc9a1b694e","ios":"levelo://app?vid=aacb3cb6-ebb2-4c9a-9d59-1efc9a1b694e"},"vehicle_type_id":"4","last_reported":1730113694,"current_range_meters":8800,"station_id":"ce4bhlh2rcd13ifvqgig","pricing_plan_id":"cebpf4jnsgd1na2vs0mg"},{"bike_id":"fe0f4ad9-8221-48ed-be5d-c64547a2f47a","system_id":"levelo_inurba_marseille","lat":43.286343,"lon":5.383493,"is_reserved":false,"is_disabled":false,"rental_uris":{"android":"levelo://app?vid=fe0f4ad9-8221-48ed-be5d-c64547a2f47a","ios":"levelo://app?vid=fe0f4ad9-8221-48ed-be5d-c64547a2f47a"},"vehicle_type_id":"4","last_reported":1730113694,"current_range_meters":23200,"station_id":"ce4bh4p2rcd13ifvqe1g","pricing_plan_id":"cebpf4jnsgd1na2vs0mg"},{"bike_id":"9adafdd8-3240-48a9-a8cf-b77695dc96b2","system_id":"levelo_inurba_marseille","lat":43.32371,"lon":5.38876,"is_reserved":false,"is_disabled":false,"rental_uris":{"android":"levelo://app?vid=9adafdd8-3240-48a9-a8cf-b77695dc96b2","ios":"levelo://app?vid=9adafdd8-3240-48a9-a8cf-b77695dc96b2"},"vehicle_type_id":"4","last_reported":1730113694,"current_range_meters":37600,"station_id":"ce4bhqp2rcd13ifvqhog","pricing_plan_id":"cebpf4jnsgd1na2vs0mg"},{"bike_id":"8d66ba2e-e771-4c67-99ad-ef2d113002e3","system_id":"levelo_inurba_marseille","lat":43.25082,"lon":5.39517,"is_reserved":false,"is_disabled":false,"rental_uris":{"android":"levelo://app?vid=8d66ba2e-e771-4c67-99ad-ef2d113002e3","ios":"levelo://app?vid=8d66ba2e-e771-4c67-99ad-ef2d113002e3"},"vehicle_type_id":"4","last_reported":1730113694,"current_range_meters":39200,"station_id":"ce4bhm12rcd13ifvqgkg","pricing_plan_id":"cebpf4jnsgd1na2vs0mg"},{"bike_id":"8d2ef424-a5a8-454f-8a85-bd382fed8ac4","system_id":"levelo_inurba_marseille","lat":43.30556,"lon":5.36536,"is_reserved":false,"is_disabled":false,"rental_uris":{"android":"levelo://app?vid=8d2ef424-a5a8-454f-8a85-bd382fed8ac4","ios":"levelo://app?vid=8d2ef424-a5a8-454f-8a85-bd382fed8ac4"},"vehicle_type_id":"4","last_reported":1730113694,"current_range_meters":38000,"station_id":"ce4bgs12rcd13ifvqcag","pricing_plan_id":"cebpf4jnsgd1na2vs0mg"},{"bike_id":"b8e13f61-7a01-4802-ab99-1fc57e8e466f","system_id":"levelo_inurba_marseille","lat":43.25591,"lon":5.38233,"is_reserved":false,"is_disabled":false,"rental_uris":{"android":"levelo://app?vid=b8e13f61-7a01-4802-ab99-1fc57e8e466f","ios":"levelo://app?vid=b8e13f61-7a01-4802-ab99-1fc57e8e466f"},"vehicle_type_id":"4","last_reported":1730113694,"current_range_meters":35600,"station_id":"ce4bhih2rcd13ifvqfs0","pricing_plan_id":"cebpf4jnsgd1na2vs0mg"},{"bike_id":"c8713419-a835-43b9-ac75-b05adb95bea9","system_id":"levelo_inurba_marseille","lat":43.29553,"lon":5.42286,"is_reserved":false,"is_disabled":false,"rental_uris":{"android":"levelo://app?vid=c8713419-a835-43b9-ac75-b05adb95bea9","ios":"levelo://app?vid=c8713419-a835-43b9-ac75-b05adb95bea9"},"vehicle_type_id":"4","last_reported":1730113694,"current_range_meters":38800,"station_id":"ce4bhph2rcd13ifvqhdg","pricing_plan_id":"cebpf4jnsgd1na2vs0mg"},{"bike_id":"612cf43d-6624-4c64-a8a8-1bf41fca40e0","system_id":"levelo_inurba_marseille","lat":43.30526,"lon":5.36695,"is_reserved":false,"is_disabled":false,"rental_uris":{"android":"levelo://app?vid=612cf43d-6624-4c64-a8a8-1bf41fca40e0","ios":"levelo://app?vid=612cf43d-6624-4c64-a8a8-1bf41fca40e0"},"vehicle_type_id":"4","last_reported":1730113694,"current_range_meters":37600,"station_id":"ce4bgrp2rcd13ifvqc9g","pricing_plan_id":"cebpf4jnsgd1na2vs0mg"},{"bike_id":"2187d057-0598-4b59-91d0-195d0a9512fb","system_id":"levelo_inurba_marseille","lat":43.28269,"lon":5.35071,"is_reserved":false,"is_disabled":false,"rental_uris":{"android":"levelo://app?vid=2187d057-0598-4b59-91d0-195d0a9512fb","ios":"levelo://app?vid=2187d057-0598-4b59-91d0-195d0a9512fb"},"vehicle_type_id":"4","last_reported":1730113694,"current_range_meters":38400,"station_id":"ce4bhbp2rcd13ifvqerg","pricing_plan_id":"cebpf4jnsgd1na2vs0mg"},{"bike_id":"ef4c3fc5-30a2-4016-a8cb-6ce788a189fc","system_id":"levelo_inurba_marseille","lat":43.29325,"lon":5.37028,"is_reserved":false,"is_disabled":false,"rental_uris":{"android":"levelo://app?vid=ef4c3fc5-30a2-4016-a8cb-6ce788a189fc","ios":"levelo://app?vid=ef4c3fc5-30a2-4016-a8cb-6ce788a189fc"},"vehicle_type_id":"4","last_reported":1730113694,"current_range_meters":12400,"station_id":"","pricing_plan_id":"cebpf4jnsgd1na2vs0mg"},{"bike_id":"147ea370-eac6-4c21-8cab-06d6755fd87a","system_id":"levelo_inurba_marseille","lat":43.27945,"lon":5.41042,"is_reserved":false,"is_disabled":false,"rental_uris":{"android":"levelo://app?vid=147ea370-eac6-4c21-8cab-06d6755fd87a","ios":"levelo://app?vid=147ea370-eac6-4c21-8cab-06d6755fd87a"},"vehicle_type_id":"4","last_reported":1730113694,"current_range_meters":36400,"station_id":"ce4bhnp2rcd13ifvqh0g","pricing_plan_id":"cebpf4jnsgd1na2vs0mg"},{"bike_id":"3ec523a2-35ce-45e7-b84f-3f807612eafd","system_id":"levelo_inurba_marseille","lat":43.31486,"lon":5.37305,"is_reserved":false,"is_disabled":false,"rental_uris":{"android":"levelo://app?vid=3ec523a2-35ce-45e7-b84f-3f807612eafd","ios":"levelo://app?vid=3ec523a2-35ce-45e7-b84f-3f807612eafd"},"vehicle_type_id":"4","last_reported":1730113694,"current_range_meters":34000,"station_id":"ce4bgt12rcd13ifvqcd0","pricing_plan_id":"cebpf4jnsgd1na2vs0mg"},{"bike_id":"3c95caa4-6d2a-49b4-ad70-7bd7219dd279","system_id":"levelo_inurba_marseille","lat":43.2917,"lon":5.37163,"is_reserved":false,"is_disabled":false,"rental_uris":{"android":"levelo://app?vid=3c95caa4-6d2a-49b4-ad70-7bd7219dd279","ios":"levelo://app?vid=3c95caa4-6d2a-49b4-ad70-7bd7219dd279"},"vehicle_type_id":"4","last_reported":1730113694,"current_range_meters":12800,"station_id":"ce4bha92rcd13ifvqeh0","pricing_plan_id":"cebpf4jnsgd1na2vs0mg"},{"bike_id":"e113f747-4daa-44f7-a218-9e030daa2565","system_id":"levelo_inurba_marseille","lat":43.32105,"lon":5.36769,"is_reserved":false,"is_disabled":false,"rental_uris":{"android":"levelo://app?vid=e113f747-4daa-44f7-a218-9e030daa2565","ios":"levelo://app?vid=e113f747-4daa-44f7-a218-9e030daa2565"},"vehicle_type_id":"4","last_reported":1730113694,"current_range_meters":21600,"station_id":"ce4bhrh2rcd13ifvqhug","pricing_plan_id":"cebpf4jnsgd1na2vs0mg"},{"bike_id":"c83bf92a-895e-4031-90cc-0a4806604b3f","system_id":"levelo_inurba_marseille","lat":43.23054,"lon":5.35491,"is_reserved":false,"is_disabled":false,"rental_uris":{"android":"levelo://app?vid=c83bf92a-895e-4031-90cc-0a4806604b3f","ios":"levelo://app?vid=c83bf92a-895e-4031-90cc-0a4806604b3f"},"vehicle_type_id":"4","last_reported":1730113694,"current_range_meters":36800,"station_id":"cpo3342slgdg3j2ifvpg","pricing_plan_id":"cebpf4jnsgd1na2vs0mg"},{"bike_id":"16ba6619-b574-4c36-a216-60d814c6eeff","system_id":"levelo_inurba_marseille","lat":43.28858,"lon":5.39311,"is_reserved":false,"is_disabled":false,"rental_uris":{"android":"levelo://app?vid=16ba6619-b574-4c36-a216-60d814c6eeff","ios":"levelo://app?vid=16ba6619-b574-4c36-a216-60d814c6eeff"},"vehicle_type_id":"4","last_reported":1730113694,"current_range_meters":36800,"station_id":"ce4bh2p2rcd13ifvqdi0","pricing_plan_id":"cebpf4jnsgd1na2vs0mg"},{"bike_id":"094a1a05-1375-44eb-b538-5b56a6814d16","system_id":"levelo_inurba_marseille","lat":43.29941,"lon":5.36534,"is_reserved":false,"is_disabled":false,"rental_uris":{"android":"levelo://app?vid=094a1a05-1375-44eb-b538-5b56a6814d16","ios":"levelo://app?vid=094a1a05-1375-44eb-b538-5b56a6814d16"},"vehicle_type_id":"4","last_reported":1730113694,"current_range_meters":28400,"station_id":"ce4bgm92rcd13ifvqbr0","pricing_plan_id":"cebpf4jnsgd1na2vs0mg"},{"bike_id":"9fd56fad-5f3d-42b4-b491-7b57b76bc0cf","system_id":"levelo_inurba_marseille","lat":43.27815,"lon":5.40714,"is_reserved":false,"is_disabled":false,"rental_uris":{"android":"levelo://app?vid=9fd56fad-5f3d-42b4-b491-7b57b76bc0cf","ios":"levelo://app?vid=9fd56fad-5f3d-42b4-b491-7b57b76bc0cf"},"vehicle_type_id":"4","last_reported":1730113694,"current_range_meters":17200,"station_id":"ce4bhnh2rcd13ifvqgtg","pricing_plan_id":"cebpf4jnsgd1na2vs0mg"},{"bike_id":"5bdbc303-31da-4c63-9190-d56725549620","system_id":"levelo_inurba_marseille","lat":43.28416,"lon":5.34995,"is_reserved":false,"is_disabled":false,"rental_uris":{"android":"levelo://app?vid=5bdbc303-31da-4c63-9190-d56725549620","ios":"levelo://app?vid=5bdbc303-31da-4c63-9190-d56725549620"},"vehicle_type_id":"4","last_reported":1730113694,"current_range_meters":36800,"station_id":"ce4bhbh2rcd13ifvqepg","pricing_plan_id":"cebpf4jnsgd1na2vs0mg"},{"bike_id":"37163359-aad5-4f25-ba8a-542276a9b283","system_id":"levelo_inurba_marseille","lat":43.28614,"lon":5.3706,"is_reserved":false,"is_disabled":false,"rental_uris":{"android":"levelo://app?vid=37163359-aad5-4f25-ba8a-542276a9b283","ios":"levelo://app?vid=37163359-aad5-4f25-ba8a-542276a9b283"},"vehicle_type_id":"4","last_reported":1730113694,"current_range_meters":16400,"station_id":"ce4bht12rcd13ifvqi60","pricing_plan_id":"cebpf4jnsgd1na2vs0mg"},{"bike_id":"ad76f8d3-7f65-4c78-a02a-2884c78c2c51","system_id":"levelo_inurba_marseille","lat":43.29021,"lon":5.38127,"is_reserved":false,"is_disabled":false,"rental_uris":{"android":"levelo://app?vid=ad76f8d3-7f65-4c78-a02a-2884c78c2c51","ios":"levelo://app?vid=ad76f8d3-7f65-4c78-a02a-2884c78c2c51"},"vehicle_type_id":"4","last_reported":1730113694,"current_range_meters":4000,"station_id":"ce4bh4p2rcd13ifvqe1g","pricing_plan_id":"cebpf4jnsgd1na2vs0mg"},{"bike_id":"0f7030f2-2181-4720-b611-0379e68f7e6f","system_id":"levelo_inurba_marseille","lat":43.32342,"lon":5.40613,"is_reserved":false,"is_disabled":false,"rental_uris":{"android":"levelo://app?vid=0f7030f2-2181-4720-b611-0379e68f7e6f","ios":"levelo://app?vid=0f7030f2-2181-4720-b611-0379e68f7e6f"},"vehicle_type_id":"4","last_reported":1730113694,"current_range_meters":28400,"station_id":"ce4bhq92rcd13ifvqhjg","pricing_plan_id":"cebpf4jnsgd1na2vs0mg"},{"bike_id":"32e5125f-df80-44d1-babf-8e465b1cd216","system_id":"levelo_inurba_marseille","lat":43.33606,"lon":5.41023,"is_reserved":false,"is_disabled":false,"rental_uris":{"android":"levelo://app?vid=32e5125f-df80-44d1-babf-8e465b1cd216","ios":"levelo://app?vid=32e5125f-df80-44d1-babf-8e465b1cd216"},"vehicle_type_id":"4","last_reported":1730113694,"current_range_meters":37600,"station_id":"ce4bhqh2rcd13ifvqhmg","pricing_plan_id":"cebpf4jnsgd1na2vs0mg"},{"bike_id":"e93f42e4-ca27-4ae1-ade5-80b77e2287bc","system_id":"levelo_inurba_marseille","lat":43.26207,"lon":5.37925,"is_reserved":false,"is_disabled":false,"rental_uris":{"android":"levelo://app?vid=e93f42e4-ca27-4ae1-ade5-80b77e2287bc","ios":"levelo://app?vid=e93f42e4-ca27-4ae1-ade5-80b77e2287bc"},"vehicle_type_id":"4","last_reported":1730113694,"current_range_meters":33200,"station_id":"ce4bhjp2rcd13ifvqg90","pricing_plan_id":"cebpf4jnsgd1na2vs0mg"},{"bike_id":"663e026b-713e-468c-b179-97acff6f5c80","system_id":"levelo_inurba_marseille","lat":43.28648,"lon":5.38552,"is_reserved":false,"is_disabled":false,"rental_uris":{"android":"levelo://app?vid=663e026b-713e-468c-b179-97acff6f5c80","ios":"levelo://app?vid=663e026b-713e-468c-b179-97acff6f5c80"},"vehicle_type_id":"4","last_reported":1730113694,"current_range_meters":38800,"station_id":"ce4bhoh2rcd13ifvqh5g","pricing_plan_id":"cebpf4jnsgd1na2vs0mg"},{"bike_id":"3c7f463d-bca5-46a6-ab2e-38734b2696d2","system_id":"levelo_inurba_marseille","lat":43.29007,"lon":5.356194,"is_reserved":false,"is_disabled":false,"rental_uris":{"android":"levelo://app?vid=3c7f463d-bca5-46a6-ab2e-38734b2696d2","ios":"levelo://app?vid=3c7f463d-bca5-46a6-ab2e-38734b2696d2"},"vehicle_type_id":"4","last_reported":1730113694,"current_range_meters":26800,"station_id":"ce4bhb92rcd13ifvqen0","pricing_plan_id":"cebpf4jnsgd1na2vs0mg"},{"bike_id":"939ef23a-8e9f-47e0-ba95-784e8e1c14b8","system_id":"levelo_inurba_marseille","lat":43.23067,"lon":5.35489,"is_reserved":false,"is_disabled":false,"rental_uris":{"android":"levelo://app?vid=939ef23a-8e9f-47e0-ba95-784e8e1c14b8","ios":"levelo://app?vid=939ef23a-8e9f-47e0-ba95-784e8e1c14b8"},"vehicle_type_id":"4","last_reported":1730113694,"current_range_meters":17200,"station_id":"cpo3342slgdg3j2ifvpg","pricing_plan_id":"cebpf4jnsgd1na2vs0mg"},{"bike_id":"c114e600-5c42-40fd-8b3f-b6c47c8be69a","system_id":"levelo_inurba_marseille","lat":43.23148,"lon":5.43716,"is_reserved":false,"is_disabled":false,"rental_uris":{"android":"levelo://app?vid=c114e600-5c42-40fd-8b3f-b6c47c8be69a","ios":"levelo://app?vid=c114e600-5c42-40fd-8b3f-b6c47c8be69a"},"vehicle_type_id":"4","last_reported":1730113694,"current_range_meters":39200,"station_id":"ce4bhmp2rcd13ifvqgog","pricing_plan_id":"cebpf4jnsgd1na2vs0mg"},{"bike_id":"3e2ed42f-cc34-4ae2-ae48-1e0ce520a073","system_id":"levelo_inurba_marseille","lat":43.26944,"lon":5.40245,"is_reserved":false,"is_disabled":false,"rental_uris":{"android":"levelo://app?vid=3e2ed42f-cc34-4ae2-ae48-1e0ce520a073","ios":"levelo://app?vid=3e2ed42f-cc34-4ae2-ae48-1e0ce520a073"},"vehicle_type_id":"4","last_reported":1730113694,"current_range_meters":38800,"station_id":"cjm6bp8fraef2m0cb0m0","pricing_plan_id":"cebpf4jnsgd1na2vs0mg"},{"bike_id":"a1713c42-9e57-4acb-9d0d-bb5f2ccfd709","system_id":"levelo_inurba_marseille","lat":43.29915,"lon":5.37471,"is_reserved":false,"is_disabled":false,"rental_uris":{"android":"levelo://app?vid=a1713c42-9e57-4acb-9d0d-bb5f2ccfd709","ios":"levelo://app?vid=a1713c42-9e57-4acb-9d0d-bb5f2ccfd709"},"vehicle_type_id":"4","last_reported":1730113694,"current_range_meters":39200,"station_id":"ce4bgjh2rcd13ifvqbg0","pricing_plan_id":"cebpf4jnsgd1na2vs0mg"},{"bike_id":"2b0b2e8e-b379-46a3-8a43-754736e1048e","system_id":"levelo_inurba_marseille","lat":43.30874,"lon":5.37198,"is_reserved":false,"is_disabled":false,"rental_uris":{"android":"levelo://app?vid=2b0b2e8e-b379-46a3-8a43-754736e1048e","ios":"levelo://app?vid=2b0b2e8e-b379-46a3-8a43-754736e1048e"},"vehicle_type_id":"4","last_reported":1730113694,"current_range_meters":10000,"station_id":"ce4bguh2rcd13ifvqckg","pricing_plan_id":"cebpf4jnsgd1na2vs0mg"},{"bike_id":"ba7ff12b-4fb3-47ea-b304-85ab8fca1364","system_id":"levelo_inurba_marseille","lat":43.32294,"lon":5.38276,"is_reserved":false,"is_disabled":false,"rental_uris":{"android":"levelo://app?vid=ba7ff12b-4fb3-47ea-b304-85ab8fca1364","ios":"levelo://app?vid=ba7ff12b-4fb3-47ea-b304-85ab8fca1364"},"vehicle_type_id":"4","last_reported":1730113694,"current_range_meters":38800,"station_id":"ce4bhr12rcd13ifvqhqg","pricing_plan_id":"cebpf4jnsgd1na2vs0mg"},{"bike_id":"29268ae0-7016-4d78-af79-c09936a4f0d4","system_id":"levelo_inurba_marseille","lat":43.27953,"lon":5.41045,"is_reserved":false,"is_disabled":false,"rental_uris":{"android":"levelo://app?vid=29268ae0-7016-4d78-af79-c09936a4f0d4","ios":"levelo://app?vid=29268ae0-7016-4d78-af79-c09936a4f0d4"},"vehicle_type_id":"4","last_reported":1730113694,"current_range_meters":29600,"station_id":"ce4bhnp2rcd13ifvqh0g","pricing_plan_id":"cebpf4jnsgd1na2vs0mg"},{"bike_id":"2ae1f284-3af9-42be-aae1-156ef382c1d7","system_id":"levelo_inurba_marseille","lat":43.26056,"lon":5.39398,"is_reserved":false,"is_disabled":false,"rental_uris":{"android":"levelo://app?vid=2ae1f284-3af9-42be-aae1-156ef382c1d7","ios":"levelo://app?vid=2ae1f284-3af9-42be-aae1-156ef382c1d7"},"vehicle_type_id":"4","last_reported":1730113694,"current_range_meters":38000,"station_id":"ce4bhh92rcd13ifvqfj0","pricing_plan_id":"cebpf4jnsgd1na2vs0mg"},{"bike_id":"375c6d01-86c2-4c9a-b14f-7e5f51726004","system_id":"levelo_inurba_marseille","lat":43.30522,"lon":5.36669,"is_reserved":false,"is_disabled":false,"rental_uris":{"android":"levelo://app?vid=375c6d01-86c2-4c9a-b14f-7e5f51726004","ios":"levelo://app?vid=375c6d01-86c2-4c9a-b14f-7e5f51726004"},"vehicle_type_id":"4","last_reported":1730113694,"current_range_meters":30000,"station_id":"","pricing_plan_id":"cebpf4jnsgd1na2vs0mg"},{"bike_id":"f7a50275-88a4-4be4-ac33-5cce1242cfaa","system_id":"levelo_inurba_marseille","lat":43.3172,"lon":5.37748,"is_reserved":false,"is_disabled":false,"rental_uris":{"android":"levelo://app?vid=f7a50275-88a4-4be4-ac33-5cce1242cfaa","ios":"levelo://app?vid=f7a50275-88a4-4be4-ac33-5cce1242cfaa"},"vehicle_type_id":"4","last_reported":1730113694,"current_range_meters":38800,"station_id":"ce4bgth2rcd13ifvqch0","pricing_plan_id":"cebpf4jnsgd1na2vs0mg"},{"bike_id":"f78042fc-8505-4e93-85d8-1f5a46133171","system_id":"levelo_inurba_marseille","lat":43.24164,"lon":5.364,"is_reserved":false,"is_disabled":false,"rental_uris":{"android":"levelo://app?vid=f78042fc-8505-4e93-85d8-1f5a46133171","ios":"levelo://app?vid=f78042fc-8505-4e93-85d8-1f5a46133171"},"vehicle_type_id":"4","last_reported":1730113694,"current_range_meters":28800,"station_id":"cpo36qri1sfpv3e86is0","pricing_plan_id":"cebpf4jnsgd1na2vs0mg"},{"bike_id":"2fa840a4-c474-490f-ad60-4fac3deda4c7","system_id":"levelo_inurba_marseille","lat":43.29261,"lon":5.3684,"is_reserved":false,"is_disabled":false,"rental_uris":{"android":"levelo://app?vid=2fa840a4-c474-490f-ad60-4fac3deda4c7","ios":"levelo://app?vid=2fa840a4-c474-490f-ad60-4fac3deda4c7"},"vehicle_type_id":"4","last_reported":1730113694,"current_range_meters":28400,"station_id":"ce4bhbp2rcd13ifvqesg","pricing_plan_id":"cebpf4jnsgd1na2vs0mg"},{"bike_id":"0e6d7f45-38e9-416c-af7c-70cf58d1daa1","system_id":"levelo_inurba_marseille","lat":43.30459,"lon":5.37896,"is_reserved":false,"is_disabled":false,"rental_uris":{"android":"levelo://app?vid=0e6d7f45-38e9-416c-af7c-70cf58d1daa1","ios":"levelo://app?vid=0e6d7f45-38e9-416c-af7c-70cf58d1daa1"},"vehicle_type_id":"4","last_reported":1730113694,"current_range_meters":38800,"station_id":"ce4bgup2rcd13ifvqcn0","pricing_plan_id":"cebpf4jnsgd1na2vs0mg"},{"bike_id":"86de51d7-7689-4b34-9eeb-07ffaec36dca","system_id":"levelo_inurba_marseille","lat":43.27423,"lon":5.39409,"is_reserved":false,"is_disabled":false,"rental_uris":{"android":"levelo://app?vid=86de51d7-7689-4b34-9eeb-07ffaec36dca","ios":"levelo://app?vid=86de51d7-7689-4b34-9eeb-07ffaec36dca"},"vehicle_type_id":"4","last_reported":1730113694,"current_range_meters":38800,"station_id":"ce4bhdp2rcd13ifvqf20","pricing_plan_id":"cebpf4jnsgd1na2vs0mg"},{"bike_id":"7ca56edd-ab0f-42b5-b290-aff4cb25cb72","system_id":"levelo_inurba_marseille","lat":43.24386,"lon":5.37053,"is_reserved":false,"is_disabled":false,"rental_uris":{"android":"levelo://app?vid=7ca56edd-ab0f-42b5-b290-aff4cb25cb72","ios":"levelo://app?vid=7ca56edd-ab0f-42b5-b290-aff4cb25cb72"},"vehicle_type_id":"4","last_reported":1730113694,"current_range_meters":30000,"station_id":"ce4bhhh2rcd13ifvqfk0","pricing_plan_id":"cebpf4jnsgd1na2vs0mg"},{"bike_id":"f9e56936-2da6-4f60-810d-13b152ebd78c","system_id":"levelo_inurba_marseille","lat":43.28852,"lon":5.39318,"is_reserved":false,"is_disabled":false,"rental_uris":{"android":"levelo://app?vid=f9e56936-2da6-4f60-810d-13b152ebd78c","ios":"levelo://app?vid=f9e56936-2da6-4f60-810d-13b152ebd78c"},"vehicle_type_id":"4","last_reported":1730113694,"current_range_meters":38400,"station_id":"ce4bh2p2rcd13ifvqdi0","pricing_plan_id":"cebpf4jnsgd1na2vs0mg"},{"bike_id":"24c3453c-534c-45c3-af57-87b77df17206","system_id":"levelo_inurba_marseille","lat":43.337444,"lon":5.374475,"is_reserved":false,"is_disabled":false,"rental_uris":{"android":"levelo://app?vid=24c3453c-534c-45c3-af57-87b77df17206","ios":"levelo://app?vid=24c3453c-534c-45c3-af57-87b77df17206"},"vehicle_type_id":"4","last_reported":1730113694,"current_range_meters":38800,"station_id":"","pricing_plan_id":"cebpf4jnsgd1na2vs0mg"},{"bike_id":"4cf016cf-222a-4af0-b71c-5001d7c7e17d","system_id":"levelo_inurba_marseille","lat":43.25085,"lon":5.39518,"is_reserved":false,"is_disabled":false,"rental_uris":{"android":"levelo://app?vid=4cf016cf-222a-4af0-b71c-5001d7c7e17d","ios":"levelo://app?vid=4cf016cf-222a-4af0-b71c-5001d7c7e17d"},"vehicle_type_id":"4","last_reported":1730113694,"current_range_meters":33200,"station_id":"ce4bhm12rcd13ifvqgkg","pricing_plan_id":"cebpf4jnsgd1na2vs0mg"},{"bike_id":"a0de6f4e-066b-4e53-a658-022acbe171b3","system_id":"levelo_inurba_marseille","lat":43.29908,"lon":5.37468,"is_reserved":false,"is_disabled":false,"rental_uris":{"android":"levelo://app?vid=a0de6f4e-066b-4e53-a658-022acbe171b3","ios":"levelo://app?vid=a0de6f4e-066b-4e53-a658-022acbe171b3"},"vehicle_type_id":"4","last_reported":1730113694,"current_range_meters":16400,"station_id":"ce4bgjh2rcd13ifvqbg0","pricing_plan_id":"cebpf4jnsgd1na2vs0mg"},{"bike_id":"a25b6a83-2d57-4dc8-94af-f08d4dbf848d","system_id":"levelo_inurba_marseille","lat":43.25939,"lon":5.40904,"is_reserved":false,"is_disabled":false,"rental_uris":{"android":"levelo://app?vid=a25b6a83-2d57-4dc8-94af-f08d4dbf848d","ios":"levelo://app?vid=a25b6a83-2d57-4dc8-94af-f08d4dbf848d"},"vehicle_type_id":"4","last_reported":1730113694,"current_range_meters":30400,"station_id":"ce4bhm92rcd13ifvqglg","pricing_plan_id":"cebpf4jnsgd1na2vs0mg"},{"bike_id":"9befed88-9f8c-464c-b07b-093bd97066bb","system_id":"levelo_inurba_marseille","lat":43.29805,"lon":5.37136,"is_reserved":false,"is_disabled":false,"rental_uris":{"android":"levelo://app?vid=9befed88-9f8c-464c-b07b-093bd97066bb","ios":"levelo://app?vid=9befed88-9f8c-464c-b07b-093bd97066bb"},"vehicle_type_id":"4","last_reported":1730113694,"current_range_meters":15200,"station_id":"","pricing_plan_id":"cebpf4jnsgd1na2vs0mg"},{"bike_id":"a4b8a0a6-9aed-4bde-879e-c2ee63504b24","system_id":"levelo_inurba_marseille","lat":43.27828,"lon":5.39204,"is_reserved":false,"is_disabled":false,"rental_uris":{"android":"levelo://app?vid=a4b8a0a6-9aed-4bde-879e-c2ee63504b24","ios":"levelo://app?vid=a4b8a0a6-9aed-4bde-879e-c2ee63504b24"},"vehicle_type_id":"4","last_reported":1730113694,"current_range_meters":8800,"station_id":"ce4bhjp2rcd13ifvqga0","pricing_plan_id":"cebpf4jnsgd1na2vs0mg"},{"bike_id":"f37e3b02-a49c-4c4e-b112-f9c8c24edf90","system_id":"levelo_inurba_marseille","lat":43.23195,"lon":5.3555,"is_reserved":false,"is_disabled":false,"rental_uris":{"android":"levelo://app?vid=f37e3b02-a49c-4c4e-b112-f9c8c24edf90","ios":"levelo://app?vid=f37e3b02-a49c-4c4e-b112-f9c8c24edf90"},"vehicle_type_id":"4","last_reported":1730113694,"current_range_meters":10000,"station_id":"ce4bhu92rcd13ifvqi70","pricing_plan_id":"cebpf4jnsgd1na2vs0mg"},{"bike_id":"c715dcd3-32d3-4e83-b9ba-72b989f8d71f","system_id":"levelo_inurba_marseille","lat":43.29215,"lon":5.36069,"is_reserved":false,"is_disabled":false,"rental_uris":{"android":"levelo://app?vid=c715dcd3-32d3-4e83-b9ba-72b989f8d71f","ios":"levelo://app?vid=c715dcd3-32d3-4e83-b9ba-72b989f8d71f"},"vehicle_type_id":"4","last_reported":1730113694,"current_range_meters":27200,"station_id":"ce4bhbh2rcd13ifvqeqg","pricing_plan_id":"cebpf4jnsgd1na2vs0mg"},{"bike_id":"98ccba86-a02d-4bfd-9cb4-d849d3f9f575","system_id":"levelo_inurba_marseille","lat":43.25082,"lon":5.39514,"is_reserved":false,"is_disabled":false,"rental_uris":{"android":"levelo://app?vid=98ccba86-a02d-4bfd-9cb4-d849d3f9f575","ios":"levelo://app?vid=98ccba86-a02d-4bfd-9cb4-d849d3f9f575"},"vehicle_type_id":"4","last_reported":1730113694,"current_range_meters":31200,"station_id":"ce4bhm12rcd13ifvqgkg","pricing_plan_id":"cebpf4jnsgd1na2vs0mg"},{"bike_id":"0681c7df-c6b0-46f5-93c0-114f45cf54c6","system_id":"levelo_inurba_marseille","lat":43.32538,"lon":5.41443,"is_reserved":false,"is_disabled":false,"rental_uris":{"android":"levelo://app?vid=0681c7df-c6b0-46f5-93c0-114f45cf54c6","ios":"levelo://app?vid=0681c7df-c6b0-46f5-93c0-114f45cf54c6"},"vehicle_type_id":"4","last_reported":1730113694,"current_range_meters":38800,"station_id":"ce4bhq12rcd13ifvqhhg","pricing_plan_id":"cebpf4jnsgd1na2vs0mg"},{"bike_id":"45fd3cf8-8ef7-4153-9f92-719140053506","system_id":"levelo_inurba_marseille","lat":43.32292,"lon":5.38267,"is_reserved":false,"is_disabled":false,"rental_uris":{"android":"levelo://app?vid=45fd3cf8-8ef7-4153-9f92-719140053506","ios":"levelo://app?vid=45fd3cf8-8ef7-4153-9f92-719140053506"},"vehicle_type_id":"4","last_reported":1730113694,"current_range_meters":24800,"station_id":"ce4bhr12rcd13ifvqhqg","pricing_plan_id":"cebpf4jnsgd1na2vs0mg"},{"bike_id":"0fc35ec4-d69e-455a-854d-9256f0d5a7e6","system_id":"levelo_inurba_marseille","lat":43.24067,"lon":5.37758,"is_reserved":false,"is_disabled":false,"rental_uris":{"android":"levelo://app?vid=0fc35ec4-d69e-455a-854d-9256f0d5a7e6","ios":"levelo://app?vid=0fc35ec4-d69e-455a-854d-9256f0d5a7e6"},"vehicle_type_id":"4","last_reported":1730113694,"current_range_meters":23200,"station_id":"ce4bhnp2rcd13ifvqgvg","pricing_plan_id":"cebpf4jnsgd1na2vs0mg"},{"bike_id":"cfdb27c4-1fc1-4ea5-8d13-56dcdb147f24","system_id":"levelo_inurba_marseille","lat":43.29959,"lon":5.41314,"is_reserved":false,"is_disabled":false,"rental_uris":{"android":"levelo://app?vid=cfdb27c4-1fc1-4ea5-8d13-56dcdb147f24","ios":"levelo://app?vid=cfdb27c4-1fc1-4ea5-8d13-56dcdb147f24"},"vehicle_type_id":"4","last_reported":1730113694,"current_range_meters":38000,"station_id":"ce4bhp12rcd13ifvqh9g","pricing_plan_id":"cebpf4jnsgd1na2vs0mg"},{"bike_id":"9f501856-31bd-489e-8c68-79174caf584a","system_id":"levelo_inurba_marseille","lat":43.27499,"lon":5.42457,"is_reserved":false,"is_disabled":false,"rental_uris":{"android":"levelo://app?vid=9f501856-31bd-489e-8c68-79174caf584a","ios":"levelo://app?vid=9f501856-31bd-489e-8c68-79174caf584a"},"vehicle_type_id":"4","last_reported":1730113694,"current_range_meters":38000,"station_id":"ce4bhn92rcd13ifvqgrg","pricing_plan_id":"cebpf4jnsgd1na2vs0mg"},{"bike_id":"cbf683de-7bcc-46aa-8c8e-99509c1a0985","system_id":"levelo_inurba_marseille","lat":43.25939,"lon":5.40894,"is_reserved":false,"is_disabled":false,"rental_uris":{"android":"levelo://app?vid=cbf683de-7bcc-46aa-8c8e-99509c1a0985","ios":"levelo://app?vid=cbf683de-7bcc-46aa-8c8e-99509c1a0985"},"vehicle_type_id":"4","last_reported":1730113694,"current_range_meters":25200,"station_id":"ce4bhm92rcd13ifvqglg","pricing_plan_id":"cebpf4jnsgd1na2vs0mg"},{"bike_id":"bb8e7d17-0c92-493c-b404-117c89baf87d","system_id":"levelo_inurba_marseille","lat":43.30553,"lon":5.3653,"is_reserved":false,"is_disabled":false,"rental_uris":{"android":"levelo://app?vid=bb8e7d17-0c92-493c-b404-117c89baf87d","ios":"levelo://app?vid=bb8e7d17-0c92-493c-b404-117c89baf87d"},"vehicle_type_id":"4","last_reported":1730113694,"current_range_meters":22400,"station_id":"ce4bgs12rcd13ifvqcag","pricing_plan_id":"cebpf4jnsgd1na2vs0mg"},{"bike_id":"e39645c5-87ac-4e87-90ca-e4c6f3ff67ce","system_id":"levelo_inurba_marseille","lat":43.29931,"lon":5.36546,"is_reserved":false,"is_disabled":false,"rental_uris":{"android":"levelo://app?vid=e39645c5-87ac-4e87-90ca-e4c6f3ff67ce","ios":"levelo://app?vid=e39645c5-87ac-4e87-90ca-e4c6f3ff67ce"},"vehicle_type_id":"4","last_reported":1730113694,"current_range_meters":30400,"station_id":"ce4bgm92rcd13ifvqbr0","pricing_plan_id":"cebpf4jnsgd1na2vs0mg"},{"bike_id":"010b5d8f-b137-446e-884c-a604fb32e527","system_id":"levelo_inurba_marseille","lat":43.27216,"lon":5.39183,"is_reserved":false,"is_disabled":false,"rental_uris":{"android":"levelo://app?vid=010b5d8f-b137-446e-884c-a604fb32e527","ios":"levelo://app?vid=010b5d8f-b137-446e-884c-a604fb32e527"},"vehicle_type_id":"4","last_reported":1730113694,"current_range_meters":28800,"station_id":"ce4bhhp2rcd13ifvqfm0","pricing_plan_id":"cebpf4jnsgd1na2vs0mg"},{"bike_id":"32fccdc4-99de-4661-8b0d-2252307063d4","system_id":"levelo_inurba_marseille","lat":43.26679,"lon":5.38272,"is_reserved":false,"is_disabled":false,"rental_uris":{"android":"levelo://app?vid=32fccdc4-99de-4661-8b0d-2252307063d4","ios":"levelo://app?vid=32fccdc4-99de-4661-8b0d-2252307063d4"},"vehicle_type_id":"4","last_reported":1730113694,"current_range_meters":38400,"station_id":"ce4bhg92rcd13ifvqf90","pricing_plan_id":"cebpf4jnsgd1na2vs0mg"},{"bike_id":"def66fbe-9129-4b94-9aa6-f0a9941a832b","system_id":"levelo_inurba_marseille","lat":43.29174,"lon":5.36902,"is_reserved":false,"is_disabled":false,"rental_uris":{"android":"levelo://app?vid=def66fbe-9129-4b94-9aa6-f0a9941a832b","ios":"levelo://app?vid=def66fbe-9129-4b94-9aa6-f0a9941a832b"},"vehicle_type_id":"4","last_reported":1730113694,"current_range_meters":11600,"station_id":"","pricing_plan_id":"cebpf4jnsgd1na2vs0mg"},{"bike_id":"f3ceeb8f-42c4-458f-a4d0-0ac814d6e04b","system_id":"levelo_inurba_marseille","lat":43.29841,"lon":5.36268,"is_reserved":false,"is_disabled":false,"rental_uris":{"android":"levelo://app?vid=f3ceeb8f-42c4-458f-a4d0-0ac814d6e04b","ios":"levelo://app?vid=f3ceeb8f-42c4-458f-a4d0-0ac814d6e04b"},"vehicle_type_id":"4","last_reported":1730113694,"current_range_meters":17200,"station_id":"ce4bgpp2rcd13ifvqc3g","pricing_plan_id":"cebpf4jnsgd1na2vs0mg"},{"bike_id":"96f7627e-df29-4eca-b4de-102ae1467817","system_id":"levelo_inurba_marseille","lat":43.33756,"lon":5.37445,"is_reserved":false,"is_disabled":false,"rental_uris":{"android":"levelo://app?vid=96f7627e-df29-4eca-b4de-102ae1467817","ios":"levelo://app?vid=96f7627e-df29-4eca-b4de-102ae1467817"},"vehicle_type_id":"4","last_reported":1730113694,"current_range_meters":33200,"station_id":"","pricing_plan_id":"cebpf4jnsgd1na2vs0mg"},{"bike_id":"ec1df521-138c-498a-a2f1-b16a51dafd86","system_id":"levelo_inurba_marseille","lat":43.25585,"lon":5.38233,"is_reserved":false,"is_disabled":false,"rental_uris":{"android":"levelo://app?vid=ec1df521-138c-498a-a2f1-b16a51dafd86","ios":"levelo://app?vid=ec1df521-138c-498a-a2f1-b16a51dafd86"},"vehicle_type_id":"4","last_reported":1730113694,"current_range_meters":24800,"station_id":"ce4bhih2rcd13ifvqfs0","pricing_plan_id":"cebpf4jnsgd1na2vs0mg"},{"bike_id":"85a2d466-e24e-4fa4-87f2-56af2ac595ab","system_id":"levelo_inurba_marseille","lat":43.25585,"lon":5.38233,"is_reserved":false,"is_disabled":false,"rental_uris":{"android":"levelo://app?vid=85a2d466-e24e-4fa4-87f2-56af2ac595ab","ios":"levelo://app?vid=85a2d466-e24e-4fa4-87f2-56af2ac595ab"},"vehicle_type_id":"4","last_reported":1730113694,"current_range_meters":28800,"station_id":"ce4bhih2rcd13ifvqfs0","pricing_plan_id":"cebpf4jnsgd1na2vs0mg"},{"bike_id":"e5630466-0af0-4d76-a58b-254eeaf8085b","system_id":"levelo_inurba_marseille","lat":43.29582,"lon":5.36733,"is_reserved":false,"is_disabled":false,"rental_uris":{"android":"levelo://app?vid=e5630466-0af0-4d76-a58b-254eeaf8085b","ios":"levelo://app?vid=e5630466-0af0-4d76-a58b-254eeaf8085b"},"vehicle_type_id":"4","last_reported":1730113694,"current_range_meters":32400,"station_id":"ce4bgph2rcd13ifvqc2g","pricing_plan_id":"cebpf4jnsgd1na2vs0mg"},{"bike_id":"f4f94ebf-25e8-42f9-8a2e-08fc8a18d604","system_id":"levelo_inurba_marseille","lat":43.2964,"lon":5.40602,"is_reserved":false,"is_disabled":false,"rental_uris":{"android":"levelo://app?vid=f4f94ebf-25e8-42f9-8a2e-08fc8a18d604","ios":"levelo://app?vid=f4f94ebf-25e8-42f9-8a2e-08fc8a18d604"},"vehicle_type_id":"4","last_reported":1730113694,"current_range_meters":36800,"station_id":"ce4bh0h2rcd13ifvqd60","pricing_plan_id":"cebpf4jnsgd1na2vs0mg"},{"bike_id":"a08296db-b3f4-4d7c-b368-674ac3a21b1e","system_id":"levelo_inurba_marseille","lat":43.23058,"lon":5.35493,"is_reserved":false,"is_disabled":false,"rental_uris":{"android":"levelo://app?vid=a08296db-b3f4-4d7c-b368-674ac3a21b1e","ios":"levelo://app?vid=a08296db-b3f4-4d7c-b368-674ac3a21b1e"},"vehicle_type_id":"4","last_reported":1730113694,"current_range_meters":36800,"station_id":"cpo3342slgdg3j2ifvpg","pricing_plan_id":"cebpf4jnsgd1na2vs0mg"},{"bike_id":"538e67ad-03a9-470e-a1b2-38860d10fbaf","system_id":"levelo_inurba_marseille","lat":43.311139,"lon":5.377846,"is_reserved":false,"is_disabled":false,"rental_uris":{"android":"levelo://app?vid=538e67ad-03a9-470e-a1b2-38860d10fbaf","ios":"levelo://app?vid=538e67ad-03a9-470e-a1b2-38860d10fbaf"},"vehicle_type_id":"4","last_reported":1730113694,"current_range_meters":12000,"station_id":"ce4bgt92rcd13ifvqcg0","pricing_plan_id":"cebpf4jnsgd1na2vs0mg"},{"bike_id":"973f754c-ca27-4080-b2bd-0b5a4f1a0d62","system_id":"levelo_inurba_marseille","lat":43.33743,"lon":5.37456,"is_reserved":false,"is_disabled":false,"rental_uris":{"android":"levelo://app?vid=973f754c-ca27-4080-b2bd-0b5a4f1a0d62","ios":"levelo://app?vid=973f754c-ca27-4080-b2bd-0b5a4f1a0d62"},"vehicle_type_id":"4","last_reported":1730113694,"current_range_meters":38000,"station_id":"","pricing_plan_id":"cebpf4jnsgd1na2vs0mg"},{"bike_id":"e8b1d499-1fb8-48d9-9f2a-60b4b9923777","system_id":"levelo_inurba_marseille","lat":43.3053,"lon":5.36693,"is_reserved":false,"is_disabled":false,"rental_uris":{"android":"levelo://app?vid=e8b1d499-1fb8-48d9-9f2a-60b4b9923777","ios":"levelo://app?vid=e8b1d499-1fb8-48d9-9f2a-60b4b9923777"},"vehicle_type_id":"4","last_reported":1730113694,"current_range_meters":38800,"station_id":"ce4bgrp2rcd13ifvqc9g","pricing_plan_id":"cebpf4jnsgd1na2vs0mg"},{"bike_id":"149a1ca4-78a0-4b83-b1ec-fd612d11146d","system_id":"levelo_inurba_marseille","lat":43.29012,"lon":5.38638,"is_reserved":false,"is_disabled":false,"rental_uris":{"android":"levelo://app?vid=149a1ca4-78a0-4b83-b1ec-fd612d11146d","ios":"levelo://app?vid=149a1ca4-78a0-4b83-b1ec-fd612d11146d"},"vehicle_type_id":"4","last_reported":1730113694,"current_range_meters":16400,"station_id":"ce4bh4p2rcd13ifvqe0g","pricing_plan_id":"cebpf4jnsgd1na2vs0mg"},{"bike_id":"7d0a3d78-c900-4e15-8e91-f315f27a1386","system_id":"levelo_inurba_marseille","lat":43.26216,"lon":5.37437,"is_reserved":false,"is_disabled":false,"rental_uris":{"android":"levelo://app?vid=7d0a3d78-c900-4e15-8e91-f315f27a1386","ios":"levelo://app?vid=7d0a3d78-c900-4e15-8e91-f315f27a1386"},"vehicle_type_id":"4","last_reported":1730113694,"current_range_meters":39200,"station_id":"ce4bhgp2rcd13ifvqfc0","pricing_plan_id":"cebpf4jnsgd1na2vs0mg"},{"bike_id":"834781fd-4046-4ea2-b782-0f5cbba5acad","system_id":"levelo_inurba_marseille","lat":43.29535,"lon":5.37503,"is_reserved":false,"is_disabled":false,"rental_uris":{"android":"levelo://app?vid=834781fd-4046-4ea2-b782-0f5cbba5acad","ios":"levelo://app?vid=834781fd-4046-4ea2-b782-0f5cbba5acad"},"vehicle_type_id":"4","last_reported":1730113694,"current_range_meters":30400,"station_id":"ce4bgkp2rcd13ifvqbmg","pricing_plan_id":"cebpf4jnsgd1na2vs0mg"},{"bike_id":"88e952d6-f8c2-479f-9c0b-024d5ffb801c","system_id":"levelo_inurba_marseille","lat":43.28158,"lon":5.42639,"is_reserved":false,"is_disabled":false,"rental_uris":{"android":"levelo://app?vid=88e952d6-f8c2-479f-9c0b-024d5ffb801c","ios":"levelo://app?vid=88e952d6-f8c2-479f-9c0b-024d5ffb801c"},"vehicle_type_id":"4","last_reported":1730113694,"current_range_meters":24800,"station_id":"ce4bhnh2rcd13ifvqgug","pricing_plan_id":"cebpf4jnsgd1na2vs0mg"},{"bike_id":"55a34d0b-49c6-455e-a524-0076015a4753","system_id":"levelo_inurba_marseille","lat":43.26562,"lon":5.3901,"is_reserved":false,"is_disabled":false,"rental_uris":{"android":"levelo://app?vid=55a34d0b-49c6-455e-a524-0076015a4753","ios":"levelo://app?vid=55a34d0b-49c6-455e-a524-0076015a4753"},"vehicle_type_id":"4","last_reported":1730113694,"current_range_meters":33600,"station_id":"ce4bhe12rcd13ifvqf30","pricing_plan_id":"cebpf4jnsgd1na2vs0mg"},{"bike_id":"2a6848c1-d22b-44f2-a324-89f4967e1c2c","system_id":"levelo_inurba_marseille","lat":43.30143,"lon":5.37426,"is_reserved":false,"is_disabled":false,"rental_uris":{"android":"levelo://app?vid=2a6848c1-d22b-44f2-a324-89f4967e1c2c","ios":"levelo://app?vid=2a6848c1-d22b-44f2-a324-89f4967e1c2c"},"vehicle_type_id":"4","last_reported":1730113694,"current_range_meters":28000,"station_id":"ce4bgs92rcd13ifvqcc0","pricing_plan_id":"cebpf4jnsgd1na2vs0mg"},{"bike_id":"3da2b441-84ba-4dd2-867a-0bc4320d98b3","system_id":"levelo_inurba_marseille","lat":43.32294,"lon":5.38276,"is_reserved":false,"is_disabled":false,"rental_uris":{"android":"levelo://app?vid=3da2b441-84ba-4dd2-867a-0bc4320d98b3","ios":"levelo://app?vid=3da2b441-84ba-4dd2-867a-0bc4320d98b3"},"vehicle_type_id":"4","last_reported":1730113694,"current_range_meters":38800,"station_id":"ce4bhr12rcd13ifvqhqg","pricing_plan_id":"cebpf4jnsgd1na2vs0mg"},{"bike_id":"dedae4cc-feae-41f0-8e4e-947751cf2554","system_id":"levelo_inurba_marseille","lat":43.29972,"lon":5.37173,"is_reserved":false,"is_disabled":false,"rental_uris":{"android":"levelo://app?vid=dedae4cc-feae-41f0-8e4e-947751cf2554","ios":"levelo://app?vid=dedae4cc-feae-41f0-8e4e-947751cf2554"},"vehicle_type_id":"4","last_reported":1730113694,"current_range_meters":36000,"station_id":"ce4bgr92rcd13ifvqc7g","pricing_plan_id":"cebpf4jnsgd1na2vs0mg"},{"bike_id":"d42cd8f1-be9f-4587-96dc-fd9d11f4d1a0","system_id":"levelo_inurba_marseille","lat":43.2511,"lon":5.40313,"is_reserved":false,"is_disabled":false,"rental_uris":{"android":"levelo://app?vid=d42cd8f1-be9f-4587-96dc-fd9d11f4d1a0","ios":"levelo://app?vid=d42cd8f1-be9f-4587-96dc-fd9d11f4d1a0"},"vehicle_type_id":"4","last_reported":1730113694,"current_range_meters":22000,"station_id":"ce4bhlh2rcd13ifvqgig","pricing_plan_id":"cebpf4jnsgd1na2vs0mg"},{"bike_id":"2e10531e-9386-411b-ab90-247ac4a58043","system_id":"levelo_inurba_marseille","lat":43.23975,"lon":5.36629,"is_reserved":false,"is_disabled":false,"rental_uris":{"android":"levelo://app?vid=2e10531e-9386-411b-ab90-247ac4a58043","ios":"levelo://app?vid=2e10531e-9386-411b-ab90-247ac4a58043"},"vehicle_type_id":"4","last_reported":1730113694,"current_range_meters":38800,"station_id":"ce4bhi12rcd13ifvqfp0","pricing_plan_id":"cebpf4jnsgd1na2vs0mg"},{"bike_id":"378b70a5-bf86-40f2-b9dc-d9ae8313095f","system_id":"levelo_inurba_marseille","lat":43.30541,"lon":5.38423,"is_reserved":false,"is_disabled":false,"rental_uris":{"android":"levelo://app?vid=378b70a5-bf86-40f2-b9dc-d9ae8313095f","ios":"levelo://app?vid=378b70a5-bf86-40f2-b9dc-d9ae8313095f"},"vehicle_type_id":"4","last_reported":1730113694,"current_range_meters":24000,"station_id":"ce4bgg92rcd13ifvqb30","pricing_plan_id":"cebpf4jnsgd1na2vs0mg"},{"bike_id":"6ffc72a5-95ed-4b97-8d3d-ffec63c4e48b","system_id":"levelo_inurba_marseille","lat":43.24808,"lon":5.37452,"is_reserved":false,"is_disabled":false,"rental_uris":{"android":"levelo://app?vid=6ffc72a5-95ed-4b97-8d3d-ffec63c4e48b","ios":"levelo://app?vid=6ffc72a5-95ed-4b97-8d3d-ffec63c4e48b"},"vehicle_type_id":"4","last_reported":1730113694,"current_range_meters":28400,"station_id":"ce4bhgh2rcd13ifvqfb0","pricing_plan_id":"cebpf4jnsgd1na2vs0mg"},{"bike_id":"46b8b804-1c15-4d62-ba52-cfb64553c788","system_id":"levelo_inurba_marseille","lat":43.23154,"lon":5.43716,"is_reserved":false,"is_disabled":false,"rental_uris":{"android":"levelo://app?vid=46b8b804-1c15-4d62-ba52-cfb64553c788","ios":"levelo://app?vid=46b8b804-1c15-4d62-ba52-cfb64553c788"},"vehicle_type_id":"4","last_reported":1730113694,"current_range_meters":16400,"station_id":"ce4bhmp2rcd13ifvqgog","pricing_plan_id":"cebpf4jnsgd1na2vs0mg"},{"bike_id":"9403ad19-9050-4623-81ae-08b1b66bb37c","system_id":"levelo_inurba_marseille","lat":43.23186,"lon":5.39976,"is_reserved":false,"is_disabled":false,"rental_uris":{"android":"levelo://app?vid=9403ad19-9050-4623-81ae-08b1b66bb37c","ios":"levelo://app?vid=9403ad19-9050-4623-81ae-08b1b66bb37c"},"vehicle_type_id":"4","last_reported":1730113694,"current_range_meters":36800,"station_id":"ce4bhn12rcd13ifvqgqg","pricing_plan_id":"cebpf4jnsgd1na2vs0mg"},{"bike_id":"a2ea2797-ae2a-4d35-8b0b-0c47931da0c1","system_id":"levelo_inurba_marseille","lat":43.26502,"lon":5.3954,"is_reserved":false,"is_disabled":false,"rental_uris":{"android":"levelo://app?vid=a2ea2797-ae2a-4d35-8b0b-0c47931da0c1","ios":"levelo://app?vid=a2ea2797-ae2a-4d35-8b0b-0c47931da0c1"},"vehicle_type_id":"4","last_reported":1730113694,"current_range_meters":32400,"station_id":"ce4bhi12rcd13ifvqfq0","pricing_plan_id":"cebpf4jnsgd1na2vs0mg"},{"bike_id":"a764cfb4-3e3d-4080-9b40-c76c6f394b50","system_id":"levelo_inurba_marseille","lat":43.29553,"lon":5.42277,"is_reserved":false,"is_disabled":false,"rental_uris":{"android":"levelo://app?vid=a764cfb4-3e3d-4080-9b40-c76c6f394b50","ios":"levelo://app?vid=a764cfb4-3e3d-4080-9b40-c76c6f394b50"},"vehicle_type_id":"4","last_reported":1730113694,"current_range_meters":38000,"station_id":"ce4bhph2rcd13ifvqhdg","pricing_plan_id":"cebpf4jnsgd1na2vs0mg"},{"bike_id":"9765da81-e5b2-4b38-aac7-8a13dcd95345","system_id":"levelo_inurba_marseille","lat":43.27432,"lon":5.39412,"is_reserved":false,"is_disabled":false,"rental_uris":{"android":"levelo://app?vid=9765da81-e5b2-4b38-aac7-8a13dcd95345","ios":"levelo://app?vid=9765da81-e5b2-4b38-aac7-8a13dcd95345"},"vehicle_type_id":"4","last_reported":1730113694,"current_range_meters":21600,"station_id":"ce4bhdp2rcd13ifvqf20","pricing_plan_id":"cebpf4jnsgd1na2vs0mg"},{"bike_id":"cd68f1dc-3134-4c22-9fa5-8490da02f071","system_id":"levelo_inurba_marseille","lat":43.23151,"lon":5.43717,"is_reserved":false,"is_disabled":false,"rental_uris":{"android":"levelo://app?vid=cd68f1dc-3134-4c22-9fa5-8490da02f071","ios":"levelo://app?vid=cd68f1dc-3134-4c22-9fa5-8490da02f071"},"vehicle_type_id":"4","last_reported":1730113694,"current_range_meters":10000,"station_id":"ce4bhmp2rcd13ifvqgog","pricing_plan_id":"cebpf4jnsgd1na2vs0mg"},{"bike_id":"59c7fa64-e71e-4850-85b0-84a8ba6e2161","system_id":"levelo_inurba_marseille","lat":43.28616,"lon":5.35099,"is_reserved":false,"is_disabled":false,"rental_uris":{"android":"levelo://app?vid=59c7fa64-e71e-4850-85b0-84a8ba6e2161","ios":"levelo://app?vid=59c7fa64-e71e-4850-85b0-84a8ba6e2161"},"vehicle_type_id":"4","last_reported":1730113694,"current_range_meters":36000,"station_id":"ce4bhch2rcd13ifvqeug","pricing_plan_id":"cebpf4jnsgd1na2vs0mg"},{"bike_id":"9df781dc-a17d-4c43-8d58-f238f2778b8b","system_id":"levelo_inurba_marseille","lat":43.25109,"lon":5.40332,"is_reserved":false,"is_disabled":false,"rental_uris":{"android":"levelo://app?vid=9df781dc-a17d-4c43-8d58-f238f2778b8b","ios":"levelo://app?vid=9df781dc-a17d-4c43-8d58-f238f2778b8b"},"vehicle_type_id":"4","last_reported":1730113694,"current_range_meters":11200,"station_id":"ce4bhlh2rcd13ifvqgig","pricing_plan_id":"cebpf4jnsgd1na2vs0mg"},{"bike_id":"83951415-bd72-4fd4-82c4-ca875a9c879e","system_id":"levelo_inurba_marseille","lat":43.30537,"lon":5.36523,"is_reserved":false,"is_disabled":false,"rental_uris":{"android":"levelo://app?vid=83951415-bd72-4fd4-82c4-ca875a9c879e","ios":"levelo://app?vid=83951415-bd72-4fd4-82c4-ca875a9c879e"},"vehicle_type_id":"4","last_reported":1730113694,"current_range_meters":38400,"station_id":"ce4bgs12rcd13ifvqcag","pricing_plan_id":"cebpf4jnsgd1na2vs0mg"},{"bike_id":"c9905e8d-af86-448a-a01c-a1a93cba75c5","system_id":"levelo_inurba_marseille","lat":43.30147,"lon":5.3808,"is_reserved":false,"is_disabled":false,"rental_uris":{"android":"levelo://app?vid=c9905e8d-af86-448a-a01c-a1a93cba75c5","ios":"levelo://app?vid=c9905e8d-af86-448a-a01c-a1a93cba75c5"},"vehicle_type_id":"4","last_reported":1730113694,"current_range_meters":36400,"station_id":"ce4bgjp2rcd13ifvqbh0","pricing_plan_id":"cebpf4jnsgd1na2vs0mg"},{"bike_id":"dbfaf167-db24-4e87-92c0-4a57e3fe8f99","system_id":"levelo_inurba_marseille","lat":43.26805,"lon":5.40266,"is_reserved":false,"is_disabled":false,"rental_uris":{"android":"levelo://app?vid=dbfaf167-db24-4e87-92c0-4a57e3fe8f99","ios":"levelo://app?vid=dbfaf167-db24-4e87-92c0-4a57e3fe8f99"},"vehicle_type_id":"4","last_reported":1730113694,"current_range_meters":28000,"station_id":"ce501612rcd8frsf0b60","pricing_plan_id":"cebpf4jnsgd1na2vs0mg"},{"bike_id":"4cd62867-fcb2-4724-b8c6-ec9bc5fd6603","system_id":"levelo_inurba_marseille","lat":43.23192,"lon":5.35547,"is_reserved":false,"is_disabled":false,"rental_uris":{"android":"levelo://app?vid=4cd62867-fcb2-4724-b8c6-ec9bc5fd6603","ios":"levelo://app?vid=4cd62867-fcb2-4724-b8c6-ec9bc5fd6603"},"vehicle_type_id":"4","last_reported":1730113694,"current_range_meters":29600,"station_id":"ce4bhu92rcd13ifvqi70","pricing_plan_id":"cebpf4jnsgd1na2vs0mg"},{"bike_id":"ffcf218a-6d5d-4cc6-bf82-354eab76c8b8","system_id":"levelo_inurba_marseille","lat":43.27492,"lon":5.42457,"is_reserved":false,"is_disabled":false,"rental_uris":{"android":"levelo://app?vid=ffcf218a-6d5d-4cc6-bf82-354eab76c8b8","ios":"levelo://app?vid=ffcf218a-6d5d-4cc6-bf82-354eab76c8b8"},"vehicle_type_id":"4","last_reported":1730113694,"current_range_meters":32400,"station_id":"ce4bhn92rcd13ifvqgrg","pricing_plan_id":"cebpf4jnsgd1na2vs0mg"},{"bike_id":"81e500be-3ff6-45b1-af40-237783c8efb0","system_id":"levelo_inurba_marseille","lat":43.27814,"lon":5.40715,"is_reserved":false,"is_disabled":false,"rental_uris":{"android":"levelo://app?vid=81e500be-3ff6-45b1-af40-237783c8efb0","ios":"levelo://app?vid=81e500be-3ff6-45b1-af40-237783c8efb0"},"vehicle_type_id":"4","last_reported":1730113694,"current_range_meters":9200,"station_id":"ce4bhnh2rcd13ifvqgtg","pricing_plan_id":"cebpf4jnsgd1na2vs0mg"},{"bike_id":"5d820ce0-2d55-46e5-b74d-cc75a18e2e27","system_id":"levelo_inurba_marseille","lat":43.27001,"lon":5.39241,"is_reserved":false,"is_disabled":false,"rental_uris":{"android":"levelo://app?vid=5d820ce0-2d55-46e5-b74d-cc75a18e2e27","ios":"levelo://app?vid=5d820ce0-2d55-46e5-b74d-cc75a18e2e27"},"vehicle_type_id":"4","last_reported":1730113694,"current_range_meters":32400,"station_id":"ce4bgh92rcd13ifvqb40","pricing_plan_id":"cebpf4jnsgd1na2vs0mg"},{"bike_id":"40b039ad-0769-4a0e-8ad8-e16a05aa5fd5","system_id":"levelo_inurba_marseille","lat":43.2795,"lon":5.4105,"is_reserved":false,"is_disabled":false,"rental_uris":{"android":"levelo://app?vid=40b039ad-0769-4a0e-8ad8-e16a05aa5fd5","ios":"levelo://app?vid=40b039ad-0769-4a0e-8ad8-e16a05aa5fd5"},"vehicle_type_id":"4","last_reported":1730113694,"current_range_meters":37600,"station_id":"ce4bhnp2rcd13ifvqh0g","pricing_plan_id":"cebpf4jnsgd1na2vs0mg"},{"bike_id":"55433e48-d44e-4b78-92c7-ee7cf1d8fd02","system_id":"levelo_inurba_marseille","lat":43.30886,"lon":5.37186,"is_reserved":false,"is_disabled":false,"rental_uris":{"android":"levelo://app?vid=55433e48-d44e-4b78-92c7-ee7cf1d8fd02","ios":"levelo://app?vid=55433e48-d44e-4b78-92c7-ee7cf1d8fd02"},"vehicle_type_id":"4","last_reported":1730113694,"current_range_meters":16400,"station_id":"ce4bguh2rcd13ifvqckg","pricing_plan_id":"cebpf4jnsgd1na2vs0mg"},{"bike_id":"e3f47b80-4d77-4b5e-837f-43a3c11bfd44","system_id":"levelo_inurba_marseille","lat":43.3121,"lon":5.36838,"is_reserved":false,"is_disabled":false,"rental_uris":{"android":"levelo://app?vid=e3f47b80-4d77-4b5e-837f-43a3c11bfd44","ios":"levelo://app?vid=e3f47b80-4d77-4b5e-837f-43a3c11bfd44"},"vehicle_type_id":"4","last_reported":1730113694,"current_range_meters":38800,"station_id":"ce4bgl92rcd13ifvqbq0","pricing_plan_id":"cebpf4jnsgd1na2vs0mg"},{"bike_id":"df18a4d4-051a-4a60-ad8e-e275c817d3a2","system_id":"levelo_inurba_marseille","lat":43.30531,"lon":5.36533,"is_reserved":false,"is_disabled":false,"rental_uris":{"android":"levelo://app?vid=df18a4d4-051a-4a60-ad8e-e275c817d3a2","ios":"levelo://app?vid=df18a4d4-051a-4a60-ad8e-e275c817d3a2"},"vehicle_type_id":"4","last_reported":1730113694,"current_range_meters":34000,"station_id":"ce4bgs12rcd13ifvqcag","pricing_plan_id":"cebpf4jnsgd1na2vs0mg"},{"bike_id":"9d7b0679-bdc0-4e82-9ffd-848f80e6fb82","system_id":"levelo_inurba_marseille","lat":43.28488,"lon":5.38549,"is_reserved":false,"is_disabled":false,"rental_uris":{"android":"levelo://app?vid=9d7b0679-bdc0-4e82-9ffd-848f80e6fb82","ios":"levelo://app?vid=9d7b0679-bdc0-4e82-9ffd-848f80e6fb82"},"vehicle_type_id":"4","last_reported":1730113694,"current_range_meters":31200,"station_id":"ce4bh8p2rcd13ifvqeb0","pricing_plan_id":"cebpf4jnsgd1na2vs0mg"},{"bike_id":"cbc61f56-2d40-4e9d-ba43-42366e42ca9d","system_id":"levelo_inurba_marseille","lat":43.29572,"lon":5.37514,"is_reserved":false,"is_disabled":false,"rental_uris":{"android":"levelo://app?vid=cbc61f56-2d40-4e9d-ba43-42366e42ca9d","ios":"levelo://app?vid=cbc61f56-2d40-4e9d-ba43-42366e42ca9d"},"vehicle_type_id":"4","last_reported":1730113694,"current_range_meters":37600,"station_id":"","pricing_plan_id":"cebpf4jnsgd1na2vs0mg"},{"bike_id":"f052a045-a9c0-4384-867c-819a10569703","system_id":"levelo_inurba_marseille","lat":43.30954,"lon":5.39034,"is_reserved":false,"is_disabled":false,"rental_uris":{"android":"levelo://app?vid=f052a045-a9c0-4384-867c-819a10569703","ios":"levelo://app?vid=f052a045-a9c0-4384-867c-819a10569703"},"vehicle_type_id":"4","last_reported":1730113694,"current_range_meters":14800,"station_id":"ce4bgup2rcd13ifvqco0","pricing_plan_id":"cebpf4jnsgd1na2vs0mg"},{"bike_id":"adadb5c5-f7d3-4b8a-81d5-3df3051cde40","system_id":"levelo_inurba_marseille","lat":43.30953,"lon":5.39045,"is_reserved":false,"is_disabled":false,"rental_uris":{"android":"levelo://app?vid=adadb5c5-f7d3-4b8a-81d5-3df3051cde40","ios":"levelo://app?vid=adadb5c5-f7d3-4b8a-81d5-3df3051cde40"},"vehicle_type_id":"4","last_reported":1730113694,"current_range_meters":33600,"station_id":"ce4bgup2rcd13ifvqco0","pricing_plan_id":"cebpf4jnsgd1na2vs0mg"},{"bike_id":"a9f2b780-ecff-4bd6-9d62-dc98e85174ce","system_id":"levelo_inurba_marseille","lat":43.3092,"lon":5.40142,"is_reserved":false,"is_disabled":false,"rental_uris":{"android":"levelo://app?vid=a9f2b780-ecff-4bd6-9d62-dc98e85174ce","ios":"levelo://app?vid=a9f2b780-ecff-4bd6-9d62-dc98e85174ce"},"vehicle_type_id":"4","last_reported":1730113694,"current_range_meters":33600,"station_id":"ce4bgvp2rcd13ifvqct0","pricing_plan_id":"cebpf4jnsgd1na2vs0mg"},{"bike_id":"5e8add12-0a2f-4ee0-a948-b3005ed38fe3","system_id":"levelo_inurba_marseille","lat":43.324823,"lon":5.365605,"is_reserved":false,"is_disabled":false,"rental_uris":{"android":"levelo://app?vid=5e8add12-0a2f-4ee0-a948-b3005ed38fe3","ios":"levelo://app?vid=5e8add12-0a2f-4ee0-a948-b3005ed38fe3"},"vehicle_type_id":"4","last_reported":1730113694,"current_range_meters":38800,"station_id":"ce4bhs12rcd13ifvqhvg","pricing_plan_id":"cebpf4jnsgd1na2vs0mg"},{"bike_id":"03f1c2cf-3283-4d4a-8af5-87f7e216c788","system_id":"levelo_inurba_marseille","lat":43.32338,"lon":5.40622,"is_reserved":false,"is_disabled":false,"rental_uris":{"android":"levelo://app?vid=03f1c2cf-3283-4d4a-8af5-87f7e216c788","ios":"levelo://app?vid=03f1c2cf-3283-4d4a-8af5-87f7e216c788"},"vehicle_type_id":"4","last_reported":1730113694,"current_range_meters":22400,"station_id":"ce4bhq92rcd13ifvqhjg","pricing_plan_id":"cebpf4jnsgd1na2vs0mg"},{"bike_id":"dc1db8f0-a45c-4980-84b1-5990614565b3","system_id":"levelo_inurba_marseille","lat":43.30158,"lon":5.38079,"is_reserved":false,"is_disabled":false,"rental_uris":{"android":"levelo://app?vid=dc1db8f0-a45c-4980-84b1-5990614565b3","ios":"levelo://app?vid=dc1db8f0-a45c-4980-84b1-5990614565b3"},"vehicle_type_id":"4","last_reported":1730113694,"current_range_meters":31200,"station_id":"ce4bgjp2rcd13ifvqbh0","pricing_plan_id":"cebpf4jnsgd1na2vs0mg"},{"bike_id":"58c29938-9a66-4cb0-80d8-96474a8212ec","system_id":"levelo_inurba_marseille","lat":43.23145,"lon":5.43715,"is_reserved":false,"is_disabled":false,"rental_uris":{"android":"levelo://app?vid=58c29938-9a66-4cb0-80d8-96474a8212ec","ios":"levelo://app?vid=58c29938-9a66-4cb0-80d8-96474a8212ec"},"vehicle_type_id":"4","last_reported":1730113694,"current_range_meters":22800,"station_id":"ce4bhmp2rcd13ifvqgog","pricing_plan_id":"cebpf4jnsgd1na2vs0mg"},{"bike_id":"c227a299-49a1-4ee2-8b27-226fe701755a","system_id":"levelo_inurba_marseille","lat":43.32475,"lon":5.36574,"is_reserved":false,"is_disabled":false,"rental_uris":{"android":"levelo://app?vid=c227a299-49a1-4ee2-8b27-226fe701755a","ios":"levelo://app?vid=c227a299-49a1-4ee2-8b27-226fe701755a"},"vehicle_type_id":"4","last_reported":1730113694,"current_range_meters":37600,"station_id":"ce4bhs12rcd13ifvqhvg","pricing_plan_id":"cebpf4jnsgd1na2vs0mg"},{"bike_id":"4ef20da9-2cc7-422a-92f0-787ae5a784ab","system_id":"levelo_inurba_marseille","lat":43.25582,"lon":5.38231,"is_reserved":false,"is_disabled":false,"rental_uris":{"android":"levelo://app?vid=4ef20da9-2cc7-422a-92f0-787ae5a784ab","ios":"levelo://app?vid=4ef20da9-2cc7-422a-92f0-787ae5a784ab"},"vehicle_type_id":"4","last_reported":1730113694,"current_range_meters":19200,"station_id":"ce4bhih2rcd13ifvqfs0","pricing_plan_id":"cebpf4jnsgd1na2vs0mg"},{"bike_id":"4a6b2d96-03d9-40b0-8ef5-b2472946a4b3","system_id":"levelo_inurba_marseille","lat":43.29171,"lon":5.37155,"is_reserved":false,"is_disabled":false,"rental_uris":{"android":"levelo://app?vid=4a6b2d96-03d9-40b0-8ef5-b2472946a4b3","ios":"levelo://app?vid=4a6b2d96-03d9-40b0-8ef5-b2472946a4b3"},"vehicle_type_id":"4","last_reported":1730113694,"current_range_meters":9200,"station_id":"ce4bha92rcd13ifvqeh0","pricing_plan_id":"cebpf4jnsgd1na2vs0mg"},{"bike_id":"86e4f3bf-364f-4a4b-a90a-4779569d04df","system_id":"levelo_inurba_marseille","lat":43.29267,"lon":5.36843,"is_reserved":false,"is_disabled":false,"rental_uris":{"android":"levelo://app?vid=86e4f3bf-364f-4a4b-a90a-4779569d04df","ios":"levelo://app?vid=86e4f3bf-364f-4a4b-a90a-4779569d04df"},"vehicle_type_id":"4","last_reported":1730113694,"current_range_meters":36000,"station_id":"ce4bhbp2rcd13ifvqesg","pricing_plan_id":"cebpf4jnsgd1na2vs0mg"},{"bike_id":"a792347a-d158-4403-9c48-1b4e0c6fc790","system_id":"levelo_inurba_marseille","lat":43.27072,"lon":5.42275,"is_reserved":false,"is_disabled":false,"rental_uris":{"android":"levelo://app?vid=a792347a-d158-4403-9c48-1b4e0c6fc790","ios":"levelo://app?vid=a792347a-d158-4403-9c48-1b4e0c6fc790"},"vehicle_type_id":"4","last_reported":1730113694,"current_range_meters":39200,"station_id":"ce4bhk92rcd13ifvqgb0","pricing_plan_id":"cebpf4jnsgd1na2vs0mg"},{"bike_id":"2bfba81e-d8e1-450b-92c2-584543bfe40e","system_id":"levelo_inurba_marseille","lat":43.30889,"lon":5.37199,"is_reserved":false,"is_disabled":false,"rental_uris":{"android":"levelo://app?vid=2bfba81e-d8e1-450b-92c2-584543bfe40e","ios":"levelo://app?vid=2bfba81e-d8e1-450b-92c2-584543bfe40e"},"vehicle_type_id":"4","last_reported":1730113694,"current_range_meters":37600,"station_id":"ce4bguh2rcd13ifvqckg","pricing_plan_id":"cebpf4jnsgd1na2vs0mg"},{"bike_id":"27aa3085-8c03-453b-9f57-6329144bd76e","system_id":"levelo_inurba_marseille","lat":43.29625,"lon":5.40597,"is_reserved":false,"is_disabled":false,"rental_uris":{"android":"levelo://app?vid=27aa3085-8c03-453b-9f57-6329144bd76e","ios":"levelo://app?vid=27aa3085-8c03-453b-9f57-6329144bd76e"},"vehicle_type_id":"4","last_reported":1730113694,"current_range_meters":31200,"station_id":"ce4bh0h2rcd13ifvqd60","pricing_plan_id":"cebpf4jnsgd1na2vs0mg"},{"bike_id":"97cdf511-e101-423c-85f5-c679aa0d9c74","system_id":"levelo_inurba_marseille","lat":43.24999,"lon":5.38927,"is_reserved":false,"is_disabled":false,"rental_uris":{"android":"levelo://app?vid=97cdf511-e101-423c-85f5-c679aa0d9c74","ios":"levelo://app?vid=97cdf511-e101-423c-85f5-c679aa0d9c74"},"vehicle_type_id":"4","last_reported":1730113694,"current_range_meters":38400,"station_id":"ce4bhgp2rcd13ifvqfd0","pricing_plan_id":"cebpf4jnsgd1na2vs0mg"},{"bike_id":"158bdcf5-a4ac-4518-a427-cf063c3c22ef","system_id":"levelo_inurba_marseille","lat":43.28586,"lon":5.38484,"is_reserved":false,"is_disabled":false,"rental_uris":{"android":"levelo://app?vid=158bdcf5-a4ac-4518-a427-cf063c3c22ef","ios":"levelo://app?vid=158bdcf5-a4ac-4518-a427-cf063c3c22ef"},"vehicle_type_id":"4","last_reported":1730113694,"current_range_meters":38000,"station_id":"ce4bgs12rcd13ifvqcag","pricing_plan_id":"cebpf4jnsgd1na2vs0mg"},{"bike_id":"b497d91c-1f87-4508-b462-50136e06ba9f","system_id":"levelo_inurba_marseille","lat":43.24177,"lon":5.39721,"is_reserved":false,"is_disabled":false,"rental_uris":{"android":"levelo://app?vid=b497d91c-1f87-4508-b462-50136e06ba9f","ios":"levelo://app?vid=b497d91c-1f87-4508-b462-50136e06ba9f"},"vehicle_type_id":"4","last_reported":1730113694,"current_range_meters":32000,"station_id":"ce4bhn12rcd13ifvqgpg","pricing_plan_id":"cebpf4jnsgd1na2vs0mg"},{"bike_id":"e0bf05b6-3eb6-4872-8e8d-82b38f035f72","system_id":"levelo_inurba_marseille","lat":43.23177,"lon":5.39986,"is_reserved":false,"is_disabled":false,"rental_uris":{"android":"levelo://app?vid=e0bf05b6-3eb6-4872-8e8d-82b38f035f72","ios":"levelo://app?vid=e0bf05b6-3eb6-4872-8e8d-82b38f035f72"},"vehicle_type_id":"4","last_reported":1730113694,"current_range_meters":38800,"station_id":"ce4bhn12rcd13ifvqgqg","pricing_plan_id":"cebpf4jnsgd1na2vs0mg"},{"bike_id":"870759aa-b4f1-410f-8dd7-8cce75f5dcfb","system_id":"levelo_inurba_marseille","lat":43.23149,"lon":5.4372,"is_reserved":false,"is_disabled":false,"rental_uris":{"android":"levelo://app?vid=870759aa-b4f1-410f-8dd7-8cce75f5dcfb","ios":"levelo://app?vid=870759aa-b4f1-410f-8dd7-8cce75f5dcfb"},"vehicle_type_id":"4","last_reported":1730113694,"current_range_meters":38800,"station_id":"ce4bhmp2rcd13ifvqgog","pricing_plan_id":"cebpf4jnsgd1na2vs0mg"},{"bike_id":"8d61c68d-7b6e-43ba-a4c2-a14b90b9c620","system_id":"levelo_inurba_marseille","lat":43.29638,"lon":5.40601,"is_reserved":false,"is_disabled":false,"rental_uris":{"android":"levelo://app?vid=8d61c68d-7b6e-43ba-a4c2-a14b90b9c620","ios":"levelo://app?vid=8d61c68d-7b6e-43ba-a4c2-a14b90b9c620"},"vehicle_type_id":"4","last_reported":1730113694,"current_range_meters":38000,"station_id":"ce4bh0h2rcd13ifvqd60","pricing_plan_id":"cebpf4jnsgd1na2vs0mg"},{"bike_id":"826eb7f4-7b2c-4960-b8f0-1ad2d382103e","system_id":"levelo_inurba_marseille","lat":43.27496,"lon":5.42446,"is_reserved":false,"is_disabled":false,"rental_uris":{"android":"levelo://app?vid=826eb7f4-7b2c-4960-b8f0-1ad2d382103e","ios":"levelo://app?vid=826eb7f4-7b2c-4960-b8f0-1ad2d382103e"},"vehicle_type_id":"4","last_reported":1730113694,"current_range_meters":38000,"station_id":"ce4bhn92rcd13ifvqgrg","pricing_plan_id":"cebpf4jnsgd1na2vs0mg"},{"bike_id":"340b7201-89a9-4beb-b4d0-5d8a1b45bddf","system_id":"levelo_inurba_marseille","lat":43.3079,"lon":5.38145,"is_reserved":false,"is_disabled":false,"rental_uris":{"android":"levelo://app?vid=340b7201-89a9-4beb-b4d0-5d8a1b45bddf","ios":"levelo://app?vid=340b7201-89a9-4beb-b4d0-5d8a1b45bddf"},"vehicle_type_id":"4","last_reported":1730113694,"current_range_meters":32000,"station_id":"ce4bgt12rcd13ifvqce0","pricing_plan_id":"cebpf4jnsgd1na2vs0mg"},{"bike_id":"5790618d-de32-4a58-898a-bfa124a2426f","system_id":"levelo_inurba_marseille","lat":43.24178,"lon":5.39725,"is_reserved":false,"is_disabled":false,"rental_uris":{"android":"levelo://app?vid=5790618d-de32-4a58-898a-bfa124a2426f","ios":"levelo://app?vid=5790618d-de32-4a58-898a-bfa124a2426f"},"vehicle_type_id":"4","last_reported":1730113694,"current_range_meters":29600,"station_id":"ce4bhn12rcd13ifvqgpg","pricing_plan_id":"cebpf4jnsgd1na2vs0mg"},{"bike_id":"089c37ba-3c44-437d-be3a-8dcc8e4e5629","system_id":"levelo_inurba_marseille","lat":43.30545,"lon":5.3654,"is_reserved":false,"is_disabled":false,"rental_uris":{"android":"levelo://app?vid=089c37ba-3c44-437d-be3a-8dcc8e4e5629","ios":"levelo://app?vid=089c37ba-3c44-437d-be3a-8dcc8e4e5629"},"vehicle_type_id":"4","last_reported":1730113694,"current_range_meters":39200,"station_id":"ce4bgs12rcd13ifvqcag","pricing_plan_id":"cebpf4jnsgd1na2vs0mg"},{"bike_id":"852eb713-abea-4fac-859f-b7ea8078e850","system_id":"levelo_inurba_marseille","lat":43.303162,"lon":5.403998,"is_reserved":false,"is_disabled":false,"rental_uris":{"android":"levelo://app?vid=852eb713-abea-4fac-859f-b7ea8078e850","ios":"levelo://app?vid=852eb713-abea-4fac-859f-b7ea8078e850"},"vehicle_type_id":"4","last_reported":1730113694,"current_range_meters":9200,"station_id":"ce4bh012rcd13ifvqd10","pricing_plan_id":"cebpf4jnsgd1na2vs0mg"},{"bike_id":"fee9699e-2ec8-47ed-aa68-b230db73ed92","system_id":"levelo_inurba_marseille","lat":43.30529,"lon":5.36713,"is_reserved":false,"is_disabled":false,"rental_uris":{"android":"levelo://app?vid=fee9699e-2ec8-47ed-aa68-b230db73ed92","ios":"levelo://app?vid=fee9699e-2ec8-47ed-aa68-b230db73ed92"},"vehicle_type_id":"4","last_reported":1730113694,"current_range_meters":32800,"station_id":"ce4bgrp2rcd13ifvqc9g","pricing_plan_id":"cebpf4jnsgd1na2vs0mg"},{"bike_id":"c06cd744-be96-4311-ac22-8ad8274c24b7","system_id":"levelo_inurba_marseille","lat":43.30763,"lon":5.37937,"is_reserved":false,"is_disabled":false,"rental_uris":{"android":"levelo://app?vid=c06cd744-be96-4311-ac22-8ad8274c24b7","ios":"levelo://app?vid=c06cd744-be96-4311-ac22-8ad8274c24b7"},"vehicle_type_id":"4","last_reported":1730113694,"current_range_meters":22400,"station_id":"ce4bgv92rcd13ifvqcq0","pricing_plan_id":"cebpf4jnsgd1na2vs0mg"},{"bike_id":"60749919-b1e7-4299-821f-83d2deaf9f68","system_id":"levelo_inurba_marseille","lat":43.29581,"lon":5.36743,"is_reserved":false,"is_disabled":false,"rental_uris":{"android":"levelo://app?vid=60749919-b1e7-4299-821f-83d2deaf9f68","ios":"levelo://app?vid=60749919-b1e7-4299-821f-83d2deaf9f68"},"vehicle_type_id":"4","last_reported":1730113694,"current_range_meters":38800,"station_id":"ce4bgph2rcd13ifvqc2g","pricing_plan_id":"cebpf4jnsgd1na2vs0mg"},{"bike_id":"2a32972a-fa93-47dd-a759-de8bd05c8087","system_id":"levelo_inurba_marseille","lat":43.28616,"lon":5.3706,"is_reserved":false,"is_disabled":false,"rental_uris":{"android":"levelo://app?vid=2a32972a-fa93-47dd-a759-de8bd05c8087","ios":"levelo://app?vid=2a32972a-fa93-47dd-a759-de8bd05c8087"},"vehicle_type_id":"4","last_reported":1730113694,"current_range_meters":4400,"station_id":"ce4bht12rcd13ifvqi60","pricing_plan_id":"cebpf4jnsgd1na2vs0mg"},{"bike_id":"91870cc2-668f-4717-93d3-5f58465d5cdd","system_id":"levelo_inurba_marseille","lat":43.231899,"lon":5.399915,"is_reserved":false,"is_disabled":false,"rental_uris":{"android":"levelo://app?vid=91870cc2-668f-4717-93d3-5f58465d5cdd","ios":"levelo://app?vid=91870cc2-668f-4717-93d3-5f58465d5cdd"},"vehicle_type_id":"4","last_reported":1730113694,"current_range_meters":27200,"station_id":"ce4bhn12rcd13ifvqgqg","pricing_plan_id":"cebpf4jnsgd1na2vs0mg"},{"bike_id":"cd5289ce-9e66-4976-9552-3aa1b0da909c","system_id":"levelo_inurba_marseille","lat":43.32483,"lon":5.3656,"is_reserved":false,"is_disabled":false,"rental_uris":{"android":"levelo://app?vid=cd5289ce-9e66-4976-9552-3aa1b0da909c","ios":"levelo://app?vid=cd5289ce-9e66-4976-9552-3aa1b0da909c"},"vehicle_type_id":"4","last_reported":1730113694,"current_range_meters":5600,"station_id":"ce4bhs12rcd13ifvqhvg","pricing_plan_id":"cebpf4jnsgd1na2vs0mg"},{"bike_id":"8eb18b6f-75a4-49e9-80e8-b6420631b398","system_id":"levelo_inurba_marseille","lat":43.2815,"lon":5.42642,"is_reserved":false,"is_disabled":false,"rental_uris":{"android":"levelo://app?vid=8eb18b6f-75a4-49e9-80e8-b6420631b398","ios":"levelo://app?vid=8eb18b6f-75a4-49e9-80e8-b6420631b398"},"vehicle_type_id":"4","last_reported":1730113694,"current_range_meters":25200,"station_id":"ce4bhnh2rcd13ifvqgug","pricing_plan_id":"cebpf4jnsgd1na2vs0mg"},{"bike_id":"d2d9c337-b052-4814-94dc-88f2fc4bd8b6","system_id":"levelo_inurba_marseille","lat":43.303345,"lon":5.386025,"is_reserved":false,"is_disabled":false,"rental_uris":{"android":"levelo://app?vid=d2d9c337-b052-4814-94dc-88f2fc4bd8b6","ios":"levelo://app?vid=d2d9c337-b052-4814-94dc-88f2fc4bd8b6"},"vehicle_type_id":"4","last_reported":1730113694,"current_range_meters":20000,"station_id":"ce4bgk12rcd13ifvqbi0","pricing_plan_id":"cebpf4jnsgd1na2vs0mg"},{"bike_id":"d2cfb8e2-b4f5-493e-9190-4fd91f5e908d","system_id":"levelo_inurba_marseille","lat":43.33767,"lon":5.3747,"is_reserved":false,"is_disabled":false,"rental_uris":{"android":"levelo://app?vid=d2cfb8e2-b4f5-493e-9190-4fd91f5e908d","ios":"levelo://app?vid=d2cfb8e2-b4f5-493e-9190-4fd91f5e908d"},"vehicle_type_id":"4","last_reported":1730113694,"current_range_meters":38800,"station_id":"","pricing_plan_id":"cebpf4jnsgd1na2vs0mg"},{"bike_id":"0976b7ee-85b8-4844-af97-133bc0bcb476","system_id":"levelo_inurba_marseille","lat":43.283508,"lon":5.386318,"is_reserved":false,"is_disabled":false,"rental_uris":{"android":"levelo://app?vid=0976b7ee-85b8-4844-af97-133bc0bcb476","ios":"levelo://app?vid=0976b7ee-85b8-4844-af97-133bc0bcb476"},"vehicle_type_id":"4","last_reported":1730113694,"current_range_meters":37600,"station_id":"ce4bh492rcd13ifvqdvg","pricing_plan_id":"cebpf4jnsgd1na2vs0mg"},{"bike_id":"2c9cd697-74f8-4a74-a83b-515ce4f148d8","system_id":"levelo_inurba_marseille","lat":43.30131,"lon":5.37424,"is_reserved":false,"is_disabled":false,"rental_uris":{"android":"levelo://app?vid=2c9cd697-74f8-4a74-a83b-515ce4f148d8","ios":"levelo://app?vid=2c9cd697-74f8-4a74-a83b-515ce4f148d8"},"vehicle_type_id":"4","last_reported":1730113694,"current_range_meters":38000,"station_id":"ce4bgs92rcd13ifvqcc0","pricing_plan_id":"cebpf4jnsgd1na2vs0mg"},{"bike_id":"26a3aecf-9932-416a-9af7-85d56013d157","system_id":"levelo_inurba_marseille","lat":43.30919,"lon":5.36844,"is_reserved":false,"is_disabled":false,"rental_uris":{"android":"levelo://app?vid=26a3aecf-9932-416a-9af7-85d56013d157","ios":"levelo://app?vid=26a3aecf-9932-416a-9af7-85d56013d157"},"vehicle_type_id":"4","last_reported":1730113694,"current_range_meters":33200,"station_id":"ce4bgn92rcd13ifvqbvg","pricing_plan_id":"cebpf4jnsgd1na2vs0mg"},