{"last_updated":1740931846,"ttl":60,"version":"2.2","data":{"bikes":[{"bike_id":"819fc6fd-4768-4c11-82f9-0b5fd0b62d4a","system_id":"levelo_inurba_marseille","lat":43.34248,"lon":5.37785,"is_reserved":false,"is_disabled":true,"rental_uris":{"android":"levelo://app?vid=819fc6fd-4768-4c11-82f9-0b5fd0b62d4a","ios":"levelo://app?vid=819fc6fd-4768-4c11-82f9-0b5fd0b62d4a"},"vehicle_type_id":"4","last_reported":1740931846,"current_range_meters":0,"station_id":"","pricing_plan_id":"cebpf4jnsgd1na2vs0mg"},{"bike_id":"303c2b96-5131-48b9-8dd0-e5a82865f4bc","system_id":"levelo_inurba_marseille","lat":43.35331,"lon":5.36565,"is_reserved":false,"is_disabled":true,"rental_uris":{"android":"levelo://app?vid=303c2b96-5131-48b9-8dd0-e5a82865f4bc","ios":"levelo://app?vid=303c2b96-5131-48b9-8dd0-e5a82865f4bc"},"vehicle_type_id":"4","last_reported":1740931846,"current_range_meters":0,"station_id":"","pricing_plan_id":"cebpf4jnsgd1na2vs0mg"},{"bike_id":"d5458f89-73a3-43f1-9894-000389f52995","system_id":"levelo_inurba_marseille","lat":43.27614,"lon":5.41492,"is_reserved":false,"is_disabled":true,"rental_uris":{"android":"levelo://app?vid=d5458f89-73a3-43f1-9894-000389f52995","ios":"levelo://app?vid=d5458f89-73a3-43f1-9894-000389f52995"},"vehicle_type_id":"4","last_reported":1740931846,"current_range_meters":0,"station_id":"","pricing_plan_id":"cebpf4jnsgd1na2vs0mg"},{"bike_id":"afcec8eb-28d8-4889-8879-0897cb5957e3","system_id":"levelo_inurba_marseille","lat":43.28,"lon":5.40592,"is_reserved":false,"is_disabled":true,"rental_uris":{"android":"levelo://app?vid=afcec8eb-28d8-4889-8879-0897cb5957e3","ios":"levelo://app?vid=afcec8eb-28d8-4889-8879-0897cb5957e3"},"vehicle_type_id":"4","last_reported":1740931846,"current_range_meters":0,"station_id":"","pricing_plan_id":"cebpf4jnsgd1na2vs0mg"},{"bike_id":"7299c7f5-b19a-415a-98fb-92e8f867f54e","system_id":"levelo_inurba_marseille","lat":43.31695,"lon":5.3972,"is_reserved":false,"is_disabled":true,"rental_uris":{"android":"levelo://app?vid=7299c7f5-b19a-415a-98fb-92e8f867f54e","ios":"levelo://app?vid=7299c7f5-b19a-415a-98fb-92e8f867f54e"},"vehicle_type_id":"4","last_reported":1740931846,"current_range_meters":0,"station_id":"","pricing_plan_id":"cebpf4jnsgd1na2vs0mg"},{"bike_id":"28db0624-c0fd-4c1f-bdcc-eabbae09a1d7","system_id":"levelo_inurba_marseille","lat":43.29284,"lon":5.3744,"is_reserved":false,"is_disabled":true,"rental_uris":{"android":"levelo://app?vid=28db0624-c0fd-4c1f-bdcc-eabbae09a1d7","ios":"levelo://app?vid=28db0624-c0fd-4c1f-bdcc-eabbae09a1d7"},"vehicle_type_id":"4","last_reported":1740931846,"current_range_meters":0,"station_id":"ce4bgi12rcd13ifvqb70","pricing_plan_id":"cebpf4jnsgd1na2vs0mg"},{"bike_id":"1e493e05-f9f9-442b-9d04-9577f8b9da74","system_id":"levelo_inurba_marseille","lat":43.29621,"lon":5.37721,"is_reserved":false,"is_disabled":true,"rental_uris":{"android":"levelo://app?vid=1e493e05-f9f9-442b-9d04-9577f8b9da74","ios":"levelo://app?vid=1e493e05-f9f9-442b-9d04-9577f8b9da74"},"vehicle_type_id":"4","last_reported":1740931846,"current_range_meters":0,"station_id":"ce4bgi92rcd13ifvqb90","pricing_plan_id":"cebpf4jnsgd1na2vs0mg"},{"bike_id":"44a8ae1c-a113-440f-838d-15cb54ae0a8c","system_id":"levelo_inurba_marseille","lat":43.29796,"lon":5.38119,"is_reserved":false,"is_disabled":true,"rental_uris":{"android":"levelo://app?vid=44a8ae1c-a113-440f-838d-15cb54ae0a8c","ios":"levelo://app?vid=44a8ae1c-a113-440f-838d-15cb54ae0a8c"},"vehicle_type_id":"4","last_reported":1740931846,"current_range_meters":0,"station_id":"ce4bgip2rcd13ifvqbb0","pricing_plan_id":"cebpf4jnsgd1na2vs0mg"},{"bike_id":"5eaf555c-3719-4b84-a140-97e5fbb39c69","system_id":"levelo_inurba_marseille","lat":43.29385,"lon":5.37844,"is_reserved":false,"is_disabled":true,"rental_uris":{"android":"levelo://app?vid=5eaf555c-3719-4b84-a140-97e5fbb39c69","ios":"levelo://app?vid=5eaf555c-3719-4b84-a140-97e5fbb39c69"},"vehicle_type_id":"4","last_reported":1740931846,"current_range_meters":0,"station_id":"ce4bgjh2rcd13ifvqbf0","pricing_plan_id":"cebpf4jnsgd1na2vs0mg"},{"bike_id":"5319e8bb-e593-4153-943a-5c9e9c60c313","system_id":"levelo_inurba_marseille","lat":43.29618,"lon":5.37377,"is_reserved":false,"is_disabled":true,"rental_uris":{"android":"levelo://app?vid=5319e8bb-e593-4153-943a-5c9e9c60c313","ios":"levelo://app?vid=5319e8bb-e593-4153-943a-5c9e9c60c313"},"vehicle_type_id":"4","last_reported":1740931846,"current_range_meters":0,"station_id":"ce4bgk12rcd13ifvqbj0","pricing_plan_id":"cebpf4jnsgd1na2vs0mg"},{"bike_id":"28f315f4-8289-423b-bb57-486b56a80b4f","system_id":"levelo_inurba_marseille","lat":43.29709,"lon":5.36618,"is_reserved":false,"is_disabled":true,"rental_uris":{"android":"levelo://app?vid=28f315f4-8289-423b-bb57-486b56a80b4f","ios":"levelo://app?vid=28f315f4-8289-423b-bb57-486b56a80b4f"},"vehicle_type_id":"4","last_reported":1740931846,"current_range_meters":0,"station_id":"ce4bgn12rcd13ifvqbt0","pricing_plan_id":"cebpf4jnsgd1na2vs0mg"},{"bike_id":"4a740588-d8cb-4e19-8f2f-d07c36713945","system_id":"levelo_inurba_marseille","lat":43.29817,"lon":5.37082,"is_reserved":false,"is_disabled":true,"rental_uris":{"android":"levelo://app?vid=4a740588-d8cb-4e19-8f2f-d07c36713945","ios":"levelo://app?vid=4a740588-d8cb-4e19-8f2f-d07c36713945"},"vehicle_type_id":"4","last_reported":1740931846,"current_range_meters":0,"station_id":"ce4bgop2rcd13ifvqc1g","pricing_plan_id":"cebpf4jnsgd1na2vs0mg"},{"bike_id":"9c5b407a-9372-4e31-9f5f-a97658a3f45e","system_id":"levelo_inurba_marseille","lat":43.30291,"lon":5.36864,"is_reserved":false,"is_disabled":true,"rental_uris":{"android":"levelo://app?vid=9c5b407a-9372-4e31-9f5f-a97658a3f45e","ios":"levelo://app?vid=9c5b407a-9372-4e31-9f5f-a97658a3f45e"},"vehicle_type_id":"4","last_reported":1740931846,"current_range_meters":0,"station_id":"ce4bgqh2rcd13ifvqc5g","pricing_plan_id":"cebpf4jnsgd1na2vs0mg"},{"bike_id":"18fdd478-fd80-4b5b-a92e-316b8440f980","system_id":"levelo_inurba_marseille","lat":43.30137,"lon":5.39862,"is_reserved":false,"is_disabled":true,"rental_uris":{"android":"levelo://app?vid=18fdd478-fd80-4b5b-a92e-316b8440f980","ios":"levelo://app?vid=18fdd478-fd80-4b5b-a92e-316b8440f980"},"vehicle_type_id":"4","last_reported":1740931846,"current_range_meters":0,"station_id":"ce4bh0h2rcd13ifvqd40","pricing_plan_id":"cebpf4jnsgd1na2vs0mg"},{"bike_id":"75b23857-4c19-475a-b976-3fadc7f44bfd","system_id":"levelo_inurba_marseille","lat":43.29403,"lon":5.3861,"is_reserved":false,"is_disabled":false,"rental_uris":{"android":"levelo://app?vid=75b23857-4c19-475a-b976-3fadc7f44bfd","ios":"levelo://app?vid=75b23857-4c19-475a-b976-3fadc7f44bfd"},"vehicle_type_id":"4","last_reported":1740931846,"current_range_meters":0,"station_id":"ce4bh2h2rcd13ifvqdh0","pricing_plan_id":"cebpf4jnsgd1na2vs0mg"},{"bike_id":"9082ee6a-b6ad-49ee-b081-e1e485f9d7b8","system_id":"levelo_inurba_marseille","lat":43.28852,"lon":5.39305,"is_reserved":false,"is_disabled":true,"rental_uris":{"android":"levelo://app?vid=9082ee6a-b6ad-49ee-b081-e1e485f9d7b8","ios":"levelo://app?vid=9082ee6a-b6ad-49ee-b081-e1e485f9d7b8"},"vehicle_type_id":"4","last_reported":1740931846,"current_range_meters":0,"station_id":"ce4bh2p2rcd13ifvqdi0","pricing_plan_id":"cebpf4jnsgd1na2vs0mg"},{"bike_id":"1cced5dd-c649-47e3-b41e-4240d2ce42cd","system_id":"levelo_inurba_marseille","lat":43.29535,"lon":5.39038,"is_reserved":false,"is_disabled":true,"rental_uris":{"android":"levelo://app?vid=1cced5dd-c649-47e3-b41e-4240d2ce42cd","ios":"levelo://app?vid=1cced5dd-c649-47e3-b41e-4240d2ce42cd"},"vehicle_type_id":"4","last_reported":1740931846,"current_range_meters":0,"station_id":"ce4bh3p2rcd13ifvqdp0","pricing_plan_id":"cebpf4jnsgd1na2vs0mg"},{"bike_id":"b857bdb8-960a-4ad7-877c-844a0d732f04","system_id":"levelo_inurba_marseille","lat":43.29069,"lon":5.37166,"is_reserved":false,"is_disabled":true,"rental_uris":{"android":"levelo://app?vid=b857bdb8-960a-4ad7-877c-844a0d732f04","ios":"levelo://app?vid=b857bdb8-960a-4ad7-877c-844a0d732f04"},"vehicle_type_id":"4","last_reported":1740931846,"current_range_meters":0,"station_id":"ce4bh5p2rcd13ifvqe4g","pricing_plan_id":"cebpf4jnsgd1na2vs0mg"},{"bike_id":"dc1b8111-c301-43a0-b7f7-d0c1e446ded9","system_id":"levelo_inurba_marseille","lat":43.2811,"lon":5.37833,"is_reserved":false,"is_disabled":true,"rental_uris":{"android":"levelo://app?vid=dc1b8111-c301-43a0-b7f7-d0c1e446ded9","ios":"levelo://app?vid=dc1b8111-c301-43a0-b7f7-d0c1e446ded9"},"vehicle_type_id":"4","last_reported":1740931846,"current_range_meters":0,"station_id":"ce4bha12rcd13ifvqee0","pricing_plan_id":"cebpf4jnsgd1na2vs0mg"},{"bike_id":"98d5694a-3147-42ff-96ce-7c3fb7294557","system_id":"levelo_inurba_marseille","lat":43.29276,"lon":5.36845,"is_reserved":false,"is_disabled":true,"rental_uris":{"android":"levelo://app?vid=98d5694a-3147-42ff-96ce-7c3fb7294557","ios":"levelo://app?vid=98d5694a-3147-42ff-96ce-7c3fb7294557"},"vehicle_type_id":"4","last_reported":1740931846,"current_range_meters":0,"station_id":"ce4bhbp2rcd13ifvqesg","pricing_plan_id":"cebpf4jnsgd1na2vs0mg"},{"bike_id":"1a3404c1-07c4-448c-a347-e3fd2e84704d","system_id":"levelo_inurba_marseille","lat":43.29275,"lon":5.36848,"is_reserved":false,"is_disabled":true,"rental_uris":{"android":"levelo://app?vid=1a3404c1-07c4-448c-a347-e3fd2e84704d","ios":"levelo://app?vid=1a3404c1-07c4-448c-a347-e3fd2e84704d"},"vehicle_type_id":"4","last_reported":1740931846,"current_range_meters":0,"station_id":"ce4bhbp2rcd13ifvqesg","pricing_plan_id":"cebpf4jnsgd1na2vs0mg"},{"bike_id":"f77d277e-fb4a-4ac6-a426-9c4b1b1bf164","system_id":"levelo_inurba_marseille","lat":43.29273,"lon":5.36844,"is_reserved":false,"is_disabled":true,"rental_uris":{"android":"levelo://app?vid=f77d277e-fb4a-4ac6-a426-9c4b1b1bf164","ios":"levelo://app?vid=f77d277e-fb4a-4ac6-a426-9c4b1b1bf164"},"vehicle_type_id":"4","last_reported":1740931846,"current_range_meters":0,"station_id":"ce4bhbp2rcd13ifvqesg","pricing_plan_id":"cebpf4jnsgd1na2vs0mg"},{"bike_id":"a138797b-9745-4f23-a298-6dee352b6cb1","system_id":"levelo_inurba_marseille","lat":43.26561,"lon":5.37283,"is_reserved":false,"is_disabled":false,"rental_uris":{"android":"levelo://app?vid=a138797b-9745-4f23-a298-6dee352b6cb1","ios":"levelo://app?vid=a138797b-9745-4f23-a298-6dee352b6cb1"},"vehicle_type_id":"4","last_reported":1740931846,"current_range_meters":0,"station_id":"ce4bhg12rcd13ifvqf70","pricing_plan_id":"cebpf4jnsgd1na2vs0mg"},{"bike_id":"b34bcdca-4c04-4601-97af-4a6c1438a492","system_id":"levelo_inurba_marseille","lat":43.25491,"lon":5.37652,"is_reserved":false,"is_disabled":true,"rental_uris":{"android":"levelo://app?vid=b34bcdca-4c04-4601-97af-4a6c1438a492","ios":"levelo://app?vid=b34bcdca-4c04-4601-97af-4a6c1438a492"},"vehicle_type_id":"4","last_reported":1740931846,"current_range_meters":0,"station_id":"ce4bhh12rcd13ifvqff0","pricing_plan_id":"cebpf4jnsgd1na2vs0mg"},{"bike_id":"72e4e52c-cc71-4931-8d4b-066b2de3d585","system_id":"levelo_inurba_marseille","lat":43.29272,"lon":5.36855,"is_reserved":false,"is_disabled":true,"rental_uris":{"android":"levelo://app?vid=72e4e52c-cc71-4931-8d4b-066b2de3d585","ios":"levelo://app?vid=72e4e52c-cc71-4931-8d4b-066b2de3d585"},"vehicle_type_id":"4","last_reported":1740931846,"current_range_meters":400,"station_id":"ce4bhbp2rcd13ifvqesg","pricing_plan_id":"cebpf4jnsgd1na2vs0mg"},{"bike_id":"59d30dd5-8483-4248-80d4-28e9c3e2bb19","system_id":"levelo_inurba_marseille","lat":43.26206,"lon":5.37444,"is_reserved":false,"is_disabled":true,"rental_uris":{"android":"levelo://app?vid=59d30dd5-8483-4248-80d4-28e9c3e2bb19","ios":"levelo://app?vid=59d30dd5-8483-4248-80d4-28e9c3e2bb19"},"vehicle_type_id":"4","last_reported":1740931846,"current_range_meters":400,"station_id":"ce4bhgp2rcd13ifvqfc0","pricing_plan_id":"cebpf4jnsgd1na2vs0mg"},{"bike_id":"38d837a7-ba8f-4b1f-9a14-5cd6094ba30c","system_id":"levelo_inurba_marseille","lat":43.26197,"lon":5.37447,"is_reserved":false,"is_disabled":true,"rental_uris":{"android":"levelo://app?vid=38d837a7-ba8f-4b1f-9a14-5cd6094ba30c","ios":"levelo://app?vid=38d837a7-ba8f-4b1f-9a14-5cd6094ba30c"},"vehicle_type_id":"4","last_reported":1740931846,"current_range_meters":400,"station_id":"ce4bhgp2rcd13ifvqfc0","pricing_plan_id":"cebpf4jnsgd1na2vs0mg"},{"bike_id":"63455056-d7e2-4933-81df-f6f037fd9e5b","system_id":"levelo_inurba_marseille","lat":43.24668,"lon":5.38164,"is_reserved":false,"is_disabled":true,"rental_uris":{"android":"levelo://app?vid=63455056-d7e2-4933-81df-f6f037fd9e5b","ios":"levelo://app?vid=63455056-d7e2-4933-81df-f6f037fd9e5b"},"vehicle_type_id":"4","last_reported":1740931846,"current_range_meters":400,"station_id":"ce4bhih2rcd13ifvqfr0","pricing_plan_id":"cebpf4jnsgd1na2vs0mg"},{"bike_id":"f10e0418-3528-4c45-ad87-436afead6332","system_id":"levelo_inurba_marseille","lat":43.262,"lon":5.37918,"is_reserved":false,"is_disabled":true,"rental_uris":{"android":"levelo://app?vid=f10e0418-3528-4c45-ad87-436afead6332","ios":"levelo://app?vid=f10e0418-3528-4c45-ad87-436afead6332"},"vehicle_type_id":"4","last_reported":1740931846,"current_range_meters":800,"station_id":"ce4bhjp2rcd13ifvqg90","pricing_plan_id":"cebpf4jnsgd1na2vs0mg"},{"bike_id":"bff2409b-cd5b-4aa7-8708-cc4502b17250","system_id":"levelo_inurba_marseille","lat":43.292878,"lon":5.374544,"is_reserved":false,"is_disabled":true,"rental_uris":{"android":"levelo://app?vid=bff2409b-cd5b-4aa7-8708-cc4502b17250","ios":"levelo://app?vid=bff2409b-cd5b-4aa7-8708-cc4502b17250"},"vehicle_type_id":"4","last_reported":1740931846,"current_range_meters":1200,"station_id":"ce4bgi12rcd13ifvqb70","pricing_plan_id":"cebpf4jnsgd1na2vs0mg"},{"bike_id":"f9d99cc9-a15a-4447-b275-c2ca40c52613","system_id":"levelo_inurba_marseille","lat":43.27625,"lon":5.3612,"is_reserved":false,"is_disabled":true,"rental_uris":{"android":"levelo://app?vid=f9d99cc9-a15a-4447-b275-c2ca40c52613","ios":"levelo://app?vid=f9d99cc9-a15a-4447-b275-c2ca40c52613"},"vehicle_type_id":"4","last_reported":1740931846,"current_range_meters":1200,"station_id":"ce4bgj92rcd13ifvqbe0","pricing_plan_id":"cebpf4jnsgd1na2vs0mg"},{"bike_id":"e73d486f-48b8-4150-a7ae-22d10941e4a3","system_id":"levelo_inurba_marseille","lat":43.28336,"lon":5.38103,"is_reserved":false,"is_disabled":true,"rental_uris":{"android":"levelo://app?vid=e73d486f-48b8-4150-a7ae-22d10941e4a3","ios":"levelo://app?vid=e73d486f-48b8-4150-a7ae-22d10941e4a3"},"vehicle_type_id":"4","last_reported":1740931846,"current_range_meters":1200,"station_id":"ce4bh412rcd13ifvqdr0","pricing_plan_id":"cebpf4jnsgd1na2vs0mg"},{"bike_id":"1d3c7fd7-b709-4008-8e9f-a0f764fe60d9","system_id":"levelo_inurba_marseille","lat":43.28624,"lon":5.35112,"is_reserved":false,"is_disabled":true,"rental_uris":{"android":"levelo://app?vid=1d3c7fd7-b709-4008-8e9f-a0f764fe60d9","ios":"levelo://app?vid=1d3c7fd7-b709-4008-8e9f-a0f764fe60d9"},"vehicle_type_id":"4","last_reported":1740931846,"current_range_meters":1200,"station_id":"ce4bhch2rcd13ifvqeug","pricing_plan_id":"cebpf4jnsgd1na2vs0mg"},{"bike_id":"a65cb524-c756-42a0-9639-a6505770c05b","system_id":"levelo_inurba_marseille","lat":43.35026,"lon":5.36711,"is_reserved":false,"is_disabled":true,"rental_uris":{"android":"levelo://app?vid=a65cb524-c756-42a0-9639-a6505770c05b","ios":"levelo://app?vid=a65cb524-c756-42a0-9639-a6505770c05b"},"vehicle_type_id":"4","last_reported":1740931846,"current_range_meters":1600,"station_id":"","pricing_plan_id":"cebpf4jnsgd1na2vs0mg"},{"bike_id":"193d3014-f83d-4091-90cf-321ca506e435","system_id":"levelo_inurba_marseille","lat":43.30131,"lon":5.39857,"is_reserved":false,"is_disabled":true,"rental_uris":{"android":"levelo://app?vid=193d3014-f83d-4091-90cf-321ca506e435","ios":"levelo://app?vid=193d3014-f83d-4091-90cf-321ca506e435"},"vehicle_type_id":"4","last_reported":1740931846,"current_range_meters":1600,"station_id":"ce4bh0h2rcd13ifvqd40","pricing_plan_id":"cebpf4jnsgd1na2vs0mg"},{"bike_id":"41b95cd3-29f1-4260-a9b0-da06e5af891c","system_id":"levelo_inurba_marseille","lat":43.28479,"lon":5.38418,"is_reserved":false,"is_disabled":false,"rental_uris":{"android":"levelo://app?vid=41b95cd3-29f1-4260-a9b0-da06e5af891c","ios":"levelo://app?vid=41b95cd3-29f1-4260-a9b0-da06e5af891c"},"vehicle_type_id":"4","last_reported":1740931846,"current_range_meters":1600,"station_id":"ce4bh512rcd13ifvqe3g","pricing_plan_id":"cebpf4jnsgd1na2vs0mg"},{"bike_id":"9e245260-a52d-45ce-8e62-3c252a055775","system_id":"levelo_inurba_marseille","lat":43.27424,"lon":5.39426,"is_reserved":false,"is_disabled":false,"rental_uris":{"android":"levelo://app?vid=9e245260-a52d-45ce-8e62-3c252a055775","ios":"levelo://app?vid=9e245260-a52d-45ce-8e62-3c252a055775"},"vehicle_type_id":"4","last_reported":1740931846,"current_range_meters":1600,"station_id":"ce4bhdp2rcd13ifvqf20","pricing_plan_id":"cebpf4jnsgd1na2vs0mg"},{"bike_id":"7097ac02-3349-4818-9483-202969c5f80b","system_id":"levelo_inurba_marseille","lat":43.29525,"lon":5.39038,"is_reserved":false,"is_disabled":true,"rental_uris":{"android":"levelo://app?vid=7097ac02-3349-4818-9483-202969c5f80b","ios":"levelo://app?vid=7097ac02-3349-4818-9483-202969c5f80b"},"vehicle_type_id":"4","last_reported":1740931846,"current_range_meters":2000,"station_id":"ce4bh3p2rcd13ifvqdp0","pricing_plan_id":"cebpf4jnsgd1na2vs0mg"},{"bike_id":"0961c923-2e81-4c25-b858-fa0d6560f174","system_id":"levelo_inurba_marseille","lat":43.26558,"lon":5.37283,"is_reserved":false,"is_disabled":true,"rental_uris":{"android":"levelo://app?vid=0961c923-2e81-4c25-b858-fa0d6560f174","ios":"levelo://app?vid=0961c923-2e81-4c25-b858-fa0d6560f174"},"vehicle_type_id":"4","last_reported":1740931846,"current_range_meters":2000,"station_id":"ce4bhg12rcd13ifvqf70","pricing_plan_id":"cebpf4jnsgd1na2vs0mg"},{"bike_id":"9a34421f-e3b9-4720-8b64-074825ae2555","system_id":"levelo_inurba_marseille","lat":43.29787,"lon":5.39358,"is_reserved":false,"is_disabled":true,"rental_uris":{"android":"levelo://app?vid=9a34421f-e3b9-4720-8b64-074825ae2555","ios":"levelo://app?vid=9a34421f-e3b9-4720-8b64-074825ae2555"},"vehicle_type_id":"4","last_reported":1740931846,"current_range_meters":2000,"station_id":"chh1huq6cuj3fo74tm60","pricing_plan_id":"cebpf4jnsgd1na2vs0mg"},{"bike_id":"50ff7f12-0288-4242-b871-96ae8b9d32a6","system_id":"levelo_inurba_marseille","lat":43.28736,"lon":5.36082,"is_reserved":false,"is_disabled":true,"rental_uris":{"android":"levelo://app?vid=50ff7f12-0288-4242-b871-96ae8b9d32a6","ios":"levelo://app?vid=50ff7f12-0288-4242-b871-96ae8b9d32a6"},"vehicle_type_id":"4","last_reported":1740931846,"current_range_meters":2000,"station_id":"cki0cbj6b192h4jlfktg","pricing_plan_id":"cebpf4jnsgd1na2vs0mg"},{"bike_id":"89b48eb1-51b5-4859-86c6-3f01ad686032","system_id":"levelo_inurba_marseille","lat":43.28696,"lon":5.37384,"is_reserved":false,"is_disabled":true,"rental_uris":{"android":"levelo://app?vid=89b48eb1-51b5-4859-86c6-3f01ad686032","ios":"levelo://app?vid=89b48eb1-51b5-4859-86c6-3f01ad686032"},"vehicle_type_id":"4","last_reported":1740931846,"current_range_meters":2800,"station_id":"ce4bh3p2rcd13ifvqdq0","pricing_plan_id":"cebpf4jnsgd1na2vs0mg"},{"bike_id":"4a0d4660-7bda-4548-a1c7-8db20de578bc","system_id":"levelo_inurba_marseille","lat":43.28607,"lon":5.37059,"is_reserved":false,"is_disabled":false,"rental_uris":{"android":"levelo://app?vid=4a0d4660-7bda-4548-a1c7-8db20de578bc","ios":"levelo://app?vid=4a0d4660-7bda-4548-a1c7-8db20de578bc"},"vehicle_type_id":"4","last_reported":1740931846,"current_range_meters":2800,"station_id":"ce4bht12rcd13ifvqi60","pricing_plan_id":"cebpf4jnsgd1na2vs0mg"},{"bike_id":"81f93846-07d2-4eb7-8e89-531e35a88a36","system_id":"levelo_inurba_marseille","lat":43.28621,"lon":5.35105,"is_reserved":false,"is_disabled":false,"rental_uris":{"android":"levelo://app?vid=81f93846-07d2-4eb7-8e89-531e35a88a36","ios":"levelo://app?vid=81f93846-07d2-4eb7-8e89-531e35a88a36"},"vehicle_type_id":"4","last_reported":1740931846,"current_range_meters":3200,"station_id":"ce4bhch2rcd13ifvqeug","pricing_plan_id":"cebpf4jnsgd1na2vs0mg"},{"bike_id":"69ce0e2b-44d3-4fd6-a9f5-31cbb0f73f84","system_id":"levelo_inurba_marseille","lat":43.29621,"lon":5.37724,"is_reserved":false,"is_disabled":false,"rental_uris":{"android":"levelo://app?vid=69ce0e2b-44d3-4fd6-a9f5-31cbb0f73f84","ios":"levelo://app?vid=69ce0e2b-44d3-4fd6-a9f5-31cbb0f73f84"},"vehicle_type_id":"4","last_reported":1740931846,"current_range_meters":3600,"station_id":"ce4bgi92rcd13ifvqb90","pricing_plan_id":"cebpf4jnsgd1na2vs0mg"},{"bike_id":"ee6f3f9d-d565-41eb-86d2-35c63a8d56b6","system_id":"levelo_inurba_marseille","lat":43.30527,"lon":5.36715,"is_reserved":false,"is_disabled":false,"rental_uris":{"android":"levelo://app?vid=ee6f3f9d-d565-41eb-86d2-35c63a8d56b6","ios":"levelo://app?vid=ee6f3f9d-d565-41eb-86d2-35c63a8d56b6"},"vehicle_type_id":"4","last_reported":1740931846,"current_range_meters":3600,"station_id":"ce4bgrp2rcd13ifvqc9g","pricing_plan_id":"cebpf4jnsgd1na2vs0mg"},{"bike_id":"3e8b9d4e-b4b0-4eb2-a728-1cdacdabf1f2","system_id":"levelo_inurba_marseille","lat":43.27374,"lon":5.36243,"is_reserved":false,"is_disabled":false,"rental_uris":{"android":"levelo://app?vid=3e8b9d4e-b4b0-4eb2-a728-1cdacdabf1f2","ios":"levelo://app?vid=3e8b9d4e-b4b0-4eb2-a728-1cdacdabf1f2"},"vehicle_type_id":"4","last_reported":1740931846,"current_range_meters":3600,"station_id":"ce4bhbh2rcd13ifvqeo0","pricing_plan_id":"cebpf4jnsgd1na2vs0mg"},{"bike_id":"4b764fec-c779-4be5-9bc3-8af371cef221","system_id":"levelo_inurba_marseille","lat":43.27575,"lon":5.38434,"is_reserved":false,"is_disabled":false,"rental_uris":{"android":"levelo://app?vid=4b764fec-c779-4be5-9bc3-8af371cef221","ios":"levelo://app?vid=4b764fec-c779-4be5-9bc3-8af371cef221"},"vehicle_type_id":"4","last_reported":1740931846,"current_range_meters":3600,"station_id":"ce4bhh92rcd13ifvqfi0","pricing_plan_id":"cebpf4jnsgd1na2vs0mg"},{"bike_id":"2f1e7836-f5fc-4451-80ee-a1494c312893","system_id":"levelo_inurba_marseille","lat":43.32485,"lon":5.3656,"is_reserved":false,"is_disabled":false,"rental_uris":{"android":"levelo://app?vid=2f1e7836-f5fc-4451-80ee-a1494c312893","ios":"levelo://app?vid=2f1e7836-f5fc-4451-80ee-a1494c312893"},"vehicle_type_id":"4","last_reported":1740931846,"current_range_meters":3600,"station_id":"ce4bhs12rcd13ifvqhvg","pricing_plan_id":"cebpf4jnsgd1na2vs0mg"},{"bike_id":"0cfb390c-bda5-4c07-a8c2-309221e64a8b","system_id":"levelo_inurba_marseille","lat":43.28273,"lon":5.35062,"is_reserved":false,"is_disabled":true,"rental_uris":{"android":"levelo://app?vid=0cfb390c-bda5-4c07-a8c2-309221e64a8b","ios":"levelo://app?vid=0cfb390c-bda5-4c07-a8c2-309221e64a8b"},"vehicle_type_id":"4","last_reported":1740931846,"current_range_meters":4000,"station_id":"ce4bhbp2rcd13ifvqerg","pricing_plan_id":"cebpf4jnsgd1na2vs0mg"},{"bike_id":"935762c9-d9ae-4dd7-a397-c4ebd5ff2ac0","system_id":"levelo_inurba_marseille","lat":43.24065,"lon":5.37759,"is_reserved":false,"is_disabled":false,"rental_uris":{"android":"levelo://app?vid=935762c9-d9ae-4dd7-a397-c4ebd5ff2ac0","ios":"levelo://app?vid=935762c9-d9ae-4dd7-a397-c4ebd5ff2ac0"},"vehicle_type_id":"4","last_reported":1740931846,"current_range_meters":4000,"station_id":"ce4bhnp2rcd13ifvqgvg","pricing_plan_id":"cebpf4jnsgd1na2vs0mg"},{"bike_id":"e0be9204-70ee-463a-814f-a2ef9a02725b","system_id":"levelo_inurba_marseille","lat":43.30232,"lon":5.40039,"is_reserved":false,"is_disabled":false,"rental_uris":{"android":"levelo://app?vid=e0be9204-70ee-463a-814f-a2ef9a02725b","ios":"levelo://app?vid=e0be9204-70ee-463a-814f-a2ef9a02725b"},"vehicle_type_id":"4","last_reported":1740931846,"current_range_meters":4800,"station_id":"ce4bgvh2rcd13ifvqcs0","pricing_plan_id":"cebpf4jnsgd1na2vs0mg"},{"bike_id":"d088cd74-74f9-4ee2-814e-2147b17c4a91","system_id":"levelo_inurba_marseille","lat":43.30088,"lon":5.39079,"is_reserved":false,"is_disabled":false,"rental_uris":{"android":"levelo://app?vid=d088cd74-74f9-4ee2-814e-2147b17c4a91","ios":"levelo://app?vid=d088cd74-74f9-4ee2-814e-2147b17c4a91"},"vehicle_type_id":"4","last_reported":1740931846,"current_range_meters":4800,"station_id":"ce4bh192rcd13ifvqdb0","pricing_plan_id":"cebpf4jnsgd1na2vs0mg"},{"bike_id":"24ba12b8-4125-45cd-9ed2-6e48b959a44b","system_id":"levelo_inurba_marseille","lat":43.31321,"lon":5.39697,"is_reserved":false,"is_disabled":false,"rental_uris":{"android":"levelo://app?vid=24ba12b8-4125-45cd-9ed2-6e48b959a44b","ios":"levelo://app?vid=24ba12b8-4125-45cd-9ed2-6e48b959a44b"},"vehicle_type_id":"4","last_reported":1740931846,"current_range_meters":5600,"station_id":"ce4bgvp2rcd13ifvqcu0","pricing_plan_id":"cebpf4jnsgd1na2vs0mg"},{"bike_id":"05e31708-f78a-4765-bc36-66181f865da0","system_id":"levelo_inurba_marseille","lat":43.30428,"lon":5.39755,"is_reserved":false,"is_disabled":false,"rental_uris":{"android":"levelo://app?vid=05e31708-f78a-4765-bc36-66181f865da0","ios":"levelo://app?vid=05e31708-f78a-4765-bc36-66181f865da0"},"vehicle_type_id":"4","last_reported":1740931846,"current_range_meters":5600,"station_id":"ce4bh092rcd13ifvqd20","pricing_plan_id":"cebpf4jnsgd1na2vs0mg"},{"bike_id":"4fb369f8-96fa-48b4-8ddf-66ccc912052e","system_id":"levelo_inurba_marseille","lat":43.27209,"lon":5.39174,"is_reserved":false,"is_disabled":false,"rental_uris":{"android":"levelo://app?vid=4fb369f8-96fa-48b4-8ddf-66ccc912052e","ios":"levelo://app?vid=4fb369f8-96fa-48b4-8ddf-66ccc912052e"},"vehicle_type_id":"4","last_reported":1740931846,"current_range_meters":5600,"station_id":"ce4bhhp2rcd13ifvqfm0","pricing_plan_id":"cebpf4jnsgd1na2vs0mg"},{"bike_id":"572d17e3-95aa-433f-abe0-38d340ef9dbe","system_id":"levelo_inurba_marseille","lat":43.2624,"lon":5.37569,"is_reserved":false,"is_disabled":false,"rental_uris":{"android":"levelo://app?vid=572d17e3-95aa-433f-abe0-38d340ef9dbe","ios":"levelo://app?vid=572d17e3-95aa-433f-abe0-38d340ef9dbe"},"vehicle_type_id":"4","last_reported":1740931846,"current_range_meters":6000,"station_id":"","pricing_plan_id":"cebpf4jnsgd1na2vs0mg"},{"bike_id":"35a93c37-39da-4060-89fc-40722819687f","system_id":"levelo_inurba_marseille","lat":43.283074,"lon":5.350512,"is_reserved":false,"is_disabled":false,"rental_uris":{"android":"levelo://app?vid=35a93c37-39da-4060-89fc-40722819687f","ios":"levelo://app?vid=35a93c37-39da-4060-89fc-40722819687f"},"vehicle_type_id":"4","last_reported":1740931846,"current_range_meters":6000,"station_id":"ce4bh512rcd13ifvqe3g","pricing_plan_id":"cebpf4jnsgd1na2vs0mg"},{"bike_id":"b0122701-5c24-4816-b2c3-5c3603db40d5","system_id":"levelo_inurba_marseille","lat":43.28103,"lon":5.37846,"is_reserved":false,"is_disabled":false,"rental_uris":{"android":"levelo://app?vid=b0122701-5c24-4816-b2c3-5c3603db40d5","ios":"levelo://app?vid=b0122701-5c24-4816-b2c3-5c3603db40d5"},"vehicle_type_id":"4","last_reported":1740931846,"current_range_meters":6000,"station_id":"ce4bha12rcd13ifvqee0","pricing_plan_id":"cebpf4jnsgd1na2vs0mg"},{"bike_id":"7d6c5573-3508-4de1-b930-13969f1fb8c9","system_id":"levelo_inurba_marseille","lat":43.26035,"lon":5.37581,"is_reserved":false,"is_disabled":false,"rental_uris":{"android":"levelo://app?vid=7d6c5573-3508-4de1-b930-13969f1fb8c9","ios":"levelo://app?vid=7d6c5573-3508-4de1-b930-13969f1fb8c9"},"vehicle_type_id":"4","last_reported":1740931846,"current_range_meters":6000,"station_id":"ce4bhgh2rcd13ifvqfa0","pricing_plan_id":"cebpf4jnsgd1na2vs0mg"},{"bike_id":"e35e70e7-cde1-462c-b19f-5dd7a3a28cb2","system_id":"levelo_inurba_marseille","lat":43.286147,"lon":5.351046,"is_reserved":false,"is_disabled":false,"rental_uris":{"android":"levelo://app?vid=e35e70e7-cde1-462c-b19f-5dd7a3a28cb2","ios":"levelo://app?vid=e35e70e7-cde1-462c-b19f-5dd7a3a28cb2"},"vehicle_type_id":"4","last_reported":1740931846,"current_range_meters":6400,"station_id":"ce4bgih2rcd13ifvqba0","pricing_plan_id":"cebpf4jnsgd1na2vs0mg"},{"bike_id":"318dcb1b-9247-409e-9dad-ff18bd11104d","system_id":"levelo_inurba_marseille","lat":43.24802,"lon":5.3746,"is_reserved":false,"is_disabled":false,"rental_uris":{"android":"levelo://app?vid=318dcb1b-9247-409e-9dad-ff18bd11104d","ios":"levelo://app?vid=318dcb1b-9247-409e-9dad-ff18bd11104d"},"vehicle_type_id":"4","last_reported":1740931846,"current_range_meters":6400,"station_id":"ce4bhgh2rcd13ifvqfb0","pricing_plan_id":"cebpf4jnsgd1na2vs0mg"},{"bike_id":"83f2cd7e-5a5a-44b1-a088-1cb7e541cf2f","system_id":"levelo_inurba_marseille","lat":43.255,"lon":5.37653,"is_reserved":false,"is_disabled":false,"rental_uris":{"android":"levelo://app?vid=83f2cd7e-5a5a-44b1-a088-1cb7e541cf2f","ios":"levelo://app?vid=83f2cd7e-5a5a-44b1-a088-1cb7e541cf2f"},"vehicle_type_id":"4","last_reported":1740931846,"current_range_meters":6400,"station_id":"ce4bhh12rcd13ifvqff0","pricing_plan_id":"cebpf4jnsgd1na2vs0mg"},{"bike_id":"7ad93a60-0844-4ed2-9f0c-e0b93ba6113a","system_id":"levelo_inurba_marseille","lat":43.30536,"lon":5.36556,"is_reserved":false,"is_disabled":false,"rental_uris":{"android":"levelo://app?vid=7ad93a60-0844-4ed2-9f0c-e0b93ba6113a","ios":"levelo://app?vid=7ad93a60-0844-4ed2-9f0c-e0b93ba6113a"},"vehicle_type_id":"4","last_reported":1740931846,"current_range_meters":6800,"station_id":"ce4bgs12rcd13ifvqcag","pricing_plan_id":"cebpf4jnsgd1na2vs0mg"},{"bike_id":"bccdf227-eec2-4ed5-8085-025aa34790bc","system_id":"levelo_inurba_marseille","lat":43.28409,"lon":5.34994,"is_reserved":false,"is_disabled":false,"rental_uris":{"android":"levelo://app?vid=bccdf227-eec2-4ed5-8085-025aa34790bc","ios":"levelo://app?vid=bccdf227-eec2-4ed5-8085-025aa34790bc"},"vehicle_type_id":"4","last_reported":1740931846,"current_range_meters":6800,"station_id":"ce4bhbh2rcd13ifvqepg","pricing_plan_id":"cebpf4jnsgd1na2vs0mg"},{"bike_id":"24b426ec-114a-4cca-b485-1331408dda43","system_id":"levelo_inurba_marseille","lat":43.24065,"lon":5.37752,"is_reserved":false,"is_disabled":false,"rental_uris":{"android":"levelo://app?vid=24b426ec-114a-4cca-b485-1331408dda43","ios":"levelo://app?vid=24b426ec-114a-4cca-b485-1331408dda43"},"vehicle_type_id":"4","last_reported":1740931846,"current_range_meters":6800,"station_id":"ce4bhnp2rcd13ifvqgvg","pricing_plan_id":"cebpf4jnsgd1na2vs0mg"},{"bike_id":"53ebed9a-fd1a-4d94-96e3-0c8bc5887ace","system_id":"levelo_inurba_marseille","lat":43.31497,"lon":5.39392,"is_reserved":false,"is_disabled":false,"rental_uris":{"android":"levelo://app?vid=53ebed9a-fd1a-4d94-96e3-0c8bc5887ace","ios":"levelo://app?vid=53ebed9a-fd1a-4d94-96e3-0c8bc5887ace"},"vehicle_type_id":"4","last_reported":1740931846,"current_range_meters":7200,"station_id":"","pricing_plan_id":"cebpf4jnsgd1na2vs0mg"},{"bike_id":"3da75832-2bcc-4e5f-909f-b17b30f50baa","system_id":"levelo_inurba_marseille","lat":43.33653,"lon":5.393,"is_reserved":false,"is_disabled":false,"rental_uris":{"android":"levelo://app?vid=3da75832-2bcc-4e5f-909f-b17b30f50baa","ios":"levelo://app?vid=3da75832-2bcc-4e5f-909f-b17b30f50baa"},"vehicle_type_id":"4","last_reported":1740931846,"current_range_meters":7200,"station_id":"","pricing_plan_id":"cebpf4jnsgd1na2vs0mg"},{"bike_id":"c5d0d72f-4fa1-4aab-8ada-cfcc105eea04","system_id":"levelo_inurba_marseille","lat":43.29619,"lon":5.37734,"is_reserved":false,"is_disabled":false,"rental_uris":{"android":"levelo://app?vid=c5d0d72f-4fa1-4aab-8ada-cfcc105eea04","ios":"levelo://app?vid=c5d0d72f-4fa1-4aab-8ada-cfcc105eea04"},"vehicle_type_id":"4","last_reported":1740931846,"current_range_meters":7200,"station_id":"ce4bgi92rcd13ifvqb90","pricing_plan_id":"cebpf4jnsgd1na2vs0mg"},{"bike_id":"1220f071-9258-44e8-851a-8424513043e6","system_id":"levelo_inurba_marseille","lat":43.29003,"lon":5.35614,"is_reserved":false,"is_disabled":false,"rental_uris":{"android":"levelo://app?vid=1220f071-9258-44e8-851a-8424513043e6","ios":"levelo://app?vid=1220f071-9258-44e8-851a-8424513043e6"},"vehicle_type_id":"4","last_reported":1740931846,"current_range_meters":7200,"station_id":"ce4bhb92rcd13ifvqen0","pricing_plan_id":"cebpf4jnsgd1na2vs0mg"},{"bike_id":"b00cc466-7e14-4d7d-af37-e83b8c92645e","system_id":"levelo_inurba_marseille","lat":43.24801,"lon":5.37453,"is_reserved":false,"is_disabled":false,"rental_uris":{"android":"levelo://app?vid=b00cc466-7e14-4d7d-af37-e83b8c92645e","ios":"levelo://app?vid=b00cc466-7e14-4d7d-af37-e83b8c92645e"},"vehicle_type_id":"4","last_reported":1740931846,"current_range_meters":7200,"station_id":"ce4bhgh2rcd13ifvqfb0","pricing_plan_id":"cebpf4jnsgd1na2vs0mg"},{"bike_id":"b811c60a-6933-40a7-84ba-ba9cab9803d2","system_id":"levelo_inurba_marseille","lat":43.24995,"lon":5.38933,"is_reserved":false,"is_disabled":false,"rental_uris":{"android":"levelo://app?vid=b811c60a-6933-40a7-84ba-ba9cab9803d2","ios":"levelo://app?vid=b811c60a-6933-40a7-84ba-ba9cab9803d2"},"vehicle_type_id":"4","last_reported":1740931846,"current_range_meters":7200,"station_id":"ce4bhgp2rcd13ifvqfd0","pricing_plan_id":"cebpf4jnsgd1na2vs0mg"},{"bike_id":"e5241fa0-bcbc-48bd-a681-7932e2156ef8","system_id":"levelo_inurba_marseille","lat":43.265583,"lon":5.372811,"is_reserved":false,"is_disabled":false,"rental_uris":{"android":"levelo://app?vid=e5241fa0-bcbc-48bd-a681-7932e2156ef8","ios":"levelo://app?vid=e5241fa0-bcbc-48bd-a681-7932e2156ef8"},"vehicle_type_id":"4","last_reported":1740931846,"current_range_meters":8000,"station_id":"ce4bgjp2rcd13ifvqbh0","pricing_plan_id":"cebpf4jnsgd1na2vs0mg"},{"bike_id":"73a4f0a9-2a9c-4839-80b8-acd05a8f539c","system_id":"levelo_inurba_marseille","lat":43.28691,"lon":5.37382,"is_reserved":false,"is_disabled":false,"rental_uris":{"android":"levelo://app?vid=73a4f0a9-2a9c-4839-80b8-acd05a8f539c","ios":"levelo://app?vid=73a4f0a9-2a9c-4839-80b8-acd05a8f539c"},"vehicle_type_id":"4","last_reported":1740931846,"current_range_meters":8000,"station_id":"ce4bh3p2rcd13ifvqdq0","pricing_plan_id":"cebpf4jnsgd1na2vs0mg"},{"bike_id":"906e2d06-ae43-4abc-afab-e5fd106b420e","system_id":"levelo_inurba_marseille","lat":43.26562,"lon":5.37286,"is_reserved":false,"is_disabled":false,"rental_uris":{"android":"levelo://app?vid=906e2d06-ae43-4abc-afab-e5fd106b420e","ios":"levelo://app?vid=906e2d06-ae43-4abc-afab-e5fd106b420e"},"vehicle_type_id":"4","last_reported":1740931846,"current_range_meters":8000,"station_id":"ce4bhg12rcd13ifvqf70","pricing_plan_id":"cebpf4jnsgd1na2vs0mg"},{"bike_id":"eafe4694-db55-4cde-85aa-971c3787bde8","system_id":"levelo_inurba_marseille","lat":43.24166,"lon":5.36397,"is_reserved":false,"is_disabled":false,"rental_uris":{"android":"levelo://app?vid=eafe4694-db55-4cde-85aa-971c3787bde8","ios":"levelo://app?vid=eafe4694-db55-4cde-85aa-971c3787bde8"},"vehicle_type_id":"4","last_reported":1740931846,"current_range_meters":8000,"station_id":"cpo36qri1sfpv3e86is0","pricing_plan_id":"cebpf4jnsgd1na2vs0mg"},{"bike_id":"4a01e614-9a34-4e70-9e02-4e744008ae90","system_id":"levelo_inurba_marseille","lat":43.31384,"lon":5.3919,"is_reserved":false,"is_disabled":false,"rental_uris":{"android":"levelo://app?vid=4a01e614-9a34-4e70-9e02-4e744008ae90","ios":"levelo://app?vid=4a01e614-9a34-4e70-9e02-4e744008ae90"},"vehicle_type_id":"4","last_reported":1740931846,"current_range_meters":8400,"station_id":"","pricing_plan_id":"cebpf4jnsgd1na2vs0mg"},{"bike_id":"280f4375-77dc-4c79-b8fc-a81da8a20239","system_id":"levelo_inurba_marseille","lat":43.30422,"lon":5.39747,"is_reserved":false,"is_disabled":false,"rental_uris":{"android":"levelo://app?vid=280f4375-77dc-4c79-b8fc-a81da8a20239","ios":"levelo://app?vid=280f4375-77dc-4c79-b8fc-a81da8a20239"},"vehicle_type_id":"4","last_reported":1740931846,"current_range_meters":8400,"station_id":"ce4bh092rcd13ifvqd20","pricing_plan_id":"cebpf4jnsgd1na2vs0mg"},{"bike_id":"259d7138-5d9c-48a2-b6cb-30127d32f76b","system_id":"levelo_inurba_marseille","lat":43.24798,"lon":5.37457,"is_reserved":false,"is_disabled":false,"rental_uris":{"android":"levelo://app?vid=259d7138-5d9c-48a2-b6cb-30127d32f76b","ios":"levelo://app?vid=259d7138-5d9c-48a2-b6cb-30127d32f76b"},"vehicle_type_id":"4","last_reported":1740931846,"current_range_meters":8400,"station_id":"ce4bhgh2rcd13ifvqfb0","pricing_plan_id":"cebpf4jnsgd1na2vs0mg"},{"bike_id":"7ef7ac43-0eab-4d6d-b040-181e2e2d7919","system_id":"levelo_inurba_marseille","lat":43.24999,"lon":5.38967,"is_reserved":false,"is_disabled":false,"rental_uris":{"android":"levelo://app?vid=7ef7ac43-0eab-4d6d-b040-181e2e2d7919","ios":"levelo://app?vid=7ef7ac43-0eab-4d6d-b040-181e2e2d7919"},"vehicle_type_id":"4","last_reported":1740931846,"current_range_meters":8400,"station_id":"ce4bhgp2rcd13ifvqfd0","pricing_plan_id":"cebpf4jnsgd1na2vs0mg"},{"bike_id":"4320d103-322d-4d96-86a8-99897045ae34","system_id":"levelo_inurba_marseille","lat":43.24076,"lon":5.37763,"is_reserved":false,"is_disabled":false,"rental_uris":{"android":"levelo://app?vid=4320d103-322d-4d96-86a8-99897045ae34","ios":"levelo://app?vid=4320d103-322d-4d96-86a8-99897045ae34"},"vehicle_type_id":"4","last_reported":1740931846,"current_range_meters":8400,"station_id":"ce4bhnp2rcd13ifvqgvg","pricing_plan_id":"cebpf4jnsgd1na2vs0mg"},{"bike_id":"0e4d5d36-7d5d-4fbf-9597-759cc9a1b223","system_id":"levelo_inurba_marseille","lat":43.30563,"lon":5.37246,"is_reserved":false,"is_disabled":false,"rental_uris":{"android":"levelo://app?vid=0e4d5d36-7d5d-4fbf-9597-759cc9a1b223","ios":"levelo://app?vid=0e4d5d36-7d5d-4fbf-9597-759cc9a1b223"},"vehicle_type_id":"4","last_reported":1740931846,"current_range_meters":8800,"station_id":"","pricing_plan_id":"cebpf4jnsgd1na2vs0mg"},{"bike_id":"30354ec9-1880-444f-9c4c-6ff2e9e407a9","system_id":"levelo_inurba_marseille","lat":43.260345,"lon":5.375538,"is_reserved":false,"is_disabled":false,"rental_uris":{"android":"levelo://app?vid=30354ec9-1880-444f-9c4c-6ff2e9e407a9","ios":"levelo://app?vid=30354ec9-1880-444f-9c4c-6ff2e9e407a9"},"vehicle_type_id":"4","last_reported":1740931846,"current_range_meters":8800,"station_id":"","pricing_plan_id":"cebpf4jnsgd1na2vs0mg"},{"bike_id":"f9b19e8c-2870-4200-ba8c-979b074b31cd","system_id":"levelo_inurba_marseille","lat":43.27565,"lon":5.38434,"is_reserved":false,"is_disabled":false,"rental_uris":{"android":"levelo://app?vid=f9b19e8c-2870-4200-ba8c-979b074b31cd","ios":"levelo://app?vid=f9b19e8c-2870-4200-ba8c-979b074b31cd"},"vehicle_type_id":"4","last_reported":1740931846,"current_range_meters":8800,"station_id":"ce4bhh92rcd13ifvqfi0","pricing_plan_id":"cebpf4jnsgd1na2vs0mg"},{"bike_id":"a921fb94-fb2f-4bf6-b1fd-368a08bf0d72","system_id":"levelo_inurba_marseille","lat":43.25577,"lon":5.38227,"is_reserved":false,"is_disabled":false,"rental_uris":{"android":"levelo://app?vid=a921fb94-fb2f-4bf6-b1fd-368a08bf0d72","ios":"levelo://app?vid=a921fb94-fb2f-4bf6-b1fd-368a08bf0d72"},"vehicle_type_id":"4","last_reported":1740931846,"current_range_meters":8800,"station_id":"ce4bhih2rcd13ifvqfs0","pricing_plan_id":"cebpf4jnsgd1na2vs0mg"},{"bike_id":"76b4974d-5260-4c4f-96b8-5832249bf123","system_id":"levelo_inurba_marseille","lat":43.28606,"lon":5.37065,"is_reserved":false,"is_disabled":false,"rental_uris":{"android":"levelo://app?vid=76b4974d-5260-4c4f-96b8-5832249bf123","ios":"levelo://app?vid=76b4974d-5260-4c4f-96b8-5832249bf123"},"vehicle_type_id":"4","last_reported":1740931846,"current_range_meters":8800,"station_id":"ce4bht12rcd13ifvqi60","pricing_plan_id":"cebpf4jnsgd1na2vs0mg"},{"bike_id":"a8f3e82f-e6f5-4aa3-8d55-53d64bf2ead6","system_id":"levelo_inurba_marseille","lat":43.2319,"lon":5.35558,"is_reserved":false,"is_disabled":false,"rental_uris":{"android":"levelo://app?vid=a8f3e82f-e6f5-4aa3-8d55-53d64bf2ead6","ios":"levelo://app?vid=a8f3e82f-e6f5-4aa3-8d55-53d64bf2ead6"},"vehicle_type_id":"4","last_reported":1740931846,"current_range_meters":8800,"station_id":"ce4bhu92rcd13ifvqi70","pricing_plan_id":"cebpf4jnsgd1na2vs0mg"},{"bike_id":"0693b9d6-4a9d-4e38-bfa2-80f934bcc2e3","system_id":"levelo_inurba_marseille","lat":43.241684,"lon":5.364034,"is_reserved":false,"is_disabled":false,"rental_uris":{"android":"levelo://app?vid=0693b9d6-4a9d-4e38-bfa2-80f934bcc2e3","ios":"levelo://app?vid=0693b9d6-4a9d-4e38-bfa2-80f934bcc2e3"},"vehicle_type_id":"4","last_reported":1740931846,"current_range_meters":8800,"station_id":"cpo36qri1sfpv3e86is0","pricing_plan_id":"cebpf4jnsgd1na2vs0mg"},{"bike_id":"1697087c-3a15-4d2b-8fbc-57126afe45c3","system_id":"levelo_inurba_marseille","lat":43.23051,"lon":5.43682,"is_reserved":false,"is_disabled":false,"rental_uris":{"android":"levelo://app?vid=1697087c-3a15-4d2b-8fbc-57126afe45c3","ios":"levelo://app?vid=1697087c-3a15-4d2b-8fbc-57126afe45c3"},"vehicle_type_id":"4","last_reported":1740931846,"current_range_meters":9200,"station_id":"","pricing_plan_id":"cebpf4jnsgd1na2vs0mg"},{"bike_id":"5f1d307f-db9c-4bd2-ade0-0c304f5f7920","system_id":"levelo_inurba_marseille","lat":43.28102,"lon":5.37848,"is_reserved":false,"is_disabled":false,"rental_uris":{"android":"levelo://app?vid=5f1d307f-db9c-4bd2-ade0-0c304f5f7920","ios":"levelo://app?vid=5f1d307f-db9c-4bd2-ade0-0c304f5f7920"},"vehicle_type_id":"4","last_reported":1740931846,"current_range_meters":9200,"station_id":"ce4bha12rcd13ifvqee0","pricing_plan_id":"cebpf4jnsgd1na2vs0mg"},{"bike_id":"56649b0a-0925-47b6-a23c-654750f7fd75","system_id":"levelo_inurba_marseille","lat":43.28414,"lon":5.34974,"is_reserved":false,"is_disabled":false,"rental_uris":{"android":"levelo://app?vid=56649b0a-0925-47b6-a23c-654750f7fd75","ios":"levelo://app?vid=56649b0a-0925-47b6-a23c-654750f7fd75"},"vehicle_type_id":"4","last_reported":1740931846,"current_range_meters":9200,"station_id":"ce4bhbh2rcd13ifvqepg","pricing_plan_id":"cebpf4jnsgd1na2vs0mg"},{"bike_id":"0c6ae537-229a-4d33-bc48-a3b75a80f5df","system_id":"levelo_inurba_marseille","lat":43.28418,"lon":5.34986,"is_reserved":false,"is_disabled":false,"rental_uris":{"android":"levelo://app?vid=0c6ae537-229a-4d33-bc48-a3b75a80f5df","ios":"levelo://app?vid=0c6ae537-229a-4d33-bc48-a3b75a80f5df"},"vehicle_type_id":"4","last_reported":1740931846,"current_range_meters":9200,"station_id":"ce4bhbh2rcd13ifvqepg","pricing_plan_id":"cebpf4jnsgd1na2vs0mg"},{"bike_id":"b8729eab-79d9-460b-90d1-aaf7a92e0614","system_id":"levelo_inurba_marseille","lat":43.23966,"lon":5.36627,"is_reserved":false,"is_disabled":false,"rental_uris":{"android":"levelo://app?vid=b8729eab-79d9-460b-90d1-aaf7a92e0614","ios":"levelo://app?vid=b8729eab-79d9-460b-90d1-aaf7a92e0614"},"vehicle_type_id":"4","last_reported":1740931846,"current_range_meters":9200,"station_id":"ce4bhi12rcd13ifvqfp0","pricing_plan_id":"cebpf4jnsgd1na2vs0mg"},{"bike_id":"5365f3e3-1095-4284-be0e-5e73a795384b","system_id":"levelo_inurba_marseille","lat":43.25735,"lon":5.41098,"is_reserved":false,"is_disabled":false,"rental_uris":{"android":"levelo://app?vid=5365f3e3-1095-4284-be0e-5e73a795384b","ios":"levelo://app?vid=5365f3e3-1095-4284-be0e-5e73a795384b"},"vehicle_type_id":"4","last_reported":1740931846,"current_range_meters":9200,"station_id":"ce4bhkp2rcd13ifvqgd0","pricing_plan_id":"cebpf4jnsgd1na2vs0mg"},{"bike_id":"9541d00c-1b56-4d91-a5c4-df5150ed1ce0","system_id":"levelo_inurba_marseille","lat":43.23151,"lon":5.43719,"is_reserved":false,"is_disabled":false,"rental_uris":{"android":"levelo://app?vid=9541d00c-1b56-4d91-a5c4-df5150ed1ce0","ios":"levelo://app?vid=9541d00c-1b56-4d91-a5c4-df5150ed1ce0"},"vehicle_type_id":"4","last_reported":1740931846,"current_range_meters":9200,"station_id":"ce4bhmp2rcd13ifvqgog","pricing_plan_id":"cebpf4jnsgd1na2vs0mg"},{"bike_id":"ecb80e8e-fb85-41a8-ac25-7da0edd91cc6","system_id":"levelo_inurba_marseille","lat":43.29629,"lon":5.40597,"is_reserved":false,"is_disabled":false,"rental_uris":{"android":"levelo://app?vid=ecb80e8e-fb85-41a8-ac25-7da0edd91cc6","ios":"levelo://app?vid=ecb80e8e-fb85-41a8-ac25-7da0edd91cc6"},"vehicle_type_id":"4","last_reported":1740931846,"current_range_meters":9600,"station_id":"ce4bh0h2rcd13ifvqd60","pricing_plan_id":"cebpf4jnsgd1na2vs0mg"},{"bike_id":"f711a177-8c95-4e96-bcaf-e6e0dc33f59e","system_id":"levelo_inurba_marseille","lat":43.24399,"lon":5.37072,"is_reserved":false,"is_disabled":false,"rental_uris":{"android":"levelo://app?vid=f711a177-8c95-4e96-bcaf-e6e0dc33f59e","ios":"levelo://app?vid=f711a177-8c95-4e96-bcaf-e6e0dc33f59e"},"vehicle_type_id":"4","last_reported":1740931846,"current_range_meters":9600,"station_id":"ce4bhhh2rcd13ifvqfk0","pricing_plan_id":"cebpf4jnsgd1na2vs0mg"},{"bike_id":"8c39c5b2-f0b6-46e5-ade5-5cb4d0fe0beb","system_id":"levelo_inurba_marseille","lat":43.23966,"lon":5.36628,"is_reserved":false,"is_disabled":false,"rental_uris":{"android":"levelo://app?vid=8c39c5b2-f0b6-46e5-ade5-5cb4d0fe0beb","ios":"levelo://app?vid=8c39c5b2-f0b6-46e5-ade5-5cb4d0fe0beb"},"vehicle_type_id":"4","last_reported":1740931846,"current_range_meters":9600,"station_id":"ce4bhi12rcd13ifvqfp0","pricing_plan_id":"cebpf4jnsgd1na2vs0mg"},{"bike_id":"cadf90da-37b9-4732-855f-a9cd1d61a101","system_id":"levelo_inurba_marseille","lat":43.26219,"lon":5.40495,"is_reserved":false,"is_disabled":false,"rental_uris":{"android":"levelo://app?vid=cadf90da-37b9-4732-855f-a9cd1d61a101","ios":"levelo://app?vid=cadf90da-37b9-4732-855f-a9cd1d61a101"},"vehicle_type_id":"4","last_reported":1740931846,"current_range_meters":9600,"station_id":"ce4bhmh2rcd13ifvqgmg","pricing_plan_id":"cebpf4jnsgd1na2vs0mg"},{"bike_id":"f4af2fc5-12b1-413f-b3e8-70775a52b007","system_id":"levelo_inurba_marseille","lat":43.24179,"lon":5.39723,"is_reserved":false,"is_disabled":false,"rental_uris":{"android":"levelo://app?vid=f4af2fc5-12b1-413f-b3e8-70775a52b007","ios":"levelo://app?vid=f4af2fc5-12b1-413f-b3e8-70775a52b007"},"vehicle_type_id":"4","last_reported":1740931846,"current_range_meters":9600,"station_id":"ce4bhn12rcd13ifvqgpg","pricing_plan_id":"cebpf4jnsgd1na2vs0mg"},{"bike_id":"13985eab-e3f9-4cc2-ba2f-d24a29935124","system_id":"levelo_inurba_marseille","lat":43.30788,"lon":5.3738,"is_reserved":false,"is_disabled":false,"rental_uris":{"android":"levelo://app?vid=13985eab-e3f9-4cc2-ba2f-d24a29935124","ios":"levelo://app?vid=13985eab-e3f9-4cc2-ba2f-d24a29935124"},"vehicle_type_id":"4","last_reported":1740931846,"current_range_meters":10000,"station_id":"","pricing_plan_id":"cebpf4jnsgd1na2vs0mg"},{"bike_id":"a85e54c7-442c-45ec-aab2-b4137af33452","system_id":"levelo_inurba_marseille","lat":43.28425,"lon":5.35017,"is_reserved":false,"is_disabled":false,"rental_uris":{"android":"levelo://app?vid=a85e54c7-442c-45ec-aab2-b4137af33452","ios":"levelo://app?vid=a85e54c7-442c-45ec-aab2-b4137af33452"},"vehicle_type_id":"4","last_reported":1740931846,"current_range_meters":10000,"station_id":"ce4bhbh2rcd13ifvqepg","pricing_plan_id":"cebpf4jnsgd1na2vs0mg"},{"bike_id":"4eb170b0-1f3b-4d83-9aaf-41ed5001e404","system_id":"levelo_inurba_marseille","lat":43.266803,"lon":5.395346,"is_reserved":false,"is_disabled":false,"rental_uris":{"android":"levelo://app?vid=4eb170b0-1f3b-4d83-9aaf-41ed5001e404","ios":"levelo://app?vid=4eb170b0-1f3b-4d83-9aaf-41ed5001e404"},"vehicle_type_id":"4","last_reported":1740931846,"current_range_meters":10000,"station_id":"ce4bhh12rcd13ifvqfg0","pricing_plan_id":"cebpf4jnsgd1na2vs0mg"},{"bike_id":"cf5c7727-afe2-47eb-9fb4-1924a5bb7458","system_id":"levelo_inurba_marseille","lat":43.2808,"lon":5.3967,"is_reserved":false,"is_disabled":false,"rental_uris":{"android":"levelo://app?vid=cf5c7727-afe2-47eb-9fb4-1924a5bb7458","ios":"levelo://app?vid=cf5c7727-afe2-47eb-9fb4-1924a5bb7458"},"vehicle_type_id":"4","last_reported":1740931846,"current_range_meters":10000,"station_id":"ce4bho12rcd13ifvqh2g","pricing_plan_id":"cebpf4jnsgd1na2vs0mg"},{"bike_id":"32212659-f41f-41a4-82a0-e7a3ff22bcf8","system_id":"levelo_inurba_marseille","lat":43.28696,"lon":5.37388,"is_reserved":false,"is_disabled":false,"rental_uris":{"android":"levelo://app?vid=32212659-f41f-41a4-82a0-e7a3ff22bcf8","ios":"levelo://app?vid=32212659-f41f-41a4-82a0-e7a3ff22bcf8"},"vehicle_type_id":"4","last_reported":1740931846,"current_range_meters":10800,"station_id":"ce4bh3p2rcd13ifvqdq0","pricing_plan_id":"cebpf4jnsgd1na2vs0mg"},{"bike_id":"125282a6-a2cf-4deb-9f47-e0e0a4dc80f5","system_id":"levelo_inurba_marseille","lat":43.28848,"lon":5.35862,"is_reserved":false,"is_disabled":false,"rental_uris":{"android":"levelo://app?vid=125282a6-a2cf-4deb-9f47-e0e0a4dc80f5","ios":"levelo://app?vid=125282a6-a2cf-4deb-9f47-e0e0a4dc80f5"},"vehicle_type_id":"4","last_reported":1740931846,"current_range_meters":10800,"station_id":"ce4bhb12rcd13ifvqem0","pricing_plan_id":"cebpf4jnsgd1na2vs0mg"},{"bike_id":"90e6765c-a92c-418a-ac84-c638d9fdf61b","system_id":"levelo_inurba_marseille","lat":43.28419,"lon":5.34974,"is_reserved":false,"is_disabled":false,"rental_uris":{"android":"levelo://app?vid=90e6765c-a92c-418a-ac84-c638d9fdf61b","ios":"levelo://app?vid=90e6765c-a92c-418a-ac84-c638d9fdf61b"},"vehicle_type_id":"4","last_reported":1740931846,"current_range_meters":10800,"station_id":"ce4bhbh2rcd13ifvqepg","pricing_plan_id":"cebpf4jnsgd1na2vs0mg"},{"bike_id":"fe1fb862-8b0f-44a5-b1ef-2fcf371eb38b","system_id":"levelo_inurba_marseille","lat":43.28002,"lon":5.41667,"is_reserved":false,"is_disabled":false,"rental_uris":{"android":"levelo://app?vid=fe1fb862-8b0f-44a5-b1ef-2fcf371eb38b","ios":"levelo://app?vid=fe1fb862-8b0f-44a5-b1ef-2fcf371eb38b"},"vehicle_type_id":"4","last_reported":1740931846,"current_range_meters":10800,"station_id":"ce4bho12rcd13ifvqh1g","pricing_plan_id":"cebpf4jnsgd1na2vs0mg"},{"bike_id":"2e084148-2959-4727-90e1-5b2e79f03265","system_id":"levelo_inurba_marseille","lat":43.28602,"lon":5.37062,"is_reserved":false,"is_disabled":false,"rental_uris":{"android":"levelo://app?vid=2e084148-2959-4727-90e1-5b2e79f03265","ios":"levelo://app?vid=2e084148-2959-4727-90e1-5b2e79f03265"},"vehicle_type_id":"4","last_reported":1740931846,"current_range_meters":10800,"station_id":"ce4bht12rcd13ifvqi60","pricing_plan_id":"cebpf4jnsgd1na2vs0mg"},{"bike_id":"248fda52-7900-453f-a8b0-a8410e6aeedc","system_id":"levelo_inurba_marseille","lat":43.26942,"lon":5.40261,"is_reserved":false,"is_disabled":false,"rental_uris":{"android":"levelo://app?vid=248fda52-7900-453f-a8b0-a8410e6aeedc","ios":"levelo://app?vid=248fda52-7900-453f-a8b0-a8410e6aeedc"},"vehicle_type_id":"4","last_reported":1740931846,"current_range_meters":10800,"station_id":"cjm6bp8fraef2m0cb0m0","pricing_plan_id":"cebpf4jnsgd1na2vs0mg"},{"bike_id":"c66a61e8-acac-4c53-8abb-0a01ae4beade","system_id":"levelo_inurba_marseille","lat":43.24816,"lon":5.374528,"is_reserved":false,"is_disabled":false,"rental_uris":{"android":"levelo://app?vid=c66a61e8-acac-4c53-8abb-0a01ae4beade","ios":"levelo://app?vid=c66a61e8-acac-4c53-8abb-0a01ae4beade"},"vehicle_type_id":"4","last_reported":1740931846,"current_range_meters":11200,"station_id":"ce4bhgh2rcd13ifvqfb0","pricing_plan_id":"cebpf4jnsgd1na2vs0mg"},{"bike_id":"fc4fbbc4-3ba4-429f-8121-8efe16b3448e","system_id":"levelo_inurba_marseille","lat":43.2306,"lon":5.35489,"is_reserved":false,"is_disabled":false,"rental_uris":{"android":"levelo://app?vid=fc4fbbc4-3ba4-429f-8121-8efe16b3448e","ios":"levelo://app?vid=fc4fbbc4-3ba4-429f-8121-8efe16b3448e"},"vehicle_type_id":"4","last_reported":1740931846,"current_range_meters":11200,"station_id":"cpo3342slgdg3j2ifvpg","pricing_plan_id":"cebpf4jnsgd1na2vs0mg"},{"bike_id":"3c9c65ff-a2a8-4c52-a6f4-62bcc77556ef","system_id":"levelo_inurba_marseille","lat":43.2417,"lon":5.36385,"is_reserved":false,"is_disabled":false,"rental_uris":{"android":"levelo://app?vid=3c9c65ff-a2a8-4c52-a6f4-62bcc77556ef","ios":"levelo://app?vid=3c9c65ff-a2a8-4c52-a6f4-62bcc77556ef"},"vehicle_type_id":"4","last_reported":1740931846,"current_range_meters":11200,"station_id":"cpo36qri1sfpv3e86is0","pricing_plan_id":"cebpf4jnsgd1na2vs0mg"},{"bike_id":"6185837d-1619-4209-a0d5-72c1d938f673","system_id":"levelo_inurba_marseille","lat":43.29046,"lon":5.39954,"is_reserved":false,"is_disabled":false,"rental_uris":{"android":"levelo://app?vid=6185837d-1619-4209-a0d5-72c1d938f673","ios":"levelo://app?vid=6185837d-1619-4209-a0d5-72c1d938f673"},"vehicle_type_id":"4","last_reported":1740931846,"current_range_meters":11600,"station_id":"ce4bh392rcd13ifvqdm0","pricing_plan_id":"cebpf4jnsgd1na2vs0mg"},{"bike_id":"08f752f3-4769-4b16-821a-2dd5de2ce57f","system_id":"levelo_inurba_marseille","lat":43.28417,"lon":5.37524,"is_reserved":false,"is_disabled":false,"rental_uris":{"android":"levelo://app?vid=08f752f3-4769-4b16-821a-2dd5de2ce57f","ios":"levelo://app?vid=08f752f3-4769-4b16-821a-2dd5de2ce57f"},"vehicle_type_id":"4","last_reported":1740931846,"current_range_meters":11600,"station_id":"ce4bh412rcd13ifvqds0","pricing_plan_id":"cebpf4jnsgd1na2vs0mg"},{"bike_id":"ccab9dd3-2745-4c8d-9831-6d29bb2ae6f8","system_id":"levelo_inurba_marseille","lat":43.2467,"lon":5.38165,"is_reserved":false,"is_disabled":false,"rental_uris":{"android":"levelo://app?vid=ccab9dd3-2745-4c8d-9831-6d29bb2ae6f8","ios":"levelo://app?vid=ccab9dd3-2745-4c8d-9831-6d29bb2ae6f8"},"vehicle_type_id":"4","last_reported":1740931846,"current_range_meters":11600,"station_id":"ce4bhih2rcd13ifvqfr0","pricing_plan_id":"cebpf4jnsgd1na2vs0mg"},{"bike_id":"88d09cbc-1497-4fea-99b9-c1fe29ff58f0","system_id":"levelo_inurba_marseille","lat":43.28049,"lon":5.366,"is_reserved":false,"is_disabled":false,"rental_uris":{"android":"levelo://app?vid=88d09cbc-1497-4fea-99b9-c1fe29ff58f0","ios":"levelo://app?vid=88d09cbc-1497-4fea-99b9-c1fe29ff58f0"},"vehicle_type_id":"4","last_reported":1740931846,"current_range_meters":12000,"station_id":"","pricing_plan_id":"cebpf4jnsgd1na2vs0mg"},{"bike_id":"f218b407-aac4-486d-b458-df05cfb0c326","system_id":"levelo_inurba_marseille","lat":43.31267,"lon":5.40165,"is_reserved":false,"is_disabled":false,"rental_uris":{"android":"levelo://app?vid=f218b407-aac4-486d-b458-df05cfb0c326","ios":"levelo://app?vid=f218b407-aac4-486d-b458-df05cfb0c326"},"vehicle_type_id":"4","last_reported":1740931846,"current_range_meters":12000,"station_id":"ce4bh092rcd13ifvqd30","pricing_plan_id":"cebpf4jnsgd1na2vs0mg"},{"bike_id":"a2668066-3c29-407c-9b9a-fbdb12635ea3","system_id":"levelo_inurba_marseille","lat":43.28412,"lon":5.37518,"is_reserved":false,"is_disabled":false,"rental_uris":{"android":"levelo://app?vid=a2668066-3c29-407c-9b9a-fbdb12635ea3","ios":"levelo://app?vid=a2668066-3c29-407c-9b9a-fbdb12635ea3"},"vehicle_type_id":"4","last_reported":1740931846,"current_range_meters":12000,"station_id":"ce4bh412rcd13ifvqds0","pricing_plan_id":"cebpf4jnsgd1na2vs0mg"},{"bike_id":"6c42689f-16a2-4145-afc8-c03941265083","system_id":"levelo_inurba_marseille","lat":43.28459,"lon":5.3589,"is_reserved":false,"is_disabled":false,"rental_uris":{"android":"levelo://app?vid=6c42689f-16a2-4145-afc8-c03941265083","ios":"levelo://app?vid=6c42689f-16a2-4145-afc8-c03941265083"},"vehicle_type_id":"4","last_reported":1740931846,"current_range_meters":12000,"station_id":"ce4bhah2rcd13ifvqei0","pricing_plan_id":"cebpf4jnsgd1na2vs0mg"},{"bike_id":"fd52364b-51e2-4dfe-a157-8694d87b8ead","system_id":"levelo_inurba_marseille","lat":43.24996,"lon":5.38924,"is_reserved":false,"is_disabled":false,"rental_uris":{"android":"levelo://app?vid=fd52364b-51e2-4dfe-a157-8694d87b8ead","ios":"levelo://app?vid=fd52364b-51e2-4dfe-a157-8694d87b8ead"},"vehicle_type_id":"4","last_reported":1740931846,"current_range_meters":12400,"station_id":"ce4bhgp2rcd13ifvqfd0","pricing_plan_id":"cebpf4jnsgd1na2vs0mg"},{"bike_id":"0f05a555-e598-43c7-bb27-5b9b48daab9f","system_id":"levelo_inurba_marseille","lat":43.24387,"lon":5.37055,"is_reserved":false,"is_disabled":false,"rental_uris":{"android":"levelo://app?vid=0f05a555-e598-43c7-bb27-5b9b48daab9f","ios":"levelo://app?vid=0f05a555-e598-43c7-bb27-5b9b48daab9f"},"vehicle_type_id":"4","last_reported":1740931846,"current_range_meters":12400,"station_id":"ce4bhhh2rcd13ifvqfk0","pricing_plan_id":"cebpf4jnsgd1na2vs0mg"},{"bike_id":"70775753-b571-4bcf-bc75-320e08bf7dd9","system_id":"levelo_inurba_marseille","lat":43.2511,"lon":5.40316,"is_reserved":false,"is_disabled":false,"rental_uris":{"android":"levelo://app?vid=70775753-b571-4bcf-bc75-320e08bf7dd9","ios":"levelo://app?vid=70775753-b571-4bcf-bc75-320e08bf7dd9"},"vehicle_type_id":"4","last_reported":1740931846,"current_range_meters":12400,"station_id":"ce4bhlh2rcd13ifvqgig","pricing_plan_id":"cebpf4jnsgd1na2vs0mg"},{"bike_id":"d582d420-ad76-4943-9aaa-ec3ad66c7cfa","system_id":"levelo_inurba_marseille","lat":43.24068,"lon":5.37751,"is_reserved":false,"is_disabled":false,"rental_uris":{"android":"levelo://app?vid=d582d420-ad76-4943-9aaa-ec3ad66c7cfa","ios":"levelo://app?vid=d582d420-ad76-4943-9aaa-ec3ad66c7cfa"},"vehicle_type_id":"4","last_reported":1740931846,"current_range_meters":12400,"station_id":"ce4bhnp2rcd13ifvqgvg","pricing_plan_id":"cebpf4jnsgd1na2vs0mg"},{"bike_id":"4987e077-b9c1-4ad1-bae1-66cf51f9ba1d","system_id":"levelo_inurba_marseille","lat":43.23193,"lon":5.3555,"is_reserved":false,"is_disabled":false,"rental_uris":{"android":"levelo://app?vid=4987e077-b9c1-4ad1-bae1-66cf51f9ba1d","ios":"levelo://app?vid=4987e077-b9c1-4ad1-bae1-66cf51f9ba1d"},"vehicle_type_id":"4","last_reported":1740931846,"current_range_meters":12400,"station_id":"ce4bhu92rcd13ifvqi70","pricing_plan_id":"cebpf4jnsgd1na2vs0mg"},{"bike_id":"61e3c74e-7012-4cb6-8ef4-17db5d82fdf7","system_id":"levelo_inurba_marseille","lat":43.25305,"lon":5.39277,"is_reserved":false,"is_disabled":false,"rental_uris":{"android":"levelo://app?vid=61e3c74e-7012-4cb6-8ef4-17db5d82fdf7","ios":"levelo://app?vid=61e3c74e-7012-4cb6-8ef4-17db5d82fdf7"},"vehicle_type_id":"4","last_reported":1740931846,"current_range_meters":12800,"station_id":"","pricing_plan_id":"cebpf4jnsgd1na2vs0mg"},{"bike_id":"d149ba3b-206e-46a0-8a3f-7909f974e9bd","system_id":"levelo_inurba_marseille","lat":43.2997,"lon":5.38498,"is_reserved":false,"is_disabled":false,"rental_uris":{"android":"levelo://app?vid=d149ba3b-206e-46a0-8a3f-7909f974e9bd","ios":"levelo://app?vid=d149ba3b-206e-46a0-8a3f-7909f974e9bd"},"vehicle_type_id":"4","last_reported":1740931846,"current_range_meters":12800,"station_id":"ce4bgj92rcd13ifvqbd0","pricing_plan_id":"cebpf4jnsgd1na2vs0mg"},{"bike_id":"ad44e54e-04e1-4b00-aeb4-1cf668f163a9","system_id":"levelo_inurba_marseille","lat":43.27494,"lon":5.42451,"is_reserved":false,"is_disabled":false,"rental_uris":{"android":"levelo://app?vid=ad44e54e-04e1-4b00-aeb4-1cf668f163a9","ios":"levelo://app?vid=ad44e54e-04e1-4b00-aeb4-1cf668f163a9"},"vehicle_type_id":"4","last_reported":1740931846,"current_range_meters":12800,"station_id":"ce4bhn92rcd13ifvqgrg","pricing_plan_id":"cebpf4jnsgd1na2vs0mg"},{"bike_id":"15bcd1dc-695b-4b59-95f7-50321702d7b7","system_id":"levelo_inurba_marseille","lat":43.30959,"lon":5.39029,"is_reserved":false,"is_disabled":false,"rental_uris":{"android":"levelo://app?vid=15bcd1dc-695b-4b59-95f7-50321702d7b7","ios":"levelo://app?vid=15bcd1dc-695b-4b59-95f7-50321702d7b7"},"vehicle_type_id":"4","last_reported":1740931846,"current_range_meters":13600,"station_id":"ce4bgup2rcd13ifvqco0","pricing_plan_id":"cebpf4jnsgd1na2vs0mg"},{"bike_id":"12ab922a-f881-4968-9e63-ec8d58f2ca05","system_id":"levelo_inurba_marseille","lat":43.248,"lon":5.37461,"is_reserved":false,"is_disabled":false,"rental_uris":{"android":"levelo://app?vid=12ab922a-f881-4968-9e63-ec8d58f2ca05","ios":"levelo://app?vid=12ab922a-f881-4968-9e63-ec8d58f2ca05"},"vehicle_type_id":"4","last_reported":1740931846,"current_range_meters":13600,"station_id":"ce4bhgh2rcd13ifvqfb0","pricing_plan_id":"cebpf4jnsgd1na2vs0mg"},{"bike_id":"d23f519a-ec51-4d19-821b-41d2d8ce3029","system_id":"levelo_inurba_marseille","lat":43.23192,"lon":5.39985,"is_reserved":false,"is_disabled":false,"rental_uris":{"android":"levelo://app?vid=d23f519a-ec51-4d19-821b-41d2d8ce3029","ios":"levelo://app?vid=d23f519a-ec51-4d19-821b-41d2d8ce3029"},"vehicle_type_id":"4","last_reported":1740931846,"current_range_meters":13600,"station_id":"ce4bhn12rcd13ifvqgqg","pricing_plan_id":"cebpf4jnsgd1na2vs0mg"},{"bike_id":"0d8c173f-b9fc-4210-8c96-ba590ce58d6d","system_id":"levelo_inurba_marseille","lat":43.28607,"lon":5.37063,"is_reserved":false,"is_disabled":false,"rental_uris":{"android":"levelo://app?vid=0d8c173f-b9fc-4210-8c96-ba590ce58d6d","ios":"levelo://app?vid=0d8c173f-b9fc-4210-8c96-ba590ce58d6d"},"vehicle_type_id":"4","last_reported":1740931846,"current_range_meters":13600,"station_id":"ce4bht12rcd13ifvqi60","pricing_plan_id":"cebpf4jnsgd1na2vs0mg"},{"bike_id":"dc07e06d-0854-459d-a227-3d6eb13e343d","system_id":"levelo_inurba_marseille","lat":43.2321,"lon":5.35538,"is_reserved":false,"is_disabled":false,"rental_uris":{"android":"levelo://app?vid=dc07e06d-0854-459d-a227-3d6eb13e343d","ios":"levelo://app?vid=dc07e06d-0854-459d-a227-3d6eb13e343d"},"vehicle_type_id":"4","last_reported":1740931846,"current_range_meters":13600,"station_id":"ce4bhu92rcd13ifvqi70","pricing_plan_id":"cebpf4jnsgd1na2vs0mg"},{"bike_id":"4b1ba995-c709-4b14-833a-0b8f35cfe1f5","system_id":"levelo_inurba_marseille","lat":43.30311,"lon":5.39214,"is_reserved":false,"is_disabled":false,"rental_uris":{"android":"levelo://app?vid=4b1ba995-c709-4b14-833a-0b8f35cfe1f5","ios":"levelo://app?vid=4b1ba995-c709-4b14-833a-0b8f35cfe1f5"},"vehicle_type_id":"4","last_reported":1740931846,"current_range_meters":14000,"station_id":"ce4bgkh2rcd13ifvqbk0","pricing_plan_id":"cebpf4jnsgd1na2vs0mg"},{"bike_id":"7c731920-1c79-40a0-822e-9e12765710bc","system_id":"levelo_inurba_marseille","lat":43.29416,"lon":5.38628,"is_reserved":false,"is_disabled":false,"rental_uris":{"android":"levelo://app?vid=7c731920-1c79-40a0-822e-9e12765710bc","ios":"levelo://app?vid=7c731920-1c79-40a0-822e-9e12765710bc"},"vehicle_type_id":"4","last_reported":1740931846,"current_range_meters":14000,"station_id":"ce4bh2h2rcd13ifvqdh0","pricing_plan_id":"cebpf4jnsgd1na2vs0mg"},{"bike_id":"e9281800-89ae-463d-bf71-0245836aa272","system_id":"levelo_inurba_marseille","lat":43.28405,"lon":5.34987,"is_reserved":false,"is_disabled":false,"rental_uris":{"android":"levelo://app?vid=e9281800-89ae-463d-bf71-0245836aa272","ios":"levelo://app?vid=e9281800-89ae-463d-bf71-0245836aa272"},"vehicle_type_id":"4","last_reported":1740931846,"current_range_meters":14000,"station_id":"ce4bhbh2rcd13ifvqepg","pricing_plan_id":"cebpf4jnsgd1na2vs0mg"},{"bike_id":"95cd5fee-78de-4f04-9458-0bcee2561cff","system_id":"levelo_inurba_marseille","lat":43.28627,"lon":5.35108,"is_reserved":false,"is_disabled":false,"rental_uris":{"android":"levelo://app?vid=95cd5fee-78de-4f04-9458-0bcee2561cff","ios":"levelo://app?vid=95cd5fee-78de-4f04-9458-0bcee2561cff"},"vehicle_type_id":"4","last_reported":1740931846,"current_range_meters":14000,"station_id":"ce4bhch2rcd13ifvqeug","pricing_plan_id":"cebpf4jnsgd1na2vs0mg"},{"bike_id":"92d3a513-35a8-4b64-afcb-3f6b266c5e29","system_id":"levelo_inurba_marseille","lat":43.28618,"lon":5.35106,"is_reserved":false,"is_disabled":false,"rental_uris":{"android":"levelo://app?vid=92d3a513-35a8-4b64-afcb-3f6b266c5e29","ios":"levelo://app?vid=92d3a513-35a8-4b64-afcb-3f6b266c5e29"},"vehicle_type_id":"4","last_reported":1740931846,"current_range_meters":14000,"station_id":"ce4bhch2rcd13ifvqeug","pricing_plan_id":"cebpf4jnsgd1na2vs0mg"},{"bike_id":"8cf2e90f-08a0-4465-b4d6-17f65919acf3","system_id":"levelo_inurba_marseille","lat":43.26782,"lon":5.39424,"is_reserved":false,"is_disabled":false,"rental_uris":{"android":"levelo://app?vid=8cf2e90f-08a0-4465-b4d6-17f65919acf3","ios":"levelo://app?vid=8cf2e90f-08a0-4465-b4d6-17f65919acf3"},"vehicle_type_id":"4","last_reported":1740931846,"current_range_meters":14000,"station_id":"ce4bhh12rcd13ifvqfg0","pricing_plan_id":"cebpf4jnsgd1na2vs0mg"},{"bike_id":"519f100b-acf4-41e3-8b6e-3756ea876156","system_id":"levelo_inurba_marseille","lat":43.23961,"lon":5.36639,"is_reserved":false,"is_disabled":false,"rental_uris":{"android":"levelo://app?vid=519f100b-acf4-41e3-8b6e-3756ea876156","ios":"levelo://app?vid=519f100b-acf4-41e3-8b6e-3756ea876156"},"vehicle_type_id":"4","last_reported":1740931846,"current_range_meters":14000,"station_id":"ce4bhi12rcd13ifvqfp0","pricing_plan_id":"cebpf4jnsgd1na2vs0mg"},{"bike_id":"27cddaa2-7e85-41fb-b075-9c1f30ef02a0","system_id":"levelo_inurba_marseille","lat":43.30413,"lon":5.41283,"is_reserved":false,"is_disabled":false,"rental_uris":{"android":"levelo://app?vid=27cddaa2-7e85-41fb-b075-9c1f30ef02a0","ios":"levelo://app?vid=27cddaa2-7e85-41fb-b075-9c1f30ef02a0"},"vehicle_type_id":"4","last_reported":1740931846,"current_range_meters":14000,"station_id":"ce4bhop2rcd13ifvqh8g","pricing_plan_id":"cebpf4jnsgd1na2vs0mg"},{"bike_id":"ae7423ad-cef6-4819-892f-cb8fd1543abc","system_id":"levelo_inurba_marseille","lat":43.3013,"lon":5.39866,"is_reserved":false,"is_disabled":false,"rental_uris":{"android":"levelo://app?vid=ae7423ad-cef6-4819-892f-cb8fd1543abc","ios":"levelo://app?vid=ae7423ad-cef6-4819-892f-cb8fd1543abc"},"vehicle_type_id":"4","last_reported":1740931846,"current_range_meters":14400,"station_id":"ce4bh0h2rcd13ifvqd40","pricing_plan_id":"cebpf4jnsgd1na2vs0mg"},{"bike_id":"d23a376a-d7c8-4b88-8733-00e018f6b59f","system_id":"levelo_inurba_marseille","lat":43.27381,"lon":5.36258,"is_reserved":false,"is_disabled":false,"rental_uris":{"android":"levelo://app?vid=d23a376a-d7c8-4b88-8733-00e018f6b59f","ios":"levelo://app?vid=d23a376a-d7c8-4b88-8733-00e018f6b59f"},"vehicle_type_id":"4","last_reported":1740931846,"current_range_meters":14400,"station_id":"ce4bhbh2rcd13ifvqeo0","pricing_plan_id":"cebpf4jnsgd1na2vs0mg"},{"bike_id":"8afd576e-d6c5-49bc-99d0-76dbb78d143d","system_id":"levelo_inurba_marseille","lat":43.2827,"lon":5.35061,"is_reserved":false,"is_disabled":false,"rental_uris":{"android":"levelo://app?vid=8afd576e-d6c5-49bc-99d0-76dbb78d143d","ios":"levelo://app?vid=8afd576e-d6c5-49bc-99d0-76dbb78d143d"},"vehicle_type_id":"4","last_reported":1740931846,"current_range_meters":14400,"station_id":"ce4bhbp2rcd13ifvqerg","pricing_plan_id":"cebpf4jnsgd1na2vs0mg"},{"bike_id":"cbc49db8-4cfb-45b9-8d87-9162bd6455fa","system_id":"levelo_inurba_marseille","lat":43.23964,"lon":5.3663,"is_reserved":false,"is_disabled":false,"rental_uris":{"android":"levelo://app?vid=cbc49db8-4cfb-45b9-8d87-9162bd6455fa","ios":"levelo://app?vid=cbc49db8-4cfb-45b9-8d87-9162bd6455fa"},"vehicle_type_id":"4","last_reported":1740931846,"current_range_meters":14400,"station_id":"ce4bhi12rcd13ifvqfp0","pricing_plan_id":"cebpf4jnsgd1na2vs0mg"},{"bike_id":"0105fe6d-b104-4bcb-91d5-e3c87859fcc3","system_id":"levelo_inurba_marseille","lat":43.32368,"lon":5.38887,"is_reserved":false,"is_disabled":false,"rental_uris":{"android":"levelo://app?vid=0105fe6d-b104-4bcb-91d5-e3c87859fcc3","ios":"levelo://app?vid=0105fe6d-b104-4bcb-91d5-e3c87859fcc3"},"vehicle_type_id":"4","last_reported":1740931846,"current_range_meters":14400,"station_id":"ce4bhqp2rcd13ifvqhog","pricing_plan_id":"cebpf4jnsgd1na2vs0mg"},{"bike_id":"18ed809a-93be-4ceb-a90d-b4661309b51d","system_id":"levelo_inurba_marseille","lat":43.30954,"lon":5.37431,"is_reserved":false,"is_disabled":false,"rental_uris":{"android":"levelo://app?vid=18ed809a-93be-4ceb-a90d-b4661309b51d","ios":"levelo://app?vid=18ed809a-93be-4ceb-a90d-b4661309b51d"},"vehicle_type_id":"4","last_reported":1740931846,"current_range_meters":14800,"station_id":"","pricing_plan_id":"cebpf4jnsgd1na2vs0mg"},{"bike_id":"ea6a02cb-3810-403c-ab47-423df20fff9f","system_id":"levelo_inurba_marseille","lat":43.28836,"lon":5.44814,"is_reserved":false,"is_disabled":false,"rental_uris":{"android":"levelo://app?vid=ea6a02cb-3810-403c-ab47-423df20fff9f","ios":"levelo://app?vid=ea6a02cb-3810-403c-ab47-423df20fff9f"},"vehicle_type_id":"4","last_reported":1740931846,"current_range_meters":14800,"station_id":"","pricing_plan_id":"cebpf4jnsgd1na2vs0mg"},{"bike_id":"366bb791-9b3c-4238-8728-07d4196890fc","system_id":"levelo_inurba_marseille","lat":43.29631,"lon":5.40593,"is_reserved":false,"is_disabled":false,"rental_uris":{"android":"levelo://app?vid=366bb791-9b3c-4238-8728-07d4196890fc","ios":"levelo://app?vid=366bb791-9b3c-4238-8728-07d4196890fc"},"vehicle_type_id":"4","last_reported":1740931846,"current_range_meters":14800,"station_id":"ce4bh0h2rcd13ifvqd60","pricing_plan_id":"cebpf4jnsgd1na2vs0mg"},{"bike_id":"cccff646-675c-4aa1-bb46-d3ab74aff0b9","system_id":"levelo_inurba_marseille","lat":43.28461,"lon":5.3588,"is_reserved":false,"is_disabled":false,"rental_uris":{"android":"levelo://app?vid=cccff646-675c-4aa1-bb46-d3ab74aff0b9","ios":"levelo://app?vid=cccff646-675c-4aa1-bb46-d3ab74aff0b9"},"vehicle_type_id":"4","last_reported":1740931846,"current_range_meters":14800,"station_id":"ce4bhah2rcd13ifvqei0","pricing_plan_id":"cebpf4jnsgd1na2vs0mg"},{"bike_id":"7f8c240e-4e1f-46a8-a9e3-b7e81414fa66","system_id":"levelo_inurba_marseille","lat":43.28615,"lon":5.35108,"is_reserved":false,"is_disabled":false,"rental_uris":{"android":"levelo://app?vid=7f8c240e-4e1f-46a8-a9e3-b7e81414fa66","ios":"levelo://app?vid=7f8c240e-4e1f-46a8-a9e3-b7e81414fa66"},"vehicle_type_id":"4","last_reported":1740931846,"current_range_meters":14800,"station_id":"ce4bhch2rcd13ifvqeug","pricing_plan_id":"cebpf4jnsgd1na2vs0mg"},{"bike_id":"b8b0618f-d73e-4267-af1e-742ef60230cd","system_id":"levelo_inurba_marseille","lat":43.26939,"lon":5.40251,"is_reserved":false,"is_disabled":false,"rental_uris":{"android":"levelo://app?vid=b8b0618f-d73e-4267-af1e-742ef60230cd","ios":"levelo://app?vid=b8b0618f-d73e-4267-af1e-742ef60230cd"},"vehicle_type_id":"4","last_reported":1740931846,"current_range_meters":14800,"station_id":"cjm6bp8fraef2m0cb0m0","pricing_plan_id":"cebpf4jnsgd1na2vs0mg"},{"bike_id":"67881a1b-3642-4e0e-932a-fbd95d3a6feb","system_id":"levelo_inurba_marseille","lat":43.2836,"lon":5.38625,"is_reserved":false,"is_disabled":false,"rental_uris":{"android":"levelo://app?vid=67881a1b-3642-4e0e-932a-fbd95d3a6feb","ios":"levelo://app?vid=67881a1b-3642-4e0e-932a-fbd95d3a6feb"},"vehicle_type_id":"4","last_reported":1740931846,"current_range_meters":15200,"station_id":"ce4bh492rcd13ifvqdvg","pricing_plan_id":"cebpf4jnsgd1na2vs0mg"},{"bike_id":"91bf4f08-3fd4-4be9-b54e-47e43c3d094e","system_id":"levelo_inurba_marseille","lat":43.28723,"lon":5.36086,"is_reserved":false,"is_disabled":false,"rental_uris":{"android":"levelo://app?vid=91bf4f08-3fd4-4be9-b54e-47e43c3d094e","ios":"levelo://app?vid=91bf4f08-3fd4-4be9-b54e-47e43c3d094e"},"vehicle_type_id":"4","last_reported":1740931846,"current_range_meters":15200,"station_id":"cki0cbj6b192h4jlfktg","pricing_plan_id":"cebpf4jnsgd1na2vs0mg"},{"bike_id":"c5b35fc3-133b-4fcd-9bc1-000b1b46221f","system_id":"levelo_inurba_marseille","lat":43.24176,"lon":5.36398,"is_reserved":false,"is_disabled":false,"rental_uris":{"android":"levelo://app?vid=c5b35fc3-133b-4fcd-9bc1-000b1b46221f","ios":"levelo://app?vid=c5b35fc3-133b-4fcd-9bc1-000b1b46221f"},"vehicle_type_id":"4","last_reported":1740931846,"current_range_meters":15200,"station_id":"cpo36qri1sfpv3e86is0","pricing_plan_id":"cebpf4jnsgd1na2vs0mg"},{"bike_id":"d29e82e5-442b-4177-903e-3742ab7d0a8c","system_id":"levelo_inurba_marseille","lat":43.3003,"lon":5.3742,"is_reserved":false,"is_disabled":false,"rental_uris":{"android":"levelo://app?vid=d29e82e5-442b-4177-903e-3742ab7d0a8c","ios":"levelo://app?vid=d29e82e5-442b-4177-903e-3742ab7d0a8c"},"vehicle_type_id":"4","last_reported":1740931846,"current_range_meters":16000,"station_id":"","pricing_plan_id":"cebpf4jnsgd1na2vs0mg"},{"bike_id":"cc836fe0-3cfd-4fe9-beb4-1fec15d76872","system_id":"levelo_inurba_marseille","lat":43.30414,"lon":5.37341,"is_reserved":false,"is_disabled":false,"rental_uris":{"android":"levelo://app?vid=cc836fe0-3cfd-4fe9-beb4-1fec15d76872","ios":"levelo://app?vid=cc836fe0-3cfd-4fe9-beb4-1fec15d76872"},"vehicle_type_id":"4","last_reported":1740931846,"current_range_meters":16000,"station_id":"","pricing_plan_id":"cebpf4jnsgd1na2vs0mg"},{"bike_id":"abfb255d-228f-4e8b-be44-2b8dba0969af","system_id":"levelo_inurba_marseille","lat":43.30876,"lon":5.39642,"is_reserved":false,"is_disabled":false,"rental_uris":{"android":"levelo://app?vid=abfb255d-228f-4e8b-be44-2b8dba0969af","ios":"levelo://app?vid=abfb255d-228f-4e8b-be44-2b8dba0969af"},"vehicle_type_id":"4","last_reported":1740931846,"current_range_meters":16000,"station_id":"ce4bh012rcd13ifvqcv0","pricing_plan_id":"cebpf4jnsgd1na2vs0mg"},{"bike_id":"88ad9393-ed2c-46fa-9412-4f5857690a4d","system_id":"levelo_inurba_marseille","lat":43.337444,"lon":5.374475,"is_reserved":false,"is_disabled":false,"rental_uris":{"android":"levelo://app?vid=88ad9393-ed2c-46fa-9412-4f5857690a4d","ios":"levelo://app?vid=88ad9393-ed2c-46fa-9412-4f5857690a4d"},"vehicle_type_id":"4","last_reported":1740931846,"current_range_meters":16000,"station_id":"ce4bhc92rcd13ifvqetg","pricing_plan_id":"cebpf4jnsgd1na2vs0mg"},{"bike_id":"3ecc5a1d-2be5-46e6-816c-5779a25aa2ec","system_id":"levelo_inurba_marseille","lat":43.26552,"lon":5.37301,"is_reserved":false,"is_disabled":false,"rental_uris":{"android":"levelo://app?vid=3ecc5a1d-2be5-46e6-816c-5779a25aa2ec","ios":"levelo://app?vid=3ecc5a1d-2be5-46e6-816c-5779a25aa2ec"},"vehicle_type_id":"4","last_reported":1740931846,"current_range_meters":16000,"station_id":"ce4bhg12rcd13ifvqf70","pricing_plan_id":"cebpf4jnsgd1na2vs0mg"},{"bike_id":"955f5884-8c1d-416a-8832-2dd978cf9254","system_id":"levelo_inurba_marseille","lat":43.26208,"lon":5.37442,"is_reserved":false,"is_disabled":false,"rental_uris":{"android":"levelo://app?vid=955f5884-8c1d-416a-8832-2dd978cf9254","ios":"levelo://app?vid=955f5884-8c1d-416a-8832-2dd978cf9254"},"vehicle_type_id":"4","last_reported":1740931846,"current_range_meters":16000,"station_id":"ce4bhgp2rcd13ifvqfc0","pricing_plan_id":"cebpf4jnsgd1na2vs0mg"},{"bike_id":"edc1a413-247b-4125-8ff6-3193d9b9b0b7","system_id":"levelo_inurba_marseille","lat":43.24397,"lon":5.3706,"is_reserved":false,"is_disabled":false,"rental_uris":{"android":"levelo://app?vid=edc1a413-247b-4125-8ff6-3193d9b9b0b7","ios":"levelo://app?vid=edc1a413-247b-4125-8ff6-3193d9b9b0b7"},"vehicle_type_id":"4","last_reported":1740931846,"current_range_meters":16000,"station_id":"ce4bhhh2rcd13ifvqfk0","pricing_plan_id":"cebpf4jnsgd1na2vs0mg"},{"bike_id":"83bf10a6-fe49-41be-bada-3c7a1d60f118","system_id":"levelo_inurba_marseille","lat":43.23182,"lon":5.35658,"is_reserved":false,"is_disabled":false,"rental_uris":{"android":"levelo://app?vid=83bf10a6-fe49-41be-bada-3c7a1d60f118","ios":"levelo://app?vid=83bf10a6-fe49-41be-bada-3c7a1d60f118"},"vehicle_type_id":"4","last_reported":1740931846,"current_range_meters":16400,"station_id":"","pricing_plan_id":"cebpf4jnsgd1na2vs0mg"},{"bike_id":"f92cdb3e-8200-406c-a004-1416ff1d1dbb","system_id":"levelo_inurba_marseille","lat":43.28871,"lon":5.43322,"is_reserved":false,"is_disabled":false,"rental_uris":{"android":"levelo://app?vid=f92cdb3e-8200-406c-a004-1416ff1d1dbb","ios":"levelo://app?vid=f92cdb3e-8200-406c-a004-1416ff1d1dbb"},"vehicle_type_id":"4","last_reported":1740931846,"current_range_meters":16400,"station_id":"","pricing_plan_id":"cebpf4jnsgd1na2vs0mg"},{"bike_id":"a6fa31fc-fcec-447d-a47b-19209f1e6d1f","system_id":"levelo_inurba_marseille","lat":43.276203,"lon":5.361009,"is_reserved":false,"is_disabled":false,"rental_uris":{"android":"levelo://app?vid=a6fa31fc-fcec-447d-a47b-19209f1e6d1f","ios":"levelo://app?vid=a6fa31fc-fcec-447d-a47b-19209f1e6d1f"},"vehicle_type_id":"4","last_reported":1740931846,"current_range_meters":16400,"station_id":"ce4bgj92rcd13ifvqbe0","pricing_plan_id":"cebpf4jnsgd1na2vs0mg"},{"bike_id":"a6ffb52f-239d-4d68-b7f4-2237a94aff3a","system_id":"levelo_inurba_marseille","lat":43.28423,"lon":5.37502,"is_reserved":false,"is_disabled":false,"rental_uris":{"android":"levelo://app?vid=a6ffb52f-239d-4d68-b7f4-2237a94aff3a","ios":"levelo://app?vid=a6ffb52f-239d-4d68-b7f4-2237a94aff3a"},"vehicle_type_id":"4","last_reported":1740931846,"current_range_meters":16400,"station_id":"ce4bh412rcd13ifvqds0","pricing_plan_id":"cebpf4jnsgd1na2vs0mg"},{"bike_id":"417fbd7d-d6d8-4c3a-98dd-ce0156edb9f1","system_id":"levelo_inurba_marseille","lat":43.28425,"lon":5.34977,"is_reserved":false,"is_disabled":false,"rental_uris":{"android":"levelo://app?vid=417fbd7d-d6d8-4c3a-98dd-ce0156edb9f1","ios":"levelo://app?vid=417fbd7d-d6d8-4c3a-98dd-ce0156edb9f1"},"vehicle_type_id":"4","last_reported":1740931846,"current_range_meters":16400,"station_id":"ce4bhbh2rcd13ifvqepg","pricing_plan_id":"cebpf4jnsgd1na2vs0mg"},{"bike_id":"994e5cbf-2b78-42db-a15b-f3ab7b3a10c4","system_id":"levelo_inurba_marseille","lat":43.27904,"lon":5.3801,"is_reserved":false,"is_disabled":false,"rental_uris":{"android":"levelo://app?vid=994e5cbf-2b78-42db-a15b-f3ab7b3a10c4","ios":"levelo://app?vid=994e5cbf-2b78-42db-a15b-f3ab7b3a10c4"},"vehicle_type_id":"4","last_reported":1740931846,"current_range_meters":16400,"station_id":"ce4bhf92rcd13ifvqf50","pricing_plan_id":"cebpf4jnsgd1na2vs0mg"},{"bike_id":"f81b1151-2c02-4193-85d9-fa5ca1fe9841","system_id":"levelo_inurba_marseille","lat":43.24805,"lon":5.37454,"is_reserved":false,"is_disabled":false,"rental_uris":{"android":"levelo://app?vid=f81b1151-2c02-4193-85d9-fa5ca1fe9841","ios":"levelo://app?vid=f81b1151-2c02-4193-85d9-fa5ca1fe9841"},"vehicle_type_id":"4","last_reported":1740931846,"current_range_meters":16400,"station_id":"ce4bhgh2rcd13ifvqfb0","pricing_plan_id":"cebpf4jnsgd1na2vs0mg"},{"bike_id":"670122a3-157a-4ef1-82d1-a5574649dac0","system_id":"levelo_inurba_marseille","lat":43.23957,"lon":5.3663,"is_reserved":false,"is_disabled":false,"rental_uris":{"android":"levelo://app?vid=670122a3-157a-4ef1-82d1-a5574649dac0","ios":"levelo://app?vid=670122a3-157a-4ef1-82d1-a5574649dac0"},"vehicle_type_id":"4","last_reported":1740931846,"current_range_meters":16400,"station_id":"ce4bhi12rcd13ifvqfp0","pricing_plan_id":"cebpf4jnsgd1na2vs0mg"},{"bike_id":"26cb9356-5146-489f-bf9a-6454b28ee13e","system_id":"levelo_inurba_marseille","lat":43.29913,"lon":5.38144,"is_reserved":false,"is_disabled":false,"rental_uris":{"android":"levelo://app?vid=26cb9356-5146-489f-bf9a-6454b28ee13e","ios":"levelo://app?vid=26cb9356-5146-489f-bf9a-6454b28ee13e"},"vehicle_type_id":"4","last_reported":1740931846,"current_range_meters":16800,"station_id":"ce4bgj12rcd13ifvqbc0","pricing_plan_id":"cebpf4jnsgd1na2vs0mg"},{"bike_id":"35edf8b4-e1ac-4bab-9992-a42c4b9286bd","system_id":"levelo_inurba_marseille","lat":43.26529,"lon":5.39035,"is_reserved":false,"is_disabled":false,"rental_uris":{"android":"levelo://app?vid=35edf8b4-e1ac-4bab-9992-a42c4b9286bd","ios":"levelo://app?vid=35edf8b4-e1ac-4bab-9992-a42c4b9286bd"},"vehicle_type_id":"4","last_reported":1740931846,"current_range_meters":16800,"station_id":"ce4bhe12rcd13ifvqf30","pricing_plan_id":"cebpf4jnsgd1na2vs0mg"},{"bike_id":"22fb403d-e26b-4cbb-9261-7f1436903a30","system_id":"levelo_inurba_marseille","lat":43.26503,"lon":5.39537,"is_reserved":false,"is_disabled":false,"rental_uris":{"android":"levelo://app?vid=22fb403d-e26b-4cbb-9261-7f1436903a30","ios":"levelo://app?vid=22fb403d-e26b-4cbb-9261-7f1436903a30"},"vehicle_type_id":"4","last_reported":1740931846,"current_range_meters":16800,"station_id":"ce4bhi12rcd13ifvqfq0","pricing_plan_id":"cebpf4jnsgd1na2vs0mg"},{"bike_id":"84a21489-e7c4-40fb-8156-acb06b20eaff","system_id":"levelo_inurba_marseille","lat":43.23153,"lon":5.43718,"is_reserved":false,"is_disabled":false,"rental_uris":{"android":"levelo://app?vid=84a21489-e7c4-40fb-8156-acb06b20eaff","ios":"levelo://app?vid=84a21489-e7c4-40fb-8156-acb06b20eaff"},"vehicle_type_id":"4","last_reported":1740931846,"current_range_meters":16800,"station_id":"ce4bhmp2rcd13ifvqgog","pricing_plan_id":"cebpf4jnsgd1na2vs0mg"},{"bike_id":"803ced7a-60d3-4f68-a71d-19a5cba39b57","system_id":"levelo_inurba_marseille","lat":43.23147,"lon":5.43752,"is_reserved":false,"is_disabled":false,"rental_uris":{"android":"levelo://app?vid=803ced7a-60d3-4f68-a71d-19a5cba39b57","ios":"levelo://app?vid=803ced7a-60d3-4f68-a71d-19a5cba39b57"},"vehicle_type_id":"4","last_reported":1740931846,"current_range_meters":16800,"station_id":"ce4bhmp2rcd13ifvqgog","pricing_plan_id":"cebpf4jnsgd1na2vs0mg"},{"bike_id":"b8b47f89-1462-4210-819d-e4a61cd8dbfb","system_id":"levelo_inurba_marseille","lat":43.29226,"lon":5.36062,"is_reserved":false,"is_disabled":false,"rental_uris":{"android":"levelo://app?vid=b8b47f89-1462-4210-819d-e4a61cd8dbfb","ios":"levelo://app?vid=b8b47f89-1462-4210-819d-e4a61cd8dbfb"},"vehicle_type_id":"4","last_reported":1740931846,"current_range_meters":17200,"station_id":"","pricing_plan_id":"cebpf4jnsgd1na2vs0mg"},{"bike_id":"1b79340a-5b99-4aa3-9338-87b491955828","system_id":"levelo_inurba_marseille","lat":43.24388,"lon":5.37055,"is_reserved":false,"is_disabled":false,"rental_uris":{"android":"levelo://app?vid=1b79340a-5b99-4aa3-9338-87b491955828","ios":"levelo://app?vid=1b79340a-5b99-4aa3-9338-87b491955828"},"vehicle_type_id":"4","last_reported":1740931846,"current_range_meters":17200,"station_id":"ce4bhhh2rcd13ifvqfk0","pricing_plan_id":"cebpf4jnsgd1na2vs0mg"},{"bike_id":"8b4d2a5b-b15d-4a16-a702-5465392f94f0","system_id":"levelo_inurba_marseille","lat":43.30594,"lon":5.37198,"is_reserved":false,"is_disabled":false,"rental_uris":{"android":"levelo://app?vid=8b4d2a5b-b15d-4a16-a702-5465392f94f0","ios":"levelo://app?vid=8b4d2a5b-b15d-4a16-a702-5465392f94f0"},"vehicle_type_id":"4","last_reported":1740931846,"current_range_meters":17600,"station_id":"ce4bgqh2rcd13ifvqc4g","pricing_plan_id":"cebpf4jnsgd1na2vs0mg"},{"bike_id":"4a5d4837-cdd2-4a34-b987-cb1c9e9de018","system_id":"levelo_inurba_marseille","lat":43.29275,"lon":5.40114,"is_reserved":false,"is_disabled":false,"rental_uris":{"android":"levelo://app?vid=4a5d4837-cdd2-4a34-b987-cb1c9e9de018","ios":"levelo://app?vid=4a5d4837-cdd2-4a34-b987-cb1c9e9de018"},"vehicle_type_id":"4","last_reported":1740931846,"current_range_meters":17600,"station_id":"ce4bh312rcd13ifvqdk0","pricing_plan_id":"cebpf4jnsgd1na2vs0mg"},{"bike_id":"5ea3f549-49dc-4d93-ab92-a2861114260e","system_id":"levelo_inurba_marseille","lat":43.27369,"lon":5.36259,"is_reserved":false,"is_disabled":false,"rental_uris":{"android":"levelo://app?vid=5ea3f549-49dc-4d93-ab92-a2861114260e","ios":"levelo://app?vid=5ea3f549-49dc-4d93-ab92-a2861114260e"},"vehicle_type_id":"4","last_reported":1740931846,"current_range_meters":17600,"station_id":"ce4bhbh2rcd13ifvqeo0","pricing_plan_id":"cebpf4jnsgd1na2vs0mg"},{"bike_id":"ab3cdf46-9068-40d7-8549-0df1260012c9","system_id":"levelo_inurba_marseille","lat":43.27374,"lon":5.36244,"is_reserved":false,"is_disabled":false,"rental_uris":{"android":"levelo://app?vid=ab3cdf46-9068-40d7-8549-0df1260012c9","ios":"levelo://app?vid=ab3cdf46-9068-40d7-8549-0df1260012c9"},"vehicle_type_id":"4","last_reported":1740931846,"current_range_meters":17600,"station_id":"ce4bhbh2rcd13ifvqeo0","pricing_plan_id":"cebpf4jnsgd1na2vs0mg"},{"bike_id":"6f9f3f95-0161-4973-849a-64e64d8388fc","system_id":"levelo_inurba_marseille","lat":43.23193,"lon":5.35561,"is_reserved":false,"is_disabled":false,"rental_uris":{"android":"levelo://app?vid=6f9f3f95-0161-4973-849a-64e64d8388fc","ios":"levelo://app?vid=6f9f3f95-0161-4973-849a-64e64d8388fc"},"vehicle_type_id":"4","last_reported":1740931846,"current_range_meters":17600,"station_id":"ce4bhu92rcd13ifvqi70","pricing_plan_id":"cebpf4jnsgd1na2vs0mg"},{"bike_id":"619b2925-dbb3-48e7-90c5-93b3a6d675f9","system_id":"levelo_inurba_marseille","lat":43.23202,"lon":5.35633,"is_reserved":false,"is_disabled":false,"rental_uris":{"android":"levelo://app?vid=619b2925-dbb3-48e7-90c5-93b3a6d675f9","ios":"levelo://app?vid=619b2925-dbb3-48e7-90c5-93b3a6d675f9"},"vehicle_type_id":"4","last_reported":1740931846,"current_range_meters":18000,"station_id":"","pricing_plan_id":"cebpf4jnsgd1na2vs0mg"},{"bike_id":"76f0ecc2-74d2-4458-9089-c4bdf8553e65","system_id":"levelo_inurba_marseille","lat":43.2719,"lon":5.41917,"is_reserved":false,"is_disabled":false,"rental_uris":{"android":"levelo://app?vid=76f0ecc2-74d2-4458-9089-c4bdf8553e65","ios":"levelo://app?vid=76f0ecc2-74d2-4458-9089-c4bdf8553e65"},"vehicle_type_id":"4","last_reported":1740931846,"current_range_meters":18000,"station_id":"","pricing_plan_id":"cebpf4jnsgd1na2vs0mg"},{"bike_id":"fdbe6017-32e2-4727-a474-ea2336dee90a","system_id":"levelo_inurba_marseille","lat":43.30516,"lon":5.38434,"is_reserved":false,"is_disabled":false,"rental_uris":{"android":"levelo://app?vid=fdbe6017-32e2-4727-a474-ea2336dee90a","ios":"levelo://app?vid=fdbe6017-32e2-4727-a474-ea2336dee90a"},"vehicle_type_id":"4","last_reported":1740931846,"current_range_meters":18000,"station_id":"ce4bgg92rcd13ifvqb30","pricing_plan_id":"cebpf4jnsgd1na2vs0mg"},{"bike_id":"b17b8a63-323c-464e-b5ff-4bbddfaca38f","system_id":"levelo_inurba_marseille","lat":43.29072,"lon":5.37172,"is_reserved":false,"is_disabled":false,"rental_uris":{"android":"levelo://app?vid=b17b8a63-323c-464e-b5ff-4bbddfaca38f","ios":"levelo://app?vid=b17b8a63-323c-464e-b5ff-4bbddfaca38f"},"vehicle_type_id":"4","last_reported":1740931846,"current_range_meters":18000,"station_id":"ce4bh5p2rcd13ifvqe4g","pricing_plan_id":"cebpf4jnsgd1na2vs0mg"},{"bike_id":"d1c0e715-6329-4d33-8e66-23065f23123c","system_id":"levelo_inurba_marseille","lat":43.28438,"lon":5.35008,"is_reserved":false,"is_disabled":false,"rental_uris":{"android":"levelo://app?vid=d1c0e715-6329-4d33-8e66-23065f23123c","ios":"levelo://app?vid=d1c0e715-6329-4d33-8e66-23065f23123c"},"vehicle_type_id":"4","last_reported":1740931846,"current_range_meters":18000,"station_id":"ce4bhbh2rcd13ifvqepg","pricing_plan_id":"cebpf4jnsgd1na2vs0mg"},{"bike_id":"40caf417-3a1b-4722-be49-d5b3882bddf2","system_id":"levelo_inurba_marseille","lat":43.28393,"lon":5.34979,"is_reserved":false,"is_disabled":false,"rental_uris":{"android":"levelo://app?vid=40caf417-3a1b-4722-be49-d5b3882bddf2","ios":"levelo://app?vid=40caf417-3a1b-4722-be49-d5b3882bddf2"},"vehicle_type_id":"4","last_reported":1740931846,"current_range_meters":18000,"station_id":"ce4bhbh2rcd13ifvqepg","pricing_plan_id":"cebpf4jnsgd1na2vs0mg"},{"bike_id":"c53c30e8-e078-4438-9154-25f9f218686b","system_id":"levelo_inurba_marseille","lat":43.31885,"lon":5.40748,"is_reserved":false,"is_disabled":false,"rental_uris":{"android":"levelo://app?vid=c53c30e8-e078-4438-9154-25f9f218686b","ios":"levelo://app?vid=c53c30e8-e078-4438-9154-25f9f218686b"},"vehicle_type_id":"4","last_reported":1740931846,"current_range_meters":18000,"station_id":"ce4bhq12rcd13ifvqhig","pricing_plan_id":"cebpf4jnsgd1na2vs0mg"},{"bike_id":"713c1b28-8874-4b39-a0b0-98d694b59939","system_id":"levelo_inurba_marseille","lat":43.26941,"lon":5.40251,"is_reserved":false,"is_disabled":false,"rental_uris":{"android":"levelo://app?vid=713c1b28-8874-4b39-a0b0-98d694b59939","ios":"levelo://app?vid=713c1b28-8874-4b39-a0b0-98d694b59939"},"vehicle_type_id":"4","last_reported":1740931846,"current_range_meters":18000,"station_id":"cjm6bp8fraef2m0cb0m0","pricing_plan_id":"cebpf4jnsgd1na2vs0mg"},{"bike_id":"ee64b076-db53-4a07-8a61-f790fb3d7f18","system_id":"levelo_inurba_marseille","lat":43.29598,"lon":5.37335,"is_reserved":false,"is_disabled":false,"rental_uris":{"android":"levelo://app?vid=ee64b076-db53-4a07-8a61-f790fb3d7f18","ios":"levelo://app?vid=ee64b076-db53-4a07-8a61-f790fb3d7f18"},"vehicle_type_id":"4","last_reported":1740931846,"current_range_meters":18800,"station_id":"","pricing_plan_id":"cebpf4jnsgd1na2vs0mg"},{"bike_id":"d149ea5b-06d3-4ad6-a4b5-24d7c05dfc58","system_id":"levelo_inurba_marseille","lat":43.29887,"lon":5.3749,"is_reserved":false,"is_disabled":false,"rental_uris":{"android":"levelo://app?vid=d149ea5b-06d3-4ad6-a4b5-24d7c05dfc58","ios":"levelo://app?vid=d149ea5b-06d3-4ad6-a4b5-24d7c05dfc58"},"vehicle_type_id":"4","last_reported":1740931846,"current_range_meters":18800,"station_id":"ce4bgjh2rcd13ifvqbg0","pricing_plan_id":"cebpf4jnsgd1na2vs0mg"},{"bike_id":"e0e89839-7869-441c-b7c0-09a73b3f0e94","system_id":"levelo_inurba_marseille","lat":43.29024,"lon":5.38624,"is_reserved":false,"is_disabled":false,"rental_uris":{"android":"levelo://app?vid=e0e89839-7869-441c-b7c0-09a73b3f0e94","ios":"levelo://app?vid=e0e89839-7869-441c-b7c0-09a73b3f0e94"},"vehicle_type_id":"4","last_reported":1740931846,"current_range_meters":18800,"station_id":"ce4bh4p2rcd13ifvqe0g","pricing_plan_id":"cebpf4jnsgd1na2vs0mg"},{"bike_id":"360cb8fb-ae2d-4942-a777-0b20fe1843ea","system_id":"levelo_inurba_marseille","lat":43.26555,"lon":5.37295,"is_reserved":false,"is_disabled":false,"rental_uris":{"android":"levelo://app?vid=360cb8fb-ae2d-4942-a777-0b20fe1843ea","ios":"levelo://app?vid=360cb8fb-ae2d-4942-a777-0b20fe1843ea"},"vehicle_type_id":"4","last_reported":1740931846,"current_range_meters":18800,"station_id":"ce4bhg12rcd13ifvqf70","pricing_plan_id":"cebpf4jnsgd1na2vs0mg"},{"bike_id":"76394e5b-b5d3-409a-954a-e09b2559a295","system_id":"levelo_inurba_marseille","lat":43.23198,"lon":5.35543,"is_reserved":false,"is_disabled":false,"rental_uris":{"android":"levelo://app?vid=76394e5b-b5d3-409a-954a-e09b2559a295","ios":"levelo://app?vid=76394e5b-b5d3-409a-954a-e09b2559a295"},"vehicle_type_id":"4","last_reported":1740931846,"current_range_meters":18800,"station_id":"ce4bhu92rcd13ifvqi70","pricing_plan_id":"cebpf4jnsgd1na2vs0mg"},{"bike_id":"4fb82f53-d921-4e34-9bfd-63bd8822c151","system_id":"levelo_inurba_marseille","lat":43.30301,"lon":5.37663,"is_reserved":false,"is_disabled":false,"rental_uris":{"android":"levelo://app?vid=4fb82f53-d921-4e34-9bfd-63bd8822c151","ios":"levelo://app?vid=4fb82f53-d921-4e34-9bfd-63bd8822c151"},"vehicle_type_id":"4","last_reported":1740931846,"current_range_meters":19200,"station_id":"ce4bguh2rcd13ifvqcj0","pricing_plan_id":"cebpf4jnsgd1na2vs0mg"},{"bike_id":"eab00f2e-cb3f-45b8-a87f-711877d46f93","system_id":"levelo_inurba_marseille","lat":43.31329,"lon":5.39688,"is_reserved":false,"is_disabled":false,"rental_uris":{"android":"levelo://app?vid=eab00f2e-cb3f-45b8-a87f-711877d46f93","ios":"levelo://app?vid=eab00f2e-cb3f-45b8-a87f-711877d46f93"},"vehicle_type_id":"4","last_reported":1740931846,"current_range_meters":19200,"station_id":"ce4bgvp2rcd13ifvqcu0","pricing_plan_id":"cebpf4jnsgd1na2vs0mg"},{"bike_id":"3886ecad-8018-4236-911d-dab07829a7b0","system_id":"levelo_inurba_marseille","lat":43.28411,"lon":5.37523,"is_reserved":false,"is_disabled":false,"rental_uris":{"android":"levelo://app?vid=3886ecad-8018-4236-911d-dab07829a7b0","ios":"levelo://app?vid=3886ecad-8018-4236-911d-dab07829a7b0"},"vehicle_type_id":"4","last_reported":1740931846,"current_range_meters":19200,"station_id":"ce4bh412rcd13ifvqds0","pricing_plan_id":"cebpf4jnsgd1na2vs0mg"},{"bike_id":"1c79504b-db3f-4d8f-b5e9-f3a29075a354","system_id":"levelo_inurba_marseille","lat":43.29171,"lon":5.37161,"is_reserved":false,"is_disabled":false,"rental_uris":{"android":"levelo://app?vid=1c79504b-db3f-4d8f-b5e9-f3a29075a354","ios":"levelo://app?vid=1c79504b-db3f-4d8f-b5e9-f3a29075a354"},"vehicle_type_id":"4","last_reported":1740931846,"current_range_meters":19200,"station_id":"ce4bha92rcd13ifvqeh0","pricing_plan_id":"cebpf4jnsgd1na2vs0mg"},{"bike_id":"bdff9713-8ae0-4746-ae41-f9cfbb7d53ea","system_id":"levelo_inurba_marseille","lat":43.28409,"lon":5.3499,"is_reserved":false,"is_disabled":false,"rental_uris":{"android":"levelo://app?vid=bdff9713-8ae0-4746-ae41-f9cfbb7d53ea","ios":"levelo://app?vid=bdff9713-8ae0-4746-ae41-f9cfbb7d53ea"},"vehicle_type_id":"4","last_reported":1740931846,"current_range_meters":19200,"station_id":"ce4bhbh2rcd13ifvqepg","pricing_plan_id":"cebpf4jnsgd1na2vs0mg"},{"bike_id":"62283634-871d-4406-baea-22787acfc6fc","system_id":"levelo_inurba_marseille","lat":43.25505,"lon":5.37668,"is_reserved":false,"is_disabled":false,"rental_uris":{"android":"levelo://app?vid=62283634-871d-4406-baea-22787acfc6fc","ios":"levelo://app?vid=62283634-871d-4406-baea-22787acfc6fc"},"vehicle_type_id":"4","last_reported":1740931846,"current_range_meters":19200,"station_id":"ce4bhh12rcd13ifvqff0","pricing_plan_id":"cebpf4jnsgd1na2vs0mg"},{"bike_id":"50767bd2-bbf1-49fc-810e-cacf7a0640fb","system_id":"levelo_inurba_marseille","lat":43.24666,"lon":5.38169,"is_reserved":false,"is_disabled":false,"rental_uris":{"android":"levelo://app?vid=50767bd2-bbf1-49fc-810e-cacf7a0640fb","ios":"levelo://app?vid=50767bd2-bbf1-49fc-810e-cacf7a0640fb"},"vehicle_type_id":"4","last_reported":1740931846,"current_range_meters":19200,"station_id":"ce4bhih2rcd13ifvqfr0","pricing_plan_id":"cebpf4jnsgd1na2vs0mg"},{"bike_id":"123d5adf-8e93-46cc-93b8-80cd2a012f7c","system_id":"levelo_inurba_marseille","lat":43.27068,"lon":5.42292,"is_reserved":false,"is_disabled":false,"rental_uris":{"android":"levelo://app?vid=123d5adf-8e93-46cc-93b8-80cd2a012f7c","ios":"levelo://app?vid=123d5adf-8e93-46cc-93b8-80cd2a012f7c"},"vehicle_type_id":"4","last_reported":1740931846,"current_range_meters":19200,"station_id":"ce4bhk92rcd13ifvqgb0","pricing_plan_id":"cebpf4jnsgd1na2vs0mg"},{"bike_id":"81389cd8-51fb-45ff-ad9c-7bca8b462d46","system_id":"levelo_inurba_marseille","lat":43.25923,"lon":5.40881,"is_reserved":false,"is_disabled":false,"rental_uris":{"android":"levelo://app?vid=81389cd8-51fb-45ff-ad9c-7bca8b462d46","ios":"levelo://app?vid=81389cd8-51fb-45ff-ad9c-7bca8b462d46"},"vehicle_type_id":"4","last_reported":1740931846,"current_range_meters":19200,"station_id":"ce4bhm92rcd13ifvqglg","pricing_plan_id":"cebpf4jnsgd1na2vs0mg"},{"bike_id":"e0cd1450-a731-40a4-bb3e-1751dbdcd706","system_id":"levelo_inurba_marseille","lat":43.23197,"lon":5.35555,"is_reserved":false,"is_disabled":false,"rental_uris":{"android":"levelo://app?vid=e0cd1450-a731-40a4-bb3e-1751dbdcd706","ios":"levelo://app?vid=e0cd1450-a731-40a4-bb3e-1751dbdcd706"},"vehicle_type_id":"4","last_reported":1740931846,"current_range_meters":19200,"station_id":"ce4bhu92rcd13ifvqi70","pricing_plan_id":"cebpf4jnsgd1na2vs0mg"},{"bike_id":"edfd917e-3e1b-46a2-903f-5c47fce8b91c","system_id":"levelo_inurba_marseille","lat":43.30519,"lon":5.36537,"is_reserved":false,"is_disabled":false,"rental_uris":{"android":"levelo://app?vid=edfd917e-3e1b-46a2-903f-5c47fce8b91c","ios":"levelo://app?vid=edfd917e-3e1b-46a2-903f-5c47fce8b91c"},"vehicle_type_id":"4","last_reported":1740931846,"current_range_meters":19600,"station_id":"ce4bh392rcd13ifvqdl0","pricing_plan_id":"cebpf4jnsgd1na2vs0mg"},{"bike_id":"06bd6ce6-678e-4c96-952b-5f87ff27c497","system_id":"levelo_inurba_marseille","lat":43.28625,"lon":5.35103,"is_reserved":false,"is_disabled":false,"rental_uris":{"android":"levelo://app?vid=06bd6ce6-678e-4c96-952b-5f87ff27c497","ios":"levelo://app?vid=06bd6ce6-678e-4c96-952b-5f87ff27c497"},"vehicle_type_id":"4","last_reported":1740931846,"current_range_meters":19600,"station_id":"ce4bhch2rcd13ifvqeug","pricing_plan_id":"cebpf4jnsgd1na2vs0mg"},{"bike_id":"51371e67-6ad0-47c5-a54d-c83618431d30","system_id":"levelo_inurba_marseille","lat":43.27965,"lon":5.38737,"is_reserved":false,"is_disabled":false,"rental_uris":{"android":"levelo://app?vid=51371e67-6ad0-47c5-a54d-c83618431d30","ios":"levelo://app?vid=51371e67-6ad0-47c5-a54d-c83618431d30"},"vehicle_type_id":"4","last_reported":1740931846,"current_range_meters":19600,"station_id":"ce4bhg12rcd13ifvqf80","pricing_plan_id":"cebpf4jnsgd1na2vs0mg"},{"bike_id":"ba1ba081-a651-458b-864c-f93419b9b0b6","system_id":"levelo_inurba_marseille","lat":43.25011,"lon":5.38915,"is_reserved":false,"is_disabled":false,"rental_uris":{"android":"levelo://app?vid=ba1ba081-a651-458b-864c-f93419b9b0b6","ios":"levelo://app?vid=ba1ba081-a651-458b-864c-f93419b9b0b6"},"vehicle_type_id":"4","last_reported":1740931846,"current_range_meters":19600,"station_id":"ce4bhgp2rcd13ifvqfd0","pricing_plan_id":"cebpf4jnsgd1na2vs0mg"},{"bike_id":"8325dad4-1989-447f-b883-aaa2a76a4725","system_id":"levelo_inurba_marseille","lat":43.24392,"lon":5.37062,"is_reserved":false,"is_disabled":false,"rental_uris":{"android":"levelo://app?vid=8325dad4-1989-447f-b883-aaa2a76a4725","ios":"levelo://app?vid=8325dad4-1989-447f-b883-aaa2a76a4725"},"vehicle_type_id":"4","last_reported":1740931846,"current_range_meters":19600,"station_id":"ce4bhhh2rcd13ifvqfk0","pricing_plan_id":"cebpf4jnsgd1na2vs0mg"},{"bike_id":"b67e963f-beb1-4d6b-b469-1f3815d2cbbb","system_id":"levelo_inurba_marseille","lat":43.23963,"lon":5.36624,"is_reserved":false,"is_disabled":false,"rental_uris":{"android":"levelo://app?vid=b67e963f-beb1-4d6b-b469-1f3815d2cbbb","ios":"levelo://app?vid=b67e963f-beb1-4d6b-b469-1f3815d2cbbb"},"vehicle_type_id":"4","last_reported":1740931846,"current_range_meters":19600,"station_id":"ce4bhi12rcd13ifvqfp0","pricing_plan_id":"cebpf4jnsgd1na2vs0mg"},{"bike_id":"6da82eaa-2788-4a68-8719-30e33b724e44","system_id":"levelo_inurba_marseille","lat":43.29897,"lon":5.43674,"is_reserved":false,"is_disabled":false,"rental_uris":{"android":"levelo://app?vid=6da82eaa-2788-4a68-8719-30e33b724e44","ios":"levelo://app?vid=6da82eaa-2788-4a68-8719-30e33b724e44"},"vehicle_type_id":"4","last_reported":1740931846,"current_range_meters":19600,"station_id":"ce4bhpp2rcd13ifvqhfg","pricing_plan_id":"cebpf4jnsgd1na2vs0mg"},{"bike_id":"3bc08441-4826-48b6-a7e2-7e3821e381df","system_id":"levelo_inurba_marseille","lat":43.28417,"lon":5.34988,"is_reserved":false,"is_disabled":false,"rental_uris":{"android":"levelo://app?vid=3bc08441-4826-48b6-a7e2-7e3821e381df","ios":"levelo://app?vid=3bc08441-4826-48b6-a7e2-7e3821e381df"},"vehicle_type_id":"4","last_reported":1740931846,"current_range_meters":20000,"station_id":"ce4bhbh2rcd13ifvqepg","pricing_plan_id":"cebpf4jnsgd1na2vs0mg"},{"bike_id":"5cce8611-7cbc-432c-b268-2ea5e8ebf09a","system_id":"levelo_inurba_marseille","lat":43.23191,"lon":5.3555,"is_reserved":false,"is_disabled":false,"rental_uris":{"android":"levelo://app?vid=5cce8611-7cbc-432c-b268-2ea5e8ebf09a","ios":"levelo://app?vid=5cce8611-7cbc-432c-b268-2ea5e8ebf09a"},"vehicle_type_id":"4","last_reported":1740931846,"current_range_meters":20000,"station_id":"ce4bhu92rcd13ifvqi70","pricing_plan_id":"cebpf4jnsgd1na2vs0mg"},{"bike_id":"0b1d16a8-c879-4989-bfe7-7eb35a59ec23","system_id":"levelo_inurba_marseille","lat":43.25172,"lon":5.37831,"is_reserved":false,"is_disabled":false,"rental_uris":{"android":"levelo://app?vid=0b1d16a8-c879-4989-bfe7-7eb35a59ec23","ios":"levelo://app?vid=0b1d16a8-c879-4989-bfe7-7eb35a59ec23"},"vehicle_type_id":"4","last_reported":1740931846,"current_range_meters":20400,"station_id":"","pricing_plan_id":"cebpf4jnsgd1na2vs0mg"},{"bike_id":"05f79b85-f3d0-43dc-8446-f0e096c99a76","system_id":"levelo_inurba_marseille","lat":43.29355,"lon":5.42839,"is_reserved":false,"is_disabled":false,"rental_uris":{"android":"levelo://app?vid=05f79b85-f3d0-43dc-8446-f0e096c99a76","ios":"levelo://app?vid=05f79b85-f3d0-43dc-8446-f0e096c99a76"},"vehicle_type_id":"4","last_reported":1740931846,"current_range_meters":20400,"station_id":"","pricing_plan_id":"cebpf4jnsgd1na2vs0mg"},{"bike_id":"3a6253a4-ef75-4232-8fa5-32b77b93c670","system_id":"levelo_inurba_marseille","lat":43.27617,"lon":5.36113,"is_reserved":false,"is_disabled":false,"rental_uris":{"android":"levelo://app?vid=3a6253a4-ef75-4232-8fa5-32b77b93c670","ios":"levelo://app?vid=3a6253a4-ef75-4232-8fa5-32b77b93c670"},"vehicle_type_id":"4","last_reported":1740931846,"current_range_meters":20400,"station_id":"ce4bgj92rcd13ifvqbe0","pricing_plan_id":"cebpf4jnsgd1na2vs0mg"},{"bike_id":"d1624717-1ca9-482a-9cf3-2cf6f16b0723","system_id":"levelo_inurba_marseille","lat":43.265005,"lon":5.37322,"is_reserved":false,"is_disabled":false,"rental_uris":{"android":"levelo://app?vid=d1624717-1ca9-482a-9cf3-2cf6f16b0723","ios":"levelo://app?vid=d1624717-1ca9-482a-9cf3-2cf6f16b0723"},"vehicle_type_id":"4","last_reported":1740931846,"current_range_meters":20400,"station_id":"ce4bgop2rcd13ifvqc1g","pricing_plan_id":"cebpf4jnsgd1na2vs0mg"},{"bike_id":"2c5f6957-d531-40e4-8342-1a9be631de97","system_id":"levelo_inurba_marseille","lat":43.27715,"lon":5.36176,"is_reserved":false,"is_disabled":false,"rental_uris":{"android":"levelo://app?vid=2c5f6957-d531-40e4-8342-1a9be631de97","ios":"levelo://app?vid=2c5f6957-d531-40e4-8342-1a9be631de97"},"vehicle_type_id":"4","last_reported":1740931846,"current_range_meters":20400,"station_id":"ce4bh412rcd13ifvqds0","pricing_plan_id":"cebpf4jnsgd1na2vs0mg"},{"bike_id":"81b18412-b45c-4694-8310-78d8fae0a200","system_id":"levelo_inurba_marseille","lat":43.28406,"lon":5.3751,"is_reserved":false,"is_disabled":false,"rental_uris":{"android":"levelo://app?vid=81b18412-b45c-4694-8310-78d8fae0a200","ios":"levelo://app?vid=81b18412-b45c-4694-8310-78d8fae0a200"},"vehicle_type_id":"4","last_reported":1740931846,"current_range_meters":20400,"station_id":"ce4bh412rcd13ifvqds0","pricing_plan_id":"cebpf4jnsgd1na2vs0mg"},