{"last_updated":1745424784,"ttl":60,"version":"2.2","data":{"bikes":[{"bike_id":"a514097e-ac45-48b3-9ef1-a2cefe44a21d","system_id":"levelo_inurba_marseille","lat":43.30933,"lon":5.40147,"is_reserved":false,"is_disabled":false,"rental_uris":{"android":"levelo://app?vid=a514097e-ac45-48b3-9ef1-a2cefe44a21d","ios":"levelo://app?vid=a514097e-ac45-48b3-9ef1-a2cefe44a21d"},"vehicle_type_id":"4","last_reported":1745424784,"current_range_meters":2800,"station_id":"ce4bgvp2rcd13ifvqct0","pricing_plan_id":"cebpf4jnsgd1na2vs0mg"},{"bike_id":"22920f25-e072-4f5a-b0bd-797ebea03d77","system_id":"levelo_inurba_marseille","lat":43.28418,"lon":5.34986,"is_reserved":false,"is_disabled":false,"rental_uris":{"android":"levelo://app?vid=22920f25-e072-4f5a-b0bd-797ebea03d77","ios":"levelo://app?vid=22920f25-e072-4f5a-b0bd-797ebea03d77"},"vehicle_type_id":"4","last_reported":1745424784,"current_range_meters":2800,"station_id":"ce4bhbh2rcd13ifvqepg","pricing_plan_id":"cebpf4jnsgd1na2vs0mg"},{"bike_id":"a2cc60a4-eec0-46b4-bfc5-2631881884f3","system_id":"levelo_inurba_marseille","lat":43.29711,"lon":5.36608,"is_reserved":false,"is_disabled":false,"rental_uris":{"android":"levelo://app?vid=a2cc60a4-eec0-46b4-bfc5-2631881884f3","ios":"levelo://app?vid=a2cc60a4-eec0-46b4-bfc5-2631881884f3"},"vehicle_type_id":"4","last_reported":1745424784,"current_range_meters":2800,"station_id":"ce4bgn12rcd13ifvqbt0","pricing_plan_id":"cebpf4jnsgd1na2vs0mg"},{"bike_id":"93235d3d-790a-473b-8cab-8698f7ed7407","system_id":"levelo_inurba_marseille","lat":43.2738,"lon":5.36251,"is_reserved":false,"is_disabled":true,"rental_uris":{"android":"levelo://app?vid=93235d3d-790a-473b-8cab-8698f7ed7407","ios":"levelo://app?vid=93235d3d-790a-473b-8cab-8698f7ed7407"},"vehicle_type_id":"4","last_reported":1745424784,"current_range_meters":2800,"station_id":"ce4bhbh2rcd13ifvqeo0","pricing_plan_id":"cebpf4jnsgd1na2vs0mg"},{"bike_id":"ed13952f-96be-459b-bcf9-b59a17893abb","system_id":"levelo_inurba_marseille","lat":43.27837,"lon":5.392,"is_reserved":false,"is_disabled":false,"rental_uris":{"android":"levelo://app?vid=ed13952f-96be-459b-bcf9-b59a17893abb","ios":"levelo://app?vid=ed13952f-96be-459b-bcf9-b59a17893abb"},"vehicle_type_id":"4","last_reported":1745424784,"current_range_meters":2000,"station_id":"ce4bhjp2rcd13ifvqga0","pricing_plan_id":"cebpf4jnsgd1na2vs0mg"},{"bike_id":"062c81da-781d-48dc-88d0-a20f9e70649b","system_id":"levelo_inurba_marseille","lat":43.28702,"lon":5.37924,"is_reserved":false,"is_disabled":false,"rental_uris":{"android":"levelo://app?vid=062c81da-781d-48dc-88d0-a20f9e70649b","ios":"levelo://app?vid=062c81da-781d-48dc-88d0-a20f9e70649b"},"vehicle_type_id":"4","last_reported":1745424784,"current_range_meters":2800,"station_id":"ce4bh9p2rcd13ifvqec0","pricing_plan_id":"cebpf4jnsgd1na2vs0mg"},{"bike_id":"78afb958-a8c3-460e-9030-b17d69a579a7","system_id":"levelo_inurba_marseille","lat":43.28467,"lon":5.35881,"is_reserved":false,"is_disabled":false,"rental_uris":{"android":"levelo://app?vid=78afb958-a8c3-460e-9030-b17d69a579a7","ios":"levelo://app?vid=78afb958-a8c3-460e-9030-b17d69a579a7"},"vehicle_type_id":"4","last_reported":1745424784,"current_range_meters":6400,"station_id":"ce4bhah2rcd13ifvqei0","pricing_plan_id":"cebpf4jnsgd1na2vs0mg"},{"bike_id":"5f343a57-0ee7-46d6-a2bf-4ae9db61f718","system_id":"levelo_inurba_marseille","lat":43.25125,"lon":5.40337,"is_reserved":false,"is_disabled":false,"rental_uris":{"android":"levelo://app?vid=5f343a57-0ee7-46d6-a2bf-4ae9db61f718","ios":"levelo://app?vid=5f343a57-0ee7-46d6-a2bf-4ae9db61f718"},"vehicle_type_id":"4","last_reported":1745424784,"current_range_meters":3200,"station_id":"ce4bhlh2rcd13ifvqgig","pricing_plan_id":"cebpf4jnsgd1na2vs0mg"},{"bike_id":"eb637155-e4d2-4cf1-9549-9fd4cb3bfc1b","system_id":"levelo_inurba_marseille","lat":43.27997,"lon":5.40011,"is_reserved":false,"is_disabled":false,"rental_uris":{"android":"levelo://app?vid=eb637155-e4d2-4cf1-9549-9fd4cb3bfc1b","ios":"levelo://app?vid=eb637155-e4d2-4cf1-9549-9fd4cb3bfc1b"},"vehicle_type_id":"4","last_reported":1745424784,"current_range_meters":3200,"station_id":"ce4bho92rcd13ifvqh4g","pricing_plan_id":"cebpf4jnsgd1na2vs0mg"},{"bike_id":"b6a102bd-fd6e-4437-9af6-dba02f365db5","system_id":"levelo_inurba_marseille","lat":43.29899,"lon":5.43666,"is_reserved":false,"is_disabled":false,"rental_uris":{"android":"levelo://app?vid=b6a102bd-fd6e-4437-9af6-dba02f365db5","ios":"levelo://app?vid=b6a102bd-fd6e-4437-9af6-dba02f365db5"},"vehicle_type_id":"4","last_reported":1745424784,"current_range_meters":3200,"station_id":"ce4bhpp2rcd13ifvqhfg","pricing_plan_id":"cebpf4jnsgd1na2vs0mg"},{"bike_id":"65c1ab97-e609-42c0-8df5-7099afd3d45c","system_id":"levelo_inurba_marseille","lat":43.2603,"lon":5.37547,"is_reserved":false,"is_disabled":false,"rental_uris":{"android":"levelo://app?vid=65c1ab97-e609-42c0-8df5-7099afd3d45c","ios":"levelo://app?vid=65c1ab97-e609-42c0-8df5-7099afd3d45c"},"vehicle_type_id":"4","last_reported":1745424784,"current_range_meters":3200,"station_id":"ce4bhgh2rcd13ifvqfa0","pricing_plan_id":"cebpf4jnsgd1na2vs0mg"},{"bike_id":"94155042-cbf0-4c73-a825-c42fe808d66f","system_id":"levelo_inurba_marseille","lat":43.3093,"lon":5.40138,"is_reserved":false,"is_disabled":false,"rental_uris":{"android":"levelo://app?vid=94155042-cbf0-4c73-a825-c42fe808d66f","ios":"levelo://app?vid=94155042-cbf0-4c73-a825-c42fe808d66f"},"vehicle_type_id":"4","last_reported":1745424784,"current_range_meters":400,"station_id":"ce4bgvp2rcd13ifvqct0","pricing_plan_id":"cebpf4jnsgd1na2vs0mg"},{"bike_id":"7bd00d87-2782-420d-a15c-1eadd7ee7e4f","system_id":"levelo_inurba_marseille","lat":43.24943,"lon":5.39115,"is_reserved":false,"is_disabled":false,"rental_uris":{"android":"levelo://app?vid=7bd00d87-2782-420d-a15c-1eadd7ee7e4f","ios":"levelo://app?vid=7bd00d87-2782-420d-a15c-1eadd7ee7e4f"},"vehicle_type_id":"4","last_reported":1745424784,"current_range_meters":3200,"station_id":"","pricing_plan_id":"cebpf4jnsgd1na2vs0mg"},{"bike_id":"1a51ffb1-9a79-4bec-9ba5-e3a8a916919c","system_id":"levelo_inurba_marseille","lat":43.283478,"lon":5.381011,"is_reserved":false,"is_disabled":true,"rental_uris":{"android":"levelo://app?vid=1a51ffb1-9a79-4bec-9ba5-e3a8a916919c","ios":"levelo://app?vid=1a51ffb1-9a79-4bec-9ba5-e3a8a916919c"},"vehicle_type_id":"4","last_reported":1745424784,"current_range_meters":3600,"station_id":"ce4bh512rcd13ifvqe3g","pricing_plan_id":"cebpf4jnsgd1na2vs0mg"},{"bike_id":"3988f16d-f9fe-4a7b-b028-c2858ed3fa07","system_id":"levelo_inurba_marseille","lat":43.28361,"lon":5.38109,"is_reserved":false,"is_disabled":false,"rental_uris":{"android":"levelo://app?vid=3988f16d-f9fe-4a7b-b028-c2858ed3fa07","ios":"levelo://app?vid=3988f16d-f9fe-4a7b-b028-c2858ed3fa07"},"vehicle_type_id":"4","last_reported":1745424784,"current_range_meters":3200,"station_id":"ce4bh412rcd13ifvqdr0","pricing_plan_id":"cebpf4jnsgd1na2vs0mg"},{"bike_id":"b557db06-17b7-4594-8664-b98e49848c09","system_id":"levelo_inurba_marseille","lat":43.27378,"lon":5.36254,"is_reserved":false,"is_disabled":false,"rental_uris":{"android":"levelo://app?vid=b557db06-17b7-4594-8664-b98e49848c09","ios":"levelo://app?vid=b557db06-17b7-4594-8664-b98e49848c09"},"vehicle_type_id":"4","last_reported":1745424784,"current_range_meters":3600,"station_id":"ce4bhbh2rcd13ifvqeo0","pricing_plan_id":"cebpf4jnsgd1na2vs0mg"},{"bike_id":"c27ec569-9b98-48b9-a274-988470c7e9b6","system_id":"levelo_inurba_marseille","lat":43.289289,"lon":5.38408,"is_reserved":false,"is_disabled":false,"rental_uris":{"android":"levelo://app?vid=c27ec569-9b98-48b9-a274-988470c7e9b6","ios":"levelo://app?vid=c27ec569-9b98-48b9-a274-988470c7e9b6"},"vehicle_type_id":"4","last_reported":1745424784,"current_range_meters":3600,"station_id":"ce4bh612rcd13ifvqe6g","pricing_plan_id":"cebpf4jnsgd1na2vs0mg"},{"bike_id":"ffd65807-7b3d-4554-ad78-db7caf5958f3","system_id":"levelo_inurba_marseille","lat":43.29527,"lon":5.39419,"is_reserved":false,"is_disabled":false,"rental_uris":{"android":"levelo://app?vid=ffd65807-7b3d-4554-ad78-db7caf5958f3","ios":"levelo://app?vid=ffd65807-7b3d-4554-ad78-db7caf5958f3"},"vehicle_type_id":"4","last_reported":1745424784,"current_range_meters":3600,"station_id":"ce4bh292rcd13ifvqdf0","pricing_plan_id":"cebpf4jnsgd1na2vs0mg"},{"bike_id":"97fdaf76-2639-41f4-beba-3aeebaa20d81","system_id":"levelo_inurba_marseille","lat":43.2749,"lon":5.42483,"is_reserved":false,"is_disabled":false,"rental_uris":{"android":"levelo://app?vid=97fdaf76-2639-41f4-beba-3aeebaa20d81","ios":"levelo://app?vid=97fdaf76-2639-41f4-beba-3aeebaa20d81"},"vehicle_type_id":"4","last_reported":1745424784,"current_range_meters":4000,"station_id":"ce4bhn92rcd13ifvqgrg","pricing_plan_id":"cebpf4jnsgd1na2vs0mg"},{"bike_id":"9565bffa-ca4f-450d-a725-6092c56d8528","system_id":"levelo_inurba_marseille","lat":43.27562,"lon":5.38426,"is_reserved":false,"is_disabled":false,"rental_uris":{"android":"levelo://app?vid=9565bffa-ca4f-450d-a725-6092c56d8528","ios":"levelo://app?vid=9565bffa-ca4f-450d-a725-6092c56d8528"},"vehicle_type_id":"4","last_reported":1745424784,"current_range_meters":4000,"station_id":"ce4bhh92rcd13ifvqfi0","pricing_plan_id":"cebpf4jnsgd1na2vs0mg"},{"bike_id":"2ddb7626-06dc-4abf-976e-19ce121be91c","system_id":"levelo_inurba_marseille","lat":43.31716,"lon":5.37743,"is_reserved":false,"is_disabled":false,"rental_uris":{"android":"levelo://app?vid=2ddb7626-06dc-4abf-976e-19ce121be91c","ios":"levelo://app?vid=2ddb7626-06dc-4abf-976e-19ce121be91c"},"vehicle_type_id":"4","last_reported":1745424784,"current_range_meters":3600,"station_id":"ce4bgth2rcd13ifvqch0","pricing_plan_id":"cebpf4jnsgd1na2vs0mg"},{"bike_id":"1ddef7bb-afe2-43c6-ae24-75f1d01f44df","system_id":"levelo_inurba_marseille","lat":43.30813,"lon":5.38125,"is_reserved":false,"is_disabled":false,"rental_uris":{"android":"levelo://app?vid=1ddef7bb-afe2-43c6-ae24-75f1d01f44df","ios":"levelo://app?vid=1ddef7bb-afe2-43c6-ae24-75f1d01f44df"},"vehicle_type_id":"4","last_reported":1745424784,"current_range_meters":4400,"station_id":"ce4bgt12rcd13ifvqce0","pricing_plan_id":"cebpf4jnsgd1na2vs0mg"},{"bike_id":"db029195-99df-4d81-8830-8577f69c364e","system_id":"levelo_inurba_marseille","lat":43.30541,"lon":5.36567,"is_reserved":false,"is_disabled":false,"rental_uris":{"android":"levelo://app?vid=db029195-99df-4d81-8830-8577f69c364e","ios":"levelo://app?vid=db029195-99df-4d81-8830-8577f69c364e"},"vehicle_type_id":"4","last_reported":1745424784,"current_range_meters":4400,"station_id":"ce4bgs12rcd13ifvqcag","pricing_plan_id":"cebpf4jnsgd1na2vs0mg"},{"bike_id":"a0967738-5b2e-48bb-b8ac-790872779290","system_id":"levelo_inurba_marseille","lat":43.29706,"lon":5.37693,"is_reserved":false,"is_disabled":false,"rental_uris":{"android":"levelo://app?vid=a0967738-5b2e-48bb-b8ac-790872779290","ios":"levelo://app?vid=a0967738-5b2e-48bb-b8ac-790872779290"},"vehicle_type_id":"4","last_reported":1745424784,"current_range_meters":4400,"station_id":"ce4bgkh2rcd13ifvqbl0","pricing_plan_id":"cebpf4jnsgd1na2vs0mg"},{"bike_id":"680e9d10-4968-439b-85df-e50a55d3a902","system_id":"levelo_inurba_marseille","lat":43.28936,"lon":5.36645,"is_reserved":false,"is_disabled":false,"rental_uris":{"android":"levelo://app?vid=680e9d10-4968-439b-85df-e50a55d3a902","ios":"levelo://app?vid=680e9d10-4968-439b-85df-e50a55d3a902"},"vehicle_type_id":"4","last_reported":1745424784,"current_range_meters":4800,"station_id":"ce4bhap2rcd13ifvqek0","pricing_plan_id":"cebpf4jnsgd1na2vs0mg"},{"bike_id":"2f3cf5af-6c4d-4998-af91-17949b81c6f4","system_id":"levelo_inurba_marseille","lat":43.29033,"lon":5.38603,"is_reserved":false,"is_disabled":false,"rental_uris":{"android":"levelo://app?vid=2f3cf5af-6c4d-4998-af91-17949b81c6f4","ios":"levelo://app?vid=2f3cf5af-6c4d-4998-af91-17949b81c6f4"},"vehicle_type_id":"4","last_reported":1745424784,"current_range_meters":4800,"station_id":"ce4bh4p2rcd13ifvqe0g","pricing_plan_id":"cebpf4jnsgd1na2vs0mg"},{"bike_id":"8bece3fd-c532-4034-b213-0c81aa5831b8","system_id":"levelo_inurba_marseille","lat":43.25594,"lon":5.38222,"is_reserved":false,"is_disabled":false,"rental_uris":{"android":"levelo://app?vid=8bece3fd-c532-4034-b213-0c81aa5831b8","ios":"levelo://app?vid=8bece3fd-c532-4034-b213-0c81aa5831b8"},"vehicle_type_id":"4","last_reported":1745424784,"current_range_meters":5600,"station_id":"ce4bhih2rcd13ifvqfs0","pricing_plan_id":"cebpf4jnsgd1na2vs0mg"},{"bike_id":"2ae7a164-539e-45fa-a111-9f8a11ca1470","system_id":"levelo_inurba_marseille","lat":43.313232,"lon":5.396985,"is_reserved":false,"is_disabled":false,"rental_uris":{"android":"levelo://app?vid=2ae7a164-539e-45fa-a111-9f8a11ca1470","ios":"levelo://app?vid=2ae7a164-539e-45fa-a111-9f8a11ca1470"},"vehicle_type_id":"4","last_reported":1745424784,"current_range_meters":2800,"station_id":"ce4bgvp2rcd13ifvqcu0","pricing_plan_id":"cebpf4jnsgd1na2vs0mg"},{"bike_id":"b41b629b-77de-4cf5-933e-0d93fc0c7949","system_id":"levelo_inurba_marseille","lat":43.29535,"lon":5.39064,"is_reserved":false,"is_disabled":false,"rental_uris":{"android":"levelo://app?vid=b41b629b-77de-4cf5-933e-0d93fc0c7949","ios":"levelo://app?vid=b41b629b-77de-4cf5-933e-0d93fc0c7949"},"vehicle_type_id":"4","last_reported":1745424784,"current_range_meters":5600,"station_id":"ce4bh3p2rcd13ifvqdp0","pricing_plan_id":"cebpf4jnsgd1na2vs0mg"},{"bike_id":"bc3b81d0-94c7-416c-9665-1dc546c573fe","system_id":"levelo_inurba_marseille","lat":43.28857,"lon":5.35859,"is_reserved":false,"is_disabled":false,"rental_uris":{"android":"levelo://app?vid=bc3b81d0-94c7-416c-9665-1dc546c573fe","ios":"levelo://app?vid=bc3b81d0-94c7-416c-9665-1dc546c573fe"},"vehicle_type_id":"4","last_reported":1745424784,"current_range_meters":6000,"station_id":"ce4bhb12rcd13ifvqem0","pricing_plan_id":"cebpf4jnsgd1na2vs0mg"},{"bike_id":"fd708766-7a8a-4fc7-8bd5-9369e05e975a","system_id":"levelo_inurba_marseille","lat":43.30802,"lon":5.36803,"is_reserved":false,"is_disabled":false,"rental_uris":{"android":"levelo://app?vid=fd708766-7a8a-4fc7-8bd5-9369e05e975a","ios":"levelo://app?vid=fd708766-7a8a-4fc7-8bd5-9369e05e975a"},"vehicle_type_id":"4","last_reported":1745424784,"current_range_meters":6400,"station_id":"","pricing_plan_id":"cebpf4jnsgd1na2vs0mg"},{"bike_id":"aeb1ccfe-fb2b-4583-b234-f704a7f77f8c","system_id":"levelo_inurba_marseille","lat":43.28353,"lon":5.3811,"is_reserved":false,"is_disabled":false,"rental_uris":{"android":"levelo://app?vid=aeb1ccfe-fb2b-4583-b234-f704a7f77f8c","ios":"levelo://app?vid=aeb1ccfe-fb2b-4583-b234-f704a7f77f8c"},"vehicle_type_id":"4","last_reported":1745424784,"current_range_meters":6000,"station_id":"ce4bh412rcd13ifvqdr0","pricing_plan_id":"cebpf4jnsgd1na2vs0mg"},{"bike_id":"396f1fc6-82ff-4bd0-b5a6-5cfe9ed5c62e","system_id":"levelo_inurba_marseille","lat":43.28929,"lon":5.38406,"is_reserved":false,"is_disabled":false,"rental_uris":{"android":"levelo://app?vid=396f1fc6-82ff-4bd0-b5a6-5cfe9ed5c62e","ios":"levelo://app?vid=396f1fc6-82ff-4bd0-b5a6-5cfe9ed5c62e"},"vehicle_type_id":"4","last_reported":1745424784,"current_range_meters":6000,"station_id":"ce4bh612rcd13ifvqe6g","pricing_plan_id":"cebpf4jnsgd1na2vs0mg"},{"bike_id":"53e76e69-542e-498c-be3c-54ee74e28889","system_id":"levelo_inurba_marseille","lat":43.29714,"lon":5.36573,"is_reserved":false,"is_disabled":true,"rental_uris":{"android":"levelo://app?vid=53e76e69-542e-498c-be3c-54ee74e28889","ios":"levelo://app?vid=53e76e69-542e-498c-be3c-54ee74e28889"},"vehicle_type_id":"4","last_reported":1745424784,"current_range_meters":6000,"station_id":"ce4bgn12rcd13ifvqbt0","pricing_plan_id":"cebpf4jnsgd1na2vs0mg"},{"bike_id":"cae969d5-c0b2-472f-9429-1754ecbd3eb1","system_id":"levelo_inurba_marseille","lat":43.284183,"lon":5.349723,"is_reserved":false,"is_disabled":false,"rental_uris":{"android":"levelo://app?vid=cae969d5-c0b2-472f-9429-1754ecbd3eb1","ios":"levelo://app?vid=cae969d5-c0b2-472f-9429-1754ecbd3eb1"},"vehicle_type_id":"4","last_reported":1745424784,"current_range_meters":6400,"station_id":"ce4bhbh2rcd13ifvqepg","pricing_plan_id":"cebpf4jnsgd1na2vs0mg"},{"bike_id":"bca989b2-eafc-4ea9-8d6b-5934c26d5c3c","system_id":"levelo_inurba_marseille","lat":43.298004,"lon":5.380997,"is_reserved":false,"is_disabled":false,"rental_uris":{"android":"levelo://app?vid=bca989b2-eafc-4ea9-8d6b-5934c26d5c3c","ios":"levelo://app?vid=bca989b2-eafc-4ea9-8d6b-5934c26d5c3c"},"vehicle_type_id":"4","last_reported":1745424784,"current_range_meters":6000,"station_id":"ce4bgip2rcd13ifvqbb0","pricing_plan_id":"cebpf4jnsgd1na2vs0mg"},{"bike_id":"20041524-c85b-4809-92d3-7200b9d2f934","system_id":"levelo_inurba_marseille","lat":43.30425,"lon":5.41277,"is_reserved":false,"is_disabled":false,"rental_uris":{"android":"levelo://app?vid=20041524-c85b-4809-92d3-7200b9d2f934","ios":"levelo://app?vid=20041524-c85b-4809-92d3-7200b9d2f934"},"vehicle_type_id":"4","last_reported":1745424784,"current_range_meters":6400,"station_id":"ce4bhop2rcd13ifvqh8g","pricing_plan_id":"cebpf4jnsgd1na2vs0mg"},{"bike_id":"d177a097-dfde-4370-94f5-d151cd1eee3a","system_id":"levelo_inurba_marseille","lat":43.28264,"lon":5.35064,"is_reserved":false,"is_disabled":false,"rental_uris":{"android":"levelo://app?vid=d177a097-dfde-4370-94f5-d151cd1eee3a","ios":"levelo://app?vid=d177a097-dfde-4370-94f5-d151cd1eee3a"},"vehicle_type_id":"4","last_reported":1745424784,"current_range_meters":6400,"station_id":"ce4bhbp2rcd13ifvqerg","pricing_plan_id":"cebpf4jnsgd1na2vs0mg"},{"bike_id":"0acce7a0-cdd4-4398-bd66-16b30e895dc6","system_id":"levelo_inurba_marseille","lat":43.279919,"lon":5.400028,"is_reserved":false,"is_disabled":false,"rental_uris":{"android":"levelo://app?vid=0acce7a0-cdd4-4398-bd66-16b30e895dc6","ios":"levelo://app?vid=0acce7a0-cdd4-4398-bd66-16b30e895dc6"},"vehicle_type_id":"4","last_reported":1745424784,"current_range_meters":6400,"station_id":"ce4bho92rcd13ifvqh4g","pricing_plan_id":"cebpf4jnsgd1na2vs0mg"},{"bike_id":"8d2789be-d356-436f-bee5-111c80e6604e","system_id":"levelo_inurba_marseille","lat":43.24187,"lon":5.36376,"is_reserved":false,"is_disabled":false,"rental_uris":{"android":"levelo://app?vid=8d2789be-d356-436f-bee5-111c80e6604e","ios":"levelo://app?vid=8d2789be-d356-436f-bee5-111c80e6604e"},"vehicle_type_id":"4","last_reported":1745424784,"current_range_meters":6800,"station_id":"cpo36qri1sfpv3e86is0","pricing_plan_id":"cebpf4jnsgd1na2vs0mg"},{"bike_id":"552f59c4-a004-4049-8718-adee8d95ca7f","system_id":"levelo_inurba_marseille","lat":43.295683,"lon":5.375575,"is_reserved":false,"is_disabled":false,"rental_uris":{"android":"levelo://app?vid=552f59c4-a004-4049-8718-adee8d95ca7f","ios":"levelo://app?vid=552f59c4-a004-4049-8718-adee8d95ca7f"},"vehicle_type_id":"4","last_reported":1745424784,"current_range_meters":7200,"station_id":"ce4bh3p2rcd13ifvqdq0","pricing_plan_id":"cebpf4jnsgd1na2vs0mg"},{"bike_id":"cbb31f65-beee-4c61-980f-e1dcd8906155","system_id":"levelo_inurba_marseille","lat":43.24648,"lon":5.38899,"is_reserved":false,"is_disabled":false,"rental_uris":{"android":"levelo://app?vid=cbb31f65-beee-4c61-980f-e1dcd8906155","ios":"levelo://app?vid=cbb31f65-beee-4c61-980f-e1dcd8906155"},"vehicle_type_id":"4","last_reported":1745424784,"current_range_meters":6400,"station_id":"ce4bhg12rcd13ifvqf60","pricing_plan_id":"cebpf4jnsgd1na2vs0mg"},{"bike_id":"c94e26c1-7575-4802-86ec-0bd6f82482cc","system_id":"levelo_inurba_marseille","lat":43.28613,"lon":5.37079,"is_reserved":false,"is_disabled":false,"rental_uris":{"android":"levelo://app?vid=c94e26c1-7575-4802-86ec-0bd6f82482cc","ios":"levelo://app?vid=c94e26c1-7575-4802-86ec-0bd6f82482cc"},"vehicle_type_id":"4","last_reported":1745424784,"current_range_meters":7200,"station_id":"ce4bht12rcd13ifvqi60","pricing_plan_id":"cebpf4jnsgd1na2vs0mg"},{"bike_id":"e88ac0aa-172e-418f-9134-2e3c247b5863","system_id":"levelo_inurba_marseille","lat":43.23968,"lon":5.36638,"is_reserved":false,"is_disabled":false,"rental_uris":{"android":"levelo://app?vid=e88ac0aa-172e-418f-9134-2e3c247b5863","ios":"levelo://app?vid=e88ac0aa-172e-418f-9134-2e3c247b5863"},"vehicle_type_id":"4","last_reported":1745424784,"current_range_meters":7200,"station_id":"ce4bhi12rcd13ifvqfp0","pricing_plan_id":"cebpf4jnsgd1na2vs0mg"},{"bike_id":"2f3cac67-e7bf-444c-8679-7bd02e22d60c","system_id":"levelo_inurba_marseille","lat":43.30463,"lon":5.37897,"is_reserved":false,"is_disabled":false,"rental_uris":{"android":"levelo://app?vid=2f3cac67-e7bf-444c-8679-7bd02e22d60c","ios":"levelo://app?vid=2f3cac67-e7bf-444c-8679-7bd02e22d60c"},"vehicle_type_id":"4","last_reported":1745424784,"current_range_meters":7200,"station_id":"ce4bgup2rcd13ifvqcn0","pricing_plan_id":"cebpf4jnsgd1na2vs0mg"},{"bike_id":"49f26039-908e-49e8-bafd-d0e1f8c74636","system_id":"levelo_inurba_marseille","lat":43.29689,"lon":5.37972,"is_reserved":false,"is_disabled":false,"rental_uris":{"android":"levelo://app?vid=49f26039-908e-49e8-bafd-d0e1f8c74636","ios":"levelo://app?vid=49f26039-908e-49e8-bafd-d0e1f8c74636"},"vehicle_type_id":"4","last_reported":1745424784,"current_range_meters":7200,"station_id":"","pricing_plan_id":"cebpf4jnsgd1na2vs0mg"},{"bike_id":"020cfe9a-0725-48e5-ba4c-c20ac6e1ce90","system_id":"levelo_inurba_marseille","lat":43.28368,"lon":5.38624,"is_reserved":false,"is_disabled":false,"rental_uris":{"android":"levelo://app?vid=020cfe9a-0725-48e5-ba4c-c20ac6e1ce90","ios":"levelo://app?vid=020cfe9a-0725-48e5-ba4c-c20ac6e1ce90"},"vehicle_type_id":"4","last_reported":1745424784,"current_range_meters":7200,"station_id":"ce4bh492rcd13ifvqdvg","pricing_plan_id":"cebpf4jnsgd1na2vs0mg"},{"bike_id":"6ac611be-fa2e-4c81-a0a1-f825b8d54730","system_id":"levelo_inurba_marseille","lat":43.23088,"lon":5.35474,"is_reserved":false,"is_disabled":false,"rental_uris":{"android":"levelo://app?vid=6ac611be-fa2e-4c81-a0a1-f825b8d54730","ios":"levelo://app?vid=6ac611be-fa2e-4c81-a0a1-f825b8d54730"},"vehicle_type_id":"4","last_reported":1745424784,"current_range_meters":7200,"station_id":"cpo3342slgdg3j2ifvpg","pricing_plan_id":"cebpf4jnsgd1na2vs0mg"},{"bike_id":"ededec44-3a68-40ef-ac88-317b68ddc6c5","system_id":"levelo_inurba_marseille","lat":43.27382,"lon":5.36252,"is_reserved":false,"is_disabled":false,"rental_uris":{"android":"levelo://app?vid=ededec44-3a68-40ef-ac88-317b68ddc6c5","ios":"levelo://app?vid=ededec44-3a68-40ef-ac88-317b68ddc6c5"},"vehicle_type_id":"4","last_reported":1745424784,"current_range_meters":7200,"station_id":"ce4bhbh2rcd13ifvqeo0","pricing_plan_id":"cebpf4jnsgd1na2vs0mg"},{"bike_id":"e37792a6-f349-4512-8625-113ccd6f5c99","system_id":"levelo_inurba_marseille","lat":43.27998,"lon":5.4,"is_reserved":false,"is_disabled":true,"rental_uris":{"android":"levelo://app?vid=e37792a6-f349-4512-8625-113ccd6f5c99","ios":"levelo://app?vid=e37792a6-f349-4512-8625-113ccd6f5c99"},"vehicle_type_id":"4","last_reported":1745424784,"current_range_meters":8000,"station_id":"ce4bho92rcd13ifvqh4g","pricing_plan_id":"cebpf4jnsgd1na2vs0mg"},{"bike_id":"c86240cd-3aeb-4b17-8b93-a898fc029ea7","system_id":"levelo_inurba_marseille","lat":43.28469,"lon":5.35888,"is_reserved":false,"is_disabled":false,"rental_uris":{"android":"levelo://app?vid=c86240cd-3aeb-4b17-8b93-a898fc029ea7","ios":"levelo://app?vid=c86240cd-3aeb-4b17-8b93-a898fc029ea7"},"vehicle_type_id":"4","last_reported":1745424784,"current_range_meters":8000,"station_id":"ce4bhah2rcd13ifvqei0","pricing_plan_id":"cebpf4jnsgd1na2vs0mg"},{"bike_id":"6105ebe3-b6fa-4d50-9677-6b3b97ad8e7d","system_id":"levelo_inurba_marseille","lat":43.26943,"lon":5.40255,"is_reserved":false,"is_disabled":false,"rental_uris":{"android":"levelo://app?vid=6105ebe3-b6fa-4d50-9677-6b3b97ad8e7d","ios":"levelo://app?vid=6105ebe3-b6fa-4d50-9677-6b3b97ad8e7d"},"vehicle_type_id":"4","last_reported":1745424784,"current_range_meters":7200,"station_id":"cjm6bp8fraef2m0cb0m0","pricing_plan_id":"cebpf4jnsgd1na2vs0mg"},{"bike_id":"0c876ad2-5af7-4c20-9deb-35c225436953","system_id":"levelo_inurba_marseille","lat":43.31114,"lon":5.37767,"is_reserved":false,"is_disabled":false,"rental_uris":{"android":"levelo://app?vid=0c876ad2-5af7-4c20-9deb-35c225436953","ios":"levelo://app?vid=0c876ad2-5af7-4c20-9deb-35c225436953"},"vehicle_type_id":"4","last_reported":1745424784,"current_range_meters":8000,"station_id":"ce4bgt92rcd13ifvqcg0","pricing_plan_id":"cebpf4jnsgd1na2vs0mg"},{"bike_id":"203edac6-808a-418e-a924-a5a89c94880e","system_id":"levelo_inurba_marseille","lat":43.28134,"lon":5.378632,"is_reserved":false,"is_disabled":false,"rental_uris":{"android":"levelo://app?vid=203edac6-808a-418e-a924-a5a89c94880e","ios":"levelo://app?vid=203edac6-808a-418e-a924-a5a89c94880e"},"vehicle_type_id":"4","last_reported":1745424784,"current_range_meters":8400,"station_id":"ce4bha12rcd13ifvqee0","pricing_plan_id":"cebpf4jnsgd1na2vs0mg"},{"bike_id":"22be9067-8a03-43bf-976a-eaa900a15baa","system_id":"levelo_inurba_marseille","lat":43.28847,"lon":5.39306,"is_reserved":false,"is_disabled":false,"rental_uris":{"android":"levelo://app?vid=22be9067-8a03-43bf-976a-eaa900a15baa","ios":"levelo://app?vid=22be9067-8a03-43bf-976a-eaa900a15baa"},"vehicle_type_id":"4","last_reported":1745424784,"current_range_meters":8400,"station_id":"ce4bh2p2rcd13ifvqdi0","pricing_plan_id":"cebpf4jnsgd1na2vs0mg"},{"bike_id":"e3faff49-751f-459c-bf8f-2e627533cade","system_id":"levelo_inurba_marseille","lat":43.290313,"lon":5.386463,"is_reserved":false,"is_disabled":false,"rental_uris":{"android":"levelo://app?vid=e3faff49-751f-459c-bf8f-2e627533cade","ios":"levelo://app?vid=e3faff49-751f-459c-bf8f-2e627533cade"},"vehicle_type_id":"4","last_reported":1745424784,"current_range_meters":8400,"station_id":"ce4bh4p2rcd13ifvqe0g","pricing_plan_id":"cebpf4jnsgd1na2vs0mg"},{"bike_id":"e830cc6a-9089-4651-8013-195369aa9acd","system_id":"levelo_inurba_marseille","lat":43.29415,"lon":5.38626,"is_reserved":false,"is_disabled":false,"rental_uris":{"android":"levelo://app?vid=e830cc6a-9089-4651-8013-195369aa9acd","ios":"levelo://app?vid=e830cc6a-9089-4651-8013-195369aa9acd"},"vehicle_type_id":"4","last_reported":1745424784,"current_range_meters":8800,"station_id":"ce4bh2h2rcd13ifvqdh0","pricing_plan_id":"cebpf4jnsgd1na2vs0mg"},{"bike_id":"9cb521dc-e165-4eb3-8f49-52fb10b481a5","system_id":"levelo_inurba_marseille","lat":43.28924,"lon":5.38442,"is_reserved":false,"is_disabled":false,"rental_uris":{"android":"levelo://app?vid=9cb521dc-e165-4eb3-8f49-52fb10b481a5","ios":"levelo://app?vid=9cb521dc-e165-4eb3-8f49-52fb10b481a5"},"vehicle_type_id":"4","last_reported":1745424784,"current_range_meters":8800,"station_id":"ce4bh612rcd13ifvqe6g","pricing_plan_id":"cebpf4jnsgd1na2vs0mg"},{"bike_id":"61034bff-863b-4f17-b306-04653b14a109","system_id":"levelo_inurba_marseille","lat":43.30935,"lon":5.40143,"is_reserved":false,"is_disabled":true,"rental_uris":{"android":"levelo://app?vid=61034bff-863b-4f17-b306-04653b14a109","ios":"levelo://app?vid=61034bff-863b-4f17-b306-04653b14a109"},"vehicle_type_id":"4","last_reported":1745424784,"current_range_meters":8800,"station_id":"ce4bgvp2rcd13ifvqct0","pricing_plan_id":"cebpf4jnsgd1na2vs0mg"},{"bike_id":"47c28173-9994-4cfe-a290-df0c87408a03","system_id":"levelo_inurba_marseille","lat":43.258951,"lon":5.398917,"is_reserved":false,"is_disabled":false,"rental_uris":{"android":"levelo://app?vid=47c28173-9994-4cfe-a290-df0c87408a03","ios":"levelo://app?vid=47c28173-9994-4cfe-a290-df0c87408a03"},"vehicle_type_id":"4","last_reported":1745424784,"current_range_meters":8400,"station_id":"ce4bhn12rcd13ifvqgqg","pricing_plan_id":"cebpf4jnsgd1na2vs0mg"},{"bike_id":"e128e3f4-1d1c-4c0b-a25e-7e71885fcf99","system_id":"levelo_inurba_marseille","lat":43.28931,"lon":5.38398,"is_reserved":false,"is_disabled":false,"rental_uris":{"android":"levelo://app?vid=e128e3f4-1d1c-4c0b-a25e-7e71885fcf99","ios":"levelo://app?vid=e128e3f4-1d1c-4c0b-a25e-7e71885fcf99"},"vehicle_type_id":"4","last_reported":1745424784,"current_range_meters":8800,"station_id":"ce4bh612rcd13ifvqe6g","pricing_plan_id":"cebpf4jnsgd1na2vs0mg"},{"bike_id":"c0d0ca6a-3c30-4a0c-b449-cab86bc5401c","system_id":"levelo_inurba_marseille","lat":43.29082,"lon":5.37156,"is_reserved":false,"is_disabled":false,"rental_uris":{"android":"levelo://app?vid=c0d0ca6a-3c30-4a0c-b449-cab86bc5401c","ios":"levelo://app?vid=c0d0ca6a-3c30-4a0c-b449-cab86bc5401c"},"vehicle_type_id":"4","last_reported":1745424784,"current_range_meters":8400,"station_id":"ce4bh5p2rcd13ifvqe4g","pricing_plan_id":"cebpf4jnsgd1na2vs0mg"},{"bike_id":"49c0f902-eac7-4a79-adf0-d142aff51e11","system_id":"levelo_inurba_marseille","lat":43.24162,"lon":5.36408,"is_reserved":false,"is_disabled":false,"rental_uris":{"android":"levelo://app?vid=49c0f902-eac7-4a79-adf0-d142aff51e11","ios":"levelo://app?vid=49c0f902-eac7-4a79-adf0-d142aff51e11"},"vehicle_type_id":"4","last_reported":1745424784,"current_range_meters":8800,"station_id":"cpo36qri1sfpv3e86is0","pricing_plan_id":"cebpf4jnsgd1na2vs0mg"},{"bike_id":"7d7c18c3-1ea2-4e11-9fa4-78c666046a95","system_id":"levelo_inurba_marseille","lat":43.2903,"lon":5.38647,"is_reserved":false,"is_disabled":false,"rental_uris":{"android":"levelo://app?vid=7d7c18c3-1ea2-4e11-9fa4-78c666046a95","ios":"levelo://app?vid=7d7c18c3-1ea2-4e11-9fa4-78c666046a95"},"vehicle_type_id":"4","last_reported":1745424784,"current_range_meters":9200,"station_id":"ce4bh4p2rcd13ifvqe0g","pricing_plan_id":"cebpf4jnsgd1na2vs0mg"},{"bike_id":"d6eab50f-20c4-4a2d-ae1d-77fdec44a426","system_id":"levelo_inurba_marseille","lat":43.23159,"lon":5.43753,"is_reserved":false,"is_disabled":false,"rental_uris":{"android":"levelo://app?vid=d6eab50f-20c4-4a2d-ae1d-77fdec44a426","ios":"levelo://app?vid=d6eab50f-20c4-4a2d-ae1d-77fdec44a426"},"vehicle_type_id":"4","last_reported":1745424784,"current_range_meters":9200,"station_id":"ce4bhmp2rcd13ifvqgog","pricing_plan_id":"cebpf4jnsgd1na2vs0mg"},{"bike_id":"7d62d462-df1f-420a-97b4-76ceb40d6bdb","system_id":"levelo_inurba_marseille","lat":43.26562,"lon":5.39005,"is_reserved":false,"is_disabled":false,"rental_uris":{"android":"levelo://app?vid=7d62d462-df1f-420a-97b4-76ceb40d6bdb","ios":"levelo://app?vid=7d62d462-df1f-420a-97b4-76ceb40d6bdb"},"vehicle_type_id":"4","last_reported":1745424784,"current_range_meters":9200,"station_id":"ce4bhe12rcd13ifvqf30","pricing_plan_id":"cebpf4jnsgd1na2vs0mg"},{"bike_id":"2444db48-73b9-4f67-9dc6-6e8bcceff093","system_id":"levelo_inurba_marseille","lat":43.2977,"lon":5.38112,"is_reserved":false,"is_disabled":true,"rental_uris":{"android":"levelo://app?vid=2444db48-73b9-4f67-9dc6-6e8bcceff093","ios":"levelo://app?vid=2444db48-73b9-4f67-9dc6-6e8bcceff093"},"vehicle_type_id":"4","last_reported":1745424784,"current_range_meters":9600,"station_id":"ce4bgip2rcd13ifvqbb0","pricing_plan_id":"cebpf4jnsgd1na2vs0mg"},{"bike_id":"69c2dddc-d9e3-4950-b385-0cb1f32d18bc","system_id":"levelo_inurba_marseille","lat":43.27998,"lon":5.40013,"is_reserved":false,"is_disabled":false,"rental_uris":{"android":"levelo://app?vid=69c2dddc-d9e3-4950-b385-0cb1f32d18bc","ios":"levelo://app?vid=69c2dddc-d9e3-4950-b385-0cb1f32d18bc"},"vehicle_type_id":"4","last_reported":1745424784,"current_range_meters":9600,"station_id":"ce4bho92rcd13ifvqh4g","pricing_plan_id":"cebpf4jnsgd1na2vs0mg"},{"bike_id":"144934a9-4887-4184-9c83-792dd443d3af","system_id":"levelo_inurba_marseille","lat":43.27173,"lon":5.40991,"is_reserved":false,"is_disabled":false,"rental_uris":{"android":"levelo://app?vid=144934a9-4887-4184-9c83-792dd443d3af","ios":"levelo://app?vid=144934a9-4887-4184-9c83-792dd443d3af"},"vehicle_type_id":"4","last_reported":1745424784,"current_range_meters":9200,"station_id":"ce4bhl12rcd13ifvqgf0","pricing_plan_id":"cebpf4jnsgd1na2vs0mg"},{"bike_id":"e8ee1e71-e577-434b-891b-70e0628db3a8","system_id":"levelo_inurba_marseille","lat":43.29629,"lon":5.40601,"is_reserved":false,"is_disabled":false,"rental_uris":{"android":"levelo://app?vid=e8ee1e71-e577-434b-891b-70e0628db3a8","ios":"levelo://app?vid=e8ee1e71-e577-434b-891b-70e0628db3a8"},"vehicle_type_id":"4","last_reported":1745424784,"current_range_meters":9600,"station_id":"ce4bh0h2rcd13ifvqd60","pricing_plan_id":"cebpf4jnsgd1na2vs0mg"},{"bike_id":"6baba112-e8c3-412a-9449-7fa599f86eb0","system_id":"levelo_inurba_marseille","lat":43.28,"lon":5.40013,"is_reserved":false,"is_disabled":false,"rental_uris":{"android":"levelo://app?vid=6baba112-e8c3-412a-9449-7fa599f86eb0","ios":"levelo://app?vid=6baba112-e8c3-412a-9449-7fa599f86eb0"},"vehicle_type_id":"4","last_reported":1745424784,"current_range_meters":9600,"station_id":"ce4bho92rcd13ifvqh4g","pricing_plan_id":"cebpf4jnsgd1na2vs0mg"},{"bike_id":"fbb6be43-75ac-4697-af84-df6581464ee0","system_id":"levelo_inurba_marseille","lat":43.23964,"lon":5.36648,"is_reserved":false,"is_disabled":false,"rental_uris":{"android":"levelo://app?vid=fbb6be43-75ac-4697-af84-df6581464ee0","ios":"levelo://app?vid=fbb6be43-75ac-4697-af84-df6581464ee0"},"vehicle_type_id":"4","last_reported":1745424784,"current_range_meters":9600,"station_id":"ce4bhi12rcd13ifvqfp0","pricing_plan_id":"cebpf4jnsgd1na2vs0mg"},{"bike_id":"d69b4840-a48c-46aa-8de4-1073f19f4178","system_id":"levelo_inurba_marseille","lat":43.28259,"lon":5.35061,"is_reserved":false,"is_disabled":true,"rental_uris":{"android":"levelo://app?vid=d69b4840-a48c-46aa-8de4-1073f19f4178","ios":"levelo://app?vid=d69b4840-a48c-46aa-8de4-1073f19f4178"},"vehicle_type_id":"4","last_reported":1745424784,"current_range_meters":9600,"station_id":"ce4bhbp2rcd13ifvqerg","pricing_plan_id":"cebpf4jnsgd1na2vs0mg"},{"bike_id":"1780b1fd-113e-4b95-a483-e0cb2074c4c6","system_id":"levelo_inurba_marseille","lat":43.29848,"lon":5.36232,"is_reserved":false,"is_disabled":false,"rental_uris":{"android":"levelo://app?vid=1780b1fd-113e-4b95-a483-e0cb2074c4c6","ios":"levelo://app?vid=1780b1fd-113e-4b95-a483-e0cb2074c4c6"},"vehicle_type_id":"4","last_reported":1745424784,"current_range_meters":9600,"station_id":"ce4bgpp2rcd13ifvqc3g","pricing_plan_id":"cebpf4jnsgd1na2vs0mg"},{"bike_id":"ee6fe346-129a-4352-b7c7-aefa1e451c7a","system_id":"levelo_inurba_marseille","lat":43.30653,"lon":5.40076,"is_reserved":false,"is_disabled":true,"rental_uris":{"android":"levelo://app?vid=ee6fe346-129a-4352-b7c7-aefa1e451c7a","ios":"levelo://app?vid=ee6fe346-129a-4352-b7c7-aefa1e451c7a"},"vehicle_type_id":"4","last_reported":1745424784,"current_range_meters":10000,"station_id":"ce4bh112rcd13ifvqda0","pricing_plan_id":"cebpf4jnsgd1na2vs0mg"},{"bike_id":"2126f07f-966e-41b0-9778-abf7a82d85ef","system_id":"levelo_inurba_marseille","lat":43.24079,"lon":5.37761,"is_reserved":false,"is_disabled":false,"rental_uris":{"android":"levelo://app?vid=2126f07f-966e-41b0-9778-abf7a82d85ef","ios":"levelo://app?vid=2126f07f-966e-41b0-9778-abf7a82d85ef"},"vehicle_type_id":"4","last_reported":1745424784,"current_range_meters":9600,"station_id":"ce4bhnp2rcd13ifvqgvg","pricing_plan_id":"cebpf4jnsgd1na2vs0mg"},{"bike_id":"ec350b30-9b32-4c5f-aa22-3a10fc683fe2","system_id":"levelo_inurba_marseille","lat":43.29349,"lon":5.43425,"is_reserved":false,"is_disabled":false,"rental_uris":{"android":"levelo://app?vid=ec350b30-9b32-4c5f-aa22-3a10fc683fe2","ios":"levelo://app?vid=ec350b30-9b32-4c5f-aa22-3a10fc683fe2"},"vehicle_type_id":"4","last_reported":1745424784,"current_range_meters":10000,"station_id":"","pricing_plan_id":"cebpf4jnsgd1na2vs0mg"},{"bike_id":"c718b398-5e65-44f0-8677-0bd73d6590eb","system_id":"levelo_inurba_marseille","lat":43.28375,"lon":5.38629,"is_reserved":false,"is_disabled":false,"rental_uris":{"android":"levelo://app?vid=c718b398-5e65-44f0-8677-0bd73d6590eb","ios":"levelo://app?vid=c718b398-5e65-44f0-8677-0bd73d6590eb"},"vehicle_type_id":"4","last_reported":1745424784,"current_range_meters":10000,"station_id":"ce4bh492rcd13ifvqdvg","pricing_plan_id":"cebpf4jnsgd1na2vs0mg"},{"bike_id":"69e128ee-f76b-46f2-bd63-b73c39b34537","system_id":"levelo_inurba_marseille","lat":43.27072,"lon":5.42278,"is_reserved":false,"is_disabled":false,"rental_uris":{"android":"levelo://app?vid=69e128ee-f76b-46f2-bd63-b73c39b34537","ios":"levelo://app?vid=69e128ee-f76b-46f2-bd63-b73c39b34537"},"vehicle_type_id":"4","last_reported":1745424784,"current_range_meters":10000,"station_id":"ce4bhk92rcd13ifvqgb0","pricing_plan_id":"cebpf4jnsgd1na2vs0mg"},{"bike_id":"22d01123-49c8-4009-8009-ebb5bbc995be","system_id":"levelo_inurba_marseille","lat":43.32596,"lon":5.40352,"is_reserved":false,"is_disabled":false,"rental_uris":{"android":"levelo://app?vid=22d01123-49c8-4009-8009-ebb5bbc995be","ios":"levelo://app?vid=22d01123-49c8-4009-8009-ebb5bbc995be"},"vehicle_type_id":"4","last_reported":1745424784,"current_range_meters":11200,"station_id":"","pricing_plan_id":"cebpf4jnsgd1na2vs0mg"},{"bike_id":"dd039c6d-bc53-4aea-8d28-8d905de3ed63","system_id":"levelo_inurba_marseille","lat":43.28857,"lon":5.35835,"is_reserved":false,"is_disabled":false,"rental_uris":{"android":"levelo://app?vid=dd039c6d-bc53-4aea-8d28-8d905de3ed63","ios":"levelo://app?vid=dd039c6d-bc53-4aea-8d28-8d905de3ed63"},"vehicle_type_id":"4","last_reported":1745424784,"current_range_meters":10800,"station_id":"ce4bhb12rcd13ifvqem0","pricing_plan_id":"cebpf4jnsgd1na2vs0mg"},{"bike_id":"9c325fd4-f154-4a48-857e-569f4cc367f9","system_id":"levelo_inurba_marseille","lat":43.22935,"lon":5.35374,"is_reserved":false,"is_disabled":false,"rental_uris":{"android":"levelo://app?vid=9c325fd4-f154-4a48-857e-569f4cc367f9","ios":"levelo://app?vid=9c325fd4-f154-4a48-857e-569f4cc367f9"},"vehicle_type_id":"4","last_reported":1745424784,"current_range_meters":10800,"station_id":"cpo3532slgdg3j2ikp40","pricing_plan_id":"cebpf4jnsgd1na2vs0mg"},{"bike_id":"358634ea-3251-4107-886f-95ee872a57a7","system_id":"levelo_inurba_marseille","lat":43.2468,"lon":5.38167,"is_reserved":false,"is_disabled":false,"rental_uris":{"android":"levelo://app?vid=358634ea-3251-4107-886f-95ee872a57a7","ios":"levelo://app?vid=358634ea-3251-4107-886f-95ee872a57a7"},"vehicle_type_id":"4","last_reported":1745424784,"current_range_meters":10800,"station_id":"ce4bhih2rcd13ifvqfr0","pricing_plan_id":"cebpf4jnsgd1na2vs0mg"},{"bike_id":"af49c41d-bc25-4ca5-8295-2a30526e35ee","system_id":"levelo_inurba_marseille","lat":43.28624,"lon":5.35099,"is_reserved":false,"is_disabled":false,"rental_uris":{"android":"levelo://app?vid=af49c41d-bc25-4ca5-8295-2a30526e35ee","ios":"levelo://app?vid=af49c41d-bc25-4ca5-8295-2a30526e35ee"},"vehicle_type_id":"4","last_reported":1745424784,"current_range_meters":10800,"station_id":"ce4bhch2rcd13ifvqeug","pricing_plan_id":"cebpf4jnsgd1na2vs0mg"},{"bike_id":"368b8f33-e5d5-4643-aba0-cd33cfc64956","system_id":"levelo_inurba_marseille","lat":43.27991,"lon":5.41659,"is_reserved":false,"is_disabled":false,"rental_uris":{"android":"levelo://app?vid=368b8f33-e5d5-4643-aba0-cd33cfc64956","ios":"levelo://app?vid=368b8f33-e5d5-4643-aba0-cd33cfc64956"},"vehicle_type_id":"4","last_reported":1745424784,"current_range_meters":8000,"station_id":"ce4bho12rcd13ifvqh1g","pricing_plan_id":"cebpf4jnsgd1na2vs0mg"},{"bike_id":"92c3b340-d069-4f1c-b55b-44c52f19597b","system_id":"levelo_inurba_marseille","lat":43.28242,"lon":5.37833,"is_reserved":false,"is_disabled":false,"rental_uris":{"android":"levelo://app?vid=92c3b340-d069-4f1c-b55b-44c52f19597b","ios":"levelo://app?vid=92c3b340-d069-4f1c-b55b-44c52f19597b"},"vehicle_type_id":"4","last_reported":1745424784,"current_range_meters":11200,"station_id":"","pricing_plan_id":"cebpf4jnsgd1na2vs0mg"},{"bike_id":"13ac5a6d-8a7b-4186-ac92-72ad71ca7418","system_id":"levelo_inurba_marseille","lat":43.29794,"lon":5.40397,"is_reserved":false,"is_disabled":false,"rental_uris":{"android":"levelo://app?vid=13ac5a6d-8a7b-4186-ac92-72ad71ca7418","ios":"levelo://app?vid=13ac5a6d-8a7b-4186-ac92-72ad71ca7418"},"vehicle_type_id":"4","last_reported":1745424784,"current_range_meters":11200,"station_id":"ce4bh112rcd13ifvqd90","pricing_plan_id":"cebpf4jnsgd1na2vs0mg"},{"bike_id":"716510b9-bca7-454d-87a4-ac9cb1a05be1","system_id":"levelo_inurba_marseille","lat":43.24394,"lon":5.370959,"is_reserved":false,"is_disabled":false,"rental_uris":{"android":"levelo://app?vid=716510b9-bca7-454d-87a4-ac9cb1a05be1","ios":"levelo://app?vid=716510b9-bca7-454d-87a4-ac9cb1a05be1"},"vehicle_type_id":"4","last_reported":1745424784,"current_range_meters":11600,"station_id":"ce4bhhh2rcd13ifvqfk0","pricing_plan_id":"cebpf4jnsgd1na2vs0mg"},{"bike_id":"f60f50e8-65c9-4422-87b8-414913e58d5e","system_id":"levelo_inurba_marseille","lat":43.298104,"lon":5.403345,"is_reserved":false,"is_disabled":false,"rental_uris":{"android":"levelo://app?vid=f60f50e8-65c9-4422-87b8-414913e58d5e","ios":"levelo://app?vid=f60f50e8-65c9-4422-87b8-414913e58d5e"},"vehicle_type_id":"4","last_reported":1745424784,"current_range_meters":11200,"station_id":"ce4bgi12rcd13ifvqb70","pricing_plan_id":"cebpf4jnsgd1na2vs0mg"},{"bike_id":"9620306b-61d2-4e80-a83f-26f0c2d1f274","system_id":"levelo_inurba_marseille","lat":43.299413,"lon":5.401043,"is_reserved":false,"is_disabled":false,"rental_uris":{"android":"levelo://app?vid=9620306b-61d2-4e80-a83f-26f0c2d1f274","ios":"levelo://app?vid=9620306b-61d2-4e80-a83f-26f0c2d1f274"},"vehicle_type_id":"4","last_reported":1745424784,"current_range_meters":11600,"station_id":"ce4bh112rcd13ifvqda0","pricing_plan_id":"cebpf4jnsgd1na2vs0mg"},{"bike_id":"37d3dc70-6e13-463a-8213-11424126179c","system_id":"levelo_inurba_marseille","lat":43.28,"lon":5.41659,"is_reserved":false,"is_disabled":false,"rental_uris":{"android":"levelo://app?vid=37d3dc70-6e13-463a-8213-11424126179c","ios":"levelo://app?vid=37d3dc70-6e13-463a-8213-11424126179c"},"vehicle_type_id":"4","last_reported":1745424784,"current_range_meters":11600,"station_id":"ce4bho12rcd13ifvqh1g","pricing_plan_id":"cebpf4jnsgd1na2vs0mg"},{"bike_id":"b96d48d5-fc65-423b-9a30-5d2c864e8939","system_id":"levelo_inurba_marseille","lat":43.22527,"lon":5.34795,"is_reserved":false,"is_disabled":false,"rental_uris":{"android":"levelo://app?vid=b96d48d5-fc65-423b-9a30-5d2c864e8939","ios":"levelo://app?vid=b96d48d5-fc65-423b-9a30-5d2c864e8939"},"vehicle_type_id":"4","last_reported":1745424784,"current_range_meters":11600,"station_id":"st_cvj5dfep6f1abm77gieg","pricing_plan_id":"cebpf4jnsgd1na2vs0mg"},{"bike_id":"c4c068bf-3c98-4fb2-b265-95a160303709","system_id":"levelo_inurba_marseille","lat":43.29789,"lon":5.3934,"is_reserved":false,"is_disabled":false,"rental_uris":{"android":"levelo://app?vid=c4c068bf-3c98-4fb2-b265-95a160303709","ios":"levelo://app?vid=c4c068bf-3c98-4fb2-b265-95a160303709"},"vehicle_type_id":"4","last_reported":1745424784,"current_range_meters":11200,"station_id":"chh1huq6cuj3fo74tm60","pricing_plan_id":"cebpf4jnsgd1na2vs0mg"},{"bike_id":"80dd30e1-2cfb-4f1a-857a-04ad2d239816","system_id":"levelo_inurba_marseille","lat":43.255,"lon":5.37654,"is_reserved":false,"is_disabled":false,"rental_uris":{"android":"levelo://app?vid=80dd30e1-2cfb-4f1a-857a-04ad2d239816","ios":"levelo://app?vid=80dd30e1-2cfb-4f1a-857a-04ad2d239816"},"vehicle_type_id":"4","last_reported":1745424784,"current_range_meters":11200,"station_id":"ce4bhh12rcd13ifvqff0","pricing_plan_id":"cebpf4jnsgd1na2vs0mg"},{"bike_id":"bfc57060-bf96-4e1e-978c-0c15aaef2b8b","system_id":"levelo_inurba_marseille","lat":43.29902,"lon":5.43682,"is_reserved":false,"is_disabled":false,"rental_uris":{"android":"levelo://app?vid=bfc57060-bf96-4e1e-978c-0c15aaef2b8b","ios":"levelo://app?vid=bfc57060-bf96-4e1e-978c-0c15aaef2b8b"},"vehicle_type_id":"4","last_reported":1745424784,"current_range_meters":11600,"station_id":"ce4bhpp2rcd13ifvqhfg","pricing_plan_id":"cebpf4jnsgd1na2vs0mg"},{"bike_id":"c13ba608-a61d-4dd8-88c1-7f5ce168c136","system_id":"levelo_inurba_marseille","lat":43.29523,"lon":5.39076,"is_reserved":false,"is_disabled":false,"rental_uris":{"android":"levelo://app?vid=c13ba608-a61d-4dd8-88c1-7f5ce168c136","ios":"levelo://app?vid=c13ba608-a61d-4dd8-88c1-7f5ce168c136"},"vehicle_type_id":"4","last_reported":1745424784,"current_range_meters":11600,"station_id":"ce4bh3p2rcd13ifvqdp0","pricing_plan_id":"cebpf4jnsgd1na2vs0mg"},{"bike_id":"5654bb20-d7f4-42f3-a804-9e5bdd351297","system_id":"levelo_inurba_marseille","lat":43.23964,"lon":5.36645,"is_reserved":false,"is_disabled":false,"rental_uris":{"android":"levelo://app?vid=5654bb20-d7f4-42f3-a804-9e5bdd351297","ios":"levelo://app?vid=5654bb20-d7f4-42f3-a804-9e5bdd351297"},"vehicle_type_id":"4","last_reported":1745424784,"current_range_meters":11600,"station_id":"ce4bhi12rcd13ifvqfp0","pricing_plan_id":"cebpf4jnsgd1na2vs0mg"},{"bike_id":"7cb503d8-a3ee-4291-8d4b-648ba2f1137c","system_id":"levelo_inurba_marseille","lat":43.24178,"lon":5.3642,"is_reserved":false,"is_disabled":false,"rental_uris":{"android":"levelo://app?vid=7cb503d8-a3ee-4291-8d4b-648ba2f1137c","ios":"levelo://app?vid=7cb503d8-a3ee-4291-8d4b-648ba2f1137c"},"vehicle_type_id":"4","last_reported":1745424784,"current_range_meters":11600,"station_id":"cpo36qri1sfpv3e86is0","pricing_plan_id":"cebpf4jnsgd1na2vs0mg"},{"bike_id":"1b127cd6-73c6-458b-9f7b-eb0196b0a88c","system_id":"levelo_inurba_marseille","lat":43.29635,"lon":5.406,"is_reserved":false,"is_disabled":false,"rental_uris":{"android":"levelo://app?vid=1b127cd6-73c6-458b-9f7b-eb0196b0a88c","ios":"levelo://app?vid=1b127cd6-73c6-458b-9f7b-eb0196b0a88c"},"vehicle_type_id":"4","last_reported":1745424784,"current_range_meters":11600,"station_id":"ce4bh0h2rcd13ifvqd60","pricing_plan_id":"cebpf4jnsgd1na2vs0mg"},{"bike_id":"5546f93c-c7eb-4a36-b1e9-022b7fc99074","system_id":"levelo_inurba_marseille","lat":43.23176,"lon":5.35587,"is_reserved":false,"is_disabled":false,"rental_uris":{"android":"levelo://app?vid=5546f93c-c7eb-4a36-b1e9-022b7fc99074","ios":"levelo://app?vid=5546f93c-c7eb-4a36-b1e9-022b7fc99074"},"vehicle_type_id":"4","last_reported":1745424784,"current_range_meters":12400,"station_id":"ce4bhu92rcd13ifvqi70","pricing_plan_id":"cebpf4jnsgd1na2vs0mg"},{"bike_id":"03bbc5db-7780-4675-a80f-8f0f510ae625","system_id":"levelo_inurba_marseille","lat":43.27997,"lon":5.40009,"is_reserved":false,"is_disabled":false,"rental_uris":{"android":"levelo://app?vid=03bbc5db-7780-4675-a80f-8f0f510ae625","ios":"levelo://app?vid=03bbc5db-7780-4675-a80f-8f0f510ae625"},"vehicle_type_id":"4","last_reported":1745424784,"current_range_meters":12000,"station_id":"ce4bho92rcd13ifvqh4g","pricing_plan_id":"cebpf4jnsgd1na2vs0mg"},{"bike_id":"d6a00241-8f25-44db-ac6d-8e84872db2a8","system_id":"levelo_inurba_marseille","lat":43.33723,"lon":5.39196,"is_reserved":false,"is_disabled":false,"rental_uris":{"android":"levelo://app?vid=d6a00241-8f25-44db-ac6d-8e84872db2a8","ios":"levelo://app?vid=d6a00241-8f25-44db-ac6d-8e84872db2a8"},"vehicle_type_id":"4","last_reported":1745424784,"current_range_meters":12000,"station_id":"ce4bhr92rcd13ifvqhsg","pricing_plan_id":"cebpf4jnsgd1na2vs0mg"},{"bike_id":"abd226a8-d003-4133-b9d2-b7c952b7ead1","system_id":"levelo_inurba_marseille","lat":43.23069,"lon":5.35493,"is_reserved":false,"is_disabled":false,"rental_uris":{"android":"levelo://app?vid=abd226a8-d003-4133-b9d2-b7c952b7ead1","ios":"levelo://app?vid=abd226a8-d003-4133-b9d2-b7c952b7ead1"},"vehicle_type_id":"4","last_reported":1745424784,"current_range_meters":12000,"station_id":"cpo3342slgdg3j2ifvpg","pricing_plan_id":"cebpf4jnsgd1na2vs0mg"},{"bike_id":"65a7d65a-b950-484a-abb7-f7b661f52b0a","system_id":"levelo_inurba_marseille","lat":43.29426,"lon":5.3862,"is_reserved":false,"is_disabled":false,"rental_uris":{"android":"levelo://app?vid=65a7d65a-b950-484a-abb7-f7b661f52b0a","ios":"levelo://app?vid=65a7d65a-b950-484a-abb7-f7b661f52b0a"},"vehicle_type_id":"4","last_reported":1745424784,"current_range_meters":12000,"station_id":"ce4bh2h2rcd13ifvqdh0","pricing_plan_id":"cebpf4jnsgd1na2vs0mg"},{"bike_id":"0a00f149-560b-4cf9-a904-26f1a141fb87","system_id":"levelo_inurba_marseille","lat":43.29276,"lon":5.36841,"is_reserved":false,"is_disabled":false,"rental_uris":{"android":"levelo://app?vid=0a00f149-560b-4cf9-a904-26f1a141fb87","ios":"levelo://app?vid=0a00f149-560b-4cf9-a904-26f1a141fb87"},"vehicle_type_id":"4","last_reported":1745424784,"current_range_meters":12400,"station_id":"ce4bhbp2rcd13ifvqesg","pricing_plan_id":"cebpf4jnsgd1na2vs0mg"},{"bike_id":"840796c2-918a-4e83-aa76-28e3518f0df8","system_id":"levelo_inurba_marseille","lat":43.287,"lon":5.37395,"is_reserved":false,"is_disabled":false,"rental_uris":{"android":"levelo://app?vid=840796c2-918a-4e83-aa76-28e3518f0df8","ios":"levelo://app?vid=840796c2-918a-4e83-aa76-28e3518f0df8"},"vehicle_type_id":"4","last_reported":1745424784,"current_range_meters":12400,"station_id":"ce4bh3p2rcd13ifvqdq0","pricing_plan_id":"cebpf4jnsgd1na2vs0mg"},{"bike_id":"e106a5a3-d12e-4a66-b2ab-a2761db29685","system_id":"levelo_inurba_marseille","lat":43.28468,"lon":5.35891,"is_reserved":false,"is_disabled":false,"rental_uris":{"android":"levelo://app?vid=e106a5a3-d12e-4a66-b2ab-a2761db29685","ios":"levelo://app?vid=e106a5a3-d12e-4a66-b2ab-a2761db29685"},"vehicle_type_id":"4","last_reported":1745424784,"current_range_meters":12000,"station_id":"ce4bhah2rcd13ifvqei0","pricing_plan_id":"cebpf4jnsgd1na2vs0mg"},{"bike_id":"a1d599d3-6b46-4641-8539-9445f64fb2df","system_id":"levelo_inurba_marseille","lat":43.28852,"lon":5.39308,"is_reserved":false,"is_disabled":false,"rental_uris":{"android":"levelo://app?vid=a1d599d3-6b46-4641-8539-9445f64fb2df","ios":"levelo://app?vid=a1d599d3-6b46-4641-8539-9445f64fb2df"},"vehicle_type_id":"4","last_reported":1745424784,"current_range_meters":12000,"station_id":"ce4bh2p2rcd13ifvqdi0","pricing_plan_id":"cebpf4jnsgd1na2vs0mg"},{"bike_id":"f5701052-e589-4724-a953-94accf6600cc","system_id":"levelo_inurba_marseille","lat":43.28405,"lon":5.37529,"is_reserved":false,"is_disabled":false,"rental_uris":{"android":"levelo://app?vid=f5701052-e589-4724-a953-94accf6600cc","ios":"levelo://app?vid=f5701052-e589-4724-a953-94accf6600cc"},"vehicle_type_id":"4","last_reported":1745424784,"current_range_meters":12400,"station_id":"ce4bh412rcd13ifvqds0","pricing_plan_id":"cebpf4jnsgd1na2vs0mg"},{"bike_id":"5d3d78ec-e88c-47a2-8a3a-f9edb8c09bf3","system_id":"levelo_inurba_marseille","lat":43.30798,"lon":5.38174,"is_reserved":false,"is_disabled":false,"rental_uris":{"android":"levelo://app?vid=5d3d78ec-e88c-47a2-8a3a-f9edb8c09bf3","ios":"levelo://app?vid=5d3d78ec-e88c-47a2-8a3a-f9edb8c09bf3"},"vehicle_type_id":"4","last_reported":1745424784,"current_range_meters":12400,"station_id":"ce4bgt12rcd13ifvqce0","pricing_plan_id":"cebpf4jnsgd1na2vs0mg"},{"bike_id":"1b8b7145-49a7-4fe1-96a2-72a1d6e84a54","system_id":"levelo_inurba_marseille","lat":43.23062,"lon":5.35492,"is_reserved":false,"is_disabled":false,"rental_uris":{"android":"levelo://app?vid=1b8b7145-49a7-4fe1-96a2-72a1d6e84a54","ios":"levelo://app?vid=1b8b7145-49a7-4fe1-96a2-72a1d6e84a54"},"vehicle_type_id":"4","last_reported":1745424784,"current_range_meters":12400,"station_id":"cpo3342slgdg3j2ifvpg","pricing_plan_id":"cebpf4jnsgd1na2vs0mg"},{"bike_id":"730c7476-95c4-4e18-a1b3-3a935e74be04","system_id":"levelo_inurba_marseille","lat":43.29035,"lon":5.37553,"is_reserved":false,"is_disabled":true,"rental_uris":{"android":"levelo://app?vid=730c7476-95c4-4e18-a1b3-3a935e74be04","ios":"levelo://app?vid=730c7476-95c4-4e18-a1b3-3a935e74be04"},"vehicle_type_id":"4","last_reported":1745424784,"current_range_meters":12800,"station_id":"ce4bh692rcd13ifvqe90","pricing_plan_id":"cebpf4jnsgd1na2vs0mg"},{"bike_id":"3f3d6f43-f0ee-4765-907a-3ec9858e1c0e","system_id":"levelo_inurba_marseille","lat":43.26555,"lon":5.37285,"is_reserved":false,"is_disabled":false,"rental_uris":{"android":"levelo://app?vid=3f3d6f43-f0ee-4765-907a-3ec9858e1c0e","ios":"levelo://app?vid=3f3d6f43-f0ee-4765-907a-3ec9858e1c0e"},"vehicle_type_id":"4","last_reported":1745424784,"current_range_meters":12800,"station_id":"ce4bhg12rcd13ifvqf70","pricing_plan_id":"cebpf4jnsgd1na2vs0mg"},{"bike_id":"1bd836e3-3ec0-46ba-8b5c-596e91902463","system_id":"levelo_inurba_marseille","lat":43.28938,"lon":5.36639,"is_reserved":false,"is_disabled":false,"rental_uris":{"android":"levelo://app?vid=1bd836e3-3ec0-46ba-8b5c-596e91902463","ios":"levelo://app?vid=1bd836e3-3ec0-46ba-8b5c-596e91902463"},"vehicle_type_id":"4","last_reported":1745424784,"current_range_meters":12800,"station_id":"ce4bhap2rcd13ifvqek0","pricing_plan_id":"cebpf4jnsgd1na2vs0mg"},{"bike_id":"6e6ee738-cdf2-4cc1-8c90-28cb5756cff7","system_id":"levelo_inurba_marseille","lat":43.28939,"lon":5.36643,"is_reserved":false,"is_disabled":false,"rental_uris":{"android":"levelo://app?vid=6e6ee738-cdf2-4cc1-8c90-28cb5756cff7","ios":"levelo://app?vid=6e6ee738-cdf2-4cc1-8c90-28cb5756cff7"},"vehicle_type_id":"4","last_reported":1745424784,"current_range_meters":12800,"station_id":"ce4bhap2rcd13ifvqek0","pricing_plan_id":"cebpf4jnsgd1na2vs0mg"},{"bike_id":"e6c46257-bb60-41e9-8721-03a19a5aeaa8","system_id":"levelo_inurba_marseille","lat":43.306347,"lon":5.400807,"is_reserved":false,"is_disabled":false,"rental_uris":{"android":"levelo://app?vid=e6c46257-bb60-41e9-8721-03a19a5aeaa8","ios":"levelo://app?vid=e6c46257-bb60-41e9-8721-03a19a5aeaa8"},"vehicle_type_id":"4","last_reported":1745424784,"current_range_meters":12400,"station_id":"ce4bh112rcd13ifvqda0","pricing_plan_id":"cebpf4jnsgd1na2vs0mg"},{"bike_id":"1260a832-bb3c-4ab3-9eca-6d129a0c4014","system_id":"levelo_inurba_marseille","lat":43.2847,"lon":5.35882,"is_reserved":false,"is_disabled":false,"rental_uris":{"android":"levelo://app?vid=1260a832-bb3c-4ab3-9eca-6d129a0c4014","ios":"levelo://app?vid=1260a832-bb3c-4ab3-9eca-6d129a0c4014"},"vehicle_type_id":"4","last_reported":1745424784,"current_range_meters":13600,"station_id":"ce4bhah2rcd13ifvqei0","pricing_plan_id":"cebpf4jnsgd1na2vs0mg"},{"bike_id":"a8fbcf79-f1d0-426c-abfd-f336d38af349","system_id":"levelo_inurba_marseille","lat":43.28276,"lon":5.35058,"is_reserved":false,"is_disabled":false,"rental_uris":{"android":"levelo://app?vid=a8fbcf79-f1d0-426c-abfd-f336d38af349","ios":"levelo://app?vid=a8fbcf79-f1d0-426c-abfd-f336d38af349"},"vehicle_type_id":"4","last_reported":1745424784,"current_range_meters":13600,"station_id":"ce4bhbp2rcd13ifvqerg","pricing_plan_id":"cebpf4jnsgd1na2vs0mg"},{"bike_id":"c3a9129a-ff13-4fe2-b50d-62e9e75af81b","system_id":"levelo_inurba_marseille","lat":43.30435,"lon":5.38893,"is_reserved":false,"is_disabled":false,"rental_uris":{"android":"levelo://app?vid=c3a9129a-ff13-4fe2-b50d-62e9e75af81b","ios":"levelo://app?vid=c3a9129a-ff13-4fe2-b50d-62e9e75af81b"},"vehicle_type_id":"4","last_reported":1745424784,"current_range_meters":13600,"station_id":"ce4bgk12rcd13ifvqbi0","pricing_plan_id":"cebpf4jnsgd1na2vs0mg"},{"bike_id":"ae2607c9-27d0-4814-bc50-d40a7c41d115","system_id":"levelo_inurba_marseille","lat":43.301822,"lon":5.393376,"is_reserved":false,"is_disabled":false,"rental_uris":{"android":"levelo://app?vid=ae2607c9-27d0-4814-bc50-d40a7c41d115","ios":"levelo://app?vid=ae2607c9-27d0-4814-bc50-d40a7c41d115"},"vehicle_type_id":"4","last_reported":1745424784,"current_range_meters":13600,"station_id":"","pricing_plan_id":"cebpf4jnsgd1na2vs0mg"},{"bike_id":"527ab9af-1602-4e3b-a3d5-77f5acec1ebf","system_id":"levelo_inurba_marseille","lat":43.262,"lon":5.37472,"is_reserved":false,"is_disabled":true,"rental_uris":{"android":"levelo://app?vid=527ab9af-1602-4e3b-a3d5-77f5acec1ebf","ios":"levelo://app?vid=527ab9af-1602-4e3b-a3d5-77f5acec1ebf"},"vehicle_type_id":"4","last_reported":1745424784,"current_range_meters":13600,"station_id":"ce4bhgp2rcd13ifvqfc0","pricing_plan_id":"cebpf4jnsgd1na2vs0mg"},{"bike_id":"deb0539a-aa3e-4323-8ca5-e5d895888828","system_id":"levelo_inurba_marseille","lat":43.26587,"lon":5.3904,"is_reserved":false,"is_disabled":false,"rental_uris":{"android":"levelo://app?vid=deb0539a-aa3e-4323-8ca5-e5d895888828","ios":"levelo://app?vid=deb0539a-aa3e-4323-8ca5-e5d895888828"},"vehicle_type_id":"4","last_reported":1745424784,"current_range_meters":13600,"station_id":"ce4bhe12rcd13ifvqf30","pricing_plan_id":"cebpf4jnsgd1na2vs0mg"},{"bike_id":"469d074b-8234-4326-be23-2db90492d9d2","system_id":"levelo_inurba_marseille","lat":43.2862,"lon":5.35103,"is_reserved":false,"is_disabled":false,"rental_uris":{"android":"levelo://app?vid=469d074b-8234-4326-be23-2db90492d9d2","ios":"levelo://app?vid=469d074b-8234-4326-be23-2db90492d9d2"},"vehicle_type_id":"4","last_reported":1745424784,"current_range_meters":14000,"station_id":"ce4bhch2rcd13ifvqeug","pricing_plan_id":"cebpf4jnsgd1na2vs0mg"},{"bike_id":"91253bf4-28be-43fd-a6b5-9e5107287967","system_id":"levelo_inurba_marseille","lat":43.2942,"lon":5.38628,"is_reserved":false,"is_disabled":false,"rental_uris":{"android":"levelo://app?vid=91253bf4-28be-43fd-a6b5-9e5107287967","ios":"levelo://app?vid=91253bf4-28be-43fd-a6b5-9e5107287967"},"vehicle_type_id":"4","last_reported":1745424784,"current_range_meters":14000,"station_id":"ce4bh2h2rcd13ifvqdh0","pricing_plan_id":"cebpf4jnsgd1na2vs0mg"},{"bike_id":"e61f5775-7bf1-41f8-8d64-3b3911c7737c","system_id":"levelo_inurba_marseille","lat":43.28618,"lon":5.35096,"is_reserved":false,"is_disabled":false,"rental_uris":{"android":"levelo://app?vid=e61f5775-7bf1-41f8-8d64-3b3911c7737c","ios":"levelo://app?vid=e61f5775-7bf1-41f8-8d64-3b3911c7737c"},"vehicle_type_id":"4","last_reported":1745424784,"current_range_meters":14000,"station_id":"ce4bhch2rcd13ifvqeug","pricing_plan_id":"cebpf4jnsgd1na2vs0mg"},{"bike_id":"441d5895-e8a5-41c8-84f9-e9c48b7a969e","system_id":"levelo_inurba_marseille","lat":43.3043,"lon":5.39743,"is_reserved":false,"is_disabled":false,"rental_uris":{"android":"levelo://app?vid=441d5895-e8a5-41c8-84f9-e9c48b7a969e","ios":"levelo://app?vid=441d5895-e8a5-41c8-84f9-e9c48b7a969e"},"vehicle_type_id":"4","last_reported":1745424784,"current_range_meters":13600,"station_id":"ce4bh092rcd13ifvqd20","pricing_plan_id":"cebpf4jnsgd1na2vs0mg"},{"bike_id":"c2182ef3-278d-4b28-9ca9-7c93cc5bd087","system_id":"levelo_inurba_marseille","lat":43.27947,"lon":5.41046,"is_reserved":false,"is_disabled":false,"rental_uris":{"android":"levelo://app?vid=c2182ef3-278d-4b28-9ca9-7c93cc5bd087","ios":"levelo://app?vid=c2182ef3-278d-4b28-9ca9-7c93cc5bd087"},"vehicle_type_id":"4","last_reported":1745424784,"current_range_meters":14000,"station_id":"ce4bhnp2rcd13ifvqh0g","pricing_plan_id":"cebpf4jnsgd1na2vs0mg"},{"bike_id":"acd13660-a5e0-40de-a114-7d25271d6bf6","system_id":"levelo_inurba_marseille","lat":43.29711,"lon":5.36605,"is_reserved":false,"is_disabled":false,"rental_uris":{"android":"levelo://app?vid=acd13660-a5e0-40de-a114-7d25271d6bf6","ios":"levelo://app?vid=acd13660-a5e0-40de-a114-7d25271d6bf6"},"vehicle_type_id":"4","last_reported":1745424784,"current_range_meters":14000,"station_id":"ce4bgn12rcd13ifvqbt0","pricing_plan_id":"cebpf4jnsgd1na2vs0mg"},{"bike_id":"e374ab31-cab9-4f72-bb44-c9aa4239ad48","system_id":"levelo_inurba_marseille","lat":43.32659,"lon":5.41018,"is_reserved":false,"is_disabled":false,"rental_uris":{"android":"levelo://app?vid=e374ab31-cab9-4f72-bb44-c9aa4239ad48","ios":"levelo://app?vid=e374ab31-cab9-4f72-bb44-c9aa4239ad48"},"vehicle_type_id":"4","last_reported":1745424784,"current_range_meters":14000,"station_id":"ce4bhpp2rcd13ifvqhgg","pricing_plan_id":"cebpf4jnsgd1na2vs0mg"},{"bike_id":"0036d791-14e2-4147-8fda-3c9435197e50","system_id":"levelo_inurba_marseille","lat":43.2873,"lon":5.36088,"is_reserved":false,"is_disabled":false,"rental_uris":{"android":"levelo://app?vid=0036d791-14e2-4147-8fda-3c9435197e50","ios":"levelo://app?vid=0036d791-14e2-4147-8fda-3c9435197e50"},"vehicle_type_id":"4","last_reported":1745424784,"current_range_meters":14000,"station_id":"cki0cbj6b192h4jlfktg","pricing_plan_id":"cebpf4jnsgd1na2vs0mg"},{"bike_id":"89070733-532b-4347-9a90-933b67666577","system_id":"levelo_inurba_marseille","lat":43.31632,"lon":5.37899,"is_reserved":false,"is_disabled":false,"rental_uris":{"android":"levelo://app?vid=89070733-532b-4347-9a90-933b67666577","ios":"levelo://app?vid=89070733-532b-4347-9a90-933b67666577"},"vehicle_type_id":"4","last_reported":1745424784,"current_range_meters":14400,"station_id":"ce4bgth2rcd13ifvqch0","pricing_plan_id":"cebpf4jnsgd1na2vs0mg"},{"bike_id":"f31bee90-1c13-4189-9679-0326782d9854","system_id":"levelo_inurba_marseille","lat":43.31756,"lon":5.39026,"is_reserved":false,"is_disabled":false,"rental_uris":{"android":"levelo://app?vid=f31bee90-1c13-4189-9679-0326782d9854","ios":"levelo://app?vid=f31bee90-1c13-4189-9679-0326782d9854"},"vehicle_type_id":"4","last_reported":1745424784,"current_range_meters":14400,"station_id":"ce4bhqp2rcd13ifvqhng","pricing_plan_id":"cebpf4jnsgd1na2vs0mg"},{"bike_id":"2e23a3f8-e642-48e3-8cc8-698850a6b5fc","system_id":"levelo_inurba_marseille","lat":43.24804,"lon":5.37455,"is_reserved":false,"is_disabled":false,"rental_uris":{"android":"levelo://app?vid=2e23a3f8-e642-48e3-8cc8-698850a6b5fc","ios":"levelo://app?vid=2e23a3f8-e642-48e3-8cc8-698850a6b5fc"},"vehicle_type_id":"4","last_reported":1745424784,"current_range_meters":14800,"station_id":"ce4bhgh2rcd13ifvqfb0","pricing_plan_id":"cebpf4jnsgd1na2vs0mg"},{"bike_id":"c26295ec-6bc8-473a-b962-758d2856be6f","system_id":"levelo_inurba_marseille","lat":43.308807,"lon":5.396611,"is_reserved":false,"is_disabled":false,"rental_uris":{"android":"levelo://app?vid=c26295ec-6bc8-473a-b962-758d2856be6f","ios":"levelo://app?vid=c26295ec-6bc8-473a-b962-758d2856be6f"},"vehicle_type_id":"4","last_reported":1745424784,"current_range_meters":14800,"station_id":"ce4bh012rcd13ifvqcv0","pricing_plan_id":"cebpf4jnsgd1na2vs0mg"},{"bike_id":"603a0c18-a9ee-4e97-8b11-db953c0dfdf3","system_id":"levelo_inurba_marseille","lat":43.29308,"lon":5.37463,"is_reserved":false,"is_disabled":false,"rental_uris":{"android":"levelo://app?vid=603a0c18-a9ee-4e97-8b11-db953c0dfdf3","ios":"levelo://app?vid=603a0c18-a9ee-4e97-8b11-db953c0dfdf3"},"vehicle_type_id":"4","last_reported":1745424784,"current_range_meters":14800,"station_id":"ce4bgi12rcd13ifvqb70","pricing_plan_id":"cebpf4jnsgd1na2vs0mg"},{"bike_id":"d30abb48-2889-43ff-b4e8-cab592d0c072","system_id":"levelo_inurba_marseille","lat":43.28617,"lon":5.35103,"is_reserved":false,"is_disabled":false,"rental_uris":{"android":"levelo://app?vid=d30abb48-2889-43ff-b4e8-cab592d0c072","ios":"levelo://app?vid=d30abb48-2889-43ff-b4e8-cab592d0c072"},"vehicle_type_id":"4","last_reported":1745424784,"current_range_meters":14800,"station_id":"ce4bhch2rcd13ifvqeug","pricing_plan_id":"cebpf4jnsgd1na2vs0mg"},{"bike_id":"aebfb5ae-bf07-4ae3-9b08-2434047d6949","system_id":"levelo_inurba_marseille","lat":43.297825,"lon":5.377001,"is_reserved":false,"is_disabled":false,"rental_uris":{"android":"levelo://app?vid=aebfb5ae-bf07-4ae3-9b08-2434047d6949","ios":"levelo://app?vid=aebfb5ae-bf07-4ae3-9b08-2434047d6949"},"vehicle_type_id":"4","last_reported":1745424784,"current_range_meters":14800,"station_id":"","pricing_plan_id":"cebpf4jnsgd1na2vs0mg"},{"bike_id":"574d71b2-aaa6-40eb-a4dc-115b26257401","system_id":"levelo_inurba_marseille","lat":43.30426,"lon":5.41278,"is_reserved":false,"is_disabled":false,"rental_uris":{"android":"levelo://app?vid=574d71b2-aaa6-40eb-a4dc-115b26257401","ios":"levelo://app?vid=574d71b2-aaa6-40eb-a4dc-115b26257401"},"vehicle_type_id":"4","last_reported":1745424784,"current_range_meters":15200,"station_id":"ce4bhop2rcd13ifvqh8g","pricing_plan_id":"cebpf4jnsgd1na2vs0mg"},{"bike_id":"46374c49-3adc-4c5a-8966-e00f056c0d57","system_id":"levelo_inurba_marseille","lat":43.27846,"lon":5.35442,"is_reserved":false,"is_disabled":false,"rental_uris":{"android":"levelo://app?vid=46374c49-3adc-4c5a-8966-e00f056c0d57","ios":"levelo://app?vid=46374c49-3adc-4c5a-8966-e00f056c0d57"},"vehicle_type_id":"4","last_reported":1745424784,"current_range_meters":16000,"station_id":"","pricing_plan_id":"cebpf4jnsgd1na2vs0mg"},{"bike_id":"162104c9-c9c3-41e8-9022-0f16a6a968c6","system_id":"levelo_inurba_marseille","lat":43.33039,"lon":5.39062,"is_reserved":false,"is_disabled":false,"rental_uris":{"android":"levelo://app?vid=162104c9-c9c3-41e8-9022-0f16a6a968c6","ios":"levelo://app?vid=162104c9-c9c3-41e8-9022-0f16a6a968c6"},"vehicle_type_id":"4","last_reported":1745424784,"current_range_meters":16000,"station_id":"ce4bhr92rcd13ifvqhrg","pricing_plan_id":"cebpf4jnsgd1na2vs0mg"},{"bike_id":"11ce02ec-5de1-4d28-b35b-b9d2498a4135","system_id":"levelo_inurba_marseille","lat":43.23083,"lon":5.35476,"is_reserved":false,"is_disabled":false,"rental_uris":{"android":"levelo://app?vid=11ce02ec-5de1-4d28-b35b-b9d2498a4135","ios":"levelo://app?vid=11ce02ec-5de1-4d28-b35b-b9d2498a4135"},"vehicle_type_id":"4","last_reported":1745424784,"current_range_meters":16000,"station_id":"cpo3342slgdg3j2ifvpg","pricing_plan_id":"cebpf4jnsgd1na2vs0mg"},{"bike_id":"288db343-1ed2-4d04-9bbf-f2f99b508139","system_id":"levelo_inurba_marseille","lat":43.28712,"lon":5.37954,"is_reserved":false,"is_disabled":false,"rental_uris":{"android":"levelo://app?vid=288db343-1ed2-4d04-9bbf-f2f99b508139","ios":"levelo://app?vid=288db343-1ed2-4d04-9bbf-f2f99b508139"},"vehicle_type_id":"4","last_reported":1745424784,"current_range_meters":16000,"station_id":"ce4bh9p2rcd13ifvqec0","pricing_plan_id":"cebpf4jnsgd1na2vs0mg"},{"bike_id":"29a7f74d-4f55-4bde-8b02-965bce1ecdc4","system_id":"levelo_inurba_marseille","lat":43.27666,"lon":5.38881,"is_reserved":false,"is_disabled":false,"rental_uris":{"android":"levelo://app?vid=29a7f74d-4f55-4bde-8b02-965bce1ecdc4","ios":"levelo://app?vid=29a7f74d-4f55-4bde-8b02-965bce1ecdc4"},"vehicle_type_id":"4","last_reported":1745424784,"current_range_meters":16800,"station_id":"ce4bhi12rcd13ifvqfo0","pricing_plan_id":"cebpf4jnsgd1na2vs0mg"},{"bike_id":"2bbe785e-babc-46c3-bfad-de59266aae1f","system_id":"levelo_inurba_marseille","lat":43.30093,"lon":5.39083,"is_reserved":false,"is_disabled":false,"rental_uris":{"android":"levelo://app?vid=2bbe785e-babc-46c3-bfad-de59266aae1f","ios":"levelo://app?vid=2bbe785e-babc-46c3-bfad-de59266aae1f"},"vehicle_type_id":"4","last_reported":1745424784,"current_range_meters":16400,"station_id":"ce4bh192rcd13ifvqdb0","pricing_plan_id":"cebpf4jnsgd1na2vs0mg"},{"bike_id":"7565ade3-3c0a-4a70-b1f6-ec25f343f8f3","system_id":"levelo_inurba_marseille","lat":43.28715,"lon":5.37938,"is_reserved":false,"is_disabled":false,"rental_uris":{"android":"levelo://app?vid=7565ade3-3c0a-4a70-b1f6-ec25f343f8f3","ios":"levelo://app?vid=7565ade3-3c0a-4a70-b1f6-ec25f343f8f3"},"vehicle_type_id":"4","last_reported":1745424784,"current_range_meters":16000,"station_id":"ce4bh9p2rcd13ifvqec0","pricing_plan_id":"cebpf4jnsgd1na2vs0mg"},{"bike_id":"eeda44b2-08e1-47d2-922c-61ef0fd20383","system_id":"levelo_inurba_marseille","lat":43.29274,"lon":5.40131,"is_reserved":false,"is_disabled":false,"rental_uris":{"android":"levelo://app?vid=eeda44b2-08e1-47d2-922c-61ef0fd20383","ios":"levelo://app?vid=eeda44b2-08e1-47d2-922c-61ef0fd20383"},"vehicle_type_id":"4","last_reported":1745424784,"current_range_meters":16000,"station_id":"ce4bh312rcd13ifvqdk0","pricing_plan_id":"cebpf4jnsgd1na2vs0mg"},{"bike_id":"0c640b5c-6987-4208-92d9-7d78701a253e","system_id":"levelo_inurba_marseille","lat":43.25119,"lon":5.40318,"is_reserved":false,"is_disabled":false,"rental_uris":{"android":"levelo://app?vid=0c640b5c-6987-4208-92d9-7d78701a253e","ios":"levelo://app?vid=0c640b5c-6987-4208-92d9-7d78701a253e"},"vehicle_type_id":"4","last_reported":1745424784,"current_range_meters":16400,"station_id":"ce4bhlh2rcd13ifvqgig","pricing_plan_id":"cebpf4jnsgd1na2vs0mg"},{"bike_id":"075262ad-ac81-4e79-82d4-9e9b7d578158","system_id":"levelo_inurba_marseille","lat":43.28002,"lon":5.40008,"is_reserved":false,"is_disabled":false,"rental_uris":{"android":"levelo://app?vid=075262ad-ac81-4e79-82d4-9e9b7d578158","ios":"levelo://app?vid=075262ad-ac81-4e79-82d4-9e9b7d578158"},"vehicle_type_id":"4","last_reported":1745424784,"current_range_meters":16000,"station_id":"ce4bho92rcd13ifvqh4g","pricing_plan_id":"cebpf4jnsgd1na2vs0mg"},{"bike_id":"b2198ece-c6aa-4c27-bfdd-e9ace1cd0c9a","system_id":"levelo_inurba_marseille","lat":43.29433,"lon":5.38624,"is_reserved":false,"is_disabled":false,"rental_uris":{"android":"levelo://app?vid=b2198ece-c6aa-4c27-bfdd-e9ace1cd0c9a","ios":"levelo://app?vid=b2198ece-c6aa-4c27-bfdd-e9ace1cd0c9a"},"vehicle_type_id":"4","last_reported":1745424784,"current_range_meters":16800,"station_id":"ce4bh2h2rcd13ifvqdh0","pricing_plan_id":"cebpf4jnsgd1na2vs0mg"},{"bike_id":"3a5e35fe-bfa4-4dae-98a9-e780a9249b64","system_id":"levelo_inurba_marseille","lat":43.29529,"lon":5.38534,"is_reserved":false,"is_disabled":false,"rental_uris":{"android":"levelo://app?vid=3a5e35fe-bfa4-4dae-98a9-e780a9249b64","ios":"levelo://app?vid=3a5e35fe-bfa4-4dae-98a9-e780a9249b64"},"vehicle_type_id":"4","last_reported":1745424784,"current_range_meters":16400,"station_id":"ce4bgih2rcd13ifvqba0","pricing_plan_id":"cebpf4jnsgd1na2vs0mg"},{"bike_id":"29c27f6c-b172-4d99-add3-c74bdfc6be20","system_id":"levelo_inurba_marseille","lat":43.33043,"lon":5.39085,"is_reserved":false,"is_disabled":false,"rental_uris":{"android":"levelo://app?vid=29c27f6c-b172-4d99-add3-c74bdfc6be20","ios":"levelo://app?vid=29c27f6c-b172-4d99-add3-c74bdfc6be20"},"vehicle_type_id":"4","last_reported":1745424784,"current_range_meters":17200,"station_id":"ce4bhr92rcd13ifvqhrg","pricing_plan_id":"cebpf4jnsgd1na2vs0mg"},{"bike_id":"a3341892-b028-438f-be53-98514b9d7b11","system_id":"levelo_inurba_marseille","lat":43.28463,"lon":5.38425,"is_reserved":false,"is_disabled":false,"rental_uris":{"android":"levelo://app?vid=a3341892-b028-438f-be53-98514b9d7b11","ios":"levelo://app?vid=a3341892-b028-438f-be53-98514b9d7b11"},"vehicle_type_id":"4","last_reported":1745424784,"current_range_meters":16800,"station_id":"ce4bh512rcd13ifvqe3g","pricing_plan_id":"cebpf4jnsgd1na2vs0mg"},{"bike_id":"755abc1a-f797-479c-8e88-5f59f436c9d9","system_id":"levelo_inurba_marseille","lat":43.23964,"lon":5.36623,"is_reserved":false,"is_disabled":true,"rental_uris":{"android":"levelo://app?vid=755abc1a-f797-479c-8e88-5f59f436c9d9","ios":"levelo://app?vid=755abc1a-f797-479c-8e88-5f59f436c9d9"},"vehicle_type_id":"4","last_reported":1745424784,"current_range_meters":16800,"station_id":"ce4bhi12rcd13ifvqfp0","pricing_plan_id":"cebpf4jnsgd1na2vs0mg"},{"bike_id":"cba2ae11-3413-4e6c-b08f-155bac2c82da","system_id":"levelo_inurba_marseille","lat":43.28628,"lon":5.351,"is_reserved":false,"is_disabled":false,"rental_uris":{"android":"levelo://app?vid=cba2ae11-3413-4e6c-b08f-155bac2c82da","ios":"levelo://app?vid=cba2ae11-3413-4e6c-b08f-155bac2c82da"},"vehicle_type_id":"4","last_reported":1745424784,"current_range_meters":16800,"station_id":"ce4bhch2rcd13ifvqeug","pricing_plan_id":"cebpf4jnsgd1na2vs0mg"},{"bike_id":"5ad047a9-eb2f-4006-9e14-52687e44fd72","system_id":"levelo_inurba_marseille","lat":43.24801,"lon":5.37453,"is_reserved":false,"is_disabled":false,"rental_uris":{"android":"levelo://app?vid=5ad047a9-eb2f-4006-9e14-52687e44fd72","ios":"levelo://app?vid=5ad047a9-eb2f-4006-9e14-52687e44fd72"},"vehicle_type_id":"4","last_reported":1745424784,"current_range_meters":16800,"station_id":"ce4bhgh2rcd13ifvqfb0","pricing_plan_id":"cebpf4jnsgd1na2vs0mg"},{"bike_id":"a50263c2-a42a-4ea6-a77d-f0a6995263f6","system_id":"levelo_inurba_marseille","lat":43.28354,"lon":5.38105,"is_reserved":false,"is_disabled":false,"rental_uris":{"android":"levelo://app?vid=a50263c2-a42a-4ea6-a77d-f0a6995263f6","ios":"levelo://app?vid=a50263c2-a42a-4ea6-a77d-f0a6995263f6"},"vehicle_type_id":"4","last_reported":1745424784,"current_range_meters":17200,"station_id":"ce4bh412rcd13ifvqdr0","pricing_plan_id":"cebpf4jnsgd1na2vs0mg"},{"bike_id":"f79caaa1-a95d-45c6-8c63-314f28a93016","system_id":"levelo_inurba_marseille","lat":43.29915,"lon":5.38132,"is_reserved":false,"is_disabled":false,"rental_uris":{"android":"levelo://app?vid=f79caaa1-a95d-45c6-8c63-314f28a93016","ios":"levelo://app?vid=f79caaa1-a95d-45c6-8c63-314f28a93016"},"vehicle_type_id":"4","last_reported":1745424784,"current_range_meters":17200,"station_id":"ce4bgj12rcd13ifvqbc0","pricing_plan_id":"cebpf4jnsgd1na2vs0mg"},{"bike_id":"7d2633a5-2cb0-46eb-8c00-357bd5fadfef","system_id":"levelo_inurba_marseille","lat":43.25485,"lon":5.37653,"is_reserved":false,"is_disabled":true,"rental_uris":{"android":"levelo://app?vid=7d2633a5-2cb0-46eb-8c00-357bd5fadfef","ios":"levelo://app?vid=7d2633a5-2cb0-46eb-8c00-357bd5fadfef"},"vehicle_type_id":"4","last_reported":1745424784,"current_range_meters":17200,"station_id":"ce4bhh12rcd13ifvqff0","pricing_plan_id":"cebpf4jnsgd1na2vs0mg"},{"bike_id":"7489a429-3def-4314-b2fd-69eb5685941d","system_id":"levelo_inurba_marseille","lat":43.29886,"lon":5.36847,"is_reserved":false,"is_disabled":false,"rental_uris":{"android":"levelo://app?vid=7489a429-3def-4314-b2fd-69eb5685941d","ios":"levelo://app?vid=7489a429-3def-4314-b2fd-69eb5685941d"},"vehicle_type_id":"4","last_reported":1745424784,"current_range_meters":17200,"station_id":"","pricing_plan_id":"cebpf4jnsgd1na2vs0mg"},{"bike_id":"bdd3b6a3-d6d7-40ad-b68b-30e59f38cc5d","system_id":"levelo_inurba_marseille","lat":43.2872,"lon":5.37946,"is_reserved":false,"is_disabled":false,"rental_uris":{"android":"levelo://app?vid=bdd3b6a3-d6d7-40ad-b68b-30e59f38cc5d","ios":"levelo://app?vid=bdd3b6a3-d6d7-40ad-b68b-30e59f38cc5d"},"vehicle_type_id":"4","last_reported":1745424784,"current_range_meters":17200,"station_id":"ce4bh9p2rcd13ifvqec0","pricing_plan_id":"cebpf4jnsgd1na2vs0mg"},{"bike_id":"8dff3327-c704-4870-8401-73b9c1029785","system_id":"levelo_inurba_marseille","lat":43.258614,"lon":5.398953,"is_reserved":false,"is_disabled":true,"rental_uris":{"android":"levelo://app?vid=8dff3327-c704-4870-8401-73b9c1029785","ios":"levelo://app?vid=8dff3327-c704-4870-8401-73b9c1029785"},"vehicle_type_id":"4","last_reported":1745424784,"current_range_meters":17600,"station_id":"ce4bhl92rcd13ifvqghg","pricing_plan_id":"cebpf4jnsgd1na2vs0mg"},{"bike_id":"be70cd6a-b0d2-4267-8d57-c5f57da47ce6","system_id":"levelo_inurba_marseille","lat":43.24665,"lon":5.38171,"is_reserved":false,"is_disabled":false,"rental_uris":{"android":"levelo://app?vid=be70cd6a-b0d2-4267-8d57-c5f57da47ce6","ios":"levelo://app?vid=be70cd6a-b0d2-4267-8d57-c5f57da47ce6"},"vehicle_type_id":"4","last_reported":1745424784,"current_range_meters":17200,"station_id":"ce4bhih2rcd13ifvqfr0","pricing_plan_id":"cebpf4jnsgd1na2vs0mg"},{"bike_id":"157b8a9b-b082-4e6b-afcf-62e70c0ae423","system_id":"levelo_inurba_marseille","lat":43.28167,"lon":5.42654,"is_reserved":false,"is_disabled":false,"rental_uris":{"android":"levelo://app?vid=157b8a9b-b082-4e6b-afcf-62e70c0ae423","ios":"levelo://app?vid=157b8a9b-b082-4e6b-afcf-62e70c0ae423"},"vehicle_type_id":"4","last_reported":1745424784,"current_range_meters":17200,"station_id":"ce4bhnh2rcd13ifvqgug","pricing_plan_id":"cebpf4jnsgd1na2vs0mg"},{"bike_id":"52c23dea-6ac9-41f7-b19d-6e09d2833552","system_id":"levelo_inurba_marseille","lat":43.26563,"lon":5.39015,"is_reserved":false,"is_disabled":false,"rental_uris":{"android":"levelo://app?vid=52c23dea-6ac9-41f7-b19d-6e09d2833552","ios":"levelo://app?vid=52c23dea-6ac9-41f7-b19d-6e09d2833552"},"vehicle_type_id":"4","last_reported":1745424784,"current_range_meters":17600,"station_id":"ce4bhe12rcd13ifvqf30","pricing_plan_id":"cebpf4jnsgd1na2vs0mg"},{"bike_id":"97ea1017-f29e-4a4f-8d81-32b246cf7d3d","system_id":"levelo_inurba_marseille","lat":43.30141,"lon":5.39853,"is_reserved":false,"is_disabled":false,"rental_uris":{"android":"levelo://app?vid=97ea1017-f29e-4a4f-8d81-32b246cf7d3d","ios":"levelo://app?vid=97ea1017-f29e-4a4f-8d81-32b246cf7d3d"},"vehicle_type_id":"4","last_reported":1745424784,"current_range_meters":17600,"station_id":"ce4bh0h2rcd13ifvqd40","pricing_plan_id":"cebpf4jnsgd1na2vs0mg"},{"bike_id":"a52cc2a2-e461-4b35-a6f8-6916fef6455d","system_id":"levelo_inurba_marseille","lat":43.298631,"lon":5.397605,"is_reserved":false,"is_disabled":false,"rental_uris":{"android":"levelo://app?vid=a52cc2a2-e461-4b35-a6f8-6916fef6455d","ios":"levelo://app?vid=a52cc2a2-e461-4b35-a6f8-6916fef6455d"},"vehicle_type_id":"4","last_reported":1745424784,"current_range_meters":19200,"station_id":"ce4bgph2rcd13ifvqc2g","pricing_plan_id":"cebpf4jnsgd1na2vs0mg"},{"bike_id":"452bab21-8805-49d1-944d-1bdbf11d5bec","system_id":"levelo_inurba_marseille","lat":43.31725,"lon":5.424,"is_reserved":false,"is_disabled":false,"rental_uris":{"android":"levelo://app?vid=452bab21-8805-49d1-944d-1bdbf11d5bec","ios":"levelo://app?vid=452bab21-8805-49d1-944d-1bdbf11d5bec"},"vehicle_type_id":"4","last_reported":1745424784,"current_range_meters":17600,"station_id":"ce4bhp92rcd13ifvqhbg","pricing_plan_id":"cebpf4jnsgd1na2vs0mg"},{"bike_id":"a7e11a58-8aa8-40d7-b8b7-8489fcc6ed04","system_id":"levelo_inurba_marseille","lat":43.28572,"lon":5.39494,"is_reserved":false,"is_disabled":false,"rental_uris":{"android":"levelo://app?vid=a7e11a58-8aa8-40d7-b8b7-8489fcc6ed04","ios":"levelo://app?vid=a7e11a58-8aa8-40d7-b8b7-8489fcc6ed04"},"vehicle_type_id":"4","last_reported":1745424784,"current_range_meters":17600,"station_id":"ce4bh292rcd13ifvqdg0","pricing_plan_id":"cebpf4jnsgd1na2vs0mg"},{"bike_id":"ee354981-1331-4223-a45e-4b1b7261b1e3","system_id":"levelo_inurba_marseille","lat":43.33464,"lon":5.40037,"is_reserved":false,"is_disabled":false,"rental_uris":{"android":"levelo://app?vid=ee354981-1331-4223-a45e-4b1b7261b1e3","ios":"levelo://app?vid=ee354981-1331-4223-a45e-4b1b7261b1e3"},"vehicle_type_id":"4","last_reported":1745424784,"current_range_meters":17600,"station_id":"","pricing_plan_id":"cebpf4jnsgd1na2vs0mg"},{"bike_id":"94201ef7-9954-4e84-be72-e2fae875cbe9","system_id":"levelo_inurba_marseille","lat":43.28262,"lon":5.35092,"is_reserved":false,"is_disabled":false,"rental_uris":{"android":"levelo://app?vid=94201ef7-9954-4e84-be72-e2fae875cbe9","ios":"levelo://app?vid=94201ef7-9954-4e84-be72-e2fae875cbe9"},"vehicle_type_id":"4","last_reported":1745424784,"current_range_meters":17600,"station_id":"ce4bhbp2rcd13ifvqerg","pricing_plan_id":"cebpf4jnsgd1na2vs0mg"},{"bike_id":"8ab2ed8d-364c-4252-a36f-2dad9a4f2a15","system_id":"levelo_inurba_marseille","lat":43.23941,"lon":5.36608,"is_reserved":false,"is_disabled":false,"rental_uris":{"android":"levelo://app?vid=8ab2ed8d-364c-4252-a36f-2dad9a4f2a15","ios":"levelo://app?vid=8ab2ed8d-364c-4252-a36f-2dad9a4f2a15"},"vehicle_type_id":"4","last_reported":1745424784,"current_range_meters":17600,"station_id":"ce4bhi12rcd13ifvqfp0","pricing_plan_id":"cebpf4jnsgd1na2vs0mg"},{"bike_id":"8f6644e0-2b2b-4dd8-bfe9-b1a9b5eaaed5","system_id":"levelo_inurba_marseille","lat":43.28614,"lon":5.37064,"is_reserved":false,"is_disabled":false,"rental_uris":{"android":"levelo://app?vid=8f6644e0-2b2b-4dd8-bfe9-b1a9b5eaaed5","ios":"levelo://app?vid=8f6644e0-2b2b-4dd8-bfe9-b1a9b5eaaed5"},"vehicle_type_id":"4","last_reported":1745424784,"current_range_meters":17600,"station_id":"ce4bht12rcd13ifvqi60","pricing_plan_id":"cebpf4jnsgd1na2vs0mg"},{"bike_id":"6aef502d-9ab4-42ee-9c99-555ea2540f28","system_id":"levelo_inurba_marseille","lat":43.30935,"lon":5.40148,"is_reserved":false,"is_disabled":false,"rental_uris":{"android":"levelo://app?vid=6aef502d-9ab4-42ee-9c99-555ea2540f28","ios":"levelo://app?vid=6aef502d-9ab4-42ee-9c99-555ea2540f28"},"vehicle_type_id":"4","last_reported":1745424784,"current_range_meters":17600,"station_id":"ce4bgvp2rcd13ifvqct0","pricing_plan_id":"cebpf4jnsgd1na2vs0mg"},{"bike_id":"e0f17785-188d-4302-acf9-140fc988b8ea","system_id":"levelo_inurba_marseille","lat":43.287717,"lon":5.382717,"is_reserved":false,"is_disabled":false,"rental_uris":{"android":"levelo://app?vid=e0f17785-188d-4302-acf9-140fc988b8ea","ios":"levelo://app?vid=e0f17785-188d-4302-acf9-140fc988b8ea"},"vehicle_type_id":"4","last_reported":1745424784,"current_range_meters":18000,"station_id":"ce4bhi12rcd13ifvqfo0","pricing_plan_id":"cebpf4jnsgd1na2vs0mg"},{"bike_id":"d14bbe39-3680-4a1c-a115-359332b42826","system_id":"levelo_inurba_marseille","lat":43.29026,"lon":5.38648,"is_reserved":false,"is_disabled":false,"rental_uris":{"android":"levelo://app?vid=d14bbe39-3680-4a1c-a115-359332b42826","ios":"levelo://app?vid=d14bbe39-3680-4a1c-a115-359332b42826"},"vehicle_type_id":"4","last_reported":1745424784,"current_range_meters":18000,"station_id":"ce4bh4p2rcd13ifvqe0g","pricing_plan_id":"cebpf4jnsgd1na2vs0mg"},{"bike_id":"46faa5a5-7005-4714-a4e7-3b500c63bf05","system_id":"levelo_inurba_marseille","lat":43.31329,"lon":5.39689,"is_reserved":false,"is_disabled":false,"rental_uris":{"android":"levelo://app?vid=46faa5a5-7005-4714-a4e7-3b500c63bf05","ios":"levelo://app?vid=46faa5a5-7005-4714-a4e7-3b500c63bf05"},"vehicle_type_id":"4","last_reported":1745424784,"current_range_meters":18000,"station_id":"ce4bgvp2rcd13ifvqcu0","pricing_plan_id":"cebpf4jnsgd1na2vs0mg"},{"bike_id":"37c73af9-ec95-460b-a8f7-009e1e99972e","system_id":"levelo_inurba_marseille","lat":43.255782,"lon":5.382336,"is_reserved":false,"is_disabled":false,"rental_uris":{"android":"levelo://app?vid=37c73af9-ec95-460b-a8f7-009e1e99972e","ios":"levelo://app?vid=37c73af9-ec95-460b-a8f7-009e1e99972e"},"vehicle_type_id":"4","last_reported":1745424784,"current_range_meters":18000,"station_id":"ce4bhih2rcd13ifvqfs0","pricing_plan_id":"cebpf4jnsgd1na2vs0mg"},{"bike_id":"b217c7a4-92b6-4872-91fa-f2c2827250cc","system_id":"levelo_inurba_marseille","lat":43.28855,"lon":5.3924,"is_reserved":false,"is_disabled":false,"rental_uris":{"android":"levelo://app?vid=b217c7a4-92b6-4872-91fa-f2c2827250cc","ios":"levelo://app?vid=b217c7a4-92b6-4872-91fa-f2c2827250cc"},"vehicle_type_id":"4","last_reported":1745424784,"current_range_meters":18000,"station_id":"","pricing_plan_id":"cebpf4jnsgd1na2vs0mg"},{"bike_id":"fa8a552a-d2d3-4e8d-8d8e-02bdba037836","system_id":"levelo_inurba_marseille","lat":43.23069,"lon":5.35489,"is_reserved":false,"is_disabled":false,"rental_uris":{"android":"levelo://app?vid=fa8a552a-d2d3-4e8d-8d8e-02bdba037836","ios":"levelo://app?vid=fa8a552a-d2d3-4e8d-8d8e-02bdba037836"},"vehicle_type_id":"4","last_reported":1745424784,"current_range_meters":18000,"station_id":"cpo3342slgdg3j2ifvpg","pricing_plan_id":"cebpf4jnsgd1na2vs0mg"},{"bike_id":"585be2c4-8ce3-4508-ae2f-82dbb7b47f4d","system_id":"levelo_inurba_marseille","lat":43.29036,"lon":5.38639,"is_reserved":false,"is_disabled":false,"rental_uris":{"android":"levelo://app?vid=585be2c4-8ce3-4508-ae2f-82dbb7b47f4d","ios":"levelo://app?vid=585be2c4-8ce3-4508-ae2f-82dbb7b47f4d"},"vehicle_type_id":"4","last_reported":1745424784,"current_range_meters":18800,"station_id":"ce4bh4p2rcd13ifvqe0g","pricing_plan_id":"cebpf4jnsgd1na2vs0mg"},{"bike_id":"032e6eee-a7a3-418a-8322-d8e2ab0f9b46","system_id":"levelo_inurba_marseille","lat":43.31398,"lon":5.40344,"is_reserved":false,"is_disabled":false,"rental_uris":{"android":"levelo://app?vid=032e6eee-a7a3-418a-8322-d8e2ab0f9b46","ios":"levelo://app?vid=032e6eee-a7a3-418a-8322-d8e2ab0f9b46"},"vehicle_type_id":"4","last_reported":1745424784,"current_range_meters":19200,"station_id":"","pricing_plan_id":"cebpf4jnsgd1na2vs0mg"},{"bike_id":"a8f1f804-0188-4fcf-b0b5-6e9ac4d0149a","system_id":"levelo_inurba_marseille","lat":43.2972,"lon":5.36608,"is_reserved":false,"is_disabled":true,"rental_uris":{"android":"levelo://app?vid=a8f1f804-0188-4fcf-b0b5-6e9ac4d0149a","ios":"levelo://app?vid=a8f1f804-0188-4fcf-b0b5-6e9ac4d0149a"},"vehicle_type_id":"4","last_reported":1745424784,"current_range_meters":18800,"station_id":"ce4bgn12rcd13ifvqbt0","pricing_plan_id":"cebpf4jnsgd1na2vs0mg"},{"bike_id":"5404129b-94b7-47ff-8a0f-5bec7d129e25","system_id":"levelo_inurba_marseille","lat":43.24654,"lon":5.38897,"is_reserved":false,"is_disabled":false,"rental_uris":{"android":"levelo://app?vid=5404129b-94b7-47ff-8a0f-5bec7d129e25","ios":"levelo://app?vid=5404129b-94b7-47ff-8a0f-5bec7d129e25"},"vehicle_type_id":"4","last_reported":1745424784,"current_range_meters":18800,"station_id":"ce4bhg12rcd13ifvqf60","pricing_plan_id":"cebpf4jnsgd1na2vs0mg"},{"bike_id":"07ca4b53-21df-4915-b4ec-febac25f67de","system_id":"levelo_inurba_marseille","lat":43.29886,"lon":5.38907,"is_reserved":false,"is_disabled":false,"rental_uris":{"android":"levelo://app?vid=07ca4b53-21df-4915-b4ec-febac25f67de","ios":"levelo://app?vid=07ca4b53-21df-4915-b4ec-febac25f67de"},"vehicle_type_id":"4","last_reported":1745424784,"current_range_meters":19200,"station_id":"ce4bh392rcd13ifvqdl0","pricing_plan_id":"cebpf4jnsgd1na2vs0mg"},{"bike_id":"96120ef6-4a6c-48dc-aa23-f6c886137183","system_id":"levelo_inurba_marseille","lat":43.29008,"lon":5.35618,"is_reserved":false,"is_disabled":false,"rental_uris":{"android":"levelo://app?vid=96120ef6-4a6c-48dc-aa23-f6c886137183","ios":"levelo://app?vid=96120ef6-4a6c-48dc-aa23-f6c886137183"},"vehicle_type_id":"4","last_reported":1745424784,"current_range_meters":18800,"station_id":"ce4bhb92rcd13ifvqen0","pricing_plan_id":"cebpf4jnsgd1na2vs0mg"},{"bike_id":"99a98fe2-5dd7-488d-8335-3426e8406cf4","system_id":"levelo_inurba_marseille","lat":43.28376,"lon":5.38626,"is_reserved":false,"is_disabled":false,"rental_uris":{"android":"levelo://app?vid=99a98fe2-5dd7-488d-8335-3426e8406cf4","ios":"levelo://app?vid=99a98fe2-5dd7-488d-8335-3426e8406cf4"},"vehicle_type_id":"4","last_reported":1745424784,"current_range_meters":19200,"station_id":"ce4bh492rcd13ifvqdvg","pricing_plan_id":"cebpf4jnsgd1na2vs0mg"},{"bike_id":"102026f2-e651-434e-8e08-dae31fadb100","system_id":"levelo_inurba_marseille","lat":43.305746,"lon":5.40124,"is_reserved":false,"is_disabled":false,"rental_uris":{"android":"levelo://app?vid=102026f2-e651-434e-8e08-dae31fadb100","ios":"levelo://app?vid=102026f2-e651-434e-8e08-dae31fadb100"},"vehicle_type_id":"4","last_reported":1745424784,"current_range_meters":19200,"station_id":"ce4bh112rcd13ifvqda0","pricing_plan_id":"cebpf4jnsgd1na2vs0mg"},{"bike_id":"76c010ce-291d-42e8-8c9c-bb6e23877a8f","system_id":"levelo_inurba_marseille","lat":43.28421,"lon":5.34992,"is_reserved":false,"is_disabled":false,"rental_uris":{"android":"levelo://app?vid=76c010ce-291d-42e8-8c9c-bb6e23877a8f","ios":"levelo://app?vid=76c010ce-291d-42e8-8c9c-bb6e23877a8f"},"vehicle_type_id":"4","last_reported":1745424784,"current_range_meters":19200,"station_id":"ce4bhbh2rcd13ifvqepg","pricing_plan_id":"cebpf4jnsgd1na2vs0mg"},{"bike_id":"1e3d5553-9e2e-427d-acf9-d05ef2186d32","system_id":"levelo_inurba_marseille","lat":43.28934,"lon":5.36666,"is_reserved":false,"is_disabled":false,"rental_uris":{"android":"levelo://app?vid=1e3d5553-9e2e-427d-acf9-d05ef2186d32","ios":"levelo://app?vid=1e3d5553-9e2e-427d-acf9-d05ef2186d32"},"vehicle_type_id":"4","last_reported":1745424784,"current_range_meters":19200,"station_id":"ce4bhap2rcd13ifvqek0","pricing_plan_id":"cebpf4jnsgd1na2vs0mg"},{"bike_id":"ee1d2647-0eb2-46ba-8e58-99c81ece99af","system_id":"levelo_inurba_marseille","lat":43.32042,"lon":5.4156,"is_reserved":false,"is_disabled":false,"rental_uris":{"android":"levelo://app?vid=ee1d2647-0eb2-46ba-8e58-99c81ece99af","ios":"levelo://app?vid=ee1d2647-0eb2-46ba-8e58-99c81ece99af"},"vehicle_type_id":"4","last_reported":1745424784,"current_range_meters":19200,"station_id":"ce4bhq92rcd13ifvqhkg","pricing_plan_id":"cebpf4jnsgd1na2vs0mg"},{"bike_id":"6ffd25b1-3296-4c51-9da9-b8954cd0af3a","system_id":"levelo_inurba_marseille","lat":43.2926,"lon":5.40909,"is_reserved":false,"is_disabled":false,"rental_uris":{"android":"levelo://app?vid=6ffd25b1-3296-4c51-9da9-b8954cd0af3a","ios":"levelo://app?vid=6ffd25b1-3296-4c51-9da9-b8954cd0af3a"},"vehicle_type_id":"4","last_reported":1745424784,"current_range_meters":19200,"station_id":"ce4bh192rcd13ifvqdc0","pricing_plan_id":"cebpf4jnsgd1na2vs0mg"},{"bike_id":"4b2fbebd-4cb9-4735-b2b8-8f404f4e7697","system_id":"levelo_inurba_marseille","lat":43.29805,"lon":5.38096,"is_reserved":false,"is_disabled":false,"rental_uris":{"android":"levelo://app?vid=4b2fbebd-4cb9-4735-b2b8-8f404f4e7697","ios":"levelo://app?vid=4b2fbebd-4cb9-4735-b2b8-8f404f4e7697"},"vehicle_type_id":"4","last_reported":1745424784,"current_range_meters":19600,"station_id":"ce4bgip2rcd13ifvqbb0","pricing_plan_id":"cebpf4jnsgd1na2vs0mg"},{"bike_id":"5dd12b3b-eef7-4dab-a6de-2ed4ff99da38","system_id":"levelo_inurba_marseille","lat":43.29034,"lon":5.37556,"is_reserved":false,"is_disabled":true,"rental_uris":{"android":"levelo://app?vid=5dd12b3b-eef7-4dab-a6de-2ed4ff99da38","ios":"levelo://app?vid=5dd12b3b-eef7-4dab-a6de-2ed4ff99da38"},"vehicle_type_id":"4","last_reported":1745424784,"current_range_meters":19600,"station_id":"ce4bh692rcd13ifvqe90","pricing_plan_id":"cebpf4jnsgd1na2vs0mg"},{"bike_id":"ab660249-0742-4ee6-9f3c-cbf7eabd0145","system_id":"levelo_inurba_marseille","lat":43.28613,"lon":5.37048,"is_reserved":false,"is_disabled":false,"rental_uris":{"android":"levelo://app?vid=ab660249-0742-4ee6-9f3c-cbf7eabd0145","ios":"levelo://app?vid=ab660249-0742-4ee6-9f3c-cbf7eabd0145"},"vehicle_type_id":"4","last_reported":1745424784,"current_range_meters":19600,"station_id":"ce4bht12rcd13ifvqi60","pricing_plan_id":"cebpf4jnsgd1na2vs0mg"},{"bike_id":"d67e280a-f708-44d7-ac1f-37a8ebf5003e","system_id":"levelo_inurba_marseille","lat":43.3017,"lon":5.39406,"is_reserved":false,"is_disabled":false,"rental_uris":{"android":"levelo://app?vid=d67e280a-f708-44d7-ac1f-37a8ebf5003e","ios":"levelo://app?vid=d67e280a-f708-44d7-ac1f-37a8ebf5003e"},"vehicle_type_id":"4","last_reported":1745424784,"current_range_meters":19600,"station_id":"","pricing_plan_id":"cebpf4jnsgd1na2vs0mg"},{"bike_id":"6fa93a30-9477-472b-911d-f334fbcc0d65","system_id":"levelo_inurba_marseille","lat":43.30129,"lon":5.38795,"is_reserved":false,"is_disabled":true,"rental_uris":{"android":"levelo://app?vid=6fa93a30-9477-472b-911d-f334fbcc0d65","ios":"levelo://app?vid=6fa93a30-9477-472b-911d-f334fbcc0d65"},"vehicle_type_id":"4","last_reported":1745424784,"current_range_meters":19600,"station_id":"ce4bghh2rcd13ifvqb60","pricing_plan_id":"cebpf4jnsgd1na2vs0mg"},{"bike_id":"173e0d71-94c2-4075-a412-edbf1b2cd911","system_id":"levelo_inurba_marseille","lat":43.29011,"lon":5.35607,"is_reserved":false,"is_disabled":false,"rental_uris":{"android":"levelo://app?vid=173e0d71-94c2-4075-a412-edbf1b2cd911","ios":"levelo://app?vid=173e0d71-94c2-4075-a412-edbf1b2cd911"},"vehicle_type_id":"4","last_reported":1745424784,"current_range_meters":19600,"station_id":"ce4bhb92rcd13ifvqen0","pricing_plan_id":"cebpf4jnsgd1na2vs0mg"},{"bike_id":"68d0ae5a-e8ca-4cca-8a98-a96c8c381da2","system_id":"levelo_inurba_marseille","lat":43.29859,"lon":5.36245,"is_reserved":false,"is_disabled":false,"rental_uris":{"android":"levelo://app?vid=68d0ae5a-e8ca-4cca-8a98-a96c8c381da2","ios":"levelo://app?vid=68d0ae5a-e8ca-4cca-8a98-a96c8c381da2"},"vehicle_type_id":"4","last_reported":1745424784,"current_range_meters":20000,"station_id":"ce4bgpp2rcd13ifvqc3g","pricing_plan_id":"cebpf4jnsgd1na2vs0mg"},{"bike_id":"4f68919f-000c-4a19-8495-0f5b6db98860","system_id":"levelo_inurba_marseille","lat":43.2467,"lon":5.38155,"is_reserved":false,"is_disabled":false,"rental_uris":{"android":"levelo://app?vid=4f68919f-000c-4a19-8495-0f5b6db98860","ios":"levelo://app?vid=4f68919f-000c-4a19-8495-0f5b6db98860"},"vehicle_type_id":"4","last_reported":1745424784,"current_range_meters":20000,"station_id":"ce4bhih2rcd13ifvqfr0","pricing_plan_id":"cebpf4jnsgd1na2vs0mg"},{"bike_id":"a5856b95-9e19-4436-b973-344e5d5dcbd8","system_id":"levelo_inurba_marseille","lat":43.2416,"lon":5.36426,"is_reserved":false,"is_disabled":false,"rental_uris":{"android":"levelo://app?vid=a5856b95-9e19-4436-b973-344e5d5dcbd8","ios":"levelo://app?vid=a5856b95-9e19-4436-b973-344e5d5dcbd8"},"vehicle_type_id":"4","last_reported":1745424784,"current_range_meters":20000,"station_id":"cpo36qri1sfpv3e86is0","pricing_plan_id":"cebpf4jnsgd1na2vs0mg"},{"bike_id":"8b43b1fb-5cab-4db8-ae05-f66514d8855e","system_id":"levelo_inurba_marseille","lat":43.31301,"lon":5.37323,"is_reserved":false,"is_disabled":false,"rental_uris":{"android":"levelo://app?vid=8b43b1fb-5cab-4db8-ae05-f66514d8855e","ios":"levelo://app?vid=8b43b1fb-5cab-4db8-ae05-f66514d8855e"},"vehicle_type_id":"4","last_reported":1745424784,"current_range_meters":20000,"station_id":"","pricing_plan_id":"cebpf4jnsgd1na2vs0mg"},{"bike_id":"ab8406b2-4f8d-4381-8821-3db52b0a4d4d","system_id":"levelo_inurba_marseille","lat":43.27351,"lon":5.37858,"is_reserved":false,"is_disabled":false,"rental_uris":{"android":"levelo://app?vid=ab8406b2-4f8d-4381-8821-3db52b0a4d4d","ios":"levelo://app?vid=ab8406b2-4f8d-4381-8821-3db52b0a4d4d"},"vehicle_type_id":"4","last_reported":1745424784,"current_range_meters":20000,"station_id":"","pricing_plan_id":"cebpf4jnsgd1na2vs0mg"},{"bike_id":"3f9ec19c-fd3e-4a10-a60a-7d3bf6ee1b2c","system_id":"levelo_inurba_marseille","lat":43.29431,"lon":5.38608,"is_reserved":false,"is_disabled":false,"rental_uris":{"android":"levelo://app?vid=3f9ec19c-fd3e-4a10-a60a-7d3bf6ee1b2c","ios":"levelo://app?vid=3f9ec19c-fd3e-4a10-a60a-7d3bf6ee1b2c"},"vehicle_type_id":"4","last_reported":1745424784,"current_range_meters":20000,"station_id":"ce4bh2h2rcd13ifvqdh0","pricing_plan_id":"cebpf4jnsgd1na2vs0mg"},{"bike_id":"fccfb157-688a-49af-992a-1ce9f178a3c3","system_id":"levelo_inurba_marseille","lat":43.22941,"lon":5.35385,"is_reserved":false,"is_disabled":false,"rental_uris":{"android":"levelo://app?vid=fccfb157-688a-49af-992a-1ce9f178a3c3","ios":"levelo://app?vid=fccfb157-688a-49af-992a-1ce9f178a3c3"},"vehicle_type_id":"4","last_reported":1745424784,"current_range_meters":20000,"station_id":"cpo3532slgdg3j2ikp40","pricing_plan_id":"cebpf4jnsgd1na2vs0mg"},{"bike_id":"017f84fa-83bd-4625-b63f-dc30b9e38796","system_id":"levelo_inurba_marseille","lat":43.28466,"lon":5.35896,"is_reserved":false,"is_disabled":false,"rental_uris":{"android":"levelo://app?vid=017f84fa-83bd-4625-b63f-dc30b9e38796","ios":"levelo://app?vid=017f84fa-83bd-4625-b63f-dc30b9e38796"},"vehicle_type_id":"4","last_reported":1745424784,"current_range_meters":20000,"station_id":"ce4bhah2rcd13ifvqei0","pricing_plan_id":"cebpf4jnsgd1na2vs0mg"},{"bike_id":"aa3ffbc9-870a-4534-9a47-fd817b2c9259","system_id":"levelo_inurba_marseille","lat":43.279995,"lon":5.400137,"is_reserved":false,"is_disabled":false,"rental_uris":{"android":"levelo://app?vid=aa3ffbc9-870a-4534-9a47-fd817b2c9259","ios":"levelo://app?vid=aa3ffbc9-870a-4534-9a47-fd817b2c9259"},"vehicle_type_id":"4","last_reported":1745424784,"current_range_meters":20000,"station_id":"ce4bho92rcd13ifvqh4g","pricing_plan_id":"cebpf4jnsgd1na2vs0mg"},{"bike_id":"c48007be-69b4-4fa0-92f3-cf69fd0ddbe1","system_id":"levelo_inurba_marseille","lat":43.29529,"lon":5.39045,"is_reserved":false,"is_disabled":false,"rental_uris":{"android":"levelo://app?vid=c48007be-69b4-4fa0-92f3-cf69fd0ddbe1","ios":"levelo://app?vid=c48007be-69b4-4fa0-92f3-cf69fd0ddbe1"},"vehicle_type_id":"4","last_reported":1745424784,"current_range_meters":19600,"station_id":"ce4bh3p2rcd13ifvqdp0","pricing_plan_id":"cebpf4jnsgd1na2vs0mg"},{"bike_id":"7b975d0d-803b-4dbb-94a0-1a8fed76e2b3","system_id":"levelo_inurba_marseille","lat":43.28847,"lon":5.39308,"is_reserved":false,"is_disabled":false,"rental_uris":{"android":"levelo://app?vid=7b975d0d-803b-4dbb-94a0-1a8fed76e2b3","ios":"levelo://app?vid=7b975d0d-803b-4dbb-94a0-1a8fed76e2b3"},"vehicle_type_id":"4","last_reported":1745424784,"current_range_meters":20400,"station_id":"ce4bh2p2rcd13ifvqdi0","pricing_plan_id":"cebpf4jnsgd1na2vs0mg"},{"bike_id":"5a0fddb1-7b1f-4a0c-96a2-fe273b29a8de","system_id":"levelo_inurba_marseille","lat":43.28601,"lon":5.35121,"is_reserved":false,"is_disabled":false,"rental_uris":{"android":"levelo://app?vid=5a0fddb1-7b1f-4a0c-96a2-fe273b29a8de","ios":"levelo://app?vid=5a0fddb1-7b1f-4a0c-96a2-fe273b29a8de"},"vehicle_type_id":"4","last_reported":1745424784,"current_range_meters":20400,"station_id":"ce4bhch2rcd13ifvqeug","pricing_plan_id":"cebpf4jnsgd1na2vs0mg"},{"bike_id":"98479414-61cb-4f1e-b569-b8b79cf8e1e1","system_id":"levelo_inurba_marseille","lat":43.29203,"lon":5.35808,"is_reserved":false,"is_disabled":false,"rental_uris":{"android":"levelo://app?vid=98479414-61cb-4f1e-b569-b8b79cf8e1e1","ios":"levelo://app?vid=98479414-61cb-4f1e-b569-b8b79cf8e1e1"},"vehicle_type_id":"4","last_reported":1745424784,"current_range_meters":20400,"station_id":"ce4bhb12rcd13ifvqel0","pricing_plan_id":"cebpf4jnsgd1na2vs0mg"},{"bike_id":"b8844d46-2e41-417d-890e-61f4dd8f2c67","system_id":"levelo_inurba_marseille","lat":43.29224,"lon":5.3606,"is_reserved":false,"is_disabled":false,"rental_uris":{"android":"levelo://app?vid=b8844d46-2e41-417d-890e-61f4dd8f2c67","ios":"levelo://app?vid=b8844d46-2e41-417d-890e-61f4dd8f2c67"},"vehicle_type_id":"4","last_reported":1745424784,"current_range_meters":20400,"station_id":"ce4bhbh2rcd13ifvqeqg","pricing_plan_id":"cebpf4jnsgd1na2vs0mg"},{"bike_id":"396a3d41-9754-4acf-aa46-c0426eec218f","system_id":"levelo_inurba_marseille","lat":43.29847,"lon":5.36262,"is_reserved":false,"is_disabled":false,"rental_uris":{"android":"levelo://app?vid=396a3d41-9754-4acf-aa46-c0426eec218f","ios":"levelo://app?vid=396a3d41-9754-4acf-aa46-c0426eec218f"},"vehicle_type_id":"4","last_reported":1745424784,"current_range_meters":20800,"station_id":"ce4bgpp2rcd13ifvqc3g","pricing_plan_id":"cebpf4jnsgd1na2vs0mg"},{"bike_id":"3eadb79b-1000-47ae-b1f6-00209c7644ca","system_id":"levelo_inurba_marseille","lat":43.27997,"lon":5.40015,"is_reserved":false,"is_disabled":false,"rental_uris":{"android":"levelo://app?vid=3eadb79b-1000-47ae-b1f6-00209c7644ca","ios":"levelo://app?vid=3eadb79b-1000-47ae-b1f6-00209c7644ca"},"vehicle_type_id":"4","last_reported":1745424784,"current_range_meters":20800,"station_id":"ce4bho92rcd13ifvqh4g","pricing_plan_id":"cebpf4jnsgd1na2vs0mg"},{"bike_id":"548a676c-6329-4f1b-a15f-51e09f419043","system_id":"levelo_inurba_marseille","lat":43.26944,"lon":5.38682,"is_reserved":false,"is_disabled":true,"rental_uris":{"android":"levelo://app?vid=548a676c-6329-4f1b-a15f-51e09f419043","ios":"levelo://app?vid=548a676c-6329-4f1b-a15f-51e09f419043"},"vehicle_type_id":"4","last_reported":1745424784,"current_range_meters":20800,"station_id":"ce4bhh92rcd13ifvqfh0","pricing_plan_id":"cebpf4jnsgd1na2vs0mg"},{"bike_id":"df82c5a5-dc2f-4724-ac3f-de92456c16c9","system_id":"levelo_inurba_marseille","lat":43.29205,"lon":5.35843,"is_reserved":false,"is_disabled":false,"rental_uris":{"android":"levelo://app?vid=df82c5a5-dc2f-4724-ac3f-de92456c16c9","ios":"levelo://app?vid=df82c5a5-dc2f-4724-ac3f-de92456c16c9"},"vehicle_type_id":"4","last_reported":1745424784,"current_range_meters":20400,"station_id":"ce4bhb12rcd13ifvqel0","pricing_plan_id":"cebpf4jnsgd1na2vs0mg"},{"bike_id":"c48c1b96-c878-455f-9e11-ddc956cb7789","system_id":"levelo_inurba_marseille","lat":43.31765,"lon":5.39018,"is_reserved":false,"is_disabled":false,"rental_uris":{"android":"levelo://app?vid=c48c1b96-c878-455f-9e11-ddc956cb7789","ios":"levelo://app?vid=c48c1b96-c878-455f-9e11-ddc956cb7789"},"vehicle_type_id":"4","last_reported":1745424784,"current_range_meters":20800,"station_id":"ce4bhqp2rcd13ifvqhng","pricing_plan_id":"cebpf4jnsgd1na2vs0mg"},{"bike_id":"50d9f7f6-216e-44de-b619-7dc5ba0fe0ca","system_id":"levelo_inurba_marseille","lat":43.27497,"lon":5.4245,"is_reserved":false,"is_disabled":false,"rental_uris":{"android":"levelo://app?vid=50d9f7f6-216e-44de-b619-7dc5ba0fe0ca","ios":"levelo://app?vid=50d9f7f6-216e-44de-b619-7dc5ba0fe0ca"},"vehicle_type_id":"4","last_reported":1745424784,"current_range_meters":20400,"station_id":"ce4bhn92rcd13ifvqgrg","pricing_plan_id":"cebpf4jnsgd1na2vs0mg"},{"bike_id":"eafeeb52-0f04-4098-b685-ec8ac77182aa","system_id":"levelo_inurba_marseille","lat":43.26031,"lon":5.37543,"is_reserved":false,"is_disabled":false,"rental_uris":{"android":"levelo://app?vid=eafeeb52-0f04-4098-b685-ec8ac77182aa","ios":"levelo://app?vid=eafeeb52-0f04-4098-b685-ec8ac77182aa"},"vehicle_type_id":"4","last_reported":1745424784,"current_range_meters":21600,"station_id":"ce4bhgh2rcd13ifvqfa0","pricing_plan_id":"cebpf4jnsgd1na2vs0mg"},{"bike_id":"97d1b767-b69a-4013-a647-34a3b041982a","system_id":"levelo_inurba_marseille","lat":43.276031,"lon":5.361109,"is_reserved":false,"is_disabled":false,"rental_uris":{"android":"levelo://app?vid=97d1b767-b69a-4013-a647-34a3b041982a","ios":"levelo://app?vid=97d1b767-b69a-4013-a647-34a3b041982a"},"vehicle_type_id":"4","last_reported":1745424784,"current_range_meters":22400,"station_id":"ce4bgj92rcd13ifvqbe0","pricing_plan_id":"cebpf4jnsgd1na2vs0mg"},