{"last_updated":1733753390,"ttl":60,"version":"2.2","data":{"bikes":[{"bike_id":"d73d457e-98ed-4647-9d72-eaaf2869e62b","system_id":"levelo_inurba_marseille","lat":43.30301,"lon":5.39583,"is_reserved":false,"is_disabled":false,"rental_uris":{"android":"levelo://app?vid=d73d457e-98ed-4647-9d72-eaaf2869e62b","ios":"levelo://app?vid=d73d457e-98ed-4647-9d72-eaaf2869e62b"},"vehicle_type_id":"4","last_reported":1733753390,"current_range_meters":36800,"station_id":"","pricing_plan_id":"cebpf4jnsgd1na2vs0mg"},{"bike_id":"e3ec3af1-7bf1-430a-953d-6924b6c71ac1","system_id":"levelo_inurba_marseille","lat":43.30552,"lon":5.36546,"is_reserved":false,"is_disabled":false,"rental_uris":{"android":"levelo://app?vid=e3ec3af1-7bf1-430a-953d-6924b6c71ac1","ios":"levelo://app?vid=e3ec3af1-7bf1-430a-953d-6924b6c71ac1"},"vehicle_type_id":"4","last_reported":1733753390,"current_range_meters":38800,"station_id":"ce4bgs12rcd13ifvqcag","pricing_plan_id":"cebpf4jnsgd1na2vs0mg"},{"bike_id":"5f36d08d-22b7-45a1-8a89-1f2bf77105ee","system_id":"levelo_inurba_marseille","lat":43.28273,"lon":5.35061,"is_reserved":false,"is_disabled":true,"rental_uris":{"android":"levelo://app?vid=5f36d08d-22b7-45a1-8a89-1f2bf77105ee","ios":"levelo://app?vid=5f36d08d-22b7-45a1-8a89-1f2bf77105ee"},"vehicle_type_id":"4","last_reported":1733753390,"current_range_meters":0,"station_id":"ce4bhbp2rcd13ifvqerg","pricing_plan_id":"cebpf4jnsgd1na2vs0mg"},{"bike_id":"8e029eaf-e104-4c5d-858d-6cd39de73d09","system_id":"levelo_inurba_marseille","lat":43.24167,"lon":5.364,"is_reserved":false,"is_disabled":false,"rental_uris":{"android":"levelo://app?vid=8e029eaf-e104-4c5d-858d-6cd39de73d09","ios":"levelo://app?vid=8e029eaf-e104-4c5d-858d-6cd39de73d09"},"vehicle_type_id":"4","last_reported":1733753390,"current_range_meters":22400,"station_id":"cpo36qri1sfpv3e86is0","pricing_plan_id":"cebpf4jnsgd1na2vs0mg"},{"bike_id":"7bc62a75-e447-408e-8c41-af432d7f19d2","system_id":"levelo_inurba_marseille","lat":43.27974,"lon":5.3875,"is_reserved":false,"is_disabled":false,"rental_uris":{"android":"levelo://app?vid=7bc62a75-e447-408e-8c41-af432d7f19d2","ios":"levelo://app?vid=7bc62a75-e447-408e-8c41-af432d7f19d2"},"vehicle_type_id":"4","last_reported":1733753390,"current_range_meters":17600,"station_id":"ce4bhg12rcd13ifvqf80","pricing_plan_id":"cebpf4jnsgd1na2vs0mg"},{"bike_id":"8ee42645-8ada-4743-a2e4-dd3c7ff39f6d","system_id":"levelo_inurba_marseille","lat":43.2315,"lon":5.43711,"is_reserved":false,"is_disabled":false,"rental_uris":{"android":"levelo://app?vid=8ee42645-8ada-4743-a2e4-dd3c7ff39f6d","ios":"levelo://app?vid=8ee42645-8ada-4743-a2e4-dd3c7ff39f6d"},"vehicle_type_id":"4","last_reported":1733753390,"current_range_meters":8000,"station_id":"ce4bhmp2rcd13ifvqgog","pricing_plan_id":"cebpf4jnsgd1na2vs0mg"},{"bike_id":"834d07c5-c1bf-4de1-8910-5a5e5eb9c45a","system_id":"levelo_inurba_marseille","lat":43.28975,"lon":5.37841,"is_reserved":false,"is_disabled":false,"rental_uris":{"android":"levelo://app?vid=834d07c5-c1bf-4de1-8910-5a5e5eb9c45a","ios":"levelo://app?vid=834d07c5-c1bf-4de1-8910-5a5e5eb9c45a"},"vehicle_type_id":"4","last_reported":1733753390,"current_range_meters":36800,"station_id":"ce4bh9p2rcd13ifvqed0","pricing_plan_id":"cebpf4jnsgd1na2vs0mg"},{"bike_id":"ba5e9603-9efa-46a1-a491-af58be8cd5cb","system_id":"levelo_inurba_marseille","lat":43.32369,"lon":5.36764,"is_reserved":false,"is_disabled":false,"rental_uris":{"android":"levelo://app?vid=ba5e9603-9efa-46a1-a491-af58be8cd5cb","ios":"levelo://app?vid=ba5e9603-9efa-46a1-a491-af58be8cd5cb"},"vehicle_type_id":"4","last_reported":1733753390,"current_range_meters":36000,"station_id":"ce4bhsh2rcd13ifvqi2g","pricing_plan_id":"cebpf4jnsgd1na2vs0mg"},{"bike_id":"7076e633-86a9-45e7-b89b-adbd9a632e0f","system_id":"levelo_inurba_marseille","lat":43.24382,"lon":5.37055,"is_reserved":false,"is_disabled":false,"rental_uris":{"android":"levelo://app?vid=7076e633-86a9-45e7-b89b-adbd9a632e0f","ios":"levelo://app?vid=7076e633-86a9-45e7-b89b-adbd9a632e0f"},"vehicle_type_id":"4","last_reported":1733753390,"current_range_meters":39200,"station_id":"ce4bhhh2rcd13ifvqfk0","pricing_plan_id":"cebpf4jnsgd1na2vs0mg"},{"bike_id":"8bd642b2-0279-44c7-9ee2-fc3b57332c83","system_id":"levelo_inurba_marseille","lat":43.27455,"lon":5.40073,"is_reserved":false,"is_disabled":true,"rental_uris":{"android":"levelo://app?vid=8bd642b2-0279-44c7-9ee2-fc3b57332c83","ios":"levelo://app?vid=8bd642b2-0279-44c7-9ee2-fc3b57332c83"},"vehicle_type_id":"4","last_reported":1733753390,"current_range_meters":0,"station_id":"","pricing_plan_id":"cebpf4jnsgd1na2vs0mg"},{"bike_id":"76cb6262-57a3-4fa3-94e3-305f38b4d39f","system_id":"levelo_inurba_marseille","lat":43.24085,"lon":5.3776,"is_reserved":false,"is_disabled":false,"rental_uris":{"android":"levelo://app?vid=76cb6262-57a3-4fa3-94e3-305f38b4d39f","ios":"levelo://app?vid=76cb6262-57a3-4fa3-94e3-305f38b4d39f"},"vehicle_type_id":"4","last_reported":1733753390,"current_range_meters":8000,"station_id":"ce4bhnp2rcd13ifvqgvg","pricing_plan_id":"cebpf4jnsgd1na2vs0mg"},{"bike_id":"f4b3165d-2d9a-4d90-9ff9-759837e73fb9","system_id":"levelo_inurba_marseille","lat":43.29846,"lon":5.36281,"is_reserved":false,"is_disabled":false,"rental_uris":{"android":"levelo://app?vid=f4b3165d-2d9a-4d90-9ff9-759837e73fb9","ios":"levelo://app?vid=f4b3165d-2d9a-4d90-9ff9-759837e73fb9"},"vehicle_type_id":"4","last_reported":1733753390,"current_range_meters":30000,"station_id":"ce4bgpp2rcd13ifvqc3g","pricing_plan_id":"cebpf4jnsgd1na2vs0mg"},{"bike_id":"f6056ac6-c076-4c9f-a1d5-caa3c8d8698b","system_id":"levelo_inurba_marseille","lat":43.28966,"lon":5.37833,"is_reserved":false,"is_disabled":false,"rental_uris":{"android":"levelo://app?vid=f6056ac6-c076-4c9f-a1d5-caa3c8d8698b","ios":"levelo://app?vid=f6056ac6-c076-4c9f-a1d5-caa3c8d8698b"},"vehicle_type_id":"4","last_reported":1733753390,"current_range_meters":36400,"station_id":"ce4bh9p2rcd13ifvqed0","pricing_plan_id":"cebpf4jnsgd1na2vs0mg"},{"bike_id":"f09914a1-032a-4233-965f-c73f49a269ba","system_id":"levelo_inurba_marseille","lat":43.337444,"lon":5.374475,"is_reserved":false,"is_disabled":true,"rental_uris":{"android":"levelo://app?vid=f09914a1-032a-4233-965f-c73f49a269ba","ios":"levelo://app?vid=f09914a1-032a-4233-965f-c73f49a269ba"},"vehicle_type_id":"4","last_reported":1733753390,"current_range_meters":0,"station_id":"","pricing_plan_id":"cebpf4jnsgd1na2vs0mg"},{"bike_id":"3ec47102-4311-4d67-bcbe-dad713775749","system_id":"levelo_inurba_marseille","lat":43.29277,"lon":5.36846,"is_reserved":false,"is_disabled":false,"rental_uris":{"android":"levelo://app?vid=3ec47102-4311-4d67-bcbe-dad713775749","ios":"levelo://app?vid=3ec47102-4311-4d67-bcbe-dad713775749"},"vehicle_type_id":"4","last_reported":1733753390,"current_range_meters":24400,"station_id":"ce4bhbp2rcd13ifvqesg","pricing_plan_id":"cebpf4jnsgd1na2vs0mg"},{"bike_id":"cb442d5a-cce0-41d7-9c51-b4c2e4d876d4","system_id":"levelo_inurba_marseille","lat":43.32634,"lon":5.36472,"is_reserved":false,"is_disabled":false,"rental_uris":{"android":"levelo://app?vid=cb442d5a-cce0-41d7-9c51-b4c2e4d876d4","ios":"levelo://app?vid=cb442d5a-cce0-41d7-9c51-b4c2e4d876d4"},"vehicle_type_id":"4","last_reported":1733753390,"current_range_meters":28000,"station_id":"","pricing_plan_id":"cebpf4jnsgd1na2vs0mg"},{"bike_id":"a955f565-33db-4fdc-bdbf-249121ea420f","system_id":"levelo_inurba_marseille","lat":43.29189,"lon":5.35794,"is_reserved":false,"is_disabled":true,"rental_uris":{"android":"levelo://app?vid=a955f565-33db-4fdc-bdbf-249121ea420f","ios":"levelo://app?vid=a955f565-33db-4fdc-bdbf-249121ea420f"},"vehicle_type_id":"4","last_reported":1733753390,"current_range_meters":32000,"station_id":"ce4bhb12rcd13ifvqel0","pricing_plan_id":"cebpf4jnsgd1na2vs0mg"},{"bike_id":"1055c99e-6a30-4bd9-b979-6d399b57fff2","system_id":"levelo_inurba_marseille","lat":43.29892,"lon":5.43661,"is_reserved":false,"is_disabled":false,"rental_uris":{"android":"levelo://app?vid=1055c99e-6a30-4bd9-b979-6d399b57fff2","ios":"levelo://app?vid=1055c99e-6a30-4bd9-b979-6d399b57fff2"},"vehicle_type_id":"4","last_reported":1733753390,"current_range_meters":30800,"station_id":"ce4bhpp2rcd13ifvqhfg","pricing_plan_id":"cebpf4jnsgd1na2vs0mg"},{"bike_id":"14c257dc-06bf-4a29-939b-9abb4cc4885a","system_id":"levelo_inurba_marseille","lat":43.28503,"lon":5.36815,"is_reserved":false,"is_disabled":false,"rental_uris":{"android":"levelo://app?vid=14c257dc-06bf-4a29-939b-9abb4cc4885a","ios":"levelo://app?vid=14c257dc-06bf-4a29-939b-9abb4cc4885a"},"vehicle_type_id":"4","last_reported":1733753390,"current_range_meters":6800,"station_id":"","pricing_plan_id":"cebpf4jnsgd1na2vs0mg"},{"bike_id":"483f0cd4-714a-474d-8f87-2793cba444bb","system_id":"levelo_inurba_marseille","lat":43.29909,"lon":5.37484,"is_reserved":false,"is_disabled":true,"rental_uris":{"android":"levelo://app?vid=483f0cd4-714a-474d-8f87-2793cba444bb","ios":"levelo://app?vid=483f0cd4-714a-474d-8f87-2793cba444bb"},"vehicle_type_id":"4","last_reported":1733753390,"current_range_meters":7200,"station_id":"ce4bgjh2rcd13ifvqbg0","pricing_plan_id":"cebpf4jnsgd1na2vs0mg"},{"bike_id":"95cfddd6-1f3c-4fd2-9652-931f20cf06bd","system_id":"levelo_inurba_marseille","lat":43.25573,"lon":5.38238,"is_reserved":false,"is_disabled":false,"rental_uris":{"android":"levelo://app?vid=95cfddd6-1f3c-4fd2-9652-931f20cf06bd","ios":"levelo://app?vid=95cfddd6-1f3c-4fd2-9652-931f20cf06bd"},"vehicle_type_id":"4","last_reported":1733753390,"current_range_meters":20800,"station_id":"ce4bhih2rcd13ifvqfs0","pricing_plan_id":"cebpf4jnsgd1na2vs0mg"},{"bike_id":"fc1a4547-154a-485d-bf3d-412d7ffc3998","system_id":"levelo_inurba_marseille","lat":43.30938,"lon":5.40152,"is_reserved":false,"is_disabled":false,"rental_uris":{"android":"levelo://app?vid=fc1a4547-154a-485d-bf3d-412d7ffc3998","ios":"levelo://app?vid=fc1a4547-154a-485d-bf3d-412d7ffc3998"},"vehicle_type_id":"4","last_reported":1733753390,"current_range_meters":39200,"station_id":"ce4bgvp2rcd13ifvqct0","pricing_plan_id":"cebpf4jnsgd1na2vs0mg"},{"bike_id":"faa7bf9c-8f43-4d37-ad83-5c946172d0a9","system_id":"levelo_inurba_marseille","lat":43.26032,"lon":5.37562,"is_reserved":false,"is_disabled":false,"rental_uris":{"android":"levelo://app?vid=faa7bf9c-8f43-4d37-ad83-5c946172d0a9","ios":"levelo://app?vid=faa7bf9c-8f43-4d37-ad83-5c946172d0a9"},"vehicle_type_id":"4","last_reported":1733753390,"current_range_meters":38800,"station_id":"ce4bhgh2rcd13ifvqfa0","pricing_plan_id":"cebpf4jnsgd1na2vs0mg"},{"bike_id":"5f353ad8-0797-427f-8892-5c141047e836","system_id":"levelo_inurba_marseille","lat":43.337444,"lon":5.374475,"is_reserved":false,"is_disabled":false,"rental_uris":{"android":"levelo://app?vid=5f353ad8-0797-427f-8892-5c141047e836","ios":"levelo://app?vid=5f353ad8-0797-427f-8892-5c141047e836"},"vehicle_type_id":"4","last_reported":1733753390,"current_range_meters":36800,"station_id":"ce4bhq92rcd13ifvqhkg","pricing_plan_id":"cebpf4jnsgd1na2vs0mg"},{"bike_id":"9fe6b7cd-2407-4646-bd70-b263eb65c9e1","system_id":"levelo_inurba_marseille","lat":43.33719,"lon":5.39191,"is_reserved":false,"is_disabled":false,"rental_uris":{"android":"levelo://app?vid=9fe6b7cd-2407-4646-bd70-b263eb65c9e1","ios":"levelo://app?vid=9fe6b7cd-2407-4646-bd70-b263eb65c9e1"},"vehicle_type_id":"4","last_reported":1733753390,"current_range_meters":26800,"station_id":"ce4bhr92rcd13ifvqhsg","pricing_plan_id":"cebpf4jnsgd1na2vs0mg"},{"bike_id":"f58c6faa-34bf-4e6e-940d-18cbd51aef0f","system_id":"levelo_inurba_marseille","lat":43.24647,"lon":5.38901,"is_reserved":false,"is_disabled":false,"rental_uris":{"android":"levelo://app?vid=f58c6faa-34bf-4e6e-940d-18cbd51aef0f","ios":"levelo://app?vid=f58c6faa-34bf-4e6e-940d-18cbd51aef0f"},"vehicle_type_id":"4","last_reported":1733753390,"current_range_meters":8400,"station_id":"ce4bhg12rcd13ifvqf60","pricing_plan_id":"cebpf4jnsgd1na2vs0mg"},{"bike_id":"4f1772b1-ecf8-45cf-b172-1902be4b8a81","system_id":"levelo_inurba_marseille","lat":43.25822,"lon":5.39433,"is_reserved":false,"is_disabled":false,"rental_uris":{"android":"levelo://app?vid=4f1772b1-ecf8-45cf-b172-1902be4b8a81","ios":"levelo://app?vid=4f1772b1-ecf8-45cf-b172-1902be4b8a81"},"vehicle_type_id":"4","last_reported":1733753390,"current_range_meters":23200,"station_id":"ce4bhip2rcd13ifvqft0","pricing_plan_id":"cebpf4jnsgd1na2vs0mg"},{"bike_id":"938640b4-f78c-4def-9b16-e6205edb88bc","system_id":"levelo_inurba_marseille","lat":43.28154,"lon":5.42636,"is_reserved":false,"is_disabled":true,"rental_uris":{"android":"levelo://app?vid=938640b4-f78c-4def-9b16-e6205edb88bc","ios":"levelo://app?vid=938640b4-f78c-4def-9b16-e6205edb88bc"},"vehicle_type_id":"4","last_reported":1733753390,"current_range_meters":35600,"station_id":"ce4bhnh2rcd13ifvqgug","pricing_plan_id":"cebpf4jnsgd1na2vs0mg"},{"bike_id":"48871fe4-f188-4ca0-8426-a71532d299e3","system_id":"levelo_inurba_marseille","lat":43.29253,"lon":5.4091,"is_reserved":false,"is_disabled":false,"rental_uris":{"android":"levelo://app?vid=48871fe4-f188-4ca0-8426-a71532d299e3","ios":"levelo://app?vid=48871fe4-f188-4ca0-8426-a71532d299e3"},"vehicle_type_id":"4","last_reported":1733753390,"current_range_meters":22000,"station_id":"ce4bh192rcd13ifvqdc0","pricing_plan_id":"cebpf4jnsgd1na2vs0mg"},{"bike_id":"99a50271-3a09-4adf-880d-3033fc078d25","system_id":"levelo_inurba_marseille","lat":43.29438,"lon":5.39754,"is_reserved":false,"is_disabled":false,"rental_uris":{"android":"levelo://app?vid=99a50271-3a09-4adf-880d-3033fc078d25","ios":"levelo://app?vid=99a50271-3a09-4adf-880d-3033fc078d25"},"vehicle_type_id":"4","last_reported":1733753390,"current_range_meters":38800,"station_id":"ce4bh3h2rcd13ifvqdo0","pricing_plan_id":"cebpf4jnsgd1na2vs0mg"},{"bike_id":"cf55b169-9388-4819-bfa4-c55a8fa03873","system_id":"levelo_inurba_marseille","lat":43.27613,"lon":5.36121,"is_reserved":false,"is_disabled":true,"rental_uris":{"android":"levelo://app?vid=cf55b169-9388-4819-bfa4-c55a8fa03873","ios":"levelo://app?vid=cf55b169-9388-4819-bfa4-c55a8fa03873"},"vehicle_type_id":"4","last_reported":1733753390,"current_range_meters":29600,"station_id":"ce4bgj92rcd13ifvqbe0","pricing_plan_id":"cebpf4jnsgd1na2vs0mg"},{"bike_id":"2f3968e7-9336-4ee4-ba78-8e92c0a818cc","system_id":"levelo_inurba_marseille","lat":43.31322,"lon":5.36647,"is_reserved":false,"is_disabled":true,"rental_uris":{"android":"levelo://app?vid=2f3968e7-9336-4ee4-ba78-8e92c0a818cc","ios":"levelo://app?vid=2f3968e7-9336-4ee4-ba78-8e92c0a818cc"},"vehicle_type_id":"4","last_reported":1733753390,"current_range_meters":0,"station_id":"","pricing_plan_id":"cebpf4jnsgd1na2vs0mg"},{"bike_id":"442ec397-f107-4c75-99a4-d95d87577819","system_id":"levelo_inurba_marseille","lat":43.25502,"lon":5.3765,"is_reserved":false,"is_disabled":false,"rental_uris":{"android":"levelo://app?vid=442ec397-f107-4c75-99a4-d95d87577819","ios":"levelo://app?vid=442ec397-f107-4c75-99a4-d95d87577819"},"vehicle_type_id":"4","last_reported":1733753390,"current_range_meters":38800,"station_id":"ce4bhh12rcd13ifvqff0","pricing_plan_id":"cebpf4jnsgd1na2vs0mg"},{"bike_id":"efce5743-4e19-4bc0-9ade-fa8b7cea8929","system_id":"levelo_inurba_marseille","lat":43.26793,"lon":5.39417,"is_reserved":false,"is_disabled":false,"rental_uris":{"android":"levelo://app?vid=efce5743-4e19-4bc0-9ade-fa8b7cea8929","ios":"levelo://app?vid=efce5743-4e19-4bc0-9ade-fa8b7cea8929"},"vehicle_type_id":"4","last_reported":1733753390,"current_range_meters":16800,"station_id":"ce4bhh12rcd13ifvqfg0","pricing_plan_id":"cebpf4jnsgd1na2vs0mg"},{"bike_id":"6f519dbb-eb7c-43e1-8bee-4c0fc688596f","system_id":"levelo_inurba_marseille","lat":43.29975,"lon":5.38492,"is_reserved":false,"is_disabled":false,"rental_uris":{"android":"levelo://app?vid=6f519dbb-eb7c-43e1-8bee-4c0fc688596f","ios":"levelo://app?vid=6f519dbb-eb7c-43e1-8bee-4c0fc688596f"},"vehicle_type_id":"4","last_reported":1733753390,"current_range_meters":24400,"station_id":"ce4bgj92rcd13ifvqbd0","pricing_plan_id":"cebpf4jnsgd1na2vs0mg"},{"bike_id":"3cc17b5f-991b-4376-92c1-5eaec07a4ba2","system_id":"levelo_inurba_marseille","lat":43.27493,"lon":5.42455,"is_reserved":false,"is_disabled":false,"rental_uris":{"android":"levelo://app?vid=3cc17b5f-991b-4376-92c1-5eaec07a4ba2","ios":"levelo://app?vid=3cc17b5f-991b-4376-92c1-5eaec07a4ba2"},"vehicle_type_id":"4","last_reported":1733753390,"current_range_meters":32000,"station_id":"ce4bhn92rcd13ifvqgrg","pricing_plan_id":"cebpf4jnsgd1na2vs0mg"},{"bike_id":"ebe7827c-f51e-449a-9d06-06df3155654d","system_id":"levelo_inurba_marseille","lat":43.27993,"lon":5.40029,"is_reserved":false,"is_disabled":false,"rental_uris":{"android":"levelo://app?vid=ebe7827c-f51e-449a-9d06-06df3155654d","ios":"levelo://app?vid=ebe7827c-f51e-449a-9d06-06df3155654d"},"vehicle_type_id":"4","last_reported":1733753390,"current_range_meters":16800,"station_id":"ce4bho92rcd13ifvqh4g","pricing_plan_id":"cebpf4jnsgd1na2vs0mg"},{"bike_id":"7f0b121b-7748-43bd-b861-318cbdf6fb69","system_id":"levelo_inurba_marseille","lat":43.28452,"lon":5.35903,"is_reserved":false,"is_disabled":true,"rental_uris":{"android":"levelo://app?vid=7f0b121b-7748-43bd-b861-318cbdf6fb69","ios":"levelo://app?vid=7f0b121b-7748-43bd-b861-318cbdf6fb69"},"vehicle_type_id":"4","last_reported":1733753390,"current_range_meters":9200,"station_id":"ce4bhah2rcd13ifvqei0","pricing_plan_id":"cebpf4jnsgd1na2vs0mg"},{"bike_id":"6583aefc-6815-4bd5-8f5c-a9c5d794f47e","system_id":"levelo_inurba_marseille","lat":43.36392,"lon":5.3418,"is_reserved":false,"is_disabled":false,"rental_uris":{"android":"levelo://app?vid=6583aefc-6815-4bd5-8f5c-a9c5d794f47e","ios":"levelo://app?vid=6583aefc-6815-4bd5-8f5c-a9c5d794f47e"},"vehicle_type_id":"4","last_reported":1733753390,"current_range_meters":14000,"station_id":"","pricing_plan_id":"cebpf4jnsgd1na2vs0mg"},{"bike_id":"6738dbdc-10d7-4808-8efe-1811d7c261b3","system_id":"levelo_inurba_marseille","lat":43.3054,"lon":5.3671,"is_reserved":false,"is_disabled":false,"rental_uris":{"android":"levelo://app?vid=6738dbdc-10d7-4808-8efe-1811d7c261b3","ios":"levelo://app?vid=6738dbdc-10d7-4808-8efe-1811d7c261b3"},"vehicle_type_id":"4","last_reported":1733753390,"current_range_meters":14000,"station_id":"ce4bgrp2rcd13ifvqc9g","pricing_plan_id":"cebpf4jnsgd1na2vs0mg"},{"bike_id":"468d023e-e483-49f2-92d7-7b95c7b3c650","system_id":"levelo_inurba_marseille","lat":43.29897,"lon":5.43667,"is_reserved":false,"is_disabled":false,"rental_uris":{"android":"levelo://app?vid=468d023e-e483-49f2-92d7-7b95c7b3c650","ios":"levelo://app?vid=468d023e-e483-49f2-92d7-7b95c7b3c650"},"vehicle_type_id":"4","last_reported":1733753390,"current_range_meters":38800,"station_id":"ce4bhpp2rcd13ifvqhfg","pricing_plan_id":"cebpf4jnsgd1na2vs0mg"},{"bike_id":"be11bf77-dce6-4575-b3d6-de65c68412a2","system_id":"levelo_inurba_marseille","lat":43.2607,"lon":5.39406,"is_reserved":false,"is_disabled":false,"rental_uris":{"android":"levelo://app?vid=be11bf77-dce6-4575-b3d6-de65c68412a2","ios":"levelo://app?vid=be11bf77-dce6-4575-b3d6-de65c68412a2"},"vehicle_type_id":"4","last_reported":1733753390,"current_range_meters":36400,"station_id":"ce4bhh92rcd13ifvqfj0","pricing_plan_id":"cebpf4jnsgd1na2vs0mg"},{"bike_id":"49213fa3-142b-4e8e-a212-30a049376c3f","system_id":"levelo_inurba_marseille","lat":43.23153,"lon":5.43713,"is_reserved":false,"is_disabled":false,"rental_uris":{"android":"levelo://app?vid=49213fa3-142b-4e8e-a212-30a049376c3f","ios":"levelo://app?vid=49213fa3-142b-4e8e-a212-30a049376c3f"},"vehicle_type_id":"4","last_reported":1733753390,"current_range_meters":18800,"station_id":"ce4bhmp2rcd13ifvqgog","pricing_plan_id":"cebpf4jnsgd1na2vs0mg"},{"bike_id":"4fc3763a-e572-472b-806d-d7fe2d155b95","system_id":"levelo_inurba_marseille","lat":43.33601,"lon":5.41036,"is_reserved":false,"is_disabled":false,"rental_uris":{"android":"levelo://app?vid=4fc3763a-e572-472b-806d-d7fe2d155b95","ios":"levelo://app?vid=4fc3763a-e572-472b-806d-d7fe2d155b95"},"vehicle_type_id":"4","last_reported":1733753390,"current_range_meters":12800,"station_id":"ce4bhqh2rcd13ifvqhmg","pricing_plan_id":"cebpf4jnsgd1na2vs0mg"},{"bike_id":"f10c5e90-601b-4bd4-87e7-4cbb6a13a4fb","system_id":"levelo_inurba_marseille","lat":43.26123,"lon":5.39268,"is_reserved":false,"is_disabled":true,"rental_uris":{"android":"levelo://app?vid=f10c5e90-601b-4bd4-87e7-4cbb6a13a4fb","ios":"levelo://app?vid=f10c5e90-601b-4bd4-87e7-4cbb6a13a4fb"},"vehicle_type_id":"4","last_reported":1733753390,"current_range_meters":0,"station_id":"","pricing_plan_id":"cebpf4jnsgd1na2vs0mg"},{"bike_id":"00339817-9333-484f-a692-33d924352b29","system_id":"levelo_inurba_marseille","lat":43.28854,"lon":5.35841,"is_reserved":false,"is_disabled":false,"rental_uris":{"android":"levelo://app?vid=00339817-9333-484f-a692-33d924352b29","ios":"levelo://app?vid=00339817-9333-484f-a692-33d924352b29"},"vehicle_type_id":"4","last_reported":1733753390,"current_range_meters":14800,"station_id":"ce4bhb12rcd13ifvqem0","pricing_plan_id":"cebpf4jnsgd1na2vs0mg"},{"bike_id":"e49bac90-7c8f-4468-a1ce-d43e7732a138","system_id":"levelo_inurba_marseille","lat":43.34149,"lon":5.40916,"is_reserved":false,"is_disabled":false,"rental_uris":{"android":"levelo://app?vid=e49bac90-7c8f-4468-a1ce-d43e7732a138","ios":"levelo://app?vid=e49bac90-7c8f-4468-a1ce-d43e7732a138"},"vehicle_type_id":"4","last_reported":1733753390,"current_range_meters":38800,"station_id":"ce4bhqh2rcd13ifvqhlg","pricing_plan_id":"cebpf4jnsgd1na2vs0mg"},{"bike_id":"a9c92845-55ae-4653-9c5d-606f306a0f38","system_id":"levelo_inurba_marseille","lat":43.27054,"lon":5.40271,"is_reserved":false,"is_disabled":false,"rental_uris":{"android":"levelo://app?vid=a9c92845-55ae-4653-9c5d-606f306a0f38","ios":"levelo://app?vid=a9c92845-55ae-4653-9c5d-606f306a0f38"},"vehicle_type_id":"4","last_reported":1733753390,"current_range_meters":37600,"station_id":"ce4bhk92rcd13ifvqgc0","pricing_plan_id":"cebpf4jnsgd1na2vs0mg"},{"bike_id":"14dfaea3-3caa-4290-bde0-ff2aefcdc7be","system_id":"levelo_inurba_marseille","lat":43.26802,"lon":5.40272,"is_reserved":false,"is_disabled":false,"rental_uris":{"android":"levelo://app?vid=14dfaea3-3caa-4290-bde0-ff2aefcdc7be","ios":"levelo://app?vid=14dfaea3-3caa-4290-bde0-ff2aefcdc7be"},"vehicle_type_id":"4","last_reported":1733753390,"current_range_meters":38800,"station_id":"ce501612rcd8frsf0b60","pricing_plan_id":"cebpf4jnsgd1na2vs0mg"},{"bike_id":"c4181c20-8b12-4bc9-9c3a-3086defabfe5","system_id":"levelo_inurba_marseille","lat":43.29524,"lon":5.39047,"is_reserved":false,"is_disabled":true,"rental_uris":{"android":"levelo://app?vid=c4181c20-8b12-4bc9-9c3a-3086defabfe5","ios":"levelo://app?vid=c4181c20-8b12-4bc9-9c3a-3086defabfe5"},"vehicle_type_id":"4","last_reported":1733753390,"current_range_meters":0,"station_id":"ce4bh3p2rcd13ifvqdp0","pricing_plan_id":"cebpf4jnsgd1na2vs0mg"},{"bike_id":"c1af07c0-ed11-49c8-aa2e-1104638a28b7","system_id":"levelo_inurba_marseille","lat":43.23067,"lon":5.35495,"is_reserved":false,"is_disabled":false,"rental_uris":{"android":"levelo://app?vid=c1af07c0-ed11-49c8-aa2e-1104638a28b7","ios":"levelo://app?vid=c1af07c0-ed11-49c8-aa2e-1104638a28b7"},"vehicle_type_id":"4","last_reported":1733753390,"current_range_meters":24400,"station_id":"cpo3342slgdg3j2ifvpg","pricing_plan_id":"cebpf4jnsgd1na2vs0mg"},{"bike_id":"996de5b4-1660-4e4b-b7ff-db0625e90c8a","system_id":"levelo_inurba_marseille","lat":43.27501,"lon":5.4245,"is_reserved":false,"is_disabled":false,"rental_uris":{"android":"levelo://app?vid=996de5b4-1660-4e4b-b7ff-db0625e90c8a","ios":"levelo://app?vid=996de5b4-1660-4e4b-b7ff-db0625e90c8a"},"vehicle_type_id":"4","last_reported":1733753390,"current_range_meters":26800,"station_id":"ce4bhn92rcd13ifvqgrg","pricing_plan_id":"cebpf4jnsgd1na2vs0mg"},{"bike_id":"4d406fcb-1eb3-4c13-8e34-22ee43b77cef","system_id":"levelo_inurba_marseille","lat":43.27978,"lon":5.38748,"is_reserved":false,"is_disabled":false,"rental_uris":{"android":"levelo://app?vid=4d406fcb-1eb3-4c13-8e34-22ee43b77cef","ios":"levelo://app?vid=4d406fcb-1eb3-4c13-8e34-22ee43b77cef"},"vehicle_type_id":"4","last_reported":1733753390,"current_range_meters":38800,"station_id":"ce4bhg12rcd13ifvqf80","pricing_plan_id":"cebpf4jnsgd1na2vs0mg"},{"bike_id":"58c4a809-128a-4b73-86b2-6406fa5b615d","system_id":"levelo_inurba_marseille","lat":43.30536,"lon":5.36714,"is_reserved":false,"is_disabled":false,"rental_uris":{"android":"levelo://app?vid=58c4a809-128a-4b73-86b2-6406fa5b615d","ios":"levelo://app?vid=58c4a809-128a-4b73-86b2-6406fa5b615d"},"vehicle_type_id":"4","last_reported":1733753390,"current_range_meters":38800,"station_id":"ce4bgrp2rcd13ifvqc9g","pricing_plan_id":"cebpf4jnsgd1na2vs0mg"},{"bike_id":"6f5aafc4-06b9-4dba-b612-5d926167490b","system_id":"levelo_inurba_marseille","lat":43.32477,"lon":5.36586,"is_reserved":false,"is_disabled":true,"rental_uris":{"android":"levelo://app?vid=6f5aafc4-06b9-4dba-b612-5d926167490b","ios":"levelo://app?vid=6f5aafc4-06b9-4dba-b612-5d926167490b"},"vehicle_type_id":"4","last_reported":1733753390,"current_range_meters":1200,"station_id":"ce4bhs12rcd13ifvqhvg","pricing_plan_id":"cebpf4jnsgd1na2vs0mg"},{"bike_id":"22160bcf-b862-4021-b3c9-a1e23ad98107","system_id":"levelo_inurba_marseille","lat":43.29034,"lon":5.37564,"is_reserved":false,"is_disabled":false,"rental_uris":{"android":"levelo://app?vid=22160bcf-b862-4021-b3c9-a1e23ad98107","ios":"levelo://app?vid=22160bcf-b862-4021-b3c9-a1e23ad98107"},"vehicle_type_id":"4","last_reported":1733753390,"current_range_meters":37600,"station_id":"ce4bh692rcd13ifvqe90","pricing_plan_id":"cebpf4jnsgd1na2vs0mg"},{"bike_id":"1a572d35-d484-45c0-8bc4-913107598312","system_id":"levelo_inurba_marseille","lat":43.27374,"lon":5.36259,"is_reserved":false,"is_disabled":false,"rental_uris":{"android":"levelo://app?vid=1a572d35-d484-45c0-8bc4-913107598312","ios":"levelo://app?vid=1a572d35-d484-45c0-8bc4-913107598312"},"vehicle_type_id":"4","last_reported":1733753390,"current_range_meters":28400,"station_id":"ce4bhbh2rcd13ifvqeo0","pricing_plan_id":"cebpf4jnsgd1na2vs0mg"},{"bike_id":"92653492-ada4-45a9-b1f3-db3e9f56e030","system_id":"levelo_inurba_marseille","lat":43.28939,"lon":5.39628,"is_reserved":false,"is_disabled":false,"rental_uris":{"android":"levelo://app?vid=92653492-ada4-45a9-b1f3-db3e9f56e030","ios":"levelo://app?vid=92653492-ada4-45a9-b1f3-db3e9f56e030"},"vehicle_type_id":"4","last_reported":1733753390,"current_range_meters":24400,"station_id":"ce4bh3h2rcd13ifvqdn0","pricing_plan_id":"cebpf4jnsgd1na2vs0mg"},{"bike_id":"74ddbdc3-b082-4f44-a075-38dfc2e6b2cd","system_id":"levelo_inurba_marseille","lat":43.24163,"lon":5.36399,"is_reserved":false,"is_disabled":false,"rental_uris":{"android":"levelo://app?vid=74ddbdc3-b082-4f44-a075-38dfc2e6b2cd","ios":"levelo://app?vid=74ddbdc3-b082-4f44-a075-38dfc2e6b2cd"},"vehicle_type_id":"4","last_reported":1733753390,"current_range_meters":27200,"station_id":"cpo36qri1sfpv3e86is0","pricing_plan_id":"cebpf4jnsgd1na2vs0mg"},{"bike_id":"e58488bd-b394-4435-97b8-f31619153217","system_id":"levelo_inurba_marseille","lat":43.2972,"lon":5.37694,"is_reserved":false,"is_disabled":false,"rental_uris":{"android":"levelo://app?vid=e58488bd-b394-4435-97b8-f31619153217","ios":"levelo://app?vid=e58488bd-b394-4435-97b8-f31619153217"},"vehicle_type_id":"4","last_reported":1733753390,"current_range_meters":10800,"station_id":"ce4bgkh2rcd13ifvqbl0","pricing_plan_id":"cebpf4jnsgd1na2vs0mg"},{"bike_id":"f942e722-5039-4601-9971-0207b150598d","system_id":"levelo_inurba_marseille","lat":43.29854,"lon":5.36294,"is_reserved":false,"is_disabled":false,"rental_uris":{"android":"levelo://app?vid=f942e722-5039-4601-9971-0207b150598d","ios":"levelo://app?vid=f942e722-5039-4601-9971-0207b150598d"},"vehicle_type_id":"4","last_reported":1733753390,"current_range_meters":18800,"station_id":"ce4bgpp2rcd13ifvqc3g","pricing_plan_id":"cebpf4jnsgd1na2vs0mg"},{"bike_id":"9cd79aab-6f4c-4919-b570-803a9e8b35c5","system_id":"levelo_inurba_marseille","lat":43.3047,"lon":5.36712,"is_reserved":false,"is_disabled":true,"rental_uris":{"android":"levelo://app?vid=9cd79aab-6f4c-4919-b570-803a9e8b35c5","ios":"levelo://app?vid=9cd79aab-6f4c-4919-b570-803a9e8b35c5"},"vehicle_type_id":"4","last_reported":1733753390,"current_range_meters":27600,"station_id":"","pricing_plan_id":"cebpf4jnsgd1na2vs0mg"},{"bike_id":"da5ceef1-8c6b-44ee-9a26-8deac252420c","system_id":"levelo_inurba_marseille","lat":43.27871,"lon":5.38752,"is_reserved":false,"is_disabled":false,"rental_uris":{"android":"levelo://app?vid=da5ceef1-8c6b-44ee-9a26-8deac252420c","ios":"levelo://app?vid=da5ceef1-8c6b-44ee-9a26-8deac252420c"},"vehicle_type_id":"4","last_reported":1733753390,"current_range_meters":36800,"station_id":"","pricing_plan_id":"cebpf4jnsgd1na2vs0mg"},{"bike_id":"4a74c10f-6658-453e-959b-726fe1311d20","system_id":"levelo_inurba_marseille","lat":43.30186,"lon":5.37418,"is_reserved":false,"is_disabled":false,"rental_uris":{"android":"levelo://app?vid=4a74c10f-6658-453e-959b-726fe1311d20","ios":"levelo://app?vid=4a74c10f-6658-453e-959b-726fe1311d20"},"vehicle_type_id":"4","last_reported":1733753390,"current_range_meters":38400,"station_id":"ce4bgs92rcd13ifvqcc0","pricing_plan_id":"cebpf4jnsgd1na2vs0mg"},{"bike_id":"cf80ef54-0b0f-4dfe-80d1-0c382470e0e9","system_id":"levelo_inurba_marseille","lat":43.250775,"lon":5.395393,"is_reserved":false,"is_disabled":false,"rental_uris":{"android":"levelo://app?vid=cf80ef54-0b0f-4dfe-80d1-0c382470e0e9","ios":"levelo://app?vid=cf80ef54-0b0f-4dfe-80d1-0c382470e0e9"},"vehicle_type_id":"4","last_reported":1733753390,"current_range_meters":18800,"station_id":"","pricing_plan_id":"cebpf4jnsgd1na2vs0mg"},{"bike_id":"165d3311-a977-4745-b689-5e6993d37f26","system_id":"levelo_inurba_marseille","lat":43.32473,"lon":5.36591,"is_reserved":false,"is_disabled":false,"rental_uris":{"android":"levelo://app?vid=165d3311-a977-4745-b689-5e6993d37f26","ios":"levelo://app?vid=165d3311-a977-4745-b689-5e6993d37f26"},"vehicle_type_id":"4","last_reported":1733753390,"current_range_meters":38800,"station_id":"ce4bhs12rcd13ifvqhvg","pricing_plan_id":"cebpf4jnsgd1na2vs0mg"},{"bike_id":"46010d90-dde3-4883-8f93-a37adb0c7913","system_id":"levelo_inurba_marseille","lat":43.31357,"lon":5.36713,"is_reserved":false,"is_disabled":false,"rental_uris":{"android":"levelo://app?vid=46010d90-dde3-4883-8f93-a37adb0c7913","ios":"levelo://app?vid=46010d90-dde3-4883-8f93-a37adb0c7913"},"vehicle_type_id":"4","last_reported":1733753390,"current_range_meters":38000,"station_id":"ce4bgr92rcd13ifvqc6g","pricing_plan_id":"cebpf4jnsgd1na2vs0mg"},{"bike_id":"b78769f1-963e-4f9b-8dba-4c1b6d2ce99a","system_id":"levelo_inurba_marseille","lat":43.28153,"lon":5.42654,"is_reserved":false,"is_disabled":false,"rental_uris":{"android":"levelo://app?vid=b78769f1-963e-4f9b-8dba-4c1b6d2ce99a","ios":"levelo://app?vid=b78769f1-963e-4f9b-8dba-4c1b6d2ce99a"},"vehicle_type_id":"4","last_reported":1733753390,"current_range_meters":38800,"station_id":"ce4bhnh2rcd13ifvqgug","pricing_plan_id":"cebpf4jnsgd1na2vs0mg"},{"bike_id":"11e86528-eb6b-4391-86a5-9b1822d069a4","system_id":"levelo_inurba_marseille","lat":43.278805,"lon":5.388003,"is_reserved":false,"is_disabled":true,"rental_uris":{"android":"levelo://app?vid=11e86528-eb6b-4391-86a5-9b1822d069a4","ios":"levelo://app?vid=11e86528-eb6b-4391-86a5-9b1822d069a4"},"vehicle_type_id":"4","last_reported":1733753390,"current_range_meters":0,"station_id":"","pricing_plan_id":"cebpf4jnsgd1na2vs0mg"},{"bike_id":"6cc6805f-c0ca-4585-bdf1-b5a0339762b0","system_id":"levelo_inurba_marseille","lat":43.29027,"lon":5.42744,"is_reserved":false,"is_disabled":true,"rental_uris":{"android":"levelo://app?vid=6cc6805f-c0ca-4585-bdf1-b5a0339762b0","ios":"levelo://app?vid=6cc6805f-c0ca-4585-bdf1-b5a0339762b0"},"vehicle_type_id":"4","last_reported":1733753390,"current_range_meters":0,"station_id":"","pricing_plan_id":"cebpf4jnsgd1na2vs0mg"},{"bike_id":"a478bcff-2af8-4db5-8351-cdbe6b849a6d","system_id":"levelo_inurba_marseille","lat":43.3342,"lon":5.3621,"is_reserved":false,"is_disabled":true,"rental_uris":{"android":"levelo://app?vid=a478bcff-2af8-4db5-8351-cdbe6b849a6d","ios":"levelo://app?vid=a478bcff-2af8-4db5-8351-cdbe6b849a6d"},"vehicle_type_id":"4","last_reported":1733753390,"current_range_meters":0,"station_id":"","pricing_plan_id":"cebpf4jnsgd1na2vs0mg"},{"bike_id":"9f03dca4-237a-49dc-8f4b-3b6a07909c99","system_id":"levelo_inurba_marseille","lat":43.23196,"lon":5.35557,"is_reserved":false,"is_disabled":false,"rental_uris":{"android":"levelo://app?vid=9f03dca4-237a-49dc-8f4b-3b6a07909c99","ios":"levelo://app?vid=9f03dca4-237a-49dc-8f4b-3b6a07909c99"},"vehicle_type_id":"4","last_reported":1733753390,"current_range_meters":8400,"station_id":"ce4bhu92rcd13ifvqi70","pricing_plan_id":"cebpf4jnsgd1na2vs0mg"},{"bike_id":"b6fcd388-ab74-408f-9e17-a2445b649a56","system_id":"levelo_inurba_marseille","lat":43.284546,"lon":5.358919,"is_reserved":false,"is_disabled":false,"rental_uris":{"android":"levelo://app?vid=b6fcd388-ab74-408f-9e17-a2445b649a56","ios":"levelo://app?vid=b6fcd388-ab74-408f-9e17-a2445b649a56"},"vehicle_type_id":"4","last_reported":1733753390,"current_range_meters":23200,"station_id":"ce4bhah2rcd13ifvqei0","pricing_plan_id":"cebpf4jnsgd1na2vs0mg"},{"bike_id":"649f555a-b9f9-4a5d-a761-afe77d25b4ef","system_id":"levelo_inurba_marseille","lat":43.28044,"lon":5.36944,"is_reserved":false,"is_disabled":false,"rental_uris":{"android":"levelo://app?vid=649f555a-b9f9-4a5d-a761-afe77d25b4ef","ios":"levelo://app?vid=649f555a-b9f9-4a5d-a761-afe77d25b4ef"},"vehicle_type_id":"4","last_reported":1733753390,"current_range_meters":28000,"station_id":"ce4bha12rcd13ifvqef0","pricing_plan_id":"cebpf4jnsgd1na2vs0mg"},{"bike_id":"ba13d1e7-d96a-44f5-add2-9da5187e1d65","system_id":"levelo_inurba_marseille","lat":43.29525,"lon":5.37508,"is_reserved":false,"is_disabled":false,"rental_uris":{"android":"levelo://app?vid=ba13d1e7-d96a-44f5-add2-9da5187e1d65","ios":"levelo://app?vid=ba13d1e7-d96a-44f5-add2-9da5187e1d65"},"vehicle_type_id":"4","last_reported":1733753390,"current_range_meters":36800,"station_id":"ce4bgkp2rcd13ifvqbmg","pricing_plan_id":"cebpf4jnsgd1na2vs0mg"},{"bike_id":"1c7d0032-a32c-4438-b1d4-2f3714d2b0e9","system_id":"levelo_inurba_marseille","lat":43.260341,"lon":5.37552,"is_reserved":false,"is_disabled":false,"rental_uris":{"android":"levelo://app?vid=1c7d0032-a32c-4438-b1d4-2f3714d2b0e9","ios":"levelo://app?vid=1c7d0032-a32c-4438-b1d4-2f3714d2b0e9"},"vehicle_type_id":"4","last_reported":1733753390,"current_range_meters":6400,"station_id":"ce4bhgh2rcd13ifvqfa0","pricing_plan_id":"cebpf4jnsgd1na2vs0mg"},{"bike_id":"befb9f85-2c28-414d-9781-8f603cbb208b","system_id":"levelo_inurba_marseille","lat":43.303,"lon":5.36886,"is_reserved":false,"is_disabled":false,"rental_uris":{"android":"levelo://app?vid=befb9f85-2c28-414d-9781-8f603cbb208b","ios":"levelo://app?vid=befb9f85-2c28-414d-9781-8f603cbb208b"},"vehicle_type_id":"4","last_reported":1733753390,"current_range_meters":38800,"station_id":"ce4bgqh2rcd13ifvqc5g","pricing_plan_id":"cebpf4jnsgd1na2vs0mg"},{"bike_id":"cf995f0f-a2d6-4303-85db-6d52c33aec36","system_id":"levelo_inurba_marseille","lat":43.33026,"lon":5.39042,"is_reserved":false,"is_disabled":false,"rental_uris":{"android":"levelo://app?vid=cf995f0f-a2d6-4303-85db-6d52c33aec36","ios":"levelo://app?vid=cf995f0f-a2d6-4303-85db-6d52c33aec36"},"vehicle_type_id":"4","last_reported":1733753390,"current_range_meters":38800,"station_id":"ce4bhr92rcd13ifvqhrg","pricing_plan_id":"cebpf4jnsgd1na2vs0mg"},{"bike_id":"cbf9c981-cbe9-407f-b4c6-5d2065d44b78","system_id":"levelo_inurba_marseille","lat":43.33025,"lon":5.39046,"is_reserved":false,"is_disabled":false,"rental_uris":{"android":"levelo://app?vid=cbf9c981-cbe9-407f-b4c6-5d2065d44b78","ios":"levelo://app?vid=cbf9c981-cbe9-407f-b4c6-5d2065d44b78"},"vehicle_type_id":"4","last_reported":1733753390,"current_range_meters":24400,"station_id":"ce4bhr92rcd13ifvqhrg","pricing_plan_id":"cebpf4jnsgd1na2vs0mg"},{"bike_id":"e301fb9b-fdcc-43a0-ab66-d6957eaeb5ee","system_id":"levelo_inurba_marseille","lat":43.23148,"lon":5.43721,"is_reserved":false,"is_disabled":false,"rental_uris":{"android":"levelo://app?vid=e301fb9b-fdcc-43a0-ab66-d6957eaeb5ee","ios":"levelo://app?vid=e301fb9b-fdcc-43a0-ab66-d6957eaeb5ee"},"vehicle_type_id":"4","last_reported":1733753390,"current_range_meters":38800,"station_id":"ce4bhmp2rcd13ifvqgog","pricing_plan_id":"cebpf4jnsgd1na2vs0mg"},{"bike_id":"243c0fa9-fb27-4111-81f0-175e30eaaaed","system_id":"levelo_inurba_marseille","lat":43.29037,"lon":5.35926,"is_reserved":false,"is_disabled":true,"rental_uris":{"android":"levelo://app?vid=243c0fa9-fb27-4111-81f0-175e30eaaaed","ios":"levelo://app?vid=243c0fa9-fb27-4111-81f0-175e30eaaaed"},"vehicle_type_id":"4","last_reported":1733753390,"current_range_meters":38000,"station_id":"ce4bha92rcd13ifvqeg0","pricing_plan_id":"cebpf4jnsgd1na2vs0mg"},{"bike_id":"694a11d2-22af-4733-b9d2-1fc27738de9f","system_id":"levelo_inurba_marseille","lat":43.31348,"lon":5.36729,"is_reserved":false,"is_disabled":false,"rental_uris":{"android":"levelo://app?vid=694a11d2-22af-4733-b9d2-1fc27738de9f","ios":"levelo://app?vid=694a11d2-22af-4733-b9d2-1fc27738de9f"},"vehicle_type_id":"4","last_reported":1733753390,"current_range_meters":34000,"station_id":"ce4bgr92rcd13ifvqc6g","pricing_plan_id":"cebpf4jnsgd1na2vs0mg"},{"bike_id":"a873af9b-a353-4469-b239-adbb5bf5dc0d","system_id":"levelo_inurba_marseille","lat":43.25864,"lon":5.39905,"is_reserved":false,"is_disabled":false,"rental_uris":{"android":"levelo://app?vid=a873af9b-a353-4469-b239-adbb5bf5dc0d","ios":"levelo://app?vid=a873af9b-a353-4469-b239-adbb5bf5dc0d"},"vehicle_type_id":"4","last_reported":1733753390,"current_range_meters":38800,"station_id":"ce4bhl92rcd13ifvqghg","pricing_plan_id":"cebpf4jnsgd1na2vs0mg"},{"bike_id":"95b68163-8c31-4ce4-989b-0d594a1f53e9","system_id":"levelo_inurba_marseille","lat":43.29688,"lon":5.37237,"is_reserved":false,"is_disabled":false,"rental_uris":{"android":"levelo://app?vid=95b68163-8c31-4ce4-989b-0d594a1f53e9","ios":"levelo://app?vid=95b68163-8c31-4ce4-989b-0d594a1f53e9"},"vehicle_type_id":"4","last_reported":1733753390,"current_range_meters":27200,"station_id":"ce4bgk12rcd13ifvqbj0","pricing_plan_id":"cebpf4jnsgd1na2vs0mg"},{"bike_id":"16d4975c-e9d3-4622-9e69-6ca21679f96a","system_id":"levelo_inurba_marseille","lat":43.24401,"lon":5.3707,"is_reserved":false,"is_disabled":false,"rental_uris":{"android":"levelo://app?vid=16d4975c-e9d3-4622-9e69-6ca21679f96a","ios":"levelo://app?vid=16d4975c-e9d3-4622-9e69-6ca21679f96a"},"vehicle_type_id":"4","last_reported":1733753390,"current_range_meters":39200,"station_id":"","pricing_plan_id":"cebpf4jnsgd1na2vs0mg"},{"bike_id":"85d1ba34-a6bd-4c9b-b015-6e8109e00660","system_id":"levelo_inurba_marseille","lat":43.30538,"lon":5.36544,"is_reserved":false,"is_disabled":false,"rental_uris":{"android":"levelo://app?vid=85d1ba34-a6bd-4c9b-b015-6e8109e00660","ios":"levelo://app?vid=85d1ba34-a6bd-4c9b-b015-6e8109e00660"},"vehicle_type_id":"4","last_reported":1733753390,"current_range_meters":17200,"station_id":"ce4bgs12rcd13ifvqcag","pricing_plan_id":"cebpf4jnsgd1na2vs0mg"},{"bike_id":"d8fa9091-4ff7-4827-bb6b-5137c129c53c","system_id":"levelo_inurba_marseille","lat":43.30312,"lon":5.36897,"is_reserved":false,"is_disabled":false,"rental_uris":{"android":"levelo://app?vid=d8fa9091-4ff7-4827-bb6b-5137c129c53c","ios":"levelo://app?vid=d8fa9091-4ff7-4827-bb6b-5137c129c53c"},"vehicle_type_id":"4","last_reported":1733753390,"current_range_meters":38000,"station_id":"ce4bgqh2rcd13ifvqc5g","pricing_plan_id":"cebpf4jnsgd1na2vs0mg"},{"bike_id":"2831b09f-9a34-4459-adba-573279e426ca","system_id":"levelo_inurba_marseille","lat":43.28157,"lon":5.42638,"is_reserved":false,"is_disabled":false,"rental_uris":{"android":"levelo://app?vid=2831b09f-9a34-4459-adba-573279e426ca","ios":"levelo://app?vid=2831b09f-9a34-4459-adba-573279e426ca"},"vehicle_type_id":"4","last_reported":1733753390,"current_range_meters":39200,"station_id":"ce4bhnh2rcd13ifvqgug","pricing_plan_id":"cebpf4jnsgd1na2vs0mg"},{"bike_id":"8a3b90a9-b1cc-4628-83f4-2f9e628eccda","system_id":"levelo_inurba_marseille","lat":43.33025,"lon":5.39034,"is_reserved":false,"is_disabled":false,"rental_uris":{"android":"levelo://app?vid=8a3b90a9-b1cc-4628-83f4-2f9e628eccda","ios":"levelo://app?vid=8a3b90a9-b1cc-4628-83f4-2f9e628eccda"},"vehicle_type_id":"4","last_reported":1733753390,"current_range_meters":38800,"station_id":"ce4bhr92rcd13ifvqhrg","pricing_plan_id":"cebpf4jnsgd1na2vs0mg"},{"bike_id":"2e14ff18-3a06-4388-ad18-1e3f20ce59bb","system_id":"levelo_inurba_marseille","lat":43.30548,"lon":5.3654,"is_reserved":false,"is_disabled":false,"rental_uris":{"android":"levelo://app?vid=2e14ff18-3a06-4388-ad18-1e3f20ce59bb","ios":"levelo://app?vid=2e14ff18-3a06-4388-ad18-1e3f20ce59bb"},"vehicle_type_id":"4","last_reported":1733753390,"current_range_meters":24400,"station_id":"ce4bgs12rcd13ifvqcag","pricing_plan_id":"cebpf4jnsgd1na2vs0mg"},{"bike_id":"10675232-21d2-4165-bbce-3ef5ec5d336d","system_id":"levelo_inurba_marseille","lat":43.28716,"lon":5.37953,"is_reserved":false,"is_disabled":false,"rental_uris":{"android":"levelo://app?vid=10675232-21d2-4165-bbce-3ef5ec5d336d","ios":"levelo://app?vid=10675232-21d2-4165-bbce-3ef5ec5d336d"},"vehicle_type_id":"4","last_reported":1733753390,"current_range_meters":32000,"station_id":"ce4bh9p2rcd13ifvqec0","pricing_plan_id":"cebpf4jnsgd1na2vs0mg"},{"bike_id":"51851808-aee3-4ca6-a2a1-e8308ef8a83a","system_id":"levelo_inurba_marseille","lat":43.24174,"lon":5.39727,"is_reserved":false,"is_disabled":false,"rental_uris":{"android":"levelo://app?vid=51851808-aee3-4ca6-a2a1-e8308ef8a83a","ios":"levelo://app?vid=51851808-aee3-4ca6-a2a1-e8308ef8a83a"},"vehicle_type_id":"4","last_reported":1733753390,"current_range_meters":38800,"station_id":"ce4bhn12rcd13ifvqgpg","pricing_plan_id":"cebpf4jnsgd1na2vs0mg"},{"bike_id":"58d3480e-9a25-4142-9952-995aac0b5e71","system_id":"levelo_inurba_marseille","lat":43.30549,"lon":5.36548,"is_reserved":false,"is_disabled":false,"rental_uris":{"android":"levelo://app?vid=58d3480e-9a25-4142-9952-995aac0b5e71","ios":"levelo://app?vid=58d3480e-9a25-4142-9952-995aac0b5e71"},"vehicle_type_id":"4","last_reported":1733753390,"current_range_meters":39200,"station_id":"ce4bgs12rcd13ifvqcag","pricing_plan_id":"cebpf4jnsgd1na2vs0mg"},{"bike_id":"067d4f8e-eded-4040-9b89-eb14aebc4852","system_id":"levelo_inurba_marseille","lat":43.29899,"lon":5.43675,"is_reserved":false,"is_disabled":false,"rental_uris":{"android":"levelo://app?vid=067d4f8e-eded-4040-9b89-eb14aebc4852","ios":"levelo://app?vid=067d4f8e-eded-4040-9b89-eb14aebc4852"},"vehicle_type_id":"4","last_reported":1733753390,"current_range_meters":37600,"station_id":"ce4bhpp2rcd13ifvqhfg","pricing_plan_id":"cebpf4jnsgd1na2vs0mg"},{"bike_id":"bcc4b2b2-49d9-45f1-9f29-e05e097e6ff2","system_id":"levelo_inurba_marseille","lat":43.26029,"lon":5.37552,"is_reserved":false,"is_disabled":false,"rental_uris":{"android":"levelo://app?vid=bcc4b2b2-49d9-45f1-9f29-e05e097e6ff2","ios":"levelo://app?vid=bcc4b2b2-49d9-45f1-9f29-e05e097e6ff2"},"vehicle_type_id":"4","last_reported":1733753390,"current_range_meters":37600,"station_id":"ce4bhgh2rcd13ifvqfa0","pricing_plan_id":"cebpf4jnsgd1na2vs0mg"},{"bike_id":"9f3769a7-f392-475e-913a-8ad10d3e2daf","system_id":"levelo_inurba_marseille","lat":43.24167,"lon":5.36396,"is_reserved":false,"is_disabled":false,"rental_uris":{"android":"levelo://app?vid=9f3769a7-f392-475e-913a-8ad10d3e2daf","ios":"levelo://app?vid=9f3769a7-f392-475e-913a-8ad10d3e2daf"},"vehicle_type_id":"4","last_reported":1733753390,"current_range_meters":21600,"station_id":"cpo36qri1sfpv3e86is0","pricing_plan_id":"cebpf4jnsgd1na2vs0mg"},{"bike_id":"6e6bde56-7091-4f40-b8dd-8d4388c89763","system_id":"levelo_inurba_marseille","lat":43.28455,"lon":5.35886,"is_reserved":false,"is_disabled":false,"rental_uris":{"android":"levelo://app?vid=6e6bde56-7091-4f40-b8dd-8d4388c89763","ios":"levelo://app?vid=6e6bde56-7091-4f40-b8dd-8d4388c89763"},"vehicle_type_id":"4","last_reported":1733753390,"current_range_meters":4000,"station_id":"ce4bhah2rcd13ifvqei0","pricing_plan_id":"cebpf4jnsgd1na2vs0mg"},{"bike_id":"71a951ce-2d92-4a7b-8d01-ded46b5eb111","system_id":"levelo_inurba_marseille","lat":43.30336,"lon":5.40308,"is_reserved":false,"is_disabled":false,"rental_uris":{"android":"levelo://app?vid=71a951ce-2d92-4a7b-8d01-ded46b5eb111","ios":"levelo://app?vid=71a951ce-2d92-4a7b-8d01-ded46b5eb111"},"vehicle_type_id":"4","last_reported":1733753390,"current_range_meters":38800,"station_id":"ce4bh012rcd13ifvqd10","pricing_plan_id":"cebpf4jnsgd1na2vs0mg"},{"bike_id":"e9a500fe-3355-4ecd-b717-e98ab3f32924","system_id":"levelo_inurba_marseille","lat":43.2978,"lon":5.37108,"is_reserved":false,"is_disabled":false,"rental_uris":{"android":"levelo://app?vid=e9a500fe-3355-4ecd-b717-e98ab3f32924","ios":"levelo://app?vid=e9a500fe-3355-4ecd-b717-e98ab3f32924"},"vehicle_type_id":"4","last_reported":1733753390,"current_range_meters":21600,"station_id":"ce4bgop2rcd13ifvqc1g","pricing_plan_id":"cebpf4jnsgd1na2vs0mg"},{"bike_id":"69aa3a0a-5721-46c5-9758-98476b5fa0cc","system_id":"levelo_inurba_marseille","lat":43.32485,"lon":5.36563,"is_reserved":false,"is_disabled":false,"rental_uris":{"android":"levelo://app?vid=69aa3a0a-5721-46c5-9758-98476b5fa0cc","ios":"levelo://app?vid=69aa3a0a-5721-46c5-9758-98476b5fa0cc"},"vehicle_type_id":"4","last_reported":1733753390,"current_range_meters":22000,"station_id":"ce4bhs12rcd13ifvqhvg","pricing_plan_id":"cebpf4jnsgd1na2vs0mg"},{"bike_id":"58254381-de68-43ff-a19b-6bd150187658","system_id":"levelo_inurba_marseille","lat":43.30151,"lon":5.38102,"is_reserved":false,"is_disabled":false,"rental_uris":{"android":"levelo://app?vid=58254381-de68-43ff-a19b-6bd150187658","ios":"levelo://app?vid=58254381-de68-43ff-a19b-6bd150187658"},"vehicle_type_id":"4","last_reported":1733753390,"current_range_meters":14000,"station_id":"ce4bgjp2rcd13ifvqbh0","pricing_plan_id":"cebpf4jnsgd1na2vs0mg"},{"bike_id":"14431827-4b2d-42d3-89e4-ad1e903510ec","system_id":"levelo_inurba_marseille","lat":43.30539,"lon":5.36568,"is_reserved":false,"is_disabled":false,"rental_uris":{"android":"levelo://app?vid=14431827-4b2d-42d3-89e4-ad1e903510ec","ios":"levelo://app?vid=14431827-4b2d-42d3-89e4-ad1e903510ec"},"vehicle_type_id":"4","last_reported":1733753390,"current_range_meters":27600,"station_id":"ce4bgs12rcd13ifvqcag","pricing_plan_id":"cebpf4jnsgd1na2vs0mg"},{"bike_id":"456ee3e2-7425-4120-bc59-2e964fa693a8","system_id":"levelo_inurba_marseille","lat":43.24388,"lon":5.37066,"is_reserved":false,"is_disabled":false,"rental_uris":{"android":"levelo://app?vid=456ee3e2-7425-4120-bc59-2e964fa693a8","ios":"levelo://app?vid=456ee3e2-7425-4120-bc59-2e964fa693a8"},"vehicle_type_id":"4","last_reported":1733753390,"current_range_meters":39200,"station_id":"ce4bhhh2rcd13ifvqfk0","pricing_plan_id":"cebpf4jnsgd1na2vs0mg"},{"bike_id":"4f7be149-818b-45b3-9c9e-d655ff970dcc","system_id":"levelo_inurba_marseille","lat":43.3189,"lon":5.40741,"is_reserved":false,"is_disabled":false,"rental_uris":{"android":"levelo://app?vid=4f7be149-818b-45b3-9c9e-d655ff970dcc","ios":"levelo://app?vid=4f7be149-818b-45b3-9c9e-d655ff970dcc"},"vehicle_type_id":"4","last_reported":1733753390,"current_range_meters":36400,"station_id":"ce4bhq12rcd13ifvqhig","pricing_plan_id":"cebpf4jnsgd1na2vs0mg"},{"bike_id":"dd752027-199c-4884-b13c-712908e512e0","system_id":"levelo_inurba_marseille","lat":43.30538,"lon":5.36528,"is_reserved":false,"is_disabled":false,"rental_uris":{"android":"levelo://app?vid=dd752027-199c-4884-b13c-712908e512e0","ios":"levelo://app?vid=dd752027-199c-4884-b13c-712908e512e0"},"vehicle_type_id":"4","last_reported":1733753390,"current_range_meters":23200,"station_id":"ce4bgs12rcd13ifvqcag","pricing_plan_id":"cebpf4jnsgd1na2vs0mg"},{"bike_id":"2d98b074-f53a-4de1-9e8a-7415132d0488","system_id":"levelo_inurba_marseille","lat":43.2903,"lon":5.37563,"is_reserved":false,"is_disabled":false,"rental_uris":{"android":"levelo://app?vid=2d98b074-f53a-4de1-9e8a-7415132d0488","ios":"levelo://app?vid=2d98b074-f53a-4de1-9e8a-7415132d0488"},"vehicle_type_id":"4","last_reported":1733753390,"current_range_meters":16000,"station_id":"ce4bh692rcd13ifvqe90","pricing_plan_id":"cebpf4jnsgd1na2vs0mg"},{"bike_id":"25a20b03-9830-4773-bc6b-d425633d2c5c","system_id":"levelo_inurba_marseille","lat":43.24767,"lon":5.40032,"is_reserved":false,"is_disabled":true,"rental_uris":{"android":"levelo://app?vid=25a20b03-9830-4773-bc6b-d425633d2c5c","ios":"levelo://app?vid=25a20b03-9830-4773-bc6b-d425633d2c5c"},"vehicle_type_id":"4","last_reported":1733753390,"current_range_meters":0,"station_id":"","pricing_plan_id":"cebpf4jnsgd1na2vs0mg"},{"bike_id":"ff4d4df8-8594-4023-95bb-7ada819d62d3","system_id":"levelo_inurba_marseille","lat":43.29842,"lon":5.36268,"is_reserved":false,"is_disabled":false,"rental_uris":{"android":"levelo://app?vid=ff4d4df8-8594-4023-95bb-7ada819d62d3","ios":"levelo://app?vid=ff4d4df8-8594-4023-95bb-7ada819d62d3"},"vehicle_type_id":"4","last_reported":1733753390,"current_range_meters":30800,"station_id":"ce4bgpp2rcd13ifvqc3g","pricing_plan_id":"cebpf4jnsgd1na2vs0mg"},{"bike_id":"9a330ab8-7ce7-43da-b9a6-c36406b73ac0","system_id":"levelo_inurba_marseille","lat":43.29966,"lon":5.38498,"is_reserved":false,"is_disabled":false,"rental_uris":{"android":"levelo://app?vid=9a330ab8-7ce7-43da-b9a6-c36406b73ac0","ios":"levelo://app?vid=9a330ab8-7ce7-43da-b9a6-c36406b73ac0"},"vehicle_type_id":"4","last_reported":1733753390,"current_range_meters":26800,"station_id":"ce4bgj92rcd13ifvqbd0","pricing_plan_id":"cebpf4jnsgd1na2vs0mg"},{"bike_id":"0cf65f96-a008-4027-8474-eeec79f9a6f9","system_id":"levelo_inurba_marseille","lat":43.30194,"lon":5.36622,"is_reserved":false,"is_disabled":false,"rental_uris":{"android":"levelo://app?vid=0cf65f96-a008-4027-8474-eeec79f9a6f9","ios":"levelo://app?vid=0cf65f96-a008-4027-8474-eeec79f9a6f9"},"vehicle_type_id":"4","last_reported":1733753390,"current_range_meters":38800,"station_id":"ce4bgrh2rcd13ifvqc8g","pricing_plan_id":"cebpf4jnsgd1na2vs0mg"},{"bike_id":"b497ad4d-1643-419c-aba6-8e8a5474d77a","system_id":"levelo_inurba_marseille","lat":43.29897,"lon":5.4367,"is_reserved":false,"is_disabled":false,"rental_uris":{"android":"levelo://app?vid=b497ad4d-1643-419c-aba6-8e8a5474d77a","ios":"levelo://app?vid=b497ad4d-1643-419c-aba6-8e8a5474d77a"},"vehicle_type_id":"4","last_reported":1733753390,"current_range_meters":38800,"station_id":"ce4bhpp2rcd13ifvqhfg","pricing_plan_id":"cebpf4jnsgd1na2vs0mg"},{"bike_id":"e70de448-ab7e-4114-a786-19b9831c2c9b","system_id":"levelo_inurba_marseille","lat":43.23151,"lon":5.43718,"is_reserved":false,"is_disabled":false,"rental_uris":{"android":"levelo://app?vid=e70de448-ab7e-4114-a786-19b9831c2c9b","ios":"levelo://app?vid=e70de448-ab7e-4114-a786-19b9831c2c9b"},"vehicle_type_id":"4","last_reported":1733753390,"current_range_meters":4000,"station_id":"ce4bhmp2rcd13ifvqgog","pricing_plan_id":"cebpf4jnsgd1na2vs0mg"},{"bike_id":"6c3f8475-800c-4a7d-8020-cca21e4fbb90","system_id":"levelo_inurba_marseille","lat":43.30261,"lon":5.37724,"is_reserved":false,"is_disabled":false,"rental_uris":{"android":"levelo://app?vid=6c3f8475-800c-4a7d-8020-cca21e4fbb90","ios":"levelo://app?vid=6c3f8475-800c-4a7d-8020-cca21e4fbb90"},"vehicle_type_id":"4","last_reported":1733753390,"current_range_meters":8000,"station_id":"ce4bguh2rcd13ifvqcj0","pricing_plan_id":"cebpf4jnsgd1na2vs0mg"},{"bike_id":"8cd4149f-756b-4a7e-908c-fb8839696c4b","system_id":"levelo_inurba_marseille","lat":43.27068,"lon":5.42287,"is_reserved":false,"is_disabled":false,"rental_uris":{"android":"levelo://app?vid=8cd4149f-756b-4a7e-908c-fb8839696c4b","ios":"levelo://app?vid=8cd4149f-756b-4a7e-908c-fb8839696c4b"},"vehicle_type_id":"4","last_reported":1733753390,"current_range_meters":33200,"station_id":"ce4bhk92rcd13ifvqgb0","pricing_plan_id":"cebpf4jnsgd1na2vs0mg"},{"bike_id":"32389338-5494-4add-865d-3982018eb560","system_id":"levelo_inurba_marseille","lat":43.29934,"lon":5.36559,"is_reserved":false,"is_disabled":false,"rental_uris":{"android":"levelo://app?vid=32389338-5494-4add-865d-3982018eb560","ios":"levelo://app?vid=32389338-5494-4add-865d-3982018eb560"},"vehicle_type_id":"4","last_reported":1733753390,"current_range_meters":9600,"station_id":"ce4bgm92rcd13ifvqbr0","pricing_plan_id":"cebpf4jnsgd1na2vs0mg"},{"bike_id":"c001503d-445d-451d-96ee-27a6adac4432","system_id":"levelo_inurba_marseille","lat":43.30307,"lon":5.36914,"is_reserved":false,"is_disabled":false,"rental_uris":{"android":"levelo://app?vid=c001503d-445d-451d-96ee-27a6adac4432","ios":"levelo://app?vid=c001503d-445d-451d-96ee-27a6adac4432"},"vehicle_type_id":"4","last_reported":1733753390,"current_range_meters":28000,"station_id":"ce4bgqh2rcd13ifvqc5g","pricing_plan_id":"cebpf4jnsgd1na2vs0mg"},{"bike_id":"a0bc6083-92c2-46da-9b9f-ff54d5d5607b","system_id":"levelo_inurba_marseille","lat":43.24649,"lon":5.38905,"is_reserved":false,"is_disabled":false,"rental_uris":{"android":"levelo://app?vid=a0bc6083-92c2-46da-9b9f-ff54d5d5607b","ios":"levelo://app?vid=a0bc6083-92c2-46da-9b9f-ff54d5d5607b"},"vehicle_type_id":"4","last_reported":1733753390,"current_range_meters":38800,"station_id":"ce4bhg12rcd13ifvqf60","pricing_plan_id":"cebpf4jnsgd1na2vs0mg"},{"bike_id":"4a02a464-9adc-46b0-9d64-b4215841426c","system_id":"levelo_inurba_marseille","lat":43.313595,"lon":5.384917,"is_reserved":false,"is_disabled":false,"rental_uris":{"android":"levelo://app?vid=4a02a464-9adc-46b0-9d64-b4215841426c","ios":"levelo://app?vid=4a02a464-9adc-46b0-9d64-b4215841426c"},"vehicle_type_id":"4","last_reported":1733753390,"current_range_meters":36400,"station_id":"ce4bgt92rcd13ifvqcf0","pricing_plan_id":"cebpf4jnsgd1na2vs0mg"},{"bike_id":"e3650a39-7faf-4bef-874a-053482a93766","system_id":"levelo_inurba_marseille","lat":43.29716,"lon":5.3769,"is_reserved":false,"is_disabled":true,"rental_uris":{"android":"levelo://app?vid=e3650a39-7faf-4bef-874a-053482a93766","ios":"levelo://app?vid=e3650a39-7faf-4bef-874a-053482a93766"},"vehicle_type_id":"4","last_reported":1733753390,"current_range_meters":31200,"station_id":"ce4bgkh2rcd13ifvqbl0","pricing_plan_id":"cebpf4jnsgd1na2vs0mg"},{"bike_id":"ac62c938-f3c0-424f-becf-4024fa83d194","system_id":"levelo_inurba_marseille","lat":43.30908,"lon":5.36849,"is_reserved":false,"is_disabled":false,"rental_uris":{"android":"levelo://app?vid=ac62c938-f3c0-424f-becf-4024fa83d194","ios":"levelo://app?vid=ac62c938-f3c0-424f-becf-4024fa83d194"},"vehicle_type_id":"4","last_reported":1733753390,"current_range_meters":38800,"station_id":"ce4bgn92rcd13ifvqbvg","pricing_plan_id":"cebpf4jnsgd1na2vs0mg"},{"bike_id":"e652bd0e-f25c-4f49-88d2-3023d62cd5aa","system_id":"levelo_inurba_marseille","lat":43.295892,"lon":5.37506,"is_reserved":false,"is_disabled":true,"rental_uris":{"android":"levelo://app?vid=e652bd0e-f25c-4f49-88d2-3023d62cd5aa","ios":"levelo://app?vid=e652bd0e-f25c-4f49-88d2-3023d62cd5aa"},"vehicle_type_id":"4","last_reported":1733753390,"current_range_meters":0,"station_id":"","pricing_plan_id":"cebpf4jnsgd1na2vs0mg"},{"bike_id":"fe5707ac-071f-4824-98b8-d6b028bc38f8","system_id":"levelo_inurba_marseille","lat":43.25868,"lon":5.39906,"is_reserved":false,"is_disabled":false,"rental_uris":{"android":"levelo://app?vid=fe5707ac-071f-4824-98b8-d6b028bc38f8","ios":"levelo://app?vid=fe5707ac-071f-4824-98b8-d6b028bc38f8"},"vehicle_type_id":"4","last_reported":1733753390,"current_range_meters":32000,"station_id":"ce4bhl92rcd13ifvqghg","pricing_plan_id":"cebpf4jnsgd1na2vs0mg"},{"bike_id":"50f52497-54ca-47ea-a19e-1fc86f8c6045","system_id":"levelo_inurba_marseille","lat":43.28236,"lon":5.42423,"is_reserved":false,"is_disabled":true,"rental_uris":{"android":"levelo://app?vid=50f52497-54ca-47ea-a19e-1fc86f8c6045","ios":"levelo://app?vid=50f52497-54ca-47ea-a19e-1fc86f8c6045"},"vehicle_type_id":"4","last_reported":1733753390,"current_range_meters":8400,"station_id":"","pricing_plan_id":"cebpf4jnsgd1na2vs0mg"},{"bike_id":"752f0fcf-d3c3-41e2-a1e9-51894dcb343a","system_id":"levelo_inurba_marseille","lat":43.232,"lon":5.35556,"is_reserved":false,"is_disabled":false,"rental_uris":{"android":"levelo://app?vid=752f0fcf-d3c3-41e2-a1e9-51894dcb343a","ios":"levelo://app?vid=752f0fcf-d3c3-41e2-a1e9-51894dcb343a"},"vehicle_type_id":"4","last_reported":1733753390,"current_range_meters":19200,"station_id":"ce4bhu92rcd13ifvqi70","pricing_plan_id":"cebpf4jnsgd1na2vs0mg"},{"bike_id":"561f1b87-0f16-45bb-9060-6ce7723ae9e8","system_id":"levelo_inurba_marseille","lat":43.2694,"lon":5.4025,"is_reserved":false,"is_disabled":false,"rental_uris":{"android":"levelo://app?vid=561f1b87-0f16-45bb-9060-6ce7723ae9e8","ios":"levelo://app?vid=561f1b87-0f16-45bb-9060-6ce7723ae9e8"},"vehicle_type_id":"4","last_reported":1733753390,"current_range_meters":38000,"station_id":"cjm6bp8fraef2m0cb0m0","pricing_plan_id":"cebpf4jnsgd1na2vs0mg"},{"bike_id":"5fdd27f7-11e2-4d7e-a1f4-c3aea6418467","system_id":"levelo_inurba_marseille","lat":43.30304,"lon":5.36918,"is_reserved":false,"is_disabled":true,"rental_uris":{"android":"levelo://app?vid=5fdd27f7-11e2-4d7e-a1f4-c3aea6418467","ios":"levelo://app?vid=5fdd27f7-11e2-4d7e-a1f4-c3aea6418467"},"vehicle_type_id":"4","last_reported":1733753390,"current_range_meters":4000,"station_id":"ce4bgqh2rcd13ifvqc5g","pricing_plan_id":"cebpf4jnsgd1na2vs0mg"},{"bike_id":"33f1a526-a5a3-4261-b1e0-d90c46ff918d","system_id":"levelo_inurba_marseille","lat":43.28151,"lon":5.42643,"is_reserved":false,"is_disabled":true,"rental_uris":{"android":"levelo://app?vid=33f1a526-a5a3-4261-b1e0-d90c46ff918d","ios":"levelo://app?vid=33f1a526-a5a3-4261-b1e0-d90c46ff918d"},"vehicle_type_id":"4","last_reported":1733753390,"current_range_meters":21600,"station_id":"ce4bhnh2rcd13ifvqgug","pricing_plan_id":"cebpf4jnsgd1na2vs0mg"},{"bike_id":"1783fba0-70c9-4706-b656-b17a1d709bf6","system_id":"levelo_inurba_marseille","lat":43.32033,"lon":5.4157,"is_reserved":false,"is_disabled":false,"rental_uris":{"android":"levelo://app?vid=1783fba0-70c9-4706-b656-b17a1d709bf6","ios":"levelo://app?vid=1783fba0-70c9-4706-b656-b17a1d709bf6"},"vehicle_type_id":"4","last_reported":1733753390,"current_range_meters":19600,"station_id":"ce4bhq92rcd13ifvqhkg","pricing_plan_id":"cebpf4jnsgd1na2vs0mg"},{"bike_id":"0013832b-0f69-439d-8d9d-ea1055d29c18","system_id":"levelo_inurba_marseille","lat":43.24079,"lon":5.37757,"is_reserved":false,"is_disabled":false,"rental_uris":{"android":"levelo://app?vid=0013832b-0f69-439d-8d9d-ea1055d29c18","ios":"levelo://app?vid=0013832b-0f69-439d-8d9d-ea1055d29c18"},"vehicle_type_id":"4","last_reported":1733753390,"current_range_meters":32000,"station_id":"ce4bhnp2rcd13ifvqgvg","pricing_plan_id":"cebpf4jnsgd1na2vs0mg"},{"bike_id":"2bbd9296-9460-4ac7-b712-a84b7b199b4f","system_id":"levelo_inurba_marseille","lat":43.29911,"lon":5.37479,"is_reserved":false,"is_disabled":false,"rental_uris":{"android":"levelo://app?vid=2bbd9296-9460-4ac7-b712-a84b7b199b4f","ios":"levelo://app?vid=2bbd9296-9460-4ac7-b712-a84b7b199b4f"},"vehicle_type_id":"4","last_reported":1733753390,"current_range_meters":38000,"station_id":"ce4bgjh2rcd13ifvqbg0","pricing_plan_id":"cebpf4jnsgd1na2vs0mg"},{"bike_id":"98e853bb-b6cd-4d98-86ed-53be8c2eac15","system_id":"levelo_inurba_marseille","lat":43.29567,"lon":5.37515,"is_reserved":false,"is_disabled":false,"rental_uris":{"android":"levelo://app?vid=98e853bb-b6cd-4d98-86ed-53be8c2eac15","ios":"levelo://app?vid=98e853bb-b6cd-4d98-86ed-53be8c2eac15"},"vehicle_type_id":"4","last_reported":1733753390,"current_range_meters":25600,"station_id":"ce4bgh92rcd13ifvqb50","pricing_plan_id":"cebpf4jnsgd1na2vs0mg"},{"bike_id":"eb8310ef-a487-4124-b4c5-0b74b37f91b5","system_id":"levelo_inurba_marseille","lat":43.28687,"lon":5.37385,"is_reserved":false,"is_disabled":false,"rental_uris":{"android":"levelo://app?vid=eb8310ef-a487-4124-b4c5-0b74b37f91b5","ios":"levelo://app?vid=eb8310ef-a487-4124-b4c5-0b74b37f91b5"},"vehicle_type_id":"4","last_reported":1733753390,"current_range_meters":19600,"station_id":"ce4bh3p2rcd13ifvqdq0","pricing_plan_id":"cebpf4jnsgd1na2vs0mg"},{"bike_id":"369fa2d8-1a9b-4d91-8661-c3407579d723","system_id":"levelo_inurba_marseille","lat":43.27066,"lon":5.42278,"is_reserved":false,"is_disabled":false,"rental_uris":{"android":"levelo://app?vid=369fa2d8-1a9b-4d91-8661-c3407579d723","ios":"levelo://app?vid=369fa2d8-1a9b-4d91-8661-c3407579d723"},"vehicle_type_id":"4","last_reported":1733753390,"current_range_meters":22000,"station_id":"ce4bhk92rcd13ifvqgb0","pricing_plan_id":"cebpf4jnsgd1na2vs0mg"},{"bike_id":"1cfccd2a-f1bc-49d0-9613-fb06bc8d19f4","system_id":"levelo_inurba_marseille","lat":43.31277,"lon":5.4018,"is_reserved":false,"is_disabled":false,"rental_uris":{"android":"levelo://app?vid=1cfccd2a-f1bc-49d0-9613-fb06bc8d19f4","ios":"levelo://app?vid=1cfccd2a-f1bc-49d0-9613-fb06bc8d19f4"},"vehicle_type_id":"4","last_reported":1733753390,"current_range_meters":16800,"station_id":"ce4bh092rcd13ifvqd30","pricing_plan_id":"cebpf4jnsgd1na2vs0mg"},{"bike_id":"9fd45849-c94e-4ec5-8aa5-673af56128d1","system_id":"levelo_inurba_marseille","lat":43.31274,"lon":5.39635,"is_reserved":false,"is_disabled":false,"rental_uris":{"android":"levelo://app?vid=9fd45849-c94e-4ec5-8aa5-673af56128d1","ios":"levelo://app?vid=9fd45849-c94e-4ec5-8aa5-673af56128d1"},"vehicle_type_id":"4","last_reported":1733753390,"current_range_meters":28800,"station_id":"ce4bgvp2rcd13ifvqcu0","pricing_plan_id":"cebpf4jnsgd1na2vs0mg"},{"bike_id":"575985ff-f8b8-494d-ac48-9bd25d698d1d","system_id":"levelo_inurba_marseille","lat":43.26681,"lon":5.38274,"is_reserved":false,"is_disabled":false,"rental_uris":{"android":"levelo://app?vid=575985ff-f8b8-494d-ac48-9bd25d698d1d","ios":"levelo://app?vid=575985ff-f8b8-494d-ac48-9bd25d698d1d"},"vehicle_type_id":"4","last_reported":1733753390,"current_range_meters":38800,"station_id":"ce4bhg92rcd13ifvqf90","pricing_plan_id":"cebpf4jnsgd1na2vs0mg"},{"bike_id":"028f9c3b-5cac-422a-9204-2379a8dfa11e","system_id":"levelo_inurba_marseille","lat":43.28973,"lon":5.37844,"is_reserved":false,"is_disabled":false,"rental_uris":{"android":"levelo://app?vid=028f9c3b-5cac-422a-9204-2379a8dfa11e","ios":"levelo://app?vid=028f9c3b-5cac-422a-9204-2379a8dfa11e"},"vehicle_type_id":"4","last_reported":1733753390,"current_range_meters":38000,"station_id":"ce4bh9p2rcd13ifvqed0","pricing_plan_id":"cebpf4jnsgd1na2vs0mg"},{"bike_id":"5ac1c430-b416-4d56-8a0b-c67b5e80ba2c","system_id":"levelo_inurba_marseille","lat":43.23151,"lon":5.43711,"is_reserved":false,"is_disabled":false,"rental_uris":{"android":"levelo://app?vid=5ac1c430-b416-4d56-8a0b-c67b5e80ba2c","ios":"levelo://app?vid=5ac1c430-b416-4d56-8a0b-c67b5e80ba2c"},"vehicle_type_id":"4","last_reported":1733753390,"current_range_meters":38800,"station_id":"ce4bhmp2rcd13ifvqgog","pricing_plan_id":"cebpf4jnsgd1na2vs0mg"},{"bike_id":"1753d579-1f4a-4360-a337-133f34de2742","system_id":"levelo_inurba_marseille","lat":43.29788,"lon":5.38123,"is_reserved":false,"is_disabled":false,"rental_uris":{"android":"levelo://app?vid=1753d579-1f4a-4360-a337-133f34de2742","ios":"levelo://app?vid=1753d579-1f4a-4360-a337-133f34de2742"},"vehicle_type_id":"4","last_reported":1733753390,"current_range_meters":38800,"station_id":"ce4bgip2rcd13ifvqbb0","pricing_plan_id":"cebpf4jnsgd1na2vs0mg"},{"bike_id":"d690ff18-9f99-416e-a940-d3fab5b9163c","system_id":"levelo_inurba_marseille","lat":43.22929,"lon":5.35381,"is_reserved":false,"is_disabled":false,"rental_uris":{"android":"levelo://app?vid=d690ff18-9f99-416e-a940-d3fab5b9163c","ios":"levelo://app?vid=d690ff18-9f99-416e-a940-d3fab5b9163c"},"vehicle_type_id":"4","last_reported":1733753390,"current_range_meters":36400,"station_id":"cpo3532slgdg3j2ikp40","pricing_plan_id":"cebpf4jnsgd1na2vs0mg"},{"bike_id":"d43e5ea8-13b0-4ee3-b5ea-caee40935a00","system_id":"levelo_inurba_marseille","lat":43.27186,"lon":5.40991,"is_reserved":false,"is_disabled":false,"rental_uris":{"android":"levelo://app?vid=d43e5ea8-13b0-4ee3-b5ea-caee40935a00","ios":"levelo://app?vid=d43e5ea8-13b0-4ee3-b5ea-caee40935a00"},"vehicle_type_id":"4","last_reported":1733753390,"current_range_meters":8000,"station_id":"ce4bhl12rcd13ifvqgf0","pricing_plan_id":"cebpf4jnsgd1na2vs0mg"},{"bike_id":"5260ced4-7564-448d-9818-7245cb224691","system_id":"levelo_inurba_marseille","lat":43.276,"lon":5.36138,"is_reserved":false,"is_disabled":false,"rental_uris":{"android":"levelo://app?vid=5260ced4-7564-448d-9818-7245cb224691","ios":"levelo://app?vid=5260ced4-7564-448d-9818-7245cb224691"},"vehicle_type_id":"4","last_reported":1733753390,"current_range_meters":36800,"station_id":"ce4bgj92rcd13ifvqbe0","pricing_plan_id":"cebpf4jnsgd1na2vs0mg"},{"bike_id":"69f4abbd-69bf-47bb-b510-ac0c12790c0a","system_id":"levelo_inurba_marseille","lat":43.29932,"lon":5.36547,"is_reserved":false,"is_disabled":false,"rental_uris":{"android":"levelo://app?vid=69f4abbd-69bf-47bb-b510-ac0c12790c0a","ios":"levelo://app?vid=69f4abbd-69bf-47bb-b510-ac0c12790c0a"},"vehicle_type_id":"4","last_reported":1733753390,"current_range_meters":36400,"station_id":"ce4bgm92rcd13ifvqbr0","pricing_plan_id":"cebpf4jnsgd1na2vs0mg"},{"bike_id":"8e766961-b1a3-4bbf-a869-0bba2fd77e59","system_id":"levelo_inurba_marseille","lat":43.31995,"lon":5.38163,"is_reserved":false,"is_disabled":false,"rental_uris":{"android":"levelo://app?vid=8e766961-b1a3-4bbf-a869-0bba2fd77e59","ios":"levelo://app?vid=8e766961-b1a3-4bbf-a869-0bba2fd77e59"},"vehicle_type_id":"4","last_reported":1733753390,"current_range_meters":36400,"station_id":"ce4bhr12rcd13ifvqhpg","pricing_plan_id":"cebpf4jnsgd1na2vs0mg"},{"bike_id":"94da7cef-ec4d-4d05-807d-10650e673ae6","system_id":"levelo_inurba_marseille","lat":43.30933,"lon":5.40145,"is_reserved":false,"is_disabled":false,"rental_uris":{"android":"levelo://app?vid=94da7cef-ec4d-4d05-807d-10650e673ae6","ios":"levelo://app?vid=94da7cef-ec4d-4d05-807d-10650e673ae6"},"vehicle_type_id":"4","last_reported":1733753390,"current_range_meters":38800,"station_id":"ce4bgvp2rcd13ifvqct0","pricing_plan_id":"cebpf4jnsgd1na2vs0mg"},{"bike_id":"eb4e32cd-a02d-4e92-a013-1fdc0dd71ccb","system_id":"levelo_inurba_marseille","lat":43.324799,"lon":5.365716,"is_reserved":false,"is_disabled":true,"rental_uris":{"android":"levelo://app?vid=eb4e32cd-a02d-4e92-a013-1fdc0dd71ccb","ios":"levelo://app?vid=eb4e32cd-a02d-4e92-a013-1fdc0dd71ccb"},"vehicle_type_id":"4","last_reported":1733753390,"current_range_meters":0,"station_id":"","pricing_plan_id":"cebpf4jnsgd1na2vs0mg"},{"bike_id":"09e8f0c0-31a1-48cb-ac52-2c1af9fee810","system_id":"levelo_inurba_marseille","lat":43.2408,"lon":5.37756,"is_reserved":false,"is_disabled":false,"rental_uris":{"android":"levelo://app?vid=09e8f0c0-31a1-48cb-ac52-2c1af9fee810","ios":"levelo://app?vid=09e8f0c0-31a1-48cb-ac52-2c1af9fee810"},"vehicle_type_id":"4","last_reported":1733753390,"current_range_meters":38800,"station_id":"ce4bhnp2rcd13ifvqgvg","pricing_plan_id":"cebpf4jnsgd1na2vs0mg"},{"bike_id":"0fe6e81e-db94-4c1f-b1e7-76a009e392e8","system_id":"levelo_inurba_marseille","lat":43.27817,"lon":5.39218,"is_reserved":false,"is_disabled":false,"rental_uris":{"android":"levelo://app?vid=0fe6e81e-db94-4c1f-b1e7-76a009e392e8","ios":"levelo://app?vid=0fe6e81e-db94-4c1f-b1e7-76a009e392e8"},"vehicle_type_id":"4","last_reported":1733753390,"current_range_meters":38800,"station_id":"ce4bhjp2rcd13ifvqga0","pricing_plan_id":"cebpf4jnsgd1na2vs0mg"},{"bike_id":"b999ff5b-9fa2-4583-ac4c-83afe618c66c","system_id":"levelo_inurba_marseille","lat":43.26868,"lon":5.3794,"is_reserved":false,"is_disabled":false,"rental_uris":{"android":"levelo://app?vid=b999ff5b-9fa2-4583-ac4c-83afe618c66c","ios":"levelo://app?vid=b999ff5b-9fa2-4583-ac4c-83afe618c66c"},"vehicle_type_id":"4","last_reported":1733753390,"current_range_meters":3200,"station_id":"ce4bhg92rcd13ifvqf90","pricing_plan_id":"cebpf4jnsgd1na2vs0mg"},{"bike_id":"9a84ba55-3b09-4e37-a8e8-475f6a1bc2cd","system_id":"levelo_inurba_marseille","lat":43.27807,"lon":5.40714,"is_reserved":false,"is_disabled":false,"rental_uris":{"android":"levelo://app?vid=9a84ba55-3b09-4e37-a8e8-475f6a1bc2cd","ios":"levelo://app?vid=9a84ba55-3b09-4e37-a8e8-475f6a1bc2cd"},"vehicle_type_id":"4","last_reported":1733753390,"current_range_meters":38800,"station_id":"ce4bhnh2rcd13ifvqgtg","pricing_plan_id":"cebpf4jnsgd1na2vs0mg"},{"bike_id":"8760c375-ad78-4b63-89c6-d2eaaea16a0d","system_id":"levelo_inurba_marseille","lat":43.29783,"lon":5.38108,"is_reserved":false,"is_disabled":false,"rental_uris":{"android":"levelo://app?vid=8760c375-ad78-4b63-89c6-d2eaaea16a0d","ios":"levelo://app?vid=8760c375-ad78-4b63-89c6-d2eaaea16a0d"},"vehicle_type_id":"4","last_reported":1733753390,"current_range_meters":38000,"station_id":"ce4bgip2rcd13ifvqbb0","pricing_plan_id":"cebpf4jnsgd1na2vs0mg"},{"bike_id":"f0b913d1-d0e1-470d-ae33-f9bd9a0968a8","system_id":"levelo_inurba_marseille","lat":43.33762,"lon":5.37481,"is_reserved":false,"is_disabled":true,"rental_uris":{"android":"levelo://app?vid=f0b913d1-d0e1-470d-ae33-f9bd9a0968a8","ios":"levelo://app?vid=f0b913d1-d0e1-470d-ae33-f9bd9a0968a8"},"vehicle_type_id":"4","last_reported":1733753390,"current_range_meters":38800,"station_id":"","pricing_plan_id":"cebpf4jnsgd1na2vs0mg"},{"bike_id":"26924fb9-4179-4abe-8b03-e0d47c141d92","system_id":"levelo_inurba_marseille","lat":43.27184,"lon":5.4099,"is_reserved":false,"is_disabled":false,"rental_uris":{"android":"levelo://app?vid=26924fb9-4179-4abe-8b03-e0d47c141d92","ios":"levelo://app?vid=26924fb9-4179-4abe-8b03-e0d47c141d92"},"vehicle_type_id":"4","last_reported":1733753390,"current_range_meters":31200,"station_id":"ce4bhl12rcd13ifvqgf0","pricing_plan_id":"cebpf4jnsgd1na2vs0mg"},{"bike_id":"4b41d300-af9d-4b48-aa66-7322d555c205","system_id":"levelo_inurba_marseille","lat":43.286791,"lon":5.374,"is_reserved":false,"is_disabled":false,"rental_uris":{"android":"levelo://app?vid=4b41d300-af9d-4b48-aa66-7322d555c205","ios":"levelo://app?vid=4b41d300-af9d-4b48-aa66-7322d555c205"},"vehicle_type_id":"4","last_reported":1733753390,"current_range_meters":33200,"station_id":"ce4bh3p2rcd13ifvqdq0","pricing_plan_id":"cebpf4jnsgd1na2vs0mg"},{"bike_id":"db14e876-0fd6-46a7-8620-bb06967f83cc","system_id":"levelo_inurba_marseille","lat":43.31392,"lon":5.39616,"is_reserved":false,"is_disabled":true,"rental_uris":{"android":"levelo://app?vid=db14e876-0fd6-46a7-8620-bb06967f83cc","ios":"levelo://app?vid=db14e876-0fd6-46a7-8620-bb06967f83cc"},"vehicle_type_id":"4","last_reported":1733753390,"current_range_meters":38000,"station_id":"ce4bgvp2rcd13ifvqcu0","pricing_plan_id":"cebpf4jnsgd1na2vs0mg"},{"bike_id":"3b2e3ce8-7d4a-4581-8b02-5deff31350a7","system_id":"levelo_inurba_marseille","lat":43.32664,"lon":5.40992,"is_reserved":false,"is_disabled":false,"rental_uris":{"android":"levelo://app?vid=3b2e3ce8-7d4a-4581-8b02-5deff31350a7","ios":"levelo://app?vid=3b2e3ce8-7d4a-4581-8b02-5deff31350a7"},"vehicle_type_id":"4","last_reported":1733753390,"current_range_meters":38800,"station_id":"ce4bhpp2rcd13ifvqhgg","pricing_plan_id":"cebpf4jnsgd1na2vs0mg"},{"bike_id":"c0abe749-4c6e-4563-badf-b96b4b6f64fe","system_id":"levelo_inurba_marseille","lat":43.30532,"lon":5.36721,"is_reserved":false,"is_disabled":false,"rental_uris":{"android":"levelo://app?vid=c0abe749-4c6e-4563-badf-b96b4b6f64fe","ios":"levelo://app?vid=c0abe749-4c6e-4563-badf-b96b4b6f64fe"},"vehicle_type_id":"4","last_reported":1733753390,"current_range_meters":38800,"station_id":"ce4bgrp2rcd13ifvqc9g","pricing_plan_id":"cebpf4jnsgd1na2vs0mg"},{"bike_id":"7986f744-f9dd-44d0-b04a-f34f2b9a7e4e","system_id":"levelo_inurba_marseille","lat":43.24643,"lon":5.38909,"is_reserved":false,"is_disabled":false,"rental_uris":{"android":"levelo://app?vid=7986f744-f9dd-44d0-b04a-f34f2b9a7e4e","ios":"levelo://app?vid=7986f744-f9dd-44d0-b04a-f34f2b9a7e4e"},"vehicle_type_id":"4","last_reported":1733753390,"current_range_meters":36000,"station_id":"ce4bhg12rcd13ifvqf60","pricing_plan_id":"cebpf4jnsgd1na2vs0mg"},{"bike_id":"bfc6fb89-b1fe-471f-b8c6-23166aa6bb31","system_id":"levelo_inurba_marseille","lat":43.23964,"lon":5.36636,"is_reserved":false,"is_disabled":false,"rental_uris":{"android":"levelo://app?vid=bfc6fb89-b1fe-471f-b8c6-23166aa6bb31","ios":"levelo://app?vid=bfc6fb89-b1fe-471f-b8c6-23166aa6bb31"},"vehicle_type_id":"4","last_reported":1733753390,"current_range_meters":26800,"station_id":"ce4bhi12rcd13ifvqfp0","pricing_plan_id":"cebpf4jnsgd1na2vs0mg"},{"bike_id":"80c46690-3d58-4dca-ae97-e70eb9aaa294","system_id":"levelo_inurba_marseille","lat":43.28346,"lon":5.38109,"is_reserved":false,"is_disabled":false,"rental_uris":{"android":"levelo://app?vid=80c46690-3d58-4dca-ae97-e70eb9aaa294","ios":"levelo://app?vid=80c46690-3d58-4dca-ae97-e70eb9aaa294"},"vehicle_type_id":"4","last_reported":1733753390,"current_range_meters":9200,"station_id":"ce4bh412rcd13ifvqdr0","pricing_plan_id":"cebpf4jnsgd1na2vs0mg"},{"bike_id":"18d55f9f-0f12-4910-9bcf-90613bbdc9f0","system_id":"levelo_inurba_marseille","lat":43.304585,"lon":5.379173,"is_reserved":false,"is_disabled":false,"rental_uris":{"android":"levelo://app?vid=18d55f9f-0f12-4910-9bcf-90613bbdc9f0","ios":"levelo://app?vid=18d55f9f-0f12-4910-9bcf-90613bbdc9f0"},"vehicle_type_id":"4","last_reported":1733753390,"current_range_meters":35600,"station_id":"ce4bgup2rcd13ifvqcn0","pricing_plan_id":"cebpf4jnsgd1na2vs0mg"},{"bike_id":"09281e7f-b15d-40c3-92c2-6ba7a2702b6b","system_id":"levelo_inurba_marseille","lat":43.27612,"lon":5.36113,"is_reserved":false,"is_disabled":false,"rental_uris":{"android":"levelo://app?vid=09281e7f-b15d-40c3-92c2-6ba7a2702b6b","ios":"levelo://app?vid=09281e7f-b15d-40c3-92c2-6ba7a2702b6b"},"vehicle_type_id":"4","last_reported":1733753390,"current_range_meters":11200,"station_id":"ce4bgj92rcd13ifvqbe0","pricing_plan_id":"cebpf4jnsgd1na2vs0mg"},{"bike_id":"0bff9157-1c4b-44c6-bca8-a8d8094c2395","system_id":"levelo_inurba_marseille","lat":43.27054,"lon":5.40264,"is_reserved":false,"is_disabled":false,"rental_uris":{"android":"levelo://app?vid=0bff9157-1c4b-44c6-bca8-a8d8094c2395","ios":"levelo://app?vid=0bff9157-1c4b-44c6-bca8-a8d8094c2395"},"vehicle_type_id":"4","last_reported":1733753390,"current_range_meters":12000,"station_id":"ce4bhk92rcd13ifvqgc0","pricing_plan_id":"cebpf4jnsgd1na2vs0mg"},{"bike_id":"0ccd581d-9c76-4795-b702-2d923b116e9d","system_id":"levelo_inurba_marseille","lat":43.27179,"lon":5.40993,"is_reserved":false,"is_disabled":false,"rental_uris":{"android":"levelo://app?vid=0ccd581d-9c76-4795-b702-2d923b116e9d","ios":"levelo://app?vid=0ccd581d-9c76-4795-b702-2d923b116e9d"},"vehicle_type_id":"4","last_reported":1733753390,"current_range_meters":36800,"station_id":"ce4bhl12rcd13ifvqgf0","pricing_plan_id":"cebpf4jnsgd1na2vs0mg"},{"bike_id":"4ad4489d-ea7b-49f5-a12e-9356c8af13a5","system_id":"levelo_inurba_marseille","lat":43.30166,"lon":5.38082,"is_reserved":false,"is_disabled":false,"rental_uris":{"android":"levelo://app?vid=4ad4489d-ea7b-49f5-a12e-9356c8af13a5","ios":"levelo://app?vid=4ad4489d-ea7b-49f5-a12e-9356c8af13a5"},"vehicle_type_id":"4","last_reported":1733753390,"current_range_meters":24000,"station_id":"ce4bgjp2rcd13ifvqbh0","pricing_plan_id":"cebpf4jnsgd1na2vs0mg"},{"bike_id":"98fe5329-9294-4a99-9092-94de751e539b","system_id":"levelo_inurba_marseille","lat":43.32031,"lon":5.41573,"is_reserved":false,"is_disabled":false,"rental_uris":{"android":"levelo://app?vid=98fe5329-9294-4a99-9092-94de751e539b","ios":"levelo://app?vid=98fe5329-9294-4a99-9092-94de751e539b"},"vehicle_type_id":"4","last_reported":1733753390,"current_range_meters":11200,"station_id":"ce4bhq92rcd13ifvqhkg","pricing_plan_id":"cebpf4jnsgd1na2vs0mg"},{"bike_id":"95d8628d-10b1-47e7-9a42-9b126ec315c6","system_id":"levelo_inurba_marseille","lat":43.23182,"lon":5.35583,"is_reserved":false,"is_disabled":false,"rental_uris":{"android":"levelo://app?vid=95d8628d-10b1-47e7-9a42-9b126ec315c6","ios":"levelo://app?vid=95d8628d-10b1-47e7-9a42-9b126ec315c6"},"vehicle_type_id":"4","last_reported":1733753390,"current_range_meters":28400,"station_id":"ce4bhu92rcd13ifvqi70","pricing_plan_id":"cebpf4jnsgd1na2vs0mg"},{"bike_id":"84160b40-ce7b-44a2-a7ca-4591eb995185","system_id":"levelo_inurba_marseille","lat":43.32071,"lon":5.38821,"is_reserved":false,"is_disabled":false,"rental_uris":{"android":"levelo://app?vid=84160b40-ce7b-44a2-a7ca-4591eb995185","ios":"levelo://app?vid=84160b40-ce7b-44a2-a7ca-4591eb995185"},"vehicle_type_id":"4","last_reported":1733753390,"current_range_meters":10000,"station_id":"","pricing_plan_id":"cebpf4jnsgd1na2vs0mg"},{"bike_id":"d6476c12-9601-48bb-81d1-c130012be534","system_id":"levelo_inurba_marseille","lat":43.2468,"lon":5.38167,"is_reserved":false,"is_disabled":false,"rental_uris":{"android":"levelo://app?vid=d6476c12-9601-48bb-81d1-c130012be534","ios":"levelo://app?vid=d6476c12-9601-48bb-81d1-c130012be534"},"vehicle_type_id":"4","last_reported":1733753390,"current_range_meters":23200,"station_id":"ce4bhih2rcd13ifvqfr0","pricing_plan_id":"cebpf4jnsgd1na2vs0mg"},{"bike_id":"d209eb08-3f06-41b7-841d-fe042b7cecf8","system_id":"levelo_inurba_marseille","lat":43.29102,"lon":5.38135,"is_reserved":false,"is_disabled":false,"rental_uris":{"android":"levelo://app?vid=d209eb08-3f06-41b7-841d-fe042b7cecf8","ios":"levelo://app?vid=d209eb08-3f06-41b7-841d-fe042b7cecf8"},"vehicle_type_id":"4","last_reported":1733753390,"current_range_meters":38800,"station_id":"ce4bh512rcd13ifvqe2g","pricing_plan_id":"cebpf4jnsgd1na2vs0mg"},{"bike_id":"39fb0cca-2e31-4765-a17f-5d0886b4ddce","system_id":"levelo_inurba_marseille","lat":43.29784,"lon":5.38115,"is_reserved":false,"is_disabled":false,"rental_uris":{"android":"levelo://app?vid=39fb0cca-2e31-4765-a17f-5d0886b4ddce","ios":"levelo://app?vid=39fb0cca-2e31-4765-a17f-5d0886b4ddce"},"vehicle_type_id":"4","last_reported":1733753390,"current_range_meters":38800,"station_id":"ce4bgip2rcd13ifvqbb0","pricing_plan_id":"cebpf4jnsgd1na2vs0mg"},{"bike_id":"76bd6b8b-3bd2-4b02-bd6e-379029e15bf1","system_id":"levelo_inurba_marseille","lat":43.30906,"lon":5.37198,"is_reserved":false,"is_disabled":false,"rental_uris":{"android":"levelo://app?vid=76bd6b8b-3bd2-4b02-bd6e-379029e15bf1","ios":"levelo://app?vid=76bd6b8b-3bd2-4b02-bd6e-379029e15bf1"},"vehicle_type_id":"4","last_reported":1733753390,"current_range_meters":38800,"station_id":"ce4bguh2rcd13ifvqckg","pricing_plan_id":"cebpf4jnsgd1na2vs0mg"},{"bike_id":"6db6bb85-5060-48f2-927c-0420f26bc169","system_id":"levelo_inurba_marseille","lat":43.2481,"lon":5.37462,"is_reserved":false,"is_disabled":false,"rental_uris":{"android":"levelo://app?vid=6db6bb85-5060-48f2-927c-0420f26bc169","ios":"levelo://app?vid=6db6bb85-5060-48f2-927c-0420f26bc169"},"vehicle_type_id":"4","last_reported":1733753390,"current_range_meters":38800,"station_id":"ce4bhgh2rcd13ifvqfb0","pricing_plan_id":"cebpf4jnsgd1na2vs0mg"},{"bike_id":"0f20b602-7b45-4989-92b6-4d1c64ab5468","system_id":"levelo_inurba_marseille","lat":43.26552,"lon":5.37288,"is_reserved":false,"is_disabled":false,"rental_uris":{"android":"levelo://app?vid=0f20b602-7b45-4989-92b6-4d1c64ab5468","ios":"levelo://app?vid=0f20b602-7b45-4989-92b6-4d1c64ab5468"},"vehicle_type_id":"4","last_reported":1733753390,"current_range_meters":38000,"station_id":"ce4bhg12rcd13ifvqf70","pricing_plan_id":"cebpf4jnsgd1na2vs0mg"},{"bike_id":"042cb4cd-6f1a-4fbc-b347-cbba51218f00","system_id":"levelo_inurba_marseille","lat":43.30882,"lon":5.37203,"is_reserved":false,"is_disabled":false,"rental_uris":{"android":"levelo://app?vid=042cb4cd-6f1a-4fbc-b347-cbba51218f00","ios":"levelo://app?vid=042cb4cd-6f1a-4fbc-b347-cbba51218f00"},"vehicle_type_id":"4","last_reported":1733753390,"current_range_meters":38800,"station_id":"ce4bguh2rcd13ifvqckg","pricing_plan_id":"cebpf4jnsgd1na2vs0mg"},{"bike_id":"90ee93dd-bcf5-47a2-abb5-41c01a81e2b9","system_id":"levelo_inurba_marseille","lat":43.24077,"lon":5.3776,"is_reserved":false,"is_disabled":false,"rental_uris":{"android":"levelo://app?vid=90ee93dd-bcf5-47a2-abb5-41c01a81e2b9","ios":"levelo://app?vid=90ee93dd-bcf5-47a2-abb5-41c01a81e2b9"},"vehicle_type_id":"4","last_reported":1733753390,"current_range_meters":18800,"station_id":"ce4bhnp2rcd13ifvqgvg","pricing_plan_id":"cebpf4jnsgd1na2vs0mg"},{"bike_id":"fa477f15-a4f1-4cd4-b64e-4106e6886c17","system_id":"levelo_inurba_marseille","lat":43.23195,"lon":5.35548,"is_reserved":false,"is_disabled":false,"rental_uris":{"android":"levelo://app?vid=fa477f15-a4f1-4cd4-b64e-4106e6886c17","ios":"levelo://app?vid=fa477f15-a4f1-4cd4-b64e-4106e6886c17"},"vehicle_type_id":"4","last_reported":1733753390,"current_range_meters":14400,"station_id":"ce4bhu92rcd13ifvqi70","pricing_plan_id":"cebpf4jnsgd1na2vs0mg"},{"bike_id":"df530ce9-7550-4bc0-857d-aa2d9daf2958","system_id":"levelo_inurba_marseille","lat":43.33021,"lon":5.3904,"is_reserved":false,"is_disabled":false,"rental_uris":{"android":"levelo://app?vid=df530ce9-7550-4bc0-857d-aa2d9daf2958","ios":"levelo://app?vid=df530ce9-7550-4bc0-857d-aa2d9daf2958"},"vehicle_type_id":"4","last_reported":1733753390,"current_range_meters":38800,"station_id":"ce4bhr92rcd13ifvqhrg","pricing_plan_id":"cebpf4jnsgd1na2vs0mg"},{"bike_id":"00dfce39-0a3e-42bd-85ef-7a7a8f87f756","system_id":"levelo_inurba_marseille","lat":43.27059,"lon":5.40259,"is_reserved":false,"is_disabled":false,"rental_uris":{"android":"levelo://app?vid=00dfce39-0a3e-42bd-85ef-7a7a8f87f756","ios":"levelo://app?vid=00dfce39-0a3e-42bd-85ef-7a7a8f87f756"},"vehicle_type_id":"4","last_reported":1733753390,"current_range_meters":20400,"station_id":"ce4bhk92rcd13ifvqgc0","pricing_plan_id":"cebpf4jnsgd1na2vs0mg"},{"bike_id":"6e8ffe84-478d-4077-b567-3ae22235231b","system_id":"levelo_inurba_marseille","lat":43.24169,"lon":5.36398,"is_reserved":false,"is_disabled":false,"rental_uris":{"android":"levelo://app?vid=6e8ffe84-478d-4077-b567-3ae22235231b","ios":"levelo://app?vid=6e8ffe84-478d-4077-b567-3ae22235231b"},"vehicle_type_id":"4","last_reported":1733753390,"current_range_meters":9200,"station_id":"cpo36qri1sfpv3e86is0","pricing_plan_id":"cebpf4jnsgd1na2vs0mg"},{"bike_id":"85fc986f-e237-494f-9a51-e8d825670ac9","system_id":"levelo_inurba_marseille","lat":43.31712,"lon":5.37767,"is_reserved":false,"is_disabled":false,"rental_uris":{"android":"levelo://app?vid=85fc986f-e237-494f-9a51-e8d825670ac9","ios":"levelo://app?vid=85fc986f-e237-494f-9a51-e8d825670ac9"},"vehicle_type_id":"4","last_reported":1733753390,"current_range_meters":35600,"station_id":"ce4bgth2rcd13ifvqch0","pricing_plan_id":"cebpf4jnsgd1na2vs0mg"},{"bike_id":"08c2a45a-da89-4dd7-af84-428076a257bb","system_id":"levelo_inurba_marseille","lat":43.27369,"lon":5.36275,"is_reserved":false,"is_disabled":false,"rental_uris":{"android":"levelo://app?vid=08c2a45a-da89-4dd7-af84-428076a257bb","ios":"levelo://app?vid=08c2a45a-da89-4dd7-af84-428076a257bb"},"vehicle_type_id":"4","last_reported":1733753390,"current_range_meters":30000,"station_id":"ce4bhbh2rcd13ifvqeo0","pricing_plan_id":"cebpf4jnsgd1na2vs0mg"},{"bike_id":"a43f2dce-3a0a-4edd-98e2-9511f003d206","system_id":"levelo_inurba_marseille","lat":43.31764,"lon":5.3901,"is_reserved":false,"is_disabled":false,"rental_uris":{"android":"levelo://app?vid=a43f2dce-3a0a-4edd-98e2-9511f003d206","ios":"levelo://app?vid=a43f2dce-3a0a-4edd-98e2-9511f003d206"},"vehicle_type_id":"4","last_reported":1733753390,"current_range_meters":38800,"station_id":"ce4bhqp2rcd13ifvqhng","pricing_plan_id":"cebpf4jnsgd1na2vs0mg"},{"bike_id":"a0b44e86-9121-4df3-b62a-0fc9a0d1110c","system_id":"levelo_inurba_marseille","lat":43.23064,"lon":5.35492,"is_reserved":false,"is_disabled":false,"rental_uris":{"android":"levelo://app?vid=a0b44e86-9121-4df3-b62a-0fc9a0d1110c","ios":"levelo://app?vid=a0b44e86-9121-4df3-b62a-0fc9a0d1110c"},"vehicle_type_id":"4","last_reported":1733753390,"current_range_meters":6400,"station_id":"cpo3342slgdg3j2ifvpg","pricing_plan_id":"cebpf4jnsgd1na2vs0mg"},{"bike_id":"a0c230af-183e-4db9-b10f-8c1a6d844ebf","system_id":"levelo_inurba_marseille","lat":43.3013,"lon":5.38788,"is_reserved":false,"is_disabled":true,"rental_uris":{"android":"levelo://app?vid=a0c230af-183e-4db9-b10f-8c1a6d844ebf","ios":"levelo://app?vid=a0c230af-183e-4db9-b10f-8c1a6d844ebf"},"vehicle_type_id":"4","last_reported":1733753390,"current_range_meters":0,"station_id":"ce4bghh2rcd13ifvqb60","pricing_plan_id":"cebpf4jnsgd1na2vs0mg"},{"bike_id":"10e02497-99ed-494a-9afd-42b125779829","system_id":"levelo_inurba_marseille","lat":43.23151,"lon":5.4372,"is_reserved":false,"is_disabled":false,"rental_uris":{"android":"levelo://app?vid=10e02497-99ed-494a-9afd-42b125779829","ios":"levelo://app?vid=10e02497-99ed-494a-9afd-42b125779829"},"vehicle_type_id":"4","last_reported":1733753390,"current_range_meters":27600,"station_id":"ce4bhmp2rcd13ifvqgog","pricing_plan_id":"cebpf4jnsgd1na2vs0mg"},{"bike_id":"e8a782a4-565a-4d33-bfe3-82271dd14675","system_id":"levelo_inurba_marseille","lat":43.2407,"lon":5.37766,"is_reserved":false,"is_disabled":false,"rental_uris":{"android":"levelo://app?vid=e8a782a4-565a-4d33-bfe3-82271dd14675","ios":"levelo://app?vid=e8a782a4-565a-4d33-bfe3-82271dd14675"},"vehicle_type_id":"4","last_reported":1733753390,"current_range_meters":18800,"station_id":"ce4bhnp2rcd13ifvqgvg","pricing_plan_id":"cebpf4jnsgd1na2vs0mg"},{"bike_id":"4ae5fe7f-a755-40fe-9b35-59fbb2437146","system_id":"levelo_inurba_marseille","lat":43.2417,"lon":5.36399,"is_reserved":false,"is_disabled":false,"rental_uris":{"android":"levelo://app?vid=4ae5fe7f-a755-40fe-9b35-59fbb2437146","ios":"levelo://app?vid=4ae5fe7f-a755-40fe-9b35-59fbb2437146"},"vehicle_type_id":"4","last_reported":1733753390,"current_range_meters":22800,"station_id":"cpo36qri1sfpv3e86is0","pricing_plan_id":"cebpf4jnsgd1na2vs0mg"},{"bike_id":"ae10a726-acf0-4945-b89d-97aeed5dca91","system_id":"levelo_inurba_marseille","lat":43.27041,"lon":5.40315,"is_reserved":false,"is_disabled":false,"rental_uris":{"android":"levelo://app?vid=ae10a726-acf0-4945-b89d-97aeed5dca91","ios":"levelo://app?vid=ae10a726-acf0-4945-b89d-97aeed5dca91"},"vehicle_type_id":"4","last_reported":1733753390,"current_range_meters":6800,"station_id":"","pricing_plan_id":"cebpf4jnsgd1na2vs0mg"},{"bike_id":"2fd35e55-d7b6-4800-8b94-fa53152056c4","system_id":"levelo_inurba_marseille","lat":43.30459,"lon":5.37904,"is_reserved":false,"is_disabled":false,"rental_uris":{"android":"levelo://app?vid=2fd35e55-d7b6-4800-8b94-fa53152056c4","ios":"levelo://app?vid=2fd35e55-d7b6-4800-8b94-fa53152056c4"},"vehicle_type_id":"4","last_reported":1733753390,"current_range_meters":33200,"station_id":"ce4bgup2rcd13ifvqcn0","pricing_plan_id":"cebpf4jnsgd1na2vs0mg"},{"bike_id":"5a6caf9e-4e8e-4371-896b-c6be2f8dcef6","system_id":"levelo_inurba_marseille","lat":43.28841,"lon":5.39305,"is_reserved":false,"is_disabled":false,"rental_uris":{"android":"levelo://app?vid=5a6caf9e-4e8e-4371-896b-c6be2f8dcef6","ios":"levelo://app?vid=5a6caf9e-4e8e-4371-896b-c6be2f8dcef6"},"vehicle_type_id":"4","last_reported":1733753390,"current_range_meters":20400,"station_id":"ce4bh2p2rcd13ifvqdi0","pricing_plan_id":"cebpf4jnsgd1na2vs0mg"},{"bike_id":"dc18c9a2-7911-4861-99de-f59fa1263059","system_id":"levelo_inurba_marseille","lat":43.24075,"lon":5.37763,"is_reserved":false,"is_disabled":false,"rental_uris":{"android":"levelo://app?vid=dc18c9a2-7911-4861-99de-f59fa1263059","ios":"levelo://app?vid=dc18c9a2-7911-4861-99de-f59fa1263059"},"vehicle_type_id":"4","last_reported":1733753390,"current_range_meters":36000,"station_id":"ce4bhnp2rcd13ifvqgvg","pricing_plan_id":"cebpf4jnsgd1na2vs0mg"},{"bike_id":"fd4ddaba-a751-46c6-9471-d3f6672a35c1","system_id":"levelo_inurba_marseille","lat":43.29618,"lon":5.3773,"is_reserved":false,"is_disabled":false,"rental_uris":{"android":"levelo://app?vid=fd4ddaba-a751-46c6-9471-d3f6672a35c1","ios":"levelo://app?vid=fd4ddaba-a751-46c6-9471-d3f6672a35c1"},"vehicle_type_id":"4","last_reported":1733753390,"current_range_meters":28800,"station_id":"ce4bgi92rcd13ifvqb90","pricing_plan_id":"cebpf4jnsgd1na2vs0mg"},{"bike_id":"a770424e-5efb-4249-a788-549d9d960130","system_id":"levelo_inurba_marseille","lat":43.29097,"lon":5.3814,"is_reserved":false,"is_disabled":false,"rental_uris":{"android":"levelo://app?vid=a770424e-5efb-4249-a788-549d9d960130","ios":"levelo://app?vid=a770424e-5efb-4249-a788-549d9d960130"},"vehicle_type_id":"4","last_reported":1733753390,"current_range_meters":16000,"station_id":"ce4bh512rcd13ifvqe2g","pricing_plan_id":"cebpf4jnsgd1na2vs0mg"},{"bike_id":"5bd6bd78-4585-4412-88b0-3de4a55947a6","system_id":"levelo_inurba_marseille","lat":43.32273,"lon":5.38294,"is_reserved":false,"is_disabled":false,"rental_uris":{"android":"levelo://app?vid=5bd6bd78-4585-4412-88b0-3de4a55947a6","ios":"levelo://app?vid=5bd6bd78-4585-4412-88b0-3de4a55947a6"},"vehicle_type_id":"4","last_reported":1733753390,"current_range_meters":39200,"station_id":"ce4bhr12rcd13ifvqhqg","pricing_plan_id":"cebpf4jnsgd1na2vs0mg"},{"bike_id":"fd430ec8-d2aa-4771-9d27-f4977f1834b2","system_id":"levelo_inurba_marseille","lat":43.3372,"lon":5.39183,"is_reserved":false,"is_disabled":false,"rental_uris":{"android":"levelo://app?vid=fd430ec8-d2aa-4771-9d27-f4977f1834b2","ios":"levelo://app?vid=fd430ec8-d2aa-4771-9d27-f4977f1834b2"},"vehicle_type_id":"4","last_reported":1733753390,"current_range_meters":39200,"station_id":"ce4bhr92rcd13ifvqhsg","pricing_plan_id":"cebpf4jnsgd1na2vs0mg"},{"bike_id":"ba5e4c54-9e0f-419d-acd3-894b4507a88b","system_id":"levelo_inurba_marseille","lat":43.23056,"lon":5.35489,"is_reserved":false,"is_disabled":false,"rental_uris":{"android":"levelo://app?vid=ba5e4c54-9e0f-419d-acd3-894b4507a88b","ios":"levelo://app?vid=ba5e4c54-9e0f-419d-acd3-894b4507a88b"},"vehicle_type_id":"4","last_reported":1733753390,"current_range_meters":30400,"station_id":"cpo3342slgdg3j2ifvpg","pricing_plan_id":"cebpf4jnsgd1na2vs0mg"},{"bike_id":"c187c06e-bdd0-40ca-9dc8-965d5b033ffb","system_id":"levelo_inurba_marseille","lat":43.290979,"lon":5.38129,"is_reserved":false,"is_disabled":false,"rental_uris":{"android":"levelo://app?vid=c187c06e-bdd0-40ca-9dc8-965d5b033ffb","ios":"levelo://app?vid=c187c06e-bdd0-40ca-9dc8-965d5b033ffb"},"vehicle_type_id":"4","last_reported":1733753390,"current_range_meters":20800,"station_id":"ce4bh512rcd13ifvqe2g","pricing_plan_id":"cebpf4jnsgd1na2vs0mg"},{"bike_id":"45086712-1023-4a35-a0ec-49d14554c9ac","system_id":"levelo_inurba_marseille","lat":43.34139,"lon":5.40902,"is_reserved":false,"is_disabled":false,"rental_uris":{"android":"levelo://app?vid=45086712-1023-4a35-a0ec-49d14554c9ac","ios":"levelo://app?vid=45086712-1023-4a35-a0ec-49d14554c9ac"},"vehicle_type_id":"4","last_reported":1733753390,"current_range_meters":26800,"station_id":"ce4bhqh2rcd13ifvqhlg","pricing_plan_id":"cebpf4jnsgd1na2vs0mg"},{"bike_id":"3a5910c3-407f-4e8f-9ce7-081c6942d089","system_id":"levelo_inurba_marseille","lat":43.314237,"lon":5.393395,"is_reserved":false,"is_disabled":false,"rental_uris":{"android":"levelo://app?vid=3a5910c3-407f-4e8f-9ce7-081c6942d089","ios":"levelo://app?vid=3a5910c3-407f-4e8f-9ce7-081c6942d089"},"vehicle_type_id":"4","last_reported":1733753390,"current_range_meters":12800,"station_id":"","pricing_plan_id":"cebpf4jnsgd1na2vs0mg"},{"bike_id":"e869d879-f96b-4f75-af36-9f90e9062aa4","system_id":"levelo_inurba_marseille","lat":43.2466,"lon":5.38165,"is_reserved":false,"is_disabled":false,"rental_uris":{"android":"levelo://app?vid=e869d879-f96b-4f75-af36-9f90e9062aa4","ios":"levelo://app?vid=e869d879-f96b-4f75-af36-9f90e9062aa4"},"vehicle_type_id":"4","last_reported":1733753390,"current_range_meters":24800,"station_id":"ce4bhih2rcd13ifvqfr0","pricing_plan_id":"cebpf4jnsgd1na2vs0mg"},{"bike_id":"155e4552-adf3-45a5-aa6c-6e25fcaf05e5","system_id":"levelo_inurba_marseille","lat":43.27174,"lon":5.40989,"is_reserved":false,"is_disabled":false,"rental_uris":{"android":"levelo://app?vid=155e4552-adf3-45a5-aa6c-6e25fcaf05e5","ios":"levelo://app?vid=155e4552-adf3-45a5-aa6c-6e25fcaf05e5"},"vehicle_type_id":"4","last_reported":1733753390,"current_range_meters":30000,"station_id":"ce4bhl12rcd13ifvqgf0","pricing_plan_id":"cebpf4jnsgd1na2vs0mg"},{"bike_id":"c2e29ee6-adca-4453-a568-ad6160e463b4","system_id":"levelo_inurba_marseille","lat":43.30304,"lon":5.36887,"is_reserved":false,"is_disabled":false,"rental_uris":{"android":"levelo://app?vid=c2e29ee6-adca-4453-a568-ad6160e463b4","ios":"levelo://app?vid=c2e29ee6-adca-4453-a568-ad6160e463b4"},"vehicle_type_id":"4","last_reported":1733753390,"current_range_meters":9200,"station_id":"ce4bgqh2rcd13ifvqc5g","pricing_plan_id":"cebpf4jnsgd1na2vs0mg"},{"bike_id":"35f3c44e-0e88-42b6-9d0a-a15513a6f190","system_id":"levelo_inurba_marseille","lat":43.31152,"lon":5.37086,"is_reserved":false,"is_disabled":false,"rental_uris":{"android":"levelo://app?vid=35f3c44e-0e88-42b6-9d0a-a15513a6f190","ios":"levelo://app?vid=35f3c44e-0e88-42b6-9d0a-a15513a6f190"},"vehicle_type_id":"4","last_reported":1733753390,"current_range_meters":24800,"station_id":"","pricing_plan_id":"cebpf4jnsgd1na2vs0mg"},{"bike_id":"3702917b-7e66-4f83-a6eb-bc58a3f2a139","system_id":"levelo_inurba_marseille","lat":43.2606,"lon":5.39399,"is_reserved":false,"is_disabled":false,"rental_uris":{"android":"levelo://app?vid=3702917b-7e66-4f83-a6eb-bc58a3f2a139","ios":"levelo://app?vid=3702917b-7e66-4f83-a6eb-bc58a3f2a139"},"vehicle_type_id":"4","last_reported":1733753390,"current_range_meters":38800,"station_id":"ce4bhh92rcd13ifvqfj0","pricing_plan_id":"cebpf4jnsgd1na2vs0mg"},{"bike_id":"bd45d4b8-a794-47d3-b71a-c238d420c3d9","system_id":"levelo_inurba_marseille","lat":43.28992,"lon":5.3562,"is_reserved":false,"is_disabled":true,"rental_uris":{"android":"levelo://app?vid=bd45d4b8-a794-47d3-b71a-c238d420c3d9","ios":"levelo://app?vid=bd45d4b8-a794-47d3-b71a-c238d420c3d9"},"vehicle_type_id":"4","last_reported":1733753390,"current_range_meters":30800,"station_id":"ce4bhb92rcd13ifvqen0","pricing_plan_id":"cebpf4jnsgd1na2vs0mg"},{"bike_id":"093bc648-5b19-4eee-9c02-6cee8a72d7b5","system_id":"levelo_inurba_marseille","lat":43.30941,"lon":5.40144,"is_reserved":false,"is_disabled":false,"rental_uris":{"android":"levelo://app?vid=093bc648-5b19-4eee-9c02-6cee8a72d7b5","ios":"levelo://app?vid=093bc648-5b19-4eee-9c02-6cee8a72d7b5"},"vehicle_type_id":"4","last_reported":1733753390,"current_range_meters":4800,"station_id":"ce4bgvp2rcd13ifvqct0","pricing_plan_id":"cebpf4jnsgd1na2vs0mg"},{"bike_id":"da8afc8c-83e0-47e3-8146-dec6b9161dfe","system_id":"levelo_inurba_marseille","lat":43.28708,"lon":5.37949,"is_reserved":false,"is_disabled":false,"rental_uris":{"android":"levelo://app?vid=da8afc8c-83e0-47e3-8146-dec6b9161dfe","ios":"levelo://app?vid=da8afc8c-83e0-47e3-8146-dec6b9161dfe"},"vehicle_type_id":"4","last_reported":1733753390,"current_range_meters":24800,"station_id":"ce4bh9p2rcd13ifvqec0","pricing_plan_id":"cebpf4jnsgd1na2vs0mg"},{"bike_id":"c32f9e8a-18cf-4a25-838d-1aeb8d588bea","system_id":"levelo_inurba_marseille","lat":43.24081,"lon":5.37759,"is_reserved":false,"is_disabled":false,"rental_uris":{"android":"levelo://app?vid=c32f9e8a-18cf-4a25-838d-1aeb8d588bea","ios":"levelo://app?vid=c32f9e8a-18cf-4a25-838d-1aeb8d588bea"},"vehicle_type_id":"4","last_reported":1733753390,"current_range_meters":35200,"station_id":"ce4bhnp2rcd13ifvqgvg","pricing_plan_id":"cebpf4jnsgd1na2vs0mg"},{"bike_id":"13999a8a-a944-4422-8258-4b400c2b65a8","system_id":"levelo_inurba_marseille","lat":43.24084,"lon":5.37751,"is_reserved":false,"is_disabled":false,"rental_uris":{"android":"levelo://app?vid=13999a8a-a944-4422-8258-4b400c2b65a8","ios":"levelo://app?vid=13999a8a-a944-4422-8258-4b400c2b65a8"},"vehicle_type_id":"4","last_reported":1733753390,"current_range_meters":24000,"station_id":"ce4bhnp2rcd13ifvqgvg","pricing_plan_id":"cebpf4jnsgd1na2vs0mg"},{"bike_id":"b69a25c4-cb4a-4398-bd49-a12912254e2e","system_id":"levelo_inurba_marseille","lat":43.29896,"lon":5.43671,"is_reserved":false,"is_disabled":false,"rental_uris":{"android":"levelo://app?vid=b69a25c4-cb4a-4398-bd49-a12912254e2e","ios":"levelo://app?vid=b69a25c4-cb4a-4398-bd49-a12912254e2e"},"vehicle_type_id":"4","last_reported":1733753390,"current_range_meters":36800,"station_id":"ce4bhpp2rcd13ifvqhfg","pricing_plan_id":"cebpf4jnsgd1na2vs0mg"},{"bike_id":"e819441c-9f32-47fa-a1d2-42e334548e89","system_id":"levelo_inurba_marseille","lat":43.28723,"lon":5.3609,"is_reserved":false,"is_disabled":false,"rental_uris":{"android":"levelo://app?vid=e819441c-9f32-47fa-a1d2-42e334548e89","ios":"levelo://app?vid=e819441c-9f32-47fa-a1d2-42e334548e89"},"vehicle_type_id":"4","last_reported":1733753390,"current_range_meters":38800,"station_id":"cki0cbj6b192h4jlfktg","pricing_plan_id":"cebpf4jnsgd1na2vs0mg"},{"bike_id":"6149d10a-ee53-4413-9592-38357ced78cb","system_id":"levelo_inurba_marseille","lat":43.26189,"lon":5.3745,"is_reserved":false,"is_disabled":false,"rental_uris":{"android":"levelo://app?vid=6149d10a-ee53-4413-9592-38357ced78cb","ios":"levelo://app?vid=6149d10a-ee53-4413-9592-38357ced78cb"},"vehicle_type_id":"4","last_reported":1733753390,"current_range_meters":38800,"station_id":"ce4bhgp2rcd13ifvqfc0","pricing_plan_id":"cebpf4jnsgd1na2vs0mg"},{"bike_id":"62d4a31b-7a15-4055-950f-78f11526230e","system_id":"levelo_inurba_marseille","lat":43.2956,"lon":5.37512,"is_reserved":false,"is_disabled":false,"rental_uris":{"android":"levelo://app?vid=62d4a31b-7a15-4055-950f-78f11526230e","ios":"levelo://app?vid=62d4a31b-7a15-4055-950f-78f11526230e"},"vehicle_type_id":"4","last_reported":1733753390,"current_range_meters":33200,"station_id":"ce4bgh92rcd13ifvqb50","pricing_plan_id":"cebpf4jnsgd1na2vs0mg"},{"bike_id":"f03a0fd2-8b78-4caf-823d-2d72f29eb1fc","system_id":"levelo_inurba_marseille","lat":43.27185,"lon":5.40998,"is_reserved":false,"is_disabled":false,"rental_uris":{"android":"levelo://app?vid=f03a0fd2-8b78-4caf-823d-2d72f29eb1fc","ios":"levelo://app?vid=f03a0fd2-8b78-4caf-823d-2d72f29eb1fc"},"vehicle_type_id":"4","last_reported":1733753390,"current_range_meters":39200,"station_id":"ce4bhl12rcd13ifvqgf0","pricing_plan_id":"cebpf4jnsgd1na2vs0mg"},{"bike_id":"20e9db8d-d68b-4418-94af-d9d63f8c2b96","system_id":"levelo_inurba_marseille","lat":43.337444,"lon":5.374475,"is_reserved":false,"is_disabled":true,"rental_uris":{"android":"levelo://app?vid=20e9db8d-d68b-4418-94af-d9d63f8c2b96","ios":"levelo://app?vid=20e9db8d-d68b-4418-94af-d9d63f8c2b96"},"vehicle_type_id":"4","last_reported":1733753390,"current_range_meters":0,"station_id":"","pricing_plan_id":"cebpf4jnsgd1na2vs0mg"},{"bike_id":"448ae88c-dabf-4589-a5e8-b16a7f8908ef","system_id":"levelo_inurba_marseille","lat":43.27065,"lon":5.42283,"is_reserved":false,"is_disabled":false,"rental_uris":{"android":"levelo://app?vid=448ae88c-dabf-4589-a5e8-b16a7f8908ef","ios":"levelo://app?vid=448ae88c-dabf-4589-a5e8-b16a7f8908ef"},"vehicle_type_id":"4","last_reported":1733753390,"current_range_meters":26800,"station_id":"ce4bhk92rcd13ifvqgb0","pricing_plan_id":"cebpf4jnsgd1na2vs0mg"},{"bike_id":"fa7f1210-1a59-49da-a06e-e9a907734490","system_id":"levelo_inurba_marseille","lat":43.27177,"lon":5.40994,"is_reserved":false,"is_disabled":false,"rental_uris":{"android":"levelo://app?vid=fa7f1210-1a59-49da-a06e-e9a907734490","ios":"levelo://app?vid=fa7f1210-1a59-49da-a06e-e9a907734490"},"vehicle_type_id":"4","last_reported":1733753390,"current_range_meters":30800,"station_id":"ce4bhl12rcd13ifvqgf0","pricing_plan_id":"cebpf4jnsgd1na2vs0mg"},{"bike_id":"80d1dd7f-149c-44ac-bbf1-77fc017869e8","system_id":"levelo_inurba_marseille","lat":43.28343,"lon":5.38113,"is_reserved":false,"is_disabled":true,"rental_uris":{"android":"levelo://app?vid=80d1dd7f-149c-44ac-bbf1-77fc017869e8","ios":"levelo://app?vid=80d1dd7f-149c-44ac-bbf1-77fc017869e8"},"vehicle_type_id":"4","last_reported":1733753390,"current_range_meters":2000,"station_id":"ce4bh412rcd13ifvqdr0","pricing_plan_id":"cebpf4jnsgd1na2vs0mg"},{"bike_id":"857555c7-f7d1-4f85-adbb-1acf3032ed0a","system_id":"levelo_inurba_marseille","lat":43.24646,"lon":5.38902,"is_reserved":false,"is_disabled":false,"rental_uris":{"android":"levelo://app?vid=857555c7-f7d1-4f85-adbb-1acf3032ed0a","ios":"levelo://app?vid=857555c7-f7d1-4f85-adbb-1acf3032ed0a"},"vehicle_type_id":"4","last_reported":1733753390,"current_range_meters":34000,"station_id":"ce4bhg12rcd13ifvqf60","pricing_plan_id":"cebpf4jnsgd1na2vs0mg"},