{"last_updated":1758031800,"ttl":60,"version":"2.2","data":{"bikes":[{"bike_id":"4f9bd625-ea72-423e-9234-f59f397dfa3c","system_id":"levelo_inurba_marseille","lat":43.21187,"lon":5.35069,"is_reserved":false,"is_disabled":false,"rental_uris":{"android":"levelo://app?vid=4f9bd625-ea72-423e-9234-f59f397dfa3c","ios":"levelo://app?vid=4f9bd625-ea72-423e-9234-f59f397dfa3c"},"vehicle_type_id":"4","last_reported":1758031800,"current_range_meters":2800,"station_id":"st_cvj6sg6p6f1abm77japg","pricing_plan_id":"cebpf4jnsgd1na2vs0mg"},{"bike_id":"91960a72-b70d-4803-85fb-90915a937faf","system_id":"levelo_inurba_marseille","lat":43.26558,"lon":5.40324,"is_reserved":false,"is_disabled":false,"rental_uris":{"android":"levelo://app?vid=91960a72-b70d-4803-85fb-90915a937faf","ios":"levelo://app?vid=91960a72-b70d-4803-85fb-90915a937faf"},"vehicle_type_id":"4","last_reported":1758031800,"current_range_meters":2800,"station_id":"ce4bhmp2rcd13ifvqgng","pricing_plan_id":"cebpf4jnsgd1na2vs0mg"},{"bike_id":"92328f20-9c61-4621-aefd-c280af7d31a0","system_id":"levelo_inurba_marseille","lat":43.288597,"lon":5.425233,"is_reserved":false,"is_disabled":false,"rental_uris":{"android":"levelo://app?vid=92328f20-9c61-4621-aefd-c280af7d31a0","ios":"levelo://app?vid=92328f20-9c61-4621-aefd-c280af7d31a0"},"vehicle_type_id":"4","last_reported":1758031800,"current_range_meters":2800,"station_id":"","pricing_plan_id":"cebpf4jnsgd1na2vs0mg"},{"bike_id":"55fd3e3b-493c-4f91-ae37-a650fabc4e32","system_id":"levelo_inurba_marseille","lat":43.302146,"lon":5.394698,"is_reserved":false,"is_disabled":false,"rental_uris":{"android":"levelo://app?vid=55fd3e3b-493c-4f91-ae37-a650fabc4e32","ios":"levelo://app?vid=55fd3e3b-493c-4f91-ae37-a650fabc4e32"},"vehicle_type_id":"4","last_reported":1758031800,"current_range_meters":2800,"station_id":"ce4bh0p2rcd13ifvqd70","pricing_plan_id":"cebpf4jnsgd1na2vs0mg"},{"bike_id":"03809294-3a3e-4efa-afda-0ac11dcf72fc","system_id":"levelo_inurba_marseille","lat":43.337377,"lon":5.374764,"is_reserved":false,"is_disabled":false,"rental_uris":{"android":"levelo://app?vid=03809294-3a3e-4efa-afda-0ac11dcf72fc","ios":"levelo://app?vid=03809294-3a3e-4efa-afda-0ac11dcf72fc"},"vehicle_type_id":"4","last_reported":1758031800,"current_range_meters":2800,"station_id":"","pricing_plan_id":"cebpf4jnsgd1na2vs0mg"},{"bike_id":"d765e876-dc94-417e-ad8c-0ac49bf5261a","system_id":"levelo_inurba_marseille","lat":43.33227,"lon":5.36324,"is_reserved":false,"is_disabled":false,"rental_uris":{"android":"levelo://app?vid=d765e876-dc94-417e-ad8c-0ac49bf5261a","ios":"levelo://app?vid=d765e876-dc94-417e-ad8c-0ac49bf5261a"},"vehicle_type_id":"4","last_reported":1758031800,"current_range_meters":3200,"station_id":"","pricing_plan_id":"cebpf4jnsgd1na2vs0mg"},{"bike_id":"80af42c1-9eaa-476a-890c-d393fc57180e","system_id":"levelo_inurba_marseille","lat":43.28614,"lon":5.35105,"is_reserved":false,"is_disabled":false,"rental_uris":{"android":"levelo://app?vid=80af42c1-9eaa-476a-890c-d393fc57180e","ios":"levelo://app?vid=80af42c1-9eaa-476a-890c-d393fc57180e"},"vehicle_type_id":"4","last_reported":1758031800,"current_range_meters":3200,"station_id":"ce4bhch2rcd13ifvqeug","pricing_plan_id":"cebpf4jnsgd1na2vs0mg"},{"bike_id":"4ec115f7-70e2-44a0-950b-cc56db458600","system_id":"levelo_inurba_marseille","lat":43.21752,"lon":5.34612,"is_reserved":false,"is_disabled":true,"rental_uris":{"android":"levelo://app?vid=4ec115f7-70e2-44a0-950b-cc56db458600","ios":"levelo://app?vid=4ec115f7-70e2-44a0-950b-cc56db458600"},"vehicle_type_id":"4","last_reported":1758031800,"current_range_meters":3200,"station_id":"st_cvj6r9ubvosntc0bgbag","pricing_plan_id":"cebpf4jnsgd1na2vs0mg"},{"bike_id":"6b5b3c8e-1efc-443e-8d65-f1b5bb18a3da","system_id":"levelo_inurba_marseille","lat":43.2684,"lon":5.39592,"is_reserved":false,"is_disabled":false,"rental_uris":{"android":"levelo://app?vid=6b5b3c8e-1efc-443e-8d65-f1b5bb18a3da","ios":"levelo://app?vid=6b5b3c8e-1efc-443e-8d65-f1b5bb18a3da"},"vehicle_type_id":"4","last_reported":1758031800,"current_range_meters":3200,"station_id":"","pricing_plan_id":"cebpf4jnsgd1na2vs0mg"},{"bike_id":"55acb65c-38b3-4742-8bfe-c8d20151e5fe","system_id":"levelo_inurba_marseille","lat":43.29014,"lon":5.38125,"is_reserved":false,"is_disabled":true,"rental_uris":{"android":"levelo://app?vid=55acb65c-38b3-4742-8bfe-c8d20151e5fe","ios":"levelo://app?vid=55acb65c-38b3-4742-8bfe-c8d20151e5fe"},"vehicle_type_id":"4","last_reported":1758031800,"current_range_meters":2800,"station_id":"ce4bh4p2rcd13ifvqe1g","pricing_plan_id":"cebpf4jnsgd1na2vs0mg"},{"bike_id":"63c2bec2-56ae-42d4-a965-91defc1f04e9","system_id":"levelo_inurba_marseille","lat":43.29697,"lon":5.38016,"is_reserved":false,"is_disabled":false,"rental_uris":{"android":"levelo://app?vid=63c2bec2-56ae-42d4-a965-91defc1f04e9","ios":"levelo://app?vid=63c2bec2-56ae-42d4-a965-91defc1f04e9"},"vehicle_type_id":"4","last_reported":1758031800,"current_range_meters":3600,"station_id":"","pricing_plan_id":"cebpf4jnsgd1na2vs0mg"},{"bike_id":"3145861c-7a71-4655-b85d-f2d20dd27e9c","system_id":"levelo_inurba_marseille","lat":43.30538,"lon":5.36551,"is_reserved":false,"is_disabled":false,"rental_uris":{"android":"levelo://app?vid=3145861c-7a71-4655-b85d-f2d20dd27e9c","ios":"levelo://app?vid=3145861c-7a71-4655-b85d-f2d20dd27e9c"},"vehicle_type_id":"4","last_reported":1758031800,"current_range_meters":3600,"station_id":"ce4bgs12rcd13ifvqcag","pricing_plan_id":"cebpf4jnsgd1na2vs0mg"},{"bike_id":"3bd79661-6def-43c8-b210-869fd67a5981","system_id":"levelo_inurba_marseille","lat":43.30908,"lon":5.36841,"is_reserved":false,"is_disabled":false,"rental_uris":{"android":"levelo://app?vid=3bd79661-6def-43c8-b210-869fd67a5981","ios":"levelo://app?vid=3bd79661-6def-43c8-b210-869fd67a5981"},"vehicle_type_id":"4","last_reported":1758031800,"current_range_meters":3600,"station_id":"ce4bgn92rcd13ifvqbvg","pricing_plan_id":"cebpf4jnsgd1na2vs0mg"},{"bike_id":"c37933c6-f301-4e72-ae28-b86236887c46","system_id":"levelo_inurba_marseille","lat":43.225329,"lon":5.348362,"is_reserved":false,"is_disabled":false,"rental_uris":{"android":"levelo://app?vid=c37933c6-f301-4e72-ae28-b86236887c46","ios":"levelo://app?vid=c37933c6-f301-4e72-ae28-b86236887c46"},"vehicle_type_id":"4","last_reported":1758031800,"current_range_meters":3600,"station_id":"","pricing_plan_id":"cebpf4jnsgd1na2vs0mg"},{"bike_id":"ef164c7c-431c-4239-9421-ae0b149498dc","system_id":"levelo_inurba_marseille","lat":43.3112,"lon":5.37765,"is_reserved":false,"is_disabled":false,"rental_uris":{"android":"levelo://app?vid=ef164c7c-431c-4239-9421-ae0b149498dc","ios":"levelo://app?vid=ef164c7c-431c-4239-9421-ae0b149498dc"},"vehicle_type_id":"4","last_reported":1758031800,"current_range_meters":3600,"station_id":"ce4bgt92rcd13ifvqcg0","pricing_plan_id":"cebpf4jnsgd1na2vs0mg"},{"bike_id":"d2c2f1d0-8b01-4e08-9dff-706d88363fef","system_id":"levelo_inurba_marseille","lat":43.290525,"lon":5.37604,"is_reserved":false,"is_disabled":false,"rental_uris":{"android":"levelo://app?vid=d2c2f1d0-8b01-4e08-9dff-706d88363fef","ios":"levelo://app?vid=d2c2f1d0-8b01-4e08-9dff-706d88363fef"},"vehicle_type_id":"4","last_reported":1758031800,"current_range_meters":3600,"station_id":"ce4bh692rcd13ifvqe90","pricing_plan_id":"cebpf4jnsgd1na2vs0mg"},{"bike_id":"23edbd1b-0143-4d0e-924d-46c5cf5acdbb","system_id":"levelo_inurba_marseille","lat":43.3043,"lon":5.3975,"is_reserved":false,"is_disabled":false,"rental_uris":{"android":"levelo://app?vid=23edbd1b-0143-4d0e-924d-46c5cf5acdbb","ios":"levelo://app?vid=23edbd1b-0143-4d0e-924d-46c5cf5acdbb"},"vehicle_type_id":"4","last_reported":1758031800,"current_range_meters":3600,"station_id":"ce4bh092rcd13ifvqd20","pricing_plan_id":"cebpf4jnsgd1na2vs0mg"},{"bike_id":"55e3877c-b31d-40a3-83c6-147caf5f8ddb","system_id":"levelo_inurba_marseille","lat":43.29005,"lon":5.35606,"is_reserved":false,"is_disabled":false,"rental_uris":{"android":"levelo://app?vid=55e3877c-b31d-40a3-83c6-147caf5f8ddb","ios":"levelo://app?vid=55e3877c-b31d-40a3-83c6-147caf5f8ddb"},"vehicle_type_id":"4","last_reported":1758031800,"current_range_meters":4000,"station_id":"ce4bhb92rcd13ifvqen0","pricing_plan_id":"cebpf4jnsgd1na2vs0mg"},{"bike_id":"87edc60d-c5d0-4b90-862a-78614ae0ecf4","system_id":"levelo_inurba_marseille","lat":43.28696,"lon":5.3832,"is_reserved":false,"is_disabled":false,"rental_uris":{"android":"levelo://app?vid=87edc60d-c5d0-4b90-862a-78614ae0ecf4","ios":"levelo://app?vid=87edc60d-c5d0-4b90-862a-78614ae0ecf4"},"vehicle_type_id":"4","last_reported":1758031800,"current_range_meters":4000,"station_id":"","pricing_plan_id":"cebpf4jnsgd1na2vs0mg"},{"bike_id":"6e56b163-41ac-47d1-9f97-fae8c62881b1","system_id":"levelo_inurba_marseille","lat":43.26497,"lon":5.39533,"is_reserved":false,"is_disabled":false,"rental_uris":{"android":"levelo://app?vid=6e56b163-41ac-47d1-9f97-fae8c62881b1","ios":"levelo://app?vid=6e56b163-41ac-47d1-9f97-fae8c62881b1"},"vehicle_type_id":"4","last_reported":1758031800,"current_range_meters":4000,"station_id":"ce4bhi12rcd13ifvqfq0","pricing_plan_id":"cebpf4jnsgd1na2vs0mg"},{"bike_id":"a1902f1b-b5cb-4b83-8962-0c99ad25546b","system_id":"levelo_inurba_marseille","lat":43.28256,"lon":5.35066,"is_reserved":false,"is_disabled":false,"rental_uris":{"android":"levelo://app?vid=a1902f1b-b5cb-4b83-8962-0c99ad25546b","ios":"levelo://app?vid=a1902f1b-b5cb-4b83-8962-0c99ad25546b"},"vehicle_type_id":"4","last_reported":1758031800,"current_range_meters":4000,"station_id":"ce4bhbp2rcd13ifvqerg","pricing_plan_id":"cebpf4jnsgd1na2vs0mg"},{"bike_id":"f7ac85a9-20be-4d2a-881e-cf6f9829206c","system_id":"levelo_inurba_marseille","lat":43.28961,"lon":5.35675,"is_reserved":false,"is_disabled":false,"rental_uris":{"android":"levelo://app?vid=f7ac85a9-20be-4d2a-881e-cf6f9829206c","ios":"levelo://app?vid=f7ac85a9-20be-4d2a-881e-cf6f9829206c"},"vehicle_type_id":"4","last_reported":1758031800,"current_range_meters":4400,"station_id":"","pricing_plan_id":"cebpf4jnsgd1na2vs0mg"},{"bike_id":"1169fbae-55f0-4960-ba29-1c470858c2c5","system_id":"levelo_inurba_marseille","lat":43.286735,"lon":5.386801,"is_reserved":false,"is_disabled":false,"rental_uris":{"android":"levelo://app?vid=1169fbae-55f0-4960-ba29-1c470858c2c5","ios":"levelo://app?vid=1169fbae-55f0-4960-ba29-1c470858c2c5"},"vehicle_type_id":"4","last_reported":1758031800,"current_range_meters":4400,"station_id":"","pricing_plan_id":"cebpf4jnsgd1na2vs0mg"},{"bike_id":"80929e0f-3d7a-47ff-b08a-19b0b2713c01","system_id":"levelo_inurba_marseille","lat":43.286173,"lon":5.351103,"is_reserved":false,"is_disabled":false,"rental_uris":{"android":"levelo://app?vid=80929e0f-3d7a-47ff-b08a-19b0b2713c01","ios":"levelo://app?vid=80929e0f-3d7a-47ff-b08a-19b0b2713c01"},"vehicle_type_id":"4","last_reported":1758031800,"current_range_meters":4400,"station_id":"ce4bhch2rcd13ifvqeug","pricing_plan_id":"cebpf4jnsgd1na2vs0mg"},{"bike_id":"a234c8d6-1e23-409a-95bc-672a869cb12e","system_id":"levelo_inurba_marseille","lat":43.32638,"lon":5.40285,"is_reserved":false,"is_disabled":false,"rental_uris":{"android":"levelo://app?vid=a234c8d6-1e23-409a-95bc-672a869cb12e","ios":"levelo://app?vid=a234c8d6-1e23-409a-95bc-672a869cb12e"},"vehicle_type_id":"4","last_reported":1758031800,"current_range_meters":4400,"station_id":"","pricing_plan_id":"cebpf4jnsgd1na2vs0mg"},{"bike_id":"ab02c049-818a-4847-9399-7f522dd4fe02","system_id":"levelo_inurba_marseille","lat":43.26557,"lon":5.37279,"is_reserved":false,"is_disabled":false,"rental_uris":{"android":"levelo://app?vid=ab02c049-818a-4847-9399-7f522dd4fe02","ios":"levelo://app?vid=ab02c049-818a-4847-9399-7f522dd4fe02"},"vehicle_type_id":"4","last_reported":1758031800,"current_range_meters":4800,"station_id":"ce4bhg12rcd13ifvqf70","pricing_plan_id":"cebpf4jnsgd1na2vs0mg"},{"bike_id":"e60f902d-785b-4d06-be69-13e8e6b383d2","system_id":"levelo_inurba_marseille","lat":43.31161,"lon":5.38732,"is_reserved":false,"is_disabled":false,"rental_uris":{"android":"levelo://app?vid=e60f902d-785b-4d06-be69-13e8e6b383d2","ios":"levelo://app?vid=e60f902d-785b-4d06-be69-13e8e6b383d2"},"vehicle_type_id":"4","last_reported":1758031800,"current_range_meters":4800,"station_id":"ce4bgv12rcd13ifvqcp0","pricing_plan_id":"cebpf4jnsgd1na2vs0mg"},{"bike_id":"dd32f779-e928-424d-999f-b730cf475fa7","system_id":"levelo_inurba_marseille","lat":43.22399,"lon":5.34657,"is_reserved":false,"is_disabled":false,"rental_uris":{"android":"levelo://app?vid=dd32f779-e928-424d-999f-b730cf475fa7","ios":"levelo://app?vid=dd32f779-e928-424d-999f-b730cf475fa7"},"vehicle_type_id":"4","last_reported":1758031800,"current_range_meters":5600,"station_id":"","pricing_plan_id":"cebpf4jnsgd1na2vs0mg"},{"bike_id":"1374c921-774d-4cdd-b933-ba9f84a16353","system_id":"levelo_inurba_marseille","lat":43.2826,"lon":5.35063,"is_reserved":false,"is_disabled":false,"rental_uris":{"android":"levelo://app?vid=1374c921-774d-4cdd-b933-ba9f84a16353","ios":"levelo://app?vid=1374c921-774d-4cdd-b933-ba9f84a16353"},"vehicle_type_id":"4","last_reported":1758031800,"current_range_meters":5600,"station_id":"ce4bhbp2rcd13ifvqerg","pricing_plan_id":"cebpf4jnsgd1na2vs0mg"},{"bike_id":"cfd5bd39-5ccd-4cd1-bff9-3cd0fc4f953c","system_id":"levelo_inurba_marseille","lat":43.28412,"lon":5.34972,"is_reserved":false,"is_disabled":false,"rental_uris":{"android":"levelo://app?vid=cfd5bd39-5ccd-4cd1-bff9-3cd0fc4f953c","ios":"levelo://app?vid=cfd5bd39-5ccd-4cd1-bff9-3cd0fc4f953c"},"vehicle_type_id":"4","last_reported":1758031800,"current_range_meters":5600,"station_id":"ce4bhbh2rcd13ifvqepg","pricing_plan_id":"cebpf4jnsgd1na2vs0mg"},{"bike_id":"f2eebb52-6564-4651-b5c2-9eb8c9a75ef3","system_id":"levelo_inurba_marseille","lat":43.29366,"lon":5.37842,"is_reserved":false,"is_disabled":false,"rental_uris":{"android":"levelo://app?vid=f2eebb52-6564-4651-b5c2-9eb8c9a75ef3","ios":"levelo://app?vid=f2eebb52-6564-4651-b5c2-9eb8c9a75ef3"},"vehicle_type_id":"4","last_reported":1758031800,"current_range_meters":5600,"station_id":"ce4bgjh2rcd13ifvqbf0","pricing_plan_id":"cebpf4jnsgd1na2vs0mg"},{"bike_id":"23b924d9-c567-479f-8e19-21bb62c9a176","system_id":"levelo_inurba_marseille","lat":43.27302,"lon":5.39072,"is_reserved":false,"is_disabled":false,"rental_uris":{"android":"levelo://app?vid=23b924d9-c567-479f-8e19-21bb62c9a176","ios":"levelo://app?vid=23b924d9-c567-479f-8e19-21bb62c9a176"},"vehicle_type_id":"4","last_reported":1758031800,"current_range_meters":6000,"station_id":"ce4bhgp2rcd13ifvqfe0","pricing_plan_id":"cebpf4jnsgd1na2vs0mg"},{"bike_id":"7b17b12e-98e2-4807-b465-9ed7bfb5c5dc","system_id":"levelo_inurba_marseille","lat":43.28618,"lon":5.35107,"is_reserved":false,"is_disabled":false,"rental_uris":{"android":"levelo://app?vid=7b17b12e-98e2-4807-b465-9ed7bfb5c5dc","ios":"levelo://app?vid=7b17b12e-98e2-4807-b465-9ed7bfb5c5dc"},"vehicle_type_id":"4","last_reported":1758031800,"current_range_meters":6000,"station_id":"ce4bhch2rcd13ifvqeug","pricing_plan_id":"cebpf4jnsgd1na2vs0mg"},{"bike_id":"48b22513-2c83-4f03-81dd-e5362a726512","system_id":"levelo_inurba_marseille","lat":43.28621,"lon":5.35102,"is_reserved":false,"is_disabled":false,"rental_uris":{"android":"levelo://app?vid=48b22513-2c83-4f03-81dd-e5362a726512","ios":"levelo://app?vid=48b22513-2c83-4f03-81dd-e5362a726512"},"vehicle_type_id":"4","last_reported":1758031800,"current_range_meters":6000,"station_id":"ce4bhch2rcd13ifvqeug","pricing_plan_id":"cebpf4jnsgd1na2vs0mg"},{"bike_id":"33bb1785-d459-4f3b-9518-672a188c6a87","system_id":"levelo_inurba_marseille","lat":43.337444,"lon":5.374475,"is_reserved":false,"is_disabled":false,"rental_uris":{"android":"levelo://app?vid=33bb1785-d459-4f3b-9518-672a188c6a87","ios":"levelo://app?vid=33bb1785-d459-4f3b-9518-672a188c6a87"},"vehicle_type_id":"4","last_reported":1758031800,"current_range_meters":6000,"station_id":"","pricing_plan_id":"cebpf4jnsgd1na2vs0mg"},{"bike_id":"d6ed9793-3ecb-43f1-a394-fef0a9592577","system_id":"levelo_inurba_marseille","lat":43.31347,"lon":5.367137,"is_reserved":false,"is_disabled":false,"rental_uris":{"android":"levelo://app?vid=d6ed9793-3ecb-43f1-a394-fef0a9592577","ios":"levelo://app?vid=d6ed9793-3ecb-43f1-a394-fef0a9592577"},"vehicle_type_id":"4","last_reported":1758031800,"current_range_meters":6000,"station_id":"ce4bgr92rcd13ifvqc6g","pricing_plan_id":"cebpf4jnsgd1na2vs0mg"},{"bike_id":"ad073dd2-99e4-4415-8fed-40e968785af8","system_id":"levelo_inurba_marseille","lat":43.3065,"lon":5.40089,"is_reserved":false,"is_disabled":false,"rental_uris":{"android":"levelo://app?vid=ad073dd2-99e4-4415-8fed-40e968785af8","ios":"levelo://app?vid=ad073dd2-99e4-4415-8fed-40e968785af8"},"vehicle_type_id":"4","last_reported":1758031800,"current_range_meters":6400,"station_id":"ce4bh112rcd13ifvqda0","pricing_plan_id":"cebpf4jnsgd1na2vs0mg"},{"bike_id":"178fa568-1c50-462f-a706-8cc286b5fa97","system_id":"levelo_inurba_marseille","lat":43.30898,"lon":5.3683,"is_reserved":false,"is_disabled":false,"rental_uris":{"android":"levelo://app?vid=178fa568-1c50-462f-a706-8cc286b5fa97","ios":"levelo://app?vid=178fa568-1c50-462f-a706-8cc286b5fa97"},"vehicle_type_id":"4","last_reported":1758031800,"current_range_meters":6400,"station_id":"ce4bgn92rcd13ifvqbvg","pricing_plan_id":"cebpf4jnsgd1na2vs0mg"},{"bike_id":"27bc6b0c-c22e-494b-ab92-4e390584592b","system_id":"levelo_inurba_marseille","lat":43.33743,"lon":5.37446,"is_reserved":false,"is_disabled":false,"rental_uris":{"android":"levelo://app?vid=27bc6b0c-c22e-494b-ab92-4e390584592b","ios":"levelo://app?vid=27bc6b0c-c22e-494b-ab92-4e390584592b"},"vehicle_type_id":"4","last_reported":1758031800,"current_range_meters":6400,"station_id":"","pricing_plan_id":"cebpf4jnsgd1na2vs0mg"},{"bike_id":"f45e9ac4-02df-45e7-ae21-849784450dfc","system_id":"levelo_inurba_marseille","lat":43.2826,"lon":5.35057,"is_reserved":false,"is_disabled":false,"rental_uris":{"android":"levelo://app?vid=f45e9ac4-02df-45e7-ae21-849784450dfc","ios":"levelo://app?vid=f45e9ac4-02df-45e7-ae21-849784450dfc"},"vehicle_type_id":"4","last_reported":1758031800,"current_range_meters":6800,"station_id":"ce4bhbp2rcd13ifvqerg","pricing_plan_id":"cebpf4jnsgd1na2vs0mg"},{"bike_id":"57127154-7e15-4346-89ed-ab9d76ef9c2c","system_id":"levelo_inurba_marseille","lat":43.28838,"lon":5.36326,"is_reserved":false,"is_disabled":false,"rental_uris":{"android":"levelo://app?vid=57127154-7e15-4346-89ed-ab9d76ef9c2c","ios":"levelo://app?vid=57127154-7e15-4346-89ed-ab9d76ef9c2c"},"vehicle_type_id":"4","last_reported":1758031800,"current_range_meters":6800,"station_id":"","pricing_plan_id":"cebpf4jnsgd1na2vs0mg"},{"bike_id":"e7a329bd-ed66-4ac7-aaba-63f2810ddd86","system_id":"levelo_inurba_marseille","lat":43.31859,"lon":5.37206,"is_reserved":false,"is_disabled":false,"rental_uris":{"android":"levelo://app?vid=e7a329bd-ed66-4ac7-aaba-63f2810ddd86","ios":"levelo://app?vid=e7a329bd-ed66-4ac7-aaba-63f2810ddd86"},"vehicle_type_id":"4","last_reported":1758031800,"current_range_meters":7200,"station_id":"","pricing_plan_id":"cebpf4jnsgd1na2vs0mg"},{"bike_id":"99c9ac6e-9146-4a1a-b07d-7886fa4cb47a","system_id":"levelo_inurba_marseille","lat":43.28607,"lon":5.35097,"is_reserved":false,"is_disabled":false,"rental_uris":{"android":"levelo://app?vid=99c9ac6e-9146-4a1a-b07d-7886fa4cb47a","ios":"levelo://app?vid=99c9ac6e-9146-4a1a-b07d-7886fa4cb47a"},"vehicle_type_id":"4","last_reported":1758031800,"current_range_meters":7200,"station_id":"ce4bhch2rcd13ifvqeug","pricing_plan_id":"cebpf4jnsgd1na2vs0mg"},{"bike_id":"3497e7a2-d1ac-45c8-b73f-5afe1dfc9c24","system_id":"levelo_inurba_marseille","lat":43.286193,"lon":5.370591,"is_reserved":false,"is_disabled":false,"rental_uris":{"android":"levelo://app?vid=3497e7a2-d1ac-45c8-b73f-5afe1dfc9c24","ios":"levelo://app?vid=3497e7a2-d1ac-45c8-b73f-5afe1dfc9c24"},"vehicle_type_id":"4","last_reported":1758031800,"current_range_meters":7200,"station_id":"ce4bht12rcd13ifvqi60","pricing_plan_id":"cebpf4jnsgd1na2vs0mg"},{"bike_id":"6e983bf7-fd87-4941-9348-082fe0e4606c","system_id":"levelo_inurba_marseille","lat":43.241677,"lon":5.396099,"is_reserved":false,"is_disabled":false,"rental_uris":{"android":"levelo://app?vid=6e983bf7-fd87-4941-9348-082fe0e4606c","ios":"levelo://app?vid=6e983bf7-fd87-4941-9348-082fe0e4606c"},"vehicle_type_id":"4","last_reported":1758031800,"current_range_meters":7200,"station_id":"ce4bhn12rcd13ifvqgpg","pricing_plan_id":"cebpf4jnsgd1na2vs0mg"},{"bike_id":"13d32666-d94f-41f6-83eb-f3a1e138579e","system_id":"levelo_inurba_marseille","lat":43.28126,"lon":5.35024,"is_reserved":false,"is_disabled":false,"rental_uris":{"android":"levelo://app?vid=13d32666-d94f-41f6-83eb-f3a1e138579e","ios":"levelo://app?vid=13d32666-d94f-41f6-83eb-f3a1e138579e"},"vehicle_type_id":"4","last_reported":1758031800,"current_range_meters":7200,"station_id":"","pricing_plan_id":"cebpf4jnsgd1na2vs0mg"},{"bike_id":"b150af79-1f66-493e-9610-0724af328721","system_id":"levelo_inurba_marseille","lat":43.30795,"lon":5.38153,"is_reserved":false,"is_disabled":false,"rental_uris":{"android":"levelo://app?vid=b150af79-1f66-493e-9610-0724af328721","ios":"levelo://app?vid=b150af79-1f66-493e-9610-0724af328721"},"vehicle_type_id":"4","last_reported":1758031800,"current_range_meters":8000,"station_id":"ce4bgt12rcd13ifvqce0","pricing_plan_id":"cebpf4jnsgd1na2vs0mg"},{"bike_id":"2727360c-7071-4488-b367-6de028d86dcb","system_id":"levelo_inurba_marseille","lat":43.29785,"lon":5.37096,"is_reserved":false,"is_disabled":false,"rental_uris":{"android":"levelo://app?vid=2727360c-7071-4488-b367-6de028d86dcb","ios":"levelo://app?vid=2727360c-7071-4488-b367-6de028d86dcb"},"vehicle_type_id":"4","last_reported":1758031800,"current_range_meters":8000,"station_id":"ce4bgop2rcd13ifvqc1g","pricing_plan_id":"cebpf4jnsgd1na2vs0mg"},{"bike_id":"f7825ce6-de89-45bf-831f-3599d0d91c3c","system_id":"levelo_inurba_marseille","lat":43.30601,"lon":5.36655,"is_reserved":false,"is_disabled":false,"rental_uris":{"android":"levelo://app?vid=f7825ce6-de89-45bf-831f-3599d0d91c3c","ios":"levelo://app?vid=f7825ce6-de89-45bf-831f-3599d0d91c3c"},"vehicle_type_id":"4","last_reported":1758031800,"current_range_meters":8000,"station_id":"","pricing_plan_id":"cebpf4jnsgd1na2vs0mg"},{"bike_id":"03194080-5781-444b-b7de-951ed4ccc764","system_id":"levelo_inurba_marseille","lat":43.30262,"lon":5.40076,"is_reserved":false,"is_disabled":false,"rental_uris":{"android":"levelo://app?vid=03194080-5781-444b-b7de-951ed4ccc764","ios":"levelo://app?vid=03194080-5781-444b-b7de-951ed4ccc764"},"vehicle_type_id":"4","last_reported":1758031800,"current_range_meters":8000,"station_id":"ce4bgvh2rcd13ifvqcs0","pricing_plan_id":"cebpf4jnsgd1na2vs0mg"},{"bike_id":"a1acfc69-a639-45bf-9986-789d4921a635","system_id":"levelo_inurba_marseille","lat":43.28264,"lon":5.35074,"is_reserved":false,"is_disabled":false,"rental_uris":{"android":"levelo://app?vid=a1acfc69-a639-45bf-9986-789d4921a635","ios":"levelo://app?vid=a1acfc69-a639-45bf-9986-789d4921a635"},"vehicle_type_id":"4","last_reported":1758031800,"current_range_meters":8000,"station_id":"ce4bhbp2rcd13ifvqerg","pricing_plan_id":"cebpf4jnsgd1na2vs0mg"},{"bike_id":"62e6d524-304b-4f35-8a20-b2f1fefe523b","system_id":"levelo_inurba_marseille","lat":43.29196,"lon":5.39332,"is_reserved":false,"is_disabled":false,"rental_uris":{"android":"levelo://app?vid=62e6d524-304b-4f35-8a20-b2f1fefe523b","ios":"levelo://app?vid=62e6d524-304b-4f35-8a20-b2f1fefe523b"},"vehicle_type_id":"4","last_reported":1758031800,"current_range_meters":8000,"station_id":"ce4bh192rcd13ifvqdd0","pricing_plan_id":"cebpf4jnsgd1na2vs0mg"},{"bike_id":"73b50f1e-e361-466d-b626-a271a754f51a","system_id":"levelo_inurba_marseille","lat":43.29781,"lon":5.37112,"is_reserved":false,"is_disabled":false,"rental_uris":{"android":"levelo://app?vid=73b50f1e-e361-466d-b626-a271a754f51a","ios":"levelo://app?vid=73b50f1e-e361-466d-b626-a271a754f51a"},"vehicle_type_id":"4","last_reported":1758031800,"current_range_meters":8000,"station_id":"ce4bgop2rcd13ifvqc1g","pricing_plan_id":"cebpf4jnsgd1na2vs0mg"},{"bike_id":"5570c680-c9dc-4862-8050-2310b8dfd168","system_id":"levelo_inurba_marseille","lat":43.3088,"lon":5.3962,"is_reserved":false,"is_disabled":false,"rental_uris":{"android":"levelo://app?vid=5570c680-c9dc-4862-8050-2310b8dfd168","ios":"levelo://app?vid=5570c680-c9dc-4862-8050-2310b8dfd168"},"vehicle_type_id":"4","last_reported":1758031800,"current_range_meters":8000,"station_id":"ce4bh012rcd13ifvqcv0","pricing_plan_id":"cebpf4jnsgd1na2vs0mg"},{"bike_id":"0bcdcf78-8aa5-4eaf-a6e6-5cf7c7de66fe","system_id":"levelo_inurba_marseille","lat":43.30644,"lon":5.40101,"is_reserved":false,"is_disabled":false,"rental_uris":{"android":"levelo://app?vid=0bcdcf78-8aa5-4eaf-a6e6-5cf7c7de66fe","ios":"levelo://app?vid=0bcdcf78-8aa5-4eaf-a6e6-5cf7c7de66fe"},"vehicle_type_id":"4","last_reported":1758031800,"current_range_meters":8400,"station_id":"ce4bh112rcd13ifvqda0","pricing_plan_id":"cebpf4jnsgd1na2vs0mg"},{"bike_id":"322c1f5a-85db-4ef6-bcd4-1b5c417c8ee0","system_id":"levelo_inurba_marseille","lat":43.3377,"lon":5.37488,"is_reserved":false,"is_disabled":false,"rental_uris":{"android":"levelo://app?vid=322c1f5a-85db-4ef6-bcd4-1b5c417c8ee0","ios":"levelo://app?vid=322c1f5a-85db-4ef6-bcd4-1b5c417c8ee0"},"vehicle_type_id":"4","last_reported":1758031800,"current_range_meters":8400,"station_id":"","pricing_plan_id":"cebpf4jnsgd1na2vs0mg"},{"bike_id":"f07bfd2d-da87-4119-8ec2-19053d0b8bb5","system_id":"levelo_inurba_marseille","lat":43.28414,"lon":5.375,"is_reserved":false,"is_disabled":false,"rental_uris":{"android":"levelo://app?vid=f07bfd2d-da87-4119-8ec2-19053d0b8bb5","ios":"levelo://app?vid=f07bfd2d-da87-4119-8ec2-19053d0b8bb5"},"vehicle_type_id":"4","last_reported":1758031800,"current_range_meters":8400,"station_id":"ce4bh412rcd13ifvqds0","pricing_plan_id":"cebpf4jnsgd1na2vs0mg"},{"bike_id":"8442639b-228c-48c6-a19f-e5166729a7f5","system_id":"levelo_inurba_marseille","lat":43.30633,"lon":5.40096,"is_reserved":false,"is_disabled":false,"rental_uris":{"android":"levelo://app?vid=8442639b-228c-48c6-a19f-e5166729a7f5","ios":"levelo://app?vid=8442639b-228c-48c6-a19f-e5166729a7f5"},"vehicle_type_id":"4","last_reported":1758031800,"current_range_meters":8400,"station_id":"ce4bh112rcd13ifvqda0","pricing_plan_id":"cebpf4jnsgd1na2vs0mg"},{"bike_id":"1e54b563-80cc-4ef0-a385-49a32a101794","system_id":"levelo_inurba_marseille","lat":43.30885,"lon":5.3719,"is_reserved":false,"is_disabled":false,"rental_uris":{"android":"levelo://app?vid=1e54b563-80cc-4ef0-a385-49a32a101794","ios":"levelo://app?vid=1e54b563-80cc-4ef0-a385-49a32a101794"},"vehicle_type_id":"4","last_reported":1758031800,"current_range_meters":8800,"station_id":"ce4bguh2rcd13ifvqckg","pricing_plan_id":"cebpf4jnsgd1na2vs0mg"},{"bike_id":"63dc1384-fc6c-4684-975f-38f6a5793898","system_id":"levelo_inurba_marseille","lat":43.30528,"lon":5.36529,"is_reserved":false,"is_disabled":false,"rental_uris":{"android":"levelo://app?vid=63dc1384-fc6c-4684-975f-38f6a5793898","ios":"levelo://app?vid=63dc1384-fc6c-4684-975f-38f6a5793898"},"vehicle_type_id":"4","last_reported":1758031800,"current_range_meters":8800,"station_id":"ce4bgs12rcd13ifvqcag","pricing_plan_id":"cebpf4jnsgd1na2vs0mg"},{"bike_id":"69c5b5d6-825b-4808-90de-3c54318f62c9","system_id":"levelo_inurba_marseille","lat":43.24546,"lon":5.39518,"is_reserved":false,"is_disabled":false,"rental_uris":{"android":"levelo://app?vid=69c5b5d6-825b-4808-90de-3c54318f62c9","ios":"levelo://app?vid=69c5b5d6-825b-4808-90de-3c54318f62c9"},"vehicle_type_id":"4","last_reported":1758031800,"current_range_meters":9200,"station_id":"ce4bhlp2rcd13ifvqgjg","pricing_plan_id":"cebpf4jnsgd1na2vs0mg"},{"bike_id":"764d11cc-0191-4748-82a8-d12ae7bbcc3a","system_id":"levelo_inurba_marseille","lat":43.28608,"lon":5.37065,"is_reserved":false,"is_disabled":false,"rental_uris":{"android":"levelo://app?vid=764d11cc-0191-4748-82a8-d12ae7bbcc3a","ios":"levelo://app?vid=764d11cc-0191-4748-82a8-d12ae7bbcc3a"},"vehicle_type_id":"4","last_reported":1758031800,"current_range_meters":9200,"station_id":"ce4bht12rcd13ifvqi60","pricing_plan_id":"cebpf4jnsgd1na2vs0mg"},{"bike_id":"1fd2d6de-e6d1-4f45-8487-3f28eaade626","system_id":"levelo_inurba_marseille","lat":43.28266,"lon":5.35086,"is_reserved":false,"is_disabled":false,"rental_uris":{"android":"levelo://app?vid=1fd2d6de-e6d1-4f45-8487-3f28eaade626","ios":"levelo://app?vid=1fd2d6de-e6d1-4f45-8487-3f28eaade626"},"vehicle_type_id":"4","last_reported":1758031800,"current_range_meters":9200,"station_id":"ce4bhbp2rcd13ifvqerg","pricing_plan_id":"cebpf4jnsgd1na2vs0mg"},{"bike_id":"de488d4f-5f82-4272-9099-8b6344562981","system_id":"levelo_inurba_marseille","lat":43.29094,"lon":5.38125,"is_reserved":false,"is_disabled":false,"rental_uris":{"android":"levelo://app?vid=de488d4f-5f82-4272-9099-8b6344562981","ios":"levelo://app?vid=de488d4f-5f82-4272-9099-8b6344562981"},"vehicle_type_id":"4","last_reported":1758031800,"current_range_meters":9200,"station_id":"ce4bh512rcd13ifvqe2g","pricing_plan_id":"cebpf4jnsgd1na2vs0mg"},{"bike_id":"34539d66-9bce-4d1c-8b94-78e2e11c6e1a","system_id":"levelo_inurba_marseille","lat":43.28761,"lon":5.42611,"is_reserved":false,"is_disabled":false,"rental_uris":{"android":"levelo://app?vid=34539d66-9bce-4d1c-8b94-78e2e11c6e1a","ios":"levelo://app?vid=34539d66-9bce-4d1c-8b94-78e2e11c6e1a"},"vehicle_type_id":"4","last_reported":1758031800,"current_range_meters":9200,"station_id":"","pricing_plan_id":"cebpf4jnsgd1na2vs0mg"},{"bike_id":"24134c4f-7420-49cc-a4b9-fce39e8b3a82","system_id":"levelo_inurba_marseille","lat":43.27057,"lon":5.4026,"is_reserved":false,"is_disabled":true,"rental_uris":{"android":"levelo://app?vid=24134c4f-7420-49cc-a4b9-fce39e8b3a82","ios":"levelo://app?vid=24134c4f-7420-49cc-a4b9-fce39e8b3a82"},"vehicle_type_id":"4","last_reported":1758031800,"current_range_meters":9200,"station_id":"ce4bhk92rcd13ifvqgc0","pricing_plan_id":"cebpf4jnsgd1na2vs0mg"},{"bike_id":"79770256-aea2-41f9-8bac-ef7e93d6834d","system_id":"levelo_inurba_marseille","lat":43.26224,"lon":5.40452,"is_reserved":false,"is_disabled":false,"rental_uris":{"android":"levelo://app?vid=79770256-aea2-41f9-8bac-ef7e93d6834d","ios":"levelo://app?vid=79770256-aea2-41f9-8bac-ef7e93d6834d"},"vehicle_type_id":"4","last_reported":1758031800,"current_range_meters":9200,"station_id":"ce4bhmh2rcd13ifvqgmg","pricing_plan_id":"cebpf4jnsgd1na2vs0mg"},{"bike_id":"86729533-93f3-4c7e-8df1-2b3bb20a6999","system_id":"levelo_inurba_marseille","lat":43.28262,"lon":5.35059,"is_reserved":false,"is_disabled":true,"rental_uris":{"android":"levelo://app?vid=86729533-93f3-4c7e-8df1-2b3bb20a6999","ios":"levelo://app?vid=86729533-93f3-4c7e-8df1-2b3bb20a6999"},"vehicle_type_id":"4","last_reported":1758031800,"current_range_meters":9200,"station_id":"ce4bhbp2rcd13ifvqerg","pricing_plan_id":"cebpf4jnsgd1na2vs0mg"},{"bike_id":"a2874d17-8c84-4db4-b502-988930727a0c","system_id":"levelo_inurba_marseille","lat":43.23178,"lon":5.39987,"is_reserved":false,"is_disabled":false,"rental_uris":{"android":"levelo://app?vid=a2874d17-8c84-4db4-b502-988930727a0c","ios":"levelo://app?vid=a2874d17-8c84-4db4-b502-988930727a0c"},"vehicle_type_id":"4","last_reported":1758031800,"current_range_meters":9600,"station_id":"ce4bhn12rcd13ifvqgqg","pricing_plan_id":"cebpf4jnsgd1na2vs0mg"},{"bike_id":"d73ebff0-d957-41dc-a638-29b88edc4926","system_id":"levelo_inurba_marseille","lat":43.22557,"lon":5.41603,"is_reserved":false,"is_disabled":false,"rental_uris":{"android":"levelo://app?vid=d73ebff0-d957-41dc-a638-29b88edc4926","ios":"levelo://app?vid=d73ebff0-d957-41dc-a638-29b88edc4926"},"vehicle_type_id":"4","last_reported":1758031800,"current_range_meters":9600,"station_id":"st_d2o4gvlbi1j2169b742g","pricing_plan_id":"cebpf4jnsgd1na2vs0mg"},{"bike_id":"a155e67d-bec0-4326-ae57-c035ef5e1c81","system_id":"levelo_inurba_marseille","lat":43.299,"lon":5.43656,"is_reserved":false,"is_disabled":false,"rental_uris":{"android":"levelo://app?vid=a155e67d-bec0-4326-ae57-c035ef5e1c81","ios":"levelo://app?vid=a155e67d-bec0-4326-ae57-c035ef5e1c81"},"vehicle_type_id":"4","last_reported":1758031800,"current_range_meters":9600,"station_id":"ce4bhpp2rcd13ifvqhfg","pricing_plan_id":"cebpf4jnsgd1na2vs0mg"},{"bike_id":"72024541-ea72-4684-9d58-a08779792132","system_id":"levelo_inurba_marseille","lat":43.28891,"lon":5.39996,"is_reserved":false,"is_disabled":false,"rental_uris":{"android":"levelo://app?vid=72024541-ea72-4684-9d58-a08779792132","ios":"levelo://app?vid=72024541-ea72-4684-9d58-a08779792132"},"vehicle_type_id":"4","last_reported":1758031800,"current_range_meters":9600,"station_id":"","pricing_plan_id":"cebpf4jnsgd1na2vs0mg"},{"bike_id":"c07e7a2d-d8a6-4efd-8723-e965be4d1a74","system_id":"levelo_inurba_marseille","lat":43.22533,"lon":5.348367,"is_reserved":false,"is_disabled":false,"rental_uris":{"android":"levelo://app?vid=c07e7a2d-d8a6-4efd-8723-e965be4d1a74","ios":"levelo://app?vid=c07e7a2d-d8a6-4efd-8723-e965be4d1a74"},"vehicle_type_id":"4","last_reported":1758031800,"current_range_meters":9600,"station_id":"","pricing_plan_id":"cebpf4jnsgd1na2vs0mg"},{"bike_id":"cd02c080-8936-4e2b-af4d-301cbe8eb8f1","system_id":"levelo_inurba_marseille","lat":43.30055,"lon":5.40362,"is_reserved":false,"is_disabled":false,"rental_uris":{"android":"levelo://app?vid=cd02c080-8936-4e2b-af4d-301cbe8eb8f1","ios":"levelo://app?vid=cd02c080-8936-4e2b-af4d-301cbe8eb8f1"},"vehicle_type_id":"4","last_reported":1758031800,"current_range_meters":10000,"station_id":"","pricing_plan_id":"cebpf4jnsgd1na2vs0mg"},{"bike_id":"336c74d9-d9c9-46d7-a94b-134b36ad023a","system_id":"levelo_inurba_marseille","lat":43.298533,"lon":5.378286,"is_reserved":false,"is_disabled":false,"rental_uris":{"android":"levelo://app?vid=336c74d9-d9c9-46d7-a94b-134b36ad023a","ios":"levelo://app?vid=336c74d9-d9c9-46d7-a94b-134b36ad023a"},"vehicle_type_id":"4","last_reported":1758031800,"current_range_meters":10000,"station_id":"","pricing_plan_id":"cebpf4jnsgd1na2vs0mg"},{"bike_id":"e1809e8f-ed1a-4a32-821f-a24774e5b4cb","system_id":"levelo_inurba_marseille","lat":43.27059,"lon":5.40275,"is_reserved":false,"is_disabled":false,"rental_uris":{"android":"levelo://app?vid=e1809e8f-ed1a-4a32-821f-a24774e5b4cb","ios":"levelo://app?vid=e1809e8f-ed1a-4a32-821f-a24774e5b4cb"},"vehicle_type_id":"4","last_reported":1758031800,"current_range_meters":10000,"station_id":"ce4bhk92rcd13ifvqgc0","pricing_plan_id":"cebpf4jnsgd1na2vs0mg"},{"bike_id":"68657626-417f-4a6a-b6a9-68ab1b2f5726","system_id":"levelo_inurba_marseille","lat":43.298405,"lon":5.362696,"is_reserved":false,"is_disabled":false,"rental_uris":{"android":"levelo://app?vid=68657626-417f-4a6a-b6a9-68ab1b2f5726","ios":"levelo://app?vid=68657626-417f-4a6a-b6a9-68ab1b2f5726"},"vehicle_type_id":"4","last_reported":1758031800,"current_range_meters":10000,"station_id":"ce4bgpp2rcd13ifvqc3g","pricing_plan_id":"cebpf4jnsgd1na2vs0mg"},{"bike_id":"884a4243-1f1c-4fc5-855b-45ff3800d36e","system_id":"levelo_inurba_marseille","lat":43.2511,"lon":5.40311,"is_reserved":false,"is_disabled":false,"rental_uris":{"android":"levelo://app?vid=884a4243-1f1c-4fc5-855b-45ff3800d36e","ios":"levelo://app?vid=884a4243-1f1c-4fc5-855b-45ff3800d36e"},"vehicle_type_id":"4","last_reported":1758031800,"current_range_meters":10000,"station_id":"ce4bhlh2rcd13ifvqgig","pricing_plan_id":"cebpf4jnsgd1na2vs0mg"},{"bike_id":"e5c0f9fa-aa79-401b-ac6b-a846850c5345","system_id":"levelo_inurba_marseille","lat":43.2785,"lon":5.38476,"is_reserved":false,"is_disabled":false,"rental_uris":{"android":"levelo://app?vid=e5c0f9fa-aa79-401b-ac6b-a846850c5345","ios":"levelo://app?vid=e5c0f9fa-aa79-401b-ac6b-a846850c5345"},"vehicle_type_id":"4","last_reported":1758031800,"current_range_meters":10000,"station_id":"","pricing_plan_id":"cebpf4jnsgd1na2vs0mg"},{"bike_id":"17490bdf-8114-4887-864a-67f78bde8a89","system_id":"levelo_inurba_marseille","lat":43.28412,"lon":5.34998,"is_reserved":false,"is_disabled":false,"rental_uris":{"android":"levelo://app?vid=17490bdf-8114-4887-864a-67f78bde8a89","ios":"levelo://app?vid=17490bdf-8114-4887-864a-67f78bde8a89"},"vehicle_type_id":"4","last_reported":1758031800,"current_range_meters":10000,"station_id":"ce4bhbh2rcd13ifvqepg","pricing_plan_id":"cebpf4jnsgd1na2vs0mg"},{"bike_id":"b5cd28c6-b998-481a-bb20-2c6c816869e4","system_id":"levelo_inurba_marseille","lat":43.25727,"lon":5.41108,"is_reserved":false,"is_disabled":false,"rental_uris":{"android":"levelo://app?vid=b5cd28c6-b998-481a-bb20-2c6c816869e4","ios":"levelo://app?vid=b5cd28c6-b998-481a-bb20-2c6c816869e4"},"vehicle_type_id":"4","last_reported":1758031800,"current_range_meters":10000,"station_id":"ce4bhkp2rcd13ifvqgd0","pricing_plan_id":"cebpf4jnsgd1na2vs0mg"},{"bike_id":"8ef8bf7d-8a91-4724-8c2e-ddeef723e28a","system_id":"levelo_inurba_marseille","lat":43.27034,"lon":5.379,"is_reserved":false,"is_disabled":false,"rental_uris":{"android":"levelo://app?vid=8ef8bf7d-8a91-4724-8c2e-ddeef723e28a","ios":"levelo://app?vid=8ef8bf7d-8a91-4724-8c2e-ddeef723e28a"},"vehicle_type_id":"4","last_reported":1758031800,"current_range_meters":10800,"station_id":"","pricing_plan_id":"cebpf4jnsgd1na2vs0mg"},{"bike_id":"52547c74-c0e9-4d6f-b224-92201979afe3","system_id":"levelo_inurba_marseille","lat":43.32084,"lon":5.36775,"is_reserved":false,"is_disabled":false,"rental_uris":{"android":"levelo://app?vid=52547c74-c0e9-4d6f-b224-92201979afe3","ios":"levelo://app?vid=52547c74-c0e9-4d6f-b224-92201979afe3"},"vehicle_type_id":"4","last_reported":1758031800,"current_range_meters":10800,"station_id":"ce4bhrh2rcd13ifvqhug","pricing_plan_id":"cebpf4jnsgd1na2vs0mg"},{"bike_id":"01b26fca-44b7-4d35-8d06-828691e3ecc8","system_id":"levelo_inurba_marseille","lat":43.28705,"lon":5.37389,"is_reserved":false,"is_disabled":false,"rental_uris":{"android":"levelo://app?vid=01b26fca-44b7-4d35-8d06-828691e3ecc8","ios":"levelo://app?vid=01b26fca-44b7-4d35-8d06-828691e3ecc8"},"vehicle_type_id":"4","last_reported":1758031800,"current_range_meters":10800,"station_id":"ce4bh3p2rcd13ifvqdq0","pricing_plan_id":"cebpf4jnsgd1na2vs0mg"},{"bike_id":"2623cd47-7404-4fcc-a283-c81b79e545f8","system_id":"levelo_inurba_marseille","lat":43.28609,"lon":5.3706,"is_reserved":false,"is_disabled":false,"rental_uris":{"android":"levelo://app?vid=2623cd47-7404-4fcc-a283-c81b79e545f8","ios":"levelo://app?vid=2623cd47-7404-4fcc-a283-c81b79e545f8"},"vehicle_type_id":"4","last_reported":1758031800,"current_range_meters":10800,"station_id":"ce4bht12rcd13ifvqi60","pricing_plan_id":"cebpf4jnsgd1na2vs0mg"},{"bike_id":"3346933a-65a5-4fb4-89d8-967b8db6eb9f","system_id":"levelo_inurba_marseille","lat":43.2841,"lon":5.34976,"is_reserved":false,"is_disabled":false,"rental_uris":{"android":"levelo://app?vid=3346933a-65a5-4fb4-89d8-967b8db6eb9f","ios":"levelo://app?vid=3346933a-65a5-4fb4-89d8-967b8db6eb9f"},"vehicle_type_id":"4","last_reported":1758031800,"current_range_meters":10800,"station_id":"ce4bhbh2rcd13ifvqepg","pricing_plan_id":"cebpf4jnsgd1na2vs0mg"},{"bike_id":"77246e06-46b3-406d-9b69-b9b3e2cbdee1","system_id":"levelo_inurba_marseille","lat":43.28066,"lon":5.38658,"is_reserved":false,"is_disabled":false,"rental_uris":{"android":"levelo://app?vid=77246e06-46b3-406d-9b69-b9b3e2cbdee1","ios":"levelo://app?vid=77246e06-46b3-406d-9b69-b9b3e2cbdee1"},"vehicle_type_id":"4","last_reported":1758031800,"current_range_meters":10800,"station_id":"","pricing_plan_id":"cebpf4jnsgd1na2vs0mg"},{"bike_id":"de400f82-5a03-4b0b-90fb-3738c59c5f6e","system_id":"levelo_inurba_marseille","lat":43.30589,"lon":5.39358,"is_reserved":false,"is_disabled":false,"rental_uris":{"android":"levelo://app?vid=de400f82-5a03-4b0b-90fb-3738c59c5f6e","ios":"levelo://app?vid=de400f82-5a03-4b0b-90fb-3738c59c5f6e"},"vehicle_type_id":"4","last_reported":1758031800,"current_range_meters":10800,"station_id":"ce4bh0p2rcd13ifvqd80","pricing_plan_id":"cebpf4jnsgd1na2vs0mg"},{"bike_id":"e824d254-16a6-4ae4-983a-05af083f4c81","system_id":"levelo_inurba_marseille","lat":43.21753,"lon":5.34607,"is_reserved":false,"is_disabled":false,"rental_uris":{"android":"levelo://app?vid=e824d254-16a6-4ae4-983a-05af083f4c81","ios":"levelo://app?vid=e824d254-16a6-4ae4-983a-05af083f4c81"},"vehicle_type_id":"4","last_reported":1758031800,"current_range_meters":11200,"station_id":"","pricing_plan_id":"cebpf4jnsgd1na2vs0mg"},{"bike_id":"e6e3bf82-419f-4bea-921f-1c5fc540f284","system_id":"levelo_inurba_marseille","lat":43.29266,"lon":5.38445,"is_reserved":false,"is_disabled":false,"rental_uris":{"android":"levelo://app?vid=e6e3bf82-419f-4bea-921f-1c5fc540f284","ios":"levelo://app?vid=e6e3bf82-419f-4bea-921f-1c5fc540f284"},"vehicle_type_id":"4","last_reported":1758031800,"current_range_meters":11200,"station_id":"ce4bh692rcd13ifvqea0","pricing_plan_id":"cebpf4jnsgd1na2vs0mg"},{"bike_id":"4d9785ea-13de-4210-bc0d-f170841019c0","system_id":"levelo_inurba_marseille","lat":43.23211,"lon":5.35514,"is_reserved":false,"is_disabled":false,"rental_uris":{"android":"levelo://app?vid=4d9785ea-13de-4210-bc0d-f170841019c0","ios":"levelo://app?vid=4d9785ea-13de-4210-bc0d-f170841019c0"},"vehicle_type_id":"4","last_reported":1758031800,"current_range_meters":11200,"station_id":"ce4bhu92rcd13ifvqi70","pricing_plan_id":"cebpf4jnsgd1na2vs0mg"},{"bike_id":"400a5726-88a4-471f-83f0-847319d6028a","system_id":"levelo_inurba_marseille","lat":43.28415,"lon":5.34995,"is_reserved":false,"is_disabled":false,"rental_uris":{"android":"levelo://app?vid=400a5726-88a4-471f-83f0-847319d6028a","ios":"levelo://app?vid=400a5726-88a4-471f-83f0-847319d6028a"},"vehicle_type_id":"4","last_reported":1758031800,"current_range_meters":11200,"station_id":"ce4bhbh2rcd13ifvqepg","pricing_plan_id":"cebpf4jnsgd1na2vs0mg"},{"bike_id":"d16d049b-417b-4ba0-8d07-b364ee3d2a70","system_id":"levelo_inurba_marseille","lat":43.25491,"lon":5.37647,"is_reserved":false,"is_disabled":false,"rental_uris":{"android":"levelo://app?vid=d16d049b-417b-4ba0-8d07-b364ee3d2a70","ios":"levelo://app?vid=d16d049b-417b-4ba0-8d07-b364ee3d2a70"},"vehicle_type_id":"4","last_reported":1758031800,"current_range_meters":11600,"station_id":"ce4bhh12rcd13ifvqff0","pricing_plan_id":"cebpf4jnsgd1na2vs0mg"},{"bike_id":"5965639b-948a-4399-92a0-ad01f304ae93","system_id":"levelo_inurba_marseille","lat":43.30327,"lon":5.40433,"is_reserved":false,"is_disabled":false,"rental_uris":{"android":"levelo://app?vid=5965639b-948a-4399-92a0-ad01f304ae93","ios":"levelo://app?vid=5965639b-948a-4399-92a0-ad01f304ae93"},"vehicle_type_id":"4","last_reported":1758031800,"current_range_meters":11600,"station_id":"ce4bh012rcd13ifvqd10","pricing_plan_id":"cebpf4jnsgd1na2vs0mg"},{"bike_id":"ac340abf-24c3-418f-9e97-0eb4212ba73f","system_id":"levelo_inurba_marseille","lat":43.30907,"lon":5.36883,"is_reserved":false,"is_disabled":false,"rental_uris":{"android":"levelo://app?vid=ac340abf-24c3-418f-9e97-0eb4212ba73f","ios":"levelo://app?vid=ac340abf-24c3-418f-9e97-0eb4212ba73f"},"vehicle_type_id":"4","last_reported":1758031800,"current_range_meters":11600,"station_id":"ce4bgn92rcd13ifvqbvg","pricing_plan_id":"cebpf4jnsgd1na2vs0mg"},{"bike_id":"95e70730-277b-4231-9c86-eae2e6943999","system_id":"levelo_inurba_marseille","lat":43.301447,"lon":5.374082,"is_reserved":false,"is_disabled":false,"rental_uris":{"android":"levelo://app?vid=95e70730-277b-4231-9c86-eae2e6943999","ios":"levelo://app?vid=95e70730-277b-4231-9c86-eae2e6943999"},"vehicle_type_id":"4","last_reported":1758031800,"current_range_meters":11600,"station_id":"ce4bgs92rcd13ifvqcc0","pricing_plan_id":"cebpf4jnsgd1na2vs0mg"},{"bike_id":"90ad5b29-6928-4d02-905e-336f35d65780","system_id":"levelo_inurba_marseille","lat":43.28682,"lon":5.38665,"is_reserved":false,"is_disabled":false,"rental_uris":{"android":"levelo://app?vid=90ad5b29-6928-4d02-905e-336f35d65780","ios":"levelo://app?vid=90ad5b29-6928-4d02-905e-336f35d65780"},"vehicle_type_id":"4","last_reported":1758031800,"current_range_meters":11600,"station_id":"ce4bh492rcd13ifvqdug","pricing_plan_id":"cebpf4jnsgd1na2vs0mg"},{"bike_id":"37651add-4052-43d9-bdff-01341493f68f","system_id":"levelo_inurba_marseille","lat":43.309152,"lon":5.368478,"is_reserved":false,"is_disabled":false,"rental_uris":{"android":"levelo://app?vid=37651add-4052-43d9-bdff-01341493f68f","ios":"levelo://app?vid=37651add-4052-43d9-bdff-01341493f68f"},"vehicle_type_id":"4","last_reported":1758031800,"current_range_meters":11600,"station_id":"ce4bgn92rcd13ifvqbvg","pricing_plan_id":"cebpf4jnsgd1na2vs0mg"},{"bike_id":"8e39e603-6d26-44dc-ba83-90967d9dedc1","system_id":"levelo_inurba_marseille","lat":43.28259,"lon":5.35078,"is_reserved":false,"is_disabled":false,"rental_uris":{"android":"levelo://app?vid=8e39e603-6d26-44dc-ba83-90967d9dedc1","ios":"levelo://app?vid=8e39e603-6d26-44dc-ba83-90967d9dedc1"},"vehicle_type_id":"4","last_reported":1758031800,"current_range_meters":12000,"station_id":"ce4bhbp2rcd13ifvqerg","pricing_plan_id":"cebpf4jnsgd1na2vs0mg"},{"bike_id":"1ed6f3f0-aabf-43e3-a80d-2b4195f86c48","system_id":"levelo_inurba_marseille","lat":43.28415,"lon":5.34973,"is_reserved":false,"is_disabled":false,"rental_uris":{"android":"levelo://app?vid=1ed6f3f0-aabf-43e3-a80d-2b4195f86c48","ios":"levelo://app?vid=1ed6f3f0-aabf-43e3-a80d-2b4195f86c48"},"vehicle_type_id":"4","last_reported":1758031800,"current_range_meters":12000,"station_id":"ce4bhbh2rcd13ifvqepg","pricing_plan_id":"cebpf4jnsgd1na2vs0mg"},{"bike_id":"9aa97976-8a24-445b-9589-2498f8cb47f4","system_id":"levelo_inurba_marseille","lat":43.29874,"lon":5.38893,"is_reserved":false,"is_disabled":false,"rental_uris":{"android":"levelo://app?vid=9aa97976-8a24-445b-9589-2498f8cb47f4","ios":"levelo://app?vid=9aa97976-8a24-445b-9589-2498f8cb47f4"},"vehicle_type_id":"4","last_reported":1758031800,"current_range_meters":12000,"station_id":"ce4bh392rcd13ifvqdl0","pricing_plan_id":"cebpf4jnsgd1na2vs0mg"},{"bike_id":"b3ed4d2d-8361-4230-ac77-0db02def440d","system_id":"levelo_inurba_marseille","lat":43.30319,"lon":5.40431,"is_reserved":false,"is_disabled":false,"rental_uris":{"android":"levelo://app?vid=b3ed4d2d-8361-4230-ac77-0db02def440d","ios":"levelo://app?vid=b3ed4d2d-8361-4230-ac77-0db02def440d"},"vehicle_type_id":"4","last_reported":1758031800,"current_range_meters":12000,"station_id":"ce4bh012rcd13ifvqd10","pricing_plan_id":"cebpf4jnsgd1na2vs0mg"},{"bike_id":"8be4edf1-6304-4340-9a11-ee3b226d6122","system_id":"levelo_inurba_marseille","lat":43.28112,"lon":5.37837,"is_reserved":false,"is_disabled":false,"rental_uris":{"android":"levelo://app?vid=8be4edf1-6304-4340-9a11-ee3b226d6122","ios":"levelo://app?vid=8be4edf1-6304-4340-9a11-ee3b226d6122"},"vehicle_type_id":"4","last_reported":1758031800,"current_range_meters":12400,"station_id":"ce4bha12rcd13ifvqee0","pricing_plan_id":"cebpf4jnsgd1na2vs0mg"},{"bike_id":"ec950204-eb91-49b6-859d-966eec7187b1","system_id":"levelo_inurba_marseille","lat":43.28575,"lon":5.39485,"is_reserved":false,"is_disabled":false,"rental_uris":{"android":"levelo://app?vid=ec950204-eb91-49b6-859d-966eec7187b1","ios":"levelo://app?vid=ec950204-eb91-49b6-859d-966eec7187b1"},"vehicle_type_id":"4","last_reported":1758031800,"current_range_meters":12400,"station_id":"ce4bh292rcd13ifvqdg0","pricing_plan_id":"cebpf4jnsgd1na2vs0mg"},{"bike_id":"b5cd03fa-493b-4944-80c2-808ec6d5a783","system_id":"levelo_inurba_marseille","lat":43.29512,"lon":5.39394,"is_reserved":false,"is_disabled":false,"rental_uris":{"android":"levelo://app?vid=b5cd03fa-493b-4944-80c2-808ec6d5a783","ios":"levelo://app?vid=b5cd03fa-493b-4944-80c2-808ec6d5a783"},"vehicle_type_id":"4","last_reported":1758031800,"current_range_meters":12400,"station_id":"ce4bh292rcd13ifvqdf0","pricing_plan_id":"cebpf4jnsgd1na2vs0mg"},{"bike_id":"9156b3e9-6a8e-4859-87d7-eac70607edc4","system_id":"levelo_inurba_marseille","lat":43.296229,"lon":5.376965,"is_reserved":false,"is_disabled":false,"rental_uris":{"android":"levelo://app?vid=9156b3e9-6a8e-4859-87d7-eac70607edc4","ios":"levelo://app?vid=9156b3e9-6a8e-4859-87d7-eac70607edc4"},"vehicle_type_id":"4","last_reported":1758031800,"current_range_meters":12400,"station_id":"ce4bgi92rcd13ifvqb90","pricing_plan_id":"cebpf4jnsgd1na2vs0mg"},{"bike_id":"4da91a3c-13ea-4269-8611-c5bf87e7418b","system_id":"levelo_inurba_marseille","lat":43.28259,"lon":5.3506,"is_reserved":false,"is_disabled":false,"rental_uris":{"android":"levelo://app?vid=4da91a3c-13ea-4269-8611-c5bf87e7418b","ios":"levelo://app?vid=4da91a3c-13ea-4269-8611-c5bf87e7418b"},"vehicle_type_id":"4","last_reported":1758031800,"current_range_meters":12400,"station_id":"ce4bhbp2rcd13ifvqerg","pricing_plan_id":"cebpf4jnsgd1na2vs0mg"},{"bike_id":"3468df82-d21c-4467-9dad-0840097912f9","system_id":"levelo_inurba_marseille","lat":43.25493,"lon":5.37664,"is_reserved":false,"is_disabled":false,"rental_uris":{"android":"levelo://app?vid=3468df82-d21c-4467-9dad-0840097912f9","ios":"levelo://app?vid=3468df82-d21c-4467-9dad-0840097912f9"},"vehicle_type_id":"4","last_reported":1758031800,"current_range_meters":12400,"station_id":"ce4bhh12rcd13ifvqff0","pricing_plan_id":"cebpf4jnsgd1na2vs0mg"},{"bike_id":"0446eae8-aab0-480e-893b-9cb40d15936c","system_id":"levelo_inurba_marseille","lat":43.22559,"lon":5.41633,"is_reserved":false,"is_disabled":false,"rental_uris":{"android":"levelo://app?vid=0446eae8-aab0-480e-893b-9cb40d15936c","ios":"levelo://app?vid=0446eae8-aab0-480e-893b-9cb40d15936c"},"vehicle_type_id":"4","last_reported":1758031800,"current_range_meters":12400,"station_id":"st_d2o4gvlbi1j2169b742g","pricing_plan_id":"cebpf4jnsgd1na2vs0mg"},{"bike_id":"6bb56dec-ef18-40ea-8e21-a0a0285c1756","system_id":"levelo_inurba_marseille","lat":43.28669,"lon":5.38664,"is_reserved":false,"is_disabled":false,"rental_uris":{"android":"levelo://app?vid=6bb56dec-ef18-40ea-8e21-a0a0285c1756","ios":"levelo://app?vid=6bb56dec-ef18-40ea-8e21-a0a0285c1756"},"vehicle_type_id":"4","last_reported":1758031800,"current_range_meters":12400,"station_id":"ce4bh492rcd13ifvqdug","pricing_plan_id":"cebpf4jnsgd1na2vs0mg"},{"bike_id":"4ce62854-53ad-49f7-904f-770313945766","system_id":"levelo_inurba_marseille","lat":43.28414,"lon":5.34976,"is_reserved":false,"is_disabled":false,"rental_uris":{"android":"levelo://app?vid=4ce62854-53ad-49f7-904f-770313945766","ios":"levelo://app?vid=4ce62854-53ad-49f7-904f-770313945766"},"vehicle_type_id":"4","last_reported":1758031800,"current_range_meters":12400,"station_id":"ce4bhbh2rcd13ifvqepg","pricing_plan_id":"cebpf4jnsgd1na2vs0mg"},{"bike_id":"fed0fd41-33b0-4f0c-b1af-0831108054ff","system_id":"levelo_inurba_marseille","lat":43.29524,"lon":5.3751,"is_reserved":false,"is_disabled":false,"rental_uris":{"android":"levelo://app?vid=fed0fd41-33b0-4f0c-b1af-0831108054ff","ios":"levelo://app?vid=fed0fd41-33b0-4f0c-b1af-0831108054ff"},"vehicle_type_id":"4","last_reported":1758031800,"current_range_meters":12400,"station_id":"ce4bgkp2rcd13ifvqbmg","pricing_plan_id":"cebpf4jnsgd1na2vs0mg"},{"bike_id":"fbf68d05-5125-49dc-91fb-265fd58ee496","system_id":"levelo_inurba_marseille","lat":43.24066,"lon":5.37752,"is_reserved":false,"is_disabled":false,"rental_uris":{"android":"levelo://app?vid=fbf68d05-5125-49dc-91fb-265fd58ee496","ios":"levelo://app?vid=fbf68d05-5125-49dc-91fb-265fd58ee496"},"vehicle_type_id":"4","last_reported":1758031800,"current_range_meters":12800,"station_id":"ce4bhnp2rcd13ifvqgvg","pricing_plan_id":"cebpf4jnsgd1na2vs0mg"},{"bike_id":"1ddf0484-06d4-4943-aa3c-7b614fd7f256","system_id":"levelo_inurba_marseille","lat":43.29187,"lon":5.39307,"is_reserved":false,"is_disabled":false,"rental_uris":{"android":"levelo://app?vid=1ddf0484-06d4-4943-aa3c-7b614fd7f256","ios":"levelo://app?vid=1ddf0484-06d4-4943-aa3c-7b614fd7f256"},"vehicle_type_id":"4","last_reported":1758031800,"current_range_meters":12800,"station_id":"ce4bh192rcd13ifvqdd0","pricing_plan_id":"cebpf4jnsgd1na2vs0mg"},{"bike_id":"0c92e076-bb9e-408c-8df0-7cad6065538d","system_id":"levelo_inurba_marseille","lat":43.239638,"lon":5.366304,"is_reserved":false,"is_disabled":false,"rental_uris":{"android":"levelo://app?vid=0c92e076-bb9e-408c-8df0-7cad6065538d","ios":"levelo://app?vid=0c92e076-bb9e-408c-8df0-7cad6065538d"},"vehicle_type_id":"4","last_reported":1758031800,"current_range_meters":12800,"station_id":"ce4bhi12rcd13ifvqfp0","pricing_plan_id":"cebpf4jnsgd1na2vs0mg"},{"bike_id":"37a38595-4387-4d7c-badc-0f340b9a3707","system_id":"levelo_inurba_marseille","lat":43.27369,"lon":5.36263,"is_reserved":false,"is_disabled":false,"rental_uris":{"android":"levelo://app?vid=37a38595-4387-4d7c-badc-0f340b9a3707","ios":"levelo://app?vid=37a38595-4387-4d7c-badc-0f340b9a3707"},"vehicle_type_id":"4","last_reported":1758031800,"current_range_meters":12800,"station_id":"ce4bhbh2rcd13ifvqeo0","pricing_plan_id":"cebpf4jnsgd1na2vs0mg"},{"bike_id":"d85b4ef9-c86a-4388-afed-d3da6e2f27ca","system_id":"levelo_inurba_marseille","lat":43.280953,"lon":5.378519,"is_reserved":false,"is_disabled":false,"rental_uris":{"android":"levelo://app?vid=d85b4ef9-c86a-4388-afed-d3da6e2f27ca","ios":"levelo://app?vid=d85b4ef9-c86a-4388-afed-d3da6e2f27ca"},"vehicle_type_id":"4","last_reported":1758031800,"current_range_meters":12800,"station_id":"ce4bha12rcd13ifvqee0","pricing_plan_id":"cebpf4jnsgd1na2vs0mg"},{"bike_id":"d400063a-18b3-4061-b216-94fc4a12afd6","system_id":"levelo_inurba_marseille","lat":43.29529,"lon":5.39056,"is_reserved":false,"is_disabled":false,"rental_uris":{"android":"levelo://app?vid=d400063a-18b3-4061-b216-94fc4a12afd6","ios":"levelo://app?vid=d400063a-18b3-4061-b216-94fc4a12afd6"},"vehicle_type_id":"4","last_reported":1758031800,"current_range_meters":12800,"station_id":"ce4bh3p2rcd13ifvqdp0","pricing_plan_id":"cebpf4jnsgd1na2vs0mg"},{"bike_id":"a5e252cf-69a2-4386-89de-c14ad0762cc1","system_id":"levelo_inurba_marseille","lat":43.30321,"lon":5.40422,"is_reserved":false,"is_disabled":false,"rental_uris":{"android":"levelo://app?vid=a5e252cf-69a2-4386-89de-c14ad0762cc1","ios":"levelo://app?vid=a5e252cf-69a2-4386-89de-c14ad0762cc1"},"vehicle_type_id":"4","last_reported":1758031800,"current_range_meters":13600,"station_id":"ce4bh012rcd13ifvqd10","pricing_plan_id":"cebpf4jnsgd1na2vs0mg"},{"bike_id":"56d2e059-88e1-4a16-8300-98d71d8a985c","system_id":"levelo_inurba_marseille","lat":43.27304,"lon":5.39074,"is_reserved":false,"is_disabled":false,"rental_uris":{"android":"levelo://app?vid=56d2e059-88e1-4a16-8300-98d71d8a985c","ios":"levelo://app?vid=56d2e059-88e1-4a16-8300-98d71d8a985c"},"vehicle_type_id":"4","last_reported":1758031800,"current_range_meters":13600,"station_id":"ce4bhgp2rcd13ifvqfe0","pricing_plan_id":"cebpf4jnsgd1na2vs0mg"},{"bike_id":"7401f904-c7a5-4420-9a38-b32c76084c39","system_id":"levelo_inurba_marseille","lat":43.28269,"lon":5.35055,"is_reserved":false,"is_disabled":false,"rental_uris":{"android":"levelo://app?vid=7401f904-c7a5-4420-9a38-b32c76084c39","ios":"levelo://app?vid=7401f904-c7a5-4420-9a38-b32c76084c39"},"vehicle_type_id":"4","last_reported":1758031800,"current_range_meters":13600,"station_id":"ce4bhbp2rcd13ifvqerg","pricing_plan_id":"cebpf4jnsgd1na2vs0mg"},{"bike_id":"3b26aa0d-3679-4b4c-9b55-1096f6d08a9d","system_id":"levelo_inurba_marseille","lat":43.31303,"lon":5.39404,"is_reserved":false,"is_disabled":false,"rental_uris":{"android":"levelo://app?vid=3b26aa0d-3679-4b4c-9b55-1096f6d08a9d","ios":"levelo://app?vid=3b26aa0d-3679-4b4c-9b55-1096f6d08a9d"},"vehicle_type_id":"4","last_reported":1758031800,"current_range_meters":13600,"station_id":"","pricing_plan_id":"cebpf4jnsgd1na2vs0mg"},{"bike_id":"cd2513dc-3627-4964-a0b1-d4c9260c4c8e","system_id":"levelo_inurba_marseille","lat":43.24076,"lon":5.37749,"is_reserved":false,"is_disabled":false,"rental_uris":{"android":"levelo://app?vid=cd2513dc-3627-4964-a0b1-d4c9260c4c8e","ios":"levelo://app?vid=cd2513dc-3627-4964-a0b1-d4c9260c4c8e"},"vehicle_type_id":"4","last_reported":1758031800,"current_range_meters":13600,"station_id":"ce4bhnp2rcd13ifvqgvg","pricing_plan_id":"cebpf4jnsgd1na2vs0mg"},{"bike_id":"9c740e69-761d-4034-b327-63addcf5f7f3","system_id":"levelo_inurba_marseille","lat":43.28266,"lon":5.35063,"is_reserved":false,"is_disabled":false,"rental_uris":{"android":"levelo://app?vid=9c740e69-761d-4034-b327-63addcf5f7f3","ios":"levelo://app?vid=9c740e69-761d-4034-b327-63addcf5f7f3"},"vehicle_type_id":"4","last_reported":1758031800,"current_range_meters":13600,"station_id":"ce4bhbp2rcd13ifvqerg","pricing_plan_id":"cebpf4jnsgd1na2vs0mg"},{"bike_id":"f8b55e6f-fc3d-4219-a744-334ff9e3907f","system_id":"levelo_inurba_marseille","lat":43.313489,"lon":5.367136,"is_reserved":false,"is_disabled":false,"rental_uris":{"android":"levelo://app?vid=f8b55e6f-fc3d-4219-a744-334ff9e3907f","ios":"levelo://app?vid=f8b55e6f-fc3d-4219-a744-334ff9e3907f"},"vehicle_type_id":"4","last_reported":1758031800,"current_range_meters":13600,"station_id":"ce4bgr92rcd13ifvqc6g","pricing_plan_id":"cebpf4jnsgd1na2vs0mg"},{"bike_id":"2ba6d751-735d-4f3f-b471-7e3f5bc5e1b1","system_id":"levelo_inurba_marseille","lat":43.3211,"lon":5.36781,"is_reserved":false,"is_disabled":false,"rental_uris":{"android":"levelo://app?vid=2ba6d751-735d-4f3f-b471-7e3f5bc5e1b1","ios":"levelo://app?vid=2ba6d751-735d-4f3f-b471-7e3f5bc5e1b1"},"vehicle_type_id":"4","last_reported":1758031800,"current_range_meters":13600,"station_id":"ce4bhrh2rcd13ifvqhug","pricing_plan_id":"cebpf4jnsgd1na2vs0mg"},{"bike_id":"0e7660c1-b4ea-4c0d-a92c-3583e73d0290","system_id":"levelo_inurba_marseille","lat":43.28268,"lon":5.35058,"is_reserved":false,"is_disabled":false,"rental_uris":{"android":"levelo://app?vid=0e7660c1-b4ea-4c0d-a92c-3583e73d0290","ios":"levelo://app?vid=0e7660c1-b4ea-4c0d-a92c-3583e73d0290"},"vehicle_type_id":"4","last_reported":1758031800,"current_range_meters":13600,"station_id":"ce4bhbp2rcd13ifvqerg","pricing_plan_id":"cebpf4jnsgd1na2vs0mg"},{"bike_id":"d9145c96-e3ce-41d1-b9db-c537127da967","system_id":"levelo_inurba_marseille","lat":43.28032,"lon":5.36946,"is_reserved":false,"is_disabled":false,"rental_uris":{"android":"levelo://app?vid=d9145c96-e3ce-41d1-b9db-c537127da967","ios":"levelo://app?vid=d9145c96-e3ce-41d1-b9db-c537127da967"},"vehicle_type_id":"4","last_reported":1758031800,"current_range_meters":14000,"station_id":"ce4bha12rcd13ifvqef0","pricing_plan_id":"cebpf4jnsgd1na2vs0mg"},{"bike_id":"0ddb371b-8863-4158-9a59-3f7292d778af","system_id":"levelo_inurba_marseille","lat":43.24627,"lon":5.43127,"is_reserved":false,"is_disabled":false,"rental_uris":{"android":"levelo://app?vid=0ddb371b-8863-4158-9a59-3f7292d778af","ios":"levelo://app?vid=0ddb371b-8863-4158-9a59-3f7292d778af"},"vehicle_type_id":"4","last_reported":1758031800,"current_range_meters":14000,"station_id":"st_d2m6c4gdas8pm72e190g","pricing_plan_id":"cebpf4jnsgd1na2vs0mg"},{"bike_id":"0049acfe-97a7-4c73-afbf-6c0e3d2fdff3","system_id":"levelo_inurba_marseille","lat":43.284876,"lon":5.385559,"is_reserved":false,"is_disabled":false,"rental_uris":{"android":"levelo://app?vid=0049acfe-97a7-4c73-afbf-6c0e3d2fdff3","ios":"levelo://app?vid=0049acfe-97a7-4c73-afbf-6c0e3d2fdff3"},"vehicle_type_id":"4","last_reported":1758031800,"current_range_meters":14000,"station_id":"ce4bh8p2rcd13ifvqeb0","pricing_plan_id":"cebpf4jnsgd1na2vs0mg"},{"bike_id":"fd20e166-4328-4893-afd2-ac0b406b2700","system_id":"levelo_inurba_marseille","lat":43.325428,"lon":5.41436,"is_reserved":false,"is_disabled":false,"rental_uris":{"android":"levelo://app?vid=fd20e166-4328-4893-afd2-ac0b406b2700","ios":"levelo://app?vid=fd20e166-4328-4893-afd2-ac0b406b2700"},"vehicle_type_id":"4","last_reported":1758031800,"current_range_meters":14000,"station_id":"ce4bhq12rcd13ifvqhhg","pricing_plan_id":"cebpf4jnsgd1na2vs0mg"},{"bike_id":"0ede21be-37d9-4495-b672-80274a6292be","system_id":"levelo_inurba_marseille","lat":43.35043,"lon":5.34074,"is_reserved":false,"is_disabled":false,"rental_uris":{"android":"levelo://app?vid=0ede21be-37d9-4495-b672-80274a6292be","ios":"levelo://app?vid=0ede21be-37d9-4495-b672-80274a6292be"},"vehicle_type_id":"4","last_reported":1758031800,"current_range_meters":14000,"station_id":"","pricing_plan_id":"cebpf4jnsgd1na2vs0mg"},{"bike_id":"ece07351-e21d-4c48-bd8e-d6076d0d6379","system_id":"levelo_inurba_marseille","lat":43.28483,"lon":5.37482,"is_reserved":false,"is_disabled":false,"rental_uris":{"android":"levelo://app?vid=ece07351-e21d-4c48-bd8e-d6076d0d6379","ios":"levelo://app?vid=ece07351-e21d-4c48-bd8e-d6076d0d6379"},"vehicle_type_id":"4","last_reported":1758031800,"current_range_meters":14400,"station_id":"","pricing_plan_id":"cebpf4jnsgd1na2vs0mg"},{"bike_id":"a05fdb49-e038-4a84-8ea1-52f3eaaf07b1","system_id":"levelo_inurba_marseille","lat":43.22555,"lon":5.4162,"is_reserved":false,"is_disabled":false,"rental_uris":{"android":"levelo://app?vid=a05fdb49-e038-4a84-8ea1-52f3eaaf07b1","ios":"levelo://app?vid=a05fdb49-e038-4a84-8ea1-52f3eaaf07b1"},"vehicle_type_id":"4","last_reported":1758031800,"current_range_meters":14400,"station_id":"st_d2o4gvlbi1j2169b742g","pricing_plan_id":"cebpf4jnsgd1na2vs0mg"},{"bike_id":"d6a6516a-a9f6-4834-b0c5-f8981d30a192","system_id":"levelo_inurba_marseille","lat":43.29978,"lon":5.37175,"is_reserved":false,"is_disabled":false,"rental_uris":{"android":"levelo://app?vid=d6a6516a-a9f6-4834-b0c5-f8981d30a192","ios":"levelo://app?vid=d6a6516a-a9f6-4834-b0c5-f8981d30a192"},"vehicle_type_id":"4","last_reported":1758031800,"current_range_meters":14400,"station_id":"ce4bgr92rcd13ifvqc7g","pricing_plan_id":"cebpf4jnsgd1na2vs0mg"},{"bike_id":"819acd2d-1fa5-4830-afb3-48b5185776e3","system_id":"levelo_inurba_marseille","lat":43.298928,"lon":5.436734,"is_reserved":false,"is_disabled":false,"rental_uris":{"android":"levelo://app?vid=819acd2d-1fa5-4830-afb3-48b5185776e3","ios":"levelo://app?vid=819acd2d-1fa5-4830-afb3-48b5185776e3"},"vehicle_type_id":"4","last_reported":1758031800,"current_range_meters":14400,"station_id":"ce4bhpp2rcd13ifvqhfg","pricing_plan_id":"cebpf4jnsgd1na2vs0mg"},{"bike_id":"c5db8956-5cb9-45c3-98ae-2d5ca5a164f9","system_id":"levelo_inurba_marseille","lat":43.30544,"lon":5.367258,"is_reserved":false,"is_disabled":false,"rental_uris":{"android":"levelo://app?vid=c5db8956-5cb9-45c3-98ae-2d5ca5a164f9","ios":"levelo://app?vid=c5db8956-5cb9-45c3-98ae-2d5ca5a164f9"},"vehicle_type_id":"4","last_reported":1758031800,"current_range_meters":14400,"station_id":"ce4bgrp2rcd13ifvqc9g","pricing_plan_id":"cebpf4jnsgd1na2vs0mg"},{"bike_id":"d3bac61d-31e9-4340-a8d4-3b15b7652e18","system_id":"levelo_inurba_marseille","lat":43.30536,"lon":5.36549,"is_reserved":false,"is_disabled":false,"rental_uris":{"android":"levelo://app?vid=d3bac61d-31e9-4340-a8d4-3b15b7652e18","ios":"levelo://app?vid=d3bac61d-31e9-4340-a8d4-3b15b7652e18"},"vehicle_type_id":"4","last_reported":1758031800,"current_range_meters":14400,"station_id":"ce4bgs12rcd13ifvqcag","pricing_plan_id":"cebpf4jnsgd1na2vs0mg"},{"bike_id":"a233fd34-6838-42a2-943f-f1f026b5e317","system_id":"levelo_inurba_marseille","lat":43.28425,"lon":5.34971,"is_reserved":false,"is_disabled":false,"rental_uris":{"android":"levelo://app?vid=a233fd34-6838-42a2-943f-f1f026b5e317","ios":"levelo://app?vid=a233fd34-6838-42a2-943f-f1f026b5e317"},"vehicle_type_id":"4","last_reported":1758031800,"current_range_meters":14400,"station_id":"ce4bhbh2rcd13ifvqepg","pricing_plan_id":"cebpf4jnsgd1na2vs0mg"},{"bike_id":"b48a0b83-7745-4189-b88b-85cf448dd3c8","system_id":"levelo_inurba_marseille","lat":43.29716,"lon":5.37695,"is_reserved":false,"is_disabled":false,"rental_uris":{"android":"levelo://app?vid=b48a0b83-7745-4189-b88b-85cf448dd3c8","ios":"levelo://app?vid=b48a0b83-7745-4189-b88b-85cf448dd3c8"},"vehicle_type_id":"4","last_reported":1758031800,"current_range_meters":14400,"station_id":"ce4bgkh2rcd13ifvqbl0","pricing_plan_id":"cebpf4jnsgd1na2vs0mg"},{"bike_id":"a29d9c7d-1634-4abc-a8ae-4db46d5032da","system_id":"levelo_inurba_marseille","lat":43.29194,"lon":5.39307,"is_reserved":false,"is_disabled":false,"rental_uris":{"android":"levelo://app?vid=a29d9c7d-1634-4abc-a8ae-4db46d5032da","ios":"levelo://app?vid=a29d9c7d-1634-4abc-a8ae-4db46d5032da"},"vehicle_type_id":"4","last_reported":1758031800,"current_range_meters":14400,"station_id":"ce4bh192rcd13ifvqdd0","pricing_plan_id":"cebpf4jnsgd1na2vs0mg"},{"bike_id":"33402864-f5e0-47e4-8687-c925adfc3d24","system_id":"levelo_inurba_marseille","lat":43.24167,"lon":5.36394,"is_reserved":false,"is_disabled":false,"rental_uris":{"android":"levelo://app?vid=33402864-f5e0-47e4-8687-c925adfc3d24","ios":"levelo://app?vid=33402864-f5e0-47e4-8687-c925adfc3d24"},"vehicle_type_id":"4","last_reported":1758031800,"current_range_meters":14400,"station_id":"cpo36qri1sfpv3e86is0","pricing_plan_id":"cebpf4jnsgd1na2vs0mg"},{"bike_id":"62473aca-5d60-4f9b-8d0a-e6ce0ea7fc2f","system_id":"levelo_inurba_marseille","lat":43.303528,"lon":5.366107,"is_reserved":false,"is_disabled":false,"rental_uris":{"android":"levelo://app?vid=62473aca-5d60-4f9b-8d0a-e6ce0ea7fc2f","ios":"levelo://app?vid=62473aca-5d60-4f9b-8d0a-e6ce0ea7fc2f"},"vehicle_type_id":"4","last_reported":1758031800,"current_range_meters":14800,"station_id":"","pricing_plan_id":"cebpf4jnsgd1na2vs0mg"},{"bike_id":"7d8264e6-35a3-4455-b0b1-b885bb57dfee","system_id":"levelo_inurba_marseille","lat":43.30431,"lon":5.38881,"is_reserved":false,"is_disabled":false,"rental_uris":{"android":"levelo://app?vid=7d8264e6-35a3-4455-b0b1-b885bb57dfee","ios":"levelo://app?vid=7d8264e6-35a3-4455-b0b1-b885bb57dfee"},"vehicle_type_id":"4","last_reported":1758031800,"current_range_meters":14800,"station_id":"ce4bgk12rcd13ifvqbi0","pricing_plan_id":"cebpf4jnsgd1na2vs0mg"},{"bike_id":"e98c5d98-ae57-4aa7-b136-5971a65f3510","system_id":"levelo_inurba_marseille","lat":43.250671,"lon":5.375505,"is_reserved":false,"is_disabled":false,"rental_uris":{"android":"levelo://app?vid=e98c5d98-ae57-4aa7-b136-5971a65f3510","ios":"levelo://app?vid=e98c5d98-ae57-4aa7-b136-5971a65f3510"},"vehicle_type_id":"4","last_reported":1758031800,"current_range_meters":14800,"station_id":"","pricing_plan_id":"cebpf4jnsgd1na2vs0mg"},{"bike_id":"2814cb1f-080f-4a9e-a54e-65bf0c5bfcce","system_id":"levelo_inurba_marseille","lat":43.29782,"lon":5.37102,"is_reserved":false,"is_disabled":false,"rental_uris":{"android":"levelo://app?vid=2814cb1f-080f-4a9e-a54e-65bf0c5bfcce","ios":"levelo://app?vid=2814cb1f-080f-4a9e-a54e-65bf0c5bfcce"},"vehicle_type_id":"4","last_reported":1758031800,"current_range_meters":14800,"station_id":"ce4bgop2rcd13ifvqc1g","pricing_plan_id":"cebpf4jnsgd1na2vs0mg"},{"bike_id":"c8144899-9b41-4fd4-84a4-755117cb116d","system_id":"levelo_inurba_marseille","lat":43.284722,"lon":5.384208,"is_reserved":false,"is_disabled":false,"rental_uris":{"android":"levelo://app?vid=c8144899-9b41-4fd4-84a4-755117cb116d","ios":"levelo://app?vid=c8144899-9b41-4fd4-84a4-755117cb116d"},"vehicle_type_id":"4","last_reported":1758031800,"current_range_meters":14800,"station_id":"","pricing_plan_id":"cebpf4jnsgd1na2vs0mg"},{"bike_id":"2aa0eb68-6a05-4442-91d4-08cbb7502269","system_id":"levelo_inurba_marseille","lat":43.29255,"lon":5.40901,"is_reserved":false,"is_disabled":false,"rental_uris":{"android":"levelo://app?vid=2aa0eb68-6a05-4442-91d4-08cbb7502269","ios":"levelo://app?vid=2aa0eb68-6a05-4442-91d4-08cbb7502269"},"vehicle_type_id":"4","last_reported":1758031800,"current_range_meters":14800,"station_id":"ce4bh192rcd13ifvqdc0","pricing_plan_id":"cebpf4jnsgd1na2vs0mg"},{"bike_id":"11555ead-152a-4e2f-ac3e-7aaa852c50e5","system_id":"levelo_inurba_marseille","lat":43.225326,"lon":5.348358,"is_reserved":false,"is_disabled":false,"rental_uris":{"android":"levelo://app?vid=11555ead-152a-4e2f-ac3e-7aaa852c50e5","ios":"levelo://app?vid=11555ead-152a-4e2f-ac3e-7aaa852c50e5"},"vehicle_type_id":"4","last_reported":1758031800,"current_range_meters":15200,"station_id":"","pricing_plan_id":"cebpf4jnsgd1na2vs0mg"},{"bike_id":"86a0b16b-382f-4e53-91f7-895583e81466","system_id":"levelo_inurba_marseille","lat":43.279507,"lon":5.410508,"is_reserved":false,"is_disabled":false,"rental_uris":{"android":"levelo://app?vid=86a0b16b-382f-4e53-91f7-895583e81466","ios":"levelo://app?vid=86a0b16b-382f-4e53-91f7-895583e81466"},"vehicle_type_id":"4","last_reported":1758031800,"current_range_meters":15200,"station_id":"ce4bhnp2rcd13ifvqh0g","pricing_plan_id":"cebpf4jnsgd1na2vs0mg"},{"bike_id":"0eef9de9-0b07-442c-b6a7-849c6a0f0185","system_id":"levelo_inurba_marseille","lat":43.30247,"lon":5.40055,"is_reserved":false,"is_disabled":false,"rental_uris":{"android":"levelo://app?vid=0eef9de9-0b07-442c-b6a7-849c6a0f0185","ios":"levelo://app?vid=0eef9de9-0b07-442c-b6a7-849c6a0f0185"},"vehicle_type_id":"4","last_reported":1758031800,"current_range_meters":15200,"station_id":"ce4bgvh2rcd13ifvqcs0","pricing_plan_id":"cebpf4jnsgd1na2vs0mg"},{"bike_id":"40495e59-b743-486e-987c-cb0c3ab2f191","system_id":"levelo_inurba_marseille","lat":43.33293,"lon":5.41268,"is_reserved":false,"is_disabled":false,"rental_uris":{"android":"levelo://app?vid=40495e59-b743-486e-987c-cb0c3ab2f191","ios":"levelo://app?vid=40495e59-b743-486e-987c-cb0c3ab2f191"},"vehicle_type_id":"4","last_reported":1758031800,"current_range_meters":15200,"station_id":"","pricing_plan_id":"cebpf4jnsgd1na2vs0mg"},{"bike_id":"e475e9f0-91d5-4f8c-a272-09b31ed2056d","system_id":"levelo_inurba_marseille","lat":43.23175,"lon":5.43702,"is_reserved":false,"is_disabled":false,"rental_uris":{"android":"levelo://app?vid=e475e9f0-91d5-4f8c-a272-09b31ed2056d","ios":"levelo://app?vid=e475e9f0-91d5-4f8c-a272-09b31ed2056d"},"vehicle_type_id":"4","last_reported":1758031800,"current_range_meters":15200,"station_id":"ce4bhmp2rcd13ifvqgog","pricing_plan_id":"cebpf4jnsgd1na2vs0mg"},{"bike_id":"5c0b2341-c41a-4f62-9e5f-92e6a593fad9","system_id":"levelo_inurba_marseille","lat":43.33818,"lon":5.37438,"is_reserved":false,"is_disabled":false,"rental_uris":{"android":"levelo://app?vid=5c0b2341-c41a-4f62-9e5f-92e6a593fad9","ios":"levelo://app?vid=5c0b2341-c41a-4f62-9e5f-92e6a593fad9"},"vehicle_type_id":"4","last_reported":1758031800,"current_range_meters":16000,"station_id":"","pricing_plan_id":"cebpf4jnsgd1na2vs0mg"},{"bike_id":"ad64d0e3-dcac-41c6-b999-598cdf064280","system_id":"levelo_inurba_marseille","lat":43.30543,"lon":5.36542,"is_reserved":false,"is_disabled":false,"rental_uris":{"android":"levelo://app?vid=ad64d0e3-dcac-41c6-b999-598cdf064280","ios":"levelo://app?vid=ad64d0e3-dcac-41c6-b999-598cdf064280"},"vehicle_type_id":"4","last_reported":1758031800,"current_range_meters":16000,"station_id":"ce4bgs12rcd13ifvqcag","pricing_plan_id":"cebpf4jnsgd1na2vs0mg"},{"bike_id":"88a8a850-d513-47ec-8870-e7210ef51b52","system_id":"levelo_inurba_marseille","lat":43.29929,"lon":5.38523,"is_reserved":false,"is_disabled":false,"rental_uris":{"android":"levelo://app?vid=88a8a850-d513-47ec-8870-e7210ef51b52","ios":"levelo://app?vid=88a8a850-d513-47ec-8870-e7210ef51b52"},"vehicle_type_id":"4","last_reported":1758031800,"current_range_meters":16000,"station_id":"","pricing_plan_id":"cebpf4jnsgd1na2vs0mg"},{"bike_id":"82e0bfcc-bba2-4c2c-9484-d3ca3b13a18b","system_id":"levelo_inurba_marseille","lat":43.29469,"lon":5.37539,"is_reserved":false,"is_disabled":false,"rental_uris":{"android":"levelo://app?vid=82e0bfcc-bba2-4c2c-9484-d3ca3b13a18b","ios":"levelo://app?vid=82e0bfcc-bba2-4c2c-9484-d3ca3b13a18b"},"vehicle_type_id":"4","last_reported":1758031800,"current_range_meters":16000,"station_id":"","pricing_plan_id":"cebpf4jnsgd1na2vs0mg"},{"bike_id":"453a2908-3680-455f-bda7-00a342891b64","system_id":"levelo_inurba_marseille","lat":43.22555,"lon":5.41627,"is_reserved":false,"is_disabled":false,"rental_uris":{"android":"levelo://app?vid=453a2908-3680-455f-bda7-00a342891b64","ios":"levelo://app?vid=453a2908-3680-455f-bda7-00a342891b64"},"vehicle_type_id":"4","last_reported":1758031800,"current_range_meters":16000,"station_id":"st_d2o4gvlbi1j2169b742g","pricing_plan_id":"cebpf4jnsgd1na2vs0mg"},{"bike_id":"2f2c09e3-2a11-4010-93a4-0fed3804d048","system_id":"levelo_inurba_marseille","lat":43.28462,"lon":5.3588,"is_reserved":false,"is_disabled":false,"rental_uris":{"android":"levelo://app?vid=2f2c09e3-2a11-4010-93a4-0fed3804d048","ios":"levelo://app?vid=2f2c09e3-2a11-4010-93a4-0fed3804d048"},"vehicle_type_id":"4","last_reported":1758031800,"current_range_meters":16000,"station_id":"ce4bhah2rcd13ifvqei0","pricing_plan_id":"cebpf4jnsgd1na2vs0mg"},{"bike_id":"fd3b4146-0073-4a79-82a9-bfaee63ff612","system_id":"levelo_inurba_marseille","lat":43.29415,"lon":5.38573,"is_reserved":false,"is_disabled":false,"rental_uris":{"android":"levelo://app?vid=fd3b4146-0073-4a79-82a9-bfaee63ff612","ios":"levelo://app?vid=fd3b4146-0073-4a79-82a9-bfaee63ff612"},"vehicle_type_id":"4","last_reported":1758031800,"current_range_meters":16000,"station_id":"","pricing_plan_id":"cebpf4jnsgd1na2vs0mg"},{"bike_id":"f5538dd9-94c3-433e-ada5-fc5d10ad63b0","system_id":"levelo_inurba_marseille","lat":43.30941,"lon":5.36846,"is_reserved":false,"is_disabled":false,"rental_uris":{"android":"levelo://app?vid=f5538dd9-94c3-433e-ada5-fc5d10ad63b0","ios":"levelo://app?vid=f5538dd9-94c3-433e-ada5-fc5d10ad63b0"},"vehicle_type_id":"4","last_reported":1758031800,"current_range_meters":16000,"station_id":"ce4bgn92rcd13ifvqbvg","pricing_plan_id":"cebpf4jnsgd1na2vs0mg"},{"bike_id":"0b530ca0-5abe-456a-80f2-061626fcc9b1","system_id":"levelo_inurba_marseille","lat":43.29961,"lon":5.38203,"is_reserved":false,"is_disabled":false,"rental_uris":{"android":"levelo://app?vid=0b530ca0-5abe-456a-80f2-061626fcc9b1","ios":"levelo://app?vid=0b530ca0-5abe-456a-80f2-061626fcc9b1"},"vehicle_type_id":"4","last_reported":1758031800,"current_range_meters":16000,"station_id":"","pricing_plan_id":"cebpf4jnsgd1na2vs0mg"},{"bike_id":"ee5b94c2-de55-4dd7-bf65-6d8402674d28","system_id":"levelo_inurba_marseille","lat":43.26931,"lon":5.40265,"is_reserved":false,"is_disabled":false,"rental_uris":{"android":"levelo://app?vid=ee5b94c2-de55-4dd7-bf65-6d8402674d28","ios":"levelo://app?vid=ee5b94c2-de55-4dd7-bf65-6d8402674d28"},"vehicle_type_id":"4","last_reported":1758031800,"current_range_meters":16000,"station_id":"cjm6bp8fraef2m0cb0m0","pricing_plan_id":"cebpf4jnsgd1na2vs0mg"},{"bike_id":"8ad3dab9-1d2d-4ac0-a622-2705413043f8","system_id":"levelo_inurba_marseille","lat":43.24631,"lon":5.4313,"is_reserved":false,"is_disabled":false,"rental_uris":{"android":"levelo://app?vid=8ad3dab9-1d2d-4ac0-a622-2705413043f8","ios":"levelo://app?vid=8ad3dab9-1d2d-4ac0-a622-2705413043f8"},"vehicle_type_id":"4","last_reported":1758031800,"current_range_meters":16000,"station_id":"st_d2m6c4gdas8pm72e190g","pricing_plan_id":"cebpf4jnsgd1na2vs0mg"},{"bike_id":"745fbdd3-ffc1-41ba-96c6-d34e04acfc3d","system_id":"levelo_inurba_marseille","lat":43.29181,"lon":5.39321,"is_reserved":false,"is_disabled":false,"rental_uris":{"android":"levelo://app?vid=745fbdd3-ffc1-41ba-96c6-d34e04acfc3d","ios":"levelo://app?vid=745fbdd3-ffc1-41ba-96c6-d34e04acfc3d"},"vehicle_type_id":"4","last_reported":1758031800,"current_range_meters":16000,"station_id":"ce4bh192rcd13ifvqdd0","pricing_plan_id":"cebpf4jnsgd1na2vs0mg"},{"bike_id":"2c5700c8-80b2-496f-a6fe-eb485ba43e2f","system_id":"levelo_inurba_marseille","lat":43.28261,"lon":5.35064,"is_reserved":false,"is_disabled":false,"rental_uris":{"android":"levelo://app?vid=2c5700c8-80b2-496f-a6fe-eb485ba43e2f","ios":"levelo://app?vid=2c5700c8-80b2-496f-a6fe-eb485ba43e2f"},"vehicle_type_id":"4","last_reported":1758031800,"current_range_meters":16400,"station_id":"ce4bhbp2rcd13ifvqerg","pricing_plan_id":"cebpf4jnsgd1na2vs0mg"},{"bike_id":"5468743a-d065-4569-944f-260b4bcb1af3","system_id":"levelo_inurba_marseille","lat":43.25939,"lon":5.40906,"is_reserved":false,"is_disabled":false,"rental_uris":{"android":"levelo://app?vid=5468743a-d065-4569-944f-260b4bcb1af3","ios":"levelo://app?vid=5468743a-d065-4569-944f-260b4bcb1af3"},"vehicle_type_id":"4","last_reported":1758031800,"current_range_meters":16400,"station_id":"ce4bhm92rcd13ifvqglg","pricing_plan_id":"cebpf4jnsgd1na2vs0mg"},{"bike_id":"f4ff729f-2be5-4990-94b4-d9f549b73aca","system_id":"levelo_inurba_marseille","lat":43.299234,"lon":5.374722,"is_reserved":false,"is_disabled":false,"rental_uris":{"android":"levelo://app?vid=f4ff729f-2be5-4990-94b4-d9f549b73aca","ios":"levelo://app?vid=f4ff729f-2be5-4990-94b4-d9f549b73aca"},"vehicle_type_id":"4","last_reported":1758031800,"current_range_meters":16400,"station_id":"ce4bgjh2rcd13ifvqbg0","pricing_plan_id":"cebpf4jnsgd1na2vs0mg"},{"bike_id":"003515e8-8117-44bb-979d-5f47e8d50fda","system_id":"levelo_inurba_marseille","lat":43.30674,"lon":5.37629,"is_reserved":false,"is_disabled":false,"rental_uris":{"android":"levelo://app?vid=003515e8-8117-44bb-979d-5f47e8d50fda","ios":"levelo://app?vid=003515e8-8117-44bb-979d-5f47e8d50fda"},"vehicle_type_id":"4","last_reported":1758031800,"current_range_meters":16400,"station_id":"","pricing_plan_id":"cebpf4jnsgd1na2vs0mg"},{"bike_id":"18c64b31-21a3-4fc9-abb7-deb0889a8d41","system_id":"levelo_inurba_marseille","lat":43.27619,"lon":5.36107,"is_reserved":false,"is_disabled":false,"rental_uris":{"android":"levelo://app?vid=18c64b31-21a3-4fc9-abb7-deb0889a8d41","ios":"levelo://app?vid=18c64b31-21a3-4fc9-abb7-deb0889a8d41"},"vehicle_type_id":"4","last_reported":1758031800,"current_range_meters":16400,"station_id":"ce4bgj92rcd13ifvqbe0","pricing_plan_id":"cebpf4jnsgd1na2vs0mg"},{"bike_id":"96644ae3-2807-4f95-a981-fef4ac2b0e69","system_id":"levelo_inurba_marseille","lat":43.225329,"lon":5.34835,"is_reserved":false,"is_disabled":false,"rental_uris":{"android":"levelo://app?vid=96644ae3-2807-4f95-a981-fef4ac2b0e69","ios":"levelo://app?vid=96644ae3-2807-4f95-a981-fef4ac2b0e69"},"vehicle_type_id":"4","last_reported":1758031800,"current_range_meters":16400,"station_id":"","pricing_plan_id":"cebpf4jnsgd1na2vs0mg"},{"bike_id":"ea40b2e8-3ed5-45ff-a05d-34b5c207c1d6","system_id":"levelo_inurba_marseille","lat":43.27954,"lon":5.38712,"is_reserved":false,"is_disabled":false,"rental_uris":{"android":"levelo://app?vid=ea40b2e8-3ed5-45ff-a05d-34b5c207c1d6","ios":"levelo://app?vid=ea40b2e8-3ed5-45ff-a05d-34b5c207c1d6"},"vehicle_type_id":"4","last_reported":1758031800,"current_range_meters":16400,"station_id":"ce4bhg12rcd13ifvqf80","pricing_plan_id":"cebpf4jnsgd1na2vs0mg"},{"bike_id":"23e1572e-7ccb-4eea-8020-599035749c9e","system_id":"levelo_inurba_marseille","lat":43.238399,"lon":5.36555,"is_reserved":false,"is_disabled":false,"rental_uris":{"android":"levelo://app?vid=23e1572e-7ccb-4eea-8020-599035749c9e","ios":"levelo://app?vid=23e1572e-7ccb-4eea-8020-599035749c9e"},"vehicle_type_id":"4","last_reported":1758031800,"current_range_meters":16400,"station_id":"","pricing_plan_id":"cebpf4jnsgd1na2vs0mg"},{"bike_id":"5dbca62f-7019-41e0-bb60-cbaa2e477dc8","system_id":"levelo_inurba_marseille","lat":43.30905,"lon":5.36853,"is_reserved":false,"is_disabled":false,"rental_uris":{"android":"levelo://app?vid=5dbca62f-7019-41e0-bb60-cbaa2e477dc8","ios":"levelo://app?vid=5dbca62f-7019-41e0-bb60-cbaa2e477dc8"},"vehicle_type_id":"4","last_reported":1758031800,"current_range_meters":16400,"station_id":"ce4bgn92rcd13ifvqbvg","pricing_plan_id":"cebpf4jnsgd1na2vs0mg"},{"bike_id":"78e1a55e-86e9-482a-abd9-036694975e7c","system_id":"levelo_inurba_marseille","lat":43.32054,"lon":5.41602,"is_reserved":false,"is_disabled":false,"rental_uris":{"android":"levelo://app?vid=78e1a55e-86e9-482a-abd9-036694975e7c","ios":"levelo://app?vid=78e1a55e-86e9-482a-abd9-036694975e7c"},"vehicle_type_id":"4","last_reported":1758031800,"current_range_meters":16400,"station_id":"ce4bhq92rcd13ifvqhkg","pricing_plan_id":"cebpf4jnsgd1na2vs0mg"},{"bike_id":"76e349fa-bc9b-47a4-9c39-43f8ccd1efae","system_id":"levelo_inurba_marseille","lat":43.28042,"lon":5.36934,"is_reserved":false,"is_disabled":true,"rental_uris":{"android":"levelo://app?vid=76e349fa-bc9b-47a4-9c39-43f8ccd1efae","ios":"levelo://app?vid=76e349fa-bc9b-47a4-9c39-43f8ccd1efae"},"vehicle_type_id":"4","last_reported":1758031800,"current_range_meters":16400,"station_id":"ce4bha12rcd13ifvqef0","pricing_plan_id":"cebpf4jnsgd1na2vs0mg"},{"bike_id":"daf44963-6de4-4983-b9d2-ac4f845119e4","system_id":"levelo_inurba_marseille","lat":43.25584,"lon":5.38228,"is_reserved":false,"is_disabled":false,"rental_uris":{"android":"levelo://app?vid=daf44963-6de4-4983-b9d2-ac4f845119e4","ios":"levelo://app?vid=daf44963-6de4-4983-b9d2-ac4f845119e4"},"vehicle_type_id":"4","last_reported":1758031800,"current_range_meters":16400,"station_id":"ce4bhih2rcd13ifvqfs0","pricing_plan_id":"cebpf4jnsgd1na2vs0mg"},{"bike_id":"ca5a1340-d41e-49f3-95f8-599734e0a36c","system_id":"levelo_inurba_marseille","lat":43.225336,"lon":5.348339,"is_reserved":false,"is_disabled":false,"rental_uris":{"android":"levelo://app?vid=ca5a1340-d41e-49f3-95f8-599734e0a36c","ios":"levelo://app?vid=ca5a1340-d41e-49f3-95f8-599734e0a36c"},"vehicle_type_id":"4","last_reported":1758031800,"current_range_meters":16800,"station_id":"","pricing_plan_id":"cebpf4jnsgd1na2vs0mg"},{"bike_id":"3584c8e9-13a3-4904-91e3-06d644403edd","system_id":"levelo_inurba_marseille","lat":43.31363,"lon":5.36709,"is_reserved":false,"is_disabled":true,"rental_uris":{"android":"levelo://app?vid=3584c8e9-13a3-4904-91e3-06d644403edd","ios":"levelo://app?vid=3584c8e9-13a3-4904-91e3-06d644403edd"},"vehicle_type_id":"4","last_reported":1758031800,"current_range_meters":16800,"station_id":"ce4bgr92rcd13ifvqc6g","pricing_plan_id":"cebpf4jnsgd1na2vs0mg"},{"bike_id":"ee3f09f7-1a1b-47fd-a7cf-bde601b53332","system_id":"levelo_inurba_marseille","lat":43.3079,"lon":5.37639,"is_reserved":false,"is_disabled":false,"rental_uris":{"android":"levelo://app?vid=ee3f09f7-1a1b-47fd-a7cf-bde601b53332","ios":"levelo://app?vid=ee3f09f7-1a1b-47fd-a7cf-bde601b53332"},"vehicle_type_id":"4","last_reported":1758031800,"current_range_meters":16800,"station_id":"ce4bgv92rcd13ifvqcq0","pricing_plan_id":"cebpf4jnsgd1na2vs0mg"},{"bike_id":"fcd56ccc-f0ab-49ef-a538-8c498b5ecd49","system_id":"levelo_inurba_marseille","lat":43.22568,"lon":5.41626,"is_reserved":false,"is_disabled":false,"rental_uris":{"android":"levelo://app?vid=fcd56ccc-f0ab-49ef-a538-8c498b5ecd49","ios":"levelo://app?vid=fcd56ccc-f0ab-49ef-a538-8c498b5ecd49"},"vehicle_type_id":"4","last_reported":1758031800,"current_range_meters":16800,"station_id":"st_d2o4gvlbi1j2169b742g","pricing_plan_id":"cebpf4jnsgd1na2vs0mg"},{"bike_id":"b730872c-944f-439c-915a-fe170090d0c4","system_id":"levelo_inurba_marseille","lat":43.28409,"lon":5.34976,"is_reserved":false,"is_disabled":false,"rental_uris":{"android":"levelo://app?vid=b730872c-944f-439c-915a-fe170090d0c4","ios":"levelo://app?vid=b730872c-944f-439c-915a-fe170090d0c4"},"vehicle_type_id":"4","last_reported":1758031800,"current_range_meters":16800,"station_id":"ce4bhbh2rcd13ifvqepg","pricing_plan_id":"cebpf4jnsgd1na2vs0mg"},{"bike_id":"22f0687d-25d3-4094-9c4a-293a61e189a6","system_id":"levelo_inurba_marseille","lat":43.240604,"lon":5.406927,"is_reserved":false,"is_disabled":false,"rental_uris":{"android":"levelo://app?vid=22f0687d-25d3-4094-9c4a-293a61e189a6","ios":"levelo://app?vid=22f0687d-25d3-4094-9c4a-293a61e189a6"},"vehicle_type_id":"4","last_reported":1758031800,"current_range_meters":16800,"station_id":"","pricing_plan_id":"cebpf4jnsgd1na2vs0mg"},{"bike_id":"896fff93-5ca9-48ec-a949-934d5a5b376b","system_id":"levelo_inurba_marseille","lat":43.2841,"lon":5.34981,"is_reserved":false,"is_disabled":false,"rental_uris":{"android":"levelo://app?vid=896fff93-5ca9-48ec-a949-934d5a5b376b","ios":"levelo://app?vid=896fff93-5ca9-48ec-a949-934d5a5b376b"},"vehicle_type_id":"4","last_reported":1758031800,"current_range_meters":16800,"station_id":"ce4bhbh2rcd13ifvqepg","pricing_plan_id":"cebpf4jnsgd1na2vs0mg"},{"bike_id":"0798f443-f59a-4f37-816c-618c40fef51d","system_id":"levelo_inurba_marseille","lat":43.32102,"lon":5.36767,"is_reserved":false,"is_disabled":false,"rental_uris":{"android":"levelo://app?vid=0798f443-f59a-4f37-816c-618c40fef51d","ios":"levelo://app?vid=0798f443-f59a-4f37-816c-618c40fef51d"},"vehicle_type_id":"4","last_reported":1758031800,"current_range_meters":16800,"station_id":"ce4bhrh2rcd13ifvqhug","pricing_plan_id":"cebpf4jnsgd1na2vs0mg"},{"bike_id":"c1884e33-dc6f-45bf-a642-8ea29d61d9e2","system_id":"levelo_inurba_marseille","lat":43.28928,"lon":5.36635,"is_reserved":false,"is_disabled":false,"rental_uris":{"android":"levelo://app?vid=c1884e33-dc6f-45bf-a642-8ea29d61d9e2","ios":"levelo://app?vid=c1884e33-dc6f-45bf-a642-8ea29d61d9e2"},"vehicle_type_id":"4","last_reported":1758031800,"current_range_meters":16800,"station_id":"ce4bhap2rcd13ifvqek0","pricing_plan_id":"cebpf4jnsgd1na2vs0mg"},{"bike_id":"1b9d1d29-64fd-423f-b108-582048ba5250","system_id":"levelo_inurba_marseille","lat":43.27496,"lon":5.42463,"is_reserved":false,"is_disabled":false,"rental_uris":{"android":"levelo://app?vid=1b9d1d29-64fd-423f-b108-582048ba5250","ios":"levelo://app?vid=1b9d1d29-64fd-423f-b108-582048ba5250"},"vehicle_type_id":"4","last_reported":1758031800,"current_range_meters":17200,"station_id":"ce4bhn92rcd13ifvqgrg","pricing_plan_id":"cebpf4jnsgd1na2vs0mg"},{"bike_id":"88a4bc06-6261-4921-890d-d133aa4606a8","system_id":"levelo_inurba_marseille","lat":43.337444,"lon":5.374475,"is_reserved":false,"is_disabled":true,"rental_uris":{"android":"levelo://app?vid=88a4bc06-6261-4921-890d-d133aa4606a8","ios":"levelo://app?vid=88a4bc06-6261-4921-890d-d133aa4606a8"},"vehicle_type_id":"4","last_reported":1758031800,"current_range_meters":17200,"station_id":"","pricing_plan_id":"cebpf4jnsgd1na2vs0mg"},{"bike_id":"c014c84b-8386-4cd0-ab97-8b8e0017178e","system_id":"levelo_inurba_marseille","lat":43.31166,"lon":5.3873,"is_reserved":false,"is_disabled":false,"rental_uris":{"android":"levelo://app?vid=c014c84b-8386-4cd0-ab97-8b8e0017178e","ios":"levelo://app?vid=c014c84b-8386-4cd0-ab97-8b8e0017178e"},"vehicle_type_id":"4","last_reported":1758031800,"current_range_meters":17200,"station_id":"ce4bgv12rcd13ifvqcp0","pricing_plan_id":"cebpf4jnsgd1na2vs0mg"},{"bike_id":"eef903ec-fda2-4d7c-ab67-b22e1b495c99","system_id":"levelo_inurba_marseille","lat":43.25942,"lon":5.40904,"is_reserved":false,"is_disabled":false,"rental_uris":{"android":"levelo://app?vid=eef903ec-fda2-4d7c-ab67-b22e1b495c99","ios":"levelo://app?vid=eef903ec-fda2-4d7c-ab67-b22e1b495c99"},"vehicle_type_id":"4","last_reported":1758031800,"current_range_meters":17200,"station_id":"ce4bhm92rcd13ifvqglg","pricing_plan_id":"cebpf4jnsgd1na2vs0mg"},{"bike_id":"2a5e641a-ca90-4f3a-9350-63bb94d9cebf","system_id":"levelo_inurba_marseille","lat":43.25571,"lon":5.39166,"is_reserved":false,"is_disabled":false,"rental_uris":{"android":"levelo://app?vid=2a5e641a-ca90-4f3a-9350-63bb94d9cebf","ios":"levelo://app?vid=2a5e641a-ca90-4f3a-9350-63bb94d9cebf"},"vehicle_type_id":"4","last_reported":1758031800,"current_range_meters":17200,"station_id":"","pricing_plan_id":"cebpf4jnsgd1na2vs0mg"},{"bike_id":"98703372-df1c-419c-b48b-5cae94b8e735","system_id":"levelo_inurba_marseille","lat":43.2861,"lon":5.35098,"is_reserved":false,"is_disabled":false,"rental_uris":{"android":"levelo://app?vid=98703372-df1c-419c-b48b-5cae94b8e735","ios":"levelo://app?vid=98703372-df1c-419c-b48b-5cae94b8e735"},"vehicle_type_id":"4","last_reported":1758031800,"current_range_meters":17200,"station_id":"ce4bhch2rcd13ifvqeug","pricing_plan_id":"cebpf4jnsgd1na2vs0mg"},{"bike_id":"db33fedd-ac3a-46f1-86df-ee7e1a51f8c4","system_id":"levelo_inurba_marseille","lat":43.28267,"lon":5.35092,"is_reserved":false,"is_disabled":false,"rental_uris":{"android":"levelo://app?vid=db33fedd-ac3a-46f1-86df-ee7e1a51f8c4","ios":"levelo://app?vid=db33fedd-ac3a-46f1-86df-ee7e1a51f8c4"},"vehicle_type_id":"4","last_reported":1758031800,"current_range_meters":17200,"station_id":"ce4bhbp2rcd13ifvqerg","pricing_plan_id":"cebpf4jnsgd1na2vs0mg"},{"bike_id":"84cb4893-4f06-4232-aa60-0169012d8d00","system_id":"levelo_inurba_marseille","lat":43.29977,"lon":5.41305,"is_reserved":false,"is_disabled":false,"rental_uris":{"android":"levelo://app?vid=84cb4893-4f06-4232-aa60-0169012d8d00","ios":"levelo://app?vid=84cb4893-4f06-4232-aa60-0169012d8d00"},"vehicle_type_id":"4","last_reported":1758031800,"current_range_meters":17200,"station_id":"ce4bhp12rcd13ifvqh9g","pricing_plan_id":"cebpf4jnsgd1na2vs0mg"},{"bike_id":"eb6cbeef-bc92-4528-a915-7b01f98754fe","system_id":"levelo_inurba_marseille","lat":43.3029,"lon":5.37416,"is_reserved":false,"is_disabled":false,"rental_uris":{"android":"levelo://app?vid=eb6cbeef-bc92-4528-a915-7b01f98754fe","ios":"levelo://app?vid=eb6cbeef-bc92-4528-a915-7b01f98754fe"},"vehicle_type_id":"4","last_reported":1758031800,"current_range_meters":17200,"station_id":"","pricing_plan_id":"cebpf4jnsgd1na2vs0mg"},{"bike_id":"d1788760-0706-4b90-8999-db00a9e42210","system_id":"levelo_inurba_marseille","lat":43.32659,"lon":5.41005,"is_reserved":false,"is_disabled":false,"rental_uris":{"android":"levelo://app?vid=d1788760-0706-4b90-8999-db00a9e42210","ios":"levelo://app?vid=d1788760-0706-4b90-8999-db00a9e42210"},"vehicle_type_id":"4","last_reported":1758031800,"current_range_meters":17200,"station_id":"","pricing_plan_id":"cebpf4jnsgd1na2vs0mg"},{"bike_id":"d66079b8-e1e6-49f6-8513-918b3ce83cf8","system_id":"levelo_inurba_marseille","lat":43.26231,"lon":5.40439,"is_reserved":false,"is_disabled":false,"rental_uris":{"android":"levelo://app?vid=d66079b8-e1e6-49f6-8513-918b3ce83cf8","ios":"levelo://app?vid=d66079b8-e1e6-49f6-8513-918b3ce83cf8"},"vehicle_type_id":"4","last_reported":1758031800,"current_range_meters":17200,"station_id":"ce4bhmh2rcd13ifvqgmg","pricing_plan_id":"cebpf4jnsgd1na2vs0mg"},{"bike_id":"6f2eb6ab-72c7-4c22-85bb-07107b425ef2","system_id":"levelo_inurba_marseille","lat":43.28417,"lon":5.34971,"is_reserved":false,"is_disabled":false,"rental_uris":{"android":"levelo://app?vid=6f2eb6ab-72c7-4c22-85bb-07107b425ef2","ios":"levelo://app?vid=6f2eb6ab-72c7-4c22-85bb-07107b425ef2"},"vehicle_type_id":"4","last_reported":1758031800,"current_range_meters":17600,"station_id":"ce4bhbh2rcd13ifvqepg","pricing_plan_id":"cebpf4jnsgd1na2vs0mg"},{"bike_id":"4d428ea9-1dcb-4a75-b622-5cb7b20a1dad","system_id":"levelo_inurba_marseille","lat":43.32357,"lon":5.36764,"is_reserved":false,"is_disabled":false,"rental_uris":{"android":"levelo://app?vid=4d428ea9-1dcb-4a75-b622-5cb7b20a1dad","ios":"levelo://app?vid=4d428ea9-1dcb-4a75-b622-5cb7b20a1dad"},"vehicle_type_id":"4","last_reported":1758031800,"current_range_meters":17600,"station_id":"ce4bhsh2rcd13ifvqi2g","pricing_plan_id":"cebpf4jnsgd1na2vs0mg"},{"bike_id":"8c515bb4-8ba8-4225-8caf-37e0634882c6","system_id":"levelo_inurba_marseille","lat":43.30299,"lon":5.38635,"is_reserved":false,"is_disabled":false,"rental_uris":{"android":"levelo://app?vid=8c515bb4-8ba8-4225-8caf-37e0634882c6","ios":"levelo://app?vid=8c515bb4-8ba8-4225-8caf-37e0634882c6"},"vehicle_type_id":"4","last_reported":1758031800,"current_range_meters":17600,"station_id":"","pricing_plan_id":"cebpf4jnsgd1na2vs0mg"},{"bike_id":"dadbda31-8921-4d80-ac3f-8572232b49bc","system_id":"levelo_inurba_marseille","lat":43.29265,"lon":5.37618,"is_reserved":false,"is_disabled":false,"rental_uris":{"android":"levelo://app?vid=dadbda31-8921-4d80-ac3f-8572232b49bc","ios":"levelo://app?vid=dadbda31-8921-4d80-ac3f-8572232b49bc"},"vehicle_type_id":"4","last_reported":1758031800,"current_range_meters":17600,"station_id":"ce4bgi12rcd13ifvqb80","pricing_plan_id":"cebpf4jnsgd1na2vs0mg"},{"bike_id":"a44b7d9c-7d7f-4649-9e3e-bc97747000c5","system_id":"levelo_inurba_marseille","lat":43.30541,"lon":5.3653,"is_reserved":false,"is_disabled":false,"rental_uris":{"android":"levelo://app?vid=a44b7d9c-7d7f-4649-9e3e-bc97747000c5","ios":"levelo://app?vid=a44b7d9c-7d7f-4649-9e3e-bc97747000c5"},"vehicle_type_id":"4","last_reported":1758031800,"current_range_meters":17600,"station_id":"ce4bgs12rcd13ifvqcag","pricing_plan_id":"cebpf4jnsgd1na2vs0mg"},{"bike_id":"64b1deee-ef02-45e9-a66a-3e5e20b8d612","system_id":"levelo_inurba_marseille","lat":43.299284,"lon":5.385203,"is_reserved":false,"is_disabled":false,"rental_uris":{"android":"levelo://app?vid=64b1deee-ef02-45e9-a66a-3e5e20b8d612","ios":"levelo://app?vid=64b1deee-ef02-45e9-a66a-3e5e20b8d612"},"vehicle_type_id":"4","last_reported":1758031800,"current_range_meters":17600,"station_id":"ce4bgop2rcd13ifvqc1g","pricing_plan_id":"cebpf4jnsgd1na2vs0mg"},{"bike_id":"b0fe429e-5492-4d45-811b-bca8e631a750","system_id":"levelo_inurba_marseille","lat":43.28408,"lon":5.37507,"is_reserved":false,"is_disabled":false,"rental_uris":{"android":"levelo://app?vid=b0fe429e-5492-4d45-811b-bca8e631a750","ios":"levelo://app?vid=b0fe429e-5492-4d45-811b-bca8e631a750"},"vehicle_type_id":"4","last_reported":1758031800,"current_range_meters":17600,"station_id":"ce4bh412rcd13ifvqds0","pricing_plan_id":"cebpf4jnsgd1na2vs0mg"},{"bike_id":"642d7c2a-88be-4986-88d2-6088fb672d2b","system_id":"levelo_inurba_marseille","lat":43.3013,"lon":5.39849,"is_reserved":false,"is_disabled":false,"rental_uris":{"android":"levelo://app?vid=642d7c2a-88be-4986-88d2-6088fb672d2b","ios":"levelo://app?vid=642d7c2a-88be-4986-88d2-6088fb672d2b"},"vehicle_type_id":"4","last_reported":1758031800,"current_range_meters":17600,"station_id":"ce4bh0h2rcd13ifvqd40","pricing_plan_id":"cebpf4jnsgd1na2vs0mg"},{"bike_id":"b2b3f118-f930-4549-8d49-265a30e53939","system_id":"levelo_inurba_marseille","lat":43.24198,"lon":5.3637,"is_reserved":false,"is_disabled":false,"rental_uris":{"android":"levelo://app?vid=b2b3f118-f930-4549-8d49-265a30e53939","ios":"levelo://app?vid=b2b3f118-f930-4549-8d49-265a30e53939"},"vehicle_type_id":"4","last_reported":1758031800,"current_range_meters":17600,"station_id":"cpo36qri1sfpv3e86is0","pricing_plan_id":"cebpf4jnsgd1na2vs0mg"},{"bike_id":"508031f8-bf6a-4bfe-aeae-adf3ce513b76","system_id":"levelo_inurba_marseille","lat":43.25962,"lon":5.40911,"is_reserved":false,"is_disabled":false,"rental_uris":{"android":"levelo://app?vid=508031f8-bf6a-4bfe-aeae-adf3ce513b76","ios":"levelo://app?vid=508031f8-bf6a-4bfe-aeae-adf3ce513b76"},"vehicle_type_id":"4","last_reported":1758031800,"current_range_meters":17600,"station_id":"ce4bhm92rcd13ifvqglg","pricing_plan_id":"cebpf4jnsgd1na2vs0mg"},{"bike_id":"328f4ed1-e2b6-4222-8054-4ecd7f52a2aa","system_id":"levelo_inurba_marseille","lat":43.24547,"lon":5.39513,"is_reserved":false,"is_disabled":false,"rental_uris":{"android":"levelo://app?vid=328f4ed1-e2b6-4222-8054-4ecd7f52a2aa","ios":"levelo://app?vid=328f4ed1-e2b6-4222-8054-4ecd7f52a2aa"},"vehicle_type_id":"4","last_reported":1758031800,"current_range_meters":17600,"station_id":"ce4bhlp2rcd13ifvqgjg","pricing_plan_id":"cebpf4jnsgd1na2vs0mg"},{"bike_id":"2c75f324-0a3d-41d8-a1e8-4f1291da99f7","system_id":"levelo_inurba_marseille","lat":43.316896,"lon":5.377353,"is_reserved":false,"is_disabled":false,"rental_uris":{"android":"levelo://app?vid=2c75f324-0a3d-41d8-a1e8-4f1291da99f7","ios":"levelo://app?vid=2c75f324-0a3d-41d8-a1e8-4f1291da99f7"},"vehicle_type_id":"4","last_reported":1758031800,"current_range_meters":18000,"station_id":"","pricing_plan_id":"cebpf4jnsgd1na2vs0mg"},{"bike_id":"46cbcee3-845b-447b-a395-16f85ed6d743","system_id":"levelo_inurba_marseille","lat":43.30553,"lon":5.36675,"is_reserved":false,"is_disabled":false,"rental_uris":{"android":"levelo://app?vid=46cbcee3-845b-447b-a395-16f85ed6d743","ios":"levelo://app?vid=46cbcee3-845b-447b-a395-16f85ed6d743"},"vehicle_type_id":"4","last_reported":1758031800,"current_range_meters":18000,"station_id":"","pricing_plan_id":"cebpf4jnsgd1na2vs0mg"},{"bike_id":"cbf6559a-8280-4e3c-8875-fa3fef017c65","system_id":"levelo_inurba_marseille","lat":43.27892,"lon":5.38014,"is_reserved":false,"is_disabled":false,"rental_uris":{"android":"levelo://app?vid=cbf6559a-8280-4e3c-8875-fa3fef017c65","ios":"levelo://app?vid=cbf6559a-8280-4e3c-8875-fa3fef017c65"},"vehicle_type_id":"4","last_reported":1758031800,"current_range_meters":18000,"station_id":"ce4bhf92rcd13ifvqf50","pricing_plan_id":"cebpf4jnsgd1na2vs0mg"},{"bike_id":"775af279-8ac9-4585-9121-809be9b13265","system_id":"levelo_inurba_marseille","lat":43.337726,"lon":5.374327,"is_reserved":false,"is_disabled":false,"rental_uris":{"android":"levelo://app?vid=775af279-8ac9-4585-9121-809be9b13265","ios":"levelo://app?vid=775af279-8ac9-4585-9121-809be9b13265"},"vehicle_type_id":"4","last_reported":1758031800,"current_range_meters":18000,"station_id":"","pricing_plan_id":"cebpf4jnsgd1na2vs0mg"},{"bike_id":"2421d86b-4f74-4fa0-ab64-4feb733b98df","system_id":"levelo_inurba_marseille","lat":43.28399,"lon":5.37504,"is_reserved":false,"is_disabled":false,"rental_uris":{"android":"levelo://app?vid=2421d86b-4f74-4fa0-ab64-4feb733b98df","ios":"levelo://app?vid=2421d86b-4f74-4fa0-ab64-4feb733b98df"},"vehicle_type_id":"4","last_reported":1758031800,"current_range_meters":18000,"station_id":"ce4bh412rcd13ifvqds0","pricing_plan_id":"cebpf4jnsgd1na2vs0mg"},{"bike_id":"797d594a-91b3-4375-ad0d-bc637135bfd1","system_id":"levelo_inurba_marseille","lat":43.3138,"lon":5.37127,"is_reserved":false,"is_disabled":false,"rental_uris":{"android":"levelo://app?vid=797d594a-91b3-4375-ad0d-bc637135bfd1","ios":"levelo://app?vid=797d594a-91b3-4375-ad0d-bc637135bfd1"},"vehicle_type_id":"4","last_reported":1758031800,"current_range_meters":18000,"station_id":"","pricing_plan_id":"cebpf4jnsgd1na2vs0mg"},{"bike_id":"5701fe9c-3e98-4b9f-a910-5eb395d4e5d3","system_id":"levelo_inurba_marseille","lat":43.305389,"lon":5.384223,"is_reserved":false,"is_disabled":false,"rental_uris":{"android":"levelo://app?vid=5701fe9c-3e98-4b9f-a910-5eb395d4e5d3","ios":"levelo://app?vid=5701fe9c-3e98-4b9f-a910-5eb395d4e5d3"},"vehicle_type_id":"4","last_reported":1758031800,"current_range_meters":18000,"station_id":"","pricing_plan_id":"cebpf4jnsgd1na2vs0mg"},{"bike_id":"09c16f5a-16da-4441-ac47-480ebe866167","system_id":"levelo_inurba_marseille","lat":43.28112,"lon":5.37837,"is_reserved":false,"is_disabled":false,"rental_uris":{"android":"levelo://app?vid=09c16f5a-16da-4441-ac47-480ebe866167","ios":"levelo://app?vid=09c16f5a-16da-4441-ac47-480ebe866167"},"vehicle_type_id":"4","last_reported":1758031800,"current_range_meters":18000,"station_id":"ce4bha12rcd13ifvqee0","pricing_plan_id":"cebpf4jnsgd1na2vs0mg"},{"bike_id":"4be5092d-ef9b-4f45-8de6-be5463c75cb2","system_id":"levelo_inurba_marseille","lat":43.26933,"lon":5.40258,"is_reserved":false,"is_disabled":false,"rental_uris":{"android":"levelo://app?vid=4be5092d-ef9b-4f45-8de6-be5463c75cb2","ios":"levelo://app?vid=4be5092d-ef9b-4f45-8de6-be5463c75cb2"},"vehicle_type_id":"4","last_reported":1758031800,"current_range_meters":18000,"station_id":"cjm6bp8fraef2m0cb0m0","pricing_plan_id":"cebpf4jnsgd1na2vs0mg"},{"bike_id":"2ac16967-ae78-4422-95ba-d0276056bd33","system_id":"levelo_inurba_marseille","lat":43.30213,"lon":5.39467,"is_reserved":false,"is_disabled":false,"rental_uris":{"android":"levelo://app?vid=2ac16967-ae78-4422-95ba-d0276056bd33","ios":"levelo://app?vid=2ac16967-ae78-4422-95ba-d0276056bd33"},"vehicle_type_id":"4","last_reported":1758031800,"current_range_meters":18000,"station_id":"ce4bh0p2rcd13ifvqd70","pricing_plan_id":"cebpf4jnsgd1na2vs0mg"},{"bike_id":"eef5a466-e939-407b-b497-3aa8002e43a3","system_id":"levelo_inurba_marseille","lat":43.24802,"lon":5.37453,"is_reserved":false,"is_disabled":false,"rental_uris":{"android":"levelo://app?vid=eef5a466-e939-407b-b497-3aa8002e43a3","ios":"levelo://app?vid=eef5a466-e939-407b-b497-3aa8002e43a3"},"vehicle_type_id":"4","last_reported":1758031800,"current_range_meters":18000,"station_id":"ce4bhgh2rcd13ifvqfb0","pricing_plan_id":"cebpf4jnsgd1na2vs0mg"},{"bike_id":"c8a7dee6-2332-4a84-a508-681234669df9","system_id":"levelo_inurba_marseille","lat":43.25937,"lon":5.408979,"is_reserved":false,"is_disabled":false,"rental_uris":{"android":"levelo://app?vid=c8a7dee6-2332-4a84-a508-681234669df9","ios":"levelo://app?vid=c8a7dee6-2332-4a84-a508-681234669df9"},"vehicle_type_id":"4","last_reported":1758031800,"current_range_meters":18800,"station_id":"ce4bhm92rcd13ifvqglg","pricing_plan_id":"cebpf4jnsgd1na2vs0mg"},{"bike_id":"1ce6007b-45ed-4524-b008-a82774f372fc","system_id":"levelo_inurba_marseille","lat":43.26504,"lon":5.39538,"is_reserved":false,"is_disabled":false,"rental_uris":{"android":"levelo://app?vid=1ce6007b-45ed-4524-b008-a82774f372fc","ios":"levelo://app?vid=1ce6007b-45ed-4524-b008-a82774f372fc"},"vehicle_type_id":"4","last_reported":1758031800,"current_range_meters":18000,"station_id":"ce4bhi12rcd13ifvqfq0","pricing_plan_id":"cebpf4jnsgd1na2vs0mg"},