{"last_updated":1730542108,"ttl":60,"version":"2.2","data":{"bikes":[{"bike_id":"5695b70b-d73d-4348-a184-59626312f958","system_id":"levelo_inurba_marseille","lat":43.24665,"lon":5.38167,"is_reserved":false,"is_disabled":false,"rental_uris":{"android":"levelo://app?vid=5695b70b-d73d-4348-a184-59626312f958","ios":"levelo://app?vid=5695b70b-d73d-4348-a184-59626312f958"},"vehicle_type_id":"4","last_reported":1730542108,"current_range_meters":3200,"station_id":"ce4bhih2rcd13ifvqfr0","pricing_plan_id":"cebpf4jnsgd1na2vs0mg"},{"bike_id":"1100e5a9-b924-4d01-8a4c-246bee3d586b","system_id":"levelo_inurba_marseille","lat":43.24696,"lon":5.41512,"is_reserved":false,"is_disabled":false,"rental_uris":{"android":"levelo://app?vid=1100e5a9-b924-4d01-8a4c-246bee3d586b","ios":"levelo://app?vid=1100e5a9-b924-4d01-8a4c-246bee3d586b"},"vehicle_type_id":"4","last_reported":1730542108,"current_range_meters":4400,"station_id":"","pricing_plan_id":"cebpf4jnsgd1na2vs0mg"},{"bike_id":"1154d05d-8ee3-4b7a-8846-a6d93b97bf41","system_id":"levelo_inurba_marseille","lat":43.30546,"lon":5.36696,"is_reserved":false,"is_disabled":false,"rental_uris":{"android":"levelo://app?vid=1154d05d-8ee3-4b7a-8846-a6d93b97bf41","ios":"levelo://app?vid=1154d05d-8ee3-4b7a-8846-a6d93b97bf41"},"vehicle_type_id":"4","last_reported":1730542108,"current_range_meters":38800,"station_id":"ce4bgrp2rcd13ifvqc9g","pricing_plan_id":"cebpf4jnsgd1na2vs0mg"},{"bike_id":"8edb629f-9edb-4e6d-8453-3a06eb0fc1e0","system_id":"levelo_inurba_marseille","lat":43.24668,"lon":5.3817,"is_reserved":false,"is_disabled":false,"rental_uris":{"android":"levelo://app?vid=8edb629f-9edb-4e6d-8453-3a06eb0fc1e0","ios":"levelo://app?vid=8edb629f-9edb-4e6d-8453-3a06eb0fc1e0"},"vehicle_type_id":"4","last_reported":1730542108,"current_range_meters":29600,"station_id":"ce4bhih2rcd13ifvqfr0","pricing_plan_id":"cebpf4jnsgd1na2vs0mg"},{"bike_id":"53361ed5-44e3-4331-b1db-d839ce43605d","system_id":"levelo_inurba_marseille","lat":43.32656,"lon":5.40986,"is_reserved":false,"is_disabled":false,"rental_uris":{"android":"levelo://app?vid=53361ed5-44e3-4331-b1db-d839ce43605d","ios":"levelo://app?vid=53361ed5-44e3-4331-b1db-d839ce43605d"},"vehicle_type_id":"4","last_reported":1730542108,"current_range_meters":8400,"station_id":"ce4bhpp2rcd13ifvqhgg","pricing_plan_id":"cebpf4jnsgd1na2vs0mg"},{"bike_id":"8682c02d-b75e-4986-bf40-c0b0cf6578e7","system_id":"levelo_inurba_marseille","lat":43.32104,"lon":5.36765,"is_reserved":false,"is_disabled":false,"rental_uris":{"android":"levelo://app?vid=8682c02d-b75e-4986-bf40-c0b0cf6578e7","ios":"levelo://app?vid=8682c02d-b75e-4986-bf40-c0b0cf6578e7"},"vehicle_type_id":"4","last_reported":1730542108,"current_range_meters":38400,"station_id":"ce4bhrh2rcd13ifvqhug","pricing_plan_id":"cebpf4jnsgd1na2vs0mg"},{"bike_id":"dbd026cc-4570-4761-bfa1-68dae00b3a97","system_id":"levelo_inurba_marseille","lat":43.30526,"lon":5.36526,"is_reserved":false,"is_disabled":false,"rental_uris":{"android":"levelo://app?vid=dbd026cc-4570-4761-bfa1-68dae00b3a97","ios":"levelo://app?vid=dbd026cc-4570-4761-bfa1-68dae00b3a97"},"vehicle_type_id":"4","last_reported":1730542108,"current_range_meters":38800,"station_id":"ce4bgs12rcd13ifvqcag","pricing_plan_id":"cebpf4jnsgd1na2vs0mg"},{"bike_id":"9c76359b-1e4f-45fe-ad26-9d59924e2a72","system_id":"levelo_inurba_marseille","lat":43.31171,"lon":5.38705,"is_reserved":false,"is_disabled":false,"rental_uris":{"android":"levelo://app?vid=9c76359b-1e4f-45fe-ad26-9d59924e2a72","ios":"levelo://app?vid=9c76359b-1e4f-45fe-ad26-9d59924e2a72"},"vehicle_type_id":"4","last_reported":1730542108,"current_range_meters":37600,"station_id":"ce4bgv12rcd13ifvqcp0","pricing_plan_id":"cebpf4jnsgd1na2vs0mg"},{"bike_id":"4351e983-58be-44a7-8063-3835fe17a126","system_id":"levelo_inurba_marseille","lat":43.29567,"lon":5.37515,"is_reserved":false,"is_disabled":false,"rental_uris":{"android":"levelo://app?vid=4351e983-58be-44a7-8063-3835fe17a126","ios":"levelo://app?vid=4351e983-58be-44a7-8063-3835fe17a126"},"vehicle_type_id":"4","last_reported":1730542108,"current_range_meters":27600,"station_id":"ce4bgh92rcd13ifvqb50","pricing_plan_id":"cebpf4jnsgd1na2vs0mg"},{"bike_id":"ae2ccb33-795f-44d2-a6c0-9c58090a88ce","system_id":"levelo_inurba_marseille","lat":43.2439,"lon":5.37046,"is_reserved":false,"is_disabled":false,"rental_uris":{"android":"levelo://app?vid=ae2ccb33-795f-44d2-a6c0-9c58090a88ce","ios":"levelo://app?vid=ae2ccb33-795f-44d2-a6c0-9c58090a88ce"},"vehicle_type_id":"4","last_reported":1730542108,"current_range_meters":32400,"station_id":"ce4bhhh2rcd13ifvqfk0","pricing_plan_id":"cebpf4jnsgd1na2vs0mg"},{"bike_id":"f6ccb037-9f5e-4a77-bf6e-a700a2022f0c","system_id":"levelo_inurba_marseille","lat":43.29175,"lon":5.39333,"is_reserved":false,"is_disabled":false,"rental_uris":{"android":"levelo://app?vid=f6ccb037-9f5e-4a77-bf6e-a700a2022f0c","ios":"levelo://app?vid=f6ccb037-9f5e-4a77-bf6e-a700a2022f0c"},"vehicle_type_id":"4","last_reported":1730542108,"current_range_meters":26800,"station_id":"ce4bh192rcd13ifvqdd0","pricing_plan_id":"cebpf4jnsgd1na2vs0mg"},{"bike_id":"b46f1536-9668-4958-9926-bdb7af8ef666","system_id":"levelo_inurba_marseille","lat":43.31877,"lon":5.40721,"is_reserved":false,"is_disabled":false,"rental_uris":{"android":"levelo://app?vid=b46f1536-9668-4958-9926-bdb7af8ef666","ios":"levelo://app?vid=b46f1536-9668-4958-9926-bdb7af8ef666"},"vehicle_type_id":"4","last_reported":1730542108,"current_range_meters":37600,"station_id":"ce4bhq12rcd13ifvqhig","pricing_plan_id":"cebpf4jnsgd1na2vs0mg"},{"bike_id":"01247e72-d93d-44bb-a492-b9bb7634f5bf","system_id":"levelo_inurba_marseille","lat":43.31178,"lon":5.38714,"is_reserved":false,"is_disabled":false,"rental_uris":{"android":"levelo://app?vid=01247e72-d93d-44bb-a492-b9bb7634f5bf","ios":"levelo://app?vid=01247e72-d93d-44bb-a492-b9bb7634f5bf"},"vehicle_type_id":"4","last_reported":1730542108,"current_range_meters":37600,"station_id":"ce4bgv12rcd13ifvqcp0","pricing_plan_id":"cebpf4jnsgd1na2vs0mg"},{"bike_id":"fb7f8183-7447-4baa-b80d-313056d35dd4","system_id":"levelo_inurba_marseille","lat":43.25729,"lon":5.41107,"is_reserved":false,"is_disabled":false,"rental_uris":{"android":"levelo://app?vid=fb7f8183-7447-4baa-b80d-313056d35dd4","ios":"levelo://app?vid=fb7f8183-7447-4baa-b80d-313056d35dd4"},"vehicle_type_id":"4","last_reported":1730542108,"current_range_meters":39200,"station_id":"ce4bhkp2rcd13ifvqgd0","pricing_plan_id":"cebpf4jnsgd1na2vs0mg"},{"bike_id":"d0103a01-8f21-41d2-9ae7-f5e7b401704c","system_id":"levelo_inurba_marseille","lat":43.28884,"lon":5.35834,"is_reserved":false,"is_disabled":false,"rental_uris":{"android":"levelo://app?vid=d0103a01-8f21-41d2-9ae7-f5e7b401704c","ios":"levelo://app?vid=d0103a01-8f21-41d2-9ae7-f5e7b401704c"},"vehicle_type_id":"4","last_reported":1730542108,"current_range_meters":24000,"station_id":"ce4bhb12rcd13ifvqem0","pricing_plan_id":"cebpf4jnsgd1na2vs0mg"},{"bike_id":"f51d93c6-cb3b-4758-ba2e-35814ad35727","system_id":"levelo_inurba_marseille","lat":43.25727,"lon":5.41104,"is_reserved":false,"is_disabled":false,"rental_uris":{"android":"levelo://app?vid=f51d93c6-cb3b-4758-ba2e-35814ad35727","ios":"levelo://app?vid=f51d93c6-cb3b-4758-ba2e-35814ad35727"},"vehicle_type_id":"4","last_reported":1730542108,"current_range_meters":32400,"station_id":"ce4bhkp2rcd13ifvqgd0","pricing_plan_id":"cebpf4jnsgd1na2vs0mg"},{"bike_id":"a4627486-a087-47d1-bdea-e9476cd49986","system_id":"levelo_inurba_marseille","lat":43.23196,"lon":5.3555,"is_reserved":false,"is_disabled":false,"rental_uris":{"android":"levelo://app?vid=a4627486-a087-47d1-bdea-e9476cd49986","ios":"levelo://app?vid=a4627486-a087-47d1-bdea-e9476cd49986"},"vehicle_type_id":"4","last_reported":1730542108,"current_range_meters":27600,"station_id":"ce4bhu92rcd13ifvqi70","pricing_plan_id":"cebpf4jnsgd1na2vs0mg"},{"bike_id":"f555af36-d455-4608-9036-95344ddeca0e","system_id":"levelo_inurba_marseille","lat":43.28421,"lon":5.37514,"is_reserved":false,"is_disabled":false,"rental_uris":{"android":"levelo://app?vid=f555af36-d455-4608-9036-95344ddeca0e","ios":"levelo://app?vid=f555af36-d455-4608-9036-95344ddeca0e"},"vehicle_type_id":"4","last_reported":1730542108,"current_range_meters":34000,"station_id":"ce4bh412rcd13ifvqds0","pricing_plan_id":"cebpf4jnsgd1na2vs0mg"},{"bike_id":"b5f33767-5e91-4659-ad39-a00af15685ad","system_id":"levelo_inurba_marseille","lat":43.29877,"lon":5.39734,"is_reserved":false,"is_disabled":false,"rental_uris":{"android":"levelo://app?vid=b5f33767-5e91-4659-ad39-a00af15685ad","ios":"levelo://app?vid=b5f33767-5e91-4659-ad39-a00af15685ad"},"vehicle_type_id":"4","last_reported":1730542108,"current_range_meters":38000,"station_id":"ce4bh0h2rcd13ifvqd50","pricing_plan_id":"cebpf4jnsgd1na2vs0mg"},{"bike_id":"509a9bdc-ca48-4855-8040-748bb9b3087b","system_id":"levelo_inurba_marseille","lat":43.25934,"lon":5.409,"is_reserved":false,"is_disabled":false,"rental_uris":{"android":"levelo://app?vid=509a9bdc-ca48-4855-8040-748bb9b3087b","ios":"levelo://app?vid=509a9bdc-ca48-4855-8040-748bb9b3087b"},"vehicle_type_id":"4","last_reported":1730542108,"current_range_meters":20800,"station_id":"ce4bhm92rcd13ifvqglg","pricing_plan_id":"cebpf4jnsgd1na2vs0mg"},{"bike_id":"6484f63d-37b9-48e3-bd1c-7dc214f2659b","system_id":"levelo_inurba_marseille","lat":43.29203,"lon":5.39317,"is_reserved":false,"is_disabled":false,"rental_uris":{"android":"levelo://app?vid=6484f63d-37b9-48e3-bd1c-7dc214f2659b","ios":"levelo://app?vid=6484f63d-37b9-48e3-bd1c-7dc214f2659b"},"vehicle_type_id":"4","last_reported":1730542108,"current_range_meters":37600,"station_id":"ce4bh192rcd13ifvqdd0","pricing_plan_id":"cebpf4jnsgd1na2vs0mg"},{"bike_id":"437e4bd3-fd16-4385-bde5-eb0551d338b8","system_id":"levelo_inurba_marseille","lat":43.25002,"lon":5.38922,"is_reserved":false,"is_disabled":false,"rental_uris":{"android":"levelo://app?vid=437e4bd3-fd16-4385-bde5-eb0551d338b8","ios":"levelo://app?vid=437e4bd3-fd16-4385-bde5-eb0551d338b8"},"vehicle_type_id":"4","last_reported":1730542108,"current_range_meters":16800,"station_id":"ce4bhgp2rcd13ifvqfd0","pricing_plan_id":"cebpf4jnsgd1na2vs0mg"},{"bike_id":"5786df96-c0c3-4631-99bb-68039925daa1","system_id":"levelo_inurba_marseille","lat":43.27172,"lon":5.40991,"is_reserved":false,"is_disabled":false,"rental_uris":{"android":"levelo://app?vid=5786df96-c0c3-4631-99bb-68039925daa1","ios":"levelo://app?vid=5786df96-c0c3-4631-99bb-68039925daa1"},"vehicle_type_id":"4","last_reported":1730542108,"current_range_meters":26800,"station_id":"ce4bhl12rcd13ifvqgf0","pricing_plan_id":"cebpf4jnsgd1na2vs0mg"},{"bike_id":"3a758925-ff45-4c49-b4ee-de6c8fbb558b","system_id":"levelo_inurba_marseille","lat":43.25118,"lon":5.40326,"is_reserved":false,"is_disabled":false,"rental_uris":{"android":"levelo://app?vid=3a758925-ff45-4c49-b4ee-de6c8fbb558b","ios":"levelo://app?vid=3a758925-ff45-4c49-b4ee-de6c8fbb558b"},"vehicle_type_id":"4","last_reported":1730542108,"current_range_meters":38800,"station_id":"ce4bhlh2rcd13ifvqgig","pricing_plan_id":"cebpf4jnsgd1na2vs0mg"},{"bike_id":"efbe383f-83c6-4df5-ac1f-ffa8f2e0197b","system_id":"levelo_inurba_marseille","lat":43.3133,"lon":5.39692,"is_reserved":false,"is_disabled":false,"rental_uris":{"android":"levelo://app?vid=efbe383f-83c6-4df5-ac1f-ffa8f2e0197b","ios":"levelo://app?vid=efbe383f-83c6-4df5-ac1f-ffa8f2e0197b"},"vehicle_type_id":"4","last_reported":1730542108,"current_range_meters":4400,"station_id":"ce4bgvp2rcd13ifvqcu0","pricing_plan_id":"cebpf4jnsgd1na2vs0mg"},{"bike_id":"6aee0ce1-c7a0-45e8-a515-069ca31b3763","system_id":"levelo_inurba_marseille","lat":43.25733,"lon":5.41107,"is_reserved":false,"is_disabled":false,"rental_uris":{"android":"levelo://app?vid=6aee0ce1-c7a0-45e8-a515-069ca31b3763","ios":"levelo://app?vid=6aee0ce1-c7a0-45e8-a515-069ca31b3763"},"vehicle_type_id":"4","last_reported":1730542108,"current_range_meters":38000,"station_id":"ce4bhkp2rcd13ifvqgd0","pricing_plan_id":"cebpf4jnsgd1na2vs0mg"},{"bike_id":"1586e445-a9a1-4791-922c-55fb02dcbcb9","system_id":"levelo_inurba_marseille","lat":43.30801,"lon":5.43525,"is_reserved":false,"is_disabled":false,"rental_uris":{"android":"levelo://app?vid=1586e445-a9a1-4791-922c-55fb02dcbcb9","ios":"levelo://app?vid=1586e445-a9a1-4791-922c-55fb02dcbcb9"},"vehicle_type_id":"4","last_reported":1730542108,"current_range_meters":38000,"station_id":"ce4bhph2rcd13ifvqheg","pricing_plan_id":"cebpf4jnsgd1na2vs0mg"},{"bike_id":"db28e1ef-7713-4726-a3c0-e2c452b150c6","system_id":"levelo_inurba_marseille","lat":43.299096,"lon":5.385916,"is_reserved":false,"is_disabled":false,"rental_uris":{"android":"levelo://app?vid=db28e1ef-7713-4726-a3c0-e2c452b150c6","ios":"levelo://app?vid=db28e1ef-7713-4726-a3c0-e2c452b150c6"},"vehicle_type_id":"4","last_reported":1730542108,"current_range_meters":30400,"station_id":"ce4bgj92rcd13ifvqbd0","pricing_plan_id":"cebpf4jnsgd1na2vs0mg"},{"bike_id":"7d467372-7059-4321-81bc-a3b8c1dcaf52","system_id":"levelo_inurba_marseille","lat":43.29841,"lon":5.36257,"is_reserved":false,"is_disabled":false,"rental_uris":{"android":"levelo://app?vid=7d467372-7059-4321-81bc-a3b8c1dcaf52","ios":"levelo://app?vid=7d467372-7059-4321-81bc-a3b8c1dcaf52"},"vehicle_type_id":"4","last_reported":1730542108,"current_range_meters":36400,"station_id":"ce4bgpp2rcd13ifvqc3g","pricing_plan_id":"cebpf4jnsgd1na2vs0mg"},{"bike_id":"da8bc4f8-d4fb-41a3-8d75-a197d56b5507","system_id":"levelo_inurba_marseille","lat":43.278944,"lon":5.380259,"is_reserved":false,"is_disabled":false,"rental_uris":{"android":"levelo://app?vid=da8bc4f8-d4fb-41a3-8d75-a197d56b5507","ios":"levelo://app?vid=da8bc4f8-d4fb-41a3-8d75-a197d56b5507"},"vehicle_type_id":"4","last_reported":1730542108,"current_range_meters":38000,"station_id":"ce4bhf92rcd13ifvqf50","pricing_plan_id":"cebpf4jnsgd1na2vs0mg"},{"bike_id":"9b50e853-0c2f-402a-9edc-493d94c176f6","system_id":"levelo_inurba_marseille","lat":43.29573,"lon":5.37499,"is_reserved":false,"is_disabled":false,"rental_uris":{"android":"levelo://app?vid=9b50e853-0c2f-402a-9edc-493d94c176f6","ios":"levelo://app?vid=9b50e853-0c2f-402a-9edc-493d94c176f6"},"vehicle_type_id":"4","last_reported":1730542108,"current_range_meters":31200,"station_id":"ce4bgh92rcd13ifvqb50","pricing_plan_id":"cebpf4jnsgd1na2vs0mg"},{"bike_id":"1c6c4ea4-1422-4f95-9fb3-989475604eaf","system_id":"levelo_inurba_marseille","lat":43.2828,"lon":5.35068,"is_reserved":false,"is_disabled":false,"rental_uris":{"android":"levelo://app?vid=1c6c4ea4-1422-4f95-9fb3-989475604eaf","ios":"levelo://app?vid=1c6c4ea4-1422-4f95-9fb3-989475604eaf"},"vehicle_type_id":"4","last_reported":1730542108,"current_range_meters":38000,"station_id":"ce4bhbp2rcd13ifvqerg","pricing_plan_id":"cebpf4jnsgd1na2vs0mg"},{"bike_id":"4f0de445-15e8-4d4f-b6cb-dd85cf93ce95","system_id":"levelo_inurba_marseille","lat":43.2984,"lon":5.36272,"is_reserved":false,"is_disabled":false,"rental_uris":{"android":"levelo://app?vid=4f0de445-15e8-4d4f-b6cb-dd85cf93ce95","ios":"levelo://app?vid=4f0de445-15e8-4d4f-b6cb-dd85cf93ce95"},"vehicle_type_id":"4","last_reported":1730542108,"current_range_meters":38800,"station_id":"ce4bgpp2rcd13ifvqc3g","pricing_plan_id":"cebpf4jnsgd1na2vs0mg"},{"bike_id":"6a3339db-c53d-45a1-98c0-a0f5852c6361","system_id":"levelo_inurba_marseille","lat":43.30546,"lon":5.36551,"is_reserved":false,"is_disabled":false,"rental_uris":{"android":"levelo://app?vid=6a3339db-c53d-45a1-98c0-a0f5852c6361","ios":"levelo://app?vid=6a3339db-c53d-45a1-98c0-a0f5852c6361"},"vehicle_type_id":"4","last_reported":1730542108,"current_range_meters":34000,"station_id":"ce4bgs12rcd13ifvqcag","pricing_plan_id":"cebpf4jnsgd1na2vs0mg"},{"bike_id":"13f23c0b-a4f0-4ba8-ab4c-58cdaf8c18f0","system_id":"levelo_inurba_marseille","lat":43.26556,"lon":5.37283,"is_reserved":false,"is_disabled":false,"rental_uris":{"android":"levelo://app?vid=13f23c0b-a4f0-4ba8-ab4c-58cdaf8c18f0","ios":"levelo://app?vid=13f23c0b-a4f0-4ba8-ab4c-58cdaf8c18f0"},"vehicle_type_id":"4","last_reported":1730542108,"current_range_meters":16400,"station_id":"ce4bhg12rcd13ifvqf70","pricing_plan_id":"cebpf4jnsgd1na2vs0mg"},{"bike_id":"029977b6-72c6-4307-a578-6d080d458e3c","system_id":"levelo_inurba_marseille","lat":43.2731,"lon":5.39077,"is_reserved":false,"is_disabled":false,"rental_uris":{"android":"levelo://app?vid=029977b6-72c6-4307-a578-6d080d458e3c","ios":"levelo://app?vid=029977b6-72c6-4307-a578-6d080d458e3c"},"vehicle_type_id":"4","last_reported":1730542108,"current_range_meters":37600,"station_id":"ce4bhgp2rcd13ifvqfe0","pricing_plan_id":"cebpf4jnsgd1na2vs0mg"},{"bike_id":"4109850f-6033-4b57-af3f-cfd0f5a4e9a0","system_id":"levelo_inurba_marseille","lat":43.28272,"lon":5.35078,"is_reserved":false,"is_disabled":false,"rental_uris":{"android":"levelo://app?vid=4109850f-6033-4b57-af3f-cfd0f5a4e9a0","ios":"levelo://app?vid=4109850f-6033-4b57-af3f-cfd0f5a4e9a0"},"vehicle_type_id":"4","last_reported":1730542108,"current_range_meters":33600,"station_id":"ce4bhbp2rcd13ifvqerg","pricing_plan_id":"cebpf4jnsgd1na2vs0mg"},{"bike_id":"8ac4f741-2911-42d6-a00a-51cf057a7d47","system_id":"levelo_inurba_marseille","lat":43.27498,"lon":5.42455,"is_reserved":false,"is_disabled":false,"rental_uris":{"android":"levelo://app?vid=8ac4f741-2911-42d6-a00a-51cf057a7d47","ios":"levelo://app?vid=8ac4f741-2911-42d6-a00a-51cf057a7d47"},"vehicle_type_id":"4","last_reported":1730542108,"current_range_meters":37600,"station_id":"ce4bhn92rcd13ifvqgrg","pricing_plan_id":"cebpf4jnsgd1na2vs0mg"},{"bike_id":"c339cd2b-82a9-41e1-a12c-95a07bfedc8a","system_id":"levelo_inurba_marseille","lat":43.285722,"lon":5.394965,"is_reserved":false,"is_disabled":false,"rental_uris":{"android":"levelo://app?vid=c339cd2b-82a9-41e1-a12c-95a07bfedc8a","ios":"levelo://app?vid=c339cd2b-82a9-41e1-a12c-95a07bfedc8a"},"vehicle_type_id":"4","last_reported":1730542108,"current_range_meters":39200,"station_id":"ce4bh292rcd13ifvqdg0","pricing_plan_id":"cebpf4jnsgd1na2vs0mg"},{"bike_id":"237b61e3-181c-4d6e-a373-f6ffbfb44b9c","system_id":"levelo_inurba_marseille","lat":43.23191,"lon":5.35553,"is_reserved":false,"is_disabled":false,"rental_uris":{"android":"levelo://app?vid=237b61e3-181c-4d6e-a373-f6ffbfb44b9c","ios":"levelo://app?vid=237b61e3-181c-4d6e-a373-f6ffbfb44b9c"},"vehicle_type_id":"4","last_reported":1730542108,"current_range_meters":28000,"station_id":"ce4bhu92rcd13ifvqi70","pricing_plan_id":"cebpf4jnsgd1na2vs0mg"},{"bike_id":"d451d28d-010b-4a6d-8180-76be35e28442","system_id":"levelo_inurba_marseille","lat":43.29307,"lon":5.3717,"is_reserved":false,"is_disabled":false,"rental_uris":{"android":"levelo://app?vid=d451d28d-010b-4a6d-8180-76be35e28442","ios":"levelo://app?vid=d451d28d-010b-4a6d-8180-76be35e28442"},"vehicle_type_id":"4","last_reported":1730542108,"current_range_meters":18800,"station_id":"ce4bgh92rcd13ifvqb40","pricing_plan_id":"cebpf4jnsgd1na2vs0mg"},{"bike_id":"1fb673db-cdb4-4577-bbb1-5a1baeff033c","system_id":"levelo_inurba_marseille","lat":43.3117,"lon":5.38715,"is_reserved":false,"is_disabled":false,"rental_uris":{"android":"levelo://app?vid=1fb673db-cdb4-4577-bbb1-5a1baeff033c","ios":"levelo://app?vid=1fb673db-cdb4-4577-bbb1-5a1baeff033c"},"vehicle_type_id":"4","last_reported":1730542108,"current_range_meters":36800,"station_id":"ce4bgv12rcd13ifvqcp0","pricing_plan_id":"cebpf4jnsgd1na2vs0mg"},{"bike_id":"77e7a8f6-43a8-409f-8fcd-0dae9b775bad","system_id":"levelo_inurba_marseille","lat":43.290243,"lon":5.386417,"is_reserved":false,"is_disabled":false,"rental_uris":{"android":"levelo://app?vid=77e7a8f6-43a8-409f-8fcd-0dae9b775bad","ios":"levelo://app?vid=77e7a8f6-43a8-409f-8fcd-0dae9b775bad"},"vehicle_type_id":"4","last_reported":1730542108,"current_range_meters":38800,"station_id":"ce4bh4p2rcd13ifvqe0g","pricing_plan_id":"cebpf4jnsgd1na2vs0mg"},{"bike_id":"ca2a6e76-3e25-40c6-bad6-6619baff8207","system_id":"levelo_inurba_marseille","lat":43.28979,"lon":5.35612,"is_reserved":false,"is_disabled":false,"rental_uris":{"android":"levelo://app?vid=ca2a6e76-3e25-40c6-bad6-6619baff8207","ios":"levelo://app?vid=ca2a6e76-3e25-40c6-bad6-6619baff8207"},"vehicle_type_id":"4","last_reported":1730542108,"current_range_meters":5600,"station_id":"ce4bhb92rcd13ifvqen0","pricing_plan_id":"cebpf4jnsgd1na2vs0mg"},{"bike_id":"dccc613c-7c9d-44fc-9625-47ccbc365073","system_id":"levelo_inurba_marseille","lat":43.27487,"lon":5.4246,"is_reserved":false,"is_disabled":false,"rental_uris":{"android":"levelo://app?vid=dccc613c-7c9d-44fc-9625-47ccbc365073","ios":"levelo://app?vid=dccc613c-7c9d-44fc-9625-47ccbc365073"},"vehicle_type_id":"4","last_reported":1730542108,"current_range_meters":36400,"station_id":"ce4bhn92rcd13ifvqgrg","pricing_plan_id":"cebpf4jnsgd1na2vs0mg"},{"bike_id":"a2b2b2b7-968f-41ee-9f63-385cfc5d375a","system_id":"levelo_inurba_marseille","lat":43.23148,"lon":5.43724,"is_reserved":false,"is_disabled":false,"rental_uris":{"android":"levelo://app?vid=a2b2b2b7-968f-41ee-9f63-385cfc5d375a","ios":"levelo://app?vid=a2b2b2b7-968f-41ee-9f63-385cfc5d375a"},"vehicle_type_id":"4","last_reported":1730542108,"current_range_meters":38800,"station_id":"ce4bhmp2rcd13ifvqgog","pricing_plan_id":"cebpf4jnsgd1na2vs0mg"},{"bike_id":"b7697aa4-9779-41ec-a33d-b10f31be9df0","system_id":"levelo_inurba_marseille","lat":43.31685,"lon":5.40467,"is_reserved":false,"is_disabled":false,"rental_uris":{"android":"levelo://app?vid=b7697aa4-9779-41ec-a33d-b10f31be9df0","ios":"levelo://app?vid=b7697aa4-9779-41ec-a33d-b10f31be9df0"},"vehicle_type_id":"4","last_reported":1730542108,"current_range_meters":38800,"station_id":"","pricing_plan_id":"cebpf4jnsgd1na2vs0mg"},{"bike_id":"e2078485-8c2d-4317-b3a0-6ab924605f2b","system_id":"levelo_inurba_marseille","lat":43.27322,"lon":5.3907,"is_reserved":false,"is_disabled":false,"rental_uris":{"android":"levelo://app?vid=e2078485-8c2d-4317-b3a0-6ab924605f2b","ios":"levelo://app?vid=e2078485-8c2d-4317-b3a0-6ab924605f2b"},"vehicle_type_id":"4","last_reported":1730542108,"current_range_meters":36400,"station_id":"ce4bhgp2rcd13ifvqfe0","pricing_plan_id":"cebpf4jnsgd1na2vs0mg"},{"bike_id":"060759db-80d5-4b6c-a20f-699f5a878064","system_id":"levelo_inurba_marseille","lat":43.25119,"lon":5.40315,"is_reserved":false,"is_disabled":false,"rental_uris":{"android":"levelo://app?vid=060759db-80d5-4b6c-a20f-699f5a878064","ios":"levelo://app?vid=060759db-80d5-4b6c-a20f-699f5a878064"},"vehicle_type_id":"4","last_reported":1730542108,"current_range_meters":38000,"station_id":"ce4bhlh2rcd13ifvqgig","pricing_plan_id":"cebpf4jnsgd1na2vs0mg"},{"bike_id":"337cd0a4-1ee8-4f9d-8ee4-4137d5c3c5e2","system_id":"levelo_inurba_marseille","lat":43.3117,"lon":5.38698,"is_reserved":false,"is_disabled":false,"rental_uris":{"android":"levelo://app?vid=337cd0a4-1ee8-4f9d-8ee4-4137d5c3c5e2","ios":"levelo://app?vid=337cd0a4-1ee8-4f9d-8ee4-4137d5c3c5e2"},"vehicle_type_id":"4","last_reported":1730542108,"current_range_meters":38800,"station_id":"ce4bgv12rcd13ifvqcp0","pricing_plan_id":"cebpf4jnsgd1na2vs0mg"},{"bike_id":"d9861277-a73f-4e27-a109-ab906ed70d05","system_id":"levelo_inurba_marseille","lat":43.2936,"lon":5.37855,"is_reserved":false,"is_disabled":false,"rental_uris":{"android":"levelo://app?vid=d9861277-a73f-4e27-a109-ab906ed70d05","ios":"levelo://app?vid=d9861277-a73f-4e27-a109-ab906ed70d05"},"vehicle_type_id":"4","last_reported":1730542108,"current_range_meters":16800,"station_id":"ce4bgjh2rcd13ifvqbf0","pricing_plan_id":"cebpf4jnsgd1na2vs0mg"},{"bike_id":"6f011542-a444-42b4-bd0e-3e8ccd5d1f39","system_id":"levelo_inurba_marseille","lat":43.29306,"lon":5.37177,"is_reserved":false,"is_disabled":false,"rental_uris":{"android":"levelo://app?vid=6f011542-a444-42b4-bd0e-3e8ccd5d1f39","ios":"levelo://app?vid=6f011542-a444-42b4-bd0e-3e8ccd5d1f39"},"vehicle_type_id":"4","last_reported":1730542108,"current_range_meters":17200,"station_id":"ce4bgh92rcd13ifvqb40","pricing_plan_id":"cebpf4jnsgd1na2vs0mg"},{"bike_id":"7dc1c1ed-2472-4dd8-84f9-9b00a0c2baff","system_id":"levelo_inurba_marseille","lat":43.29551,"lon":5.42283,"is_reserved":false,"is_disabled":false,"rental_uris":{"android":"levelo://app?vid=7dc1c1ed-2472-4dd8-84f9-9b00a0c2baff","ios":"levelo://app?vid=7dc1c1ed-2472-4dd8-84f9-9b00a0c2baff"},"vehicle_type_id":"4","last_reported":1730542108,"current_range_meters":37600,"station_id":"ce4bhph2rcd13ifvqhdg","pricing_plan_id":"cebpf4jnsgd1na2vs0mg"},{"bike_id":"3a58f7e0-04ca-425a-900d-21346b549a93","system_id":"levelo_inurba_marseille","lat":43.26559,"lon":5.37277,"is_reserved":false,"is_disabled":false,"rental_uris":{"android":"levelo://app?vid=3a58f7e0-04ca-425a-900d-21346b549a93","ios":"levelo://app?vid=3a58f7e0-04ca-425a-900d-21346b549a93"},"vehicle_type_id":"4","last_reported":1730542108,"current_range_meters":26000,"station_id":"ce4bhg12rcd13ifvqf70","pricing_plan_id":"cebpf4jnsgd1na2vs0mg"},{"bike_id":"c9c5d1b8-e098-419c-8872-b35296cf4983","system_id":"levelo_inurba_marseille","lat":43.26676,"lon":5.38255,"is_reserved":false,"is_disabled":false,"rental_uris":{"android":"levelo://app?vid=c9c5d1b8-e098-419c-8872-b35296cf4983","ios":"levelo://app?vid=c9c5d1b8-e098-419c-8872-b35296cf4983"},"vehicle_type_id":"4","last_reported":1730542108,"current_range_meters":16000,"station_id":"ce4bhg92rcd13ifvqf90","pricing_plan_id":"cebpf4jnsgd1na2vs0mg"},{"bike_id":"4dd74b80-423d-4a82-8b5a-fef5ebd97f46","system_id":"levelo_inurba_marseille","lat":43.24393,"lon":5.37053,"is_reserved":false,"is_disabled":false,"rental_uris":{"android":"levelo://app?vid=4dd74b80-423d-4a82-8b5a-fef5ebd97f46","ios":"levelo://app?vid=4dd74b80-423d-4a82-8b5a-fef5ebd97f46"},"vehicle_type_id":"4","last_reported":1730542108,"current_range_meters":22800,"station_id":"ce4bhhh2rcd13ifvqfk0","pricing_plan_id":"cebpf4jnsgd1na2vs0mg"},{"bike_id":"b01d8e03-804a-44bc-9744-262a136c8232","system_id":"levelo_inurba_marseille","lat":43.29186,"lon":5.35834,"is_reserved":false,"is_disabled":false,"rental_uris":{"android":"levelo://app?vid=b01d8e03-804a-44bc-9744-262a136c8232","ios":"levelo://app?vid=b01d8e03-804a-44bc-9744-262a136c8232"},"vehicle_type_id":"4","last_reported":1730542108,"current_range_meters":38800,"station_id":"ce4bhb12rcd13ifvqel0","pricing_plan_id":"cebpf4jnsgd1na2vs0mg"},{"bike_id":"9938ebcd-9900-4f33-ae62-087d07b91466","system_id":"levelo_inurba_marseille","lat":43.25725,"lon":5.41101,"is_reserved":false,"is_disabled":false,"rental_uris":{"android":"levelo://app?vid=9938ebcd-9900-4f33-ae62-087d07b91466","ios":"levelo://app?vid=9938ebcd-9900-4f33-ae62-087d07b91466"},"vehicle_type_id":"4","last_reported":1730542108,"current_range_meters":39200,"station_id":"ce4bhkp2rcd13ifvqgd0","pricing_plan_id":"cebpf4jnsgd1na2vs0mg"},{"bike_id":"9d4d7888-e57c-4697-8fc3-2691f4062dff","system_id":"levelo_inurba_marseille","lat":43.28574,"lon":5.39484,"is_reserved":false,"is_disabled":false,"rental_uris":{"android":"levelo://app?vid=9d4d7888-e57c-4697-8fc3-2691f4062dff","ios":"levelo://app?vid=9d4d7888-e57c-4697-8fc3-2691f4062dff"},"vehicle_type_id":"4","last_reported":1730542108,"current_range_meters":27600,"station_id":"ce4bh292rcd13ifvqdg0","pricing_plan_id":"cebpf4jnsgd1na2vs0mg"},{"bike_id":"e960ac30-070e-494a-a9c1-effafcd9c6f4","system_id":"levelo_inurba_marseille","lat":43.29462,"lon":5.39586,"is_reserved":false,"is_disabled":false,"rental_uris":{"android":"levelo://app?vid=e960ac30-070e-494a-a9c1-effafcd9c6f4","ios":"levelo://app?vid=e960ac30-070e-494a-a9c1-effafcd9c6f4"},"vehicle_type_id":"4","last_reported":1730542108,"current_range_meters":8800,"station_id":"","pricing_plan_id":"cebpf4jnsgd1na2vs0mg"},{"bike_id":"e0bb0bf6-b6d3-48bd-a1ae-730dc47848d5","system_id":"levelo_inurba_marseille","lat":43.30466,"lon":5.37904,"is_reserved":false,"is_disabled":false,"rental_uris":{"android":"levelo://app?vid=e0bb0bf6-b6d3-48bd-a1ae-730dc47848d5","ios":"levelo://app?vid=e0bb0bf6-b6d3-48bd-a1ae-730dc47848d5"},"vehicle_type_id":"4","last_reported":1730542108,"current_range_meters":17200,"station_id":"ce4bgup2rcd13ifvqcn0","pricing_plan_id":"cebpf4jnsgd1na2vs0mg"},{"bike_id":"a35b17f7-012c-4f42-b09f-20abe952f1de","system_id":"levelo_inurba_marseille","lat":43.27318,"lon":5.39101,"is_reserved":false,"is_disabled":false,"rental_uris":{"android":"levelo://app?vid=a35b17f7-012c-4f42-b09f-20abe952f1de","ios":"levelo://app?vid=a35b17f7-012c-4f42-b09f-20abe952f1de"},"vehicle_type_id":"4","last_reported":1730542108,"current_range_meters":39200,"station_id":"ce4bhgp2rcd13ifvqfe0","pricing_plan_id":"cebpf4jnsgd1na2vs0mg"},{"bike_id":"02f087f6-53e4-44c6-bd6c-b6648fa1b6dc","system_id":"levelo_inurba_marseille","lat":43.27425,"lon":5.39408,"is_reserved":false,"is_disabled":false,"rental_uris":{"android":"levelo://app?vid=02f087f6-53e4-44c6-bd6c-b6648fa1b6dc","ios":"levelo://app?vid=02f087f6-53e4-44c6-bd6c-b6648fa1b6dc"},"vehicle_type_id":"4","last_reported":1730542108,"current_range_meters":30800,"station_id":"ce4bhdp2rcd13ifvqf20","pricing_plan_id":"cebpf4jnsgd1na2vs0mg"},{"bike_id":"4f207157-0a3f-446e-a706-7d73dc0c6f39","system_id":"levelo_inurba_marseille","lat":43.31178,"lon":5.387,"is_reserved":false,"is_disabled":false,"rental_uris":{"android":"levelo://app?vid=4f207157-0a3f-446e-a706-7d73dc0c6f39","ios":"levelo://app?vid=4f207157-0a3f-446e-a706-7d73dc0c6f39"},"vehicle_type_id":"4","last_reported":1730542108,"current_range_meters":37600,"station_id":"ce4bgv12rcd13ifvqcp0","pricing_plan_id":"cebpf4jnsgd1na2vs0mg"},{"bike_id":"f07840ef-5365-439e-b7c4-6d0110c47d46","system_id":"levelo_inurba_marseille","lat":43.29622,"lon":5.37151,"is_reserved":false,"is_disabled":false,"rental_uris":{"android":"levelo://app?vid=f07840ef-5365-439e-b7c4-6d0110c47d46","ios":"levelo://app?vid=f07840ef-5365-439e-b7c4-6d0110c47d46"},"vehicle_type_id":"4","last_reported":1730542108,"current_range_meters":22400,"station_id":"ce4bgnh2rcd13ifvqc0g","pricing_plan_id":"cebpf4jnsgd1na2vs0mg"},{"bike_id":"cd9c51c3-66f1-4423-a637-2a576f24f89d","system_id":"levelo_inurba_marseille","lat":43.27068,"lon":5.42274,"is_reserved":false,"is_disabled":false,"rental_uris":{"android":"levelo://app?vid=cd9c51c3-66f1-4423-a637-2a576f24f89d","ios":"levelo://app?vid=cd9c51c3-66f1-4423-a637-2a576f24f89d"},"vehicle_type_id":"4","last_reported":1730542108,"current_range_meters":11200,"station_id":"ce4bhk92rcd13ifvqgb0","pricing_plan_id":"cebpf4jnsgd1na2vs0mg"},{"bike_id":"7ae89f74-df1b-4053-8ff0-ae2dd7c2848a","system_id":"levelo_inurba_marseille","lat":43.30275,"lon":5.37716,"is_reserved":false,"is_disabled":false,"rental_uris":{"android":"levelo://app?vid=7ae89f74-df1b-4053-8ff0-ae2dd7c2848a","ios":"levelo://app?vid=7ae89f74-df1b-4053-8ff0-ae2dd7c2848a"},"vehicle_type_id":"4","last_reported":1730542108,"current_range_meters":22400,"station_id":"ce4bguh2rcd13ifvqcj0","pricing_plan_id":"cebpf4jnsgd1na2vs0mg"},{"bike_id":"4c894c8c-a060-4116-9e75-8fc9117402a5","system_id":"levelo_inurba_marseille","lat":43.28621,"lon":5.35105,"is_reserved":false,"is_disabled":false,"rental_uris":{"android":"levelo://app?vid=4c894c8c-a060-4116-9e75-8fc9117402a5","ios":"levelo://app?vid=4c894c8c-a060-4116-9e75-8fc9117402a5"},"vehicle_type_id":"4","last_reported":1730542108,"current_range_meters":37600,"station_id":"ce4bhch2rcd13ifvqeug","pricing_plan_id":"cebpf4jnsgd1na2vs0mg"},{"bike_id":"d69eef29-33f1-400b-9dbd-e583b4f600d8","system_id":"levelo_inurba_marseille","lat":43.246535,"lon":5.38902,"is_reserved":false,"is_disabled":false,"rental_uris":{"android":"levelo://app?vid=d69eef29-33f1-400b-9dbd-e583b4f600d8","ios":"levelo://app?vid=d69eef29-33f1-400b-9dbd-e583b4f600d8"},"vehicle_type_id":"4","last_reported":1730542108,"current_range_meters":38800,"station_id":"ce4bhg12rcd13ifvqf60","pricing_plan_id":"cebpf4jnsgd1na2vs0mg"},{"bike_id":"fc42bba9-8a81-45d4-acf4-1dbf6fc6bd6e","system_id":"levelo_inurba_marseille","lat":43.31123,"lon":5.37772,"is_reserved":false,"is_disabled":false,"rental_uris":{"android":"levelo://app?vid=fc42bba9-8a81-45d4-acf4-1dbf6fc6bd6e","ios":"levelo://app?vid=fc42bba9-8a81-45d4-acf4-1dbf6fc6bd6e"},"vehicle_type_id":"4","last_reported":1730542108,"current_range_meters":25600,"station_id":"ce4bgt92rcd13ifvqcg0","pricing_plan_id":"cebpf4jnsgd1na2vs0mg"},{"bike_id":"e515cc14-ec45-4493-a6ef-e8658b9cbc95","system_id":"levelo_inurba_marseille","lat":43.26207,"lon":5.37921,"is_reserved":false,"is_disabled":false,"rental_uris":{"android":"levelo://app?vid=e515cc14-ec45-4493-a6ef-e8658b9cbc95","ios":"levelo://app?vid=e515cc14-ec45-4493-a6ef-e8658b9cbc95"},"vehicle_type_id":"4","last_reported":1730542108,"current_range_meters":38800,"station_id":"ce4bhjp2rcd13ifvqg90","pricing_plan_id":"cebpf4jnsgd1na2vs0mg"},{"bike_id":"9181a7a4-f981-492f-aa5f-b82546cddca6","system_id":"levelo_inurba_marseille","lat":43.30135,"lon":5.37416,"is_reserved":false,"is_disabled":false,"rental_uris":{"android":"levelo://app?vid=9181a7a4-f981-492f-aa5f-b82546cddca6","ios":"levelo://app?vid=9181a7a4-f981-492f-aa5f-b82546cddca6"},"vehicle_type_id":"4","last_reported":1730542108,"current_range_meters":38800,"station_id":"ce4bgs92rcd13ifvqcc0","pricing_plan_id":"cebpf4jnsgd1na2vs0mg"},{"bike_id":"816f9c1a-6f7c-46b3-bac6-b46f60b14bf2","system_id":"levelo_inurba_marseille","lat":43.29795,"lon":5.38087,"is_reserved":false,"is_disabled":false,"rental_uris":{"android":"levelo://app?vid=816f9c1a-6f7c-46b3-bac6-b46f60b14bf2","ios":"levelo://app?vid=816f9c1a-6f7c-46b3-bac6-b46f60b14bf2"},"vehicle_type_id":"4","last_reported":1730542108,"current_range_meters":32000,"station_id":"ce4bgip2rcd13ifvqbb0","pricing_plan_id":"cebpf4jnsgd1na2vs0mg"},{"bike_id":"fce750cb-a798-44bd-9f6b-b11316d988eb","system_id":"levelo_inurba_marseille","lat":43.27059,"lon":5.40263,"is_reserved":false,"is_disabled":false,"rental_uris":{"android":"levelo://app?vid=fce750cb-a798-44bd-9f6b-b11316d988eb","ios":"levelo://app?vid=fce750cb-a798-44bd-9f6b-b11316d988eb"},"vehicle_type_id":"4","last_reported":1730542108,"current_range_meters":19200,"station_id":"ce4bhk92rcd13ifvqgc0","pricing_plan_id":"cebpf4jnsgd1na2vs0mg"},{"bike_id":"245b4e38-7d8f-4725-9697-1642283430f4","system_id":"levelo_inurba_marseille","lat":43.28941,"lon":5.39617,"is_reserved":false,"is_disabled":false,"rental_uris":{"android":"levelo://app?vid=245b4e38-7d8f-4725-9697-1642283430f4","ios":"levelo://app?vid=245b4e38-7d8f-4725-9697-1642283430f4"},"vehicle_type_id":"4","last_reported":1730542108,"current_range_meters":11200,"station_id":"ce4bh3h2rcd13ifvqdn0","pricing_plan_id":"cebpf4jnsgd1na2vs0mg"},{"bike_id":"658dacf4-7ef3-4634-8126-9bbd88e5a6eb","system_id":"levelo_inurba_marseille","lat":43.23196,"lon":5.35545,"is_reserved":false,"is_disabled":false,"rental_uris":{"android":"levelo://app?vid=658dacf4-7ef3-4634-8126-9bbd88e5a6eb","ios":"levelo://app?vid=658dacf4-7ef3-4634-8126-9bbd88e5a6eb"},"vehicle_type_id":"4","last_reported":1730542108,"current_range_meters":19600,"station_id":"ce4bhu92rcd13ifvqi70","pricing_plan_id":"cebpf4jnsgd1na2vs0mg"},{"bike_id":"60e43d56-bbd7-49d9-b00f-8f0987dc2224","system_id":"levelo_inurba_marseille","lat":43.28836,"lon":5.39314,"is_reserved":false,"is_disabled":false,"rental_uris":{"android":"levelo://app?vid=60e43d56-bbd7-49d9-b00f-8f0987dc2224","ios":"levelo://app?vid=60e43d56-bbd7-49d9-b00f-8f0987dc2224"},"vehicle_type_id":"4","last_reported":1730542108,"current_range_meters":34000,"station_id":"ce4bh2p2rcd13ifvqdi0","pricing_plan_id":"cebpf4jnsgd1na2vs0mg"},{"bike_id":"b98cfd7f-acdf-400e-bf8f-9132b0f74693","system_id":"levelo_inurba_marseille","lat":43.28098,"lon":5.37856,"is_reserved":false,"is_disabled":false,"rental_uris":{"android":"levelo://app?vid=b98cfd7f-acdf-400e-bf8f-9132b0f74693","ios":"levelo://app?vid=b98cfd7f-acdf-400e-bf8f-9132b0f74693"},"vehicle_type_id":"4","last_reported":1730542108,"current_range_meters":27200,"station_id":"ce4bha12rcd13ifvqee0","pricing_plan_id":"cebpf4jnsgd1na2vs0mg"},{"bike_id":"e62e38a9-284c-4b15-bfe8-8b214b98f04b","system_id":"levelo_inurba_marseille","lat":43.23052,"lon":5.3549,"is_reserved":false,"is_disabled":false,"rental_uris":{"android":"levelo://app?vid=e62e38a9-284c-4b15-bfe8-8b214b98f04b","ios":"levelo://app?vid=e62e38a9-284c-4b15-bfe8-8b214b98f04b"},"vehicle_type_id":"4","last_reported":1730542108,"current_range_meters":22800,"station_id":"cpo3342slgdg3j2ifvpg","pricing_plan_id":"cebpf4jnsgd1na2vs0mg"},{"bike_id":"39ef6112-0178-4921-a65e-d47db3564463","system_id":"levelo_inurba_marseille","lat":43.32295,"lon":5.38268,"is_reserved":false,"is_disabled":false,"rental_uris":{"android":"levelo://app?vid=39ef6112-0178-4921-a65e-d47db3564463","ios":"levelo://app?vid=39ef6112-0178-4921-a65e-d47db3564463"},"vehicle_type_id":"4","last_reported":1730542108,"current_range_meters":31200,"station_id":"ce4bhr12rcd13ifvqhqg","pricing_plan_id":"cebpf4jnsgd1na2vs0mg"},{"bike_id":"4eb7a39b-7732-4901-8b76-36d37cfbe821","system_id":"levelo_inurba_marseille","lat":43.30156,"lon":5.38078,"is_reserved":false,"is_disabled":false,"rental_uris":{"android":"levelo://app?vid=4eb7a39b-7732-4901-8b76-36d37cfbe821","ios":"levelo://app?vid=4eb7a39b-7732-4901-8b76-36d37cfbe821"},"vehicle_type_id":"4","last_reported":1730542108,"current_range_meters":18800,"station_id":"ce4bgjp2rcd13ifvqbh0","pricing_plan_id":"cebpf4jnsgd1na2vs0mg"},{"bike_id":"fa1232ca-5715-42c4-984f-624a8552d886","system_id":"levelo_inurba_marseille","lat":43.32287,"lon":5.3826,"is_reserved":false,"is_disabled":false,"rental_uris":{"android":"levelo://app?vid=fa1232ca-5715-42c4-984f-624a8552d886","ios":"levelo://app?vid=fa1232ca-5715-42c4-984f-624a8552d886"},"vehicle_type_id":"4","last_reported":1730542108,"current_range_meters":38800,"station_id":"ce4bhr12rcd13ifvqhqg","pricing_plan_id":"cebpf4jnsgd1na2vs0mg"},{"bike_id":"d53c1efc-1780-42b2-bd05-17084930abb0","system_id":"levelo_inurba_marseille","lat":43.31215,"lon":5.36856,"is_reserved":false,"is_disabled":false,"rental_uris":{"android":"levelo://app?vid=d53c1efc-1780-42b2-bd05-17084930abb0","ios":"levelo://app?vid=d53c1efc-1780-42b2-bd05-17084930abb0"},"vehicle_type_id":"4","last_reported":1730542108,"current_range_meters":36400,"station_id":"ce4bgl92rcd13ifvqbq0","pricing_plan_id":"cebpf4jnsgd1na2vs0mg"},{"bike_id":"f493fcf3-d01a-4471-8350-8f1edd0382a9","system_id":"levelo_inurba_marseille","lat":43.23148,"lon":5.4372,"is_reserved":false,"is_disabled":false,"rental_uris":{"android":"levelo://app?vid=f493fcf3-d01a-4471-8350-8f1edd0382a9","ios":"levelo://app?vid=f493fcf3-d01a-4471-8350-8f1edd0382a9"},"vehicle_type_id":"4","last_reported":1730542108,"current_range_meters":38800,"station_id":"ce4bhmp2rcd13ifvqgog","pricing_plan_id":"cebpf4jnsgd1na2vs0mg"},{"bike_id":"284faaa3-21e1-4483-8e3c-8ce4eb4e219e","system_id":"levelo_inurba_marseille","lat":43.31755,"lon":5.39026,"is_reserved":false,"is_disabled":false,"rental_uris":{"android":"levelo://app?vid=284faaa3-21e1-4483-8e3c-8ce4eb4e219e","ios":"levelo://app?vid=284faaa3-21e1-4483-8e3c-8ce4eb4e219e"},"vehicle_type_id":"4","last_reported":1730542108,"current_range_meters":18000,"station_id":"ce4bhqp2rcd13ifvqhng","pricing_plan_id":"cebpf4jnsgd1na2vs0mg"},{"bike_id":"8b17d63b-c077-44c7-b1cf-d566d00f69c5","system_id":"levelo_inurba_marseille","lat":43.25503,"lon":5.3765,"is_reserved":false,"is_disabled":false,"rental_uris":{"android":"levelo://app?vid=8b17d63b-c077-44c7-b1cf-d566d00f69c5","ios":"levelo://app?vid=8b17d63b-c077-44c7-b1cf-d566d00f69c5"},"vehicle_type_id":"4","last_reported":1730542108,"current_range_meters":35200,"station_id":"ce4bhh12rcd13ifvqff0","pricing_plan_id":"cebpf4jnsgd1na2vs0mg"},{"bike_id":"c7096b37-5860-433a-958f-04dab67c2479","system_id":"levelo_inurba_marseille","lat":43.25503,"lon":5.37653,"is_reserved":false,"is_disabled":false,"rental_uris":{"android":"levelo://app?vid=c7096b37-5860-433a-958f-04dab67c2479","ios":"levelo://app?vid=c7096b37-5860-433a-958f-04dab67c2479"},"vehicle_type_id":"4","last_reported":1730542108,"current_range_meters":35600,"station_id":"ce4bhh12rcd13ifvqff0","pricing_plan_id":"cebpf4jnsgd1na2vs0mg"},{"bike_id":"a79b3df7-4053-41ab-917d-fe2f09e9503c","system_id":"levelo_inurba_marseille","lat":43.30151,"lon":5.380845,"is_reserved":false,"is_disabled":false,"rental_uris":{"android":"levelo://app?vid=a79b3df7-4053-41ab-917d-fe2f09e9503c","ios":"levelo://app?vid=a79b3df7-4053-41ab-917d-fe2f09e9503c"},"vehicle_type_id":"4","last_reported":1730542108,"current_range_meters":38800,"station_id":"ce4bgjp2rcd13ifvqbh0","pricing_plan_id":"cebpf4jnsgd1na2vs0mg"},{"bike_id":"b890158d-4cc0-42ea-b1b1-cf934d08cc8a","system_id":"levelo_inurba_marseille","lat":43.32365,"lon":5.38881,"is_reserved":false,"is_disabled":false,"rental_uris":{"android":"levelo://app?vid=b890158d-4cc0-42ea-b1b1-cf934d08cc8a","ios":"levelo://app?vid=b890158d-4cc0-42ea-b1b1-cf934d08cc8a"},"vehicle_type_id":"4","last_reported":1730542108,"current_range_meters":28400,"station_id":"ce4bhqp2rcd13ifvqhog","pricing_plan_id":"cebpf4jnsgd1na2vs0mg"},{"bike_id":"fd130a69-b828-426b-9603-3b57ab3db079","system_id":"levelo_inurba_marseille","lat":43.30545,"lon":5.3655,"is_reserved":false,"is_disabled":false,"rental_uris":{"android":"levelo://app?vid=fd130a69-b828-426b-9603-3b57ab3db079","ios":"levelo://app?vid=fd130a69-b828-426b-9603-3b57ab3db079"},"vehicle_type_id":"4","last_reported":1730542108,"current_range_meters":26800,"station_id":"ce4bgs12rcd13ifvqcag","pricing_plan_id":"cebpf4jnsgd1na2vs0mg"},{"bike_id":"887d3f15-9262-4464-a567-0c0c5d22959d","system_id":"levelo_inurba_marseille","lat":43.30307,"lon":5.36897,"is_reserved":false,"is_disabled":false,"rental_uris":{"android":"levelo://app?vid=887d3f15-9262-4464-a567-0c0c5d22959d","ios":"levelo://app?vid=887d3f15-9262-4464-a567-0c0c5d22959d"},"vehicle_type_id":"4","last_reported":1730542108,"current_range_meters":30000,"station_id":"ce4bgqh2rcd13ifvqc5g","pricing_plan_id":"cebpf4jnsgd1na2vs0mg"},{"bike_id":"13204629-6f37-4fdc-ae71-efb691ec9cf2","system_id":"levelo_inurba_marseille","lat":43.27177,"lon":5.4099,"is_reserved":false,"is_disabled":false,"rental_uris":{"android":"levelo://app?vid=13204629-6f37-4fdc-ae71-efb691ec9cf2","ios":"levelo://app?vid=13204629-6f37-4fdc-ae71-efb691ec9cf2"},"vehicle_type_id":"4","last_reported":1730542108,"current_range_meters":38800,"station_id":"ce4bhl12rcd13ifvqgf0","pricing_plan_id":"cebpf4jnsgd1na2vs0mg"},{"bike_id":"6a5cb283-33f1-4bd1-86d1-7432bbe10b16","system_id":"levelo_inurba_marseille","lat":43.30156,"lon":5.38088,"is_reserved":false,"is_disabled":false,"rental_uris":{"android":"levelo://app?vid=6a5cb283-33f1-4bd1-86d1-7432bbe10b16","ios":"levelo://app?vid=6a5cb283-33f1-4bd1-86d1-7432bbe10b16"},"vehicle_type_id":"4","last_reported":1730542108,"current_range_meters":35200,"station_id":"ce4bgjp2rcd13ifvqbh0","pricing_plan_id":"cebpf4jnsgd1na2vs0mg"},{"bike_id":"8268eafd-86cc-417b-b00e-7735474716a6","system_id":"levelo_inurba_marseille","lat":43.25001,"lon":5.3893,"is_reserved":false,"is_disabled":false,"rental_uris":{"android":"levelo://app?vid=8268eafd-86cc-417b-b00e-7735474716a6","ios":"levelo://app?vid=8268eafd-86cc-417b-b00e-7735474716a6"},"vehicle_type_id":"4","last_reported":1730542108,"current_range_meters":15200,"station_id":"ce4bhgp2rcd13ifvqfd0","pricing_plan_id":"cebpf4jnsgd1na2vs0mg"},{"bike_id":"3198ab63-557b-4f5b-8a29-510057e603ea","system_id":"levelo_inurba_marseille","lat":43.29027,"lon":5.38119,"is_reserved":false,"is_disabled":false,"rental_uris":{"android":"levelo://app?vid=3198ab63-557b-4f5b-8a29-510057e603ea","ios":"levelo://app?vid=3198ab63-557b-4f5b-8a29-510057e603ea"},"vehicle_type_id":"4","last_reported":1730542108,"current_range_meters":37600,"station_id":"ce4bh4p2rcd13ifvqe1g","pricing_plan_id":"cebpf4jnsgd1na2vs0mg"},{"bike_id":"603b1338-c881-4f23-8dd5-1fdd52358055","system_id":"levelo_inurba_marseille","lat":43.29913,"lon":5.37467,"is_reserved":false,"is_disabled":false,"rental_uris":{"android":"levelo://app?vid=603b1338-c881-4f23-8dd5-1fdd52358055","ios":"levelo://app?vid=603b1338-c881-4f23-8dd5-1fdd52358055"},"vehicle_type_id":"4","last_reported":1730542108,"current_range_meters":10800,"station_id":"ce4bgjh2rcd13ifvqbg0","pricing_plan_id":"cebpf4jnsgd1na2vs0mg"},{"bike_id":"a5ddc947-d21c-49a7-bb2f-b3f5184de1d0","system_id":"levelo_inurba_marseille","lat":43.26027,"lon":5.37547,"is_reserved":false,"is_disabled":false,"rental_uris":{"android":"levelo://app?vid=a5ddc947-d21c-49a7-bb2f-b3f5184de1d0","ios":"levelo://app?vid=a5ddc947-d21c-49a7-bb2f-b3f5184de1d0"},"vehicle_type_id":"4","last_reported":1730542108,"current_range_meters":26800,"station_id":"ce4bhgh2rcd13ifvqfa0","pricing_plan_id":"cebpf4jnsgd1na2vs0mg"},{"bike_id":"bfab254b-dda0-49c5-ae2e-902568de5a52","system_id":"levelo_inurba_marseille","lat":43.25105,"lon":5.40321,"is_reserved":false,"is_disabled":false,"rental_uris":{"android":"levelo://app?vid=bfab254b-dda0-49c5-ae2e-902568de5a52","ios":"levelo://app?vid=bfab254b-dda0-49c5-ae2e-902568de5a52"},"vehicle_type_id":"4","last_reported":1730542108,"current_range_meters":7200,"station_id":"ce4bhlh2rcd13ifvqgig","pricing_plan_id":"cebpf4jnsgd1na2vs0mg"},{"bike_id":"f51e880f-c981-4797-8719-e2c7bbca8ec7","system_id":"levelo_inurba_marseille","lat":43.30464,"lon":5.379009,"is_reserved":false,"is_disabled":false,"rental_uris":{"android":"levelo://app?vid=f51e880f-c981-4797-8719-e2c7bbca8ec7","ios":"levelo://app?vid=f51e880f-c981-4797-8719-e2c7bbca8ec7"},"vehicle_type_id":"4","last_reported":1730542108,"current_range_meters":31200,"station_id":"ce4bgup2rcd13ifvqcn0","pricing_plan_id":"cebpf4jnsgd1na2vs0mg"},{"bike_id":"52e7e91c-415b-4c46-a491-e6a171492ffd","system_id":"levelo_inurba_marseille","lat":43.27838,"lon":5.39205,"is_reserved":false,"is_disabled":false,"rental_uris":{"android":"levelo://app?vid=52e7e91c-415b-4c46-a491-e6a171492ffd","ios":"levelo://app?vid=52e7e91c-415b-4c46-a491-e6a171492ffd"},"vehicle_type_id":"4","last_reported":1730542108,"current_range_meters":37600,"station_id":"ce4bhjp2rcd13ifvqga0","pricing_plan_id":"cebpf4jnsgd1na2vs0mg"},{"bike_id":"9dc4bbff-21ca-407b-985c-c70214b6bc8c","system_id":"levelo_inurba_marseille","lat":43.32485,"lon":5.36558,"is_reserved":false,"is_disabled":false,"rental_uris":{"android":"levelo://app?vid=9dc4bbff-21ca-407b-985c-c70214b6bc8c","ios":"levelo://app?vid=9dc4bbff-21ca-407b-985c-c70214b6bc8c"},"vehicle_type_id":"4","last_reported":1730542108,"current_range_meters":38800,"station_id":"ce4bhs12rcd13ifvqhvg","pricing_plan_id":"cebpf4jnsgd1na2vs0mg"},{"bike_id":"5c32197b-e37a-429a-a43c-6b509821c386","system_id":"levelo_inurba_marseille","lat":43.27682,"lon":5.38936,"is_reserved":false,"is_disabled":false,"rental_uris":{"android":"levelo://app?vid=5c32197b-e37a-429a-a43c-6b509821c386","ios":"levelo://app?vid=5c32197b-e37a-429a-a43c-6b509821c386"},"vehicle_type_id":"4","last_reported":1730542108,"current_range_meters":38400,"station_id":"ce4bhi12rcd13ifvqfo0","pricing_plan_id":"cebpf4jnsgd1na2vs0mg"},{"bike_id":"ac6beced-e83e-470b-ad3a-01f973a8e1a2","system_id":"levelo_inurba_marseille","lat":43.25862,"lon":5.39895,"is_reserved":false,"is_disabled":false,"rental_uris":{"android":"levelo://app?vid=ac6beced-e83e-470b-ad3a-01f973a8e1a2","ios":"levelo://app?vid=ac6beced-e83e-470b-ad3a-01f973a8e1a2"},"vehicle_type_id":"4","last_reported":1730542108,"current_range_meters":27200,"station_id":"ce4bhl92rcd13ifvqghg","pricing_plan_id":"cebpf4jnsgd1na2vs0mg"},{"bike_id":"379b04d9-20e2-4f2f-a080-e8290f8e87e1","system_id":"levelo_inurba_marseille","lat":43.31262,"lon":5.4016,"is_reserved":false,"is_disabled":false,"rental_uris":{"android":"levelo://app?vid=379b04d9-20e2-4f2f-a080-e8290f8e87e1","ios":"levelo://app?vid=379b04d9-20e2-4f2f-a080-e8290f8e87e1"},"vehicle_type_id":"4","last_reported":1730542108,"current_range_meters":38800,"station_id":"ce4bh092rcd13ifvqd30","pricing_plan_id":"cebpf4jnsgd1na2vs0mg"},{"bike_id":"a27c3778-a7e0-4c33-9f07-adbd77f2f598","system_id":"levelo_inurba_marseille","lat":43.29386,"lon":5.3785,"is_reserved":false,"is_disabled":false,"rental_uris":{"android":"levelo://app?vid=a27c3778-a7e0-4c33-9f07-adbd77f2f598","ios":"levelo://app?vid=a27c3778-a7e0-4c33-9f07-adbd77f2f598"},"vehicle_type_id":"4","last_reported":1730542108,"current_range_meters":9600,"station_id":"ce4bgjh2rcd13ifvqbf0","pricing_plan_id":"cebpf4jnsgd1na2vs0mg"},{"bike_id":"2670d31c-21a8-42d7-b34e-5f9a0a78dc6c","system_id":"levelo_inurba_marseille","lat":43.29307,"lon":5.37179,"is_reserved":false,"is_disabled":false,"rental_uris":{"android":"levelo://app?vid=2670d31c-21a8-42d7-b34e-5f9a0a78dc6c","ios":"levelo://app?vid=2670d31c-21a8-42d7-b34e-5f9a0a78dc6c"},"vehicle_type_id":"4","last_reported":1730542108,"current_range_meters":38800,"station_id":"ce4bgh92rcd13ifvqb40","pricing_plan_id":"cebpf4jnsgd1na2vs0mg"},{"bike_id":"02230dac-ebce-4aa4-9174-db473244d1bc","system_id":"levelo_inurba_marseille","lat":43.3302,"lon":5.39046,"is_reserved":false,"is_disabled":false,"rental_uris":{"android":"levelo://app?vid=02230dac-ebce-4aa4-9174-db473244d1bc","ios":"levelo://app?vid=02230dac-ebce-4aa4-9174-db473244d1bc"},"vehicle_type_id":"4","last_reported":1730542108,"current_range_meters":38400,"station_id":"ce4bhr92rcd13ifvqhrg","pricing_plan_id":"cebpf4jnsgd1na2vs0mg"},{"bike_id":"90c7f303-38c0-46ca-9142-1041105c61c3","system_id":"levelo_inurba_marseille","lat":43.31715,"lon":5.37738,"is_reserved":false,"is_disabled":false,"rental_uris":{"android":"levelo://app?vid=90c7f303-38c0-46ca-9142-1041105c61c3","ios":"levelo://app?vid=90c7f303-38c0-46ca-9142-1041105c61c3"},"vehicle_type_id":"4","last_reported":1730542108,"current_range_meters":34000,"station_id":"ce4bgth2rcd13ifvqch0","pricing_plan_id":"cebpf4jnsgd1na2vs0mg"},{"bike_id":"f0365e39-da4f-4fcd-a178-7855790154f7","system_id":"levelo_inurba_marseille","lat":43.30134,"lon":5.37425,"is_reserved":false,"is_disabled":false,"rental_uris":{"android":"levelo://app?vid=f0365e39-da4f-4fcd-a178-7855790154f7","ios":"levelo://app?vid=f0365e39-da4f-4fcd-a178-7855790154f7"},"vehicle_type_id":"4","last_reported":1730542108,"current_range_meters":39200,"station_id":"ce4bgs92rcd13ifvqcc0","pricing_plan_id":"cebpf4jnsgd1na2vs0mg"},{"bike_id":"5d49116d-9ac2-4fe3-b140-1c8daccc859c","system_id":"levelo_inurba_marseille","lat":43.30286,"lon":5.37699,"is_reserved":false,"is_disabled":false,"rental_uris":{"android":"levelo://app?vid=5d49116d-9ac2-4fe3-b140-1c8daccc859c","ios":"levelo://app?vid=5d49116d-9ac2-4fe3-b140-1c8daccc859c"},"vehicle_type_id":"4","last_reported":1730542108,"current_range_meters":39200,"station_id":"ce4bguh2rcd13ifvqcj0","pricing_plan_id":"cebpf4jnsgd1na2vs0mg"},{"bike_id":"934507e4-c3c3-46c2-8192-19c2198f8203","system_id":"levelo_inurba_marseille","lat":43.29566,"lon":5.37502,"is_reserved":false,"is_disabled":false,"rental_uris":{"android":"levelo://app?vid=934507e4-c3c3-46c2-8192-19c2198f8203","ios":"levelo://app?vid=934507e4-c3c3-46c2-8192-19c2198f8203"},"vehicle_type_id":"4","last_reported":1730542108,"current_range_meters":19600,"station_id":"ce4bgh92rcd13ifvqb50","pricing_plan_id":"cebpf4jnsgd1na2vs0mg"},{"bike_id":"9ca12022-716a-4ed5-ac9c-2033946b0c38","system_id":"levelo_inurba_marseille","lat":43.29843,"lon":5.36266,"is_reserved":false,"is_disabled":false,"rental_uris":{"android":"levelo://app?vid=9ca12022-716a-4ed5-ac9c-2033946b0c38","ios":"levelo://app?vid=9ca12022-716a-4ed5-ac9c-2033946b0c38"},"vehicle_type_id":"4","last_reported":1730542108,"current_range_meters":36000,"station_id":"ce4bgpp2rcd13ifvqc3g","pricing_plan_id":"cebpf4jnsgd1na2vs0mg"},{"bike_id":"c8311f3a-ac2c-4358-9a31-2921b31039c1","system_id":"levelo_inurba_marseille","lat":43.29299,"lon":5.37182,"is_reserved":false,"is_disabled":false,"rental_uris":{"android":"levelo://app?vid=c8311f3a-ac2c-4358-9a31-2921b31039c1","ios":"levelo://app?vid=c8311f3a-ac2c-4358-9a31-2921b31039c1"},"vehicle_type_id":"4","last_reported":1730542108,"current_range_meters":36400,"station_id":"ce4bgh92rcd13ifvqb40","pricing_plan_id":"cebpf4jnsgd1na2vs0mg"},{"bike_id":"f7fc6701-fd62-4b48-bbdb-a453dbb89c2a","system_id":"levelo_inurba_marseille","lat":43.290508,"lon":5.35917,"is_reserved":false,"is_disabled":false,"rental_uris":{"android":"levelo://app?vid=f7fc6701-fd62-4b48-bbdb-a453dbb89c2a","ios":"levelo://app?vid=f7fc6701-fd62-4b48-bbdb-a453dbb89c2a"},"vehicle_type_id":"4","last_reported":1730542108,"current_range_meters":16800,"station_id":"ce4bha92rcd13ifvqeg0","pricing_plan_id":"cebpf4jnsgd1na2vs0mg"},{"bike_id":"da555210-8d30-44ae-a289-99a52c8b8c8f","system_id":"levelo_inurba_marseille","lat":43.29619,"lon":5.37158,"is_reserved":false,"is_disabled":false,"rental_uris":{"android":"levelo://app?vid=da555210-8d30-44ae-a289-99a52c8b8c8f","ios":"levelo://app?vid=da555210-8d30-44ae-a289-99a52c8b8c8f"},"vehicle_type_id":"4","last_reported":1730542108,"current_range_meters":27200,"station_id":"ce4bgnh2rcd13ifvqc0g","pricing_plan_id":"cebpf4jnsgd1na2vs0mg"},{"bike_id":"5fb5fa84-352d-40ff-b332-81dccc5738c9","system_id":"levelo_inurba_marseille","lat":43.28872,"lon":5.3585,"is_reserved":false,"is_disabled":false,"rental_uris":{"android":"levelo://app?vid=5fb5fa84-352d-40ff-b332-81dccc5738c9","ios":"levelo://app?vid=5fb5fa84-352d-40ff-b332-81dccc5738c9"},"vehicle_type_id":"4","last_reported":1730542108,"current_range_meters":37600,"station_id":"ce4bhb12rcd13ifvqem0","pricing_plan_id":"cebpf4jnsgd1na2vs0mg"},{"bike_id":"25efdd14-e5a3-4f02-a8ea-e62e3c219fa3","system_id":"levelo_inurba_marseille","lat":43.28151,"lon":5.42653,"is_reserved":false,"is_disabled":false,"rental_uris":{"android":"levelo://app?vid=25efdd14-e5a3-4f02-a8ea-e62e3c219fa3","ios":"levelo://app?vid=25efdd14-e5a3-4f02-a8ea-e62e3c219fa3"},"vehicle_type_id":"4","last_reported":1730542108,"current_range_meters":39200,"station_id":"ce4bhnh2rcd13ifvqgug","pricing_plan_id":"cebpf4jnsgd1na2vs0mg"},{"bike_id":"a7539dfc-e8ec-47cd-8dbc-d48543cf053d","system_id":"levelo_inurba_marseille","lat":43.30532,"lon":5.36531,"is_reserved":false,"is_disabled":false,"rental_uris":{"android":"levelo://app?vid=a7539dfc-e8ec-47cd-8dbc-d48543cf053d","ios":"levelo://app?vid=a7539dfc-e8ec-47cd-8dbc-d48543cf053d"},"vehicle_type_id":"4","last_reported":1730542108,"current_range_meters":38800,"station_id":"ce4bgs12rcd13ifvqcag","pricing_plan_id":"cebpf4jnsgd1na2vs0mg"},{"bike_id":"32c6f570-953a-4135-8460-fdfba34fd3fb","system_id":"levelo_inurba_marseille","lat":43.29015,"lon":5.40008,"is_reserved":false,"is_disabled":false,"rental_uris":{"android":"levelo://app?vid=32c6f570-953a-4135-8460-fdfba34fd3fb","ios":"levelo://app?vid=32c6f570-953a-4135-8460-fdfba34fd3fb"},"vehicle_type_id":"4","last_reported":1730542108,"current_range_meters":27600,"station_id":"ce4bh392rcd13ifvqdm0","pricing_plan_id":"cebpf4jnsgd1na2vs0mg"},{"bike_id":"18402065-9e87-476b-95ad-30853de181a0","system_id":"levelo_inurba_marseille","lat":43.32457,"lon":5.4555,"is_reserved":false,"is_disabled":false,"rental_uris":{"android":"levelo://app?vid=18402065-9e87-476b-95ad-30853de181a0","ios":"levelo://app?vid=18402065-9e87-476b-95ad-30853de181a0"},"vehicle_type_id":"4","last_reported":1730542108,"current_range_meters":8000,"station_id":"","pricing_plan_id":"cebpf4jnsgd1na2vs0mg"},{"bike_id":"156f709c-f25b-405b-ae32-f2684d894bde","system_id":"levelo_inurba_marseille","lat":43.26685,"lon":5.3826,"is_reserved":false,"is_disabled":false,"rental_uris":{"android":"levelo://app?vid=156f709c-f25b-405b-ae32-f2684d894bde","ios":"levelo://app?vid=156f709c-f25b-405b-ae32-f2684d894bde"},"vehicle_type_id":"4","last_reported":1730542108,"current_range_meters":38800,"station_id":"ce4bhg92rcd13ifvqf90","pricing_plan_id":"cebpf4jnsgd1na2vs0mg"},{"bike_id":"711fc037-1485-48d1-a756-6d4246ae9cd4","system_id":"levelo_inurba_marseille","lat":43.24643,"lon":5.38906,"is_reserved":false,"is_disabled":false,"rental_uris":{"android":"levelo://app?vid=711fc037-1485-48d1-a756-6d4246ae9cd4","ios":"levelo://app?vid=711fc037-1485-48d1-a756-6d4246ae9cd4"},"vehicle_type_id":"4","last_reported":1730542108,"current_range_meters":3600,"station_id":"ce4bhg12rcd13ifvqf60","pricing_plan_id":"cebpf4jnsgd1na2vs0mg"},{"bike_id":"74ad3962-1184-40b4-bf9d-f8698b00948f","system_id":"levelo_inurba_marseille","lat":43.2293,"lon":5.35381,"is_reserved":false,"is_disabled":false,"rental_uris":{"android":"levelo://app?vid=74ad3962-1184-40b4-bf9d-f8698b00948f","ios":"levelo://app?vid=74ad3962-1184-40b4-bf9d-f8698b00948f"},"vehicle_type_id":"4","last_reported":1730542108,"current_range_meters":23200,"station_id":"cpo3532slgdg3j2ikp40","pricing_plan_id":"cebpf4jnsgd1na2vs0mg"},{"bike_id":"a4ac9f24-d1f2-490a-958b-003aafa0200b","system_id":"levelo_inurba_marseille","lat":43.29973,"lon":5.38487,"is_reserved":false,"is_disabled":false,"rental_uris":{"android":"levelo://app?vid=a4ac9f24-d1f2-490a-958b-003aafa0200b","ios":"levelo://app?vid=a4ac9f24-d1f2-490a-958b-003aafa0200b"},"vehicle_type_id":"4","last_reported":1730542108,"current_range_meters":32800,"station_id":"ce4bgj92rcd13ifvqbd0","pricing_plan_id":"cebpf4jnsgd1na2vs0mg"},{"bike_id":"e7d2d590-173c-47e5-a164-68db5b6e9fe4","system_id":"levelo_inurba_marseille","lat":43.30532,"lon":5.36696,"is_reserved":false,"is_disabled":false,"rental_uris":{"android":"levelo://app?vid=e7d2d590-173c-47e5-a164-68db5b6e9fe4","ios":"levelo://app?vid=e7d2d590-173c-47e5-a164-68db5b6e9fe4"},"vehicle_type_id":"4","last_reported":1730542108,"current_range_meters":38000,"station_id":"ce4bgrp2rcd13ifvqc9g","pricing_plan_id":"cebpf4jnsgd1na2vs0mg"},{"bike_id":"196f9a90-e386-4eca-9e59-d2754fd6a95a","system_id":"levelo_inurba_marseille","lat":43.28347,"lon":5.38103,"is_reserved":false,"is_disabled":false,"rental_uris":{"android":"levelo://app?vid=196f9a90-e386-4eca-9e59-d2754fd6a95a","ios":"levelo://app?vid=196f9a90-e386-4eca-9e59-d2754fd6a95a"},"vehicle_type_id":"4","last_reported":1730542108,"current_range_meters":38800,"station_id":"ce4bh412rcd13ifvqdr0","pricing_plan_id":"cebpf4jnsgd1na2vs0mg"},{"bike_id":"460f8dbf-5c74-4538-b47c-2be4684064c4","system_id":"levelo_inurba_marseille","lat":43.24385,"lon":5.37049,"is_reserved":false,"is_disabled":false,"rental_uris":{"android":"levelo://app?vid=460f8dbf-5c74-4538-b47c-2be4684064c4","ios":"levelo://app?vid=460f8dbf-5c74-4538-b47c-2be4684064c4"},"vehicle_type_id":"4","last_reported":1730542108,"current_range_meters":38800,"station_id":"ce4bhhh2rcd13ifvqfk0","pricing_plan_id":"cebpf4jnsgd1na2vs0mg"},{"bike_id":"d68d70f6-a9d9-4df4-a0b6-a5aa4a017a0a","system_id":"levelo_inurba_marseille","lat":43.31179,"lon":5.38719,"is_reserved":false,"is_disabled":false,"rental_uris":{"android":"levelo://app?vid=d68d70f6-a9d9-4df4-a0b6-a5aa4a017a0a","ios":"levelo://app?vid=d68d70f6-a9d9-4df4-a0b6-a5aa4a017a0a"},"vehicle_type_id":"4","last_reported":1730542108,"current_range_meters":34000,"station_id":"ce4bgv12rcd13ifvqcp0","pricing_plan_id":"cebpf4jnsgd1na2vs0mg"},{"bike_id":"ef30c907-9b95-4f0a-99f1-0cbd098879ad","system_id":"levelo_inurba_marseille","lat":43.28567,"lon":5.39504,"is_reserved":false,"is_disabled":false,"rental_uris":{"android":"levelo://app?vid=ef30c907-9b95-4f0a-99f1-0cbd098879ad","ios":"levelo://app?vid=ef30c907-9b95-4f0a-99f1-0cbd098879ad"},"vehicle_type_id":"4","last_reported":1730542108,"current_range_meters":37600,"station_id":"ce4bh292rcd13ifvqdg0","pricing_plan_id":"cebpf4jnsgd1na2vs0mg"},{"bike_id":"36b7683f-a5b1-4d0e-88bd-230c484ff507","system_id":"levelo_inurba_marseille","lat":43.28436,"lon":5.39173,"is_reserved":false,"is_disabled":false,"rental_uris":{"android":"levelo://app?vid=36b7683f-a5b1-4d0e-88bd-230c484ff507","ios":"levelo://app?vid=36b7683f-a5b1-4d0e-88bd-230c484ff507"},"vehicle_type_id":"4","last_reported":1730542108,"current_range_meters":38800,"station_id":"ce4bhoh2rcd13ifvqh5g","pricing_plan_id":"cebpf4jnsgd1na2vs0mg"},{"bike_id":"be9e047c-0762-412b-b7e4-d4063f0a402a","system_id":"levelo_inurba_marseille","lat":43.28998,"lon":5.35612,"is_reserved":false,"is_disabled":false,"rental_uris":{"android":"levelo://app?vid=be9e047c-0762-412b-b7e4-d4063f0a402a","ios":"levelo://app?vid=be9e047c-0762-412b-b7e4-d4063f0a402a"},"vehicle_type_id":"4","last_reported":1730542108,"current_range_meters":14800,"station_id":"ce4bhb92rcd13ifvqen0","pricing_plan_id":"cebpf4jnsgd1na2vs0mg"},{"bike_id":"9042bf92-aa7c-4eab-b2af-741821ae4d59","system_id":"levelo_inurba_marseille","lat":43.293123,"lon":5.371578,"is_reserved":false,"is_disabled":false,"rental_uris":{"android":"levelo://app?vid=9042bf92-aa7c-4eab-b2af-741821ae4d59","ios":"levelo://app?vid=9042bf92-aa7c-4eab-b2af-741821ae4d59"},"vehicle_type_id":"4","last_reported":1730542108,"current_range_meters":29600,"station_id":"ce4bgh92rcd13ifvqb40","pricing_plan_id":"cebpf4jnsgd1na2vs0mg"},{"bike_id":"ed9cc6a3-f7cf-44f3-953b-9f03e6c52b9a","system_id":"levelo_inurba_marseille","lat":43.28568,"lon":5.39495,"is_reserved":false,"is_disabled":false,"rental_uris":{"android":"levelo://app?vid=ed9cc6a3-f7cf-44f3-953b-9f03e6c52b9a","ios":"levelo://app?vid=ed9cc6a3-f7cf-44f3-953b-9f03e6c52b9a"},"vehicle_type_id":"4","last_reported":1730542108,"current_range_meters":38000,"station_id":"ce4bh292rcd13ifvqdg0","pricing_plan_id":"cebpf4jnsgd1na2vs0mg"},{"bike_id":"c464d67e-1a73-40bd-b8bb-ad08b05c10b4","system_id":"levelo_inurba_marseille","lat":43.31277,"lon":5.40169,"is_reserved":false,"is_disabled":false,"rental_uris":{"android":"levelo://app?vid=c464d67e-1a73-40bd-b8bb-ad08b05c10b4","ios":"levelo://app?vid=c464d67e-1a73-40bd-b8bb-ad08b05c10b4"},"vehicle_type_id":"4","last_reported":1730542108,"current_range_meters":8000,"station_id":"ce4bh092rcd13ifvqd30","pricing_plan_id":"cebpf4jnsgd1na2vs0mg"},{"bike_id":"d3d09d5d-9b17-4edd-a398-f51cc9d78485","system_id":"levelo_inurba_marseille","lat":43.28262,"lon":5.3506,"is_reserved":false,"is_disabled":false,"rental_uris":{"android":"levelo://app?vid=d3d09d5d-9b17-4edd-a398-f51cc9d78485","ios":"levelo://app?vid=d3d09d5d-9b17-4edd-a398-f51cc9d78485"},"vehicle_type_id":"4","last_reported":1730542108,"current_range_meters":25200,"station_id":"ce4bhbp2rcd13ifvqerg","pricing_plan_id":"cebpf4jnsgd1na2vs0mg"},{"bike_id":"039a64d6-5e87-4141-81e3-2e1ffc1e11a5","system_id":"levelo_inurba_marseille","lat":43.27995,"lon":5.40009,"is_reserved":false,"is_disabled":false,"rental_uris":{"android":"levelo://app?vid=039a64d6-5e87-4141-81e3-2e1ffc1e11a5","ios":"levelo://app?vid=039a64d6-5e87-4141-81e3-2e1ffc1e11a5"},"vehicle_type_id":"4","last_reported":1730542108,"current_range_meters":38800,"station_id":"ce4bho92rcd13ifvqh4g","pricing_plan_id":"cebpf4jnsgd1na2vs0mg"},{"bike_id":"4be17eee-2bee-4bce-abc6-693cda9fbd8f","system_id":"levelo_inurba_marseille","lat":43.25005,"lon":5.38919,"is_reserved":false,"is_disabled":false,"rental_uris":{"android":"levelo://app?vid=4be17eee-2bee-4bce-abc6-693cda9fbd8f","ios":"levelo://app?vid=4be17eee-2bee-4bce-abc6-693cda9fbd8f"},"vehicle_type_id":"4","last_reported":1730542108,"current_range_meters":36400,"station_id":"ce4bhgp2rcd13ifvqfd0","pricing_plan_id":"cebpf4jnsgd1na2vs0mg"},{"bike_id":"21ff1bff-f285-482f-b9d5-5da60c9f151d","system_id":"levelo_inurba_marseille","lat":43.32481,"lon":5.3657,"is_reserved":false,"is_disabled":false,"rental_uris":{"android":"levelo://app?vid=21ff1bff-f285-482f-b9d5-5da60c9f151d","ios":"levelo://app?vid=21ff1bff-f285-482f-b9d5-5da60c9f151d"},"vehicle_type_id":"4","last_reported":1730542108,"current_range_meters":34000,"station_id":"ce4bhs12rcd13ifvqhvg","pricing_plan_id":"cebpf4jnsgd1na2vs0mg"},{"bike_id":"a9a6908f-e016-4463-a289-1b8cb17b4191","system_id":"levelo_inurba_marseille","lat":43.29277,"lon":5.36847,"is_reserved":false,"is_disabled":false,"rental_uris":{"android":"levelo://app?vid=a9a6908f-e016-4463-a289-1b8cb17b4191","ios":"levelo://app?vid=a9a6908f-e016-4463-a289-1b8cb17b4191"},"vehicle_type_id":"4","last_reported":1730542108,"current_range_meters":38800,"station_id":"ce4bhbp2rcd13ifvqesg","pricing_plan_id":"cebpf4jnsgd1na2vs0mg"},{"bike_id":"737bc67f-fd14-4a5d-ac27-77337e116799","system_id":"levelo_inurba_marseille","lat":43.24646,"lon":5.38889,"is_reserved":false,"is_disabled":false,"rental_uris":{"android":"levelo://app?vid=737bc67f-fd14-4a5d-ac27-77337e116799","ios":"levelo://app?vid=737bc67f-fd14-4a5d-ac27-77337e116799"},"vehicle_type_id":"4","last_reported":1730542108,"current_range_meters":38400,"station_id":"ce4bhg12rcd13ifvqf60","pricing_plan_id":"cebpf4jnsgd1na2vs0mg"},{"bike_id":"3de800fd-f5d1-48bd-870f-7142412472d7","system_id":"levelo_inurba_marseille","lat":43.29577,"lon":5.36744,"is_reserved":false,"is_disabled":false,"rental_uris":{"android":"levelo://app?vid=3de800fd-f5d1-48bd-870f-7142412472d7","ios":"levelo://app?vid=3de800fd-f5d1-48bd-870f-7142412472d7"},"vehicle_type_id":"4","last_reported":1730542108,"current_range_meters":27200,"station_id":"ce4bgph2rcd13ifvqc2g","pricing_plan_id":"cebpf4jnsgd1na2vs0mg"},{"bike_id":"6b1dc59e-261a-4e5b-8a3f-d28280d0294b","system_id":"levelo_inurba_marseille","lat":43.30781,"lon":5.37651,"is_reserved":false,"is_disabled":false,"rental_uris":{"android":"levelo://app?vid=6b1dc59e-261a-4e5b-8a3f-d28280d0294b","ios":"levelo://app?vid=6b1dc59e-261a-4e5b-8a3f-d28280d0294b"},"vehicle_type_id":"4","last_reported":1730542108,"current_range_meters":19600,"station_id":"ce4bgv92rcd13ifvqcq0","pricing_plan_id":"cebpf4jnsgd1na2vs0mg"},{"bike_id":"aac73395-4351-457a-a21f-fb59b52cddce","system_id":"levelo_inurba_marseille","lat":43.27987,"lon":5.41656,"is_reserved":false,"is_disabled":false,"rental_uris":{"android":"levelo://app?vid=aac73395-4351-457a-a21f-fb59b52cddce","ios":"levelo://app?vid=aac73395-4351-457a-a21f-fb59b52cddce"},"vehicle_type_id":"4","last_reported":1730542108,"current_range_meters":36400,"station_id":"ce4bho12rcd13ifvqh1g","pricing_plan_id":"cebpf4jnsgd1na2vs0mg"},{"bike_id":"d61fa55a-d805-4f16-aadf-773cc1d5bef1","system_id":"levelo_inurba_marseille","lat":43.27317,"lon":5.39081,"is_reserved":false,"is_disabled":false,"rental_uris":{"android":"levelo://app?vid=d61fa55a-d805-4f16-aadf-773cc1d5bef1","ios":"levelo://app?vid=d61fa55a-d805-4f16-aadf-773cc1d5bef1"},"vehicle_type_id":"4","last_reported":1730542108,"current_range_meters":39200,"station_id":"ce4bhgp2rcd13ifvqfe0","pricing_plan_id":"cebpf4jnsgd1na2vs0mg"},{"bike_id":"89f9b078-381e-4f1b-943b-461fcea88c01","system_id":"levelo_inurba_marseille","lat":43.28721,"lon":5.39983,"is_reserved":false,"is_disabled":false,"rental_uris":{"android":"levelo://app?vid=89f9b078-381e-4f1b-943b-461fcea88c01","ios":"levelo://app?vid=89f9b078-381e-4f1b-943b-461fcea88c01"},"vehicle_type_id":"4","last_reported":1730542108,"current_range_meters":38000,"station_id":"ce4bho92rcd13ifvqh3g","pricing_plan_id":"cebpf4jnsgd1na2vs0mg"},{"bike_id":"8096177b-5481-43c4-9ad0-8378e8bbb67c","system_id":"levelo_inurba_marseille","lat":43.26552,"lon":5.37284,"is_reserved":false,"is_disabled":false,"rental_uris":{"android":"levelo://app?vid=8096177b-5481-43c4-9ad0-8378e8bbb67c","ios":"levelo://app?vid=8096177b-5481-43c4-9ad0-8378e8bbb67c"},"vehicle_type_id":"4","last_reported":1730542108,"current_range_meters":38400,"station_id":"ce4bhg12rcd13ifvqf70","pricing_plan_id":"cebpf4jnsgd1na2vs0mg"},{"bike_id":"3e774943-d4aa-471b-a041-87e0abbf5d55","system_id":"levelo_inurba_marseille","lat":43.27171,"lon":5.40982,"is_reserved":false,"is_disabled":false,"rental_uris":{"android":"levelo://app?vid=3e774943-d4aa-471b-a041-87e0abbf5d55","ios":"levelo://app?vid=3e774943-d4aa-471b-a041-87e0abbf5d55"},"vehicle_type_id":"4","last_reported":1730542108,"current_range_meters":9200,"station_id":"ce4bhl12rcd13ifvqgf0","pricing_plan_id":"cebpf4jnsgd1na2vs0mg"},{"bike_id":"b57eb428-bec9-4aeb-bf21-7ef4e078fdfc","system_id":"levelo_inurba_marseille","lat":43.27066,"lon":5.42271,"is_reserved":false,"is_disabled":false,"rental_uris":{"android":"levelo://app?vid=b57eb428-bec9-4aeb-bf21-7ef4e078fdfc","ios":"levelo://app?vid=b57eb428-bec9-4aeb-bf21-7ef4e078fdfc"},"vehicle_type_id":"4","last_reported":1730542108,"current_range_meters":2800,"station_id":"ce4bhk92rcd13ifvqgb0","pricing_plan_id":"cebpf4jnsgd1na2vs0mg"},{"bike_id":"3b0b7df5-4eda-48ad-b921-28132dcf7037","system_id":"levelo_inurba_marseille","lat":43.27337,"lon":5.362717,"is_reserved":false,"is_disabled":false,"rental_uris":{"android":"levelo://app?vid=3b0b7df5-4eda-48ad-b921-28132dcf7037","ios":"levelo://app?vid=3b0b7df5-4eda-48ad-b921-28132dcf7037"},"vehicle_type_id":"4","last_reported":1730542108,"current_range_meters":37600,"station_id":"ce4bhbh2rcd13ifvqeo0","pricing_plan_id":"cebpf4jnsgd1na2vs0mg"},{"bike_id":"ad3e9952-3f50-44d8-a74e-6763bc2ff022","system_id":"levelo_inurba_marseille","lat":43.26213,"lon":5.37441,"is_reserved":false,"is_disabled":false,"rental_uris":{"android":"levelo://app?vid=ad3e9952-3f50-44d8-a74e-6763bc2ff022","ios":"levelo://app?vid=ad3e9952-3f50-44d8-a74e-6763bc2ff022"},"vehicle_type_id":"4","last_reported":1730542108,"current_range_meters":32800,"station_id":"ce4bhgp2rcd13ifvqfc0","pricing_plan_id":"cebpf4jnsgd1na2vs0mg"},{"bike_id":"1e05ceb0-3746-4be8-89e2-6a193a1b38e7","system_id":"levelo_inurba_marseille","lat":43.29924,"lon":5.36533,"is_reserved":false,"is_disabled":false,"rental_uris":{"android":"levelo://app?vid=1e05ceb0-3746-4be8-89e2-6a193a1b38e7","ios":"levelo://app?vid=1e05ceb0-3746-4be8-89e2-6a193a1b38e7"},"vehicle_type_id":"4","last_reported":1730542108,"current_range_meters":0,"station_id":"ce4bgm92rcd13ifvqbr0","pricing_plan_id":"cebpf4jnsgd1na2vs0mg"},{"bike_id":"9c510165-3fd2-45d1-85c8-68b221c6f474","system_id":"levelo_inurba_marseille","lat":43.23966,"lon":5.36642,"is_reserved":false,"is_disabled":false,"rental_uris":{"android":"levelo://app?vid=9c510165-3fd2-45d1-85c8-68b221c6f474","ios":"levelo://app?vid=9c510165-3fd2-45d1-85c8-68b221c6f474"},"vehicle_type_id":"4","last_reported":1730542108,"current_range_meters":39200,"station_id":"ce4bhi12rcd13ifvqfp0","pricing_plan_id":"cebpf4jnsgd1na2vs0mg"},{"bike_id":"1f02438c-5d22-4334-9c88-5ddf05045bbc","system_id":"levelo_inurba_marseille","lat":43.29567,"lon":5.37502,"is_reserved":false,"is_disabled":false,"rental_uris":{"android":"levelo://app?vid=1f02438c-5d22-4334-9c88-5ddf05045bbc","ios":"levelo://app?vid=1f02438c-5d22-4334-9c88-5ddf05045bbc"},"vehicle_type_id":"4","last_reported":1730542108,"current_range_meters":36800,"station_id":"ce4bgh92rcd13ifvqb50","pricing_plan_id":"cebpf4jnsgd1na2vs0mg"},{"bike_id":"119fdf17-649d-41bd-9cf5-f2a0ecae2428","system_id":"levelo_inurba_marseille","lat":43.25726,"lon":5.41103,"is_reserved":false,"is_disabled":false,"rental_uris":{"android":"levelo://app?vid=119fdf17-649d-41bd-9cf5-f2a0ecae2428","ios":"levelo://app?vid=119fdf17-649d-41bd-9cf5-f2a0ecae2428"},"vehicle_type_id":"4","last_reported":1730542108,"current_range_meters":14400,"station_id":"ce4bhkp2rcd13ifvqgd0","pricing_plan_id":"cebpf4jnsgd1na2vs0mg"},{"bike_id":"c502d6dc-6da0-4200-87dc-ab42cc4a7f18","system_id":"levelo_inurba_marseille","lat":43.27163,"lon":5.40987,"is_reserved":false,"is_disabled":false,"rental_uris":{"android":"levelo://app?vid=c502d6dc-6da0-4200-87dc-ab42cc4a7f18","ios":"levelo://app?vid=c502d6dc-6da0-4200-87dc-ab42cc4a7f18"},"vehicle_type_id":"4","last_reported":1730542108,"current_range_meters":22800,"station_id":"ce4bhl12rcd13ifvqgf0","pricing_plan_id":"cebpf4jnsgd1na2vs0mg"},{"bike_id":"4aca9276-a75c-423e-b263-5d8176dc7d7b","system_id":"levelo_inurba_marseille","lat":43.30922,"lon":5.40138,"is_reserved":false,"is_disabled":false,"rental_uris":{"android":"levelo://app?vid=4aca9276-a75c-423e-b263-5d8176dc7d7b","ios":"levelo://app?vid=4aca9276-a75c-423e-b263-5d8176dc7d7b"},"vehicle_type_id":"4","last_reported":1730542108,"current_range_meters":12400,"station_id":"ce4bgvp2rcd13ifvqct0","pricing_plan_id":"cebpf4jnsgd1na2vs0mg"},{"bike_id":"8c67d340-801d-46e5-b910-2f8aff3ff078","system_id":"levelo_inurba_marseille","lat":43.33339,"lon":5.37054,"is_reserved":false,"is_disabled":false,"rental_uris":{"android":"levelo://app?vid=8c67d340-801d-46e5-b910-2f8aff3ff078","ios":"levelo://app?vid=8c67d340-801d-46e5-b910-2f8aff3ff078"},"vehicle_type_id":"4","last_reported":1730542108,"current_range_meters":10800,"station_id":"","pricing_plan_id":"cebpf4jnsgd1na2vs0mg"},{"bike_id":"83356032-baeb-401a-bdff-8adddb83ed12","system_id":"levelo_inurba_marseille","lat":43.23193,"lon":5.35548,"is_reserved":false,"is_disabled":false,"rental_uris":{"android":"levelo://app?vid=83356032-baeb-401a-bdff-8adddb83ed12","ios":"levelo://app?vid=83356032-baeb-401a-bdff-8adddb83ed12"},"vehicle_type_id":"4","last_reported":1730542108,"current_range_meters":36800,"station_id":"ce4bhu92rcd13ifvqi70","pricing_plan_id":"cebpf4jnsgd1na2vs0mg"},{"bike_id":"7a8cd18a-3a1c-4d11-b74b-be3707d01020","system_id":"levelo_inurba_marseille","lat":43.26188,"lon":5.37451,"is_reserved":false,"is_disabled":false,"rental_uris":{"android":"levelo://app?vid=7a8cd18a-3a1c-4d11-b74b-be3707d01020","ios":"levelo://app?vid=7a8cd18a-3a1c-4d11-b74b-be3707d01020"},"vehicle_type_id":"4","last_reported":1730542108,"current_range_meters":9600,"station_id":"ce4bhgp2rcd13ifvqfc0","pricing_plan_id":"cebpf4jnsgd1na2vs0mg"},{"bike_id":"9721b847-0fda-4cfc-aa25-024f3816fa88","system_id":"levelo_inurba_marseille","lat":43.29298,"lon":5.37453,"is_reserved":false,"is_disabled":false,"rental_uris":{"android":"levelo://app?vid=9721b847-0fda-4cfc-aa25-024f3816fa88","ios":"levelo://app?vid=9721b847-0fda-4cfc-aa25-024f3816fa88"},"vehicle_type_id":"4","last_reported":1730542108,"current_range_meters":18800,"station_id":"ce4bgi12rcd13ifvqb70","pricing_plan_id":"cebpf4jnsgd1na2vs0mg"},{"bike_id":"df63b9c4-e15c-4263-a5c8-6ddf8c81a210","system_id":"levelo_inurba_marseille","lat":43.260581,"lon":5.393921,"is_reserved":false,"is_disabled":false,"rental_uris":{"android":"levelo://app?vid=df63b9c4-e15c-4263-a5c8-6ddf8c81a210","ios":"levelo://app?vid=df63b9c4-e15c-4263-a5c8-6ddf8c81a210"},"vehicle_type_id":"4","last_reported":1730542108,"current_range_meters":38800,"station_id":"ce4bhh92rcd13ifvqfj0","pricing_plan_id":"cebpf4jnsgd1na2vs0mg"},{"bike_id":"69a0d18e-0381-4102-9fad-3f8c57fc1228","system_id":"levelo_inurba_marseille","lat":43.23069,"lon":5.35492,"is_reserved":false,"is_disabled":false,"rental_uris":{"android":"levelo://app?vid=69a0d18e-0381-4102-9fad-3f8c57fc1228","ios":"levelo://app?vid=69a0d18e-0381-4102-9fad-3f8c57fc1228"},"vehicle_type_id":"4","last_reported":1730542108,"current_range_meters":37600,"station_id":"cpo3342slgdg3j2ifvpg","pricing_plan_id":"cebpf4jnsgd1na2vs0mg"},{"bike_id":"07d0df56-f8bc-46e6-871c-8e071fb175e5","system_id":"levelo_inurba_marseille","lat":43.23196,"lon":5.35552,"is_reserved":false,"is_disabled":false,"rental_uris":{"android":"levelo://app?vid=07d0df56-f8bc-46e6-871c-8e071fb175e5","ios":"levelo://app?vid=07d0df56-f8bc-46e6-871c-8e071fb175e5"},"vehicle_type_id":"4","last_reported":1730542108,"current_range_meters":37600,"station_id":"ce4bhu92rcd13ifvqi70","pricing_plan_id":"cebpf4jnsgd1na2vs0mg"},{"bike_id":"38a5f9c2-c984-4dc7-8084-02e5447bba2f","system_id":"levelo_inurba_marseille","lat":43.24812,"lon":5.37455,"is_reserved":false,"is_disabled":false,"rental_uris":{"android":"levelo://app?vid=38a5f9c2-c984-4dc7-8084-02e5447bba2f","ios":"levelo://app?vid=38a5f9c2-c984-4dc7-8084-02e5447bba2f"},"vehicle_type_id":"4","last_reported":1730542108,"current_range_meters":32000,"station_id":"ce4bhgh2rcd13ifvqfb0","pricing_plan_id":"cebpf4jnsgd1na2vs0mg"},{"bike_id":"19e6008c-0743-45ac-b4bf-fc683ef0e14c","system_id":"levelo_inurba_marseille","lat":43.25721,"lon":5.41112,"is_reserved":false,"is_disabled":false,"rental_uris":{"android":"levelo://app?vid=19e6008c-0743-45ac-b4bf-fc683ef0e14c","ios":"levelo://app?vid=19e6008c-0743-45ac-b4bf-fc683ef0e14c"},"vehicle_type_id":"4","last_reported":1730542108,"current_range_meters":26000,"station_id":"ce4bhkp2rcd13ifvqgd0","pricing_plan_id":"cebpf4jnsgd1na2vs0mg"},{"bike_id":"ab8829f0-c8a7-44a4-9d60-322dda417b22","system_id":"levelo_inurba_marseille","lat":43.30439,"lon":5.39745,"is_reserved":false,"is_disabled":false,"rental_uris":{"android":"levelo://app?vid=ab8829f0-c8a7-44a4-9d60-322dda417b22","ios":"levelo://app?vid=ab8829f0-c8a7-44a4-9d60-322dda417b22"},"vehicle_type_id":"4","last_reported":1730542108,"current_range_meters":36400,"station_id":"ce4bh092rcd13ifvqd20","pricing_plan_id":"cebpf4jnsgd1na2vs0mg"},{"bike_id":"55b4d402-cd88-41c4-94f3-0c54ee939bb0","system_id":"levelo_inurba_marseille","lat":43.25866,"lon":5.399,"is_reserved":false,"is_disabled":false,"rental_uris":{"android":"levelo://app?vid=55b4d402-cd88-41c4-94f3-0c54ee939bb0","ios":"levelo://app?vid=55b4d402-cd88-41c4-94f3-0c54ee939bb0"},"vehicle_type_id":"4","last_reported":1730542108,"current_range_meters":19200,"station_id":"ce4bhl92rcd13ifvqghg","pricing_plan_id":"cebpf4jnsgd1na2vs0mg"},{"bike_id":"9fd8ebd1-0725-4260-ab5b-6c544dbc8ceb","system_id":"levelo_inurba_marseille","lat":43.23192,"lon":5.35559,"is_reserved":false,"is_disabled":false,"rental_uris":{"android":"levelo://app?vid=9fd8ebd1-0725-4260-ab5b-6c544dbc8ceb","ios":"levelo://app?vid=9fd8ebd1-0725-4260-ab5b-6c544dbc8ceb"},"vehicle_type_id":"4","last_reported":1730542108,"current_range_meters":36400,"station_id":"ce4bhu92rcd13ifvqi70","pricing_plan_id":"cebpf4jnsgd1na2vs0mg"},{"bike_id":"18ef1713-105e-4c7a-b926-0ff4a7d9bee9","system_id":"levelo_inurba_marseille","lat":43.2862,"lon":5.35109,"is_reserved":false,"is_disabled":false,"rental_uris":{"android":"levelo://app?vid=18ef1713-105e-4c7a-b926-0ff4a7d9bee9","ios":"levelo://app?vid=18ef1713-105e-4c7a-b926-0ff4a7d9bee9"},"vehicle_type_id":"4","last_reported":1730542108,"current_range_meters":22400,"station_id":"ce4bhch2rcd13ifvqeug","pricing_plan_id":"cebpf4jnsgd1na2vs0mg"},{"bike_id":"ca3f22f4-8493-467d-8830-871915eb6269","system_id":"levelo_inurba_marseille","lat":43.30143,"lon":5.38087,"is_reserved":false,"is_disabled":false,"rental_uris":{"android":"levelo://app?vid=ca3f22f4-8493-467d-8830-871915eb6269","ios":"levelo://app?vid=ca3f22f4-8493-467d-8830-871915eb6269"},"vehicle_type_id":"4","last_reported":1730542108,"current_range_meters":33200,"station_id":"ce4bgjp2rcd13ifvqbh0","pricing_plan_id":"cebpf4jnsgd1na2vs0mg"},{"bike_id":"c14abbb4-4d06-46c3-8367-d2701001bce7","system_id":"levelo_inurba_marseille","lat":43.30318,"lon":5.36896,"is_reserved":false,"is_disabled":false,"rental_uris":{"android":"levelo://app?vid=c14abbb4-4d06-46c3-8367-d2701001bce7","ios":"levelo://app?vid=c14abbb4-4d06-46c3-8367-d2701001bce7"},"vehicle_type_id":"4","last_reported":1730542108,"current_range_meters":31200,"station_id":"ce4bgqh2rcd13ifvqc5g","pricing_plan_id":"cebpf4jnsgd1na2vs0mg"},{"bike_id":"111268d9-fc2e-4ec0-bcc5-29d5d31449cd","system_id":"levelo_inurba_marseille","lat":43.28854,"lon":5.39312,"is_reserved":false,"is_disabled":false,"rental_uris":{"android":"levelo://app?vid=111268d9-fc2e-4ec0-bcc5-29d5d31449cd","ios":"levelo://app?vid=111268d9-fc2e-4ec0-bcc5-29d5d31449cd"},"vehicle_type_id":"4","last_reported":1730542108,"current_range_meters":38800,"station_id":"ce4bh2p2rcd13ifvqdi0","pricing_plan_id":"cebpf4jnsgd1na2vs0mg"},{"bike_id":"11c750a2-d7b5-480d-8e51-6aba667e5991","system_id":"levelo_inurba_marseille","lat":43.31724,"lon":5.42394,"is_reserved":false,"is_disabled":false,"rental_uris":{"android":"levelo://app?vid=11c750a2-d7b5-480d-8e51-6aba667e5991","ios":"levelo://app?vid=11c750a2-d7b5-480d-8e51-6aba667e5991"},"vehicle_type_id":"4","last_reported":1730542108,"current_range_meters":38800,"station_id":"ce4bhp92rcd13ifvqhbg","pricing_plan_id":"cebpf4jnsgd1na2vs0mg"},{"bike_id":"2a049fb9-763a-4bd4-ac71-52de71dd0fbf","system_id":"levelo_inurba_marseille","lat":43.28855,"lon":5.35877,"is_reserved":false,"is_disabled":false,"rental_uris":{"android":"levelo://app?vid=2a049fb9-763a-4bd4-ac71-52de71dd0fbf","ios":"levelo://app?vid=2a049fb9-763a-4bd4-ac71-52de71dd0fbf"},"vehicle_type_id":"4","last_reported":1730542108,"current_range_meters":38400,"station_id":"ce4bhb12rcd13ifvqem0","pricing_plan_id":"cebpf4jnsgd1na2vs0mg"},{"bike_id":"8a220314-b56c-493a-9759-7ee1c724fc09","system_id":"levelo_inurba_marseille","lat":43.2958,"lon":5.36748,"is_reserved":false,"is_disabled":false,"rental_uris":{"android":"levelo://app?vid=8a220314-b56c-493a-9759-7ee1c724fc09","ios":"levelo://app?vid=8a220314-b56c-493a-9759-7ee1c724fc09"},"vehicle_type_id":"4","last_reported":1730542108,"current_range_meters":38400,"station_id":"ce4bgph2rcd13ifvqc2g","pricing_plan_id":"cebpf4jnsgd1na2vs0mg"},{"bike_id":"ab2ef6ab-6ff9-4dd6-89d3-9aa146b84bf8","system_id":"levelo_inurba_marseille","lat":43.29579,"lon":5.36743,"is_reserved":false,"is_disabled":false,"rental_uris":{"android":"levelo://app?vid=ab2ef6ab-6ff9-4dd6-89d3-9aa146b84bf8","ios":"levelo://app?vid=ab2ef6ab-6ff9-4dd6-89d3-9aa146b84bf8"},"vehicle_type_id":"4","last_reported":1730542108,"current_range_meters":28800,"station_id":"ce4bgph2rcd13ifvqc2g","pricing_plan_id":"cebpf4jnsgd1na2vs0mg"},{"bike_id":"e316822c-24ef-41b5-8cad-fd80a2dd02f9","system_id":"levelo_inurba_marseille","lat":43.310878,"lon":5.383723,"is_reserved":false,"is_disabled":false,"rental_uris":{"android":"levelo://app?vid=e316822c-24ef-41b5-8cad-fd80a2dd02f9","ios":"levelo://app?vid=e316822c-24ef-41b5-8cad-fd80a2dd02f9"},"vehicle_type_id":"4","last_reported":1730542108,"current_range_meters":22800,"station_id":"ce4bgv92rcd13ifvqcr0","pricing_plan_id":"cebpf4jnsgd1na2vs0mg"},{"bike_id":"10ff0e75-6443-4419-b59b-5c0fc7db1fb9","system_id":"levelo_inurba_marseille","lat":43.30532,"lon":5.36695,"is_reserved":false,"is_disabled":false,"rental_uris":{"android":"levelo://app?vid=10ff0e75-6443-4419-b59b-5c0fc7db1fb9","ios":"levelo://app?vid=10ff0e75-6443-4419-b59b-5c0fc7db1fb9"},"vehicle_type_id":"4","last_reported":1730542108,"current_range_meters":38800,"station_id":"ce4bgrp2rcd13ifvqc9g","pricing_plan_id":"cebpf4jnsgd1na2vs0mg"},{"bike_id":"536b3b96-b168-48a9-900f-a9bfebbd46ad","system_id":"levelo_inurba_marseille","lat":43.29194,"lon":5.358,"is_reserved":false,"is_disabled":false,"rental_uris":{"android":"levelo://app?vid=536b3b96-b168-48a9-900f-a9bfebbd46ad","ios":"levelo://app?vid=536b3b96-b168-48a9-900f-a9bfebbd46ad"},"vehicle_type_id":"4","last_reported":1730542108,"current_range_meters":38800,"station_id":"ce4bhb12rcd13ifvqel0","pricing_plan_id":"cebpf4jnsgd1na2vs0mg"},{"bike_id":"367151e3-d9d1-496e-afc3-1d3ad14f98c6","system_id":"levelo_inurba_marseille","lat":43.323607,"lon":5.38894,"is_reserved":false,"is_disabled":false,"rental_uris":{"android":"levelo://app?vid=367151e3-d9d1-496e-afc3-1d3ad14f98c6","ios":"levelo://app?vid=367151e3-d9d1-496e-afc3-1d3ad14f98c6"},"vehicle_type_id":"4","last_reported":1730542108,"current_range_meters":32800,"station_id":"ce4bhqp2rcd13ifvqhog","pricing_plan_id":"cebpf4jnsgd1na2vs0mg"},{"bike_id":"ffa47a9c-9d30-4413-b7a7-fb369d45a50e","system_id":"levelo_inurba_marseille","lat":43.29311,"lon":5.37165,"is_reserved":false,"is_disabled":false,"rental_uris":{"android":"levelo://app?vid=ffa47a9c-9d30-4413-b7a7-fb369d45a50e","ios":"levelo://app?vid=ffa47a9c-9d30-4413-b7a7-fb369d45a50e"},"vehicle_type_id":"4","last_reported":1730542108,"current_range_meters":38000,"station_id":"ce4bgh92rcd13ifvqb40","pricing_plan_id":"cebpf4jnsgd1na2vs0mg"},{"bike_id":"efcaf5d0-df5a-417c-9eef-dec8c9be195d","system_id":"levelo_inurba_marseille","lat":43.27939,"lon":5.41045,"is_reserved":false,"is_disabled":false,"rental_uris":{"android":"levelo://app?vid=efcaf5d0-df5a-417c-9eef-dec8c9be195d","ios":"levelo://app?vid=efcaf5d0-df5a-417c-9eef-dec8c9be195d"},"vehicle_type_id":"4","last_reported":1730542108,"current_range_meters":25600,"station_id":"ce4bhnp2rcd13ifvqh0g","pricing_plan_id":"cebpf4jnsgd1na2vs0mg"},{"bike_id":"07af9044-91aa-4eb3-a1c6-379f54becb4d","system_id":"levelo_inurba_marseille","lat":43.283486,"lon":5.381091,"is_reserved":false,"is_disabled":false,"rental_uris":{"android":"levelo://app?vid=07af9044-91aa-4eb3-a1c6-379f54becb4d","ios":"levelo://app?vid=07af9044-91aa-4eb3-a1c6-379f54becb4d"},"vehicle_type_id":"4","last_reported":1730542108,"current_range_meters":17600,"station_id":"ce4bhh92rcd13ifvqfh0","pricing_plan_id":"cebpf4jnsgd1na2vs0mg"},{"bike_id":"184be8ec-fbf1-42f9-9d0b-336d167638cd","system_id":"levelo_inurba_marseille","lat":43.27816,"lon":5.40706,"is_reserved":false,"is_disabled":false,"rental_uris":{"android":"levelo://app?vid=184be8ec-fbf1-42f9-9d0b-336d167638cd","ios":"levelo://app?vid=184be8ec-fbf1-42f9-9d0b-336d167638cd"},"vehicle_type_id":"4","last_reported":1730542108,"current_range_meters":36800,"station_id":"ce4bhnh2rcd13ifvqgtg","pricing_plan_id":"cebpf4jnsgd1na2vs0mg"},{"bike_id":"31438b49-3f30-4c70-b7cc-3940fa88b5ae","system_id":"levelo_inurba_marseille","lat":43.30149,"lon":5.38074,"is_reserved":false,"is_disabled":false,"rental_uris":{"android":"levelo://app?vid=31438b49-3f30-4c70-b7cc-3940fa88b5ae","ios":"levelo://app?vid=31438b49-3f30-4c70-b7cc-3940fa88b5ae"},"vehicle_type_id":"4","last_reported":1730542108,"current_range_meters":10800,"station_id":"ce4bgjp2rcd13ifvqbh0","pricing_plan_id":"cebpf4jnsgd1na2vs0mg"},{"bike_id":"e94000f0-f704-4581-b402-b68c5945dc32","system_id":"levelo_inurba_marseille","lat":43.29933,"lon":5.3654,"is_reserved":false,"is_disabled":false,"rental_uris":{"android":"levelo://app?vid=e94000f0-f704-4581-b402-b68c5945dc32","ios":"levelo://app?vid=e94000f0-f704-4581-b402-b68c5945dc32"},"vehicle_type_id":"4","last_reported":1730542108,"current_range_meters":30800,"station_id":"ce4bgm92rcd13ifvqbr0","pricing_plan_id":"cebpf4jnsgd1na2vs0mg"},{"bike_id":"24ed88ef-7e13-4630-9c40-090c0b464b2b","system_id":"levelo_inurba_marseille","lat":43.25109,"lon":5.4032,"is_reserved":false,"is_disabled":false,"rental_uris":{"android":"levelo://app?vid=24ed88ef-7e13-4630-9c40-090c0b464b2b","ios":"levelo://app?vid=24ed88ef-7e13-4630-9c40-090c0b464b2b"},"vehicle_type_id":"4","last_reported":1730542108,"current_range_meters":35200,"station_id":"ce4bhlh2rcd13ifvqgig","pricing_plan_id":"cebpf4jnsgd1na2vs0mg"},{"bike_id":"2009e02a-2809-484b-848d-62a5955a004a","system_id":"levelo_inurba_marseille","lat":43.270894,"lon":5.402331,"is_reserved":false,"is_disabled":false,"rental_uris":{"android":"levelo://app?vid=2009e02a-2809-484b-848d-62a5955a004a","ios":"levelo://app?vid=2009e02a-2809-484b-848d-62a5955a004a"},"vehicle_type_id":"4","last_reported":1730542108,"current_range_meters":21600,"station_id":"ce4bhk92rcd13ifvqgc0","pricing_plan_id":"cebpf4jnsgd1na2vs0mg"},{"bike_id":"1f89653b-d146-48f6-8dd7-f6b5353e9958","system_id":"levelo_inurba_marseille","lat":43.24389,"lon":5.3706,"is_reserved":false,"is_disabled":false,"rental_uris":{"android":"levelo://app?vid=1f89653b-d146-48f6-8dd7-f6b5353e9958","ios":"levelo://app?vid=1f89653b-d146-48f6-8dd7-f6b5353e9958"},"vehicle_type_id":"4","last_reported":1730542108,"current_range_meters":6800,"station_id":"ce4bhhh2rcd13ifvqfk0","pricing_plan_id":"cebpf4jnsgd1na2vs0mg"},{"bike_id":"0412f79c-bb4d-40a8-a713-8fe372e34a6d","system_id":"levelo_inurba_marseille","lat":43.26679,"lon":5.3827,"is_reserved":false,"is_disabled":false,"rental_uris":{"android":"levelo://app?vid=0412f79c-bb4d-40a8-a713-8fe372e34a6d","ios":"levelo://app?vid=0412f79c-bb4d-40a8-a713-8fe372e34a6d"},"vehicle_type_id":"4","last_reported":1730542108,"current_range_meters":18000,"station_id":"ce4bhg92rcd13ifvqf90","pricing_plan_id":"cebpf4jnsgd1na2vs0mg"},{"bike_id":"5c27b960-6461-4f9d-887b-b61a1549abaa","system_id":"levelo_inurba_marseille","lat":43.25117,"lon":5.4032,"is_reserved":false,"is_disabled":false,"rental_uris":{"android":"levelo://app?vid=5c27b960-6461-4f9d-887b-b61a1549abaa","ios":"levelo://app?vid=5c27b960-6461-4f9d-887b-b61a1549abaa"},"vehicle_type_id":"4","last_reported":1730542108,"current_range_meters":36400,"station_id":"ce4bhlh2rcd13ifvqgig","pricing_plan_id":"cebpf4jnsgd1na2vs0mg"},{"bike_id":"2875d132-b86c-4530-91db-97c0e35f7115","system_id":"levelo_inurba_marseille","lat":43.23178,"lon":5.39978,"is_reserved":false,"is_disabled":false,"rental_uris":{"android":"levelo://app?vid=2875d132-b86c-4530-91db-97c0e35f7115","ios":"levelo://app?vid=2875d132-b86c-4530-91db-97c0e35f7115"},"vehicle_type_id":"4","last_reported":1730542108,"current_range_meters":38800,"station_id":"ce4bhn12rcd13ifvqgqg","pricing_plan_id":"cebpf4jnsgd1na2vs0mg"},{"bike_id":"1fa5ad6f-493b-4fd4-8cbe-b7a8a0b536b5","system_id":"levelo_inurba_marseille","lat":43.29036,"lon":5.39958,"is_reserved":false,"is_disabled":false,"rental_uris":{"android":"levelo://app?vid=1fa5ad6f-493b-4fd4-8cbe-b7a8a0b536b5","ios":"levelo://app?vid=1fa5ad6f-493b-4fd4-8cbe-b7a8a0b536b5"},"vehicle_type_id":"4","last_reported":1730542108,"current_range_meters":18000,"station_id":"ce4bh392rcd13ifvqdm0","pricing_plan_id":"cebpf4jnsgd1na2vs0mg"},{"bike_id":"bd9da8da-0e62-42e0-b8e3-48974947ce73","system_id":"levelo_inurba_marseille","lat":43.27816,"lon":5.40712,"is_reserved":false,"is_disabled":false,"rental_uris":{"android":"levelo://app?vid=bd9da8da-0e62-42e0-b8e3-48974947ce73","ios":"levelo://app?vid=bd9da8da-0e62-42e0-b8e3-48974947ce73"},"vehicle_type_id":"4","last_reported":1730542108,"current_range_meters":36800,"station_id":"ce4bhnh2rcd13ifvqgtg","pricing_plan_id":"cebpf4jnsgd1na2vs0mg"},{"bike_id":"b27b6b18-d801-4b0b-a4e3-bc55bc4a9aed","system_id":"levelo_inurba_marseille","lat":43.2572,"lon":5.41115,"is_reserved":false,"is_disabled":false,"rental_uris":{"android":"levelo://app?vid=b27b6b18-d801-4b0b-a4e3-bc55bc4a9aed","ios":"levelo://app?vid=b27b6b18-d801-4b0b-a4e3-bc55bc4a9aed"},"vehicle_type_id":"4","last_reported":1730542108,"current_range_meters":38400,"station_id":"ce4bhkp2rcd13ifvqgd0","pricing_plan_id":"cebpf4jnsgd1na2vs0mg"},{"bike_id":"f82cfb4f-c90d-4c29-b56c-0e4ee19bcf61","system_id":"levelo_inurba_marseille","lat":43.25114,"lon":5.40321,"is_reserved":false,"is_disabled":false,"rental_uris":{"android":"levelo://app?vid=f82cfb4f-c90d-4c29-b56c-0e4ee19bcf61","ios":"levelo://app?vid=f82cfb4f-c90d-4c29-b56c-0e4ee19bcf61"},"vehicle_type_id":"4","last_reported":1730542108,"current_range_meters":32800,"station_id":"ce4bhlh2rcd13ifvqgig","pricing_plan_id":"cebpf4jnsgd1na2vs0mg"},{"bike_id":"9dc03996-e494-461d-a2e6-0cceab572c73","system_id":"levelo_inurba_marseille","lat":43.30423,"lon":5.39743,"is_reserved":false,"is_disabled":false,"rental_uris":{"android":"levelo://app?vid=9dc03996-e494-461d-a2e6-0cceab572c73","ios":"levelo://app?vid=9dc03996-e494-461d-a2e6-0cceab572c73"},"vehicle_type_id":"4","last_reported":1730542108,"current_range_meters":38000,"station_id":"ce4bh092rcd13ifvqd20","pricing_plan_id":"cebpf4jnsgd1na2vs0mg"},{"bike_id":"639bb546-5a14-42d0-a97f-a7a60c11c0e2","system_id":"levelo_inurba_marseille","lat":43.3081,"lon":5.38142,"is_reserved":false,"is_disabled":false,"rental_uris":{"android":"levelo://app?vid=639bb546-5a14-42d0-a97f-a7a60c11c0e2","ios":"levelo://app?vid=639bb546-5a14-42d0-a97f-a7a60c11c0e2"},"vehicle_type_id":"4","last_reported":1730542108,"current_range_meters":36800,"station_id":"ce4bgt12rcd13ifvqce0","pricing_plan_id":"cebpf4jnsgd1na2vs0mg"},{"bike_id":"008673ba-05c1-45bd-8773-a238894f45b8","system_id":"levelo_inurba_marseille","lat":43.28935,"lon":5.36638,"is_reserved":false,"is_disabled":false,"rental_uris":{"android":"levelo://app?vid=008673ba-05c1-45bd-8773-a238894f45b8","ios":"levelo://app?vid=008673ba-05c1-45bd-8773-a238894f45b8"},"vehicle_type_id":"4","last_reported":1730542108,"current_range_meters":38400,"station_id":"ce4bhap2rcd13ifvqek0","pricing_plan_id":"cebpf4jnsgd1na2vs0mg"},{"bike_id":"94279a57-03c0-47b7-abe3-7226e86fd3b0","system_id":"levelo_inurba_marseille","lat":43.27611,"lon":5.361,"is_reserved":false,"is_disabled":false,"rental_uris":{"android":"levelo://app?vid=94279a57-03c0-47b7-abe3-7226e86fd3b0","ios":"levelo://app?vid=94279a57-03c0-47b7-abe3-7226e86fd3b0"},"vehicle_type_id":"4","last_reported":1730542108,"current_range_meters":20400,"station_id":"ce4bgj92rcd13ifvqbe0","pricing_plan_id":"cebpf4jnsgd1na2vs0mg"},{"bike_id":"90d9b46f-2701-4646-843b-b5707594e3ab","system_id":"levelo_inurba_marseille","lat":43.27304,"lon":5.39077,"is_reserved":false,"is_disabled":false,"rental_uris":{"android":"levelo://app?vid=90d9b46f-2701-4646-843b-b5707594e3ab","ios":"levelo://app?vid=90d9b46f-2701-4646-843b-b5707594e3ab"},"vehicle_type_id":"4","last_reported":1730542108,"current_range_meters":25600,"station_id":"ce4bhgp2rcd13ifvqfe0","pricing_plan_id":"cebpf4jnsgd1na2vs0mg"},{"bike_id":"5ba8e5a8-09bf-412b-b182-000192a6d1f7","system_id":"levelo_inurba_marseille","lat":43.33023,"lon":5.39033,"is_reserved":false,"is_disabled":false,"rental_uris":{"android":"levelo://app?vid=5ba8e5a8-09bf-412b-b182-000192a6d1f7","ios":"levelo://app?vid=5ba8e5a8-09bf-412b-b182-000192a6d1f7"},"vehicle_type_id":"4","last_reported":1730542108,"current_range_meters":22800,"station_id":"ce4bhr92rcd13ifvqhrg","pricing_plan_id":"cebpf4jnsgd1na2vs0mg"},{"bike_id":"b8ff0466-698d-4196-a527-6d3a6ba3e327","system_id":"levelo_inurba_marseille","lat":43.29608,"lon":5.37735,"is_reserved":false,"is_disabled":false,"rental_uris":{"android":"levelo://app?vid=b8ff0466-698d-4196-a527-6d3a6ba3e327","ios":"levelo://app?vid=b8ff0466-698d-4196-a527-6d3a6ba3e327"},"vehicle_type_id":"4","last_reported":1730542108,"current_range_meters":38800,"station_id":"ce4bgi92rcd13ifvqb90","pricing_plan_id":"cebpf4jnsgd1na2vs0mg"},{"bike_id":"56e38add-0f78-4341-b643-7b0849d3280d","system_id":"levelo_inurba_marseille","lat":43.22928,"lon":5.35376,"is_reserved":false,"is_disabled":false,"rental_uris":{"android":"levelo://app?vid=56e38add-0f78-4341-b643-7b0849d3280d","ios":"levelo://app?vid=56e38add-0f78-4341-b643-7b0849d3280d"},"vehicle_type_id":"4","last_reported":1730542108,"current_range_meters":22800,"station_id":"cpo3532slgdg3j2ikp40","pricing_plan_id":"cebpf4jnsgd1na2vs0mg"},{"bike_id":"57e9c9c3-2402-4987-9c1e-fefa68c11d56","system_id":"levelo_inurba_marseille","lat":43.27324,"lon":5.39085,"is_reserved":false,"is_disabled":false,"rental_uris":{"android":"levelo://app?vid=57e9c9c3-2402-4987-9c1e-fefa68c11d56","ios":"levelo://app?vid=57e9c9c3-2402-4987-9c1e-fefa68c11d56"},"vehicle_type_id":"4","last_reported":1730542108,"current_range_meters":36800,"station_id":"ce4bhgp2rcd13ifvqfe0","pricing_plan_id":"cebpf4jnsgd1na2vs0mg"},{"bike_id":"54cdf4b7-f177-47bd-8a3e-f2bf9d78456d","system_id":"levelo_inurba_marseille","lat":43.29568,"lon":5.37488,"is_reserved":false,"is_disabled":false,"rental_uris":{"android":"levelo://app?vid=54cdf4b7-f177-47bd-8a3e-f2bf9d78456d","ios":"levelo://app?vid=54cdf4b7-f177-47bd-8a3e-f2bf9d78456d"},"vehicle_type_id":"4","last_reported":1730542108,"current_range_meters":38000,"station_id":"ce4bgh92rcd13ifvqb50","pricing_plan_id":"cebpf4jnsgd1na2vs0mg"},{"bike_id":"a17289ad-b197-4e77-b642-2cb8d3a03a57","system_id":"levelo_inurba_marseille","lat":43.28485,"lon":5.384,"is_reserved":false,"is_disabled":false,"rental_uris":{"android":"levelo://app?vid=a17289ad-b197-4e77-b642-2cb8d3a03a57","ios":"levelo://app?vid=a17289ad-b197-4e77-b642-2cb8d3a03a57"},"vehicle_type_id":"4","last_reported":1730542108,"current_range_meters":35600,"station_id":"ce4bh512rcd13ifvqe3g","pricing_plan_id":"cebpf4jnsgd1na2vs0mg"},{"bike_id":"50ba03d9-a669-47fc-a282-92fb1fc39cca","system_id":"levelo_inurba_marseille","lat":43.29618,"lon":5.37722,"is_reserved":false,"is_disabled":false,"rental_uris":{"android":"levelo://app?vid=50ba03d9-a669-47fc-a282-92fb1fc39cca","ios":"levelo://app?vid=50ba03d9-a669-47fc-a282-92fb1fc39cca"},"vehicle_type_id":"4","last_reported":1730542108,"current_range_meters":36400,"station_id":"ce4bgi92rcd13ifvqb90","pricing_plan_id":"cebpf4jnsgd1na2vs0mg"},{"bike_id":"a62fcc65-d936-484c-b2b0-aa376df4e6d4","system_id":"levelo_inurba_marseille","lat":43.29716,"lon":5.37688,"is_reserved":false,"is_disabled":false,"rental_uris":{"android":"levelo://app?vid=a62fcc65-d936-484c-b2b0-aa376df4e6d4","ios":"levelo://app?vid=a62fcc65-d936-484c-b2b0-aa376df4e6d4"},"vehicle_type_id":"4","last_reported":1730542108,"current_range_meters":36000,"station_id":"ce4bgkh2rcd13ifvqbl0","pricing_plan_id":"cebpf4jnsgd1na2vs0mg"},{"bike_id":"7860a8eb-8bd7-4aa0-83fa-7000922a7285","system_id":"levelo_inurba_marseille","lat":43.32288,"lon":5.38269,"is_reserved":false,"is_disabled":false,"rental_uris":{"android":"levelo://app?vid=7860a8eb-8bd7-4aa0-83fa-7000922a7285","ios":"levelo://app?vid=7860a8eb-8bd7-4aa0-83fa-7000922a7285"},"vehicle_type_id":"4","last_reported":1730542108,"current_range_meters":36800,"station_id":"ce4bhr12rcd13ifvqhqg","pricing_plan_id":"cebpf4jnsgd1na2vs0mg"},{"bike_id":"9a857893-421b-4998-906a-28cf4d238d46","system_id":"levelo_inurba_marseille","lat":43.30156,"lon":5.3809,"is_reserved":false,"is_disabled":false,"rental_uris":{"android":"levelo://app?vid=9a857893-421b-4998-906a-28cf4d238d46","ios":"levelo://app?vid=9a857893-421b-4998-906a-28cf4d238d46"},"vehicle_type_id":"4","last_reported":1730542108,"current_range_meters":28000,"station_id":"ce4bgjp2rcd13ifvqbh0","pricing_plan_id":"cebpf4jnsgd1na2vs0mg"},{"bike_id":"84eff928-eb31-4529-a9cd-6308c845218b","system_id":"levelo_inurba_marseille","lat":43.26195,"lon":5.37448,"is_reserved":false,"is_disabled":false,"rental_uris":{"android":"levelo://app?vid=84eff928-eb31-4529-a9cd-6308c845218b","ios":"levelo://app?vid=84eff928-eb31-4529-a9cd-6308c845218b"},"vehicle_type_id":"4","last_reported":1730542108,"current_range_meters":32000,"station_id":"ce4bhgp2rcd13ifvqfc0","pricing_plan_id":"cebpf4jnsgd1na2vs0mg"},{"bike_id":"bcda1461-cd37-43ec-9e1d-832082430f5b","system_id":"levelo_inurba_marseille","lat":43.30886,"lon":5.39652,"is_reserved":false,"is_disabled":false,"rental_uris":{"android":"levelo://app?vid=bcda1461-cd37-43ec-9e1d-832082430f5b","ios":"levelo://app?vid=bcda1461-cd37-43ec-9e1d-832082430f5b"},"vehicle_type_id":"4","last_reported":1730542108,"current_range_meters":33200,"station_id":"ce4bh012rcd13ifvqcv0","pricing_plan_id":"cebpf4jnsgd1na2vs0mg"},{"bike_id":"f7b44c6b-0778-4717-9519-a73fc8c76db4","system_id":"levelo_inurba_marseille","lat":43.30894,"lon":5.37187,"is_reserved":false,"is_disabled":false,"rental_uris":{"android":"levelo://app?vid=f7b44c6b-0778-4717-9519-a73fc8c76db4","ios":"levelo://app?vid=f7b44c6b-0778-4717-9519-a73fc8c76db4"},"vehicle_type_id":"4","last_reported":1730542108,"current_range_meters":36400,"station_id":"ce4bguh2rcd13ifvqckg","pricing_plan_id":"cebpf4jnsgd1na2vs0mg"},{"bike_id":"c4a1cbd8-2906-419b-b48d-0b3ae167f8d2","system_id":"levelo_inurba_marseille","lat":43.312164,"lon":5.368555,"is_reserved":false,"is_disabled":false,"rental_uris":{"android":"levelo://app?vid=c4a1cbd8-2906-419b-b48d-0b3ae167f8d2","ios":"levelo://app?vid=c4a1cbd8-2906-419b-b48d-0b3ae167f8d2"},"vehicle_type_id":"4","last_reported":1730542108,"current_range_meters":20800,"station_id":"ce4bgl92rcd13ifvqbq0","pricing_plan_id":"cebpf4jnsgd1na2vs0mg"},{"bike_id":"791f2056-b5d5-4852-bf8c-7f9208baa2cb","system_id":"levelo_inurba_marseille","lat":43.32047,"lon":5.41558,"is_reserved":false,"is_disabled":false,"rental_uris":{"android":"levelo://app?vid=791f2056-b5d5-4852-bf8c-7f9208baa2cb","ios":"levelo://app?vid=791f2056-b5d5-4852-bf8c-7f9208baa2cb"},"vehicle_type_id":"4","last_reported":1730542108,"current_range_meters":37600,"station_id":"ce4bhq92rcd13ifvqhkg","pricing_plan_id":"cebpf4jnsgd1na2vs0mg"},{"bike_id":"00e70a20-c568-4fa0-a424-a40454a7bfa5","system_id":"levelo_inurba_marseille","lat":43.32366,"lon":5.38879,"is_reserved":false,"is_disabled":false,"rental_uris":{"android":"levelo://app?vid=00e70a20-c568-4fa0-a424-a40454a7bfa5","ios":"levelo://app?vid=00e70a20-c568-4fa0-a424-a40454a7bfa5"},"vehicle_type_id":"4","last_reported":1730542108,"current_range_meters":8400,"station_id":"ce4bhqp2rcd13ifvqhog","pricing_plan_id":"cebpf4jnsgd1na2vs0mg"},{"bike_id":"e2c57d61-a2c7-477d-8a68-3f7aff0d253d","system_id":"levelo_inurba_marseille","lat":43.32045,"lon":5.41545,"is_reserved":false,"is_disabled":false,"rental_uris":{"android":"levelo://app?vid=e2c57d61-a2c7-477d-8a68-3f7aff0d253d","ios":"levelo://app?vid=e2c57d61-a2c7-477d-8a68-3f7aff0d253d"},"vehicle_type_id":"4","last_reported":1730542108,"current_range_meters":36800,"station_id":"ce4bhq92rcd13ifvqhkg","pricing_plan_id":"cebpf4jnsgd1na2vs0mg"},{"bike_id":"2f855c27-654a-4473-bb55-8794c4bb0390","system_id":"levelo_inurba_marseille","lat":43.28942,"lon":5.39626,"is_reserved":false,"is_disabled":false,"rental_uris":{"android":"levelo://app?vid=2f855c27-654a-4473-bb55-8794c4bb0390","ios":"levelo://app?vid=2f855c27-654a-4473-bb55-8794c4bb0390"},