{"last_updated":1726711710,"ttl":30,"version":"2.2","data":{"bikes":[{"bike_id":"53f85c0f-9bc3-428d-8e67-2607741aa3ee","system_id":"levelo_inurba_marseille","lat":43.3254,"lon":5.41512,"is_reserved":false,"is_disabled":false,"rental_uris":{"android":"levelo://app?vid=53f85c0f-9bc3-428d-8e67-2607741aa3ee","ios":"levelo://app?vid=53f85c0f-9bc3-428d-8e67-2607741aa3ee"},"vehicle_type_id":"4","last_reported":1726711710,"current_range_meters":15200,"station_id":"ce4bhq12rcd13ifvqhhg","pricing_plan_id":"cebpf4jnsgd1na2vs0mg"},{"bike_id":"12679f1c-674e-42f5-9e40-29bc963981ac","system_id":"levelo_inurba_marseille","lat":43.27947,"lon":5.41047,"is_reserved":false,"is_disabled":false,"rental_uris":{"android":"levelo://app?vid=12679f1c-674e-42f5-9e40-29bc963981ac","ios":"levelo://app?vid=12679f1c-674e-42f5-9e40-29bc963981ac"},"vehicle_type_id":"4","last_reported":1726711710,"current_range_meters":35600,"station_id":"ce4bhnp2rcd13ifvqh0g","pricing_plan_id":"cebpf4jnsgd1na2vs0mg"},{"bike_id":"0288d614-6e4f-4934-ad15-cf509b72b6b9","system_id":"levelo_inurba_marseille","lat":43.27491,"lon":5.42454,"is_reserved":false,"is_disabled":false,"rental_uris":{"android":"levelo://app?vid=0288d614-6e4f-4934-ad15-cf509b72b6b9","ios":"levelo://app?vid=0288d614-6e4f-4934-ad15-cf509b72b6b9"},"vehicle_type_id":"4","last_reported":1726711710,"current_range_meters":39200,"station_id":"ce4bhn92rcd13ifvqgrg","pricing_plan_id":"cebpf4jnsgd1na2vs0mg"},{"bike_id":"3eb6c9c2-4c2a-48cf-b6ca-2051c0baa353","system_id":"levelo_inurba_marseille","lat":43.25868,"lon":5.39897,"is_reserved":false,"is_disabled":false,"rental_uris":{"android":"levelo://app?vid=3eb6c9c2-4c2a-48cf-b6ca-2051c0baa353","ios":"levelo://app?vid=3eb6c9c2-4c2a-48cf-b6ca-2051c0baa353"},"vehicle_type_id":"4","last_reported":1726711710,"current_range_meters":32800,"station_id":"ce4bhl92rcd13ifvqghg","pricing_plan_id":"cebpf4jnsgd1na2vs0mg"},{"bike_id":"2b28efac-746d-48a4-98a4-8063646b0c13","system_id":"levelo_inurba_marseille","lat":43.26812,"lon":5.40254,"is_reserved":false,"is_disabled":false,"rental_uris":{"android":"levelo://app?vid=2b28efac-746d-48a4-98a4-8063646b0c13","ios":"levelo://app?vid=2b28efac-746d-48a4-98a4-8063646b0c13"},"vehicle_type_id":"4","last_reported":1726711710,"current_range_meters":28800,"station_id":"ce501612rcd8frsf0b60","pricing_plan_id":"cebpf4jnsgd1na2vs0mg"},{"bike_id":"6a3ddc2a-1be4-4577-a233-5cc468852dcd","system_id":"levelo_inurba_marseille","lat":43.28662,"lon":5.36362,"is_reserved":false,"is_disabled":false,"rental_uris":{"android":"levelo://app?vid=6a3ddc2a-1be4-4577-a233-5cc468852dcd","ios":"levelo://app?vid=6a3ddc2a-1be4-4577-a233-5cc468852dcd"},"vehicle_type_id":"4","last_reported":1726711710,"current_range_meters":39200,"station_id":"ce4bhah2rcd13ifvqej0","pricing_plan_id":"cebpf4jnsgd1na2vs0mg"},{"bike_id":"6cb80f7a-647c-431f-af80-0a5fa80b3e12","system_id":"levelo_inurba_marseille","lat":43.3133,"lon":5.39692,"is_reserved":false,"is_disabled":false,"rental_uris":{"android":"levelo://app?vid=6cb80f7a-647c-431f-af80-0a5fa80b3e12","ios":"levelo://app?vid=6cb80f7a-647c-431f-af80-0a5fa80b3e12"},"vehicle_type_id":"4","last_reported":1726711710,"current_range_meters":12400,"station_id":"ce4bgvp2rcd13ifvqcu0","pricing_plan_id":"cebpf4jnsgd1na2vs0mg"},{"bike_id":"dd0d6c40-5bec-4397-8580-2628aae2ec2a","system_id":"levelo_inurba_marseille","lat":43.22925,"lon":5.35386,"is_reserved":false,"is_disabled":false,"rental_uris":{"android":"levelo://app?vid=dd0d6c40-5bec-4397-8580-2628aae2ec2a","ios":"levelo://app?vid=dd0d6c40-5bec-4397-8580-2628aae2ec2a"},"vehicle_type_id":"4","last_reported":1726711710,"current_range_meters":38000,"station_id":"cpo3532slgdg3j2ikp40","pricing_plan_id":"cebpf4jnsgd1na2vs0mg"},{"bike_id":"64c965d1-5882-4cc1-b789-3a68c462abe0","system_id":"levelo_inurba_marseille","lat":43.29891,"lon":5.43651,"is_reserved":false,"is_disabled":false,"rental_uris":{"android":"levelo://app?vid=64c965d1-5882-4cc1-b789-3a68c462abe0","ios":"levelo://app?vid=64c965d1-5882-4cc1-b789-3a68c462abe0"},"vehicle_type_id":"4","last_reported":1726711710,"current_range_meters":34800,"station_id":"ce4bhpp2rcd13ifvqhfg","pricing_plan_id":"cebpf4jnsgd1na2vs0mg"},{"bike_id":"bacb43fb-672e-47ff-a284-9b934c0afb36","system_id":"levelo_inurba_marseille","lat":43.26548,"lon":5.39561,"is_reserved":false,"is_disabled":false,"rental_uris":{"android":"levelo://app?vid=bacb43fb-672e-47ff-a284-9b934c0afb36","ios":"levelo://app?vid=bacb43fb-672e-47ff-a284-9b934c0afb36"},"vehicle_type_id":"4","last_reported":1726711710,"current_range_meters":32000,"station_id":"ce4bhi12rcd13ifvqfq0","pricing_plan_id":"cebpf4jnsgd1na2vs0mg"},{"bike_id":"0d1bc426-802a-417c-a284-12ea603100ea","system_id":"levelo_inurba_marseille","lat":43.31329,"lon":5.3969,"is_reserved":false,"is_disabled":false,"rental_uris":{"android":"levelo://app?vid=0d1bc426-802a-417c-a284-12ea603100ea","ios":"levelo://app?vid=0d1bc426-802a-417c-a284-12ea603100ea"},"vehicle_type_id":"4","last_reported":1726711710,"current_range_meters":23200,"station_id":"ce4bgvp2rcd13ifvqcu0","pricing_plan_id":"cebpf4jnsgd1na2vs0mg"},{"bike_id":"fe5cc69f-135c-4287-96fa-c3129f56eaa3","system_id":"levelo_inurba_marseille","lat":43.29253,"lon":5.40899,"is_reserved":false,"is_disabled":false,"rental_uris":{"android":"levelo://app?vid=fe5cc69f-135c-4287-96fa-c3129f56eaa3","ios":"levelo://app?vid=fe5cc69f-135c-4287-96fa-c3129f56eaa3"},"vehicle_type_id":"4","last_reported":1726711710,"current_range_meters":29600,"station_id":"ce4bh192rcd13ifvqdc0","pricing_plan_id":"cebpf4jnsgd1na2vs0mg"},{"bike_id":"12ca8798-d15b-49cc-a8e7-75f7c34ba400","system_id":"levelo_inurba_marseille","lat":43.33011,"lon":5.39031,"is_reserved":false,"is_disabled":false,"rental_uris":{"android":"levelo://app?vid=12ca8798-d15b-49cc-a8e7-75f7c34ba400","ios":"levelo://app?vid=12ca8798-d15b-49cc-a8e7-75f7c34ba400"},"vehicle_type_id":"4","last_reported":1726711710,"current_range_meters":33200,"station_id":"ce4bhr92rcd13ifvqhrg","pricing_plan_id":"cebpf4jnsgd1na2vs0mg"},{"bike_id":"6cbf7334-272b-475e-b8aa-f44f29cebaae","system_id":"levelo_inurba_marseille","lat":43.30483,"lon":5.37905,"is_reserved":false,"is_disabled":false,"rental_uris":{"android":"levelo://app?vid=6cbf7334-272b-475e-b8aa-f44f29cebaae","ios":"levelo://app?vid=6cbf7334-272b-475e-b8aa-f44f29cebaae"},"vehicle_type_id":"4","last_reported":1726711710,"current_range_meters":39200,"station_id":"ce4bgup2rcd13ifvqcn0","pricing_plan_id":"cebpf4jnsgd1na2vs0mg"},{"bike_id":"3f0a2a24-4a5a-47db-939d-31e92accc7a0","system_id":"levelo_inurba_marseille","lat":43.27063,"lon":5.40264,"is_reserved":false,"is_disabled":false,"rental_uris":{"android":"levelo://app?vid=3f0a2a24-4a5a-47db-939d-31e92accc7a0","ios":"levelo://app?vid=3f0a2a24-4a5a-47db-939d-31e92accc7a0"},"vehicle_type_id":"4","last_reported":1726711710,"current_range_meters":10000,"station_id":"ce4bhk92rcd13ifvqgc0","pricing_plan_id":"cebpf4jnsgd1na2vs0mg"},{"bike_id":"6f053d45-12be-48f9-8716-4a49ec88d502","system_id":"levelo_inurba_marseille","lat":43.28441,"lon":5.39196,"is_reserved":false,"is_disabled":false,"rental_uris":{"android":"levelo://app?vid=6f053d45-12be-48f9-8716-4a49ec88d502","ios":"levelo://app?vid=6f053d45-12be-48f9-8716-4a49ec88d502"},"vehicle_type_id":"4","last_reported":1726711710,"current_range_meters":36400,"station_id":"ce4bhoh2rcd13ifvqh5g","pricing_plan_id":"cebpf4jnsgd1na2vs0mg"},{"bike_id":"e532fd53-ad12-4848-82ea-70ac934c1c37","system_id":"levelo_inurba_marseille","lat":43.337444,"lon":5.374475,"is_reserved":false,"is_disabled":false,"rental_uris":{"android":"levelo://app?vid=e532fd53-ad12-4848-82ea-70ac934c1c37","ios":"levelo://app?vid=e532fd53-ad12-4848-82ea-70ac934c1c37"},"vehicle_type_id":"4","last_reported":1726711710,"current_range_meters":17600,"station_id":"","pricing_plan_id":"cebpf4jnsgd1na2vs0mg"},{"bike_id":"16aff90c-07c9-446e-b8cf-7b04ea13322c","system_id":"levelo_inurba_marseille","lat":43.28155,"lon":5.42646,"is_reserved":false,"is_disabled":false,"rental_uris":{"android":"levelo://app?vid=16aff90c-07c9-446e-b8cf-7b04ea13322c","ios":"levelo://app?vid=16aff90c-07c9-446e-b8cf-7b04ea13322c"},"vehicle_type_id":"4","last_reported":1726711710,"current_range_meters":36800,"station_id":"ce4bhnh2rcd13ifvqgug","pricing_plan_id":"cebpf4jnsgd1na2vs0mg"},{"bike_id":"7fcc774b-0393-40d3-ba89-40b45460a7e2","system_id":"levelo_inurba_marseille","lat":43.31693,"lon":5.40464,"is_reserved":false,"is_disabled":false,"rental_uris":{"android":"levelo://app?vid=7fcc774b-0393-40d3-ba89-40b45460a7e2","ios":"levelo://app?vid=7fcc774b-0393-40d3-ba89-40b45460a7e2"},"vehicle_type_id":"4","last_reported":1726711710,"current_range_meters":19600,"station_id":"ce4bh012rcd13ifvqd00","pricing_plan_id":"cebpf4jnsgd1na2vs0mg"},{"bike_id":"9a7bef7e-aa27-4b3e-b3a0-16082888faf1","system_id":"levelo_inurba_marseille","lat":43.25936,"lon":5.40923,"is_reserved":false,"is_disabled":false,"rental_uris":{"android":"levelo://app?vid=9a7bef7e-aa27-4b3e-b3a0-16082888faf1","ios":"levelo://app?vid=9a7bef7e-aa27-4b3e-b3a0-16082888faf1"},"vehicle_type_id":"4","last_reported":1726711710,"current_range_meters":36400,"station_id":"ce4bhm92rcd13ifvqglg","pricing_plan_id":"cebpf4jnsgd1na2vs0mg"},{"bike_id":"e4c9e20e-ec4f-4080-996d-f0df0a493f71","system_id":"levelo_inurba_marseille","lat":43.3033,"lon":5.40451,"is_reserved":false,"is_disabled":false,"rental_uris":{"android":"levelo://app?vid=e4c9e20e-ec4f-4080-996d-f0df0a493f71","ios":"levelo://app?vid=e4c9e20e-ec4f-4080-996d-f0df0a493f71"},"vehicle_type_id":"4","last_reported":1726711710,"current_range_meters":9200,"station_id":"ce4bh012rcd13ifvqd10","pricing_plan_id":"cebpf4jnsgd1na2vs0mg"},{"bike_id":"ab6b454d-e1a8-4eaf-8a0e-951053d26f42","system_id":"levelo_inurba_marseille","lat":43.30212,"lon":5.39461,"is_reserved":false,"is_disabled":false,"rental_uris":{"android":"levelo://app?vid=ab6b454d-e1a8-4eaf-8a0e-951053d26f42","ios":"levelo://app?vid=ab6b454d-e1a8-4eaf-8a0e-951053d26f42"},"vehicle_type_id":"4","last_reported":1726711710,"current_range_meters":24800,"station_id":"ce4bh0p2rcd13ifvqd70","pricing_plan_id":"cebpf4jnsgd1na2vs0mg"},{"bike_id":"41cf0263-4094-4c55-935f-b99091254622","system_id":"levelo_inurba_marseille","lat":43.28735,"lon":5.36092,"is_reserved":false,"is_disabled":false,"rental_uris":{"android":"levelo://app?vid=41cf0263-4094-4c55-935f-b99091254622","ios":"levelo://app?vid=41cf0263-4094-4c55-935f-b99091254622"},"vehicle_type_id":"4","last_reported":1726711710,"current_range_meters":30400,"station_id":"cki0cbj6b192h4jlfktg","pricing_plan_id":"cebpf4jnsgd1na2vs0mg"},{"bike_id":"f7574cad-55c3-49ee-8a35-1273ff7037a4","system_id":"levelo_inurba_marseille","lat":43.26572,"lon":5.39004,"is_reserved":false,"is_disabled":false,"rental_uris":{"android":"levelo://app?vid=f7574cad-55c3-49ee-8a35-1273ff7037a4","ios":"levelo://app?vid=f7574cad-55c3-49ee-8a35-1273ff7037a4"},"vehicle_type_id":"4","last_reported":1726711710,"current_range_meters":32000,"station_id":"ce4bhe12rcd13ifvqf30","pricing_plan_id":"cebpf4jnsgd1na2vs0mg"},{"bike_id":"31984896-19d8-4961-9d12-66e62eb7e1b9","system_id":"levelo_inurba_marseille","lat":43.2862,"lon":5.35108,"is_reserved":false,"is_disabled":false,"rental_uris":{"android":"levelo://app?vid=31984896-19d8-4961-9d12-66e62eb7e1b9","ios":"levelo://app?vid=31984896-19d8-4961-9d12-66e62eb7e1b9"},"vehicle_type_id":"4","last_reported":1726711710,"current_range_meters":38000,"station_id":"ce4bhch2rcd13ifvqeug","pricing_plan_id":"cebpf4jnsgd1na2vs0mg"},{"bike_id":"61c3fb8d-f1ae-4f0e-a433-68e4163be93e","system_id":"levelo_inurba_marseille","lat":43.28416,"lon":5.37521,"is_reserved":false,"is_disabled":false,"rental_uris":{"android":"levelo://app?vid=61c3fb8d-f1ae-4f0e-a433-68e4163be93e","ios":"levelo://app?vid=61c3fb8d-f1ae-4f0e-a433-68e4163be93e"},"vehicle_type_id":"4","last_reported":1726711710,"current_range_meters":6000,"station_id":"ce4bh412rcd13ifvqds0","pricing_plan_id":"cebpf4jnsgd1na2vs0mg"},{"bike_id":"e996e3df-b160-4971-a4b8-ae588a6e2273","system_id":"levelo_inurba_marseille","lat":43.3108,"lon":5.42422,"is_reserved":false,"is_disabled":false,"rental_uris":{"android":"levelo://app?vid=e996e3df-b160-4971-a4b8-ae588a6e2273","ios":"levelo://app?vid=e996e3df-b160-4971-a4b8-ae588a6e2273"},"vehicle_type_id":"4","last_reported":1726711710,"current_range_meters":28800,"station_id":"ce4bhp92rcd13ifvqhag","pricing_plan_id":"cebpf4jnsgd1na2vs0mg"},{"bike_id":"74810271-6dca-4928-9cc4-6c7ab5945949","system_id":"levelo_inurba_marseille","lat":43.30887,"lon":5.37189,"is_reserved":false,"is_disabled":false,"rental_uris":{"android":"levelo://app?vid=74810271-6dca-4928-9cc4-6c7ab5945949","ios":"levelo://app?vid=74810271-6dca-4928-9cc4-6c7ab5945949"},"vehicle_type_id":"4","last_reported":1726711710,"current_range_meters":30400,"station_id":"ce4bguh2rcd13ifvqckg","pricing_plan_id":"cebpf4jnsgd1na2vs0mg"},{"bike_id":"1aa3e3b2-159d-4932-a9aa-65a304bbc094","system_id":"levelo_inurba_marseille","lat":43.23192,"lon":5.39981,"is_reserved":false,"is_disabled":false,"rental_uris":{"android":"levelo://app?vid=1aa3e3b2-159d-4932-a9aa-65a304bbc094","ios":"levelo://app?vid=1aa3e3b2-159d-4932-a9aa-65a304bbc094"},"vehicle_type_id":"4","last_reported":1726711710,"current_range_meters":38800,"station_id":"ce4bhn12rcd13ifvqgqg","pricing_plan_id":"cebpf4jnsgd1na2vs0mg"},{"bike_id":"3a50afd2-cdfd-4dd4-900b-cf09c58ce3d6","system_id":"levelo_inurba_marseille","lat":43.27065,"lon":5.42274,"is_reserved":false,"is_disabled":false,"rental_uris":{"android":"levelo://app?vid=3a50afd2-cdfd-4dd4-900b-cf09c58ce3d6","ios":"levelo://app?vid=3a50afd2-cdfd-4dd4-900b-cf09c58ce3d6"},"vehicle_type_id":"4","last_reported":1726711710,"current_range_meters":30400,"station_id":"ce4bhk92rcd13ifvqgb0","pricing_plan_id":"cebpf4jnsgd1na2vs0mg"},{"bike_id":"a97e5b63-323f-49bf-b8f4-10855af50a7b","system_id":"levelo_inurba_marseille","lat":43.28355,"lon":5.38622,"is_reserved":false,"is_disabled":false,"rental_uris":{"android":"levelo://app?vid=a97e5b63-323f-49bf-b8f4-10855af50a7b","ios":"levelo://app?vid=a97e5b63-323f-49bf-b8f4-10855af50a7b"},"vehicle_type_id":"4","last_reported":1726711710,"current_range_meters":36400,"station_id":"ce4bh492rcd13ifvqdvg","pricing_plan_id":"cebpf4jnsgd1na2vs0mg"},{"bike_id":"1990f9ed-b0a9-4db5-8aa8-97b4d764c0af","system_id":"levelo_inurba_marseille","lat":43.26683,"lon":5.38284,"is_reserved":false,"is_disabled":false,"rental_uris":{"android":"levelo://app?vid=1990f9ed-b0a9-4db5-8aa8-97b4d764c0af","ios":"levelo://app?vid=1990f9ed-b0a9-4db5-8aa8-97b4d764c0af"},"vehicle_type_id":"4","last_reported":1726711710,"current_range_meters":38000,"station_id":"ce4bhg92rcd13ifvqf90","pricing_plan_id":"cebpf4jnsgd1na2vs0mg"},{"bike_id":"2e7c3873-d9fd-4d2d-9361-538ae52d1e63","system_id":"levelo_inurba_marseille","lat":43.25719,"lon":5.4111,"is_reserved":false,"is_disabled":false,"rental_uris":{"android":"levelo://app?vid=2e7c3873-d9fd-4d2d-9361-538ae52d1e63","ios":"levelo://app?vid=2e7c3873-d9fd-4d2d-9361-538ae52d1e63"},"vehicle_type_id":"4","last_reported":1726711710,"current_range_meters":38000,"station_id":"ce4bhkp2rcd13ifvqgd0","pricing_plan_id":"cebpf4jnsgd1na2vs0mg"},{"bike_id":"bed91c9d-d86a-48eb-9707-c4bc0626e228","system_id":"levelo_inurba_marseille","lat":43.24669,"lon":5.38163,"is_reserved":false,"is_disabled":false,"rental_uris":{"android":"levelo://app?vid=bed91c9d-d86a-48eb-9707-c4bc0626e228","ios":"levelo://app?vid=bed91c9d-d86a-48eb-9707-c4bc0626e228"},"vehicle_type_id":"4","last_reported":1726711710,"current_range_meters":26000,"station_id":"ce4bhih2rcd13ifvqfr0","pricing_plan_id":"cebpf4jnsgd1na2vs0mg"},{"bike_id":"c8b16021-ad4f-4c1b-80b1-7d1b9c811227","system_id":"levelo_inurba_marseille","lat":43.32361,"lon":5.3888,"is_reserved":false,"is_disabled":false,"rental_uris":{"android":"levelo://app?vid=c8b16021-ad4f-4c1b-80b1-7d1b9c811227","ios":"levelo://app?vid=c8b16021-ad4f-4c1b-80b1-7d1b9c811227"},"vehicle_type_id":"4","last_reported":1726711710,"current_range_meters":6800,"station_id":"ce4bhqp2rcd13ifvqhog","pricing_plan_id":"cebpf4jnsgd1na2vs0mg"},{"bike_id":"68a7d5ca-7f3c-4e66-a6c0-328197e4d20f","system_id":"levelo_inurba_marseille","lat":43.28998,"lon":5.35605,"is_reserved":false,"is_disabled":false,"rental_uris":{"android":"levelo://app?vid=68a7d5ca-7f3c-4e66-a6c0-328197e4d20f","ios":"levelo://app?vid=68a7d5ca-7f3c-4e66-a6c0-328197e4d20f"},"vehicle_type_id":"4","last_reported":1726711710,"current_range_meters":37600,"station_id":"ce4bhb92rcd13ifvqen0","pricing_plan_id":"cebpf4jnsgd1na2vs0mg"},{"bike_id":"465dda3f-a6b6-49b9-9c44-c638f6ab9f61","system_id":"levelo_inurba_marseille","lat":43.29269,"lon":5.40159,"is_reserved":false,"is_disabled":false,"rental_uris":{"android":"levelo://app?vid=465dda3f-a6b6-49b9-9c44-c638f6ab9f61","ios":"levelo://app?vid=465dda3f-a6b6-49b9-9c44-c638f6ab9f61"},"vehicle_type_id":"4","last_reported":1726711710,"current_range_meters":38800,"station_id":"ce4bh312rcd13ifvqdk0","pricing_plan_id":"cebpf4jnsgd1na2vs0mg"},{"bike_id":"15936ed4-a2a4-4ebf-8af4-75867624e631","system_id":"levelo_inurba_marseille","lat":43.29787,"lon":5.37112,"is_reserved":false,"is_disabled":false,"rental_uris":{"android":"levelo://app?vid=15936ed4-a2a4-4ebf-8af4-75867624e631","ios":"levelo://app?vid=15936ed4-a2a4-4ebf-8af4-75867624e631"},"vehicle_type_id":"4","last_reported":1726711710,"current_range_meters":38800,"station_id":"ce4bgop2rcd13ifvqc1g","pricing_plan_id":"cebpf4jnsgd1na2vs0mg"},{"bike_id":"2a480d8e-8c71-49f0-b567-a82e1563b5c1","system_id":"levelo_inurba_marseille","lat":43.30138,"lon":5.39882,"is_reserved":false,"is_disabled":false,"rental_uris":{"android":"levelo://app?vid=2a480d8e-8c71-49f0-b567-a82e1563b5c1","ios":"levelo://app?vid=2a480d8e-8c71-49f0-b567-a82e1563b5c1"},"vehicle_type_id":"4","last_reported":1726711710,"current_range_meters":38800,"station_id":"ce4bh0h2rcd13ifvqd40","pricing_plan_id":"cebpf4jnsgd1na2vs0mg"},{"bike_id":"6fca5209-2cfc-475c-bf2d-19e350f4b119","system_id":"levelo_inurba_marseille","lat":43.31163,"lon":5.38719,"is_reserved":false,"is_disabled":false,"rental_uris":{"android":"levelo://app?vid=6fca5209-2cfc-475c-bf2d-19e350f4b119","ios":"levelo://app?vid=6fca5209-2cfc-475c-bf2d-19e350f4b119"},"vehicle_type_id":"4","last_reported":1726711710,"current_range_meters":33600,"station_id":"ce4bgv12rcd13ifvqcp0","pricing_plan_id":"cebpf4jnsgd1na2vs0mg"},{"bike_id":"d2215a02-5977-47d7-a4f8-3dbd554e2366","system_id":"levelo_inurba_marseille","lat":43.31271,"lon":5.40146,"is_reserved":false,"is_disabled":false,"rental_uris":{"android":"levelo://app?vid=d2215a02-5977-47d7-a4f8-3dbd554e2366","ios":"levelo://app?vid=d2215a02-5977-47d7-a4f8-3dbd554e2366"},"vehicle_type_id":"4","last_reported":1726711710,"current_range_meters":32400,"station_id":"ce4bh092rcd13ifvqd30","pricing_plan_id":"cebpf4jnsgd1na2vs0mg"},{"bike_id":"562f8830-0282-4afb-ad74-0edfeab1f1c1","system_id":"levelo_inurba_marseille","lat":43.24071,"lon":5.37756,"is_reserved":false,"is_disabled":false,"rental_uris":{"android":"levelo://app?vid=562f8830-0282-4afb-ad74-0edfeab1f1c1","ios":"levelo://app?vid=562f8830-0282-4afb-ad74-0edfeab1f1c1"},"vehicle_type_id":"4","last_reported":1726711710,"current_range_meters":35200,"station_id":"ce4bhnp2rcd13ifvqgvg","pricing_plan_id":"cebpf4jnsgd1na2vs0mg"},{"bike_id":"90d40abe-b095-4f0b-8811-2a51c6549295","system_id":"levelo_inurba_marseille","lat":43.26065,"lon":5.39413,"is_reserved":false,"is_disabled":false,"rental_uris":{"android":"levelo://app?vid=90d40abe-b095-4f0b-8811-2a51c6549295","ios":"levelo://app?vid=90d40abe-b095-4f0b-8811-2a51c6549295"},"vehicle_type_id":"4","last_reported":1726711710,"current_range_meters":38800,"station_id":"ce4bhh92rcd13ifvqfj0","pricing_plan_id":"cebpf4jnsgd1na2vs0mg"},{"bike_id":"187f7ecf-ccc0-4e0f-a855-d748a5435d6f","system_id":"levelo_inurba_marseille","lat":43.2467,"lon":5.38174,"is_reserved":false,"is_disabled":false,"rental_uris":{"android":"levelo://app?vid=187f7ecf-ccc0-4e0f-a855-d748a5435d6f","ios":"levelo://app?vid=187f7ecf-ccc0-4e0f-a855-d748a5435d6f"},"vehicle_type_id":"4","last_reported":1726711710,"current_range_meters":20000,"station_id":"ce4bhih2rcd13ifvqfr0","pricing_plan_id":"cebpf4jnsgd1na2vs0mg"},{"bike_id":"503364ec-3315-4abd-a585-069a4f356547","system_id":"levelo_inurba_marseille","lat":43.28471,"lon":5.35856,"is_reserved":false,"is_disabled":false,"rental_uris":{"android":"levelo://app?vid=503364ec-3315-4abd-a585-069a4f356547","ios":"levelo://app?vid=503364ec-3315-4abd-a585-069a4f356547"},"vehicle_type_id":"4","last_reported":1726711710,"current_range_meters":38400,"station_id":"ce4bhah2rcd13ifvqei0","pricing_plan_id":"cebpf4jnsgd1na2vs0mg"},{"bike_id":"3ceb4910-26dd-4e94-a3d0-4274cb5a83f0","system_id":"levelo_inurba_marseille","lat":43.30239,"lon":5.40073,"is_reserved":false,"is_disabled":false,"rental_uris":{"android":"levelo://app?vid=3ceb4910-26dd-4e94-a3d0-4274cb5a83f0","ios":"levelo://app?vid=3ceb4910-26dd-4e94-a3d0-4274cb5a83f0"},"vehicle_type_id":"4","last_reported":1726711710,"current_range_meters":38800,"station_id":"ce4bgvh2rcd13ifvqcs0","pricing_plan_id":"cebpf4jnsgd1na2vs0mg"},{"bike_id":"0a3ffc0e-8e0f-478e-a002-b5e086f1ac54","system_id":"levelo_inurba_marseille","lat":43.25713,"lon":5.41105,"is_reserved":false,"is_disabled":false,"rental_uris":{"android":"levelo://app?vid=0a3ffc0e-8e0f-478e-a002-b5e086f1ac54","ios":"levelo://app?vid=0a3ffc0e-8e0f-478e-a002-b5e086f1ac54"},"vehicle_type_id":"4","last_reported":1726711710,"current_range_meters":37600,"station_id":"ce4bhkp2rcd13ifvqgd0","pricing_plan_id":"cebpf4jnsgd1na2vs0mg"},{"bike_id":"c2272d1c-de85-40c3-8a06-70b6bf4106b7","system_id":"levelo_inurba_marseille","lat":43.30795,"lon":5.43527,"is_reserved":false,"is_disabled":false,"rental_uris":{"android":"levelo://app?vid=c2272d1c-de85-40c3-8a06-70b6bf4106b7","ios":"levelo://app?vid=c2272d1c-de85-40c3-8a06-70b6bf4106b7"},"vehicle_type_id":"4","last_reported":1726711710,"current_range_meters":38800,"station_id":"ce4bhph2rcd13ifvqheg","pricing_plan_id":"cebpf4jnsgd1na2vs0mg"},{"bike_id":"797c8efa-4ed8-4359-a4dc-da2fb4ed6560","system_id":"levelo_inurba_marseille","lat":43.25818,"lon":5.39428,"is_reserved":false,"is_disabled":false,"rental_uris":{"android":"levelo://app?vid=797c8efa-4ed8-4359-a4dc-da2fb4ed6560","ios":"levelo://app?vid=797c8efa-4ed8-4359-a4dc-da2fb4ed6560"},"vehicle_type_id":"4","last_reported":1726711710,"current_range_meters":38800,"station_id":"ce4bhip2rcd13ifvqft0","pricing_plan_id":"cebpf4jnsgd1na2vs0mg"},{"bike_id":"3a25a5b1-9593-4cec-86f9-39274f1b1719","system_id":"levelo_inurba_marseille","lat":43.27557,"lon":5.38427,"is_reserved":false,"is_disabled":false,"rental_uris":{"android":"levelo://app?vid=3a25a5b1-9593-4cec-86f9-39274f1b1719","ios":"levelo://app?vid=3a25a5b1-9593-4cec-86f9-39274f1b1719"},"vehicle_type_id":"4","last_reported":1726711710,"current_range_meters":32800,"station_id":"ce4bhh92rcd13ifvqfi0","pricing_plan_id":"cebpf4jnsgd1na2vs0mg"},{"bike_id":"2a79b0f0-6e76-40e2-8425-8908e5d5a735","system_id":"levelo_inurba_marseille","lat":43.3087,"lon":5.39599,"is_reserved":false,"is_disabled":false,"rental_uris":{"android":"levelo://app?vid=2a79b0f0-6e76-40e2-8425-8908e5d5a735","ios":"levelo://app?vid=2a79b0f0-6e76-40e2-8425-8908e5d5a735"},"vehicle_type_id":"4","last_reported":1726711710,"current_range_meters":28800,"station_id":"","pricing_plan_id":"cebpf4jnsgd1na2vs0mg"},{"bike_id":"5c20a958-d490-41db-84a7-f9730ee7ce03","system_id":"levelo_inurba_marseille","lat":43.29566,"lon":5.39961,"is_reserved":false,"is_disabled":false,"rental_uris":{"android":"levelo://app?vid=5c20a958-d490-41db-84a7-f9730ee7ce03","ios":"levelo://app?vid=5c20a958-d490-41db-84a7-f9730ee7ce03"},"vehicle_type_id":"4","last_reported":1726711710,"current_range_meters":20000,"station_id":"ce4bh312rcd13ifvqdj0","pricing_plan_id":"cebpf4jnsgd1na2vs0mg"},{"bike_id":"38b7aaaa-5299-4007-8e90-4889ff1d3ce7","system_id":"levelo_inurba_marseille","lat":43.23145,"lon":5.43727,"is_reserved":false,"is_disabled":false,"rental_uris":{"android":"levelo://app?vid=38b7aaaa-5299-4007-8e90-4889ff1d3ce7","ios":"levelo://app?vid=38b7aaaa-5299-4007-8e90-4889ff1d3ce7"},"vehicle_type_id":"4","last_reported":1726711710,"current_range_meters":38800,"station_id":"ce4bhmp2rcd13ifvqgog","pricing_plan_id":"cebpf4jnsgd1na2vs0mg"},{"bike_id":"ab8b1643-9e7f-47cc-b599-33f414e2c958","system_id":"levelo_inurba_marseille","lat":43.23186,"lon":5.39992,"is_reserved":false,"is_disabled":false,"rental_uris":{"android":"levelo://app?vid=ab8b1643-9e7f-47cc-b599-33f414e2c958","ios":"levelo://app?vid=ab8b1643-9e7f-47cc-b599-33f414e2c958"},"vehicle_type_id":"4","last_reported":1726711710,"current_range_meters":38400,"station_id":"ce4bhn12rcd13ifvqgqg","pricing_plan_id":"cebpf4jnsgd1na2vs0mg"},{"bike_id":"ddc2f7e6-d23b-4d89-96bc-a18a7029d574","system_id":"levelo_inurba_marseille","lat":43.31757,"lon":5.39023,"is_reserved":false,"is_disabled":false,"rental_uris":{"android":"levelo://app?vid=ddc2f7e6-d23b-4d89-96bc-a18a7029d574","ios":"levelo://app?vid=ddc2f7e6-d23b-4d89-96bc-a18a7029d574"},"vehicle_type_id":"4","last_reported":1726711710,"current_range_meters":32400,"station_id":"ce4bhqp2rcd13ifvqhng","pricing_plan_id":"cebpf4jnsgd1na2vs0mg"},{"bike_id":"c2667222-5d26-4d9c-a938-761c480fe584","system_id":"levelo_inurba_marseille","lat":43.3301,"lon":5.39021,"is_reserved":false,"is_disabled":false,"rental_uris":{"android":"levelo://app?vid=c2667222-5d26-4d9c-a938-761c480fe584","ios":"levelo://app?vid=c2667222-5d26-4d9c-a938-761c480fe584"},"vehicle_type_id":"4","last_reported":1726711710,"current_range_meters":8000,"station_id":"ce4bhr92rcd13ifvqhrg","pricing_plan_id":"cebpf4jnsgd1na2vs0mg"},{"bike_id":"fcafa99b-a808-43dd-a42a-2a120b6cb165","system_id":"levelo_inurba_marseille","lat":43.28112,"lon":5.37839,"is_reserved":false,"is_disabled":false,"rental_uris":{"android":"levelo://app?vid=fcafa99b-a808-43dd-a42a-2a120b6cb165","ios":"levelo://app?vid=fcafa99b-a808-43dd-a42a-2a120b6cb165"},"vehicle_type_id":"4","last_reported":1726711710,"current_range_meters":7200,"station_id":"ce4bha12rcd13ifvqee0","pricing_plan_id":"cebpf4jnsgd1na2vs0mg"},{"bike_id":"7c01414b-caf6-4ee1-85f1-2c9de71dff39","system_id":"levelo_inurba_marseille","lat":43.30957,"lon":5.39028,"is_reserved":false,"is_disabled":false,"rental_uris":{"android":"levelo://app?vid=7c01414b-caf6-4ee1-85f1-2c9de71dff39","ios":"levelo://app?vid=7c01414b-caf6-4ee1-85f1-2c9de71dff39"},"vehicle_type_id":"4","last_reported":1726711710,"current_range_meters":38800,"station_id":"ce4bgup2rcd13ifvqco0","pricing_plan_id":"cebpf4jnsgd1na2vs0mg"},{"bike_id":"799f13ad-bcbb-4c96-8b3a-f695e5f8d9e2","system_id":"levelo_inurba_marseille","lat":43.26578,"lon":5.39025,"is_reserved":false,"is_disabled":false,"rental_uris":{"android":"levelo://app?vid=799f13ad-bcbb-4c96-8b3a-f695e5f8d9e2","ios":"levelo://app?vid=799f13ad-bcbb-4c96-8b3a-f695e5f8d9e2"},"vehicle_type_id":"4","last_reported":1726711710,"current_range_meters":28400,"station_id":"ce4bhe12rcd13ifvqf30","pricing_plan_id":"cebpf4jnsgd1na2vs0mg"},{"bike_id":"7a0214f1-9944-41ab-a89e-ede553696ccd","system_id":"levelo_inurba_marseille","lat":43.28719,"lon":5.37947,"is_reserved":false,"is_disabled":false,"rental_uris":{"android":"levelo://app?vid=7a0214f1-9944-41ab-a89e-ede553696ccd","ios":"levelo://app?vid=7a0214f1-9944-41ab-a89e-ede553696ccd"},"vehicle_type_id":"4","last_reported":1726711710,"current_range_meters":38800,"station_id":"ce4bh9p2rcd13ifvqec0","pricing_plan_id":"cebpf4jnsgd1na2vs0mg"},{"bike_id":"12dbd066-211c-436a-bc3e-f828b4c8a0ed","system_id":"levelo_inurba_marseille","lat":43.29796,"lon":5.39344,"is_reserved":false,"is_disabled":false,"rental_uris":{"android":"levelo://app?vid=12dbd066-211c-436a-bc3e-f828b4c8a0ed","ios":"levelo://app?vid=12dbd066-211c-436a-bc3e-f828b4c8a0ed"},"vehicle_type_id":"4","last_reported":1726711710,"current_range_meters":38400,"station_id":"chh1huq6cuj3fo74tm60","pricing_plan_id":"cebpf4jnsgd1na2vs0mg"},{"bike_id":"31936d33-ff6b-4681-8a42-b0c1a41c94ba","system_id":"levelo_inurba_marseille","lat":43.2468,"lon":5.38157,"is_reserved":false,"is_disabled":false,"rental_uris":{"android":"levelo://app?vid=31936d33-ff6b-4681-8a42-b0c1a41c94ba","ios":"levelo://app?vid=31936d33-ff6b-4681-8a42-b0c1a41c94ba"},"vehicle_type_id":"4","last_reported":1726711710,"current_range_meters":38000,"station_id":"ce4bhih2rcd13ifvqfr0","pricing_plan_id":"cebpf4jnsgd1na2vs0mg"},{"bike_id":"76fc452a-00b8-4091-885e-b3bacc658764","system_id":"levelo_inurba_marseille","lat":43.25087,"lon":5.39522,"is_reserved":false,"is_disabled":false,"rental_uris":{"android":"levelo://app?vid=76fc452a-00b8-4091-885e-b3bacc658764","ios":"levelo://app?vid=76fc452a-00b8-4091-885e-b3bacc658764"},"vehicle_type_id":"4","last_reported":1726711710,"current_range_meters":30800,"station_id":"ce4bhm12rcd13ifvqgkg","pricing_plan_id":"cebpf4jnsgd1na2vs0mg"},{"bike_id":"33ddc148-2eba-450f-b9fb-c022ff299623","system_id":"levelo_inurba_marseille","lat":43.28826,"lon":5.35839,"is_reserved":false,"is_disabled":false,"rental_uris":{"android":"levelo://app?vid=33ddc148-2eba-450f-b9fb-c022ff299623","ios":"levelo://app?vid=33ddc148-2eba-450f-b9fb-c022ff299623"},"vehicle_type_id":"4","last_reported":1726711710,"current_range_meters":38800,"station_id":"ce4bhb12rcd13ifvqem0","pricing_plan_id":"cebpf4jnsgd1na2vs0mg"},{"bike_id":"3018ca87-ee7d-418f-bfeb-176de9a66f1a","system_id":"levelo_inurba_marseille","lat":43.26944,"lon":5.38629,"is_reserved":false,"is_disabled":false,"rental_uris":{"android":"levelo://app?vid=3018ca87-ee7d-418f-bfeb-176de9a66f1a","ios":"levelo://app?vid=3018ca87-ee7d-418f-bfeb-176de9a66f1a"},"vehicle_type_id":"4","last_reported":1726711710,"current_range_meters":33600,"station_id":"ce4bhh92rcd13ifvqfh0","pricing_plan_id":"cebpf4jnsgd1na2vs0mg"},{"bike_id":"a88f87de-d897-406c-817f-6c255e33d475","system_id":"levelo_inurba_marseille","lat":43.31123,"lon":5.3776,"is_reserved":false,"is_disabled":false,"rental_uris":{"android":"levelo://app?vid=a88f87de-d897-406c-817f-6c255e33d475","ios":"levelo://app?vid=a88f87de-d897-406c-817f-6c255e33d475"},"vehicle_type_id":"4","last_reported":1726711710,"current_range_meters":12800,"station_id":"ce4bgt92rcd13ifvqcg0","pricing_plan_id":"cebpf4jnsgd1na2vs0mg"},{"bike_id":"f146f95d-4a72-4710-91a0-d86e1f13d4d5","system_id":"levelo_inurba_marseille","lat":43.30666,"lon":5.40099,"is_reserved":false,"is_disabled":false,"rental_uris":{"android":"levelo://app?vid=f146f95d-4a72-4710-91a0-d86e1f13d4d5","ios":"levelo://app?vid=f146f95d-4a72-4710-91a0-d86e1f13d4d5"},"vehicle_type_id":"4","last_reported":1726711710,"current_range_meters":36800,"station_id":"ce4bh112rcd13ifvqda0","pricing_plan_id":"cebpf4jnsgd1na2vs0mg"},{"bike_id":"a538cd01-543d-4d95-8352-6985f9eb5891","system_id":"levelo_inurba_marseille","lat":43.31306,"lon":5.39709,"is_reserved":false,"is_disabled":false,"rental_uris":{"android":"levelo://app?vid=a538cd01-543d-4d95-8352-6985f9eb5891","ios":"levelo://app?vid=a538cd01-543d-4d95-8352-6985f9eb5891"},"vehicle_type_id":"4","last_reported":1726711710,"current_range_meters":25200,"station_id":"ce4bgvp2rcd13ifvqcu0","pricing_plan_id":"cebpf4jnsgd1na2vs0mg"},{"bike_id":"1bdaddb0-3afa-41b4-b612-d2bd6db18652","system_id":"levelo_inurba_marseille","lat":43.28101,"lon":5.37838,"is_reserved":false,"is_disabled":false,"rental_uris":{"android":"levelo://app?vid=1bdaddb0-3afa-41b4-b612-d2bd6db18652","ios":"levelo://app?vid=1bdaddb0-3afa-41b4-b612-d2bd6db18652"},"vehicle_type_id":"4","last_reported":1726711710,"current_range_meters":31200,"station_id":"ce4bha12rcd13ifvqee0","pricing_plan_id":"cebpf4jnsgd1na2vs0mg"},{"bike_id":"215e1243-d773-4d5c-99dd-c9c39a44c76c","system_id":"levelo_inurba_marseille","lat":43.3127,"lon":5.40163,"is_reserved":false,"is_disabled":false,"rental_uris":{"android":"levelo://app?vid=215e1243-d773-4d5c-99dd-c9c39a44c76c","ios":"levelo://app?vid=215e1243-d773-4d5c-99dd-c9c39a44c76c"},"vehicle_type_id":"4","last_reported":1726711710,"current_range_meters":39200,"station_id":"ce4bh092rcd13ifvqd30","pricing_plan_id":"cebpf4jnsgd1na2vs0mg"},{"bike_id":"bd0c32ad-ace2-4601-bc1a-c884899eba0e","system_id":"levelo_inurba_marseille","lat":43.31357,"lon":5.38511,"is_reserved":false,"is_disabled":false,"rental_uris":{"android":"levelo://app?vid=bd0c32ad-ace2-4601-bc1a-c884899eba0e","ios":"levelo://app?vid=bd0c32ad-ace2-4601-bc1a-c884899eba0e"},"vehicle_type_id":"4","last_reported":1726711710,"current_range_meters":32000,"station_id":"ce4bgt92rcd13ifvqcf0","pricing_plan_id":"cebpf4jnsgd1na2vs0mg"},{"bike_id":"534e7e8a-25e4-4a26-a663-4830e3f34645","system_id":"levelo_inurba_marseille","lat":43.2847,"lon":5.38417,"is_reserved":false,"is_disabled":false,"rental_uris":{"android":"levelo://app?vid=534e7e8a-25e4-4a26-a663-4830e3f34645","ios":"levelo://app?vid=534e7e8a-25e4-4a26-a663-4830e3f34645"},"vehicle_type_id":"4","last_reported":1726711710,"current_range_meters":38000,"station_id":"ce4bh512rcd13ifvqe3g","pricing_plan_id":"cebpf4jnsgd1na2vs0mg"},{"bike_id":"a0ea4c20-eeae-4054-a4b5-699b69c4c176","system_id":"levelo_inurba_marseille","lat":43.29553,"lon":5.42273,"is_reserved":false,"is_disabled":false,"rental_uris":{"android":"levelo://app?vid=a0ea4c20-eeae-4054-a4b5-699b69c4c176","ios":"levelo://app?vid=a0ea4c20-eeae-4054-a4b5-699b69c4c176"},"vehicle_type_id":"4","last_reported":1726711710,"current_range_meters":16800,"station_id":"ce4bhph2rcd13ifvqhdg","pricing_plan_id":"cebpf4jnsgd1na2vs0mg"},{"bike_id":"81e22808-3d9b-455a-be94-79e784cb9295","system_id":"levelo_inurba_marseille","lat":43.33013,"lon":5.39047,"is_reserved":false,"is_disabled":false,"rental_uris":{"android":"levelo://app?vid=81e22808-3d9b-455a-be94-79e784cb9295","ios":"levelo://app?vid=81e22808-3d9b-455a-be94-79e784cb9295"},"vehicle_type_id":"4","last_reported":1726711710,"current_range_meters":38800,"station_id":"ce4bhr92rcd13ifvqhrg","pricing_plan_id":"cebpf4jnsgd1na2vs0mg"},{"bike_id":"f2648386-74a1-4a9f-b5b1-3e103898d56a","system_id":"levelo_inurba_marseille","lat":43.29562,"lon":5.39951,"is_reserved":false,"is_disabled":false,"rental_uris":{"android":"levelo://app?vid=f2648386-74a1-4a9f-b5b1-3e103898d56a","ios":"levelo://app?vid=f2648386-74a1-4a9f-b5b1-3e103898d56a"},"vehicle_type_id":"4","last_reported":1726711710,"current_range_meters":38000,"station_id":"ce4bh312rcd13ifvqdj0","pricing_plan_id":"cebpf4jnsgd1na2vs0mg"},{"bike_id":"f73cab25-e77c-47a3-8def-b8875f74ecae","system_id":"levelo_inurba_marseille","lat":43.27839,"lon":5.39201,"is_reserved":false,"is_disabled":false,"rental_uris":{"android":"levelo://app?vid=f73cab25-e77c-47a3-8def-b8875f74ecae","ios":"levelo://app?vid=f73cab25-e77c-47a3-8def-b8875f74ecae"},"vehicle_type_id":"4","last_reported":1726711710,"current_range_meters":6800,"station_id":"ce4bhjp2rcd13ifvqga0","pricing_plan_id":"cebpf4jnsgd1na2vs0mg"},{"bike_id":"471f5d2b-6054-4015-b2d1-3adfb1b3fc49","system_id":"levelo_inurba_marseille","lat":43.24071,"lon":5.3776,"is_reserved":false,"is_disabled":false,"rental_uris":{"android":"levelo://app?vid=471f5d2b-6054-4015-b2d1-3adfb1b3fc49","ios":"levelo://app?vid=471f5d2b-6054-4015-b2d1-3adfb1b3fc49"},"vehicle_type_id":"4","last_reported":1726711710,"current_range_meters":8000,"station_id":"ce4bhnp2rcd13ifvqgvg","pricing_plan_id":"cebpf4jnsgd1na2vs0mg"},{"bike_id":"7e1d5be8-2c3f-48ef-aa1e-14f1f3130ebe","system_id":"levelo_inurba_marseille","lat":43.23973,"lon":5.3663,"is_reserved":false,"is_disabled":false,"rental_uris":{"android":"levelo://app?vid=7e1d5be8-2c3f-48ef-aa1e-14f1f3130ebe","ios":"levelo://app?vid=7e1d5be8-2c3f-48ef-aa1e-14f1f3130ebe"},"vehicle_type_id":"4","last_reported":1726711710,"current_range_meters":38800,"station_id":"ce4bhi12rcd13ifvqfp0","pricing_plan_id":"cebpf4jnsgd1na2vs0mg"},{"bike_id":"065a2a60-4855-4dea-b7dd-2a45ee19806d","system_id":"levelo_inurba_marseille","lat":43.28942,"lon":5.364,"is_reserved":false,"is_disabled":false,"rental_uris":{"android":"levelo://app?vid=065a2a60-4855-4dea-b7dd-2a45ee19806d","ios":"levelo://app?vid=065a2a60-4855-4dea-b7dd-2a45ee19806d"},"vehicle_type_id":"4","last_reported":1726711710,"current_range_meters":38000,"station_id":"ce4bhc92rcd13ifvqetg","pricing_plan_id":"cebpf4jnsgd1na2vs0mg"},{"bike_id":"3478db76-45d7-45d3-b887-36ba03898ebd","system_id":"levelo_inurba_marseille","lat":43.23142,"lon":5.43702,"is_reserved":false,"is_disabled":false,"rental_uris":{"android":"levelo://app?vid=3478db76-45d7-45d3-b887-36ba03898ebd","ios":"levelo://app?vid=3478db76-45d7-45d3-b887-36ba03898ebd"},"vehicle_type_id":"4","last_reported":1726711710,"current_range_meters":37600,"station_id":"ce4bhmp2rcd13ifvqgog","pricing_plan_id":"cebpf4jnsgd1na2vs0mg"},{"bike_id":"c62d3c7a-4410-4d75-888f-2f933ddc6928","system_id":"levelo_inurba_marseille","lat":43.31701,"lon":5.43702,"is_reserved":false,"is_disabled":false,"rental_uris":{"android":"levelo://app?vid=c62d3c7a-4410-4d75-888f-2f933ddc6928","ios":"levelo://app?vid=c62d3c7a-4410-4d75-888f-2f933ddc6928"},"vehicle_type_id":"4","last_reported":1726711710,"current_range_meters":38800,"station_id":"ce4bhp92rcd13ifvqhcg","pricing_plan_id":"cebpf4jnsgd1na2vs0mg"},{"bike_id":"bf63366c-87b9-4862-a020-53f8279007b5","system_id":"levelo_inurba_marseille","lat":43.27685,"lon":5.38897,"is_reserved":false,"is_disabled":false,"rental_uris":{"android":"levelo://app?vid=bf63366c-87b9-4862-a020-53f8279007b5","ios":"levelo://app?vid=bf63366c-87b9-4862-a020-53f8279007b5"},"vehicle_type_id":"4","last_reported":1726711710,"current_range_meters":38800,"station_id":"ce4bhi12rcd13ifvqfo0","pricing_plan_id":"cebpf4jnsgd1na2vs0mg"},{"bike_id":"a8cf1998-7f9f-4af3-9620-4b99d5e3ad99","system_id":"levelo_inurba_marseille","lat":43.28459,"lon":5.35874,"is_reserved":false,"is_disabled":false,"rental_uris":{"android":"levelo://app?vid=a8cf1998-7f9f-4af3-9620-4b99d5e3ad99","ios":"levelo://app?vid=a8cf1998-7f9f-4af3-9620-4b99d5e3ad99"},"vehicle_type_id":"4","last_reported":1726711710,"current_range_meters":18000,"station_id":"ce4bhah2rcd13ifvqei0","pricing_plan_id":"cebpf4jnsgd1na2vs0mg"},{"bike_id":"e788a48e-634e-45eb-b3cc-40d3f3ee0ec6","system_id":"levelo_inurba_marseille","lat":43.29527,"lon":5.39031,"is_reserved":false,"is_disabled":false,"rental_uris":{"android":"levelo://app?vid=e788a48e-634e-45eb-b3cc-40d3f3ee0ec6","ios":"levelo://app?vid=e788a48e-634e-45eb-b3cc-40d3f3ee0ec6"},"vehicle_type_id":"4","last_reported":1726711710,"current_range_meters":16000,"station_id":"ce4bh3p2rcd13ifvqdp0","pricing_plan_id":"cebpf4jnsgd1na2vs0mg"},{"bike_id":"74d1dd98-6585-477c-9e1e-83f4fcddb605","system_id":"levelo_inurba_marseille","lat":43.28675,"lon":5.38674,"is_reserved":false,"is_disabled":false,"rental_uris":{"android":"levelo://app?vid=74d1dd98-6585-477c-9e1e-83f4fcddb605","ios":"levelo://app?vid=74d1dd98-6585-477c-9e1e-83f4fcddb605"},"vehicle_type_id":"4","last_reported":1726711710,"current_range_meters":28800,"station_id":"ce4bh492rcd13ifvqdug","pricing_plan_id":"cebpf4jnsgd1na2vs0mg"},{"bike_id":"86d2fbbc-c469-4ea8-9619-326d1c533696","system_id":"levelo_inurba_marseille","lat":43.25488,"lon":5.37642,"is_reserved":false,"is_disabled":false,"rental_uris":{"android":"levelo://app?vid=86d2fbbc-c469-4ea8-9619-326d1c533696","ios":"levelo://app?vid=86d2fbbc-c469-4ea8-9619-326d1c533696"},"vehicle_type_id":"4","last_reported":1726711710,"current_range_meters":38400,"station_id":"ce4bhh12rcd13ifvqff0","pricing_plan_id":"cebpf4jnsgd1na2vs0mg"},{"bike_id":"52a4eacc-2aea-42e6-ab8c-9b93247667e8","system_id":"levelo_inurba_marseille","lat":43.33738,"lon":5.3917,"is_reserved":false,"is_disabled":false,"rental_uris":{"android":"levelo://app?vid=52a4eacc-2aea-42e6-ab8c-9b93247667e8","ios":"levelo://app?vid=52a4eacc-2aea-42e6-ab8c-9b93247667e8"},"vehicle_type_id":"4","last_reported":1726711710,"current_range_meters":25600,"station_id":"ce4bhr92rcd13ifvqhsg","pricing_plan_id":"cebpf4jnsgd1na2vs0mg"},{"bike_id":"a7ec649a-e17d-4f88-b0c2-2dd13506f258","system_id":"levelo_inurba_marseille","lat":43.28152,"lon":5.42641,"is_reserved":false,"is_disabled":false,"rental_uris":{"android":"levelo://app?vid=a7ec649a-e17d-4f88-b0c2-2dd13506f258","ios":"levelo://app?vid=a7ec649a-e17d-4f88-b0c2-2dd13506f258"},"vehicle_type_id":"4","last_reported":1726711710,"current_range_meters":22400,"station_id":"ce4bhnh2rcd13ifvqgug","pricing_plan_id":"cebpf4jnsgd1na2vs0mg"},{"bike_id":"78302c5c-57ba-443b-b8c7-febe002db022","system_id":"levelo_inurba_marseille","lat":43.2869,"lon":5.38671,"is_reserved":false,"is_disabled":false,"rental_uris":{"android":"levelo://app?vid=78302c5c-57ba-443b-b8c7-febe002db022","ios":"levelo://app?vid=78302c5c-57ba-443b-b8c7-febe002db022"},"vehicle_type_id":"4","last_reported":1726711710,"current_range_meters":37600,"station_id":"ce4bh492rcd13ifvqdug","pricing_plan_id":"cebpf4jnsgd1na2vs0mg"},{"bike_id":"2c2ad4aa-7723-4b5e-80a9-d6122f1b7baf","system_id":"levelo_inurba_marseille","lat":43.25504,"lon":5.37652,"is_reserved":false,"is_disabled":false,"rental_uris":{"android":"levelo://app?vid=2c2ad4aa-7723-4b5e-80a9-d6122f1b7baf","ios":"levelo://app?vid=2c2ad4aa-7723-4b5e-80a9-d6122f1b7baf"},"vehicle_type_id":"4","last_reported":1726711710,"current_range_meters":38000,"station_id":"ce4bhh12rcd13ifvqff0","pricing_plan_id":"cebpf4jnsgd1na2vs0mg"},{"bike_id":"8f63ed9f-0d3a-4ab5-baf2-ef0c4ac64707","system_id":"levelo_inurba_marseille","lat":43.29561,"lon":5.42299,"is_reserved":false,"is_disabled":false,"rental_uris":{"android":"levelo://app?vid=8f63ed9f-0d3a-4ab5-baf2-ef0c4ac64707","ios":"levelo://app?vid=8f63ed9f-0d3a-4ab5-baf2-ef0c4ac64707"},"vehicle_type_id":"4","last_reported":1726711710,"current_range_meters":38800,"station_id":"ce4bhph2rcd13ifvqhdg","pricing_plan_id":"cebpf4jnsgd1na2vs0mg"},{"bike_id":"e9bc85b8-d4a5-405b-b67d-7fd24c60d2e4","system_id":"levelo_inurba_marseille","lat":43.27942,"lon":5.38691,"is_reserved":false,"is_disabled":false,"rental_uris":{"android":"levelo://app?vid=e9bc85b8-d4a5-405b-b67d-7fd24c60d2e4","ios":"levelo://app?vid=e9bc85b8-d4a5-405b-b67d-7fd24c60d2e4"},"vehicle_type_id":"4","last_reported":1726711710,"current_range_meters":38800,"station_id":"ce4bhg12rcd13ifvqf80","pricing_plan_id":"cebpf4jnsgd1na2vs0mg"},{"bike_id":"86d2afc3-1bd4-4fe5-b347-119a3a37d916","system_id":"levelo_inurba_marseille","lat":43.26805,"lon":5.40257,"is_reserved":false,"is_disabled":false,"rental_uris":{"android":"levelo://app?vid=86d2afc3-1bd4-4fe5-b347-119a3a37d916","ios":"levelo://app?vid=86d2afc3-1bd4-4fe5-b347-119a3a37d916"},"vehicle_type_id":"4","last_reported":1726711710,"current_range_meters":38800,"station_id":"ce501612rcd8frsf0b60","pricing_plan_id":"cebpf4jnsgd1na2vs0mg"},{"bike_id":"beb15bd0-b449-4862-b0ef-bc6b9508122c","system_id":"levelo_inurba_marseille","lat":43.27614,"lon":5.36105,"is_reserved":false,"is_disabled":false,"rental_uris":{"android":"levelo://app?vid=beb15bd0-b449-4862-b0ef-bc6b9508122c","ios":"levelo://app?vid=beb15bd0-b449-4862-b0ef-bc6b9508122c"},"vehicle_type_id":"4","last_reported":1726711710,"current_range_meters":6400,"station_id":"ce4bgj92rcd13ifvqbe0","pricing_plan_id":"cebpf4jnsgd1na2vs0mg"},{"bike_id":"58bb50e3-d916-4077-8fe5-efcdacba84c1","system_id":"levelo_inurba_marseille","lat":43.29798,"lon":5.40397,"is_reserved":false,"is_disabled":false,"rental_uris":{"android":"levelo://app?vid=58bb50e3-d916-4077-8fe5-efcdacba84c1","ios":"levelo://app?vid=58bb50e3-d916-4077-8fe5-efcdacba84c1"},"vehicle_type_id":"4","last_reported":1726711710,"current_range_meters":8800,"station_id":"ce4bh112rcd13ifvqd90","pricing_plan_id":"cebpf4jnsgd1na2vs0mg"},{"bike_id":"5d78b308-9505-4ed0-832a-dc6eb31a5971","system_id":"levelo_inurba_marseille","lat":43.2558,"lon":5.38241,"is_reserved":false,"is_disabled":false,"rental_uris":{"android":"levelo://app?vid=5d78b308-9505-4ed0-832a-dc6eb31a5971","ios":"levelo://app?vid=5d78b308-9505-4ed0-832a-dc6eb31a5971"},"vehicle_type_id":"4","last_reported":1726711710,"current_range_meters":22800,"station_id":"ce4bhih2rcd13ifvqfs0","pricing_plan_id":"cebpf4jnsgd1na2vs0mg"},{"bike_id":"cafdd73d-4866-483c-a5a9-906f34d1ec7c","system_id":"levelo_inurba_marseille","lat":43.31322,"lon":5.39715,"is_reserved":false,"is_disabled":false,"rental_uris":{"android":"levelo://app?vid=cafdd73d-4866-483c-a5a9-906f34d1ec7c","ios":"levelo://app?vid=cafdd73d-4866-483c-a5a9-906f34d1ec7c"},"vehicle_type_id":"4","last_reported":1726711710,"current_range_meters":38800,"station_id":"ce4bgvp2rcd13ifvqcu0","pricing_plan_id":"cebpf4jnsgd1na2vs0mg"},{"bike_id":"ba54f573-336a-40ad-b931-1ca2a8b1e077","system_id":"levelo_inurba_marseille","lat":43.25838,"lon":5.39477,"is_reserved":false,"is_disabled":false,"rental_uris":{"android":"levelo://app?vid=ba54f573-336a-40ad-b931-1ca2a8b1e077","ios":"levelo://app?vid=ba54f573-336a-40ad-b931-1ca2a8b1e077"},"vehicle_type_id":"4","last_reported":1726711710,"current_range_meters":37600,"station_id":"ce4bhip2rcd13ifvqft0","pricing_plan_id":"cebpf4jnsgd1na2vs0mg"},{"bike_id":"c4c8acd1-ff3d-4806-8174-cea36604d882","system_id":"levelo_inurba_marseille","lat":43.29949,"lon":5.41318,"is_reserved":false,"is_disabled":false,"rental_uris":{"android":"levelo://app?vid=c4c8acd1-ff3d-4806-8174-cea36604d882","ios":"levelo://app?vid=c4c8acd1-ff3d-4806-8174-cea36604d882"},"vehicle_type_id":"4","last_reported":1726711710,"current_range_meters":32800,"station_id":"ce4bhp12rcd13ifvqh9g","pricing_plan_id":"cebpf4jnsgd1na2vs0mg"},{"bike_id":"7296939a-e07b-445c-bd52-40cde8ccbba2","system_id":"levelo_inurba_marseille","lat":43.26025,"lon":5.37562,"is_reserved":false,"is_disabled":false,"rental_uris":{"android":"levelo://app?vid=7296939a-e07b-445c-bd52-40cde8ccbba2","ios":"levelo://app?vid=7296939a-e07b-445c-bd52-40cde8ccbba2"},"vehicle_type_id":"4","last_reported":1726711710,"current_range_meters":38800,"station_id":"ce4bhgh2rcd13ifvqfa0","pricing_plan_id":"cebpf4jnsgd1na2vs0mg"},{"bike_id":"9ed9a460-9271-4e06-aa0c-9eb70f42c1a7","system_id":"levelo_inurba_marseille","lat":43.2997,"lon":5.41318,"is_reserved":false,"is_disabled":false,"rental_uris":{"android":"levelo://app?vid=9ed9a460-9271-4e06-aa0c-9eb70f42c1a7","ios":"levelo://app?vid=9ed9a460-9271-4e06-aa0c-9eb70f42c1a7"},"vehicle_type_id":"4","last_reported":1726711710,"current_range_meters":16000,"station_id":"ce4bhp12rcd13ifvqh9g","pricing_plan_id":"cebpf4jnsgd1na2vs0mg"},{"bike_id":"a84ccf15-a62f-4b0b-9163-e457f54dff33","system_id":"levelo_inurba_marseille","lat":43.28149,"lon":5.42642,"is_reserved":false,"is_disabled":false,"rental_uris":{"android":"levelo://app?vid=a84ccf15-a62f-4b0b-9163-e457f54dff33","ios":"levelo://app?vid=a84ccf15-a62f-4b0b-9163-e457f54dff33"},"vehicle_type_id":"4","last_reported":1726711710,"current_range_meters":11200,"station_id":"ce4bhnh2rcd13ifvqgug","pricing_plan_id":"cebpf4jnsgd1na2vs0mg"},{"bike_id":"ed88dff4-af81-458a-bbd1-0770ef3c8a66","system_id":"levelo_inurba_marseille","lat":43.31108,"lon":5.37786,"is_reserved":false,"is_disabled":false,"rental_uris":{"android":"levelo://app?vid=ed88dff4-af81-458a-bbd1-0770ef3c8a66","ios":"levelo://app?vid=ed88dff4-af81-458a-bbd1-0770ef3c8a66"},"vehicle_type_id":"4","last_reported":1726711710,"current_range_meters":38400,"station_id":"ce4bgt92rcd13ifvqcg0","pricing_plan_id":"cebpf4jnsgd1na2vs0mg"},{"bike_id":"4f56741b-84aa-4dc7-a8f4-5ceb5a9e3d2a","system_id":"levelo_inurba_marseille","lat":43.28405,"lon":5.34991,"is_reserved":false,"is_disabled":false,"rental_uris":{"android":"levelo://app?vid=4f56741b-84aa-4dc7-a8f4-5ceb5a9e3d2a","ios":"levelo://app?vid=4f56741b-84aa-4dc7-a8f4-5ceb5a9e3d2a"},"vehicle_type_id":"4","last_reported":1726711710,"current_range_meters":16800,"station_id":"ce4bhbh2rcd13ifvqepg","pricing_plan_id":"cebpf4jnsgd1na2vs0mg"},{"bike_id":"cc338b51-de8a-4346-93c7-87ded02658c0","system_id":"levelo_inurba_marseille","lat":43.30876,"lon":5.39639,"is_reserved":false,"is_disabled":false,"rental_uris":{"android":"levelo://app?vid=cc338b51-de8a-4346-93c7-87ded02658c0","ios":"levelo://app?vid=cc338b51-de8a-4346-93c7-87ded02658c0"},"vehicle_type_id":"4","last_reported":1726711710,"current_range_meters":24000,"station_id":"ce4bh012rcd13ifvqcv0","pricing_plan_id":"cebpf4jnsgd1na2vs0mg"},{"bike_id":"7dc72c49-617f-47c4-b0e5-528202463068","system_id":"levelo_inurba_marseille","lat":43.27568,"lon":5.38423,"is_reserved":false,"is_disabled":false,"rental_uris":{"android":"levelo://app?vid=7dc72c49-617f-47c4-b0e5-528202463068","ios":"levelo://app?vid=7dc72c49-617f-47c4-b0e5-528202463068"},"vehicle_type_id":"4","last_reported":1726711710,"current_range_meters":32400,"station_id":"ce4bhh92rcd13ifvqfi0","pricing_plan_id":"cebpf4jnsgd1na2vs0mg"},{"bike_id":"e59f0e13-a78a-40a8-ae2c-38ea87eed2e7","system_id":"levelo_inurba_marseille","lat":43.24068,"lon":5.37761,"is_reserved":false,"is_disabled":false,"rental_uris":{"android":"levelo://app?vid=e59f0e13-a78a-40a8-ae2c-38ea87eed2e7","ios":"levelo://app?vid=e59f0e13-a78a-40a8-ae2c-38ea87eed2e7"},"vehicle_type_id":"4","last_reported":1726711710,"current_range_meters":38800,"station_id":"ce4bhnp2rcd13ifvqgvg","pricing_plan_id":"cebpf4jnsgd1na2vs0mg"},{"bike_id":"c7fac47c-455d-48f0-b5c4-e5ec61a786cc","system_id":"levelo_inurba_marseille","lat":43.29705,"lon":5.36605,"is_reserved":false,"is_disabled":false,"rental_uris":{"android":"levelo://app?vid=c7fac47c-455d-48f0-b5c4-e5ec61a786cc","ios":"levelo://app?vid=c7fac47c-455d-48f0-b5c4-e5ec61a786cc"},"vehicle_type_id":"4","last_reported":1726711710,"current_range_meters":21600,"station_id":"ce4bgn12rcd13ifvqbt0","pricing_plan_id":"cebpf4jnsgd1na2vs0mg"},{"bike_id":"ef34c70d-2e65-48fd-bb4f-c142f621d359","system_id":"levelo_inurba_marseille","lat":43.24547,"lon":5.39531,"is_reserved":false,"is_disabled":false,"rental_uris":{"android":"levelo://app?vid=ef34c70d-2e65-48fd-bb4f-c142f621d359","ios":"levelo://app?vid=ef34c70d-2e65-48fd-bb4f-c142f621d359"},"vehicle_type_id":"4","last_reported":1726711710,"current_range_meters":38400,"station_id":"ce4bhlp2rcd13ifvqgjg","pricing_plan_id":"cebpf4jnsgd1na2vs0mg"},{"bike_id":"4637f38a-faa6-4c8b-ae8d-2112023d8ec3","system_id":"levelo_inurba_marseille","lat":43.25582,"lon":5.3823,"is_reserved":false,"is_disabled":false,"rental_uris":{"android":"levelo://app?vid=4637f38a-faa6-4c8b-ae8d-2112023d8ec3","ios":"levelo://app?vid=4637f38a-faa6-4c8b-ae8d-2112023d8ec3"},"vehicle_type_id":"4","last_reported":1726711710,"current_range_meters":38800,"station_id":"ce4bhih2rcd13ifvqfs0","pricing_plan_id":"cebpf4jnsgd1na2vs0mg"},{"bike_id":"938a1d8e-8f7a-4dbb-a7f7-9b765b9ff51b","system_id":"levelo_inurba_marseille","lat":43.27612,"lon":5.3612,"is_reserved":false,"is_disabled":false,"rental_uris":{"android":"levelo://app?vid=938a1d8e-8f7a-4dbb-a7f7-9b765b9ff51b","ios":"levelo://app?vid=938a1d8e-8f7a-4dbb-a7f7-9b765b9ff51b"},"vehicle_type_id":"4","last_reported":1726711710,"current_range_meters":24800,"station_id":"ce4bgj92rcd13ifvqbe0","pricing_plan_id":"cebpf4jnsgd1na2vs0mg"},{"bike_id":"fa77e604-95b4-476d-a30f-499c3aaf710d","system_id":"levelo_inurba_marseille","lat":43.33733,"lon":5.39171,"is_reserved":false,"is_disabled":false,"rental_uris":{"android":"levelo://app?vid=fa77e604-95b4-476d-a30f-499c3aaf710d","ios":"levelo://app?vid=fa77e604-95b4-476d-a30f-499c3aaf710d"},"vehicle_type_id":"4","last_reported":1726711710,"current_range_meters":7200,"station_id":"ce4bhr92rcd13ifvqhsg","pricing_plan_id":"cebpf4jnsgd1na2vs0mg"},{"bike_id":"7620db55-f9a9-48d3-8e71-922c33f82c8f","system_id":"levelo_inurba_marseille","lat":43.32987,"lon":5.39058,"is_reserved":false,"is_disabled":false,"rental_uris":{"android":"levelo://app?vid=7620db55-f9a9-48d3-8e71-922c33f82c8f","ios":"levelo://app?vid=7620db55-f9a9-48d3-8e71-922c33f82c8f"},"vehicle_type_id":"4","last_reported":1726711710,"current_range_meters":38800,"station_id":"ce4bhr92rcd13ifvqhrg","pricing_plan_id":"cebpf4jnsgd1na2vs0mg"},{"bike_id":"586da6b6-dada-4b1b-83a0-6e6939ce7dd5","system_id":"levelo_inurba_marseille","lat":43.29169,"lon":5.37136,"is_reserved":false,"is_disabled":false,"rental_uris":{"android":"levelo://app?vid=586da6b6-dada-4b1b-83a0-6e6939ce7dd5","ios":"levelo://app?vid=586da6b6-dada-4b1b-83a0-6e6939ce7dd5"},"vehicle_type_id":"4","last_reported":1726711710,"current_range_meters":38800,"station_id":"ce4bha92rcd13ifvqeh0","pricing_plan_id":"cebpf4jnsgd1na2vs0mg"},{"bike_id":"52a1a133-ab13-453b-ae2b-6d7ab1f0d489","system_id":"levelo_inurba_marseille","lat":43.31311,"lon":5.39723,"is_reserved":false,"is_disabled":false,"rental_uris":{"android":"levelo://app?vid=52a1a133-ab13-453b-ae2b-6d7ab1f0d489","ios":"levelo://app?vid=52a1a133-ab13-453b-ae2b-6d7ab1f0d489"},"vehicle_type_id":"4","last_reported":1726711710,"current_range_meters":17600,"station_id":"ce4bgvp2rcd13ifvqcu0","pricing_plan_id":"cebpf4jnsgd1na2vs0mg"},{"bike_id":"6bea07ff-b7cf-43d7-9614-efd55ed0f2d6","system_id":"levelo_inurba_marseille","lat":43.24645,"lon":5.38905,"is_reserved":false,"is_disabled":false,"rental_uris":{"android":"levelo://app?vid=6bea07ff-b7cf-43d7-9614-efd55ed0f2d6","ios":"levelo://app?vid=6bea07ff-b7cf-43d7-9614-efd55ed0f2d6"},"vehicle_type_id":"4","last_reported":1726711710,"current_range_meters":28400,"station_id":"ce4bhg12rcd13ifvqf60","pricing_plan_id":"cebpf4jnsgd1na2vs0mg"},{"bike_id":"5304ed70-fad3-470c-b0c3-63f08a2a0a36","system_id":"levelo_inurba_marseille","lat":43.31318,"lon":5.39705,"is_reserved":false,"is_disabled":false,"rental_uris":{"android":"levelo://app?vid=5304ed70-fad3-470c-b0c3-63f08a2a0a36","ios":"levelo://app?vid=5304ed70-fad3-470c-b0c3-63f08a2a0a36"},"vehicle_type_id":"4","last_reported":1726711710,"current_range_meters":16000,"station_id":"ce4bgvp2rcd13ifvqcu0","pricing_plan_id":"cebpf4jnsgd1na2vs0mg"},{"bike_id":"b98cc236-ecfc-4f95-a0d2-c8d32e366fa1","system_id":"levelo_inurba_marseille","lat":43.28619,"lon":5.35103,"is_reserved":false,"is_disabled":false,"rental_uris":{"android":"levelo://app?vid=b98cc236-ecfc-4f95-a0d2-c8d32e366fa1","ios":"levelo://app?vid=b98cc236-ecfc-4f95-a0d2-c8d32e366fa1"},"vehicle_type_id":"4","last_reported":1726711710,"current_range_meters":31200,"station_id":"ce4bhch2rcd13ifvqeug","pricing_plan_id":"cebpf4jnsgd1na2vs0mg"},{"bike_id":"1889ec3f-8ea1-4b72-8a71-6e0afec0da58","system_id":"levelo_inurba_marseille","lat":43.30982,"lon":5.39042,"is_reserved":false,"is_disabled":false,"rental_uris":{"android":"levelo://app?vid=1889ec3f-8ea1-4b72-8a71-6e0afec0da58","ios":"levelo://app?vid=1889ec3f-8ea1-4b72-8a71-6e0afec0da58"},"vehicle_type_id":"4","last_reported":1726711710,"current_range_meters":39200,"station_id":"ce4bgup2rcd13ifvqco0","pricing_plan_id":"cebpf4jnsgd1na2vs0mg"},{"bike_id":"9be94feb-a495-4651-8693-da9a946157ae","system_id":"levelo_inurba_marseille","lat":43.25018,"lon":5.38924,"is_reserved":false,"is_disabled":false,"rental_uris":{"android":"levelo://app?vid=9be94feb-a495-4651-8693-da9a946157ae","ios":"levelo://app?vid=9be94feb-a495-4651-8693-da9a946157ae"},"vehicle_type_id":"4","last_reported":1726711710,"current_range_meters":21600,"station_id":"ce4bhgp2rcd13ifvqfd0","pricing_plan_id":"cebpf4jnsgd1na2vs0mg"},{"bike_id":"8b92f07f-bbfd-414c-9917-9010c838ca72","system_id":"levelo_inurba_marseille","lat":43.32488,"lon":5.36562,"is_reserved":false,"is_disabled":false,"rental_uris":{"android":"levelo://app?vid=8b92f07f-bbfd-414c-9917-9010c838ca72","ios":"levelo://app?vid=8b92f07f-bbfd-414c-9917-9010c838ca72"},"vehicle_type_id":"4","last_reported":1726711710,"current_range_meters":38000,"station_id":"ce4bhs12rcd13ifvqhvg","pricing_plan_id":"cebpf4jnsgd1na2vs0mg"},{"bike_id":"72380841-8349-4827-8272-5f556dbaf1bd","system_id":"levelo_inurba_marseille","lat":43.30891,"lon":5.39655,"is_reserved":false,"is_disabled":false,"rental_uris":{"android":"levelo://app?vid=72380841-8349-4827-8272-5f556dbaf1bd","ios":"levelo://app?vid=72380841-8349-4827-8272-5f556dbaf1bd"},"vehicle_type_id":"4","last_reported":1726711710,"current_range_meters":31200,"station_id":"ce4bh012rcd13ifvqcv0","pricing_plan_id":"cebpf4jnsgd1na2vs0mg"},{"bike_id":"f3b40b72-252f-4ea8-a838-f4021093cd20","system_id":"levelo_inurba_marseille","lat":43.30376,"lon":5.41876,"is_reserved":false,"is_disabled":false,"rental_uris":{"android":"levelo://app?vid=f3b40b72-252f-4ea8-a838-f4021093cd20","ios":"levelo://app?vid=f3b40b72-252f-4ea8-a838-f4021093cd20"},"vehicle_type_id":"4","last_reported":1726711710,"current_range_meters":8400,"station_id":"ce4bhop2rcd13ifvqh7g","pricing_plan_id":"cebpf4jnsgd1na2vs0mg"},{"bike_id":"5853071a-a7de-43ad-87c8-982495d79fa0","system_id":"levelo_inurba_marseille","lat":43.2501,"lon":5.38916,"is_reserved":false,"is_disabled":false,"rental_uris":{"android":"levelo://app?vid=5853071a-a7de-43ad-87c8-982495d79fa0","ios":"levelo://app?vid=5853071a-a7de-43ad-87c8-982495d79fa0"},"vehicle_type_id":"4","last_reported":1726711710,"current_range_meters":36400,"station_id":"ce4bhgp2rcd13ifvqfd0","pricing_plan_id":"cebpf4jnsgd1na2vs0mg"},{"bike_id":"9b6292ef-7c1a-4148-b586-1e7d7dce9938","system_id":"levelo_inurba_marseille","lat":43.24661,"lon":5.38153,"is_reserved":false,"is_disabled":false,"rental_uris":{"android":"levelo://app?vid=9b6292ef-7c1a-4148-b586-1e7d7dce9938","ios":"levelo://app?vid=9b6292ef-7c1a-4148-b586-1e7d7dce9938"},"vehicle_type_id":"4","last_reported":1726711710,"current_range_meters":30800,"station_id":"ce4bhih2rcd13ifvqfr0","pricing_plan_id":"cebpf4jnsgd1na2vs0mg"},{"bike_id":"554effc6-ce50-4ce7-84dc-f0fabe96b388","system_id":"levelo_inurba_marseille","lat":43.28457,"lon":5.3588,"is_reserved":false,"is_disabled":false,"rental_uris":{"android":"levelo://app?vid=554effc6-ce50-4ce7-84dc-f0fabe96b388","ios":"levelo://app?vid=554effc6-ce50-4ce7-84dc-f0fabe96b388"},"vehicle_type_id":"4","last_reported":1726711710,"current_range_meters":8400,"station_id":"ce4bhah2rcd13ifvqei0","pricing_plan_id":"cebpf4jnsgd1na2vs0mg"},{"bike_id":"316473a3-098e-4790-8abd-9617353ea0fa","system_id":"levelo_inurba_marseille","lat":43.29262,"lon":5.4093,"is_reserved":false,"is_disabled":false,"rental_uris":{"android":"levelo://app?vid=316473a3-098e-4790-8abd-9617353ea0fa","ios":"levelo://app?vid=316473a3-098e-4790-8abd-9617353ea0fa"},"vehicle_type_id":"4","last_reported":1726711710,"current_range_meters":39200,"station_id":"ce4bh192rcd13ifvqdc0","pricing_plan_id":"cebpf4jnsgd1na2vs0mg"},{"bike_id":"8c637e6c-6fd8-43dc-8533-d706bd4224b8","system_id":"levelo_inurba_marseille","lat":43.29259,"lon":5.40923,"is_reserved":false,"is_disabled":false,"rental_uris":{"android":"levelo://app?vid=8c637e6c-6fd8-43dc-8533-d706bd4224b8","ios":"levelo://app?vid=8c637e6c-6fd8-43dc-8533-d706bd4224b8"},"vehicle_type_id":"4","last_reported":1726711710,"current_range_meters":9600,"station_id":"ce4bh192rcd13ifvqdc0","pricing_plan_id":"cebpf4jnsgd1na2vs0mg"},{"bike_id":"0c101ec3-357a-4678-af6b-2f0c2a8531d5","system_id":"levelo_inurba_marseille","lat":43.31175,"lon":5.38707,"is_reserved":false,"is_disabled":false,"rental_uris":{"android":"levelo://app?vid=0c101ec3-357a-4678-af6b-2f0c2a8531d5","ios":"levelo://app?vid=0c101ec3-357a-4678-af6b-2f0c2a8531d5"},"vehicle_type_id":"4","last_reported":1726711710,"current_range_meters":26000,"station_id":"ce4bgv12rcd13ifvqcp0","pricing_plan_id":"cebpf4jnsgd1na2vs0mg"},{"bike_id":"ad264040-f36d-4d24-971d-436e2a7964b5","system_id":"levelo_inurba_marseille","lat":43.29254,"lon":5.4092,"is_reserved":false,"is_disabled":false,"rental_uris":{"android":"levelo://app?vid=ad264040-f36d-4d24-971d-436e2a7964b5","ios":"levelo://app?vid=ad264040-f36d-4d24-971d-436e2a7964b5"},"vehicle_type_id":"4","last_reported":1726711710,"current_range_meters":8000,"station_id":"ce4bh192rcd13ifvqdc0","pricing_plan_id":"cebpf4jnsgd1na2vs0mg"},{"bike_id":"7a8a8512-1a66-4773-a439-892950d478f5","system_id":"levelo_inurba_marseille","lat":43.28073,"lon":5.39651,"is_reserved":false,"is_disabled":false,"rental_uris":{"android":"levelo://app?vid=7a8a8512-1a66-4773-a439-892950d478f5","ios":"levelo://app?vid=7a8a8512-1a66-4773-a439-892950d478f5"},"vehicle_type_id":"4","last_reported":1726711710,"current_range_meters":30000,"station_id":"ce4bho12rcd13ifvqh2g","pricing_plan_id":"cebpf4jnsgd1na2vs0mg"},{"bike_id":"b18d8b94-ea3f-41c4-a439-b580881ddfe3","system_id":"levelo_inurba_marseille","lat":43.31317,"lon":5.39714,"is_reserved":false,"is_disabled":false,"rental_uris":{"android":"levelo://app?vid=b18d8b94-ea3f-41c4-a439-b580881ddfe3","ios":"levelo://app?vid=b18d8b94-ea3f-41c4-a439-b580881ddfe3"},"vehicle_type_id":"4","last_reported":1726711710,"current_range_meters":38400,"station_id":"ce4bgvp2rcd13ifvqcu0","pricing_plan_id":"cebpf4jnsgd1na2vs0mg"},{"bike_id":"e0173d18-6c8e-483c-9db6-bd92135cda26","system_id":"levelo_inurba_marseille","lat":43.32006,"lon":5.38162,"is_reserved":false,"is_disabled":false,"rental_uris":{"android":"levelo://app?vid=e0173d18-6c8e-483c-9db6-bd92135cda26","ios":"levelo://app?vid=e0173d18-6c8e-483c-9db6-bd92135cda26"},"vehicle_type_id":"4","last_reported":1726711710,"current_range_meters":22000,"station_id":"ce4bhr12rcd13ifvqhpg","pricing_plan_id":"cebpf4jnsgd1na2vs0mg"},{"bike_id":"05410574-e19a-470a-bce7-ed8f6ab9135a","system_id":"levelo_inurba_marseille","lat":43.31702,"lon":5.43711,"is_reserved":false,"is_disabled":false,"rental_uris":{"android":"levelo://app?vid=05410574-e19a-470a-bce7-ed8f6ab9135a","ios":"levelo://app?vid=05410574-e19a-470a-bce7-ed8f6ab9135a"},"vehicle_type_id":"4","last_reported":1726711710,"current_range_meters":9600,"station_id":"ce4bhp92rcd13ifvqhcg","pricing_plan_id":"cebpf4jnsgd1na2vs0mg"},{"bike_id":"73ceb026-6b50-4e98-b640-97585503568e","system_id":"levelo_inurba_marseille","lat":43.25712,"lon":5.4111,"is_reserved":false,"is_disabled":false,"rental_uris":{"android":"levelo://app?vid=73ceb026-6b50-4e98-b640-97585503568e","ios":"levelo://app?vid=73ceb026-6b50-4e98-b640-97585503568e"},"vehicle_type_id":"4","last_reported":1726711710,"current_range_meters":38800,"station_id":"ce4bhkp2rcd13ifvqgd0","pricing_plan_id":"cebpf4jnsgd1na2vs0mg"},{"bike_id":"ebaa7e84-5f69-4efe-8e95-7ff79c4a8283","system_id":"levelo_inurba_marseille","lat":43.28075,"lon":5.3965,"is_reserved":false,"is_disabled":false,"rental_uris":{"android":"levelo://app?vid=ebaa7e84-5f69-4efe-8e95-7ff79c4a8283","ios":"levelo://app?vid=ebaa7e84-5f69-4efe-8e95-7ff79c4a8283"},"vehicle_type_id":"4","last_reported":1726711710,"current_range_meters":37600,"station_id":"ce4bho12rcd13ifvqh2g","pricing_plan_id":"cebpf4jnsgd1na2vs0mg"},{"bike_id":"7f85c424-76bf-4e62-aa08-945834d9fa36","system_id":"levelo_inurba_marseille","lat":43.30496,"lon":5.37888,"is_reserved":false,"is_disabled":false,"rental_uris":{"android":"levelo://app?vid=7f85c424-76bf-4e62-aa08-945834d9fa36","ios":"levelo://app?vid=7f85c424-76bf-4e62-aa08-945834d9fa36"},"vehicle_type_id":"4","last_reported":1726711710,"current_range_meters":36000,"station_id":"ce4bgup2rcd13ifvqcn0","pricing_plan_id":"cebpf4jnsgd1na2vs0mg"},{"bike_id":"f90f04c6-274c-48a8-ac9c-065da2a7b181","system_id":"levelo_inurba_marseille","lat":43.24075,"lon":5.37743,"is_reserved":false,"is_disabled":false,"rental_uris":{"android":"levelo://app?vid=f90f04c6-274c-48a8-ac9c-065da2a7b181","ios":"levelo://app?vid=f90f04c6-274c-48a8-ac9c-065da2a7b181"},"vehicle_type_id":"4","last_reported":1726711710,"current_range_meters":8400,"station_id":"ce4bhnp2rcd13ifvqgvg","pricing_plan_id":"cebpf4jnsgd1na2vs0mg"},{"bike_id":"55fed244-caf4-46e6-99fc-fcd916ddb5b7","system_id":"levelo_inurba_marseille","lat":43.23215,"lon":5.35547,"is_reserved":false,"is_disabled":false,"rental_uris":{"android":"levelo://app?vid=55fed244-caf4-46e6-99fc-fcd916ddb5b7","ios":"levelo://app?vid=55fed244-caf4-46e6-99fc-fcd916ddb5b7"},"vehicle_type_id":"4","last_reported":1726711710,"current_range_meters":22000,"station_id":"ce4bhu92rcd13ifvqi70","pricing_plan_id":"cebpf4jnsgd1na2vs0mg"},{"bike_id":"754f3d71-9516-4ff2-92f0-7afad2200317","system_id":"levelo_inurba_marseille","lat":43.30259,"lon":5.40072,"is_reserved":false,"is_disabled":false,"rental_uris":{"android":"levelo://app?vid=754f3d71-9516-4ff2-92f0-7afad2200317","ios":"levelo://app?vid=754f3d71-9516-4ff2-92f0-7afad2200317"},"vehicle_type_id":"4","last_reported":1726711710,"current_range_meters":36800,"station_id":"ce4bgvh2rcd13ifvqcs0","pricing_plan_id":"cebpf4jnsgd1na2vs0mg"},{"bike_id":"4d6f430e-a89c-4f5a-a87a-ca0e6d05c74c","system_id":"levelo_inurba_marseille","lat":43.25985,"lon":5.40814,"is_reserved":false,"is_disabled":false,"rental_uris":{"android":"levelo://app?vid=4d6f430e-a89c-4f5a-a87a-ca0e6d05c74c","ios":"levelo://app?vid=4d6f430e-a89c-4f5a-a87a-ca0e6d05c74c"},"vehicle_type_id":"4","last_reported":1726711710,"current_range_meters":32000,"station_id":"","pricing_plan_id":"cebpf4jnsgd1na2vs0mg"},{"bike_id":"21a7c1b2-4865-4949-850c-bd549c3501b6","system_id":"levelo_inurba_marseille","lat":43.30806,"lon":5.38162,"is_reserved":false,"is_disabled":false,"rental_uris":{"android":"levelo://app?vid=21a7c1b2-4865-4949-850c-bd549c3501b6","ios":"levelo://app?vid=21a7c1b2-4865-4949-850c-bd549c3501b6"},"vehicle_type_id":"4","last_reported":1726711710,"current_range_meters":29600,"station_id":"ce4bgt12rcd13ifvqce0","pricing_plan_id":"cebpf4jnsgd1na2vs0mg"},{"bike_id":"62e335eb-aaec-4647-b7e9-321a9f4dff46","system_id":"levelo_inurba_marseille","lat":43.2845,"lon":5.35879,"is_reserved":false,"is_disabled":false,"rental_uris":{"android":"levelo://app?vid=62e335eb-aaec-4647-b7e9-321a9f4dff46","ios":"levelo://app?vid=62e335eb-aaec-4647-b7e9-321a9f4dff46"},"vehicle_type_id":"4","last_reported":1726711710,"current_range_meters":38400,"station_id":"ce4bhah2rcd13ifvqei0","pricing_plan_id":"cebpf4jnsgd1na2vs0mg"},{"bike_id":"40677273-c62c-4355-8bfb-53785b38cb70","system_id":"levelo_inurba_marseille","lat":43.28709,"lon":5.39991,"is_reserved":false,"is_disabled":false,"rental_uris":{"android":"levelo://app?vid=40677273-c62c-4355-8bfb-53785b38cb70","ios":"levelo://app?vid=40677273-c62c-4355-8bfb-53785b38cb70"},"vehicle_type_id":"4","last_reported":1726711710,"current_range_meters":35200,"station_id":"ce4bho92rcd13ifvqh3g","pricing_plan_id":"cebpf4jnsgd1na2vs0mg"},{"bike_id":"3e5ce477-7f69-4c9f-bf73-e98e38620e8a","system_id":"levelo_inurba_marseille","lat":43.31764,"lon":5.39014,"is_reserved":false,"is_disabled":false,"rental_uris":{"android":"levelo://app?vid=3e5ce477-7f69-4c9f-bf73-e98e38620e8a","ios":"levelo://app?vid=3e5ce477-7f69-4c9f-bf73-e98e38620e8a"},"vehicle_type_id":"4","last_reported":1726711710,"current_range_meters":39200,"station_id":"ce4bhqp2rcd13ifvqhng","pricing_plan_id":"cebpf4jnsgd1na2vs0mg"},{"bike_id":"e74c4f8b-67ba-4f9c-8c2c-94e7f2cd3264","system_id":"levelo_inurba_marseille","lat":43.28107,"lon":5.37827,"is_reserved":false,"is_disabled":false,"rental_uris":{"android":"levelo://app?vid=e74c4f8b-67ba-4f9c-8c2c-94e7f2cd3264","ios":"levelo://app?vid=e74c4f8b-67ba-4f9c-8c2c-94e7f2cd3264"},"vehicle_type_id":"4","last_reported":1726711710,"current_range_meters":28000,"station_id":"ce4bha12rcd13ifvqee0","pricing_plan_id":"cebpf4jnsgd1na2vs0mg"},{"bike_id":"677498c9-746b-4650-9a8e-2c7479635944","system_id":"levelo_inurba_marseille","lat":43.33024,"lon":5.39036,"is_reserved":false,"is_disabled":false,"rental_uris":{"android":"levelo://app?vid=677498c9-746b-4650-9a8e-2c7479635944","ios":"levelo://app?vid=677498c9-746b-4650-9a8e-2c7479635944"},"vehicle_type_id":"4","last_reported":1726711710,"current_range_meters":10800,"station_id":"ce4bhr92rcd13ifvqhrg","pricing_plan_id":"cebpf4jnsgd1na2vs0mg"},{"bike_id":"cbeedc7e-fdd0-4a52-877a-44d39f8f32fa","system_id":"levelo_inurba_marseille","lat":43.29584,"lon":5.36743,"is_reserved":false,"is_disabled":false,"rental_uris":{"android":"levelo://app?vid=cbeedc7e-fdd0-4a52-877a-44d39f8f32fa","ios":"levelo://app?vid=cbeedc7e-fdd0-4a52-877a-44d39f8f32fa"},"vehicle_type_id":"4","last_reported":1726711710,"current_range_meters":36400,"station_id":"ce4bgph2rcd13ifvqc2g","pricing_plan_id":"cebpf4jnsgd1na2vs0mg"},{"bike_id":"bee0e7c0-a7b3-4aa5-ab3e-0f242b502b94","system_id":"levelo_inurba_marseille","lat":43.31066,"lon":5.38357,"is_reserved":false,"is_disabled":false,"rental_uris":{"android":"levelo://app?vid=bee0e7c0-a7b3-4aa5-ab3e-0f242b502b94","ios":"levelo://app?vid=bee0e7c0-a7b3-4aa5-ab3e-0f242b502b94"},"vehicle_type_id":"4","last_reported":1726711710,"current_range_meters":9600,"station_id":"ce4bgv92rcd13ifvqcr0","pricing_plan_id":"cebpf4jnsgd1na2vs0mg"},{"bike_id":"3e99e2ac-cdfd-4893-be50-20dbb5272dd6","system_id":"levelo_inurba_marseille","lat":43.30798,"lon":5.43514,"is_reserved":false,"is_disabled":false,"rental_uris":{"android":"levelo://app?vid=3e99e2ac-cdfd-4893-be50-20dbb5272dd6","ios":"levelo://app?vid=3e99e2ac-cdfd-4893-be50-20dbb5272dd6"},"vehicle_type_id":"4","last_reported":1726711710,"current_range_meters":38800,"station_id":"ce4bhph2rcd13ifvqheg","pricing_plan_id":"cebpf4jnsgd1na2vs0mg"},{"bike_id":"7d1ee808-291a-4e08-9c9a-7318984664a1","system_id":"levelo_inurba_marseille","lat":43.30886,"lon":5.37191,"is_reserved":false,"is_disabled":false,"rental_uris":{"android":"levelo://app?vid=7d1ee808-291a-4e08-9c9a-7318984664a1","ios":"levelo://app?vid=7d1ee808-291a-4e08-9c9a-7318984664a1"},"vehicle_type_id":"4","last_reported":1726711710,"current_range_meters":33600,"station_id":"ce4bguh2rcd13ifvqckg","pricing_plan_id":"cebpf4jnsgd1na2vs0mg"},{"bike_id":"af627a65-999b-4825-8c8e-4ee52f7513d4","system_id":"levelo_inurba_marseille","lat":43.30891,"lon":5.39647,"is_reserved":false,"is_disabled":false,"rental_uris":{"android":"levelo://app?vid=af627a65-999b-4825-8c8e-4ee52f7513d4","ios":"levelo://app?vid=af627a65-999b-4825-8c8e-4ee52f7513d4"},"vehicle_type_id":"4","last_reported":1726711710,"current_range_meters":38800,"station_id":"ce4bh012rcd13ifvqcv0","pricing_plan_id":"cebpf4jnsgd1na2vs0mg"},{"bike_id":"2cbb6dd5-2ec8-4ba5-808a-c5301f897d27","system_id":"levelo_inurba_marseille","lat":43.2395,"lon":5.36646,"is_reserved":false,"is_disabled":false,"rental_uris":{"android":"levelo://app?vid=2cbb6dd5-2ec8-4ba5-808a-c5301f897d27","ios":"levelo://app?vid=2cbb6dd5-2ec8-4ba5-808a-c5301f897d27"},"vehicle_type_id":"4","last_reported":1726711710,"current_range_meters":24400,"station_id":"ce4bhi12rcd13ifvqfp0","pricing_plan_id":"cebpf4jnsgd1na2vs0mg"},{"bike_id":"cee094fc-e9f3-478e-a7a4-2586f5a0a195","system_id":"levelo_inurba_marseille","lat":43.28578,"lon":5.3948,"is_reserved":false,"is_disabled":false,"rental_uris":{"android":"levelo://app?vid=cee094fc-e9f3-478e-a7a4-2586f5a0a195","ios":"levelo://app?vid=cee094fc-e9f3-478e-a7a4-2586f5a0a195"},"vehicle_type_id":"4","last_reported":1726711710,"current_range_meters":38400,"station_id":"ce4bh292rcd13ifvqdg0","pricing_plan_id":"cebpf4jnsgd1na2vs0mg"},{"bike_id":"f5ddcaf2-4df3-4791-8314-9ff825829baa","system_id":"levelo_inurba_marseille","lat":43.28457,"lon":5.3591,"is_reserved":false,"is_disabled":false,"rental_uris":{"android":"levelo://app?vid=f5ddcaf2-4df3-4791-8314-9ff825829baa","ios":"levelo://app?vid=f5ddcaf2-4df3-4791-8314-9ff825829baa"},"vehicle_type_id":"4","last_reported":1726711710,"current_range_meters":24400,"station_id":"ce4bhah2rcd13ifvqei0","pricing_plan_id":"cebpf4jnsgd1na2vs0mg"},{"bike_id":"2681092f-5c7e-4a6b-9c0c-f39edeb78b76","system_id":"levelo_inurba_marseille","lat":43.24164,"lon":5.39721,"is_reserved":false,"is_disabled":false,"rental_uris":{"android":"levelo://app?vid=2681092f-5c7e-4a6b-9c0c-f39edeb78b76","ios":"levelo://app?vid=2681092f-5c7e-4a6b-9c0c-f39edeb78b76"},"vehicle_type_id":"4","last_reported":1726711710,"current_range_meters":38800,"station_id":"ce4bhn12rcd13ifvqgpg","pricing_plan_id":"cebpf4jnsgd1na2vs0mg"},{"bike_id":"1478a44f-74d8-48d2-a01f-74a3a0b9df5a","system_id":"levelo_inurba_marseille","lat":43.31271,"lon":5.40179,"is_reserved":false,"is_disabled":false,"rental_uris":{"android":"levelo://app?vid=1478a44f-74d8-48d2-a01f-74a3a0b9df5a","ios":"levelo://app?vid=1478a44f-74d8-48d2-a01f-74a3a0b9df5a"},"vehicle_type_id":"4","last_reported":1726711710,"current_range_meters":39200,"station_id":"ce4bh092rcd13ifvqd30","pricing_plan_id":"cebpf4jnsgd1na2vs0mg"},{"bike_id":"3d933b8e-67b6-4b5d-be72-7523e1cd1af2","system_id":"levelo_inurba_marseille","lat":43.2846,"lon":5.35907,"is_reserved":false,"is_disabled":false,"rental_uris":{"android":"levelo://app?vid=3d933b8e-67b6-4b5d-be72-7523e1cd1af2","ios":"levelo://app?vid=3d933b8e-67b6-4b5d-be72-7523e1cd1af2"},"vehicle_type_id":"4","last_reported":1726711710,"current_range_meters":30400,"station_id":"ce4bhah2rcd13ifvqei0","pricing_plan_id":"cebpf4jnsgd1na2vs0mg"},{"bike_id":"d1192baf-bcb5-4108-a265-bbfa58c9cc61","system_id":"levelo_inurba_marseille","lat":43.25117,"lon":5.40318,"is_reserved":false,"is_disabled":false,"rental_uris":{"android":"levelo://app?vid=d1192baf-bcb5-4108-a265-bbfa58c9cc61","ios":"levelo://app?vid=d1192baf-bcb5-4108-a265-bbfa58c9cc61"},"vehicle_type_id":"4","last_reported":1726711710,"current_range_meters":38800,"station_id":"ce4bhlh2rcd13ifvqgig","pricing_plan_id":"cebpf4jnsgd1na2vs0mg"},{"bike_id":"10074ca6-1985-4939-a802-8c358e57d5bb","system_id":"levelo_inurba_marseille","lat":43.31879,"lon":5.40711,"is_reserved":false,"is_disabled":false,"rental_uris":{"android":"levelo://app?vid=10074ca6-1985-4939-a802-8c358e57d5bb","ios":"levelo://app?vid=10074ca6-1985-4939-a802-8c358e57d5bb"},"vehicle_type_id":"4","last_reported":1726711710,"current_range_meters":23200,"station_id":"ce4bhq12rcd13ifvqhig","pricing_plan_id":"cebpf4jnsgd1na2vs0mg"},{"bike_id":"52fffaf1-dd98-4e0a-a39d-48011512624f","system_id":"levelo_inurba_marseille","lat":43.255,"lon":5.37651,"is_reserved":false,"is_disabled":false,"rental_uris":{"android":"levelo://app?vid=52fffaf1-dd98-4e0a-a39d-48011512624f","ios":"levelo://app?vid=52fffaf1-dd98-4e0a-a39d-48011512624f"},"vehicle_type_id":"4","last_reported":1726711710,"current_range_meters":30800,"station_id":"ce4bhh12rcd13ifvqff0","pricing_plan_id":"cebpf4jnsgd1na2vs0mg"},{"bike_id":"3205e03c-bec2-4d68-b1b4-eee8e47f9795","system_id":"levelo_inurba_marseille","lat":43.29905,"lon":5.37486,"is_reserved":false,"is_disabled":false,"rental_uris":{"android":"levelo://app?vid=3205e03c-bec2-4d68-b1b4-eee8e47f9795","ios":"levelo://app?vid=3205e03c-bec2-4d68-b1b4-eee8e47f9795"},"vehicle_type_id":"4","last_reported":1726711710,"current_range_meters":36800,"station_id":"ce4bgjh2rcd13ifvqbg0","pricing_plan_id":"cebpf4jnsgd1na2vs0mg"},{"bike_id":"de268f51-9584-4adc-87a7-5847e45d9d4d","system_id":"levelo_inurba_marseille","lat":43.3041,"lon":5.41297,"is_reserved":false,"is_disabled":false,"rental_uris":{"android":"levelo://app?vid=de268f51-9584-4adc-87a7-5847e45d9d4d","ios":"levelo://app?vid=de268f51-9584-4adc-87a7-5847e45d9d4d"},"vehicle_type_id":"4","last_reported":1726711710,"current_range_meters":38000,"station_id":"ce4bhop2rcd13ifvqh8g","pricing_plan_id":"cebpf4jnsgd1na2vs0mg"},{"bike_id":"998ddacb-a930-414c-8e03-6e6d234ecf40","system_id":"levelo_inurba_marseille","lat":43.30415,"lon":5.41282,"is_reserved":false,"is_disabled":false,"rental_uris":{"android":"levelo://app?vid=998ddacb-a930-414c-8e03-6e6d234ecf40","ios":"levelo://app?vid=998ddacb-a930-414c-8e03-6e6d234ecf40"},"vehicle_type_id":"4","last_reported":1726711710,"current_range_meters":36000,"station_id":"ce4bhop2rcd13ifvqh8g","pricing_plan_id":"cebpf4jnsgd1na2vs0mg"},{"bike_id":"792c2cbf-6092-4748-9d3d-35dc9decb089","system_id":"levelo_inurba_marseille","lat":43.30867,"lon":5.39612,"is_reserved":false,"is_disabled":false,"rental_uris":{"android":"levelo://app?vid=792c2cbf-6092-4748-9d3d-35dc9decb089","ios":"levelo://app?vid=792c2cbf-6092-4748-9d3d-35dc9decb089"},"vehicle_type_id":"4","last_reported":1726711710,"current_range_meters":38800,"station_id":"ce4bh012rcd13ifvqcv0","pricing_plan_id":"cebpf4jnsgd1na2vs0mg"},{"bike_id":"37804655-3b91-46a3-b91b-1ceef89e4f83","system_id":"levelo_inurba_marseille","lat":43.28457,"lon":5.35882,"is_reserved":false,"is_disabled":false,"rental_uris":{"android":"levelo://app?vid=37804655-3b91-46a3-b91b-1ceef89e4f83","ios":"levelo://app?vid=37804655-3b91-46a3-b91b-1ceef89e4f83"},"vehicle_type_id":"4","last_reported":1726711710,"current_range_meters":6000,"station_id":"ce4bhah2rcd13ifvqei0","pricing_plan_id":"cebpf4jnsgd1na2vs0mg"},{"bike_id":"4db52eb6-98ee-4a84-af00-f7fac3c0feba","system_id":"levelo_inurba_marseille","lat":43.28458,"lon":5.35884,"is_reserved":false,"is_disabled":false,"rental_uris":{"android":"levelo://app?vid=4db52eb6-98ee-4a84-af00-f7fac3c0feba","ios":"levelo://app?vid=4db52eb6-98ee-4a84-af00-f7fac3c0feba"},"vehicle_type_id":"4","last_reported":1726711710,"current_range_meters":6400,"station_id":"ce4bhah2rcd13ifvqei0","pricing_plan_id":"cebpf4jnsgd1na2vs0mg"},{"bike_id":"d37aa318-9eec-42e5-ad66-edcb803356f0","system_id":"levelo_inurba_marseille","lat":43.27797,"lon":5.42803,"is_reserved":false,"is_disabled":false,"rental_uris":{"android":"levelo://app?vid=d37aa318-9eec-42e5-ad66-edcb803356f0","ios":"levelo://app?vid=d37aa318-9eec-42e5-ad66-edcb803356f0"},"vehicle_type_id":"4","last_reported":1726711710,"current_range_meters":6800,"station_id":"","pricing_plan_id":"cebpf4jnsgd1na2vs0mg"},{"bike_id":"b51480c2-9b9c-41e3-9bfc-f3e2a0ce7444","system_id":"levelo_inurba_marseille","lat":43.23188,"lon":5.35546,"is_reserved":false,"is_disabled":false,"rental_uris":{"android":"levelo://app?vid=b51480c2-9b9c-41e3-9bfc-f3e2a0ce7444","ios":"levelo://app?vid=b51480c2-9b9c-41e3-9bfc-f3e2a0ce7444"},"vehicle_type_id":"4","last_reported":1726711710,"current_range_meters":38800,"station_id":"ce4bhu92rcd13ifvqi70","pricing_plan_id":"cebpf4jnsgd1na2vs0mg"},{"bike_id":"6e6af154-aff3-4ede-8e20-d77df68958a4","system_id":"levelo_inurba_marseille","lat":43.29523,"lon":5.39372,"is_reserved":false,"is_disabled":false,"rental_uris":{"android":"levelo://app?vid=6e6af154-aff3-4ede-8e20-d77df68958a4","ios":"levelo://app?vid=6e6af154-aff3-4ede-8e20-d77df68958a4"},"vehicle_type_id":"4","last_reported":1726711710,"current_range_meters":38000,"station_id":"ce4bh292rcd13ifvqdf0","pricing_plan_id":"cebpf4jnsgd1na2vs0mg"},{"bike_id":"7af526d4-4d53-49d1-9508-ce39f7f94724","system_id":"levelo_inurba_marseille","lat":43.2927,"lon":5.38467,"is_reserved":false,"is_disabled":false,"rental_uris":{"android":"levelo://app?vid=7af526d4-4d53-49d1-9508-ce39f7f94724","ios":"levelo://app?vid=7af526d4-4d53-49d1-9508-ce39f7f94724"},"vehicle_type_id":"4","last_reported":1726711710,"current_range_meters":38800,"station_id":"ce4bh692rcd13ifvqea0","pricing_plan_id":"cebpf4jnsgd1na2vs0mg"},{"bike_id":"fc7f8545-7ad0-47c8-aa10-6c11238ab170","system_id":"levelo_inurba_marseille","lat":43.30782,"lon":5.37666,"is_reserved":false,"is_disabled":false,"rental_uris":{"android":"levelo://app?vid=fc7f8545-7ad0-47c8-aa10-6c11238ab170","ios":"levelo://app?vid=fc7f8545-7ad0-47c8-aa10-6c11238ab170"},"vehicle_type_id":"4","last_reported":1726711710,"current_range_meters":38800,"station_id":"ce4bgv92rcd13ifvqcq0","pricing_plan_id":"cebpf4jnsgd1na2vs0mg"},{"bike_id":"99207ce7-6e05-4cba-9ee3-b73cf3c7bc9b","system_id":"levelo_inurba_marseille","lat":43.28068,"lon":5.39643,"is_reserved":false,"is_disabled":false,"rental_uris":{"android":"levelo://app?vid=99207ce7-6e05-4cba-9ee3-b73cf3c7bc9b","ios":"levelo://app?vid=99207ce7-6e05-4cba-9ee3-b73cf3c7bc9b"},"vehicle_type_id":"4","last_reported":1726711710,"current_range_meters":33600,"station_id":"ce4bho12rcd13ifvqh2g","pricing_plan_id":"cebpf4jnsgd1na2vs0mg"},{"bike_id":"93ba4ede-58ab-412a-bc91-fb80ea0cb912","system_id":"levelo_inurba_marseille","lat":43.30881,"lon":5.39638,"is_reserved":false,"is_disabled":false,"rental_uris":{"android":"levelo://app?vid=93ba4ede-58ab-412a-bc91-fb80ea0cb912","ios":"levelo://app?vid=93ba4ede-58ab-412a-bc91-fb80ea0cb912"},"vehicle_type_id":"4","last_reported":1726711710,"current_range_meters":12000,"station_id":"ce4bh012rcd13ifvqcv0","pricing_plan_id":"cebpf4jnsgd1na2vs0mg"},{"bike_id":"2b714e73-49f8-4f26-bb6d-7d72ce23aabc","system_id":"levelo_inurba_marseille","lat":43.23051,"lon":5.35491,"is_reserved":false,"is_disabled":false,"rental_uris":{"android":"levelo://app?vid=2b714e73-49f8-4f26-bb6d-7d72ce23aabc","ios":"levelo://app?vid=2b714e73-49f8-4f26-bb6d-7d72ce23aabc"},"vehicle_type_id":"4","last_reported":1726711710,"current_range_meters":5600,"station_id":"cpo3342slgdg3j2ifvpg","pricing_plan_id":"cebpf4jnsgd1na2vs0mg"},{"bike_id":"aaa9860e-7f0a-4e29-a689-c35352e15701","system_id":"levelo_inurba_marseille","lat":43.31062,"lon":5.38371,"is_reserved":false,"is_disabled":false,"rental_uris":{"android":"levelo://app?vid=aaa9860e-7f0a-4e29-a689-c35352e15701","ios":"levelo://app?vid=aaa9860e-7f0a-4e29-a689-c35352e15701"},"vehicle_type_id":"4","last_reported":1726711710,"current_range_meters":19600,"station_id":"ce4bgv92rcd13ifvqcr0","pricing_plan_id":"cebpf4jnsgd1na2vs0mg"},{"bike_id":"e83172ba-34b9-4e83-8493-d5f27864064b","system_id":"levelo_inurba_marseille","lat":43.28105,"lon":5.3783,"is_reserved":false,"is_disabled":false,"rental_uris":{"android":"levelo://app?vid=e83172ba-34b9-4e83-8493-d5f27864064b","ios":"levelo://app?vid=e83172ba-34b9-4e83-8493-d5f27864064b"},"vehicle_type_id":"4","last_reported":1726711710,"current_range_meters":38000,"station_id":"ce4bha12rcd13ifvqee0","pricing_plan_id":"cebpf4jnsgd1na2vs0mg"},{"bike_id":"ea4ac0e3-12d4-431b-98e4-c106fd19368f","system_id":"levelo_inurba_marseille","lat":43.27197,"lon":5.40986,"is_reserved":false,"is_disabled":false,"rental_uris":{"android":"levelo://app?vid=ea4ac0e3-12d4-431b-98e4-c106fd19368f","ios":"levelo://app?vid=ea4ac0e3-12d4-431b-98e4-c106fd19368f"},"vehicle_type_id":"4","last_reported":1726711710,"current_range_meters":35600,"station_id":"ce4bhl12rcd13ifvqgf0","pricing_plan_id":"cebpf4jnsgd1na2vs0mg"},{"bike_id":"88c89d81-1a10-47ab-a150-a989251d7a76","system_id":"levelo_inurba_marseille","lat":43.25868,"lon":5.39905,"is_reserved":false,"is_disabled":false,"rental_uris":{"android":"levelo://app?vid=88c89d81-1a10-47ab-a150-a989251d7a76","ios":"levelo://app?vid=88c89d81-1a10-47ab-a150-a989251d7a76"},"vehicle_type_id":"4","last_reported":1726711710,"current_range_meters":5600,"station_id":"ce4bhl92rcd13ifvqghg","pricing_plan_id":"cebpf4jnsgd1na2vs0mg"},{"bike_id":"2e64ac77-37d0-42c4-9b89-df897b66197d","system_id":"levelo_inurba_marseille","lat":43.29972,"lon":5.41311,"is_reserved":false,"is_disabled":false,"rental_uris":{"android":"levelo://app?vid=2e64ac77-37d0-42c4-9b89-df897b66197d","ios":"levelo://app?vid=2e64ac77-37d0-42c4-9b89-df897b66197d"},"vehicle_type_id":"4","last_reported":1726711710,"current_range_meters":38800,"station_id":"ce4bhp12rcd13ifvqh9g","pricing_plan_id":"cebpf4jnsgd1na2vs0mg"},{"bike_id":"451cd4e6-d747-4d42-b652-d593351ccec4","system_id":"levelo_inurba_marseille","lat":43.24385,"lon":5.37054,"is_reserved":false,"is_disabled":false,"rental_uris":{"android":"levelo://app?vid=451cd4e6-d747-4d42-b652-d593351ccec4","ios":"levelo://app?vid=451cd4e6-d747-4d42-b652-d593351ccec4"},"vehicle_type_id":"4","last_reported":1726711710,"current_range_meters":36800,"station_id":"ce4bhhh2rcd13ifvqfk0","pricing_plan_id":"cebpf4jnsgd1na2vs0mg"},{"bike_id":"59fbe0c1-3e23-478b-af85-53d14385768b","system_id":"levelo_inurba_marseille","lat":43.31093,"lon":5.42434,"is_reserved":false,"is_disabled":false,"rental_uris":{"android":"levelo://app?vid=59fbe0c1-3e23-478b-af85-53d14385768b","ios":"levelo://app?vid=59fbe0c1-3e23-478b-af85-53d14385768b"},"vehicle_type_id":"4","last_reported":1726711710,"current_range_meters":38800,"station_id":"ce4bhp92rcd13ifvqhag","pricing_plan_id":"cebpf4jnsgd1na2vs0mg"},{"bike_id":"13b57b80-59e8-43e9-b969-57ed41f63348","system_id":"levelo_inurba_marseille","lat":43.28409,"lon":5.3752,"is_reserved":false,"is_disabled":false,"rental_uris":{"android":"levelo://app?vid=13b57b80-59e8-43e9-b969-57ed41f63348","ios":"levelo://app?vid=13b57b80-59e8-43e9-b969-57ed41f63348"},"vehicle_type_id":"4","last_reported":1726711710,"current_range_meters":10000,"station_id":"ce4bh412rcd13ifvqds0","pricing_plan_id":"cebpf4jnsgd1na2vs0mg"},{"bike_id":"ae9e0c62-1af7-4e3f-ba33-3af442c40e0b","system_id":"levelo_inurba_marseille","lat":43.27613,"lon":5.36126,"is_reserved":false,"is_disabled":false,"rental_uris":{"android":"levelo://app?vid=ae9e0c62-1af7-4e3f-ba33-3af442c40e0b","ios":"levelo://app?vid=ae9e0c62-1af7-4e3f-ba33-3af442c40e0b"},"vehicle_type_id":"4","last_reported":1726711710,"current_range_meters":38800,"station_id":"ce4bgj92rcd13ifvqbe0","pricing_plan_id":"cebpf4jnsgd1na2vs0mg"},{"bike_id":"ce5845d5-eb1d-4d83-91fd-1f7cf09f0a6c","system_id":"levelo_inurba_marseille","lat":43.310819,"lon":5.424293,"is_reserved":false,"is_disabled":false,"rental_uris":{"android":"levelo://app?vid=ce5845d5-eb1d-4d83-91fd-1f7cf09f0a6c","ios":"levelo://app?vid=ce5845d5-eb1d-4d83-91fd-1f7cf09f0a6c"},"vehicle_type_id":"4","last_reported":1726711710,"current_range_meters":15200,"station_id":"ce4bhp92rcd13ifvqhag","pricing_plan_id":"cebpf4jnsgd1na2vs0mg"},{"bike_id":"965d8976-302f-4510-81d4-1368c6090897","system_id":"levelo_inurba_marseille","lat":43.31175,"lon":5.38715,"is_reserved":false,"is_disabled":false,"rental_uris":{"android":"levelo://app?vid=965d8976-302f-4510-81d4-1368c6090897","ios":"levelo://app?vid=965d8976-302f-4510-81d4-1368c6090897"},"vehicle_type_id":"4","last_reported":1726711710,"current_range_meters":38800,"station_id":"ce4bgv12rcd13ifvqcp0","pricing_plan_id":"cebpf4jnsgd1na2vs0mg"},{"bike_id":"814c3ad7-ae62-4a71-888b-ee4b0342d150","system_id":"levelo_inurba_marseille","lat":43.31764,"lon":5.39003,"is_reserved":false,"is_disabled":false,"rental_uris":{"android":"levelo://app?vid=814c3ad7-ae62-4a71-888b-ee4b0342d150","ios":"levelo://app?vid=814c3ad7-ae62-4a71-888b-ee4b0342d150"},"vehicle_type_id":"4","last_reported":1726711710,"current_range_meters":38800,"station_id":"ce4bhqp2rcd13ifvqhng","pricing_plan_id":"cebpf4jnsgd1na2vs0mg"},{"bike_id":"900bdbb4-aec8-4224-af5c-48f9085f93e9","system_id":"levelo_inurba_marseille","lat":43.24812,"lon":5.37461,"is_reserved":false,"is_disabled":false,"rental_uris":{"android":"levelo://app?vid=900bdbb4-aec8-4224-af5c-48f9085f93e9","ios":"levelo://app?vid=900bdbb4-aec8-4224-af5c-48f9085f93e9"},"vehicle_type_id":"4","last_reported":1726711710,"current_range_meters":37600,"station_id":"ce4bhgh2rcd13ifvqfb0","pricing_plan_id":"cebpf4jnsgd1na2vs0mg"},{"bike_id":"17491914-def0-49f5-8a8b-d4782f5db957","system_id":"levelo_inurba_marseille","lat":43.248,"lon":5.3745,"is_reserved":false,"is_disabled":false,"rental_uris":{"android":"levelo://app?vid=17491914-def0-49f5-8a8b-d4782f5db957","ios":"levelo://app?vid=17491914-def0-49f5-8a8b-d4782f5db957"},"vehicle_type_id":"4","last_reported":1726711710,"current_range_meters":38000,"station_id":"ce4bhgh2rcd13ifvqfb0","pricing_plan_id":"cebpf4jnsgd1na2vs0mg"},{"bike_id":"77074632-cbcb-408d-8a14-c04101b78677","system_id":"levelo_inurba_marseille","lat":43.30442,"lon":5.38893,"is_reserved":false,"is_disabled":false,"rental_uris":{"android":"levelo://app?vid=77074632-cbcb-408d-8a14-c04101b78677","ios":"levelo://app?vid=77074632-cbcb-408d-8a14-c04101b78677"},"vehicle_type_id":"4","last_reported":1726711710,"current_range_meters":39200,"station_id":"ce4bgk12rcd13ifvqbi0","pricing_plan_id":"cebpf4jnsgd1na2vs0mg"},{"bike_id":"d9c1a794-40a3-4d0f-abc8-56edb999af39","system_id":"levelo_inurba_marseille","lat":43.28455,"lon":5.35881,"is_reserved":false,"is_disabled":false,"rental_uris":{"android":"levelo://app?vid=d9c1a794-40a3-4d0f-abc8-56edb999af39","ios":"levelo://app?vid=d9c1a794-40a3-4d0f-abc8-56edb999af39"},"vehicle_type_id":"4","last_reported":1726711710,"current_range_meters":34000,"station_id":"ce4bhah2rcd13ifvqei0","pricing_plan_id":"cebpf4jnsgd1na2vs0mg"},{"bike_id":"02c639a4-fe62-499a-a69a-f474d98d7667","system_id":"levelo_inurba_marseille","lat":43.28461,"lon":5.35891,"is_reserved":false,"is_disabled":false,"rental_uris":{"android":"levelo://app?vid=02c639a4-fe62-499a-a69a-f474d98d7667","ios":"levelo://app?vid=02c639a4-fe62-499a-a69a-f474d98d7667"},"vehicle_type_id":"4","last_reported":1726711710,"current_range_meters":37600,"station_id":"ce4bhah2rcd13ifvqei0","pricing_plan_id":"cebpf4jnsgd1na2vs0mg"},{"bike_id":"fcebcf63-b320-4f6b-a46f-b56e14268634","system_id":"levelo_inurba_marseille","lat":43.28406,"lon":5.37538,"is_reserved":false,"is_disabled":false,"rental_uris":{"android":"levelo://app?vid=fcebcf63-b320-4f6b-a46f-b56e14268634","ios":"levelo://app?vid=fcebcf63-b320-4f6b-a46f-b56e14268634"},"vehicle_type_id":"4","last_reported":1726711710,"current_range_meters":32400,"station_id":"ce4bh412rcd13ifvqds0","pricing_plan_id":"cebpf4jnsgd1na2vs0mg"},{"bike_id":"6dd17a2f-59bb-4453-859d-2c09ab795824","system_id":"levelo_inurba_marseille","lat":43.33023,"lon":5.39041,"is_reserved":false,"is_disabled":false,"rental_uris":{"android":"levelo://app?vid=6dd17a2f-59bb-4453-859d-2c09ab795824","ios":"levelo://app?vid=6dd17a2f-59bb-4453-859d-2c09ab795824"},"vehicle_type_id":"4","last_reported":1726711710,"current_range_meters":20400,"station_id":"ce4bhr92rcd13ifvqhrg","pricing_plan_id":"cebpf4jnsgd1na2vs0mg"},{"bike_id":"682c326f-9756-4537-a3eb-f525cbc855ff","system_id":"levelo_inurba_marseille","lat":43.25716,"lon":5.41116,"is_reserved":false,"is_disabled":false,"rental_uris":{"android":"levelo://app?vid=682c326f-9756-4537-a3eb-f525cbc855ff","ios":"levelo://app?vid=682c326f-9756-4537-a3eb-f525cbc855ff"},"vehicle_type_id":"4","last_reported":1726711710,"current_range_meters":38800,"station_id":"ce4bhkp2rcd13ifvqgd0","pricing_plan_id":"cebpf4jnsgd1na2vs0mg"},{"bike_id":"5c4240fb-258c-46fa-88e1-337a0cfb2b36","system_id":"levelo_inurba_marseille","lat":43.2846,"lon":5.35889,"is_reserved":false,"is_disabled":false,"rental_uris":{"android":"levelo://app?vid=5c4240fb-258c-46fa-88e1-337a0cfb2b36","ios":"levelo://app?vid=5c4240fb-258c-46fa-88e1-337a0cfb2b36"},"vehicle_type_id":"4","last_reported":1726711710,"current_range_meters":8800,"station_id":"ce4bhah2rcd13ifvqei0","pricing_plan_id":"cebpf4jnsgd1na2vs0mg"},{"bike_id":"53e0cfd4-0852-42ea-b25e-b97d9ecb977f","system_id":"levelo_inurba_marseille","lat":43.27198,"lon":5.39149,"is_reserved":false,"is_disabled":false,"rental_uris":{"android":"levelo://app?vid=53e0cfd4-0852-42ea-b25e-b97d9ecb977f","ios":"levelo://app?vid=53e0cfd4-0852-42ea-b25e-b97d9ecb977f"},"vehicle_type_id":"4","last_reported":1726711710,"current_range_meters":37600,"station_id":"ce4bhhp2rcd13ifvqfm0","pricing_plan_id":"cebpf4jnsgd1na2vs0mg"},{"bike_id":"5a651e55-b2b7-4aa4-a50f-588ae9591e34","system_id":"levelo_inurba_marseille","lat":43.30838,"lon":5.39599,"is_reserved":false,"is_disabled":false,"rental_uris":{"android":"levelo://app?vid=5a651e55-b2b7-4aa4-a50f-588ae9591e34","ios":"levelo://app?vid=5a651e55-b2b7-4aa4-a50f-588ae9591e34"},"vehicle_type_id":"4","last_reported":1726711710,"current_range_meters":25200,"station_id":"","pricing_plan_id":"cebpf4jnsgd1na2vs0mg"},{"bike_id":"f2c95146-36ce-4175-8035-0c4ee99efa92","system_id":"levelo_inurba_marseille","lat":43.23193,"lon":5.35551,"is_reserved":false,"is_disabled":false,"rental_uris":{"android":"levelo://app?vid=f2c95146-36ce-4175-8035-0c4ee99efa92","ios":"levelo://app?vid=f2c95146-36ce-4175-8035-0c4ee99efa92"},"vehicle_type_id":"4","last_reported":1726711710,"current_range_meters":9600,"station_id":"ce4bhu92rcd13ifvqi70","pricing_plan_id":"cebpf4jnsgd1na2vs0mg"},{"bike_id":"a3caa959-3c7d-49c8-96bc-e3bb68eba2bc","system_id":"levelo_inurba_marseille","lat":43.2919,"lon":5.35789,"is_reserved":false,"is_disabled":false,"rental_uris":{"android":"levelo://app?vid=a3caa959-3c7d-49c8-96bc-e3bb68eba2bc","ios":"levelo://app?vid=a3caa959-3c7d-49c8-96bc-e3bb68eba2bc"},"vehicle_type_id":"4","last_reported":1726711710,"current_range_meters":38800,"station_id":"ce4bhb12rcd13ifvqel0","pricing_plan_id":"cebpf4jnsgd1na2vs0mg"},{"bike_id":"5b14412f-5627-4fa0-91b3-50b2be3fc9c5","system_id":"levelo_inurba_marseille","lat":43.25725,"lon":5.41121,"is_reserved":false,"is_disabled":false,"rental_uris":{"android":"levelo://app?vid=5b14412f-5627-4fa0-91b3-50b2be3fc9c5","ios":"levelo://app?vid=5b14412f-5627-4fa0-91b3-50b2be3fc9c5"},"vehicle_type_id":"4","last_reported":1726711710,"current_range_meters":38800,"station_id":"ce4bhkp2rcd13ifvqgd0","pricing_plan_id":"cebpf4jnsgd1na2vs0mg"},{"bike_id":"d03e85eb-7365-49c3-a68a-7545600518d8","system_id":"levelo_inurba_marseille","lat":43.28725,"lon":5.36083,"is_reserved":false,"is_disabled":false,"rental_uris":{"android":"levelo://app?vid=d03e85eb-7365-49c3-a68a-7545600518d8","ios":"levelo://app?vid=d03e85eb-7365-49c3-a68a-7545600518d8"},"vehicle_type_id":"4","last_reported":1726711710,"current_range_meters":38000,"station_id":"cki0cbj6b192h4jlfktg","pricing_plan_id":"cebpf4jnsgd1na2vs0mg"},{"bike_id":"416257b5-8fa4-476a-a45d-2782022bb00f","system_id":"levelo_inurba_marseille","lat":43.28343,"lon":5.38114,"is_reserved":false,"is_disabled":false,"rental_uris":{"android":"levelo://app?vid=416257b5-8fa4-476a-a45d-2782022bb00f","ios":"levelo://app?vid=416257b5-8fa4-476a-a45d-2782022bb00f"},"vehicle_type_id":"4","last_reported":1726711710,"current_range_meters":36400,"station_id":"ce4bh412rcd13ifvqdr0","pricing_plan_id":"cebpf4jnsgd1na2vs0mg"},{"bike_id":"de2f9752-5a0c-44c9-8b7a-1ce62875c38d","system_id":"levelo_inurba_marseille","lat":43.28692,"lon":5.39992,"is_reserved":false,"is_disabled":false,"rental_uris":{"android":"levelo://app?vid=de2f9752-5a0c-44c9-8b7a-1ce62875c38d","ios":"levelo://app?vid=de2f9752-5a0c-44c9-8b7a-1ce62875c38d"},"vehicle_type_id":"4","last_reported":1726711710,"current_range_meters":24800,"station_id":"ce4bho92rcd13ifvqh3g","pricing_plan_id":"cebpf4jnsgd1na2vs0mg"},{"bike_id":"113ca948-2325-463d-b40c-ba755261b048","system_id":"levelo_inurba_marseille","lat":43.28465,"lon":5.3589,"is_reserved":false,"is_disabled":false,"rental_uris":{"android":"levelo://app?vid=113ca948-2325-463d-b40c-ba755261b048","ios":"levelo://app?vid=113ca948-2325-463d-b40c-ba755261b048"},"vehicle_type_id":"4","last_reported":1726711710,"current_range_meters":20000,"station_id":"ce4bhah2rcd13ifvqei0","pricing_plan_id":"cebpf4jnsgd1na2vs0mg"},{"bike_id":"29162098-9d12-42fa-abb3-21d506b55998","system_id":"levelo_inurba_marseille","lat":43.27972,"lon":5.41051,"is_reserved":false,"is_disabled":false,"rental_uris":{"android":"levelo://app?vid=29162098-9d12-42fa-abb3-21d506b55998","ios":"levelo://app?vid=29162098-9d12-42fa-abb3-21d506b55998"},"vehicle_type_id":"4","last_reported":1726711710,"current_range_meters":33600,"station_id":"ce4bhnp2rcd13ifvqh0g","pricing_plan_id":"cebpf4jnsgd1na2vs0mg"},{"bike_id":"750e8351-13f9-43b0-b164-24061995e5de","system_id":"levelo_inurba_marseille","lat":43.30881,"lon":5.37186,"is_reserved":false,"is_disabled":false,"rental_uris":{"android":"levelo://app?vid=750e8351-13f9-43b0-b164-24061995e5de","ios":"levelo://app?vid=750e8351-13f9-43b0-b164-24061995e5de"},"vehicle_type_id":"4","last_reported":1726711710,"current_range_meters":38800,"station_id":"ce4bguh2rcd13ifvqckg","pricing_plan_id":"cebpf4jnsgd1na2vs0mg"},{"bike_id":"2fd5ba6a-f478-410a-a11a-7ba05971c030","system_id":"levelo_inurba_marseille","lat":43.25706,"lon":5.41059,"is_reserved":false,"is_disabled":false,"rental_uris":{"android":"levelo://app?vid=2fd5ba6a-f478-410a-a11a-7ba05971c030","ios":"levelo://app?vid=2fd5ba6a-f478-410a-a11a-7ba05971c030"},"vehicle_type_id":"4","last_reported":1726711710,"current_range_meters":38800,"station_id":"ce4bhkp2rcd13ifvqgd0","pricing_plan_id":"cebpf4jnsgd1na2vs0mg"},{"bike_id":"db5bed51-afb9-4548-98e9-7b7ae226c501","system_id":"levelo_inurba_marseille","lat":43.33756,"lon":5.37453,"is_reserved":false,"is_disabled":false,"rental_uris":{"android":"levelo://app?vid=db5bed51-afb9-4548-98e9-7b7ae226c501","ios":"levelo://app?vid=db5bed51-afb9-4548-98e9-7b7ae226c501"},"vehicle_type_id":"4","last_reported":1726711710,"current_range_meters":32800,"station_id":"","pricing_plan_id":"cebpf4jnsgd1na2vs0mg"},{"bike_id":"6a78926c-7c24-4114-b69b-79fe85c63250","system_id":"levelo_inurba_marseille","lat":43.30887,"lon":5.39645,"is_reserved":false,"is_disabled":false,"rental_uris":{"android":"levelo://app?vid=6a78926c-7c24-4114-b69b-79fe85c63250","ios":"levelo://app?vid=6a78926c-7c24-4114-b69b-79fe85c63250"},"vehicle_type_id":"4","last_reported":1726711710,"current_range_meters":38800,"station_id":"ce4bh012rcd13ifvqcv0","pricing_plan_id":"cebpf4jnsgd1na2vs0mg"},{"bike_id":"ac0ff1a2-c5fd-48c6-95b3-18e8d9ed2a30","system_id":"levelo_inurba_marseille","lat":43.27192,"lon":5.40982,"is_reserved":false,"is_disabled":false,"rental_uris":{"android":"levelo://app?vid=ac0ff1a2-c5fd-48c6-95b3-18e8d9ed2a30","ios":"levelo://app?vid=ac0ff1a2-c5fd-48c6-95b3-18e8d9ed2a30"},"vehicle_type_id":"4","last_reported":1726711710,"current_range_meters":9200,"station_id":"ce4bhl12rcd13ifvqgf0","pricing_plan_id":"cebpf4jnsgd1na2vs0mg"},{"bike_id":"881cc09c-b245-4e9b-8838-30c9e03bb596","system_id":"levelo_inurba_marseille","lat":43.30556,"lon":5.36699,"is_reserved":false,"is_disabled":false,"rental_uris":{"android":"levelo://app?vid=881cc09c-b245-4e9b-8838-30c9e03bb596","ios":"levelo://app?vid=881cc09c-b245-4e9b-8838-30c9e03bb596"},"vehicle_type_id":"4","last_reported":1726711710,"current_range_meters":38000,"station_id":"ce4bgrp2rcd13ifvqc9g","pricing_plan_id":"cebpf4jnsgd1na2vs0mg"},{"bike_id":"f1925469-9217-450d-9259-fc5ba656a5ff","system_id":"levelo_inurba_marseille","lat":43.25926,"lon":5.40909,"is_reserved":false,"is_disabled":false,"rental_uris":{"android":"levelo://app?vid=f1925469-9217-450d-9259-fc5ba656a5ff","ios":"levelo://app?vid=f1925469-9217-450d-9259-fc5ba656a5ff"},"vehicle_type_id":"4","last_reported":1726711710,"current_range_meters":38800,"station_id":"ce4bhm92rcd13ifvqglg","pricing_plan_id":"cebpf4jnsgd1na2vs0mg"},{"bike_id":"69399783-5eae-4af9-ae4b-1495b2d249b1","system_id":"levelo_inurba_marseille","lat":43.2417,"lon":5.36379,"is_reserved":false,"is_disabled":false,"rental_uris":{"android":"levelo://app?vid=69399783-5eae-4af9-ae4b-1495b2d249b1","ios":"levelo://app?vid=69399783-5eae-4af9-ae4b-1495b2d249b1"},"vehicle_type_id":"4","last_reported":1726711710,"current_range_meters":35600,"station_id":"cpo36qri1sfpv3e86is0","pricing_plan_id":"cebpf4jnsgd1na2vs0mg"},{"bike_id":"3f513f49-e3b1-4c4c-bbdc-e5ae3b2b72d3","system_id":"levelo_inurba_marseille","lat":43.27492,"lon":5.42451,"is_reserved":false,"is_disabled":false,"rental_uris":{"android":"levelo://app?vid=3f513f49-e3b1-4c4c-bbdc-e5ae3b2b72d3","ios":"levelo://app?vid=3f513f49-e3b1-4c4c-bbdc-e5ae3b2b72d3"},"vehicle_type_id":"4","last_reported":1726711710,"current_range_meters":23200,"station_id":"ce4bhn92rcd13ifvqgrg","pricing_plan_id":"cebpf4jnsgd1na2vs0mg"},{"bike_id":"023b13a7-6618-44f3-9637-e4d6b2b8db34","system_id":"levelo_inurba_marseille","lat":43.25734,"lon":5.41096,"is_reserved":false,"is_disabled":false,"rental_uris":{"android":"levelo://app?vid=023b13a7-6618-44f3-9637-e4d6b2b8db34","ios":"levelo://app?vid=023b13a7-6618-44f3-9637-e4d6b2b8db34"},"vehicle_type_id":"4","last_reported":1726711710,"current_range_meters":38800,"station_id":"ce4bhkp2rcd13ifvqgd0","pricing_plan_id":"cebpf4jnsgd1na2vs0mg"},{"bike_id":"d06834b6-14ec-477c-92f7-a04b5630a0da","system_id":"levelo_inurba_marseille","lat":43.26545,"lon":5.37295,"is_reserved":false,"is_disabled":false,"rental_uris":{"android":"levelo://app?vid=d06834b6-14ec-477c-92f7-a04b5630a0da","ios":"levelo://app?vid=d06834b6-14ec-477c-92f7-a04b5630a0da"},"vehicle_type_id":"4","last_reported":1726711710,"current_range_meters":7200,"station_id":"ce4bhg12rcd13ifvqf70","pricing_plan_id":"cebpf4jnsgd1na2vs0mg"},{"bike_id":"c2e37a50-a4d6-4422-b245-40f3fa5f4cd1","system_id":"levelo_inurba_marseille","lat":43.27331,"lon":5.39043,"is_reserved":false,"is_disabled":false,"rental_uris":{"android":"levelo://app?vid=c2e37a50-a4d6-4422-b245-40f3fa5f4cd1","ios":"levelo://app?vid=c2e37a50-a4d6-4422-b245-40f3fa5f4cd1"},"vehicle_type_id":"4","last_reported":1726711710,"current_range_meters":7200,"station_id":"ce4bhgp2rcd13ifvqfe0","pricing_plan_id":"cebpf4jnsgd1na2vs0mg"},{"bike_id":"c18e49ed-2097-4356-8646-5f697921c21e","system_id":"levelo_inurba_marseille","lat":43.30262,"lon":5.40046,"is_reserved":false,"is_disabled":false,"rental_uris":{"android":"levelo://app?vid=c18e49ed-2097-4356-8646-5f697921c21e","ios":"levelo://app?vid=c18e49ed-2097-4356-8646-5f697921c21e"},"vehicle_type_id":"4","last_reported":1726711710,"current_range_meters":14000,"station_id":"ce4bgvh2rcd13ifvqcs0","pricing_plan_id":"cebpf4jnsgd1na2vs0mg"},