{"last_updated":1702476414,"ttl":30,"version":"2.2","data":{"bikes":[{"bike_id":"d16b9493-9e54-4383-9f98-a91940148d2b","system_id":"levelo_inurba_marseille","lat":43.313391,"lon":5.36706,"is_reserved":false,"is_disabled":false,"rental_uris":{"android":"levelo://app?vid=d16b9493-9e54-4383-9f98-a91940148d2b","ios":"levelo://app?vid=d16b9493-9e54-4383-9f98-a91940148d2b"},"vehicle_type_id":"4","last_reported":1702476414,"current_range_meters":15200,"station_id":"ce4bgr92rcd13ifvqc6g","pricing_plan_id":"free"},{"bike_id":"fea052f3-f40e-4101-a247-0c65ed0f8230","system_id":"levelo_inurba_marseille","lat":43.312239,"lon":5.368562,"is_reserved":false,"is_disabled":false,"rental_uris":{"android":"levelo://app?vid=fea052f3-f40e-4101-a247-0c65ed0f8230","ios":"levelo://app?vid=fea052f3-f40e-4101-a247-0c65ed0f8230"},"vehicle_type_id":"4","last_reported":1702476414,"current_range_meters":30000,"station_id":"ce4bgl92rcd13ifvqbq0","pricing_plan_id":"free"},{"bike_id":"967915b7-831b-48e3-9546-280f7d46f607","system_id":"levelo_inurba_marseille","lat":43.312239,"lon":5.368562,"is_reserved":false,"is_disabled":false,"rental_uris":{"android":"levelo://app?vid=967915b7-831b-48e3-9546-280f7d46f607","ios":"levelo://app?vid=967915b7-831b-48e3-9546-280f7d46f607"},"vehicle_type_id":"4","last_reported":1702476414,"current_range_meters":27600,"station_id":"ce4bgl92rcd13ifvqbq0","pricing_plan_id":"free"},{"bike_id":"0c9abc41-580d-4ff8-b540-d9f1f6f9a734","system_id":"levelo_inurba_marseille","lat":43.309076,"lon":5.368465,"is_reserved":false,"is_disabled":false,"rental_uris":{"android":"levelo://app?vid=0c9abc41-580d-4ff8-b540-d9f1f6f9a734","ios":"levelo://app?vid=0c9abc41-580d-4ff8-b540-d9f1f6f9a734"},"vehicle_type_id":"4","last_reported":1702476414,"current_range_meters":29600,"station_id":"ce4bgn92rcd13ifvqbvg","pricing_plan_id":"free"},{"bike_id":"d94cfb54-2b64-4f81-b209-589c8d44a0b5","system_id":"levelo_inurba_marseille","lat":43.309039,"lon":5.371797,"is_reserved":false,"is_disabled":false,"rental_uris":{"android":"levelo://app?vid=d94cfb54-2b64-4f81-b209-589c8d44a0b5","ios":"levelo://app?vid=d94cfb54-2b64-4f81-b209-589c8d44a0b5"},"vehicle_type_id":"4","last_reported":1702476414,"current_range_meters":24400,"station_id":"ce4bguh2rcd13ifvqckg","pricing_plan_id":"free"},{"bike_id":"3f8b821f-e430-4a35-bf14-f8b6e777ea11","system_id":"levelo_inurba_marseille","lat":43.313939,"lon":5.375306,"is_reserved":false,"is_disabled":false,"rental_uris":{"android":"levelo://app?vid=3f8b821f-e430-4a35-bf14-f8b6e777ea11","ios":"levelo://app?vid=3f8b821f-e430-4a35-bf14-f8b6e777ea11"},"vehicle_type_id":"4","last_reported":1702476414,"current_range_meters":7600,"station_id":"","pricing_plan_id":"free"},{"bike_id":"98421c4e-e096-460e-a28f-ae8f79c5f555","system_id":"levelo_inurba_marseille","lat":43.31189,"lon":5.37614,"is_reserved":false,"is_disabled":false,"rental_uris":{"android":"levelo://app?vid=98421c4e-e096-460e-a28f-ae8f79c5f555","ios":"levelo://app?vid=98421c4e-e096-460e-a28f-ae8f79c5f555"},"vehicle_type_id":"4","last_reported":1702476414,"current_range_meters":23200,"station_id":"","pricing_plan_id":"free"},{"bike_id":"54a90e3e-e724-41c4-9edb-535e26e30038","system_id":"levelo_inurba_marseille","lat":43.305368,"lon":5.367343,"is_reserved":false,"is_disabled":false,"rental_uris":{"android":"levelo://app?vid=54a90e3e-e724-41c4-9edb-535e26e30038","ios":"levelo://app?vid=54a90e3e-e724-41c4-9edb-535e26e30038"},"vehicle_type_id":"4","last_reported":1702476414,"current_range_meters":6800,"station_id":"ce4bgrp2rcd13ifvqc9g","pricing_plan_id":"free"},{"bike_id":"955e4ab2-16e5-44e8-a986-a2f50ff96c06","system_id":"levelo_inurba_marseille","lat":43.305382,"lon":5.365389,"is_reserved":false,"is_disabled":false,"rental_uris":{"android":"levelo://app?vid=955e4ab2-16e5-44e8-a986-a2f50ff96c06","ios":"levelo://app?vid=955e4ab2-16e5-44e8-a986-a2f50ff96c06"},"vehicle_type_id":"4","last_reported":1702476414,"current_range_meters":26800,"station_id":"","pricing_plan_id":"free"},{"bike_id":"c3f0f760-9862-4454-b6f8-23ccc3a2e173","system_id":"levelo_inurba_marseille","lat":43.30523,"lon":5.36722,"is_reserved":false,"is_disabled":false,"rental_uris":{"android":"levelo://app?vid=c3f0f760-9862-4454-b6f8-23ccc3a2e173","ios":"levelo://app?vid=c3f0f760-9862-4454-b6f8-23ccc3a2e173"},"vehicle_type_id":"4","last_reported":1702476414,"current_range_meters":12800,"station_id":"ce4bgrp2rcd13ifvqc9g","pricing_plan_id":"free"},{"bike_id":"8f62f4bd-3774-4a45-9ee6-de5c4d3d9d9c","system_id":"levelo_inurba_marseille","lat":43.30517,"lon":5.36724,"is_reserved":false,"is_disabled":false,"rental_uris":{"android":"levelo://app?vid=8f62f4bd-3774-4a45-9ee6-de5c4d3d9d9c","ios":"levelo://app?vid=8f62f4bd-3774-4a45-9ee6-de5c4d3d9d9c"},"vehicle_type_id":"4","last_reported":1702476414,"current_range_meters":16800,"station_id":"ce4bgrp2rcd13ifvqc9g","pricing_plan_id":"free"},{"bike_id":"dc68debd-6203-4696-b9a5-55eea857c5a0","system_id":"levelo_inurba_marseille","lat":43.317183,"lon":5.376834,"is_reserved":false,"is_disabled":false,"rental_uris":{"android":"levelo://app?vid=dc68debd-6203-4696-b9a5-55eea857c5a0","ios":"levelo://app?vid=dc68debd-6203-4696-b9a5-55eea857c5a0"},"vehicle_type_id":"4","last_reported":1702476414,"current_range_meters":23600,"station_id":"ce4bgth2rcd13ifvqch0","pricing_plan_id":"free"},{"bike_id":"2938e59b-048c-46f9-a88e-3507f3dbf368","system_id":"levelo_inurba_marseille","lat":43.307945,"lon":5.376487,"is_reserved":false,"is_disabled":false,"rental_uris":{"android":"levelo://app?vid=2938e59b-048c-46f9-a88e-3507f3dbf368","ios":"levelo://app?vid=2938e59b-048c-46f9-a88e-3507f3dbf368"},"vehicle_type_id":"4","last_reported":1702476414,"current_range_meters":16000,"station_id":"ce4bgv92rcd13ifvqcq0","pricing_plan_id":"free"},{"bike_id":"9e7d5d49-7422-45e5-9174-457a3d490ef7","system_id":"levelo_inurba_marseille","lat":43.317075,"lon":5.377367,"is_reserved":false,"is_disabled":false,"rental_uris":{"android":"levelo://app?vid=9e7d5d49-7422-45e5-9174-457a3d490ef7","ios":"levelo://app?vid=9e7d5d49-7422-45e5-9174-457a3d490ef7"},"vehicle_type_id":"4","last_reported":1702476414,"current_range_meters":14400,"station_id":"ce4bgth2rcd13ifvqch0","pricing_plan_id":"free"},{"bike_id":"f0547b77-6f20-423d-98ca-ff544c3c1d23","system_id":"levelo_inurba_marseille","lat":43.317,"lon":5.37827,"is_reserved":false,"is_disabled":false,"rental_uris":{"android":"levelo://app?vid=f0547b77-6f20-423d-98ca-ff544c3c1d23","ios":"levelo://app?vid=f0547b77-6f20-423d-98ca-ff544c3c1d23"},"vehicle_type_id":"4","last_reported":1702476414,"current_range_meters":20800,"station_id":"","pricing_plan_id":"free"},{"bike_id":"e08303cd-c9f8-4aa2-a3bd-10fb27a5f13d","system_id":"levelo_inurba_marseille","lat":43.303046,"lon":5.368981,"is_reserved":false,"is_disabled":false,"rental_uris":{"android":"levelo://app?vid=e08303cd-c9f8-4aa2-a3bd-10fb27a5f13d","ios":"levelo://app?vid=e08303cd-c9f8-4aa2-a3bd-10fb27a5f13d"},"vehicle_type_id":"4","last_reported":1702476414,"current_range_meters":6800,"station_id":"ce4bgqh2rcd13ifvqc5g","pricing_plan_id":"free"},{"bike_id":"8f0d92f8-a437-428a-a9a0-df4740460a46","system_id":"levelo_inurba_marseille","lat":43.302784,"lon":5.377158,"is_reserved":false,"is_disabled":false,"rental_uris":{"android":"levelo://app?vid=8f0d92f8-a437-428a-a9a0-df4740460a46","ios":"levelo://app?vid=8f0d92f8-a437-428a-a9a0-df4740460a46"},"vehicle_type_id":"4","last_reported":1702476414,"current_range_meters":30400,"station_id":"ce4bguh2rcd13ifvqcj0","pricing_plan_id":"free"},{"bike_id":"fc1dd8c5-c75f-4b38-bf33-2ce27b09b80d","system_id":"levelo_inurba_marseille","lat":43.3153,"lon":5.38032,"is_reserved":false,"is_disabled":false,"rental_uris":{"android":"levelo://app?vid=fc1dd8c5-c75f-4b38-bf33-2ce27b09b80d","ios":"levelo://app?vid=fc1dd8c5-c75f-4b38-bf33-2ce27b09b80d"},"vehicle_type_id":"4","last_reported":1702476414,"current_range_meters":22400,"station_id":"ce4bhsp2rcd13ifvqi50","pricing_plan_id":"free"},{"bike_id":"f9a3f1d5-05a9-43b1-9c0d-1c5e0a5ae872","system_id":"levelo_inurba_marseille","lat":43.301939,"lon":5.366286,"is_reserved":false,"is_disabled":false,"rental_uris":{"android":"levelo://app?vid=f9a3f1d5-05a9-43b1-9c0d-1c5e0a5ae872","ios":"levelo://app?vid=f9a3f1d5-05a9-43b1-9c0d-1c5e0a5ae872"},"vehicle_type_id":"4","last_reported":1702476414,"current_range_meters":16000,"station_id":"ce4bgrh2rcd13ifvqc8g","pricing_plan_id":"free"},{"bike_id":"d6d55d9d-6bc3-4ac3-9c85-61eefa796db0","system_id":"levelo_inurba_marseille","lat":43.308012,"lon":5.381511,"is_reserved":false,"is_disabled":false,"rental_uris":{"android":"levelo://app?vid=d6d55d9d-6bc3-4ac3-9c85-61eefa796db0","ios":"levelo://app?vid=d6d55d9d-6bc3-4ac3-9c85-61eefa796db0"},"vehicle_type_id":"4","last_reported":1702476414,"current_range_meters":12000,"station_id":"ce4bgt12rcd13ifvqce0","pricing_plan_id":"free"},{"bike_id":"b795cd07-df6b-4c4c-8507-2dcae79f9bad","system_id":"levelo_inurba_marseille","lat":43.309039,"lon":5.371797,"is_reserved":false,"is_disabled":false,"rental_uris":{"android":"levelo://app?vid=b795cd07-df6b-4c4c-8507-2dcae79f9bad","ios":"levelo://app?vid=b795cd07-df6b-4c4c-8507-2dcae79f9bad"},"vehicle_type_id":"4","last_reported":1702476414,"current_range_meters":4800,"station_id":"ce4bguh2rcd13ifvqckg","pricing_plan_id":"free"},{"bike_id":"443495d3-5c95-4ec2-bf2b-82b8d38de0b4","system_id":"levelo_inurba_marseille","lat":43.324791,"lon":5.3656,"is_reserved":false,"is_disabled":false,"rental_uris":{"android":"levelo://app?vid=443495d3-5c95-4ec2-bf2b-82b8d38de0b4","ios":"levelo://app?vid=443495d3-5c95-4ec2-bf2b-82b8d38de0b4"},"vehicle_type_id":"4","last_reported":1702476414,"current_range_meters":20800,"station_id":"ce4bhs12rcd13ifvqhvg","pricing_plan_id":"free"},{"bike_id":"aa3cdc10-a2b4-4348-a58d-ea513d683fe2","system_id":"levelo_inurba_marseille","lat":43.324771,"lon":5.36557,"is_reserved":false,"is_disabled":false,"rental_uris":{"android":"levelo://app?vid=aa3cdc10-a2b4-4348-a58d-ea513d683fe2","ios":"levelo://app?vid=aa3cdc10-a2b4-4348-a58d-ea513d683fe2"},"vehicle_type_id":"4","last_reported":1702476414,"current_range_meters":22800,"station_id":"ce4bhs12rcd13ifvqhvg","pricing_plan_id":"free"},{"bike_id":"d39fe852-c1a9-4d63-b09f-3c73284c613d","system_id":"levelo_inurba_marseille","lat":43.311022,"lon":5.38354,"is_reserved":false,"is_disabled":false,"rental_uris":{"android":"levelo://app?vid=d39fe852-c1a9-4d63-b09f-3c73284c613d","ios":"levelo://app?vid=d39fe852-c1a9-4d63-b09f-3c73284c613d"},"vehicle_type_id":"4","last_reported":1702476414,"current_range_meters":26800,"station_id":"","pricing_plan_id":"free"},{"bike_id":"38c02583-3a1d-40d4-9bef-3880d2031e0e","system_id":"levelo_inurba_marseille","lat":43.302784,"lon":5.377158,"is_reserved":false,"is_disabled":false,"rental_uris":{"android":"levelo://app?vid=38c02583-3a1d-40d4-9bef-3880d2031e0e","ios":"levelo://app?vid=38c02583-3a1d-40d4-9bef-3880d2031e0e"},"vehicle_type_id":"4","last_reported":1702476414,"current_range_meters":19600,"station_id":"ce4bguh2rcd13ifvqcj0","pricing_plan_id":"free"},{"bike_id":"c959b172-1271-41c4-9af5-54ac39dfa8c2","system_id":"levelo_inurba_marseille","lat":43.302784,"lon":5.377158,"is_reserved":false,"is_disabled":false,"rental_uris":{"android":"levelo://app?vid=c959b172-1271-41c4-9af5-54ac39dfa8c2","ios":"levelo://app?vid=c959b172-1271-41c4-9af5-54ac39dfa8c2"},"vehicle_type_id":"4","last_reported":1702476414,"current_range_meters":25600,"station_id":"ce4bguh2rcd13ifvqcj0","pricing_plan_id":"free"},{"bike_id":"5d20ac16-fc0b-47b5-89e4-80c7e3b2ded5","system_id":"levelo_inurba_marseille","lat":43.302651,"lon":5.377008,"is_reserved":false,"is_disabled":false,"rental_uris":{"android":"levelo://app?vid=5d20ac16-fc0b-47b5-89e4-80c7e3b2ded5","ios":"levelo://app?vid=5d20ac16-fc0b-47b5-89e4-80c7e3b2ded5"},"vehicle_type_id":"4","last_reported":1702476414,"current_range_meters":29600,"station_id":"ce4bguh2rcd13ifvqcj0","pricing_plan_id":"free"},{"bike_id":"b64e639b-bf6d-4bc9-b542-9b0c2897b053","system_id":"levelo_inurba_marseille","lat":43.302784,"lon":5.377158,"is_reserved":false,"is_disabled":false,"rental_uris":{"android":"levelo://app?vid=b64e639b-bf6d-4bc9-b542-9b0c2897b053","ios":"levelo://app?vid=b64e639b-bf6d-4bc9-b542-9b0c2897b053"},"vehicle_type_id":"4","last_reported":1702476414,"current_range_meters":29200,"station_id":"ce4bguh2rcd13ifvqcj0","pricing_plan_id":"free"},{"bike_id":"92196158-337e-4dda-92b6-976c47b22a53","system_id":"levelo_inurba_marseille","lat":43.302784,"lon":5.377158,"is_reserved":false,"is_disabled":false,"rental_uris":{"android":"levelo://app?vid=92196158-337e-4dda-92b6-976c47b22a53","ios":"levelo://app?vid=92196158-337e-4dda-92b6-976c47b22a53"},"vehicle_type_id":"4","last_reported":1702476414,"current_range_meters":12000,"station_id":"ce4bguh2rcd13ifvqcj0","pricing_plan_id":"free"},{"bike_id":"c726eeb5-f736-4df0-8839-ddbc6fbae8a4","system_id":"levelo_inurba_marseille","lat":43.302784,"lon":5.377158,"is_reserved":false,"is_disabled":false,"rental_uris":{"android":"levelo://app?vid=c726eeb5-f736-4df0-8839-ddbc6fbae8a4","ios":"levelo://app?vid=c726eeb5-f736-4df0-8839-ddbc6fbae8a4"},"vehicle_type_id":"4","last_reported":1702476414,"current_range_meters":26400,"station_id":"ce4bguh2rcd13ifvqcj0","pricing_plan_id":"free"},{"bike_id":"5a16143d-2b7f-449d-afd3-6019feddadb7","system_id":"levelo_inurba_marseille","lat":43.301429,"lon":5.37413,"is_reserved":false,"is_disabled":false,"rental_uris":{"android":"levelo://app?vid=5a16143d-2b7f-449d-afd3-6019feddadb7","ios":"levelo://app?vid=5a16143d-2b7f-449d-afd3-6019feddadb7"},"vehicle_type_id":"4","last_reported":1702476414,"current_range_meters":4000,"station_id":"ce4bgs92rcd13ifvqcc0","pricing_plan_id":"free"},{"bike_id":"b88d0a92-d38c-44fc-a16e-4e57b91a78f8","system_id":"levelo_inurba_marseille","lat":43.302672,"lon":5.377123,"is_reserved":false,"is_disabled":false,"rental_uris":{"android":"levelo://app?vid=b88d0a92-d38c-44fc-a16e-4e57b91a78f8","ios":"levelo://app?vid=b88d0a92-d38c-44fc-a16e-4e57b91a78f8"},"vehicle_type_id":"4","last_reported":1702476414,"current_range_meters":20400,"station_id":"ce4bguh2rcd13ifvqcj0","pricing_plan_id":"free"},{"bike_id":"2139f178-d12e-405d-84ac-92d3da4ca8c3","system_id":"levelo_inurba_marseille","lat":43.301429,"lon":5.37413,"is_reserved":false,"is_disabled":false,"rental_uris":{"android":"levelo://app?vid=2139f178-d12e-405d-84ac-92d3da4ca8c3","ios":"levelo://app?vid=2139f178-d12e-405d-84ac-92d3da4ca8c3"},"vehicle_type_id":"4","last_reported":1702476414,"current_range_meters":29200,"station_id":"ce4bgs92rcd13ifvqcc0","pricing_plan_id":"free"},{"bike_id":"0aabea5b-d1f8-4783-ba01-04cedff77b37","system_id":"levelo_inurba_marseille","lat":43.3199,"lon":5.38158,"is_reserved":false,"is_disabled":false,"rental_uris":{"android":"levelo://app?vid=0aabea5b-d1f8-4783-ba01-04cedff77b37","ios":"levelo://app?vid=0aabea5b-d1f8-4783-ba01-04cedff77b37"},"vehicle_type_id":"4","last_reported":1702476414,"current_range_meters":400,"station_id":"ce4bhr12rcd13ifvqhpg","pricing_plan_id":"free"},{"bike_id":"4956179e-483b-4c26-bdef-b95af16fab8d","system_id":"levelo_inurba_marseille","lat":43.319935,"lon":5.381699,"is_reserved":false,"is_disabled":false,"rental_uris":{"android":"levelo://app?vid=4956179e-483b-4c26-bdef-b95af16fab8d","ios":"levelo://app?vid=4956179e-483b-4c26-bdef-b95af16fab8d"},"vehicle_type_id":"4","last_reported":1702476414,"current_range_meters":19200,"station_id":"ce4bhr12rcd13ifvqhpg","pricing_plan_id":"free"},{"bike_id":"2ed88571-6d64-497c-a00a-61bf5fb5ef3a","system_id":"levelo_inurba_marseille","lat":43.298433,"lon":5.362774,"is_reserved":false,"is_disabled":false,"rental_uris":{"android":"levelo://app?vid=2ed88571-6d64-497c-a00a-61bf5fb5ef3a","ios":"levelo://app?vid=2ed88571-6d64-497c-a00a-61bf5fb5ef3a"},"vehicle_type_id":"4","last_reported":1702476414,"current_range_meters":26800,"station_id":"ce4bgpp2rcd13ifvqc3g","pricing_plan_id":"free"},{"bike_id":"ec4f77c4-6220-4c79-9d67-5a1f3c710bf1","system_id":"levelo_inurba_marseille","lat":43.298433,"lon":5.362774,"is_reserved":false,"is_disabled":false,"rental_uris":{"android":"levelo://app?vid=ec4f77c4-6220-4c79-9d67-5a1f3c710bf1","ios":"levelo://app?vid=ec4f77c4-6220-4c79-9d67-5a1f3c710bf1"},"vehicle_type_id":"4","last_reported":1702476414,"current_range_meters":14000,"station_id":"ce4bgpp2rcd13ifvqc3g","pricing_plan_id":"free"},{"bike_id":"77a6c46d-d898-4e4f-8846-efa91689c7f0","system_id":"levelo_inurba_marseille","lat":43.302006,"lon":5.38065,"is_reserved":false,"is_disabled":false,"rental_uris":{"android":"levelo://app?vid=77a6c46d-d898-4e4f-8846-efa91689c7f0","ios":"levelo://app?vid=77a6c46d-d898-4e4f-8846-efa91689c7f0"},"vehicle_type_id":"4","last_reported":1702476414,"current_range_meters":0,"station_id":"","pricing_plan_id":"free"},{"bike_id":"046a8120-0aac-4697-b168-a43b2090598a","system_id":"levelo_inurba_marseille","lat":43.299243,"lon":5.37481,"is_reserved":false,"is_disabled":false,"rental_uris":{"android":"levelo://app?vid=046a8120-0aac-4697-b168-a43b2090598a","ios":"levelo://app?vid=046a8120-0aac-4697-b168-a43b2090598a"},"vehicle_type_id":"4","last_reported":1702476414,"current_range_meters":16800,"station_id":"ce4bgjh2rcd13ifvqbg0","pricing_plan_id":"free"},{"bike_id":"2de7a2e0-c6cd-423b-87da-985298a56eb5","system_id":"levelo_inurba_marseille","lat":43.32826,"lon":5.3669,"is_reserved":false,"is_disabled":false,"rental_uris":{"android":"levelo://app?vid=2de7a2e0-c6cd-423b-87da-985298a56eb5","ios":"levelo://app?vid=2de7a2e0-c6cd-423b-87da-985298a56eb5"},"vehicle_type_id":"4","last_reported":1702476414,"current_range_meters":23200,"station_id":"ce4bhs92rcd13ifvqi0g","pricing_plan_id":"free"},{"bike_id":"29598e2c-d16e-4f78-8d48-e749df598b0c","system_id":"levelo_inurba_marseille","lat":43.297163,"lon":5.365866,"is_reserved":false,"is_disabled":false,"rental_uris":{"android":"levelo://app?vid=29598e2c-d16e-4f78-8d48-e749df598b0c","ios":"levelo://app?vid=29598e2c-d16e-4f78-8d48-e749df598b0c"},"vehicle_type_id":"4","last_reported":1702476414,"current_range_meters":400,"station_id":"ce4bgn12rcd13ifvqbt0","pricing_plan_id":"free"},{"bike_id":"547088a7-4eb3-44d6-9e85-6b8e30f0a1f6","system_id":"levelo_inurba_marseille","lat":43.297163,"lon":5.365866,"is_reserved":false,"is_disabled":false,"rental_uris":{"android":"levelo://app?vid=547088a7-4eb3-44d6-9e85-6b8e30f0a1f6","ios":"levelo://app?vid=547088a7-4eb3-44d6-9e85-6b8e30f0a1f6"},"vehicle_type_id":"4","last_reported":1702476414,"current_range_meters":15200,"station_id":"ce4bgn12rcd13ifvqbt0","pricing_plan_id":"free"},{"bike_id":"b8efbe84-5e0e-471b-8b37-ff7a492c1dcf","system_id":"levelo_inurba_marseille","lat":43.2968,"lon":5.37291,"is_reserved":false,"is_disabled":false,"rental_uris":{"android":"levelo://app?vid=b8efbe84-5e0e-471b-8b37-ff7a492c1dcf","ios":"levelo://app?vid=b8efbe84-5e0e-471b-8b37-ff7a492c1dcf"},"vehicle_type_id":"4","last_reported":1702476414,"current_range_meters":10000,"station_id":"ce4bgk12rcd13ifvqbj0","pricing_plan_id":"free"},{"bike_id":"7a878ee5-6910-45dd-b3bd-722059d35da7","system_id":"levelo_inurba_marseille","lat":43.29787,"lon":5.37679,"is_reserved":false,"is_disabled":false,"rental_uris":{"android":"levelo://app?vid=7a878ee5-6910-45dd-b3bd-722059d35da7","ios":"levelo://app?vid=7a878ee5-6910-45dd-b3bd-722059d35da7"},"vehicle_type_id":"4","last_reported":1702476414,"current_range_meters":8400,"station_id":"","pricing_plan_id":"free"},{"bike_id":"1bf8e1dc-91fe-4fcb-b0c6-9329a561a078","system_id":"levelo_inurba_marseille","lat":43.29573,"lon":5.367355,"is_reserved":false,"is_disabled":false,"rental_uris":{"android":"levelo://app?vid=1bf8e1dc-91fe-4fcb-b0c6-9329a561a078","ios":"levelo://app?vid=1bf8e1dc-91fe-4fcb-b0c6-9329a561a078"},"vehicle_type_id":"4","last_reported":1702476414,"current_range_meters":12800,"station_id":"ce4bgph2rcd13ifvqc2g","pricing_plan_id":"free"},{"bike_id":"23bbe805-c94b-4a71-b6b3-02557ecd6b8b","system_id":"levelo_inurba_marseille","lat":43.31754,"lon":5.39007,"is_reserved":false,"is_disabled":false,"rental_uris":{"android":"levelo://app?vid=23bbe805-c94b-4a71-b6b3-02557ecd6b8b","ios":"levelo://app?vid=23bbe805-c94b-4a71-b6b3-02557ecd6b8b"},"vehicle_type_id":"4","last_reported":1702476414,"current_range_meters":25200,"station_id":"ce4bhqp2rcd13ifvqhng","pricing_plan_id":"free"},{"bike_id":"7d8afd03-d097-4846-8629-17b96aa6117a","system_id":"levelo_inurba_marseille","lat":43.317557,"lon":5.390173,"is_reserved":false,"is_disabled":false,"rental_uris":{"android":"levelo://app?vid=7d8afd03-d097-4846-8629-17b96aa6117a","ios":"levelo://app?vid=7d8afd03-d097-4846-8629-17b96aa6117a"},"vehicle_type_id":"4","last_reported":1702476414,"current_range_meters":11600,"station_id":"ce4bhqp2rcd13ifvqhng","pricing_plan_id":"free"},{"bike_id":"e9d78157-ab4a-41df-a9e7-085811189ed4","system_id":"levelo_inurba_marseille","lat":43.317557,"lon":5.390173,"is_reserved":false,"is_disabled":false,"rental_uris":{"android":"levelo://app?vid=e9d78157-ab4a-41df-a9e7-085811189ed4","ios":"levelo://app?vid=e9d78157-ab4a-41df-a9e7-085811189ed4"},"vehicle_type_id":"4","last_reported":1702476414,"current_range_meters":9200,"station_id":"ce4bhqp2rcd13ifvqhng","pricing_plan_id":"free"},{"bike_id":"dea78052-13c5-4e01-8843-f717116ae0a3","system_id":"levelo_inurba_marseille","lat":43.317557,"lon":5.390173,"is_reserved":false,"is_disabled":false,"rental_uris":{"android":"levelo://app?vid=dea78052-13c5-4e01-8843-f717116ae0a3","ios":"levelo://app?vid=dea78052-13c5-4e01-8843-f717116ae0a3"},"vehicle_type_id":"4","last_reported":1702476414,"current_range_meters":13200,"station_id":"ce4bhqp2rcd13ifvqhng","pricing_plan_id":"free"},{"bike_id":"b72ea858-fe9e-4ae8-8de1-4bee0a449a39","system_id":"levelo_inurba_marseille","lat":43.304274,"lon":5.388873,"is_reserved":false,"is_disabled":false,"rental_uris":{"android":"levelo://app?vid=b72ea858-fe9e-4ae8-8de1-4bee0a449a39","ios":"levelo://app?vid=b72ea858-fe9e-4ae8-8de1-4bee0a449a39"},"vehicle_type_id":"4","last_reported":1702476414,"current_range_meters":19200,"station_id":"ce4bgk12rcd13ifvqbi0","pricing_plan_id":"free"},{"bike_id":"b3b1866d-1346-4f6b-a272-1cf172258847","system_id":"levelo_inurba_marseille","lat":43.299724,"lon":5.384848,"is_reserved":false,"is_disabled":false,"rental_uris":{"android":"levelo://app?vid=b3b1866d-1346-4f6b-a272-1cf172258847","ios":"levelo://app?vid=b3b1866d-1346-4f6b-a272-1cf172258847"},"vehicle_type_id":"4","last_reported":1702476414,"current_range_meters":19600,"station_id":"ce4bgj92rcd13ifvqbd0","pricing_plan_id":"free"},{"bike_id":"fb41b833-81d2-4751-9270-35cec1fc2402","system_id":"levelo_inurba_marseille","lat":43.295279,"lon":5.375048,"is_reserved":false,"is_disabled":false,"rental_uris":{"android":"levelo://app?vid=fb41b833-81d2-4751-9270-35cec1fc2402","ios":"levelo://app?vid=fb41b833-81d2-4751-9270-35cec1fc2402"},"vehicle_type_id":"4","last_reported":1702476414,"current_range_meters":21600,"station_id":"ce4bgkp2rcd13ifvqbmg","pricing_plan_id":"free"},{"bike_id":"7aa43ffc-78db-484a-8d60-858527897509","system_id":"levelo_inurba_marseille","lat":43.32367,"lon":5.388836,"is_reserved":false,"is_disabled":false,"rental_uris":{"android":"levelo://app?vid=7aa43ffc-78db-484a-8d60-858527897509","ios":"levelo://app?vid=7aa43ffc-78db-484a-8d60-858527897509"},"vehicle_type_id":"4","last_reported":1702476414,"current_range_meters":15600,"station_id":"ce4bhqp2rcd13ifvqhog","pricing_plan_id":"free"},{"bike_id":"91f4cc3d-ca7b-41aa-96c5-7caa342e0c4b","system_id":"levelo_inurba_marseille","lat":43.29601,"lon":5.381084,"is_reserved":false,"is_disabled":false,"rental_uris":{"android":"levelo://app?vid=91f4cc3d-ca7b-41aa-96c5-7caa342e0c4b","ios":"levelo://app?vid=91f4cc3d-ca7b-41aa-96c5-7caa342e0c4b"},"vehicle_type_id":"4","last_reported":1702476414,"current_range_meters":17600,"station_id":"ce4bgl12rcd13ifvqbo0","pricing_plan_id":"free"},{"bike_id":"5ed411f3-330d-43b5-9223-f0a1d7b7be38","system_id":"levelo_inurba_marseille","lat":43.293259,"lon":5.371586,"is_reserved":false,"is_disabled":false,"rental_uris":{"android":"levelo://app?vid=5ed411f3-330d-43b5-9223-f0a1d7b7be38","ios":"levelo://app?vid=5ed411f3-330d-43b5-9223-f0a1d7b7be38"},"vehicle_type_id":"4","last_reported":1702476414,"current_range_meters":15600,"station_id":"ce4bgh92rcd13ifvqb40","pricing_plan_id":"free"},{"bike_id":"406bb2a1-23ad-4b60-9d04-47886d892319","system_id":"levelo_inurba_marseille","lat":43.29277,"lon":5.36836,"is_reserved":false,"is_disabled":false,"rental_uris":{"android":"levelo://app?vid=406bb2a1-23ad-4b60-9d04-47886d892319","ios":"levelo://app?vid=406bb2a1-23ad-4b60-9d04-47886d892319"},"vehicle_type_id":"4","last_reported":1702476414,"current_range_meters":22800,"station_id":"ce4bhbp2rcd13ifvqesg","pricing_plan_id":"free"},{"bike_id":"a4c3ee71-275c-48fe-9659-7fab395712a7","system_id":"levelo_inurba_marseille","lat":43.2936,"lon":5.37835,"is_reserved":false,"is_disabled":false,"rental_uris":{"android":"levelo://app?vid=a4c3ee71-275c-48fe-9659-7fab395712a7","ios":"levelo://app?vid=a4c3ee71-275c-48fe-9659-7fab395712a7"},"vehicle_type_id":"4","last_reported":1702476414,"current_range_meters":1200,"station_id":"ce4bgjh2rcd13ifvqbf0","pricing_plan_id":"free"},{"bike_id":"73dd6c27-4126-4dd5-9716-85c27f5bd19b","system_id":"levelo_inurba_marseille","lat":43.2936,"lon":5.37835,"is_reserved":false,"is_disabled":false,"rental_uris":{"android":"levelo://app?vid=73dd6c27-4126-4dd5-9716-85c27f5bd19b","ios":"levelo://app?vid=73dd6c27-4126-4dd5-9716-85c27f5bd19b"},"vehicle_type_id":"4","last_reported":1702476414,"current_range_meters":16800,"station_id":"ce4bgjh2rcd13ifvqbf0","pricing_plan_id":"free"},{"bike_id":"03e1dfb6-0610-4576-a30a-a500f8584b8c","system_id":"levelo_inurba_marseille","lat":43.309038,"lon":5.396546,"is_reserved":false,"is_disabled":false,"rental_uris":{"android":"levelo://app?vid=03e1dfb6-0610-4576-a30a-a500f8584b8c","ios":"levelo://app?vid=03e1dfb6-0610-4576-a30a-a500f8584b8c"},"vehicle_type_id":"4","last_reported":1702476414,"current_range_meters":21200,"station_id":"ce4bh012rcd13ifvqcv0","pricing_plan_id":"free"},{"bike_id":"75465b85-d780-43b7-b6af-a1eda0bf4096","system_id":"levelo_inurba_marseille","lat":43.313291,"lon":5.396838,"is_reserved":false,"is_disabled":false,"rental_uris":{"android":"levelo://app?vid=75465b85-d780-43b7-b6af-a1eda0bf4096","ios":"levelo://app?vid=75465b85-d780-43b7-b6af-a1eda0bf4096"},"vehicle_type_id":"4","last_reported":1702476414,"current_range_meters":18800,"station_id":"ce4bgvp2rcd13ifvqcu0","pricing_plan_id":"free"},{"bike_id":"909fce2d-109e-4e8e-9e4e-5c421e65340a","system_id":"levelo_inurba_marseille","lat":43.29529,"lon":5.385581,"is_reserved":false,"is_disabled":false,"rental_uris":{"android":"levelo://app?vid=909fce2d-109e-4e8e-9e4e-5c421e65340a","ios":"levelo://app?vid=909fce2d-109e-4e8e-9e4e-5c421e65340a"},"vehicle_type_id":"4","last_reported":1702476414,"current_range_meters":3200,"station_id":"ce4bgih2rcd13ifvqba0","pricing_plan_id":"free"},{"bike_id":"13e4531f-a723-46dc-aff4-877ae264aff9","system_id":"levelo_inurba_marseille","lat":43.302008,"lon":5.394694,"is_reserved":false,"is_disabled":false,"rental_uris":{"android":"levelo://app?vid=13e4531f-a723-46dc-aff4-877ae264aff9","ios":"levelo://app?vid=13e4531f-a723-46dc-aff4-877ae264aff9"},"vehicle_type_id":"4","last_reported":1702476414,"current_range_meters":2800,"station_id":"ce4bh0p2rcd13ifvqd70","pricing_plan_id":"free"},{"bike_id":"54ee4789-faab-4e14-a2e0-f0c06f7b7404","system_id":"levelo_inurba_marseille","lat":43.290624,"lon":5.359245,"is_reserved":false,"is_disabled":false,"rental_uris":{"android":"levelo://app?vid=54ee4789-faab-4e14-a2e0-f0c06f7b7404","ios":"levelo://app?vid=54ee4789-faab-4e14-a2e0-f0c06f7b7404"},"vehicle_type_id":"4","last_reported":1702476414,"current_range_meters":26000,"station_id":"ce4bha92rcd13ifvqeg0","pricing_plan_id":"free"},{"bike_id":"012deb24-42da-4553-aa1a-367af2ba4346","system_id":"levelo_inurba_marseille","lat":43.29044,"lon":5.37588,"is_reserved":false,"is_disabled":false,"rental_uris":{"android":"levelo://app?vid=012deb24-42da-4553-aa1a-367af2ba4346","ios":"levelo://app?vid=012deb24-42da-4553-aa1a-367af2ba4346"},"vehicle_type_id":"4","last_reported":1702476414,"current_range_meters":22400,"station_id":"","pricing_plan_id":"free"},{"bike_id":"50c7317b-221c-448a-bad0-07e1e0b74399","system_id":"levelo_inurba_marseille","lat":43.289184,"lon":5.366408,"is_reserved":false,"is_disabled":false,"rental_uris":{"android":"levelo://app?vid=50c7317b-221c-448a-bad0-07e1e0b74399","ios":"levelo://app?vid=50c7317b-221c-448a-bad0-07e1e0b74399"},"vehicle_type_id":"4","last_reported":1702476414,"current_range_meters":19200,"station_id":"ce4bhap2rcd13ifvqek0","pricing_plan_id":"free"},{"bike_id":"b066dc1d-837a-4a03-9e60-33983be1fd86","system_id":"levelo_inurba_marseille","lat":43.289184,"lon":5.366408,"is_reserved":false,"is_disabled":false,"rental_uris":{"android":"levelo://app?vid=b066dc1d-837a-4a03-9e60-33983be1fd86","ios":"levelo://app?vid=b066dc1d-837a-4a03-9e60-33983be1fd86"},"vehicle_type_id":"4","last_reported":1702476414,"current_range_meters":11600,"station_id":"ce4bhap2rcd13ifvqek0","pricing_plan_id":"free"},{"bike_id":"f0ccd03a-b579-48d5-94c3-a007d803992d","system_id":"levelo_inurba_marseille","lat":43.292644,"lon":5.384257,"is_reserved":false,"is_disabled":false,"rental_uris":{"android":"levelo://app?vid=f0ccd03a-b579-48d5-94c3-a007d803992d","ios":"levelo://app?vid=f0ccd03a-b579-48d5-94c3-a007d803992d"},"vehicle_type_id":"4","last_reported":1702476414,"current_range_meters":10400,"station_id":"ce4bh692rcd13ifvqea0","pricing_plan_id":"free"},{"bike_id":"06ca8534-65b4-4774-a7c8-03b5af893c6a","system_id":"levelo_inurba_marseille","lat":43.33038,"lon":5.38923,"is_reserved":false,"is_disabled":false,"rental_uris":{"android":"levelo://app?vid=06ca8534-65b4-4774-a7c8-03b5af893c6a","ios":"levelo://app?vid=06ca8534-65b4-4774-a7c8-03b5af893c6a"},"vehicle_type_id":"4","last_reported":1702476414,"current_range_meters":9200,"station_id":"ce4bhr92rcd13ifvqhrg","pricing_plan_id":"free"},{"bike_id":"f8e5b367-d231-4a40-95dc-ddf2db808720","system_id":"levelo_inurba_marseille","lat":43.297815,"lon":5.393548,"is_reserved":false,"is_disabled":false,"rental_uris":{"android":"levelo://app?vid=f8e5b367-d231-4a40-95dc-ddf2db808720","ios":"levelo://app?vid=f8e5b367-d231-4a40-95dc-ddf2db808720"},"vehicle_type_id":"4","last_reported":1702476414,"current_range_meters":10400,"station_id":"chh1huq6cuj3fo74tm60","pricing_plan_id":"free"},{"bike_id":"b25a0231-fadd-4f39-9193-00c274a37595","system_id":"levelo_inurba_marseille","lat":43.295169,"lon":5.390426,"is_reserved":false,"is_disabled":false,"rental_uris":{"android":"levelo://app?vid=b25a0231-fadd-4f39-9193-00c274a37595","ios":"levelo://app?vid=b25a0231-fadd-4f39-9193-00c274a37595"},"vehicle_type_id":"4","last_reported":1702476414,"current_range_meters":17200,"station_id":"ce4bh3p2rcd13ifvqdp0","pricing_plan_id":"free"},{"bike_id":"fa23bc4c-3492-4ba5-ab13-c42e18316583","system_id":"levelo_inurba_marseille","lat":43.33745,"lon":5.37455,"is_reserved":false,"is_disabled":false,"rental_uris":{"android":"levelo://app?vid=fa23bc4c-3492-4ba5-ab13-c42e18316583","ios":"levelo://app?vid=fa23bc4c-3492-4ba5-ab13-c42e18316583"},"vehicle_type_id":"4","last_reported":1702476414,"current_range_meters":30400,"station_id":"","pricing_plan_id":"free"},{"bike_id":"f6b205d3-7c5c-45ba-8afc-370181d06daf","system_id":"levelo_inurba_marseille","lat":43.301117,"lon":5.398795,"is_reserved":false,"is_disabled":false,"rental_uris":{"android":"levelo://app?vid=f6b205d3-7c5c-45ba-8afc-370181d06daf","ios":"levelo://app?vid=f6b205d3-7c5c-45ba-8afc-370181d06daf"},"vehicle_type_id":"4","last_reported":1702476414,"current_range_meters":19200,"station_id":"ce4bh0h2rcd13ifvqd40","pricing_plan_id":"free"},{"bike_id":"642a05f4-3d03-49de-8ab4-290e55bbaa5a","system_id":"levelo_inurba_marseille","lat":43.298681,"lon":5.397225,"is_reserved":false,"is_disabled":false,"rental_uris":{"android":"levelo://app?vid=642a05f4-3d03-49de-8ab4-290e55bbaa5a","ios":"levelo://app?vid=642a05f4-3d03-49de-8ab4-290e55bbaa5a"},"vehicle_type_id":"4","last_reported":1702476414,"current_range_meters":14400,"station_id":"ce4bh0h2rcd13ifvqd50","pricing_plan_id":"free"},{"bike_id":"9a833eaa-cc3d-4faa-a96a-ec1aa871b351","system_id":"levelo_inurba_marseille","lat":43.298681,"lon":5.397225,"is_reserved":false,"is_disabled":false,"rental_uris":{"android":"levelo://app?vid=9a833eaa-cc3d-4faa-a96a-ec1aa871b351","ios":"levelo://app?vid=9a833eaa-cc3d-4faa-a96a-ec1aa871b351"},"vehicle_type_id":"4","last_reported":1702476414,"current_range_meters":16800,"station_id":"ce4bh0h2rcd13ifvqd50","pricing_plan_id":"free"},{"bike_id":"3dc030f2-d30f-46ca-a78d-792ba89c8103","system_id":"levelo_inurba_marseille","lat":43.295196,"lon":5.39397,"is_reserved":false,"is_disabled":false,"rental_uris":{"android":"levelo://app?vid=3dc030f2-d30f-46ca-a78d-792ba89c8103","ios":"levelo://app?vid=3dc030f2-d30f-46ca-a78d-792ba89c8103"},"vehicle_type_id":"4","last_reported":1702476414,"current_range_meters":13600,"station_id":"ce4bh292rcd13ifvqdf0","pricing_plan_id":"free"},{"bike_id":"7feab6be-0d29-4826-9cd6-2e8475e728bf","system_id":"levelo_inurba_marseille","lat":43.295196,"lon":5.39397,"is_reserved":false,"is_disabled":false,"rental_uris":{"android":"levelo://app?vid=7feab6be-0d29-4826-9cd6-2e8475e728bf","ios":"levelo://app?vid=7feab6be-0d29-4826-9cd6-2e8475e728bf"},"vehicle_type_id":"4","last_reported":1702476414,"current_range_meters":18400,"station_id":"ce4bh292rcd13ifvqdf0","pricing_plan_id":"free"},{"bike_id":"732b6961-f7f4-4792-90ff-383fb481ccfa","system_id":"levelo_inurba_marseille","lat":43.28698,"lon":5.37395,"is_reserved":false,"is_disabled":false,"rental_uris":{"android":"levelo://app?vid=732b6961-f7f4-4792-90ff-383fb481ccfa","ios":"levelo://app?vid=732b6961-f7f4-4792-90ff-383fb481ccfa"},"vehicle_type_id":"4","last_reported":1702476414,"current_range_meters":0,"station_id":"ce4bh3p2rcd13ifvqdq0","pricing_plan_id":"free"},{"bike_id":"4a6b3869-8341-49e0-8098-06a7c771730a","system_id":"levelo_inurba_marseille","lat":43.295194,"lon":5.39397,"is_reserved":false,"is_disabled":false,"rental_uris":{"android":"levelo://app?vid=4a6b3869-8341-49e0-8098-06a7c771730a","ios":"levelo://app?vid=4a6b3869-8341-49e0-8098-06a7c771730a"},"vehicle_type_id":"4","last_reported":1702476414,"current_range_meters":26800,"station_id":"ce4bh292rcd13ifvqdf0","pricing_plan_id":"free"},{"bike_id":"c0642fc6-89b9-4fb8-ab28-e4fb2ee4a55f","system_id":"levelo_inurba_marseille","lat":43.289307,"lon":5.38406,"is_reserved":false,"is_disabled":false,"rental_uris":{"android":"levelo://app?vid=c0642fc6-89b9-4fb8-ab28-e4fb2ee4a55f","ios":"levelo://app?vid=c0642fc6-89b9-4fb8-ab28-e4fb2ee4a55f"},"vehicle_type_id":"4","last_reported":1702476414,"current_range_meters":26400,"station_id":"ce4bh612rcd13ifvqe6g","pricing_plan_id":"free"},{"bike_id":"b60c03b4-e454-4f7c-96e4-939f0325247f","system_id":"levelo_inurba_marseille","lat":43.302759,"lon":5.400793,"is_reserved":false,"is_disabled":false,"rental_uris":{"android":"levelo://app?vid=b60c03b4-e454-4f7c-96e4-939f0325247f","ios":"levelo://app?vid=b60c03b4-e454-4f7c-96e4-939f0325247f"},"vehicle_type_id":"4","last_reported":1702476414,"current_range_meters":11200,"station_id":"ce4bgvh2rcd13ifvqcs0","pricing_plan_id":"free"},{"bike_id":"28b5b989-3005-4de0-a821-83a2b0398d02","system_id":"levelo_inurba_marseille","lat":43.302759,"lon":5.400793,"is_reserved":false,"is_disabled":false,"rental_uris":{"android":"levelo://app?vid=28b5b989-3005-4de0-a821-83a2b0398d02","ios":"levelo://app?vid=28b5b989-3005-4de0-a821-83a2b0398d02"},"vehicle_type_id":"4","last_reported":1702476414,"current_range_meters":23600,"station_id":"ce4bgvh2rcd13ifvqcs0","pricing_plan_id":"free"},{"bike_id":"17ad54fa-30dd-43a6-8536-35935c3c0b86","system_id":"levelo_inurba_marseille","lat":43.286039,"lon":5.370681,"is_reserved":false,"is_disabled":false,"rental_uris":{"android":"levelo://app?vid=17ad54fa-30dd-43a6-8536-35935c3c0b86","ios":"levelo://app?vid=17ad54fa-30dd-43a6-8536-35935c3c0b86"},"vehicle_type_id":"4","last_reported":1702476414,"current_range_meters":5600,"station_id":"ce4bht12rcd13ifvqi60","pricing_plan_id":"free"},{"bike_id":"a4e5d249-eed3-489b-9230-2981f3cd16c0","system_id":"levelo_inurba_marseille","lat":43.31687,"lon":5.40475,"is_reserved":false,"is_disabled":false,"rental_uris":{"android":"levelo://app?vid=a4e5d249-eed3-489b-9230-2981f3cd16c0","ios":"levelo://app?vid=a4e5d249-eed3-489b-9230-2981f3cd16c0"},"vehicle_type_id":"4","last_reported":1702476414,"current_range_meters":2400,"station_id":"ce4bh012rcd13ifvqd00","pricing_plan_id":"free"},{"bike_id":"177c46a3-0b1d-4896-a132-e9c9dfe52310","system_id":"levelo_inurba_marseille","lat":43.284534,"lon":5.358662,"is_reserved":false,"is_disabled":false,"rental_uris":{"android":"levelo://app?vid=177c46a3-0b1d-4896-a132-e9c9dfe52310","ios":"levelo://app?vid=177c46a3-0b1d-4896-a132-e9c9dfe52310"},"vehicle_type_id":"4","last_reported":1702476414,"current_range_meters":26400,"station_id":"ce4bhah2rcd13ifvqei0","pricing_plan_id":"free"},{"bike_id":"15b9cc98-9e3e-4d57-845c-ec17f8baff9d","system_id":"levelo_inurba_marseille","lat":43.323464,"lon":5.406297,"is_reserved":false,"is_disabled":false,"rental_uris":{"android":"levelo://app?vid=15b9cc98-9e3e-4d57-845c-ec17f8baff9d","ios":"levelo://app?vid=15b9cc98-9e3e-4d57-845c-ec17f8baff9d"},"vehicle_type_id":"4","last_reported":1702476414,"current_range_meters":18800,"station_id":"ce4bhq92rcd13ifvqhjg","pricing_plan_id":"free"},{"bike_id":"bbd84a02-1069-4d4b-aaf1-82d0e91562ce","system_id":"levelo_inurba_marseille","lat":43.337168,"lon":5.391825,"is_reserved":false,"is_disabled":false,"rental_uris":{"android":"levelo://app?vid=bbd84a02-1069-4d4b-aaf1-82d0e91562ce","ios":"levelo://app?vid=bbd84a02-1069-4d4b-aaf1-82d0e91562ce"},"vehicle_type_id":"4","last_reported":1702476414,"current_range_meters":27200,"station_id":"ce4bhr92rcd13ifvqhsg","pricing_plan_id":"free"},{"bike_id":"c2dfd2b7-626c-4359-9520-29c79d4e3011","system_id":"levelo_inurba_marseille","lat":43.288501,"lon":5.393087,"is_reserved":false,"is_disabled":false,"rental_uris":{"android":"levelo://app?vid=c2dfd2b7-626c-4359-9520-29c79d4e3011","ios":"levelo://app?vid=c2dfd2b7-626c-4359-9520-29c79d4e3011"},"vehicle_type_id":"4","last_reported":1702476414,"current_range_meters":17200,"station_id":"ce4bh2p2rcd13ifvqdi0","pricing_plan_id":"free"},{"bike_id":"34d27171-a45c-4b86-bea2-7ca2a6376122","system_id":"levelo_inurba_marseille","lat":43.283502,"lon":5.386471,"is_reserved":false,"is_disabled":false,"rental_uris":{"android":"levelo://app?vid=34d27171-a45c-4b86-bea2-7ca2a6376122","ios":"levelo://app?vid=34d27171-a45c-4b86-bea2-7ca2a6376122"},"vehicle_type_id":"4","last_reported":1702476414,"current_range_meters":800,"station_id":"ce4bh492rcd13ifvqdvg","pricing_plan_id":"free"},{"bike_id":"e1cbb4a5-b73a-472c-9f50-299b8db009fd","system_id":"levelo_inurba_marseille","lat":43.282744,"lon":5.350533,"is_reserved":false,"is_disabled":false,"rental_uris":{"android":"levelo://app?vid=e1cbb4a5-b73a-472c-9f50-299b8db009fd","ios":"levelo://app?vid=e1cbb4a5-b73a-472c-9f50-299b8db009fd"},"vehicle_type_id":"4","last_reported":1702476414,"current_range_meters":19200,"station_id":"ce4bhbp2rcd13ifvqerg","pricing_plan_id":"free"},{"bike_id":"84935074-0720-4cb2-b12d-3f4718e7a062","system_id":"levelo_inurba_marseille","lat":43.284462,"lon":5.392121,"is_reserved":false,"is_disabled":false,"rental_uris":{"android":"levelo://app?vid=84935074-0720-4cb2-b12d-3f4718e7a062","ios":"levelo://app?vid=84935074-0720-4cb2-b12d-3f4718e7a062"},"vehicle_type_id":"4","last_reported":1702476414,"current_range_meters":10400,"station_id":"ce4bhoh2rcd13ifvqh5g","pricing_plan_id":"free"},{"bike_id":"1f52ed73-bb36-48bc-a44b-49628615d10f","system_id":"levelo_inurba_marseille","lat":43.285742,"lon":5.395004,"is_reserved":false,"is_disabled":false,"rental_uris":{"android":"levelo://app?vid=1f52ed73-bb36-48bc-a44b-49628615d10f","ios":"levelo://app?vid=1f52ed73-bb36-48bc-a44b-49628615d10f"},"vehicle_type_id":"4","last_reported":1702476414,"current_range_meters":24400,"station_id":"ce4bh292rcd13ifvqdg0","pricing_plan_id":"free"},{"bike_id":"35cfaed9-6d62-4e8a-b379-9b1fca83ad09","system_id":"levelo_inurba_marseille","lat":43.28573,"lon":5.394992,"is_reserved":false,"is_disabled":false,"rental_uris":{"android":"levelo://app?vid=35cfaed9-6d62-4e8a-b379-9b1fca83ad09","ios":"levelo://app?vid=35cfaed9-6d62-4e8a-b379-9b1fca83ad09"},"vehicle_type_id":"4","last_reported":1702476414,"current_range_meters":24400,"station_id":"ce4bh292rcd13ifvqdg0","pricing_plan_id":"free"},{"bike_id":"1e95cd6f-0a44-493e-8928-47686cfc6c12","system_id":"levelo_inurba_marseille","lat":43.28564,"lon":5.39495,"is_reserved":false,"is_disabled":false,"rental_uris":{"android":"levelo://app?vid=1e95cd6f-0a44-493e-8928-47686cfc6c12","ios":"levelo://app?vid=1e95cd6f-0a44-493e-8928-47686cfc6c12"},"vehicle_type_id":"4","last_reported":1702476414,"current_range_meters":10400,"station_id":"ce4bh292rcd13ifvqdg0","pricing_plan_id":"free"},{"bike_id":"214b6169-60e4-4b42-9924-0b7d14028e24","system_id":"levelo_inurba_marseille","lat":43.265714,"lon":5.372891,"is_reserved":false,"is_disabled":false,"rental_uris":{"android":"levelo://app?vid=214b6169-60e4-4b42-9924-0b7d14028e24","ios":"levelo://app?vid=214b6169-60e4-4b42-9924-0b7d14028e24"},"vehicle_type_id":"4","last_reported":1702476414,"current_range_meters":19600,"station_id":"ce4bhg12rcd13ifvqf70","pricing_plan_id":"free"},{"bike_id":"3a4d2c9d-3dd0-44b2-bd24-6f65c04f3652","system_id":"levelo_inurba_marseille","lat":43.32646,"lon":5.40998,"is_reserved":false,"is_disabled":false,"rental_uris":{"android":"levelo://app?vid=3a4d2c9d-3dd0-44b2-bd24-6f65c04f3652","ios":"levelo://app?vid=3a4d2c9d-3dd0-44b2-bd24-6f65c04f3652"},"vehicle_type_id":"4","last_reported":1702476414,"current_range_meters":27200,"station_id":"ce4bhpp2rcd13ifvqhgg","pricing_plan_id":"free"},{"bike_id":"3d9a860e-1236-499f-99e8-6993b6542151","system_id":"levelo_inurba_marseille","lat":43.304188,"lon":5.412904,"is_reserved":false,"is_disabled":false,"rental_uris":{"android":"levelo://app?vid=3d9a860e-1236-499f-99e8-6993b6542151","ios":"levelo://app?vid=3d9a860e-1236-499f-99e8-6993b6542151"},"vehicle_type_id":"4","last_reported":1702476414,"current_range_meters":18000,"station_id":"ce4bhop2rcd13ifvqh8g","pricing_plan_id":"free"},{"bike_id":"34a2c4b4-a020-46a4-ae85-e5b60413f992","system_id":"levelo_inurba_marseille","lat":43.304188,"lon":5.412904,"is_reserved":false,"is_disabled":false,"rental_uris":{"android":"levelo://app?vid=34a2c4b4-a020-46a4-ae85-e5b60413f992","ios":"levelo://app?vid=34a2c4b4-a020-46a4-ae85-e5b60413f992"},"vehicle_type_id":"4","last_reported":1702476414,"current_range_meters":24800,"station_id":"ce4bhop2rcd13ifvqh8g","pricing_plan_id":"free"},{"bike_id":"161be74c-c10c-4e62-acca-4faff962d812","system_id":"levelo_inurba_marseille","lat":43.304188,"lon":5.412904,"is_reserved":false,"is_disabled":false,"rental_uris":{"android":"levelo://app?vid=161be74c-c10c-4e62-acca-4faff962d812","ios":"levelo://app?vid=161be74c-c10c-4e62-acca-4faff962d812"},"vehicle_type_id":"4","last_reported":1702476414,"current_range_meters":18000,"station_id":"ce4bhop2rcd13ifvqh8g","pricing_plan_id":"free"},{"bike_id":"2f4bb817-d720-4423-b999-e9571a1320c5","system_id":"levelo_inurba_marseille","lat":43.279742,"lon":5.38744,"is_reserved":false,"is_disabled":false,"rental_uris":{"android":"levelo://app?vid=2f4bb817-d720-4423-b999-e9571a1320c5","ios":"levelo://app?vid=2f4bb817-d720-4423-b999-e9571a1320c5"},"vehicle_type_id":"4","last_reported":1702476414,"current_range_meters":6800,"station_id":"ce4bhg12rcd13ifvqf80","pricing_plan_id":"free"},{"bike_id":"cf738baa-a6f1-4fcb-8e45-a66e125e1ed8","system_id":"levelo_inurba_marseille","lat":43.320387,"lon":5.415727,"is_reserved":false,"is_disabled":false,"rental_uris":{"android":"levelo://app?vid=cf738baa-a6f1-4fcb-8e45-a66e125e1ed8","ios":"levelo://app?vid=cf738baa-a6f1-4fcb-8e45-a66e125e1ed8"},"vehicle_type_id":"4","last_reported":1702476414,"current_range_meters":22400,"station_id":"ce4bhq92rcd13ifvqhkg","pricing_plan_id":"free"},{"bike_id":"13ed7864-5e28-4879-bef0-43ec97cea419","system_id":"levelo_inurba_marseille","lat":43.32538,"lon":5.41436,"is_reserved":false,"is_disabled":false,"rental_uris":{"android":"levelo://app?vid=13ed7864-5e28-4879-bef0-43ec97cea419","ios":"levelo://app?vid=13ed7864-5e28-4879-bef0-43ec97cea419"},"vehicle_type_id":"4","last_reported":1702476414,"current_range_meters":19600,"station_id":"ce4bhq12rcd13ifvqhhg","pricing_plan_id":"free"},{"bike_id":"8e814ecb-5dbf-4da1-91b3-8823fe935348","system_id":"levelo_inurba_marseille","lat":43.325233,"lon":5.414318,"is_reserved":false,"is_disabled":false,"rental_uris":{"android":"levelo://app?vid=8e814ecb-5dbf-4da1-91b3-8823fe935348","ios":"levelo://app?vid=8e814ecb-5dbf-4da1-91b3-8823fe935348"},"vehicle_type_id":"4","last_reported":1702476414,"current_range_meters":29200,"station_id":"ce4bhq12rcd13ifvqhhg","pricing_plan_id":"free"},{"bike_id":"bca5a27f-c25f-433b-ad08-f15021e37e7e","system_id":"levelo_inurba_marseille","lat":43.325243,"lon":5.414326,"is_reserved":false,"is_disabled":false,"rental_uris":{"android":"levelo://app?vid=bca5a27f-c25f-433b-ad08-f15021e37e7e","ios":"levelo://app?vid=bca5a27f-c25f-433b-ad08-f15021e37e7e"},"vehicle_type_id":"4","last_reported":1702476414,"current_range_meters":31200,"station_id":"ce4bhq12rcd13ifvqhhg","pricing_plan_id":"free"},{"bike_id":"3e064d86-13e6-41a1-82e1-675d884ace08","system_id":"levelo_inurba_marseille","lat":43.325243,"lon":5.414326,"is_reserved":false,"is_disabled":false,"rental_uris":{"android":"levelo://app?vid=3e064d86-13e6-41a1-82e1-675d884ace08","ios":"levelo://app?vid=3e064d86-13e6-41a1-82e1-675d884ace08"},"vehicle_type_id":"4","last_reported":1702476414,"current_range_meters":30400,"station_id":"ce4bhq12rcd13ifvqhhg","pricing_plan_id":"free"},{"bike_id":"5a319608-2a65-44d6-96d2-2486de31f026","system_id":"levelo_inurba_marseille","lat":43.2808,"lon":5.39654,"is_reserved":false,"is_disabled":false,"rental_uris":{"android":"levelo://app?vid=5a319608-2a65-44d6-96d2-2486de31f026","ios":"levelo://app?vid=5a319608-2a65-44d6-96d2-2486de31f026"},"vehicle_type_id":"4","last_reported":1702476414,"current_range_meters":0,"station_id":"ce4bho12rcd13ifvqh2g","pricing_plan_id":"free"},{"bike_id":"aa2d3fce-e67f-4466-9373-ec319e541d1e","system_id":"levelo_inurba_marseille","lat":43.280784,"lon":5.396622,"is_reserved":false,"is_disabled":false,"rental_uris":{"android":"levelo://app?vid=aa2d3fce-e67f-4466-9373-ec319e541d1e","ios":"levelo://app?vid=aa2d3fce-e67f-4466-9373-ec319e541d1e"},"vehicle_type_id":"4","last_reported":1702476414,"current_range_meters":26800,"station_id":"ce4bho12rcd13ifvqh2g","pricing_plan_id":"free"},{"bike_id":"fd742d58-919a-4269-a846-6d4a55c1b297","system_id":"levelo_inurba_marseille","lat":43.303837,"lon":5.418724,"is_reserved":false,"is_disabled":false,"rental_uris":{"android":"levelo://app?vid=fd742d58-919a-4269-a846-6d4a55c1b297","ios":"levelo://app?vid=fd742d58-919a-4269-a846-6d4a55c1b297"},"vehicle_type_id":"4","last_reported":1702476414,"current_range_meters":27200,"station_id":"ce4bhop2rcd13ifvqh7g","pricing_plan_id":"free"},{"bike_id":"ab8c5135-8dd1-4821-b9b8-00cee2825472","system_id":"levelo_inurba_marseille","lat":43.278401,"lon":5.392152,"is_reserved":false,"is_disabled":false,"rental_uris":{"android":"levelo://app?vid=ab8c5135-8dd1-4821-b9b8-00cee2825472","ios":"levelo://app?vid=ab8c5135-8dd1-4821-b9b8-00cee2825472"},"vehicle_type_id":"4","last_reported":1702476414,"current_range_meters":14400,"station_id":"ce4bhjp2rcd13ifvqga0","pricing_plan_id":"free"},{"bike_id":"7a0e599a-9b76-4fce-80a7-1afb58a98552","system_id":"levelo_inurba_marseille","lat":43.278399,"lon":5.392139,"is_reserved":false,"is_disabled":false,"rental_uris":{"android":"levelo://app?vid=7a0e599a-9b76-4fce-80a7-1afb58a98552","ios":"levelo://app?vid=7a0e599a-9b76-4fce-80a7-1afb58a98552"},"vehicle_type_id":"4","last_reported":1702476414,"current_range_meters":800,"station_id":"ce4bhjp2rcd13ifvqga0","pricing_plan_id":"free"},{"bike_id":"7f1e5201-708c-47ae-930f-fa1da7fe12d6","system_id":"levelo_inurba_marseille","lat":43.275625,"lon":5.384392,"is_reserved":false,"is_disabled":false,"rental_uris":{"android":"levelo://app?vid=7f1e5201-708c-47ae-930f-fa1da7fe12d6","ios":"levelo://app?vid=7f1e5201-708c-47ae-930f-fa1da7fe12d6"},"vehicle_type_id":"4","last_reported":1702476414,"current_range_meters":18400,"station_id":"ce4bhh92rcd13ifvqfi0","pricing_plan_id":"free"},{"bike_id":"92b8d9d3-543a-471a-a14a-9a557262b875","system_id":"levelo_inurba_marseille","lat":43.275625,"lon":5.384392,"is_reserved":false,"is_disabled":false,"rental_uris":{"android":"levelo://app?vid=92b8d9d3-543a-471a-a14a-9a557262b875","ios":"levelo://app?vid=92b8d9d3-543a-471a-a14a-9a557262b875"},"vehicle_type_id":"4","last_reported":1702476414,"current_range_meters":14400,"station_id":"ce4bhh92rcd13ifvqfi0","pricing_plan_id":"free"},{"bike_id":"061709e0-ced8-43da-a969-246b64cecb80","system_id":"levelo_inurba_marseille","lat":43.275625,"lon":5.384392,"is_reserved":false,"is_disabled":false,"rental_uris":{"android":"levelo://app?vid=061709e0-ced8-43da-a969-246b64cecb80","ios":"levelo://app?vid=061709e0-ced8-43da-a969-246b64cecb80"},"vehicle_type_id":"4","last_reported":1702476414,"current_range_meters":18400,"station_id":"ce4bhh92rcd13ifvqfi0","pricing_plan_id":"free"},{"bike_id":"e30e2361-c7fe-4f96-b773-3d81b933e2f1","system_id":"levelo_inurba_marseille","lat":43.336134,"lon":5.410341,"is_reserved":false,"is_disabled":false,"rental_uris":{"android":"levelo://app?vid=e30e2361-c7fe-4f96-b773-3d81b933e2f1","ios":"levelo://app?vid=e30e2361-c7fe-4f96-b773-3d81b933e2f1"},"vehicle_type_id":"4","last_reported":1702476414,"current_range_meters":30800,"station_id":"ce4bhqh2rcd13ifvqhmg","pricing_plan_id":"free"},{"bike_id":"92163f5b-8fd3-4b04-ae8e-86ef0b2064c8","system_id":"levelo_inurba_marseille","lat":43.275625,"lon":5.384392,"is_reserved":false,"is_disabled":false,"rental_uris":{"android":"levelo://app?vid=92163f5b-8fd3-4b04-ae8e-86ef0b2064c8","ios":"levelo://app?vid=92163f5b-8fd3-4b04-ae8e-86ef0b2064c8"},"vehicle_type_id":"4","last_reported":1702476414,"current_range_meters":16400,"station_id":"ce4bhh92rcd13ifvqfi0","pricing_plan_id":"free"},{"bike_id":"eef6c982-2db6-4b90-ab57-5b9c8d89d0e5","system_id":"levelo_inurba_marseille","lat":43.27551,"lon":5.384415,"is_reserved":false,"is_disabled":false,"rental_uris":{"android":"levelo://app?vid=eef6c982-2db6-4b90-ab57-5b9c8d89d0e5","ios":"levelo://app?vid=eef6c982-2db6-4b90-ab57-5b9c8d89d0e5"},"vehicle_type_id":"4","last_reported":1702476414,"current_range_meters":29200,"station_id":"ce4bhh92rcd13ifvqfi0","pricing_plan_id":"free"},{"bike_id":"bc814a90-970f-4e4d-8188-070c93c51fad","system_id":"levelo_inurba_marseille","lat":43.279952,"lon":5.400085,"is_reserved":false,"is_disabled":false,"rental_uris":{"android":"levelo://app?vid=bc814a90-970f-4e4d-8188-070c93c51fad","ios":"levelo://app?vid=bc814a90-970f-4e4d-8188-070c93c51fad"},"vehicle_type_id":"4","last_reported":1702476414,"current_range_meters":14400,"station_id":"ce4bho92rcd13ifvqh4g","pricing_plan_id":"free"},{"bike_id":"8edc5f37-1133-4f01-8778-4848e6abb00f","system_id":"levelo_inurba_marseille","lat":43.279952,"lon":5.400085,"is_reserved":false,"is_disabled":false,"rental_uris":{"android":"levelo://app?vid=8edc5f37-1133-4f01-8778-4848e6abb00f","ios":"levelo://app?vid=8edc5f37-1133-4f01-8778-4848e6abb00f"},"vehicle_type_id":"4","last_reported":1702476414,"current_range_meters":7600,"station_id":"ce4bho92rcd13ifvqh4g","pricing_plan_id":"free"},{"bike_id":"6d0496bd-7845-4f30-b621-61907f9d50de","system_id":"levelo_inurba_marseille","lat":43.279952,"lon":5.400085,"is_reserved":false,"is_disabled":false,"rental_uris":{"android":"levelo://app?vid=6d0496bd-7845-4f30-b621-61907f9d50de","ios":"levelo://app?vid=6d0496bd-7845-4f30-b621-61907f9d50de"},"vehicle_type_id":"4","last_reported":1702476414,"current_range_meters":19200,"station_id":"ce4bho92rcd13ifvqh4g","pricing_plan_id":"free"},{"bike_id":"c4d56341-cd55-4040-9e29-98a1cb7ecf12","system_id":"levelo_inurba_marseille","lat":43.279952,"lon":5.400085,"is_reserved":false,"is_disabled":false,"rental_uris":{"android":"levelo://app?vid=c4d56341-cd55-4040-9e29-98a1cb7ecf12","ios":"levelo://app?vid=c4d56341-cd55-4040-9e29-98a1cb7ecf12"},"vehicle_type_id":"4","last_reported":1702476414,"current_range_meters":17200,"station_id":"ce4bho92rcd13ifvqh4g","pricing_plan_id":"free"},{"bike_id":"fe0a789f-e57a-472a-b8c8-b3b0f92ab63e","system_id":"levelo_inurba_marseille","lat":43.317121,"lon":5.423936,"is_reserved":false,"is_disabled":false,"rental_uris":{"android":"levelo://app?vid=fe0a789f-e57a-472a-b8c8-b3b0f92ab63e","ios":"levelo://app?vid=fe0a789f-e57a-472a-b8c8-b3b0f92ab63e"},"vehicle_type_id":"4","last_reported":1702476414,"current_range_meters":30000,"station_id":"ce4bhp92rcd13ifvqhbg","pricing_plan_id":"free"},{"bike_id":"55f8cf7b-a384-4860-b1f5-075034029351","system_id":"levelo_inurba_marseille","lat":43.31714,"lon":5.424,"is_reserved":false,"is_disabled":false,"rental_uris":{"android":"levelo://app?vid=55f8cf7b-a384-4860-b1f5-075034029351","ios":"levelo://app?vid=55f8cf7b-a384-4860-b1f5-075034029351"},"vehicle_type_id":"4","last_reported":1702476414,"current_range_meters":27600,"station_id":"ce4bhp92rcd13ifvqhbg","pricing_plan_id":"free"},{"bike_id":"e15fcb76-150b-4e94-ba14-1765fbabad44","system_id":"levelo_inurba_marseille","lat":43.310785,"lon":5.424305,"is_reserved":false,"is_disabled":false,"rental_uris":{"android":"levelo://app?vid=e15fcb76-150b-4e94-ba14-1765fbabad44","ios":"levelo://app?vid=e15fcb76-150b-4e94-ba14-1765fbabad44"},"vehicle_type_id":"4","last_reported":1702476414,"current_range_meters":31200,"station_id":"ce4bhp92rcd13ifvqhag","pricing_plan_id":"free"},{"bike_id":"b1c028eb-0fe1-4afa-b35c-b9783a0e9537","system_id":"levelo_inurba_marseille","lat":43.31723,"lon":5.42405,"is_reserved":false,"is_disabled":false,"rental_uris":{"android":"levelo://app?vid=b1c028eb-0fe1-4afa-b35c-b9783a0e9537","ios":"levelo://app?vid=b1c028eb-0fe1-4afa-b35c-b9783a0e9537"},"vehicle_type_id":"4","last_reported":1702476414,"current_range_meters":1600,"station_id":"ce4bhp92rcd13ifvqhbg","pricing_plan_id":"free"},{"bike_id":"7234064f-ccf0-4ae6-a760-318d087f2159","system_id":"levelo_inurba_marseille","lat":43.34143,"lon":5.409001,"is_reserved":false,"is_disabled":false,"rental_uris":{"android":"levelo://app?vid=7234064f-ccf0-4ae6-a760-318d087f2159","ios":"levelo://app?vid=7234064f-ccf0-4ae6-a760-318d087f2159"},"vehicle_type_id":"4","last_reported":1702476414,"current_range_meters":16800,"station_id":"ce4bhqh2rcd13ifvqhlg","pricing_plan_id":"free"},{"bike_id":"741c4bfe-2495-418c-abac-0afb4a563619","system_id":"levelo_inurba_marseille","lat":43.34141,"lon":5.40905,"is_reserved":false,"is_disabled":false,"rental_uris":{"android":"levelo://app?vid=741c4bfe-2495-418c-abac-0afb4a563619","ios":"levelo://app?vid=741c4bfe-2495-418c-abac-0afb4a563619"},"vehicle_type_id":"4","last_reported":1702476414,"current_range_meters":24000,"station_id":"ce4bhqh2rcd13ifvqhlg","pricing_plan_id":"free"},{"bike_id":"3ca2c2d2-99b0-4aa6-a05d-e30f02e6a7fb","system_id":"levelo_inurba_marseille","lat":43.27588,"lon":5.39495,"is_reserved":false,"is_disabled":false,"rental_uris":{"android":"levelo://app?vid=3ca2c2d2-99b0-4aa6-a05d-e30f02e6a7fb","ios":"levelo://app?vid=3ca2c2d2-99b0-4aa6-a05d-e30f02e6a7fb"},"vehicle_type_id":"4","last_reported":1702476414,"current_range_meters":16400,"station_id":"","pricing_plan_id":"free"},{"bike_id":"3009c778-499d-4e94-bc43-c08333d09e24","system_id":"levelo_inurba_marseille","lat":43.274103,"lon":5.394016,"is_reserved":false,"is_disabled":false,"rental_uris":{"android":"levelo://app?vid=3009c778-499d-4e94-bc43-c08333d09e24","ios":"levelo://app?vid=3009c778-499d-4e94-bc43-c08333d09e24"},"vehicle_type_id":"4","last_reported":1702476414,"current_range_meters":21200,"station_id":"ce4bhdp2rcd13ifvqf20","pricing_plan_id":"free"},{"bike_id":"3db21585-ddb9-47d8-9960-2f5afc4bfa92","system_id":"levelo_inurba_marseille","lat":43.274103,"lon":5.394016,"is_reserved":false,"is_disabled":false,"rental_uris":{"android":"levelo://app?vid=3db21585-ddb9-47d8-9960-2f5afc4bfa92","ios":"levelo://app?vid=3db21585-ddb9-47d8-9960-2f5afc4bfa92"},"vehicle_type_id":"4","last_reported":1702476414,"current_range_meters":21600,"station_id":"ce4bhdp2rcd13ifvqf20","pricing_plan_id":"free"},{"bike_id":"e24c4b03-5243-4aed-ae4e-a90b2b597e85","system_id":"levelo_inurba_marseille","lat":43.272116,"lon":5.391747,"is_reserved":false,"is_disabled":false,"rental_uris":{"android":"levelo://app?vid=e24c4b03-5243-4aed-ae4e-a90b2b597e85","ios":"levelo://app?vid=e24c4b03-5243-4aed-ae4e-a90b2b597e85"},"vehicle_type_id":"4","last_reported":1702476414,"current_range_meters":18400,"station_id":"ce4bhhp2rcd13ifvqfm0","pricing_plan_id":"free"},{"bike_id":"b4323693-3180-4925-a967-e936c2e846ae","system_id":"levelo_inurba_marseille","lat":43.272116,"lon":5.391763,"is_reserved":false,"is_disabled":false,"rental_uris":{"android":"levelo://app?vid=b4323693-3180-4925-a967-e936c2e846ae","ios":"levelo://app?vid=b4323693-3180-4925-a967-e936c2e846ae"},"vehicle_type_id":"4","last_reported":1702476414,"current_range_meters":1600,"station_id":"ce4bhhp2rcd13ifvqfm0","pricing_plan_id":"free"},{"bike_id":"d7a6c85d-a811-4fa8-800a-8c7d7fbad1e5","system_id":"levelo_inurba_marseille","lat":43.28624,"lon":5.417094,"is_reserved":false,"is_disabled":false,"rental_uris":{"android":"levelo://app?vid=d7a6c85d-a811-4fa8-800a-8c7d7fbad1e5","ios":"levelo://app?vid=d7a6c85d-a811-4fa8-800a-8c7d7fbad1e5"},"vehicle_type_id":"4","last_reported":1702476414,"current_range_meters":0,"station_id":"","pricing_plan_id":"free"},{"bike_id":"8964eb56-0b5e-453b-8500-6bd4e24979c2","system_id":"levelo_inurba_marseille","lat":43.278128,"lon":5.407195,"is_reserved":false,"is_disabled":false,"rental_uris":{"android":"levelo://app?vid=8964eb56-0b5e-453b-8500-6bd4e24979c2","ios":"levelo://app?vid=8964eb56-0b5e-453b-8500-6bd4e24979c2"},"vehicle_type_id":"4","last_reported":1702476414,"current_range_meters":12400,"station_id":"ce4bhnh2rcd13ifvqgtg","pricing_plan_id":"free"},{"bike_id":"f003ffb7-c880-48c3-90dd-a4bcc8977e10","system_id":"levelo_inurba_marseille","lat":43.278128,"lon":5.407195,"is_reserved":false,"is_disabled":false,"rental_uris":{"android":"levelo://app?vid=f003ffb7-c880-48c3-90dd-a4bcc8977e10","ios":"levelo://app?vid=f003ffb7-c880-48c3-90dd-a4bcc8977e10"},"vehicle_type_id":"4","last_reported":1702476414,"current_range_meters":20000,"station_id":"ce4bhnh2rcd13ifvqgtg","pricing_plan_id":"free"},{"bike_id":"33fbb787-c9a2-4ab1-842b-59046660b800","system_id":"levelo_inurba_marseille","lat":43.269467,"lon":5.386439,"is_reserved":false,"is_disabled":false,"rental_uris":{"android":"levelo://app?vid=33fbb787-c9a2-4ab1-842b-59046660b800","ios":"levelo://app?vid=33fbb787-c9a2-4ab1-842b-59046660b800"},"vehicle_type_id":"4","last_reported":1702476414,"current_range_meters":16400,"station_id":"ce4bhh92rcd13ifvqfh0","pricing_plan_id":"free"},{"bike_id":"ae8614fd-047f-4891-994e-52351e8c7661","system_id":"levelo_inurba_marseille","lat":43.269467,"lon":5.386439,"is_reserved":false,"is_disabled":false,"rental_uris":{"android":"levelo://app?vid=ae8614fd-047f-4891-994e-52351e8c7661","ios":"levelo://app?vid=ae8614fd-047f-4891-994e-52351e8c7661"},"vehicle_type_id":"4","last_reported":1702476414,"current_range_meters":6000,"station_id":"ce4bhh92rcd13ifvqfh0","pricing_plan_id":"free"},{"bike_id":"7c6d7f1c-0ccd-4e53-a440-4b83356f3083","system_id":"levelo_inurba_marseille","lat":43.279496,"lon":5.410448,"is_reserved":false,"is_disabled":false,"rental_uris":{"android":"levelo://app?vid=7c6d7f1c-0ccd-4e53-a440-4b83356f3083","ios":"levelo://app?vid=7c6d7f1c-0ccd-4e53-a440-4b83356f3083"},"vehicle_type_id":"4","last_reported":1702476414,"current_range_meters":0,"station_id":"ce4bhnp2rcd13ifvqh0g","pricing_plan_id":"free"},{"bike_id":"a47390b5-8229-49a7-9b08-de4df1323e12","system_id":"levelo_inurba_marseille","lat":43.269319,"lon":5.389397,"is_reserved":false,"is_disabled":false,"rental_uris":{"android":"levelo://app?vid=a47390b5-8229-49a7-9b08-de4df1323e12","ios":"levelo://app?vid=a47390b5-8229-49a7-9b08-de4df1323e12"},"vehicle_type_id":"4","last_reported":1702476414,"current_range_meters":5200,"station_id":"ce4bhhh2rcd13ifvqfl0","pricing_plan_id":"free"},{"bike_id":"0a81ca46-d142-4c88-a1e9-d6fe2de08d70","system_id":"levelo_inurba_marseille","lat":43.269319,"lon":5.389397,"is_reserved":false,"is_disabled":false,"rental_uris":{"android":"levelo://app?vid=0a81ca46-d142-4c88-a1e9-d6fe2de08d70","ios":"levelo://app?vid=0a81ca46-d142-4c88-a1e9-d6fe2de08d70"},"vehicle_type_id":"4","last_reported":1702476414,"current_range_meters":13600,"station_id":"ce4bhhh2rcd13ifvqfl0","pricing_plan_id":"free"},{"bike_id":"0cfd2184-9a8a-493b-96d1-85da176af037","system_id":"levelo_inurba_marseille","lat":43.27996,"lon":5.416624,"is_reserved":false,"is_disabled":false,"rental_uris":{"android":"levelo://app?vid=0cfd2184-9a8a-493b-96d1-85da176af037","ios":"levelo://app?vid=0cfd2184-9a8a-493b-96d1-85da176af037"},"vehicle_type_id":"4","last_reported":1702476414,"current_range_meters":19200,"station_id":"ce4bho12rcd13ifvqh1g","pricing_plan_id":"free"},{"bike_id":"74d1a641-f2a9-4f4f-9da2-1260a9c3f1d8","system_id":"levelo_inurba_marseille","lat":43.267966,"lon":5.393976,"is_reserved":false,"is_disabled":false,"rental_uris":{"android":"levelo://app?vid=74d1a641-f2a9-4f4f-9da2-1260a9c3f1d8","ios":"levelo://app?vid=74d1a641-f2a9-4f4f-9da2-1260a9c3f1d8"},"vehicle_type_id":"4","last_reported":1702476414,"current_range_meters":27200,"station_id":"ce4bhh12rcd13ifvqfg0","pricing_plan_id":"free"},{"bike_id":"82c7f1c7-444a-4a2f-a2bc-e082b5cc5fe1","system_id":"levelo_inurba_marseille","lat":43.267966,"lon":5.393976,"is_reserved":false,"is_disabled":false,"rental_uris":{"android":"levelo://app?vid=82c7f1c7-444a-4a2f-a2bc-e082b5cc5fe1","ios":"levelo://app?vid=82c7f1c7-444a-4a2f-a2bc-e082b5cc5fe1"},"vehicle_type_id":"4","last_reported":1702476414,"current_range_meters":26800,"station_id":"ce4bhh12rcd13ifvqfg0","pricing_plan_id":"free"},{"bike_id":"79149c84-4377-4013-81e6-6fc500627602","system_id":"levelo_inurba_marseille","lat":43.267966,"lon":5.393976,"is_reserved":false,"is_disabled":false,"rental_uris":{"android":"levelo://app?vid=79149c84-4377-4013-81e6-6fc500627602","ios":"levelo://app?vid=79149c84-4377-4013-81e6-6fc500627602"},"vehicle_type_id":"4","last_reported":1702476414,"current_range_meters":30000,"station_id":"ce4bhh12rcd13ifvqfg0","pricing_plan_id":"free"},{"bike_id":"155cd730-bc33-4496-a9e7-d92f3aeaec93","system_id":"levelo_inurba_marseille","lat":43.267966,"lon":5.393976,"is_reserved":false,"is_disabled":false,"rental_uris":{"android":"levelo://app?vid=155cd730-bc33-4496-a9e7-d92f3aeaec93","ios":"levelo://app?vid=155cd730-bc33-4496-a9e7-d92f3aeaec93"},"vehicle_type_id":"4","last_reported":1702476414,"current_range_meters":30000,"station_id":"ce4bhh12rcd13ifvqfg0","pricing_plan_id":"free"},{"bike_id":"3f232a0b-f328-4a7c-9376-5d1041aa79e5","system_id":"levelo_inurba_marseille","lat":43.308051,"lon":5.43527,"is_reserved":false,"is_disabled":false,"rental_uris":{"android":"levelo://app?vid=3f232a0b-f328-4a7c-9376-5d1041aa79e5","ios":"levelo://app?vid=3f232a0b-f328-4a7c-9376-5d1041aa79e5"},"vehicle_type_id":"4","last_reported":1702476414,"current_range_meters":31200,"station_id":"ce4bhph2rcd13ifvqheg","pricing_plan_id":"free"},{"bike_id":"04f2ae57-5c68-41ae-a441-de405cb29182","system_id":"levelo_inurba_marseille","lat":43.308051,"lon":5.43527,"is_reserved":false,"is_disabled":false,"rental_uris":{"android":"levelo://app?vid=04f2ae57-5c68-41ae-a441-de405cb29182","ios":"levelo://app?vid=04f2ae57-5c68-41ae-a441-de405cb29182"},"vehicle_type_id":"4","last_reported":1702476414,"current_range_meters":22000,"station_id":"ce4bhph2rcd13ifvqheg","pricing_plan_id":"free"},{"bike_id":"39eefe27-03d9-47f3-9de8-d68c3a12f1c4","system_id":"levelo_inurba_marseille","lat":43.26565,"lon":5.39022,"is_reserved":false,"is_disabled":false,"rental_uris":{"android":"levelo://app?vid=39eefe27-03d9-47f3-9de8-d68c3a12f1c4","ios":"levelo://app?vid=39eefe27-03d9-47f3-9de8-d68c3a12f1c4"},"vehicle_type_id":"4","last_reported":1702476414,"current_range_meters":0,"station_id":"ce4bhe12rcd13ifvqf30","pricing_plan_id":"free"},{"bike_id":"45b99c1c-15e8-441b-978a-cfd866322470","system_id":"levelo_inurba_marseille","lat":43.26942,"lon":5.4025,"is_reserved":false,"is_disabled":false,"rental_uris":{"android":"levelo://app?vid=45b99c1c-15e8-441b-978a-cfd866322470","ios":"levelo://app?vid=45b99c1c-15e8-441b-978a-cfd866322470"},"vehicle_type_id":"4","last_reported":1702476414,"current_range_meters":6400,"station_id":"cjm6bp8fraef2m0cb0m0","pricing_plan_id":"free"},{"bike_id":"3aee01e6-74a0-4336-b102-29f7ddf731f3","system_id":"levelo_inurba_marseille","lat":43.269106,"lon":5.402599,"is_reserved":false,"is_disabled":false,"rental_uris":{"android":"levelo://app?vid=3aee01e6-74a0-4336-b102-29f7ddf731f3","ios":"levelo://app?vid=3aee01e6-74a0-4336-b102-29f7ddf731f3"},"vehicle_type_id":"4","last_reported":1702476414,"current_range_meters":9600,"station_id":"","pricing_plan_id":"free"},{"bike_id":"582ca4bf-aa7b-4d68-8a54-b31c9007dfcf","system_id":"levelo_inurba_marseille","lat":43.317104,"lon":5.436818,"is_reserved":false,"is_disabled":false,"rental_uris":{"android":"levelo://app?vid=582ca4bf-aa7b-4d68-8a54-b31c9007dfcf","ios":"levelo://app?vid=582ca4bf-aa7b-4d68-8a54-b31c9007dfcf"},"vehicle_type_id":"4","last_reported":1702476414,"current_range_meters":22400,"station_id":"ce4bhp92rcd13ifvqhcg","pricing_plan_id":"free"},{"bike_id":"275c692c-4e8c-4cea-872d-9023693f571c","system_id":"levelo_inurba_marseille","lat":43.26202,"lon":5.379299,"is_reserved":false,"is_disabled":false,"rental_uris":{"android":"levelo://app?vid=275c692c-4e8c-4cea-872d-9023693f571c","ios":"levelo://app?vid=275c692c-4e8c-4cea-872d-9023693f571c"},"vehicle_type_id":"4","last_reported":1702476414,"current_range_meters":29200,"station_id":"ce4bhjp2rcd13ifvqg90","pricing_plan_id":"free"},{"bike_id":"38a4a3ac-b01c-43e0-abb4-5a012521fc8c","system_id":"levelo_inurba_marseille","lat":43.298768,"lon":5.43643,"is_reserved":false,"is_disabled":false,"rental_uris":{"android":"levelo://app?vid=38a4a3ac-b01c-43e0-abb4-5a012521fc8c","ios":"levelo://app?vid=38a4a3ac-b01c-43e0-abb4-5a012521fc8c"},"vehicle_type_id":"4","last_reported":1702476414,"current_range_meters":22000,"station_id":"ce4bhpp2rcd13ifvqhfg","pricing_plan_id":"free"},{"bike_id":"208562c2-b41f-4178-9d7f-dc2f87d92e41","system_id":"levelo_inurba_marseille","lat":43.26348,"lon":5.39678,"is_reserved":false,"is_disabled":false,"rental_uris":{"android":"levelo://app?vid=208562c2-b41f-4178-9d7f-dc2f87d92e41","ios":"levelo://app?vid=208562c2-b41f-4178-9d7f-dc2f87d92e41"},"vehicle_type_id":"4","last_reported":1702476414,"current_range_meters":8400,"station_id":"","pricing_plan_id":"free"},{"bike_id":"6d4d5859-2bc2-407b-9982-bdd9e8fe7feb","system_id":"levelo_inurba_marseille","lat":43.258224,"lon":5.394369,"is_reserved":false,"is_disabled":false,"rental_uris":{"android":"levelo://app?vid=6d4d5859-2bc2-407b-9982-bdd9e8fe7feb","ios":"levelo://app?vid=6d4d5859-2bc2-407b-9982-bdd9e8fe7feb"},"vehicle_type_id":"4","last_reported":1702476414,"current_range_meters":28400,"station_id":"ce4bhip2rcd13ifvqft0","pricing_plan_id":"free"},{"bike_id":"db2e86d5-7627-4498-b21b-7963da9c4aac","system_id":"levelo_inurba_marseille","lat":43.270721,"lon":5.422764,"is_reserved":false,"is_disabled":false,"rental_uris":{"android":"levelo://app?vid=db2e86d5-7627-4498-b21b-7963da9c4aac","ios":"levelo://app?vid=db2e86d5-7627-4498-b21b-7963da9c4aac"},"vehicle_type_id":"4","last_reported":1702476414,"current_range_meters":28000,"station_id":"ce4bhk92rcd13ifvqgb0","pricing_plan_id":"free"},{"bike_id":"68ca7af0-452e-4c62-91cd-bec1895dbafb","system_id":"levelo_inurba_marseille","lat":43.270721,"lon":5.422764,"is_reserved":false,"is_disabled":false,"rental_uris":{"android":"levelo://app?vid=68ca7af0-452e-4c62-91cd-bec1895dbafb","ios":"levelo://app?vid=68ca7af0-452e-4c62-91cd-bec1895dbafb"},"vehicle_type_id":"4","last_reported":1702476414,"current_range_meters":13200,"station_id":"ce4bhk92rcd13ifvqgb0","pricing_plan_id":"free"},{"bike_id":"c2e442f4-0cd8-4d0b-bf29-b60be70bf5fb","system_id":"levelo_inurba_marseille","lat":43.25928,"lon":5.40917,"is_reserved":false,"is_disabled":false,"rental_uris":{"android":"levelo://app?vid=c2e442f4-0cd8-4d0b-bf29-b60be70bf5fb","ios":"levelo://app?vid=c2e442f4-0cd8-4d0b-bf29-b60be70bf5fb"},"vehicle_type_id":"4","last_reported":1702476414,"current_range_meters":400,"station_id":"ce4bhm92rcd13ifvqglg","pricing_plan_id":"free"},{"bike_id":"1c6c8004-3c20-45d6-a4c4-added873c999","system_id":"levelo_inurba_marseille","lat":43.257079,"lon":5.411051,"is_reserved":false,"is_disabled":false,"rental_uris":{"android":"levelo://app?vid=1c6c8004-3c20-45d6-a4c4-added873c999","ios":"levelo://app?vid=1c6c8004-3c20-45d6-a4c4-added873c999"},"vehicle_type_id":"4","last_reported":1702476414,"current_range_meters":6000,"station_id":"ce4bhkp2rcd13ifvqgd0","pricing_plan_id":"free"},{"bike_id":"f0148e17-e5e1-449a-be50-1802f64dc09d","system_id":"levelo_inurba_marseille","lat":43.257079,"lon":5.411051,"is_reserved":false,"is_disabled":false,"rental_uris":{"android":"levelo://app?vid=f0148e17-e5e1-449a-be50-1802f64dc09d","ios":"levelo://app?vid=f0148e17-e5e1-449a-be50-1802f64dc09d"},"vehicle_type_id":"4","last_reported":1702476414,"current_range_meters":10800,"station_id":"ce4bhkp2rcd13ifvqgd0","pricing_plan_id":"free"},{"bike_id":"52f38276-fd31-40ff-a1c3-e44d3aa0a8b3","system_id":"levelo_inurba_marseille","lat":43.250009,"lon":5.389195,"is_reserved":false,"is_disabled":false,"rental_uris":{"android":"levelo://app?vid=52f38276-fd31-40ff-a1c3-e44d3aa0a8b3","ios":"levelo://app?vid=52f38276-fd31-40ff-a1c3-e44d3aa0a8b3"},"vehicle_type_id":"4","last_reported":1702476414,"current_range_meters":23200,"station_id":"ce4bhgp2rcd13ifvqfd0","pricing_plan_id":"free"},{"bike_id":"f90ff854-1c99-4196-b53c-c017445c3873","system_id":"levelo_inurba_marseille","lat":43.250009,"lon":5.389195,"is_reserved":false,"is_disabled":false,"rental_uris":{"android":"levelo://app?vid=f90ff854-1c99-4196-b53c-c017445c3873","ios":"levelo://app?vid=f90ff854-1c99-4196-b53c-c017445c3873"},"vehicle_type_id":"4","last_reported":1702476414,"current_range_meters":16400,"station_id":"ce4bhgp2rcd13ifvqfd0","pricing_plan_id":"free"},{"bike_id":"f3ebdc89-9323-4d86-b618-6d4861018d79","system_id":"levelo_inurba_marseille","lat":43.250966,"lon":5.395186,"is_reserved":false,"is_disabled":false,"rental_uris":{"android":"levelo://app?vid=f3ebdc89-9323-4d86-b618-6d4861018d79","ios":"levelo://app?vid=f3ebdc89-9323-4d86-b618-6d4861018d79"},"vehicle_type_id":"4","last_reported":1702476414,"current_range_meters":26800,"station_id":"ce4bhm12rcd13ifvqgkg","pricing_plan_id":"free"},{"bike_id":"b846a0e1-d839-4f69-a933-c27da5e3c296","system_id":"levelo_inurba_marseille","lat":43.250966,"lon":5.395186,"is_reserved":false,"is_disabled":false,"rental_uris":{"android":"levelo://app?vid=b846a0e1-d839-4f69-a933-c27da5e3c296","ios":"levelo://app?vid=b846a0e1-d839-4f69-a933-c27da5e3c296"},"vehicle_type_id":"4","last_reported":1702476414,"current_range_meters":26800,"station_id":"ce4bhm12rcd13ifvqgkg","pricing_plan_id":"free"},{"bike_id":"6000c8c6-1d93-4098-9c3a-650919726f21","system_id":"levelo_inurba_marseille","lat":43.25102,"lon":5.403214,"is_reserved":false,"is_disabled":false,"rental_uris":{"android":"levelo://app?vid=6000c8c6-1d93-4098-9c3a-650919726f21","ios":"levelo://app?vid=6000c8c6-1d93-4098-9c3a-650919726f21"},"vehicle_type_id":"4","last_reported":1702476414,"current_range_meters":15600,"station_id":"ce4bhlh2rcd13ifvqgig","pricing_plan_id":"free"},{"bike_id":"6c523124-920f-4924-91e4-8bdf7a7616d2","system_id":"levelo_inurba_marseille","lat":43.25102,"lon":5.403214,"is_reserved":false,"is_disabled":false,"rental_uris":{"android":"levelo://app?vid=6c523124-920f-4924-91e4-8bdf7a7616d2","ios":"levelo://app?vid=6c523124-920f-4924-91e4-8bdf7a7616d2"},"vehicle_type_id":"4","last_reported":1702476414,"current_range_meters":19600,"station_id":"ce4bhlh2rcd13ifvqgig","pricing_plan_id":"free"},{"bike_id":"52219352-232d-4d43-9247-be0fa3f63f22","system_id":"levelo_inurba_marseille","lat":43.246467,"lon":5.388984,"is_reserved":false,"is_disabled":false,"rental_uris":{"android":"levelo://app?vid=52219352-232d-4d43-9247-be0fa3f63f22","ios":"levelo://app?vid=52219352-232d-4d43-9247-be0fa3f63f22"},"vehicle_type_id":"4","last_reported":1702476414,"current_range_meters":7600,"station_id":"ce4bhg12rcd13ifvqf60","pricing_plan_id":"free"},{"bike_id":"1da87602-9cbd-422d-a96e-387b9232edc2","system_id":"levelo_inurba_marseille","lat":43.2465,"lon":5.38907,"is_reserved":false,"is_disabled":false,"rental_uris":{"android":"levelo://app?vid=1da87602-9cbd-422d-a96e-387b9232edc2","ios":"levelo://app?vid=1da87602-9cbd-422d-a96e-387b9232edc2"},"vehicle_type_id":"4","last_reported":1702476414,"current_range_meters":800,"station_id":"ce4bhg12rcd13ifvqf60","pricing_plan_id":"free"},{"bike_id":"79ff15de-4d4c-4e0e-8061-666c8b0d69a6","system_id":"levelo_inurba_marseille","lat":43.243884,"lon":5.370737,"is_reserved":false,"is_disabled":false,"rental_uris":{"android":"levelo://app?vid=79ff15de-4d4c-4e0e-8061-666c8b0d69a6","ios":"levelo://app?vid=79ff15de-4d4c-4e0e-8061-666c8b0d69a6"},"vehicle_type_id":"4","last_reported":1702476414,"current_range_meters":8800,"station_id":"ce4bhhh2rcd13ifvqfk0","pricing_plan_id":"free"},{"bike_id":"fbf0762a-f3fc-450d-a00d-5771debb171a","system_id":"levelo_inurba_marseille","lat":43.243884,"lon":5.370736,"is_reserved":false,"is_disabled":false,"rental_uris":{"android":"levelo://app?vid=fbf0762a-f3fc-450d-a00d-5771debb171a","ios":"levelo://app?vid=fbf0762a-f3fc-450d-a00d-5771debb171a"},"vehicle_type_id":"4","last_reported":1702476414,"current_range_meters":24000,"station_id":"ce4bhhh2rcd13ifvqfk0","pricing_plan_id":"free"},{"bike_id":"08fe27cb-2dd9-4ce4-8603-298734917d3f","system_id":"levelo_inurba_marseille","lat":43.240623,"lon":5.377642,"is_reserved":false,"is_disabled":false,"rental_uris":{"android":"levelo://app?vid=08fe27cb-2dd9-4ce4-8603-298734917d3f","ios":"levelo://app?vid=08fe27cb-2dd9-4ce4-8603-298734917d3f"},"vehicle_type_id":"4","last_reported":1702476414,"current_range_meters":18000,"station_id":"ce4bhnp2rcd13ifvqgvg","pricing_plan_id":"free"},{"bike_id":"1f32b643-777b-4ecc-9fb2-0734f62a93db","system_id":"levelo_inurba_marseille","lat":43.240623,"lon":5.377642,"is_reserved":false,"is_disabled":false,"rental_uris":{"android":"levelo://app?vid=1f32b643-777b-4ecc-9fb2-0734f62a93db","ios":"levelo://app?vid=1f32b643-777b-4ecc-9fb2-0734f62a93db"},"vehicle_type_id":"4","last_reported":1702476414,"current_range_meters":25600,"station_id":"ce4bhnp2rcd13ifvqgvg","pricing_plan_id":"free"},{"bike_id":"edd5e50e-2bb6-4126-a45d-2f93a58944b6","system_id":"levelo_inurba_marseille","lat":43.240623,"lon":5.377642,"is_reserved":false,"is_disabled":false,"rental_uris":{"android":"levelo://app?vid=edd5e50e-2bb6-4126-a45d-2f93a58944b6","ios":"levelo://app?vid=edd5e50e-2bb6-4126-a45d-2f93a58944b6"},"vehicle_type_id":"4","last_reported":1702476414,"current_range_meters":15600,"station_id":"ce4bhnp2rcd13ifvqgvg","pricing_plan_id":"free"},{"bike_id":"ae545de9-aa84-4179-a9bc-5b14c5b659df","system_id":"levelo_inurba_marseille","lat":43.239588,"lon":5.366238,"is_reserved":false,"is_disabled":false,"rental_uris":{"android":"levelo://app?vid=ae545de9-aa84-4179-a9bc-5b14c5b659df","ios":"levelo://app?vid=ae545de9-aa84-4179-a9bc-5b14c5b659df"},"vehicle_type_id":"4","last_reported":1702476414,"current_range_meters":16400,"station_id":"ce4bhi12rcd13ifvqfp0","pricing_plan_id":"free"},{"bike_id":"95984ec1-e100-477b-a046-066546a82378","system_id":"levelo_inurba_marseille","lat":43.239588,"lon":5.366238,"is_reserved":false,"is_disabled":false,"rental_uris":{"android":"levelo://app?vid=95984ec1-e100-477b-a046-066546a82378","ios":"levelo://app?vid=95984ec1-e100-477b-a046-066546a82378"},"vehicle_type_id":"4","last_reported":1702476414,"current_range_meters":17200,"station_id":"ce4bhi12rcd13ifvqfp0","pricing_plan_id":"free"},{"bike_id":"41fce50f-32c0-42c3-afb9-ea5da7f278e8","system_id":"levelo_inurba_marseille","lat":43.241782,"lon":5.397261,"is_reserved":false,"is_disabled":false,"rental_uris":{"android":"levelo://app?vid=41fce50f-32c0-42c3-afb9-ea5da7f278e8","ios":"levelo://app?vid=41fce50f-32c0-42c3-afb9-ea5da7f278e8"},"vehicle_type_id":"4","last_reported":1702476414,"current_range_meters":8400,"station_id":"ce4bhn12rcd13ifvqgpg","pricing_plan_id":"free"},{"bike_id":"a24e9a7d-aca6-4a9e-803e-e0faeb33511b","system_id":"levelo_inurba_marseille","lat":43.231923,"lon":5.355545,"is_reserved":false,"is_disabled":false,"rental_uris":{"android":"levelo://app?vid=a24e9a7d-aca6-4a9e-803e-e0faeb33511b","ios":"levelo://app?vid=a24e9a7d-aca6-4a9e-803e-e0faeb33511b"},"vehicle_type_id":"4","last_reported":1702476414,"current_range_meters":0,"station_id":"ce4bhu92rcd13ifvqi70","pricing_plan_id":"free"},{"bike_id":"28cf0186-3129-4448-9e8f-8fa9860365e7","system_id":"levelo_inurba_marseille","lat":43.231794,"lon":5.400052,"is_reserved":false,"is_disabled":false,"rental_uris":{"android":"levelo://app?vid=28cf0186-3129-4448-9e8f-8fa9860365e7","ios":"levelo://app?vid=28cf0186-3129-4448-9e8f-8fa9860365e7"},"vehicle_type_id":"4","last_reported":1702476414,"current_range_meters":19200,"station_id":"ce4bhn12rcd13ifvqgqg","pricing_plan_id":"free"},{"bike_id":"46e85755-7f44-4770-9e69-88e3e5d2d0d4","system_id":"levelo_inurba_marseille","lat":43.231794,"lon":5.400052,"is_reserved":false,"is_disabled":false,"rental_uris":{"android":"levelo://app?vid=46e85755-7f44-4770-9e69-88e3e5d2d0d4","ios":"levelo://app?vid=46e85755-7f44-4770-9e69-88e3e5d2d0d4"},"vehicle_type_id":"4","last_reported":1702476414,"current_range_meters":21600,"station_id":"ce4bhn12rcd13ifvqgqg","pricing_plan_id":"free"},{"bike_id":"976b51c7-50e5-4a1e-9623-472378627f57","system_id":"levelo_inurba_marseille","lat":43.231845,"lon":5.399775,"is_reserved":false,"is_disabled":false,"rental_uris":{"android":"levelo://app?vid=976b51c7-50e5-4a1e-9623-472378627f57","ios":"levelo://app?vid=976b51c7-50e5-4a1e-9623-472378627f57"},"vehicle_type_id":"4","last_reported":1702476414,"current_range_meters":12000,"station_id":"ce4bhn12rcd13ifvqgqg","pricing_plan_id":"free"},{"bike_id":"1d577370-930a-4ab4-8149-3d00a85d7cbe","system_id":"levelo_inurba_marseille","lat":43.231794,"lon":5.400052,"is_reserved":false,"is_disabled":false,"rental_uris":{"android":"levelo://app?vid=1d577370-930a-4ab4-8149-3d00a85d7cbe","ios":"levelo://app?vid=1d577370-930a-4ab4-8149-3d00a85d7cbe"},"vehicle_type_id":"4","last_reported":1702476414,"current_range_meters":18400,"station_id":"ce4bhn12rcd13ifvqgqg","pricing_plan_id":"free"},{"bike_id":"5d66a1e1-407e-43b7-8a1f-b43437a90341","system_id":"levelo_inurba_marseille","lat":43.231794,"lon":5.400052,"is_reserved":false,"is_disabled":false,"rental_uris":{"android":"levelo://app?vid=5d66a1e1-407e-43b7-8a1f-b43437a90341","ios":"levelo://app?vid=5d66a1e1-407e-43b7-8a1f-b43437a90341"},"vehicle_type_id":"4","last_reported":1702476414,"current_range_meters":16400,"station_id":"ce4bhn12rcd13ifvqgqg","pricing_plan_id":"free"},{"bike_id":"e9e13da5-814b-4e04-963f-f688451db439","system_id":"levelo_inurba_marseille","lat":43.231793,"lon":5.400044,"is_reserved":false,"is_disabled":false,"rental_uris":{"android":"levelo://app?vid=e9e13da5-814b-4e04-963f-f688451db439","ios":"levelo://app?vid=e9e13da5-814b-4e04-963f-f688451db439"},"vehicle_type_id":"4","last_reported":1702476414,"current_range_meters":0,"station_id":"ce4bhn12rcd13ifvqgqg","pricing_plan_id":"free"},{"bike_id":"8b01bb59-2645-444e-8775-2b8dfa773148","system_id":"levelo_inurba_marseille","lat":43.231793,"lon":5.400044,"is_reserved":false,"is_disabled":false,"rental_uris":{"android":"levelo://app?vid=8b01bb59-2645-444e-8775-2b8dfa773148","ios":"levelo://app?vid=8b01bb59-2645-444e-8775-2b8dfa773148"},"vehicle_type_id":"4","last_reported":1702476414,"current_range_meters":4400,"station_id":"ce4bhn12rcd13ifvqgqg","pricing_plan_id":"free"},{"bike_id":"166df3b6-d1da-41a4-8bbe-c96e873d13e4","system_id":"levelo_inurba_marseille","lat":43.231793,"lon":5.400044,"is_reserved":false,"is_disabled":false,"rental_uris":{"android":"levelo://app?vid=166df3b6-d1da-41a4-8bbe-c96e873d13e4","ios":"levelo://app?vid=166df3b6-d1da-41a4-8bbe-c96e873d13e4"},"vehicle_type_id":"4","last_reported":1702476414,"current_range_meters":18400,"station_id":"ce4bhn12rcd13ifvqgqg","pricing_plan_id":"free"},{"bike_id":"57c72221-af87-447c-8105-25c1397a08c0","system_id":"levelo_inurba_marseille","lat":43.231793,"lon":5.400044,"is_reserved":false,"is_disabled":false,"rental_uris":{"android":"levelo://app?vid=57c72221-af87-447c-8105-25c1397a08c0","ios":"levelo://app?vid=57c72221-af87-447c-8105-25c1397a08c0"},"vehicle_type_id":"4","last_reported":1702476414,"current_range_meters":21200,"station_id":"ce4bhn12rcd13ifvqgqg","pricing_plan_id":"free"},{"bike_id":"a70842cf-3cdd-4227-8996-9e4cdf55219b","system_id":"levelo_inurba_marseille","lat":43.231793,"lon":5.400044,"is_reserved":false,"is_disabled":false,"rental_uris":{"android":"levelo://app?vid=a70842cf-3cdd-4227-8996-9e4cdf55219b","ios":"levelo://app?vid=a70842cf-3cdd-4227-8996-9e4cdf55219b"},"vehicle_type_id":"4","last_reported":1702476414,"current_range_meters":6400,"station_id":"ce4bhn12rcd13ifvqgqg","pricing_plan_id":"free"},{"bike_id":"eada566f-bacd-4235-9104-2e8d32cdb9c8","system_id":"levelo_inurba_marseille","lat":43.231562,"lon":5.436933,"is_reserved":false,"is_disabled":false,"rental_uris":{"android":"levelo://app?vid=eada566f-bacd-4235-9104-2e8d32cdb9c8","ios":"levelo://app?vid=eada566f-bacd-4235-9104-2e8d32cdb9c8"},"vehicle_type_id":"4","last_reported":1702476414,"current_range_meters":20000,"station_id":"ce4bhmp2rcd13ifvqgog","pricing_plan_id":"free"},{"bike_id":"4af5ffe5-0506-460c-ad5f-2fbf6f458ad9","system_id":"levelo_inurba_marseille","lat":43.231562,"lon":5.436933,"is_reserved":false,"is_disabled":false,"rental_uris":{"android":"levelo://app?vid=4af5ffe5-0506-460c-ad5f-2fbf6f458ad9","ios":"levelo://app?vid=4af5ffe5-0506-460c-ad5f-2fbf6f458ad9"},"vehicle_type_id":"4","last_reported":1702476414,"current_range_meters":9600,"station_id":"ce4bhmp2rcd13ifvqgog","pricing_plan_id":"free"},{"bike_id":"4e113b7d-10fa-42e1-8182-bfa06cee01f1","system_id":"levelo_inurba_marseille","lat":43.231562,"lon":5.436933,"is_reserved":false,"is_disabled":false,"rental_uris":{"android":"levelo://app?vid=4e113b7d-10fa-42e1-8182-bfa06cee01f1","ios":"levelo://app?vid=4e113b7d-10fa-42e1-8182-bfa06cee01f1"},"vehicle_type_id":"4","last_reported":1702476414,"current_range_meters":20400,"station_id":"ce4bhmp2rcd13ifvqgog","pricing_plan_id":"free"}]}}