{"last_updated":1706349960,"ttl":30,"version":"2.2","data":{"bikes":[{"bike_id":"c4c937b3-dce6-4197-9675-f8610fe27cbf","system_id":"levelo_inurba_marseille","lat":43.309076,"lon":5.368465,"is_reserved":false,"is_disabled":false,"rental_uris":{"android":"levelo://app?vid=c4c937b3-dce6-4197-9675-f8610fe27cbf","ios":"levelo://app?vid=c4c937b3-dce6-4197-9675-f8610fe27cbf"},"vehicle_type_id":"4","last_reported":1706349960,"current_range_meters":25200,"station_id":"ce4bgn92rcd13ifvqbvg","pricing_plan_id":"free"},{"bike_id":"a98814cf-6be6-4464-904a-63fbc815bcf5","system_id":"levelo_inurba_marseille","lat":43.314811,"lon":5.373103,"is_reserved":false,"is_disabled":false,"rental_uris":{"android":"levelo://app?vid=a98814cf-6be6-4464-904a-63fbc815bcf5","ios":"levelo://app?vid=a98814cf-6be6-4464-904a-63fbc815bcf5"},"vehicle_type_id":"4","last_reported":1706349960,"current_range_meters":24000,"station_id":"ce4bgt12rcd13ifvqcd0","pricing_plan_id":"free"},{"bike_id":"6afaaa8d-7050-4acd-a898-27057723ada9","system_id":"levelo_inurba_marseille","lat":43.314811,"lon":5.373103,"is_reserved":false,"is_disabled":false,"rental_uris":{"android":"levelo://app?vid=6afaaa8d-7050-4acd-a898-27057723ada9","ios":"levelo://app?vid=6afaaa8d-7050-4acd-a898-27057723ada9"},"vehicle_type_id":"4","last_reported":1706349960,"current_range_meters":30000,"station_id":"ce4bgt12rcd13ifvqcd0","pricing_plan_id":"free"},{"bike_id":"9443e511-2e2d-41e7-a2cd-4c95bf03992f","system_id":"levelo_inurba_marseille","lat":43.313344,"lon":5.376065,"is_reserved":false,"is_disabled":false,"rental_uris":{"android":"levelo://app?vid=9443e511-2e2d-41e7-a2cd-4c95bf03992f","ios":"levelo://app?vid=9443e511-2e2d-41e7-a2cd-4c95bf03992f"},"vehicle_type_id":"4","last_reported":1706349960,"current_range_meters":2000,"station_id":"","pricing_plan_id":"free"},{"bike_id":"c09cd796-5a70-4db5-917a-e41e527d8282","system_id":"levelo_inurba_marseille","lat":43.305712,"lon":5.365641,"is_reserved":false,"is_disabled":false,"rental_uris":{"android":"levelo://app?vid=c09cd796-5a70-4db5-917a-e41e527d8282","ios":"levelo://app?vid=c09cd796-5a70-4db5-917a-e41e527d8282"},"vehicle_type_id":"4","last_reported":1706349960,"current_range_meters":19600,"station_id":"ce4bgs12rcd13ifvqcag","pricing_plan_id":"free"},{"bike_id":"cfa5676c-833e-4094-9db6-4edbc44f0e16","system_id":"levelo_inurba_marseille","lat":43.305712,"lon":5.365641,"is_reserved":false,"is_disabled":false,"rental_uris":{"android":"levelo://app?vid=cfa5676c-833e-4094-9db6-4edbc44f0e16","ios":"levelo://app?vid=cfa5676c-833e-4094-9db6-4edbc44f0e16"},"vehicle_type_id":"4","last_reported":1706349960,"current_range_meters":25600,"station_id":"ce4bgs12rcd13ifvqcag","pricing_plan_id":"free"},{"bike_id":"7b236fb6-aa5c-431e-873d-0c54c69bff8d","system_id":"levelo_inurba_marseille","lat":43.305714,"lon":5.365633,"is_reserved":false,"is_disabled":false,"rental_uris":{"android":"levelo://app?vid=7b236fb6-aa5c-431e-873d-0c54c69bff8d","ios":"levelo://app?vid=7b236fb6-aa5c-431e-873d-0c54c69bff8d"},"vehicle_type_id":"4","last_reported":1706349960,"current_range_meters":24000,"station_id":"ce4bgs12rcd13ifvqcag","pricing_plan_id":"free"},{"bike_id":"86c15b5e-1967-4726-9afb-fcbc035e1693","system_id":"levelo_inurba_marseille","lat":43.305714,"lon":5.365633,"is_reserved":false,"is_disabled":false,"rental_uris":{"android":"levelo://app?vid=86c15b5e-1967-4726-9afb-fcbc035e1693","ios":"levelo://app?vid=86c15b5e-1967-4726-9afb-fcbc035e1693"},"vehicle_type_id":"4","last_reported":1706349960,"current_range_meters":6000,"station_id":"ce4bgs12rcd13ifvqcag","pricing_plan_id":"free"},{"bike_id":"c65aef1f-995d-4b84-b2e3-a186352f51ad","system_id":"levelo_inurba_marseille","lat":43.305368,"lon":5.367343,"is_reserved":false,"is_disabled":false,"rental_uris":{"android":"levelo://app?vid=c65aef1f-995d-4b84-b2e3-a186352f51ad","ios":"levelo://app?vid=c65aef1f-995d-4b84-b2e3-a186352f51ad"},"vehicle_type_id":"4","last_reported":1706349960,"current_range_meters":7600,"station_id":"ce4bgrp2rcd13ifvqc9g","pricing_plan_id":"free"},{"bike_id":"9993dfd7-8593-492e-9e37-1f87784c1b39","system_id":"levelo_inurba_marseille","lat":43.305706,"lon":5.365654,"is_reserved":false,"is_disabled":false,"rental_uris":{"android":"levelo://app?vid=9993dfd7-8593-492e-9e37-1f87784c1b39","ios":"levelo://app?vid=9993dfd7-8593-492e-9e37-1f87784c1b39"},"vehicle_type_id":"4","last_reported":1706349960,"current_range_meters":3200,"station_id":"ce4bgs12rcd13ifvqcag","pricing_plan_id":"free"},{"bike_id":"bd78c07d-58ef-4e86-a473-fa6ca38b9bef","system_id":"levelo_inurba_marseille","lat":43.305714,"lon":5.365633,"is_reserved":false,"is_disabled":false,"rental_uris":{"android":"levelo://app?vid=bd78c07d-58ef-4e86-a473-fa6ca38b9bef","ios":"levelo://app?vid=bd78c07d-58ef-4e86-a473-fa6ca38b9bef"},"vehicle_type_id":"4","last_reported":1706349960,"current_range_meters":26400,"station_id":"ce4bgs12rcd13ifvqcag","pricing_plan_id":"free"},{"bike_id":"88b5d689-3805-4e0d-9069-191199be4074","system_id":"levelo_inurba_marseille","lat":43.305706,"lon":5.365654,"is_reserved":false,"is_disabled":false,"rental_uris":{"android":"levelo://app?vid=88b5d689-3805-4e0d-9069-191199be4074","ios":"levelo://app?vid=88b5d689-3805-4e0d-9069-191199be4074"},"vehicle_type_id":"4","last_reported":1706349960,"current_range_meters":0,"station_id":"ce4bgs12rcd13ifvqcag","pricing_plan_id":"free"},{"bike_id":"3944280f-38a1-410d-ab2a-58f87399045a","system_id":"levelo_inurba_marseille","lat":43.305706,"lon":5.365654,"is_reserved":false,"is_disabled":false,"rental_uris":{"android":"levelo://app?vid=3944280f-38a1-410d-ab2a-58f87399045a","ios":"levelo://app?vid=3944280f-38a1-410d-ab2a-58f87399045a"},"vehicle_type_id":"4","last_reported":1706349960,"current_range_meters":23200,"station_id":"ce4bgs12rcd13ifvqcag","pricing_plan_id":"free"},{"bike_id":"fb0f2aab-81e6-48b0-bfcc-2bbaf7dc73b6","system_id":"levelo_inurba_marseille","lat":43.305357,"lon":5.365383,"is_reserved":false,"is_disabled":false,"rental_uris":{"android":"levelo://app?vid=fb0f2aab-81e6-48b0-bfcc-2bbaf7dc73b6","ios":"levelo://app?vid=fb0f2aab-81e6-48b0-bfcc-2bbaf7dc73b6"},"vehicle_type_id":"4","last_reported":1706349960,"current_range_meters":27200,"station_id":"ce4bgs12rcd13ifvqcag","pricing_plan_id":"free"},{"bike_id":"88ef3d12-b234-4b3c-ae3b-3c2dca84a486","system_id":"levelo_inurba_marseille","lat":43.305706,"lon":5.365654,"is_reserved":false,"is_disabled":false,"rental_uris":{"android":"levelo://app?vid=88ef3d12-b234-4b3c-ae3b-3c2dca84a486","ios":"levelo://app?vid=88ef3d12-b234-4b3c-ae3b-3c2dca84a486"},"vehicle_type_id":"4","last_reported":1706349960,"current_range_meters":32000,"station_id":"ce4bgs12rcd13ifvqcag","pricing_plan_id":"free"},{"bike_id":"678ee84d-3c78-4ebd-a88f-25d0f1ee0c5c","system_id":"levelo_inurba_marseille","lat":43.30603,"lon":5.37244,"is_reserved":false,"is_disabled":false,"rental_uris":{"android":"levelo://app?vid=678ee84d-3c78-4ebd-a88f-25d0f1ee0c5c","ios":"levelo://app?vid=678ee84d-3c78-4ebd-a88f-25d0f1ee0c5c"},"vehicle_type_id":"4","last_reported":1706349960,"current_range_meters":29200,"station_id":"ce4bgqh2rcd13ifvqc4g","pricing_plan_id":"free"},{"bike_id":"1a45d629-20b9-421a-86b2-032044853962","system_id":"levelo_inurba_marseille","lat":43.31113,"lon":5.37781,"is_reserved":false,"is_disabled":false,"rental_uris":{"android":"levelo://app?vid=1a45d629-20b9-421a-86b2-032044853962","ios":"levelo://app?vid=1a45d629-20b9-421a-86b2-032044853962"},"vehicle_type_id":"4","last_reported":1706349960,"current_range_meters":24800,"station_id":"ce4bgt92rcd13ifvqcg0","pricing_plan_id":"free"},{"bike_id":"5b0a56ae-3d70-40f6-ad3f-78c604f89c73","system_id":"levelo_inurba_marseille","lat":43.312401,"lon":5.379939,"is_reserved":false,"is_disabled":false,"rental_uris":{"android":"levelo://app?vid=5b0a56ae-3d70-40f6-ad3f-78c604f89c73","ios":"levelo://app?vid=5b0a56ae-3d70-40f6-ad3f-78c604f89c73"},"vehicle_type_id":"4","last_reported":1706349960,"current_range_meters":14800,"station_id":"","pricing_plan_id":"free"},{"bike_id":"1f648f34-15bd-4325-9ba3-20992c99d10f","system_id":"levelo_inurba_marseille","lat":43.30304,"lon":5.368987,"is_reserved":false,"is_disabled":false,"rental_uris":{"android":"levelo://app?vid=1f648f34-15bd-4325-9ba3-20992c99d10f","ios":"levelo://app?vid=1f648f34-15bd-4325-9ba3-20992c99d10f"},"vehicle_type_id":"4","last_reported":1706349960,"current_range_meters":22400,"station_id":"ce4bgqh2rcd13ifvqc5g","pricing_plan_id":"free"},{"bike_id":"d1821891-83f8-4724-b675-54f032aef793","system_id":"levelo_inurba_marseille","lat":43.303046,"lon":5.368981,"is_reserved":false,"is_disabled":false,"rental_uris":{"android":"levelo://app?vid=d1821891-83f8-4724-b675-54f032aef793","ios":"levelo://app?vid=d1821891-83f8-4724-b675-54f032aef793"},"vehicle_type_id":"4","last_reported":1706349960,"current_range_meters":28000,"station_id":"ce4bgqh2rcd13ifvqc5g","pricing_plan_id":"free"},{"bike_id":"f2d32e0b-c8c4-4733-88ca-b85b383007e7","system_id":"levelo_inurba_marseille","lat":43.303046,"lon":5.368981,"is_reserved":false,"is_disabled":false,"rental_uris":{"android":"levelo://app?vid=f2d32e0b-c8c4-4733-88ca-b85b383007e7","ios":"levelo://app?vid=f2d32e0b-c8c4-4733-88ca-b85b383007e7"},"vehicle_type_id":"4","last_reported":1706349960,"current_range_meters":24800,"station_id":"ce4bgqh2rcd13ifvqc5g","pricing_plan_id":"free"},{"bike_id":"b83daeb9-a39c-4884-86e2-16a37c651f7f","system_id":"levelo_inurba_marseille","lat":43.32005,"lon":5.37623,"is_reserved":false,"is_disabled":false,"rental_uris":{"android":"levelo://app?vid=b83daeb9-a39c-4884-86e2-16a37c651f7f","ios":"levelo://app?vid=b83daeb9-a39c-4884-86e2-16a37c651f7f"},"vehicle_type_id":"4","last_reported":1706349960,"current_range_meters":11600,"station_id":"","pricing_plan_id":"free"},{"bike_id":"e45800f5-5600-459c-aae5-cff933c537ea","system_id":"levelo_inurba_marseille","lat":43.301939,"lon":5.366286,"is_reserved":false,"is_disabled":false,"rental_uris":{"android":"levelo://app?vid=e45800f5-5600-459c-aae5-cff933c537ea","ios":"levelo://app?vid=e45800f5-5600-459c-aae5-cff933c537ea"},"vehicle_type_id":"4","last_reported":1706349960,"current_range_meters":10800,"station_id":"ce4bgrh2rcd13ifvqc8g","pricing_plan_id":"free"},{"bike_id":"c0cfe97a-7e0d-48f7-a143-5a19275e9328","system_id":"levelo_inurba_marseille","lat":43.304606,"lon":5.379026,"is_reserved":false,"is_disabled":false,"rental_uris":{"android":"levelo://app?vid=c0cfe97a-7e0d-48f7-a143-5a19275e9328","ios":"levelo://app?vid=c0cfe97a-7e0d-48f7-a143-5a19275e9328"},"vehicle_type_id":"4","last_reported":1706349960,"current_range_meters":31200,"station_id":"ce4bgup2rcd13ifvqcn0","pricing_plan_id":"free"},{"bike_id":"7e655ff1-388a-4a07-b6ad-b564b9c6aa64","system_id":"levelo_inurba_marseille","lat":43.3047,"lon":5.37901,"is_reserved":false,"is_disabled":false,"rental_uris":{"android":"levelo://app?vid=7e655ff1-388a-4a07-b6ad-b564b9c6aa64","ios":"levelo://app?vid=7e655ff1-388a-4a07-b6ad-b564b9c6aa64"},"vehicle_type_id":"4","last_reported":1706349960,"current_range_meters":30000,"station_id":"ce4bgup2rcd13ifvqcn0","pricing_plan_id":"free"},{"bike_id":"1c00e110-5db3-4eec-9379-67959839c776","system_id":"levelo_inurba_marseille","lat":43.304606,"lon":5.379026,"is_reserved":false,"is_disabled":false,"rental_uris":{"android":"levelo://app?vid=1c00e110-5db3-4eec-9379-67959839c776","ios":"levelo://app?vid=1c00e110-5db3-4eec-9379-67959839c776"},"vehicle_type_id":"4","last_reported":1706349960,"current_range_meters":30400,"station_id":"ce4bgup2rcd13ifvqcn0","pricing_plan_id":"free"},{"bike_id":"ee1204c3-3d11-4736-a27e-0a691fe7c70f","system_id":"levelo_inurba_marseille","lat":43.304606,"lon":5.379026,"is_reserved":false,"is_disabled":false,"rental_uris":{"android":"levelo://app?vid=ee1204c3-3d11-4736-a27e-0a691fe7c70f","ios":"levelo://app?vid=ee1204c3-3d11-4736-a27e-0a691fe7c70f"},"vehicle_type_id":"4","last_reported":1706349960,"current_range_meters":24000,"station_id":"ce4bgup2rcd13ifvqcn0","pricing_plan_id":"free"},{"bike_id":"ab554bd9-65e3-4382-980c-898cd12b7609","system_id":"levelo_inurba_marseille","lat":43.304708,"lon":5.379044,"is_reserved":false,"is_disabled":false,"rental_uris":{"android":"levelo://app?vid=ab554bd9-65e3-4382-980c-898cd12b7609","ios":"levelo://app?vid=ab554bd9-65e3-4382-980c-898cd12b7609"},"vehicle_type_id":"4","last_reported":1706349960,"current_range_meters":21600,"station_id":"ce4bgup2rcd13ifvqcn0","pricing_plan_id":"free"},{"bike_id":"2c60c43f-6ecf-43cd-9eee-d81e440dd64f","system_id":"levelo_inurba_marseille","lat":43.304657,"lon":5.379004,"is_reserved":false,"is_disabled":false,"rental_uris":{"android":"levelo://app?vid=2c60c43f-6ecf-43cd-9eee-d81e440dd64f","ios":"levelo://app?vid=2c60c43f-6ecf-43cd-9eee-d81e440dd64f"},"vehicle_type_id":"4","last_reported":1706349960,"current_range_meters":20000,"station_id":"ce4bgup2rcd13ifvqcn0","pricing_plan_id":"free"},{"bike_id":"8b18958d-4b15-4c24-8ca8-bac72fe1a3bc","system_id":"levelo_inurba_marseille","lat":43.30469,"lon":5.37908,"is_reserved":false,"is_disabled":false,"rental_uris":{"android":"levelo://app?vid=8b18958d-4b15-4c24-8ca8-bac72fe1a3bc","ios":"levelo://app?vid=8b18958d-4b15-4c24-8ca8-bac72fe1a3bc"},"vehicle_type_id":"4","last_reported":1706349960,"current_range_meters":30800,"station_id":"ce4bgup2rcd13ifvqcn0","pricing_plan_id":"free"},{"bike_id":"fa58b73e-48df-4ba2-bc67-0d11556b26f7","system_id":"levelo_inurba_marseille","lat":43.304606,"lon":5.379026,"is_reserved":false,"is_disabled":false,"rental_uris":{"android":"levelo://app?vid=fa58b73e-48df-4ba2-bc67-0d11556b26f7","ios":"levelo://app?vid=fa58b73e-48df-4ba2-bc67-0d11556b26f7"},"vehicle_type_id":"4","last_reported":1706349960,"current_range_meters":28800,"station_id":"ce4bgup2rcd13ifvqcn0","pricing_plan_id":"free"},{"bike_id":"387adbba-7e92-4060-9d50-39a15b32664b","system_id":"levelo_inurba_marseille","lat":43.304606,"lon":5.379026,"is_reserved":false,"is_disabled":false,"rental_uris":{"android":"levelo://app?vid=387adbba-7e92-4060-9d50-39a15b32664b","ios":"levelo://app?vid=387adbba-7e92-4060-9d50-39a15b32664b"},"vehicle_type_id":"4","last_reported":1706349960,"current_range_meters":28800,"station_id":"ce4bgup2rcd13ifvqcn0","pricing_plan_id":"free"},{"bike_id":"70a34565-c5fc-44b7-8bee-b5475e5bc3c3","system_id":"levelo_inurba_marseille","lat":43.3046,"lon":5.379,"is_reserved":false,"is_disabled":false,"rental_uris":{"android":"levelo://app?vid=70a34565-c5fc-44b7-8bee-b5475e5bc3c3","ios":"levelo://app?vid=70a34565-c5fc-44b7-8bee-b5475e5bc3c3"},"vehicle_type_id":"4","last_reported":1706349960,"current_range_meters":12800,"station_id":"ce4bgup2rcd13ifvqcn0","pricing_plan_id":"free"},{"bike_id":"e3cfa974-2663-4965-a96a-f55f3013619c","system_id":"levelo_inurba_marseille","lat":43.324771,"lon":5.36557,"is_reserved":false,"is_disabled":false,"rental_uris":{"android":"levelo://app?vid=e3cfa974-2663-4965-a96a-f55f3013619c","ios":"levelo://app?vid=e3cfa974-2663-4965-a96a-f55f3013619c"},"vehicle_type_id":"4","last_reported":1706349960,"current_range_meters":5600,"station_id":"ce4bhs12rcd13ifvqhvg","pricing_plan_id":"free"},{"bike_id":"e77d30b7-14af-44d6-80a1-563db5026f0d","system_id":"levelo_inurba_marseille","lat":43.302784,"lon":5.377158,"is_reserved":false,"is_disabled":false,"rental_uris":{"android":"levelo://app?vid=e77d30b7-14af-44d6-80a1-563db5026f0d","ios":"levelo://app?vid=e77d30b7-14af-44d6-80a1-563db5026f0d"},"vehicle_type_id":"4","last_reported":1706349960,"current_range_meters":0,"station_id":"ce4bguh2rcd13ifvqcj0","pricing_plan_id":"free"},{"bike_id":"86d4df1c-8a93-45a8-af3f-2f4e9388b4dd","system_id":"levelo_inurba_marseille","lat":43.302784,"lon":5.377158,"is_reserved":false,"is_disabled":false,"rental_uris":{"android":"levelo://app?vid=86d4df1c-8a93-45a8-af3f-2f4e9388b4dd","ios":"levelo://app?vid=86d4df1c-8a93-45a8-af3f-2f4e9388b4dd"},"vehicle_type_id":"4","last_reported":1706349960,"current_range_meters":0,"station_id":"ce4bguh2rcd13ifvqcj0","pricing_plan_id":"free"},{"bike_id":"88aa8230-dcc9-433d-96e4-513a284697d7","system_id":"levelo_inurba_marseille","lat":43.302784,"lon":5.377158,"is_reserved":false,"is_disabled":false,"rental_uris":{"android":"levelo://app?vid=88aa8230-dcc9-433d-96e4-513a284697d7","ios":"levelo://app?vid=88aa8230-dcc9-433d-96e4-513a284697d7"},"vehicle_type_id":"4","last_reported":1706349960,"current_range_meters":26400,"station_id":"ce4bguh2rcd13ifvqcj0","pricing_plan_id":"free"},{"bike_id":"29eb9a7e-ba32-4b4c-9e73-f4d187db0b7a","system_id":"levelo_inurba_marseille","lat":43.302784,"lon":5.377158,"is_reserved":false,"is_disabled":false,"rental_uris":{"android":"levelo://app?vid=29eb9a7e-ba32-4b4c-9e73-f4d187db0b7a","ios":"levelo://app?vid=29eb9a7e-ba32-4b4c-9e73-f4d187db0b7a"},"vehicle_type_id":"4","last_reported":1706349960,"current_range_meters":20400,"station_id":"ce4bguh2rcd13ifvqcj0","pricing_plan_id":"free"},{"bike_id":"d2e7af7a-244b-42a0-9a71-4cc307bebd3a","system_id":"levelo_inurba_marseille","lat":43.301429,"lon":5.37413,"is_reserved":false,"is_disabled":false,"rental_uris":{"android":"levelo://app?vid=d2e7af7a-244b-42a0-9a71-4cc307bebd3a","ios":"levelo://app?vid=d2e7af7a-244b-42a0-9a71-4cc307bebd3a"},"vehicle_type_id":"4","last_reported":1706349960,"current_range_meters":31200,"station_id":"ce4bgs92rcd13ifvqcc0","pricing_plan_id":"free"},{"bike_id":"ae7ab608-8fac-4c0d-9f43-8ffacb07a49d","system_id":"levelo_inurba_marseille","lat":43.319935,"lon":5.381699,"is_reserved":false,"is_disabled":false,"rental_uris":{"android":"levelo://app?vid=ae7ab608-8fac-4c0d-9f43-8ffacb07a49d","ios":"levelo://app?vid=ae7ab608-8fac-4c0d-9f43-8ffacb07a49d"},"vehicle_type_id":"4","last_reported":1706349960,"current_range_meters":4800,"station_id":"ce4bhr12rcd13ifvqhpg","pricing_plan_id":"free"},{"bike_id":"fbd1c7c8-59f4-40f3-bd13-92a41198f404","system_id":"levelo_inurba_marseille","lat":43.319935,"lon":5.381699,"is_reserved":false,"is_disabled":false,"rental_uris":{"android":"levelo://app?vid=fbd1c7c8-59f4-40f3-bd13-92a41198f404","ios":"levelo://app?vid=fbd1c7c8-59f4-40f3-bd13-92a41198f404"},"vehicle_type_id":"4","last_reported":1706349960,"current_range_meters":16800,"station_id":"ce4bhr12rcd13ifvqhpg","pricing_plan_id":"free"},{"bike_id":"5f7ec9ca-defa-4048-96f4-b62ebd1a927a","system_id":"levelo_inurba_marseille","lat":43.319935,"lon":5.381699,"is_reserved":false,"is_disabled":false,"rental_uris":{"android":"levelo://app?vid=5f7ec9ca-defa-4048-96f4-b62ebd1a927a","ios":"levelo://app?vid=5f7ec9ca-defa-4048-96f4-b62ebd1a927a"},"vehicle_type_id":"4","last_reported":1706349960,"current_range_meters":19600,"station_id":"ce4bhr12rcd13ifvqhpg","pricing_plan_id":"free"},{"bike_id":"f7b1efc0-1961-4895-ae9d-0ad221e9232d","system_id":"levelo_inurba_marseille","lat":43.319935,"lon":5.381699,"is_reserved":false,"is_disabled":false,"rental_uris":{"android":"levelo://app?vid=f7b1efc0-1961-4895-ae9d-0ad221e9232d","ios":"levelo://app?vid=f7b1efc0-1961-4895-ae9d-0ad221e9232d"},"vehicle_type_id":"4","last_reported":1706349960,"current_range_meters":29600,"station_id":"ce4bhr12rcd13ifvqhpg","pricing_plan_id":"free"},{"bike_id":"fc51b747-b33f-40c9-9c2c-bd6f886bc3e2","system_id":"levelo_inurba_marseille","lat":43.319935,"lon":5.381699,"is_reserved":false,"is_disabled":false,"rental_uris":{"android":"levelo://app?vid=fc51b747-b33f-40c9-9c2c-bd6f886bc3e2","ios":"levelo://app?vid=fc51b747-b33f-40c9-9c2c-bd6f886bc3e2"},"vehicle_type_id":"4","last_reported":1706349960,"current_range_meters":10400,"station_id":"ce4bhr12rcd13ifvqhpg","pricing_plan_id":"free"},{"bike_id":"d11a1f3a-d548-483b-8bfb-a3d43524c954","system_id":"levelo_inurba_marseille","lat":43.319935,"lon":5.381699,"is_reserved":false,"is_disabled":false,"rental_uris":{"android":"levelo://app?vid=d11a1f3a-d548-483b-8bfb-a3d43524c954","ios":"levelo://app?vid=d11a1f3a-d548-483b-8bfb-a3d43524c954"},"vehicle_type_id":"4","last_reported":1706349960,"current_range_meters":31200,"station_id":"ce4bhr12rcd13ifvqhpg","pricing_plan_id":"free"},{"bike_id":"488abd18-e9a1-4239-9600-d9dbf03e5437","system_id":"levelo_inurba_marseille","lat":43.319935,"lon":5.381699,"is_reserved":false,"is_disabled":false,"rental_uris":{"android":"levelo://app?vid=488abd18-e9a1-4239-9600-d9dbf03e5437","ios":"levelo://app?vid=488abd18-e9a1-4239-9600-d9dbf03e5437"},"vehicle_type_id":"4","last_reported":1706349960,"current_range_meters":31200,"station_id":"ce4bhr12rcd13ifvqhpg","pricing_plan_id":"free"},{"bike_id":"01533f59-2c23-4279-b5fa-c0608335cf09","system_id":"levelo_inurba_marseille","lat":43.319935,"lon":5.381699,"is_reserved":false,"is_disabled":false,"rental_uris":{"android":"levelo://app?vid=01533f59-2c23-4279-b5fa-c0608335cf09","ios":"levelo://app?vid=01533f59-2c23-4279-b5fa-c0608335cf09"},"vehicle_type_id":"4","last_reported":1706349960,"current_range_meters":30400,"station_id":"ce4bhr12rcd13ifvqhpg","pricing_plan_id":"free"},{"bike_id":"9d3e0a18-e0dc-4dd8-ba32-e03713e93a3c","system_id":"levelo_inurba_marseille","lat":43.313571,"lon":5.384829,"is_reserved":false,"is_disabled":false,"rental_uris":{"android":"levelo://app?vid=9d3e0a18-e0dc-4dd8-ba32-e03713e93a3c","ios":"levelo://app?vid=9d3e0a18-e0dc-4dd8-ba32-e03713e93a3c"},"vehicle_type_id":"4","last_reported":1706349960,"current_range_meters":28800,"station_id":"ce4bgt92rcd13ifvqcf0","pricing_plan_id":"free"},{"bike_id":"93c25261-a546-4428-aa1d-94c2a5df21d9","system_id":"levelo_inurba_marseille","lat":43.300007,"lon":5.371537,"is_reserved":false,"is_disabled":false,"rental_uris":{"android":"levelo://app?vid=93c25261-a546-4428-aa1d-94c2a5df21d9","ios":"levelo://app?vid=93c25261-a546-4428-aa1d-94c2a5df21d9"},"vehicle_type_id":"4","last_reported":1706349960,"current_range_meters":14400,"station_id":"ce4bgr92rcd13ifvqc7g","pricing_plan_id":"free"},{"bike_id":"27b22ba1-ef73-4c65-98ff-e67a61f1aa27","system_id":"levelo_inurba_marseille","lat":43.299222,"lon":5.365554,"is_reserved":false,"is_disabled":false,"rental_uris":{"android":"levelo://app?vid=27b22ba1-ef73-4c65-98ff-e67a61f1aa27","ios":"levelo://app?vid=27b22ba1-ef73-4c65-98ff-e67a61f1aa27"},"vehicle_type_id":"4","last_reported":1706349960,"current_range_meters":14000,"station_id":"ce4bgm92rcd13ifvqbr0","pricing_plan_id":"free"},{"bike_id":"1cbe727b-3617-4578-9d25-56124c1a8b9a","system_id":"levelo_inurba_marseille","lat":43.305364,"lon":5.384119,"is_reserved":false,"is_disabled":false,"rental_uris":{"android":"levelo://app?vid=1cbe727b-3617-4578-9d25-56124c1a8b9a","ios":"levelo://app?vid=1cbe727b-3617-4578-9d25-56124c1a8b9a"},"vehicle_type_id":"4","last_reported":1706349960,"current_range_meters":17600,"station_id":"ce4bgg92rcd13ifvqb30","pricing_plan_id":"free"},{"bike_id":"32d474d8-6eaf-4b84-9826-89143ef28c80","system_id":"levelo_inurba_marseille","lat":43.298433,"lon":5.362774,"is_reserved":false,"is_disabled":false,"rental_uris":{"android":"levelo://app?vid=32d474d8-6eaf-4b84-9826-89143ef28c80","ios":"levelo://app?vid=32d474d8-6eaf-4b84-9826-89143ef28c80"},"vehicle_type_id":"4","last_reported":1706349960,"current_range_meters":16800,"station_id":"ce4bgpp2rcd13ifvqc3g","pricing_plan_id":"free"},{"bike_id":"06d61923-ca36-4466-b22b-aabd9f706139","system_id":"levelo_inurba_marseille","lat":43.298433,"lon":5.362774,"is_reserved":false,"is_disabled":false,"rental_uris":{"android":"levelo://app?vid=06d61923-ca36-4466-b22b-aabd9f706139","ios":"levelo://app?vid=06d61923-ca36-4466-b22b-aabd9f706139"},"vehicle_type_id":"4","last_reported":1706349960,"current_range_meters":30400,"station_id":"ce4bgpp2rcd13ifvqc3g","pricing_plan_id":"free"},{"bike_id":"96075432-347b-46bf-afc7-a4f2d175e0db","system_id":"levelo_inurba_marseille","lat":43.298433,"lon":5.362774,"is_reserved":false,"is_disabled":false,"rental_uris":{"android":"levelo://app?vid=96075432-347b-46bf-afc7-a4f2d175e0db","ios":"levelo://app?vid=96075432-347b-46bf-afc7-a4f2d175e0db"},"vehicle_type_id":"4","last_reported":1706349960,"current_range_meters":14800,"station_id":"ce4bgpp2rcd13ifvqc3g","pricing_plan_id":"free"},{"bike_id":"cd976d96-bf97-422e-8096-384e501d546d","system_id":"levelo_inurba_marseille","lat":43.305364,"lon":5.384119,"is_reserved":false,"is_disabled":false,"rental_uris":{"android":"levelo://app?vid=cd976d96-bf97-422e-8096-384e501d546d","ios":"levelo://app?vid=cd976d96-bf97-422e-8096-384e501d546d"},"vehicle_type_id":"4","last_reported":1706349960,"current_range_meters":0,"station_id":"ce4bgg92rcd13ifvqb30","pricing_plan_id":"free"},{"bike_id":"6a976cc9-869f-4700-b73e-6d0c1c68d9b2","system_id":"levelo_inurba_marseille","lat":43.299243,"lon":5.37481,"is_reserved":false,"is_disabled":false,"rental_uris":{"android":"levelo://app?vid=6a976cc9-869f-4700-b73e-6d0c1c68d9b2","ios":"levelo://app?vid=6a976cc9-869f-4700-b73e-6d0c1c68d9b2"},"vehicle_type_id":"4","last_reported":1706349960,"current_range_meters":27200,"station_id":"ce4bgjh2rcd13ifvqbg0","pricing_plan_id":"free"},{"bike_id":"8bf65041-c8dd-43cf-a9ff-fa61bea9339e","system_id":"levelo_inurba_marseille","lat":43.297794,"lon":5.370888,"is_reserved":false,"is_disabled":false,"rental_uris":{"android":"levelo://app?vid=8bf65041-c8dd-43cf-a9ff-fa61bea9339e","ios":"levelo://app?vid=8bf65041-c8dd-43cf-a9ff-fa61bea9339e"},"vehicle_type_id":"4","last_reported":1706349960,"current_range_meters":31200,"station_id":"ce4bgop2rcd13ifvqc1g","pricing_plan_id":"free"},{"bike_id":"8808aadf-602d-4e5d-8736-6f6e721b2252","system_id":"levelo_inurba_marseille","lat":43.297774,"lon":5.370875,"is_reserved":false,"is_disabled":false,"rental_uris":{"android":"levelo://app?vid=8808aadf-602d-4e5d-8736-6f6e721b2252","ios":"levelo://app?vid=8808aadf-602d-4e5d-8736-6f6e721b2252"},"vehicle_type_id":"4","last_reported":1706349960,"current_range_meters":30400,"station_id":"ce4bgop2rcd13ifvqc1g","pricing_plan_id":"free"},{"bike_id":"b2167919-7b57-4d9b-9f8b-d5a3411c7038","system_id":"levelo_inurba_marseille","lat":43.297774,"lon":5.370875,"is_reserved":false,"is_disabled":false,"rental_uris":{"android":"levelo://app?vid=b2167919-7b57-4d9b-9f8b-d5a3411c7038","ios":"levelo://app?vid=b2167919-7b57-4d9b-9f8b-d5a3411c7038"},"vehicle_type_id":"4","last_reported":1706349960,"current_range_meters":26000,"station_id":"ce4bgop2rcd13ifvqc1g","pricing_plan_id":"free"},{"bike_id":"965a5dab-e227-4efc-b518-9780186a9de9","system_id":"levelo_inurba_marseille","lat":43.322872,"lon":5.382756,"is_reserved":false,"is_disabled":false,"rental_uris":{"android":"levelo://app?vid=965a5dab-e227-4efc-b518-9780186a9de9","ios":"levelo://app?vid=965a5dab-e227-4efc-b518-9780186a9de9"},"vehicle_type_id":"4","last_reported":1706349960,"current_range_meters":8400,"station_id":"ce4bhr12rcd13ifvqhqg","pricing_plan_id":"free"},{"bike_id":"416475d6-ef00-46bd-9618-e51e0a232531","system_id":"levelo_inurba_marseille","lat":43.322872,"lon":5.382756,"is_reserved":false,"is_disabled":false,"rental_uris":{"android":"levelo://app?vid=416475d6-ef00-46bd-9618-e51e0a232531","ios":"levelo://app?vid=416475d6-ef00-46bd-9618-e51e0a232531"},"vehicle_type_id":"4","last_reported":1706349960,"current_range_meters":31200,"station_id":"ce4bhr12rcd13ifvqhqg","pricing_plan_id":"free"},{"bike_id":"e958b51c-4009-4f1c-a618-652c6471df28","system_id":"levelo_inurba_marseille","lat":43.297794,"lon":5.370888,"is_reserved":false,"is_disabled":false,"rental_uris":{"android":"levelo://app?vid=e958b51c-4009-4f1c-a618-652c6471df28","ios":"levelo://app?vid=e958b51c-4009-4f1c-a618-652c6471df28"},"vehicle_type_id":"4","last_reported":1706349960,"current_range_meters":25600,"station_id":"ce4bgop2rcd13ifvqc1g","pricing_plan_id":"free"},{"bike_id":"5e98879a-df25-42d7-a72e-59c9369b5f46","system_id":"levelo_inurba_marseille","lat":43.322863,"lon":5.382644,"is_reserved":false,"is_disabled":false,"rental_uris":{"android":"levelo://app?vid=5e98879a-df25-42d7-a72e-59c9369b5f46","ios":"levelo://app?vid=5e98879a-df25-42d7-a72e-59c9369b5f46"},"vehicle_type_id":"4","last_reported":1706349960,"current_range_meters":31600,"station_id":"ce4bhr12rcd13ifvqhqg","pricing_plan_id":"free"},{"bike_id":"1126cdc6-95ba-449a-b7b2-5f3f58786e97","system_id":"levelo_inurba_marseille","lat":43.322872,"lon":5.382756,"is_reserved":false,"is_disabled":false,"rental_uris":{"android":"levelo://app?vid=1126cdc6-95ba-449a-b7b2-5f3f58786e97","ios":"levelo://app?vid=1126cdc6-95ba-449a-b7b2-5f3f58786e97"},"vehicle_type_id":"4","last_reported":1706349960,"current_range_meters":20800,"station_id":"ce4bhr12rcd13ifvqhqg","pricing_plan_id":"free"},{"bike_id":"f5ebe44e-af2d-44d1-b435-0730122ce15c","system_id":"levelo_inurba_marseille","lat":43.297774,"lon":5.370875,"is_reserved":false,"is_disabled":false,"rental_uris":{"android":"levelo://app?vid=f5ebe44e-af2d-44d1-b435-0730122ce15c","ios":"levelo://app?vid=f5ebe44e-af2d-44d1-b435-0730122ce15c"},"vehicle_type_id":"4","last_reported":1706349960,"current_range_meters":27600,"station_id":"ce4bgop2rcd13ifvqc1g","pricing_plan_id":"free"},{"bike_id":"c0bacbb9-2761-4491-a8c1-93af05373d9b","system_id":"levelo_inurba_marseille","lat":43.32826,"lon":5.36689,"is_reserved":false,"is_disabled":false,"rental_uris":{"android":"levelo://app?vid=c0bacbb9-2761-4491-a8c1-93af05373d9b","ios":"levelo://app?vid=c0bacbb9-2761-4491-a8c1-93af05373d9b"},"vehicle_type_id":"4","last_reported":1706349960,"current_range_meters":20800,"station_id":"ce4bhs92rcd13ifvqi0g","pricing_plan_id":"free"},{"bike_id":"448ceccf-de0e-4e04-9ad9-52fbd4150784","system_id":"levelo_inurba_marseille","lat":43.3283,"lon":5.36668,"is_reserved":false,"is_disabled":false,"rental_uris":{"android":"levelo://app?vid=448ceccf-de0e-4e04-9ad9-52fbd4150784","ios":"levelo://app?vid=448ceccf-de0e-4e04-9ad9-52fbd4150784"},"vehicle_type_id":"4","last_reported":1706349960,"current_range_meters":0,"station_id":"ce4bhs92rcd13ifvqi0g","pricing_plan_id":"free"},{"bike_id":"31c884b6-24f3-4ad2-b153-4d91b407eb8c","system_id":"levelo_inurba_marseille","lat":43.32834,"lon":5.36687,"is_reserved":false,"is_disabled":false,"rental_uris":{"android":"levelo://app?vid=31c884b6-24f3-4ad2-b153-4d91b407eb8c","ios":"levelo://app?vid=31c884b6-24f3-4ad2-b153-4d91b407eb8c"},"vehicle_type_id":"4","last_reported":1706349960,"current_range_meters":21600,"station_id":"ce4bhs92rcd13ifvqi0g","pricing_plan_id":"free"},{"bike_id":"d5970629-3436-4f33-93f5-28c391260890","system_id":"levelo_inurba_marseille","lat":43.2968,"lon":5.37291,"is_reserved":false,"is_disabled":false,"rental_uris":{"android":"levelo://app?vid=d5970629-3436-4f33-93f5-28c391260890","ios":"levelo://app?vid=d5970629-3436-4f33-93f5-28c391260890"},"vehicle_type_id":"4","last_reported":1706349960,"current_range_meters":25600,"station_id":"ce4bgk12rcd13ifvqbj0","pricing_plan_id":"free"},{"bike_id":"8e346a99-8ee0-40fa-9ff4-09564092309b","system_id":"levelo_inurba_marseille","lat":43.2968,"lon":5.37291,"is_reserved":false,"is_disabled":false,"rental_uris":{"android":"levelo://app?vid=8e346a99-8ee0-40fa-9ff4-09564092309b","ios":"levelo://app?vid=8e346a99-8ee0-40fa-9ff4-09564092309b"},"vehicle_type_id":"4","last_reported":1706349960,"current_range_meters":26400,"station_id":"ce4bgk12rcd13ifvqbj0","pricing_plan_id":"free"},{"bike_id":"cf0a5603-3a9c-4721-b4ee-23c732b0cd69","system_id":"levelo_inurba_marseille","lat":43.29573,"lon":5.367355,"is_reserved":false,"is_disabled":false,"rental_uris":{"android":"levelo://app?vid=cf0a5603-3a9c-4721-b4ee-23c732b0cd69","ios":"levelo://app?vid=cf0a5603-3a9c-4721-b4ee-23c732b0cd69"},"vehicle_type_id":"4","last_reported":1706349960,"current_range_meters":24800,"station_id":"ce4bgph2rcd13ifvqc2g","pricing_plan_id":"free"},{"bike_id":"3cafcf0a-e2e9-497e-b9ae-792c64a7fe79","system_id":"levelo_inurba_marseille","lat":43.29573,"lon":5.367355,"is_reserved":false,"is_disabled":false,"rental_uris":{"android":"levelo://app?vid=3cafcf0a-e2e9-497e-b9ae-792c64a7fe79","ios":"levelo://app?vid=3cafcf0a-e2e9-497e-b9ae-792c64a7fe79"},"vehicle_type_id":"4","last_reported":1706349960,"current_range_meters":30000,"station_id":"ce4bgph2rcd13ifvqc2g","pricing_plan_id":"free"},{"bike_id":"f08a4dac-c4e6-4831-9dc5-480337a36b90","system_id":"levelo_inurba_marseille","lat":43.29573,"lon":5.367355,"is_reserved":false,"is_disabled":false,"rental_uris":{"android":"levelo://app?vid=f08a4dac-c4e6-4831-9dc5-480337a36b90","ios":"levelo://app?vid=f08a4dac-c4e6-4831-9dc5-480337a36b90"},"vehicle_type_id":"4","last_reported":1706349960,"current_range_meters":22000,"station_id":"ce4bgph2rcd13ifvqc2g","pricing_plan_id":"free"},{"bike_id":"559f0865-5296-4d3c-b1c8-1620020043e9","system_id":"levelo_inurba_marseille","lat":43.29573,"lon":5.367355,"is_reserved":false,"is_disabled":false,"rental_uris":{"android":"levelo://app?vid=559f0865-5296-4d3c-b1c8-1620020043e9","ios":"levelo://app?vid=559f0865-5296-4d3c-b1c8-1620020043e9"},"vehicle_type_id":"4","last_reported":1706349960,"current_range_meters":28800,"station_id":"ce4bgph2rcd13ifvqc2g","pricing_plan_id":"free"},{"bike_id":"bdf065ec-5930-4161-9513-dfe39352c567","system_id":"levelo_inurba_marseille","lat":43.296935,"lon":5.376544,"is_reserved":false,"is_disabled":false,"rental_uris":{"android":"levelo://app?vid=bdf065ec-5930-4161-9513-dfe39352c567","ios":"levelo://app?vid=bdf065ec-5930-4161-9513-dfe39352c567"},"vehicle_type_id":"4","last_reported":1706349960,"current_range_meters":27600,"station_id":"ce4bgkh2rcd13ifvqbl0","pricing_plan_id":"free"},{"bike_id":"87cf8e6a-8820-49f5-a1b4-dfd8fc8a1fc5","system_id":"levelo_inurba_marseille","lat":43.296921,"lon":5.376579,"is_reserved":false,"is_disabled":false,"rental_uris":{"android":"levelo://app?vid=87cf8e6a-8820-49f5-a1b4-dfd8fc8a1fc5","ios":"levelo://app?vid=87cf8e6a-8820-49f5-a1b4-dfd8fc8a1fc5"},"vehicle_type_id":"4","last_reported":1706349960,"current_range_meters":23200,"station_id":"ce4bgkh2rcd13ifvqbl0","pricing_plan_id":"free"},{"bike_id":"c773f86b-9f87-4734-b6ad-6d577d85393c","system_id":"levelo_inurba_marseille","lat":43.296921,"lon":5.376579,"is_reserved":false,"is_disabled":false,"rental_uris":{"android":"levelo://app?vid=c773f86b-9f87-4734-b6ad-6d577d85393c","ios":"levelo://app?vid=c773f86b-9f87-4734-b6ad-6d577d85393c"},"vehicle_type_id":"4","last_reported":1706349960,"current_range_meters":23600,"station_id":"ce4bgkh2rcd13ifvqbl0","pricing_plan_id":"free"},{"bike_id":"5c475b6b-fbb5-4526-a91f-db96ad3304d9","system_id":"levelo_inurba_marseille","lat":43.296935,"lon":5.376544,"is_reserved":false,"is_disabled":false,"rental_uris":{"android":"levelo://app?vid=5c475b6b-fbb5-4526-a91f-db96ad3304d9","ios":"levelo://app?vid=5c475b6b-fbb5-4526-a91f-db96ad3304d9"},"vehicle_type_id":"4","last_reported":1706349960,"current_range_meters":14800,"station_id":"ce4bgkh2rcd13ifvqbl0","pricing_plan_id":"free"},{"bike_id":"9433c861-ab0c-47af-8234-7a3d45f85265","system_id":"levelo_inurba_marseille","lat":43.296935,"lon":5.376544,"is_reserved":false,"is_disabled":false,"rental_uris":{"android":"levelo://app?vid=9433c861-ab0c-47af-8234-7a3d45f85265","ios":"levelo://app?vid=9433c861-ab0c-47af-8234-7a3d45f85265"},"vehicle_type_id":"4","last_reported":1706349960,"current_range_meters":11600,"station_id":"ce4bgkh2rcd13ifvqbl0","pricing_plan_id":"free"},{"bike_id":"66d3b6d4-c85a-46ec-896b-397184369e3c","system_id":"levelo_inurba_marseille","lat":43.296935,"lon":5.376544,"is_reserved":false,"is_disabled":false,"rental_uris":{"android":"levelo://app?vid=66d3b6d4-c85a-46ec-896b-397184369e3c","ios":"levelo://app?vid=66d3b6d4-c85a-46ec-896b-397184369e3c"},"vehicle_type_id":"4","last_reported":1706349960,"current_range_meters":22800,"station_id":"ce4bgkh2rcd13ifvqbl0","pricing_plan_id":"free"},{"bike_id":"39475185-08f6-48d2-9699-718e82a0f035","system_id":"levelo_inurba_marseille","lat":43.309589,"lon":5.390258,"is_reserved":false,"is_disabled":false,"rental_uris":{"android":"levelo://app?vid=39475185-08f6-48d2-9699-718e82a0f035","ios":"levelo://app?vid=39475185-08f6-48d2-9699-718e82a0f035"},"vehicle_type_id":"4","last_reported":1706349960,"current_range_meters":26000,"station_id":"ce4bgup2rcd13ifvqco0","pricing_plan_id":"free"},{"bike_id":"af9f98fc-1b38-483c-9bb8-cf5dbd0ec1e8","system_id":"levelo_inurba_marseille","lat":43.317557,"lon":5.390173,"is_reserved":false,"is_disabled":false,"rental_uris":{"android":"levelo://app?vid=af9f98fc-1b38-483c-9bb8-cf5dbd0ec1e8","ios":"levelo://app?vid=af9f98fc-1b38-483c-9bb8-cf5dbd0ec1e8"},"vehicle_type_id":"4","last_reported":1706349960,"current_range_meters":31200,"station_id":"ce4bhqp2rcd13ifvqhng","pricing_plan_id":"free"},{"bike_id":"5849c8f1-de07-480c-ab10-c023b55280ba","system_id":"levelo_inurba_marseille","lat":43.322716,"lon":5.387236,"is_reserved":false,"is_disabled":false,"rental_uris":{"android":"levelo://app?vid=5849c8f1-de07-480c-ab10-c023b55280ba","ios":"levelo://app?vid=5849c8f1-de07-480c-ab10-c023b55280ba"},"vehicle_type_id":"4","last_reported":1706349960,"current_range_meters":3600,"station_id":"","pricing_plan_id":"free"},{"bike_id":"a685edaa-925e-42a7-82c5-7db2d9e3d544","system_id":"levelo_inurba_marseille","lat":43.295748,"lon":5.37522,"is_reserved":false,"is_disabled":false,"rental_uris":{"android":"levelo://app?vid=a685edaa-925e-42a7-82c5-7db2d9e3d544","ios":"levelo://app?vid=a685edaa-925e-42a7-82c5-7db2d9e3d544"},"vehicle_type_id":"4","last_reported":1706349960,"current_range_meters":8400,"station_id":"ce4bgh92rcd13ifvqb50","pricing_plan_id":"free"},{"bike_id":"6e1a31ff-b332-4be7-94ef-f4b449708804","system_id":"levelo_inurba_marseille","lat":43.295748,"lon":5.37522,"is_reserved":false,"is_disabled":false,"rental_uris":{"android":"levelo://app?vid=6e1a31ff-b332-4be7-94ef-f4b449708804","ios":"levelo://app?vid=6e1a31ff-b332-4be7-94ef-f4b449708804"},"vehicle_type_id":"4","last_reported":1706349960,"current_range_meters":13600,"station_id":"ce4bgh92rcd13ifvqb50","pricing_plan_id":"free"},{"bike_id":"2690e0cf-f29c-4ea5-8963-4415a7d8348c","system_id":"levelo_inurba_marseille","lat":43.295748,"lon":5.37522,"is_reserved":false,"is_disabled":false,"rental_uris":{"android":"levelo://app?vid=2690e0cf-f29c-4ea5-8963-4415a7d8348c","ios":"levelo://app?vid=2690e0cf-f29c-4ea5-8963-4415a7d8348c"},"vehicle_type_id":"4","last_reported":1706349960,"current_range_meters":22800,"station_id":"ce4bgh92rcd13ifvqb50","pricing_plan_id":"free"},{"bike_id":"0e133500-3a6d-4a3e-af6e-62ed90d92bcf","system_id":"levelo_inurba_marseille","lat":43.296277,"lon":5.377108,"is_reserved":false,"is_disabled":false,"rental_uris":{"android":"levelo://app?vid=0e133500-3a6d-4a3e-af6e-62ed90d92bcf","ios":"levelo://app?vid=0e133500-3a6d-4a3e-af6e-62ed90d92bcf"},"vehicle_type_id":"4","last_reported":1706349960,"current_range_meters":8000,"station_id":"ce4bgi92rcd13ifvqb90","pricing_plan_id":"free"},{"bike_id":"40996b4a-fac6-4cc2-a8e8-9a9ba72f10c9","system_id":"levelo_inurba_marseille","lat":43.295748,"lon":5.37522,"is_reserved":false,"is_disabled":false,"rental_uris":{"android":"levelo://app?vid=40996b4a-fac6-4cc2-a8e8-9a9ba72f10c9","ios":"levelo://app?vid=40996b4a-fac6-4cc2-a8e8-9a9ba72f10c9"},"vehicle_type_id":"4","last_reported":1706349960,"current_range_meters":4400,"station_id":"ce4bgh92rcd13ifvqb50","pricing_plan_id":"free"},{"bike_id":"02a0abc8-db7d-4055-a423-c710bbc86984","system_id":"levelo_inurba_marseille","lat":43.295748,"lon":5.37522,"is_reserved":false,"is_disabled":false,"rental_uris":{"android":"levelo://app?vid=02a0abc8-db7d-4055-a423-c710bbc86984","ios":"levelo://app?vid=02a0abc8-db7d-4055-a423-c710bbc86984"},"vehicle_type_id":"4","last_reported":1706349960,"current_range_meters":31200,"station_id":"ce4bgh92rcd13ifvqb50","pricing_plan_id":"free"},{"bike_id":"d69fb9b4-d0a1-40a3-aa12-90b79c389ced","system_id":"levelo_inurba_marseille","lat":43.296277,"lon":5.377108,"is_reserved":false,"is_disabled":false,"rental_uris":{"android":"levelo://app?vid=d69fb9b4-d0a1-40a3-aa12-90b79c389ced","ios":"levelo://app?vid=d69fb9b4-d0a1-40a3-aa12-90b79c389ced"},"vehicle_type_id":"4","last_reported":1706349960,"current_range_meters":28000,"station_id":"ce4bgi92rcd13ifvqb90","pricing_plan_id":"free"},{"bike_id":"23f5f5bc-9fe6-4eed-9490-4885946190d1","system_id":"levelo_inurba_marseille","lat":43.29569,"lon":5.37529,"is_reserved":false,"is_disabled":false,"rental_uris":{"android":"levelo://app?vid=23f5f5bc-9fe6-4eed-9490-4885946190d1","ios":"levelo://app?vid=23f5f5bc-9fe6-4eed-9490-4885946190d1"},"vehicle_type_id":"4","last_reported":1706349960,"current_range_meters":18800,"station_id":"ce4bgh92rcd13ifvqb50","pricing_plan_id":"free"},{"bike_id":"291ad5c4-751c-4d00-84b7-8b03bae5fc70","system_id":"levelo_inurba_marseille","lat":43.296263,"lon":5.377094,"is_reserved":false,"is_disabled":false,"rental_uris":{"android":"levelo://app?vid=291ad5c4-751c-4d00-84b7-8b03bae5fc70","ios":"levelo://app?vid=291ad5c4-751c-4d00-84b7-8b03bae5fc70"},"vehicle_type_id":"4","last_reported":1706349960,"current_range_meters":23200,"station_id":"ce4bgi92rcd13ifvqb90","pricing_plan_id":"free"},{"bike_id":"a43e2577-fb8e-4f6d-89d6-0c6e4c114b85","system_id":"levelo_inurba_marseille","lat":43.296263,"lon":5.377094,"is_reserved":false,"is_disabled":false,"rental_uris":{"android":"levelo://app?vid=a43e2577-fb8e-4f6d-89d6-0c6e4c114b85","ios":"levelo://app?vid=a43e2577-fb8e-4f6d-89d6-0c6e4c114b85"},"vehicle_type_id":"4","last_reported":1706349960,"current_range_meters":31200,"station_id":"ce4bgi92rcd13ifvqb90","pricing_plan_id":"free"},{"bike_id":"63c076d9-77d3-40dd-b70b-3c7a661f4aba","system_id":"levelo_inurba_marseille","lat":43.29505,"lon":5.375104,"is_reserved":false,"is_disabled":false,"rental_uris":{"android":"levelo://app?vid=63c076d9-77d3-40dd-b70b-3c7a661f4aba","ios":"levelo://app?vid=63c076d9-77d3-40dd-b70b-3c7a661f4aba"},"vehicle_type_id":"4","last_reported":1706349960,"current_range_meters":0,"station_id":"ce4bgkp2rcd13ifvqbmg","pricing_plan_id":"free"},{"bike_id":"110e294d-4ae1-4d3c-9a1c-3e70b490847b","system_id":"levelo_inurba_marseille","lat":43.32344,"lon":5.38859,"is_reserved":false,"is_disabled":false,"rental_uris":{"android":"levelo://app?vid=110e294d-4ae1-4d3c-9a1c-3e70b490847b","ios":"levelo://app?vid=110e294d-4ae1-4d3c-9a1c-3e70b490847b"},"vehicle_type_id":"4","last_reported":1706349960,"current_range_meters":7200,"station_id":"ce4bhqp2rcd13ifvqhog","pricing_plan_id":"free"},{"bike_id":"73c24fe1-c717-4648-bb40-084f29180982","system_id":"levelo_inurba_marseille","lat":43.32354,"lon":5.3888,"is_reserved":false,"is_disabled":false,"rental_uris":{"android":"levelo://app?vid=73c24fe1-c717-4648-bb40-084f29180982","ios":"levelo://app?vid=73c24fe1-c717-4648-bb40-084f29180982"},"vehicle_type_id":"4","last_reported":1706349960,"current_range_meters":28400,"station_id":"ce4bhqp2rcd13ifvqhog","pricing_plan_id":"free"},{"bike_id":"def703ed-e78e-4412-a809-c10b7fb945a5","system_id":"levelo_inurba_marseille","lat":43.32361,"lon":5.38881,"is_reserved":false,"is_disabled":false,"rental_uris":{"android":"levelo://app?vid=def703ed-e78e-4412-a809-c10b7fb945a5","ios":"levelo://app?vid=def703ed-e78e-4412-a809-c10b7fb945a5"},"vehicle_type_id":"4","last_reported":1706349960,"current_range_meters":24800,"station_id":"ce4bhqp2rcd13ifvqhog","pricing_plan_id":"free"},{"bike_id":"7b171855-7227-484b-93cb-d6480fb4a50d","system_id":"levelo_inurba_marseille","lat":43.3236,"lon":5.38883,"is_reserved":false,"is_disabled":false,"rental_uris":{"android":"levelo://app?vid=7b171855-7227-484b-93cb-d6480fb4a50d","ios":"levelo://app?vid=7b171855-7227-484b-93cb-d6480fb4a50d"},"vehicle_type_id":"4","last_reported":1706349960,"current_range_meters":29200,"station_id":"ce4bhqp2rcd13ifvqhog","pricing_plan_id":"free"},{"bike_id":"17539ff0-c1a9-4790-b399-170420149c2c","system_id":"levelo_inurba_marseille","lat":43.32362,"lon":5.38882,"is_reserved":false,"is_disabled":false,"rental_uris":{"android":"levelo://app?vid=17539ff0-c1a9-4790-b399-170420149c2c","ios":"levelo://app?vid=17539ff0-c1a9-4790-b399-170420149c2c"},"vehicle_type_id":"4","last_reported":1706349960,"current_range_meters":23200,"station_id":"ce4bhqp2rcd13ifvqhog","pricing_plan_id":"free"},{"bike_id":"0ea3fd81-3f73-43eb-a24e-cc7fa2617f9d","system_id":"levelo_inurba_marseille","lat":43.32361,"lon":5.38884,"is_reserved":false,"is_disabled":false,"rental_uris":{"android":"levelo://app?vid=0ea3fd81-3f73-43eb-a24e-cc7fa2617f9d","ios":"levelo://app?vid=0ea3fd81-3f73-43eb-a24e-cc7fa2617f9d"},"vehicle_type_id":"4","last_reported":1706349960,"current_range_meters":4800,"station_id":"ce4bhqp2rcd13ifvqhog","pricing_plan_id":"free"},{"bike_id":"6d4e98a9-3b8c-4251-9bc4-f50fadfe25a7","system_id":"levelo_inurba_marseille","lat":43.32366,"lon":5.3888,"is_reserved":false,"is_disabled":false,"rental_uris":{"android":"levelo://app?vid=6d4e98a9-3b8c-4251-9bc4-f50fadfe25a7","ios":"levelo://app?vid=6d4e98a9-3b8c-4251-9bc4-f50fadfe25a7"},"vehicle_type_id":"4","last_reported":1706349960,"current_range_meters":21200,"station_id":"ce4bhqp2rcd13ifvqhog","pricing_plan_id":"free"},{"bike_id":"c69fc2b7-c2b2-4d45-9f5c-8abf8e5b4583","system_id":"levelo_inurba_marseille","lat":43.32365,"lon":5.38882,"is_reserved":false,"is_disabled":false,"rental_uris":{"android":"levelo://app?vid=c69fc2b7-c2b2-4d45-9f5c-8abf8e5b4583","ios":"levelo://app?vid=c69fc2b7-c2b2-4d45-9f5c-8abf8e5b4583"},"vehicle_type_id":"4","last_reported":1706349960,"current_range_meters":10800,"station_id":"ce4bhqp2rcd13ifvqhog","pricing_plan_id":"free"},{"bike_id":"d7803bed-fb47-4ba6-b32d-728fc496b369","system_id":"levelo_inurba_marseille","lat":43.32366,"lon":5.38883,"is_reserved":false,"is_disabled":false,"rental_uris":{"android":"levelo://app?vid=d7803bed-fb47-4ba6-b32d-728fc496b369","ios":"levelo://app?vid=d7803bed-fb47-4ba6-b32d-728fc496b369"},"vehicle_type_id":"4","last_reported":1706349960,"current_range_meters":13600,"station_id":"ce4bhqp2rcd13ifvqhog","pricing_plan_id":"free"},{"bike_id":"7c66c9c8-fce3-4e85-9788-bd629b68dcd0","system_id":"levelo_inurba_marseille","lat":43.32367,"lon":5.388836,"is_reserved":false,"is_disabled":false,"rental_uris":{"android":"levelo://app?vid=7c66c9c8-fce3-4e85-9788-bd629b68dcd0","ios":"levelo://app?vid=7c66c9c8-fce3-4e85-9788-bd629b68dcd0"},"vehicle_type_id":"4","last_reported":1706349960,"current_range_meters":13600,"station_id":"ce4bhqp2rcd13ifvqhog","pricing_plan_id":"free"},{"bike_id":"49a7ca8c-21c7-478a-ab58-28ef1d551807","system_id":"levelo_inurba_marseille","lat":43.32367,"lon":5.388836,"is_reserved":false,"is_disabled":false,"rental_uris":{"android":"levelo://app?vid=49a7ca8c-21c7-478a-ab58-28ef1d551807","ios":"levelo://app?vid=49a7ca8c-21c7-478a-ab58-28ef1d551807"},"vehicle_type_id":"4","last_reported":1706349960,"current_range_meters":31200,"station_id":"ce4bhqp2rcd13ifvqhog","pricing_plan_id":"free"},{"bike_id":"d70b65c6-432b-4e71-ba57-366d5a9ea466","system_id":"levelo_inurba_marseille","lat":43.29601,"lon":5.381084,"is_reserved":false,"is_disabled":false,"rental_uris":{"android":"levelo://app?vid=d70b65c6-432b-4e71-ba57-366d5a9ea466","ios":"levelo://app?vid=d70b65c6-432b-4e71-ba57-366d5a9ea466"},"vehicle_type_id":"4","last_reported":1706349960,"current_range_meters":21200,"station_id":"ce4bgl12rcd13ifvqbo0","pricing_plan_id":"free"},{"bike_id":"9b4e22c8-caa2-46fd-9c8b-4ea5db59354f","system_id":"levelo_inurba_marseille","lat":43.293259,"lon":5.371586,"is_reserved":false,"is_disabled":false,"rental_uris":{"android":"levelo://app?vid=9b4e22c8-caa2-46fd-9c8b-4ea5db59354f","ios":"levelo://app?vid=9b4e22c8-caa2-46fd-9c8b-4ea5db59354f"},"vehicle_type_id":"4","last_reported":1706349960,"current_range_meters":0,"station_id":"ce4bgh92rcd13ifvqb40","pricing_plan_id":"free"},{"bike_id":"5ac368d3-e9c6-4349-b586-9445ca2f3984","system_id":"levelo_inurba_marseille","lat":43.293259,"lon":5.371586,"is_reserved":false,"is_disabled":false,"rental_uris":{"android":"levelo://app?vid=5ac368d3-e9c6-4349-b586-9445ca2f3984","ios":"levelo://app?vid=5ac368d3-e9c6-4349-b586-9445ca2f3984"},"vehicle_type_id":"4","last_reported":1706349960,"current_range_meters":4800,"station_id":"ce4bgh92rcd13ifvqb40","pricing_plan_id":"free"},{"bike_id":"439d12b6-8d5e-40f8-aaa7-42038df07cbd","system_id":"levelo_inurba_marseille","lat":43.293259,"lon":5.371586,"is_reserved":false,"is_disabled":false,"rental_uris":{"android":"levelo://app?vid=439d12b6-8d5e-40f8-aaa7-42038df07cbd","ios":"levelo://app?vid=439d12b6-8d5e-40f8-aaa7-42038df07cbd"},"vehicle_type_id":"4","last_reported":1706349960,"current_range_meters":31200,"station_id":"ce4bgh92rcd13ifvqb40","pricing_plan_id":"free"},{"bike_id":"434f1f83-66c9-4a31-87a8-192edb77f4c0","system_id":"levelo_inurba_marseille","lat":43.292749,"lon":5.368402,"is_reserved":false,"is_disabled":false,"rental_uris":{"android":"levelo://app?vid=434f1f83-66c9-4a31-87a8-192edb77f4c0","ios":"levelo://app?vid=434f1f83-66c9-4a31-87a8-192edb77f4c0"},"vehicle_type_id":"4","last_reported":1706349960,"current_range_meters":30800,"station_id":"ce4bhbp2rcd13ifvqesg","pricing_plan_id":"free"},{"bike_id":"bb57c3a3-2a7f-44b0-b04e-d1faf54cdb57","system_id":"levelo_inurba_marseille","lat":43.29308,"lon":5.37449,"is_reserved":false,"is_disabled":false,"rental_uris":{"android":"levelo://app?vid=bb57c3a3-2a7f-44b0-b04e-d1faf54cdb57","ios":"levelo://app?vid=bb57c3a3-2a7f-44b0-b04e-d1faf54cdb57"},"vehicle_type_id":"4","last_reported":1706349960,"current_range_meters":27200,"station_id":"ce4bgi12rcd13ifvqb70","pricing_plan_id":"free"},{"bike_id":"f1a32638-47dd-42aa-970b-8cd163403f66","system_id":"levelo_inurba_marseille","lat":43.293052,"lon":5.374553,"is_reserved":false,"is_disabled":false,"rental_uris":{"android":"levelo://app?vid=f1a32638-47dd-42aa-970b-8cd163403f66","ios":"levelo://app?vid=f1a32638-47dd-42aa-970b-8cd163403f66"},"vehicle_type_id":"4","last_reported":1706349960,"current_range_meters":30000,"station_id":"ce4bgi12rcd13ifvqb70","pricing_plan_id":"free"},{"bike_id":"f992b10f-30d4-4b76-8132-f5a7cbde266e","system_id":"levelo_inurba_marseille","lat":43.293009,"lon":5.374584,"is_reserved":false,"is_disabled":false,"rental_uris":{"android":"levelo://app?vid=f992b10f-30d4-4b76-8132-f5a7cbde266e","ios":"levelo://app?vid=f992b10f-30d4-4b76-8132-f5a7cbde266e"},"vehicle_type_id":"4","last_reported":1706349960,"current_range_meters":17600,"station_id":"ce4bgi12rcd13ifvqb70","pricing_plan_id":"free"},{"bike_id":"9c54aa1f-7a7d-4731-8f8f-2b88f11b2d64","system_id":"levelo_inurba_marseille","lat":43.29303,"lon":5.37455,"is_reserved":false,"is_disabled":false,"rental_uris":{"android":"levelo://app?vid=9c54aa1f-7a7d-4731-8f8f-2b88f11b2d64","ios":"levelo://app?vid=9c54aa1f-7a7d-4731-8f8f-2b88f11b2d64"},"vehicle_type_id":"4","last_reported":1706349960,"current_range_meters":30800,"station_id":"ce4bgi12rcd13ifvqb70","pricing_plan_id":"free"},{"bike_id":"52f22a29-b6a9-479c-a57f-2c27d401ab9a","system_id":"levelo_inurba_marseille","lat":43.293009,"lon":5.374584,"is_reserved":false,"is_disabled":false,"rental_uris":{"android":"levelo://app?vid=52f22a29-b6a9-479c-a57f-2c27d401ab9a","ios":"levelo://app?vid=52f22a29-b6a9-479c-a57f-2c27d401ab9a"},"vehicle_type_id":"4","last_reported":1706349960,"current_range_meters":31600,"station_id":"ce4bgi12rcd13ifvqb70","pricing_plan_id":"free"},{"bike_id":"349cc0d6-2f71-49b0-8581-e69fa5f4eb77","system_id":"levelo_inurba_marseille","lat":43.293009,"lon":5.374584,"is_reserved":false,"is_disabled":false,"rental_uris":{"android":"levelo://app?vid=349cc0d6-2f71-49b0-8581-e69fa5f4eb77","ios":"levelo://app?vid=349cc0d6-2f71-49b0-8581-e69fa5f4eb77"},"vehicle_type_id":"4","last_reported":1706349960,"current_range_meters":20400,"station_id":"ce4bgi12rcd13ifvqb70","pricing_plan_id":"free"},{"bike_id":"55f7e523-d7a6-496d-8b6b-f49092472675","system_id":"levelo_inurba_marseille","lat":43.293009,"lon":5.374584,"is_reserved":false,"is_disabled":false,"rental_uris":{"android":"levelo://app?vid=55f7e523-d7a6-496d-8b6b-f49092472675","ios":"levelo://app?vid=55f7e523-d7a6-496d-8b6b-f49092472675"},"vehicle_type_id":"4","last_reported":1706349960,"current_range_meters":26400,"station_id":"ce4bgi12rcd13ifvqb70","pricing_plan_id":"free"},{"bike_id":"692e4913-5db3-4c62-9975-e65ca1d5e44f","system_id":"levelo_inurba_marseille","lat":43.293001,"lon":5.374507,"is_reserved":false,"is_disabled":false,"rental_uris":{"android":"levelo://app?vid=692e4913-5db3-4c62-9975-e65ca1d5e44f","ios":"levelo://app?vid=692e4913-5db3-4c62-9975-e65ca1d5e44f"},"vehicle_type_id":"4","last_reported":1706349960,"current_range_meters":25600,"station_id":"ce4bgi12rcd13ifvqb70","pricing_plan_id":"free"},{"bike_id":"585ea08e-64f0-4128-8cd8-9268be37a4aa","system_id":"levelo_inurba_marseille","lat":43.293009,"lon":5.374584,"is_reserved":false,"is_disabled":false,"rental_uris":{"android":"levelo://app?vid=585ea08e-64f0-4128-8cd8-9268be37a4aa","ios":"levelo://app?vid=585ea08e-64f0-4128-8cd8-9268be37a4aa"},"vehicle_type_id":"4","last_reported":1706349960,"current_range_meters":28800,"station_id":"ce4bgi12rcd13ifvqb70","pricing_plan_id":"free"},{"bike_id":"94dce3e2-5ecb-4795-a1fd-8b3f490f059b","system_id":"levelo_inurba_marseille","lat":43.293009,"lon":5.374584,"is_reserved":false,"is_disabled":false,"rental_uris":{"android":"levelo://app?vid=94dce3e2-5ecb-4795-a1fd-8b3f490f059b","ios":"levelo://app?vid=94dce3e2-5ecb-4795-a1fd-8b3f490f059b"},"vehicle_type_id":"4","last_reported":1706349960,"current_range_meters":31600,"station_id":"ce4bgi12rcd13ifvqb70","pricing_plan_id":"free"},{"bike_id":"47288178-9cc4-46e6-a389-7794a66eddcc","system_id":"levelo_inurba_marseille","lat":43.293009,"lon":5.374584,"is_reserved":false,"is_disabled":false,"rental_uris":{"android":"levelo://app?vid=47288178-9cc4-46e6-a389-7794a66eddcc","ios":"levelo://app?vid=47288178-9cc4-46e6-a389-7794a66eddcc"},"vehicle_type_id":"4","last_reported":1706349960,"current_range_meters":26400,"station_id":"ce4bgi12rcd13ifvqb70","pricing_plan_id":"free"},{"bike_id":"7a59abfa-49e2-4e97-ad0d-e9edd2737e2f","system_id":"levelo_inurba_marseille","lat":43.305994,"lon":5.393687,"is_reserved":false,"is_disabled":false,"rental_uris":{"android":"levelo://app?vid=7a59abfa-49e2-4e97-ad0d-e9edd2737e2f","ios":"levelo://app?vid=7a59abfa-49e2-4e97-ad0d-e9edd2737e2f"},"vehicle_type_id":"4","last_reported":1706349960,"current_range_meters":21200,"station_id":"ce4bh0p2rcd13ifvqd80","pricing_plan_id":"free"},{"bike_id":"5f728ead-88d9-443d-a1ae-8fb3b0e2428b","system_id":"levelo_inurba_marseille","lat":43.293009,"lon":5.374584,"is_reserved":false,"is_disabled":false,"rental_uris":{"android":"levelo://app?vid=5f728ead-88d9-443d-a1ae-8fb3b0e2428b","ios":"levelo://app?vid=5f728ead-88d9-443d-a1ae-8fb3b0e2428b"},"vehicle_type_id":"4","last_reported":1706349960,"current_range_meters":6400,"station_id":"ce4bgi12rcd13ifvqb70","pricing_plan_id":"free"},{"bike_id":"d474bb0d-8cf8-4561-852f-cad609b74f7f","system_id":"levelo_inurba_marseille","lat":43.293009,"lon":5.374584,"is_reserved":false,"is_disabled":false,"rental_uris":{"android":"levelo://app?vid=d474bb0d-8cf8-4561-852f-cad609b74f7f","ios":"levelo://app?vid=d474bb0d-8cf8-4561-852f-cad609b74f7f"},"vehicle_type_id":"4","last_reported":1706349960,"current_range_meters":26400,"station_id":"ce4bgi12rcd13ifvqb70","pricing_plan_id":"free"},{"bike_id":"8de67970-aa53-40ff-bc64-8dab4e86b2f3","system_id":"levelo_inurba_marseille","lat":43.2936,"lon":5.37835,"is_reserved":false,"is_disabled":false,"rental_uris":{"android":"levelo://app?vid=8de67970-aa53-40ff-bc64-8dab4e86b2f3","ios":"levelo://app?vid=8de67970-aa53-40ff-bc64-8dab4e86b2f3"},"vehicle_type_id":"4","last_reported":1706349960,"current_range_meters":23200,"station_id":"ce4bgjh2rcd13ifvqbf0","pricing_plan_id":"free"},{"bike_id":"280f5710-1ac6-47b8-9ff5-05efec8113d9","system_id":"levelo_inurba_marseille","lat":43.2936,"lon":5.37835,"is_reserved":false,"is_disabled":false,"rental_uris":{"android":"levelo://app?vid=280f5710-1ac6-47b8-9ff5-05efec8113d9","ios":"levelo://app?vid=280f5710-1ac6-47b8-9ff5-05efec8113d9"},"vehicle_type_id":"4","last_reported":1706349960,"current_range_meters":26400,"station_id":"ce4bgjh2rcd13ifvqbf0","pricing_plan_id":"free"},{"bike_id":"bf57db7a-5575-499b-823e-2698dfb58b7b","system_id":"levelo_inurba_marseille","lat":43.292311,"lon":5.360731,"is_reserved":false,"is_disabled":false,"rental_uris":{"android":"levelo://app?vid=bf57db7a-5575-499b-823e-2698dfb58b7b","ios":"levelo://app?vid=bf57db7a-5575-499b-823e-2698dfb58b7b"},"vehicle_type_id":"4","last_reported":1706349960,"current_range_meters":19600,"station_id":"ce4bhbh2rcd13ifvqeqg","pricing_plan_id":"free"},{"bike_id":"6baf013a-7e30-4170-9b5b-ea021d366460","system_id":"levelo_inurba_marseille","lat":43.292311,"lon":5.360731,"is_reserved":false,"is_disabled":false,"rental_uris":{"android":"levelo://app?vid=6baf013a-7e30-4170-9b5b-ea021d366460","ios":"levelo://app?vid=6baf013a-7e30-4170-9b5b-ea021d366460"},"vehicle_type_id":"4","last_reported":1706349960,"current_range_meters":32000,"station_id":"ce4bhbh2rcd13ifvqeqg","pricing_plan_id":"free"},{"bike_id":"114f6175-5f47-47d1-b733-fcf910de27ee","system_id":"levelo_inurba_marseille","lat":43.292311,"lon":5.360731,"is_reserved":false,"is_disabled":false,"rental_uris":{"android":"levelo://app?vid=114f6175-5f47-47d1-b733-fcf910de27ee","ios":"levelo://app?vid=114f6175-5f47-47d1-b733-fcf910de27ee"},"vehicle_type_id":"4","last_reported":1706349960,"current_range_meters":30800,"station_id":"ce4bhbh2rcd13ifvqeqg","pricing_plan_id":"free"},{"bike_id":"83e86559-3248-4d26-ab31-c35c31c142f2","system_id":"levelo_inurba_marseille","lat":43.292311,"lon":5.360731,"is_reserved":false,"is_disabled":false,"rental_uris":{"android":"levelo://app?vid=83e86559-3248-4d26-ab31-c35c31c142f2","ios":"levelo://app?vid=83e86559-3248-4d26-ab31-c35c31c142f2"},"vehicle_type_id":"4","last_reported":1706349960,"current_range_meters":15200,"station_id":"ce4bhbh2rcd13ifvqeqg","pricing_plan_id":"free"},{"bike_id":"35e9469f-f528-41c8-9f63-dc44732576fa","system_id":"levelo_inurba_marseille","lat":43.292311,"lon":5.360731,"is_reserved":false,"is_disabled":false,"rental_uris":{"android":"levelo://app?vid=35e9469f-f528-41c8-9f63-dc44732576fa","ios":"levelo://app?vid=35e9469f-f528-41c8-9f63-dc44732576fa"},"vehicle_type_id":"4","last_reported":1706349960,"current_range_meters":29600,"station_id":"ce4bhbh2rcd13ifvqeqg","pricing_plan_id":"free"},{"bike_id":"21a3cfc0-7aa8-4767-9293-11368b76f605","system_id":"levelo_inurba_marseille","lat":43.292311,"lon":5.360731,"is_reserved":false,"is_disabled":false,"rental_uris":{"android":"levelo://app?vid=21a3cfc0-7aa8-4767-9293-11368b76f605","ios":"levelo://app?vid=21a3cfc0-7aa8-4767-9293-11368b76f605"},"vehicle_type_id":"4","last_reported":1706349960,"current_range_meters":31600,"station_id":"ce4bhbh2rcd13ifvqeqg","pricing_plan_id":"free"},{"bike_id":"7a9e03c2-04d1-446b-9061-7eca964929ee","system_id":"levelo_inurba_marseille","lat":43.29174,"lon":5.37148,"is_reserved":false,"is_disabled":false,"rental_uris":{"android":"levelo://app?vid=7a9e03c2-04d1-446b-9061-7eca964929ee","ios":"levelo://app?vid=7a9e03c2-04d1-446b-9061-7eca964929ee"},"vehicle_type_id":"4","last_reported":1706349960,"current_range_meters":23200,"station_id":"ce4bha92rcd13ifvqeh0","pricing_plan_id":"free"},{"bike_id":"2cdd5039-e8ec-441b-9bd5-4c34b690b828","system_id":"levelo_inurba_marseille","lat":43.304951,"lon":5.394244,"is_reserved":false,"is_disabled":false,"rental_uris":{"android":"levelo://app?vid=2cdd5039-e8ec-441b-9bd5-4c34b690b828","ios":"levelo://app?vid=2cdd5039-e8ec-441b-9bd5-4c34b690b828"},"vehicle_type_id":"4","last_reported":1706349960,"current_range_meters":20800,"station_id":"","pricing_plan_id":"free"},{"bike_id":"442f164e-4679-4f6c-8f60-3691763eed23","system_id":"levelo_inurba_marseille","lat":43.291994,"lon":5.357886,"is_reserved":false,"is_disabled":false,"rental_uris":{"android":"levelo://app?vid=442f164e-4679-4f6c-8f60-3691763eed23","ios":"levelo://app?vid=442f164e-4679-4f6c-8f60-3691763eed23"},"vehicle_type_id":"4","last_reported":1706349960,"current_range_meters":27600,"station_id":"ce4bhb12rcd13ifvqel0","pricing_plan_id":"free"},{"bike_id":"4e4d6c1a-0731-4d76-8841-868a674e1838","system_id":"levelo_inurba_marseille","lat":43.291994,"lon":5.357886,"is_reserved":false,"is_disabled":false,"rental_uris":{"android":"levelo://app?vid=4e4d6c1a-0731-4d76-8841-868a674e1838","ios":"levelo://app?vid=4e4d6c1a-0731-4d76-8841-868a674e1838"},"vehicle_type_id":"4","last_reported":1706349960,"current_range_meters":13200,"station_id":"ce4bhb12rcd13ifvqel0","pricing_plan_id":"free"},{"bike_id":"ff32b9b7-c051-4dba-9328-1e85b2800437","system_id":"levelo_inurba_marseille","lat":43.291994,"lon":5.357886,"is_reserved":false,"is_disabled":false,"rental_uris":{"android":"levelo://app?vid=ff32b9b7-c051-4dba-9328-1e85b2800437","ios":"levelo://app?vid=ff32b9b7-c051-4dba-9328-1e85b2800437"},"vehicle_type_id":"4","last_reported":1706349960,"current_range_meters":24800,"station_id":"ce4bhb12rcd13ifvqel0","pricing_plan_id":"free"},{"bike_id":"e538fd5b-1314-4e21-b42e-7359a636eb3c","system_id":"levelo_inurba_marseille","lat":43.291994,"lon":5.357886,"is_reserved":false,"is_disabled":false,"rental_uris":{"android":"levelo://app?vid=e538fd5b-1314-4e21-b42e-7359a636eb3c","ios":"levelo://app?vid=e538fd5b-1314-4e21-b42e-7359a636eb3c"},"vehicle_type_id":"4","last_reported":1706349960,"current_range_meters":28400,"station_id":"ce4bhb12rcd13ifvqel0","pricing_plan_id":"free"},{"bike_id":"b096c9fa-3530-4a92-920b-72e90e794447","system_id":"levelo_inurba_marseille","lat":43.291994,"lon":5.357886,"is_reserved":false,"is_disabled":false,"rental_uris":{"android":"levelo://app?vid=b096c9fa-3530-4a92-920b-72e90e794447","ios":"levelo://app?vid=b096c9fa-3530-4a92-920b-72e90e794447"},"vehicle_type_id":"4","last_reported":1706349960,"current_range_meters":9200,"station_id":"ce4bhb12rcd13ifvqel0","pricing_plan_id":"free"},{"bike_id":"5397bc27-7e46-4be8-b273-0aa9538b91fb","system_id":"levelo_inurba_marseille","lat":43.290631,"lon":5.359244,"is_reserved":false,"is_disabled":false,"rental_uris":{"android":"levelo://app?vid=5397bc27-7e46-4be8-b273-0aa9538b91fb","ios":"levelo://app?vid=5397bc27-7e46-4be8-b273-0aa9538b91fb"},"vehicle_type_id":"4","last_reported":1706349960,"current_range_meters":18800,"station_id":"ce4bha92rcd13ifvqeg0","pricing_plan_id":"free"},{"bike_id":"35101469-a10e-430d-9584-6cad5ed8c23a","system_id":"levelo_inurba_marseille","lat":43.290327,"lon":5.375711,"is_reserved":false,"is_disabled":false,"rental_uris":{"android":"levelo://app?vid=35101469-a10e-430d-9584-6cad5ed8c23a","ios":"levelo://app?vid=35101469-a10e-430d-9584-6cad5ed8c23a"},"vehicle_type_id":"4","last_reported":1706349960,"current_range_meters":31600,"station_id":"ce4bh692rcd13ifvqe90","pricing_plan_id":"free"},{"bike_id":"3e4c27ce-f440-41a2-898d-68f5322a75e5","system_id":"levelo_inurba_marseille","lat":43.290319,"lon":5.375732,"is_reserved":false,"is_disabled":false,"rental_uris":{"android":"levelo://app?vid=3e4c27ce-f440-41a2-898d-68f5322a75e5","ios":"levelo://app?vid=3e4c27ce-f440-41a2-898d-68f5322a75e5"},"vehicle_type_id":"4","last_reported":1706349960,"current_range_meters":24400,"station_id":"ce4bh692rcd13ifvqe90","pricing_plan_id":"free"},{"bike_id":"0f4fa78f-267c-42c8-bde4-87fdb305da59","system_id":"levelo_inurba_marseille","lat":43.290319,"lon":5.375732,"is_reserved":false,"is_disabled":false,"rental_uris":{"android":"levelo://app?vid=0f4fa78f-267c-42c8-bde4-87fdb305da59","ios":"levelo://app?vid=0f4fa78f-267c-42c8-bde4-87fdb305da59"},"vehicle_type_id":"4","last_reported":1706349960,"current_range_meters":24800,"station_id":"ce4bh692rcd13ifvqe90","pricing_plan_id":"free"},{"bike_id":"4a35491d-26f4-490c-8208-a1e5c0b480f9","system_id":"levelo_inurba_marseille","lat":43.290319,"lon":5.375732,"is_reserved":false,"is_disabled":false,"rental_uris":{"android":"levelo://app?vid=4a35491d-26f4-490c-8208-a1e5c0b480f9","ios":"levelo://app?vid=4a35491d-26f4-490c-8208-a1e5c0b480f9"},"vehicle_type_id":"4","last_reported":1706349960,"current_range_meters":25200,"station_id":"ce4bh692rcd13ifvqe90","pricing_plan_id":"free"},{"bike_id":"3c787c21-1ed7-4618-81c2-24e0a04bb844","system_id":"levelo_inurba_marseille","lat":43.290327,"lon":5.375711,"is_reserved":false,"is_disabled":false,"rental_uris":{"android":"levelo://app?vid=3c787c21-1ed7-4618-81c2-24e0a04bb844","ios":"levelo://app?vid=3c787c21-1ed7-4618-81c2-24e0a04bb844"},"vehicle_type_id":"4","last_reported":1706349960,"current_range_meters":25600,"station_id":"ce4bh692rcd13ifvqe90","pricing_plan_id":"free"},{"bike_id":"e193d5d9-7421-49d5-aa6b-aa8c51a0e0cb","system_id":"levelo_inurba_marseille","lat":43.299845,"lon":5.39389,"is_reserved":false,"is_disabled":false,"rental_uris":{"android":"levelo://app?vid=e193d5d9-7421-49d5-aa6b-aa8c51a0e0cb","ios":"levelo://app?vid=e193d5d9-7421-49d5-aa6b-aa8c51a0e0cb"},"vehicle_type_id":"4","last_reported":1706349960,"current_range_meters":20800,"station_id":"ce4bgvp2rcd13ifvqct0","pricing_plan_id":"free"},{"bike_id":"ddd97a44-342d-4bb3-bfcc-66c9d45c0cee","system_id":"levelo_inurba_marseille","lat":43.292644,"lon":5.384257,"is_reserved":false,"is_disabled":false,"rental_uris":{"android":"levelo://app?vid=ddd97a44-342d-4bb3-bfcc-66c9d45c0cee","ios":"levelo://app?vid=ddd97a44-342d-4bb3-bfcc-66c9d45c0cee"},"vehicle_type_id":"4","last_reported":1706349960,"current_range_meters":27600,"station_id":"ce4bh692rcd13ifvqea0","pricing_plan_id":"free"},{"bike_id":"710eb7d1-bebd-4d1a-8c62-57848c531cb5","system_id":"levelo_inurba_marseille","lat":43.304296,"lon":5.397513,"is_reserved":false,"is_disabled":false,"rental_uris":{"android":"levelo://app?vid=710eb7d1-bebd-4d1a-8c62-57848c531cb5","ios":"levelo://app?vid=710eb7d1-bebd-4d1a-8c62-57848c531cb5"},"vehicle_type_id":"4","last_reported":1706349960,"current_range_meters":23200,"station_id":"ce4bh092rcd13ifvqd20","pricing_plan_id":"free"},{"bike_id":"28085627-ce8d-49dd-9be3-684dd52ec2c4","system_id":"levelo_inurba_marseille","lat":43.304296,"lon":5.397513,"is_reserved":false,"is_disabled":false,"rental_uris":{"android":"levelo://app?vid=28085627-ce8d-49dd-9be3-684dd52ec2c4","ios":"levelo://app?vid=28085627-ce8d-49dd-9be3-684dd52ec2c4"},"vehicle_type_id":"4","last_reported":1706349960,"current_range_meters":23600,"station_id":"ce4bh092rcd13ifvqd20","pricing_plan_id":"free"},{"bike_id":"6244bedc-c35d-4351-b5f4-4aa33630d66b","system_id":"levelo_inurba_marseille","lat":43.29008,"lon":5.35609,"is_reserved":false,"is_disabled":false,"rental_uris":{"android":"levelo://app?vid=6244bedc-c35d-4351-b5f4-4aa33630d66b","ios":"levelo://app?vid=6244bedc-c35d-4351-b5f4-4aa33630d66b"},"vehicle_type_id":"4","last_reported":1706349960,"current_range_meters":30000,"station_id":"ce4bhb92rcd13ifvqen0","pricing_plan_id":"free"},{"bike_id":"a916d784-b22b-4214-a8fb-39eeceb0d7c3","system_id":"levelo_inurba_marseille","lat":43.290104,"lon":5.356111,"is_reserved":false,"is_disabled":false,"rental_uris":{"android":"levelo://app?vid=a916d784-b22b-4214-a8fb-39eeceb0d7c3","ios":"levelo://app?vid=a916d784-b22b-4214-a8fb-39eeceb0d7c3"},"vehicle_type_id":"4","last_reported":1706349960,"current_range_meters":25600,"station_id":"ce4bhb92rcd13ifvqen0","pricing_plan_id":"free"},{"bike_id":"54dbf230-6fba-4dd5-9b19-51515301165d","system_id":"levelo_inurba_marseille","lat":43.290104,"lon":5.356111,"is_reserved":false,"is_disabled":false,"rental_uris":{"android":"levelo://app?vid=54dbf230-6fba-4dd5-9b19-51515301165d","ios":"levelo://app?vid=54dbf230-6fba-4dd5-9b19-51515301165d"},"vehicle_type_id":"4","last_reported":1706349960,"current_range_meters":28800,"station_id":"ce4bhb92rcd13ifvqen0","pricing_plan_id":"free"},{"bike_id":"79a06bed-b6fc-45a1-82f5-4c17f490d569","system_id":"levelo_inurba_marseille","lat":43.309198,"lon":5.399571,"is_reserved":false,"is_disabled":false,"rental_uris":{"android":"levelo://app?vid=79a06bed-b6fc-45a1-82f5-4c17f490d569","ios":"levelo://app?vid=79a06bed-b6fc-45a1-82f5-4c17f490d569"},"vehicle_type_id":"4","last_reported":1706349960,"current_range_meters":22400,"station_id":"","pricing_plan_id":"free"},{"bike_id":"d00e670f-054a-4043-980b-65715ff4acfc","system_id":"levelo_inurba_marseille","lat":43.290104,"lon":5.356111,"is_reserved":false,"is_disabled":false,"rental_uris":{"android":"levelo://app?vid=d00e670f-054a-4043-980b-65715ff4acfc","ios":"levelo://app?vid=d00e670f-054a-4043-980b-65715ff4acfc"},"vehicle_type_id":"4","last_reported":1706349960,"current_range_meters":24400,"station_id":"ce4bhb92rcd13ifvqen0","pricing_plan_id":"free"},{"bike_id":"e9f96293-069a-419a-8230-1e554ffffe69","system_id":"levelo_inurba_marseille","lat":43.29003,"lon":5.35609,"is_reserved":false,"is_disabled":false,"rental_uris":{"android":"levelo://app?vid=e9f96293-069a-419a-8230-1e554ffffe69","ios":"levelo://app?vid=e9f96293-069a-419a-8230-1e554ffffe69"},"vehicle_type_id":"4","last_reported":1706349960,"current_range_meters":26400,"station_id":"ce4bhb92rcd13ifvqen0","pricing_plan_id":"free"},{"bike_id":"97ecf7bc-50e2-4955-9530-67010a926dd3","system_id":"levelo_inurba_marseille","lat":43.29004,"lon":5.35604,"is_reserved":false,"is_disabled":false,"rental_uris":{"android":"levelo://app?vid=97ecf7bc-50e2-4955-9530-67010a926dd3","ios":"levelo://app?vid=97ecf7bc-50e2-4955-9530-67010a926dd3"},"vehicle_type_id":"4","last_reported":1706349960,"current_range_meters":11600,"station_id":"ce4bhb92rcd13ifvqen0","pricing_plan_id":"free"},{"bike_id":"452d05cc-7978-457e-82d2-91167193e380","system_id":"levelo_inurba_marseille","lat":43.290103,"lon":5.356114,"is_reserved":false,"is_disabled":false,"rental_uris":{"android":"levelo://app?vid=452d05cc-7978-457e-82d2-91167193e380","ios":"levelo://app?vid=452d05cc-7978-457e-82d2-91167193e380"},"vehicle_type_id":"4","last_reported":1706349960,"current_range_meters":26400,"station_id":"ce4bhb92rcd13ifvqen0","pricing_plan_id":"free"},{"bike_id":"cf9ef472-d223-4702-9d79-91f9fcf6d42b","system_id":"levelo_inurba_marseille","lat":43.290104,"lon":5.356111,"is_reserved":false,"is_disabled":false,"rental_uris":{"android":"levelo://app?vid=cf9ef472-d223-4702-9d79-91f9fcf6d42b","ios":"levelo://app?vid=cf9ef472-d223-4702-9d79-91f9fcf6d42b"},"vehicle_type_id":"4","last_reported":1706349960,"current_range_meters":30000,"station_id":"ce4bhb92rcd13ifvqen0","pricing_plan_id":"free"},{"bike_id":"4fab13ed-27a0-412e-84f2-95a196fe85fc","system_id":"levelo_inurba_marseille","lat":43.289741,"lon":5.378306,"is_reserved":false,"is_disabled":false,"rental_uris":{"android":"levelo://app?vid=4fab13ed-27a0-412e-84f2-95a196fe85fc","ios":"levelo://app?vid=4fab13ed-27a0-412e-84f2-95a196fe85fc"},"vehicle_type_id":"4","last_reported":1706349960,"current_range_meters":26400,"station_id":"ce4bh9p2rcd13ifvqed0","pricing_plan_id":"free"},{"bike_id":"17c9044b-1e1a-4ec5-a29a-4d2b191e11f0","system_id":"levelo_inurba_marseille","lat":43.330442,"lon":5.389148,"is_reserved":false,"is_disabled":false,"rental_uris":{"android":"levelo://app?vid=17c9044b-1e1a-4ec5-a29a-4d2b191e11f0","ios":"levelo://app?vid=17c9044b-1e1a-4ec5-a29a-4d2b191e11f0"},"vehicle_type_id":"4","last_reported":1706349960,"current_range_meters":10800,"station_id":"ce4bhr92rcd13ifvqhrg","pricing_plan_id":"free"},{"bike_id":"68a39f9c-2608-4c77-bf61-7dff29073571","system_id":"levelo_inurba_marseille","lat":43.289743,"lon":5.378304,"is_reserved":false,"is_disabled":false,"rental_uris":{"android":"levelo://app?vid=68a39f9c-2608-4c77-bf61-7dff29073571","ios":"levelo://app?vid=68a39f9c-2608-4c77-bf61-7dff29073571"},"vehicle_type_id":"4","last_reported":1706349960,"current_range_meters":25600,"station_id":"ce4bh9p2rcd13ifvqed0","pricing_plan_id":"free"},{"bike_id":"87d043b6-3a6d-4c7a-83c3-f482e2b9204e","system_id":"levelo_inurba_marseille","lat":43.289741,"lon":5.378306,"is_reserved":false,"is_disabled":false,"rental_uris":{"android":"levelo://app?vid=87d043b6-3a6d-4c7a-83c3-f482e2b9204e","ios":"levelo://app?vid=87d043b6-3a6d-4c7a-83c3-f482e2b9204e"},"vehicle_type_id":"4","last_reported":1706349960,"current_range_meters":24800,"station_id":"ce4bh9p2rcd13ifvqed0","pricing_plan_id":"free"},{"bike_id":"1407b8e2-11c3-464d-b7bd-c9b928c6b09b","system_id":"levelo_inurba_marseille","lat":43.33021,"lon":5.39047,"is_reserved":false,"is_disabled":false,"rental_uris":{"android":"levelo://app?vid=1407b8e2-11c3-464d-b7bd-c9b928c6b09b","ios":"levelo://app?vid=1407b8e2-11c3-464d-b7bd-c9b928c6b09b"},"vehicle_type_id":"4","last_reported":1706349960,"current_range_meters":30800,"station_id":"ce4bhr92rcd13ifvqhrg","pricing_plan_id":"free"},{"bike_id":"e40cd59e-c067-489d-817b-440f879134bb","system_id":"levelo_inurba_marseille","lat":43.33026,"lon":5.39041,"is_reserved":false,"is_disabled":false,"rental_uris":{"android":"levelo://app?vid=e40cd59e-c067-489d-817b-440f879134bb","ios":"levelo://app?vid=e40cd59e-c067-489d-817b-440f879134bb"},"vehicle_type_id":"4","last_reported":1706349960,"current_range_meters":29200,"station_id":"ce4bhr92rcd13ifvqhrg","pricing_plan_id":"free"},{"bike_id":"1215d466-a2ff-46c0-8448-78baf02bd444","system_id":"levelo_inurba_marseille","lat":43.330442,"lon":5.389148,"is_reserved":false,"is_disabled":false,"rental_uris":{"android":"levelo://app?vid=1215d466-a2ff-46c0-8448-78baf02bd444","ios":"levelo://app?vid=1215d466-a2ff-46c0-8448-78baf02bd444"},"vehicle_type_id":"4","last_reported":1706349960,"current_range_meters":18000,"station_id":"ce4bhr92rcd13ifvqhrg","pricing_plan_id":"free"},{"bike_id":"edfbaaff-c5d2-40e4-8d8c-a55adf3e577e","system_id":"levelo_inurba_marseille","lat":43.28856,"lon":5.358371,"is_reserved":false,"is_disabled":false,"rental_uris":{"android":"levelo://app?vid=edfbaaff-c5d2-40e4-8d8c-a55adf3e577e","ios":"levelo://app?vid=edfbaaff-c5d2-40e4-8d8c-a55adf3e577e"},"vehicle_type_id":"4","last_reported":1706349960,"current_range_meters":28000,"station_id":"ce4bhb12rcd13ifvqem0","pricing_plan_id":"free"},{"bike_id":"c60d702a-754d-40f7-b2e7-84f244d7d076","system_id":"levelo_inurba_marseille","lat":43.28856,"lon":5.358371,"is_reserved":false,"is_disabled":false,"rental_uris":{"android":"levelo://app?vid=c60d702a-754d-40f7-b2e7-84f244d7d076","ios":"levelo://app?vid=c60d702a-754d-40f7-b2e7-84f244d7d076"},"vehicle_type_id":"4","last_reported":1706349960,"current_range_meters":0,"station_id":"ce4bhb12rcd13ifvqem0","pricing_plan_id":"free"},{"bike_id":"4357c303-4576-47d7-bd5b-19fbf2ba422e","system_id":"levelo_inurba_marseille","lat":43.28856,"lon":5.358371,"is_reserved":false,"is_disabled":false,"rental_uris":{"android":"levelo://app?vid=4357c303-4576-47d7-bd5b-19fbf2ba422e","ios":"levelo://app?vid=4357c303-4576-47d7-bd5b-19fbf2ba422e"},"vehicle_type_id":"4","last_reported":1706349960,"current_range_meters":23600,"station_id":"ce4bhb12rcd13ifvqem0","pricing_plan_id":"free"},{"bike_id":"707437ff-20cf-4768-9bc4-19a9590f3c89","system_id":"levelo_inurba_marseille","lat":43.28856,"lon":5.358371,"is_reserved":false,"is_disabled":false,"rental_uris":{"android":"levelo://app?vid=707437ff-20cf-4768-9bc4-19a9590f3c89","ios":"levelo://app?vid=707437ff-20cf-4768-9bc4-19a9590f3c89"},"vehicle_type_id":"4","last_reported":1706349960,"current_range_meters":25200,"station_id":"ce4bhb12rcd13ifvqem0","pricing_plan_id":"free"},{"bike_id":"ea4a6f27-0cc0-4e6f-b346-f607cfb001c9","system_id":"levelo_inurba_marseille","lat":43.28856,"lon":5.358371,"is_reserved":false,"is_disabled":false,"rental_uris":{"android":"levelo://app?vid=ea4a6f27-0cc0-4e6f-b346-f607cfb001c9","ios":"levelo://app?vid=ea4a6f27-0cc0-4e6f-b346-f607cfb001c9"},"vehicle_type_id":"4","last_reported":1706349960,"current_range_meters":6800,"station_id":"ce4bhb12rcd13ifvqem0","pricing_plan_id":"free"},{"bike_id":"d3f9bfb1-3059-46b7-b44a-998b305b324a","system_id":"levelo_inurba_marseille","lat":43.31285,"lon":5.40163,"is_reserved":false,"is_disabled":false,"rental_uris":{"android":"levelo://app?vid=d3f9bfb1-3059-46b7-b44a-998b305b324a","ios":"levelo://app?vid=d3f9bfb1-3059-46b7-b44a-998b305b324a"},"vehicle_type_id":"4","last_reported":1706349960,"current_range_meters":2800,"station_id":"ce4bh092rcd13ifvqd30","pricing_plan_id":"free"},{"bike_id":"a797ffc5-c458-40ba-9bc9-6560dd2a2969","system_id":"levelo_inurba_marseille","lat":43.312609,"lon":5.401662,"is_reserved":false,"is_disabled":false,"rental_uris":{"android":"levelo://app?vid=a797ffc5-c458-40ba-9bc9-6560dd2a2969","ios":"levelo://app?vid=a797ffc5-c458-40ba-9bc9-6560dd2a2969"},"vehicle_type_id":"4","last_reported":1706349960,"current_range_meters":28400,"station_id":"ce4bh092rcd13ifvqd30","pricing_plan_id":"free"},{"bike_id":"a955b3e1-d2f0-4235-a805-c4e33bb52b48","system_id":"levelo_inurba_marseille","lat":43.312609,"lon":5.401662,"is_reserved":false,"is_disabled":false,"rental_uris":{"android":"levelo://app?vid=a955b3e1-d2f0-4235-a805-c4e33bb52b48","ios":"levelo://app?vid=a955b3e1-d2f0-4235-a805-c4e33bb52b48"},"vehicle_type_id":"4","last_reported":1706349960,"current_range_meters":10000,"station_id":"ce4bh092rcd13ifvqd30","pricing_plan_id":"free"},{"bike_id":"3e8250c4-7892-4712-900c-b50082c9d1ba","system_id":"levelo_inurba_marseille","lat":43.312609,"lon":5.401662,"is_reserved":false,"is_disabled":false,"rental_uris":{"android":"levelo://app?vid=3e8250c4-7892-4712-900c-b50082c9d1ba","ios":"levelo://app?vid=3e8250c4-7892-4712-900c-b50082c9d1ba"},"vehicle_type_id":"4","last_reported":1706349960,"current_range_meters":12800,"station_id":"ce4bh092rcd13ifvqd30","pricing_plan_id":"free"},{"bike_id":"9e23ed58-9b9a-4d67-9711-4b4e0754a666","system_id":"levelo_inurba_marseille","lat":43.309371,"lon":5.401449,"is_reserved":false,"is_disabled":false,"rental_uris":{"android":"levelo://app?vid=9e23ed58-9b9a-4d67-9711-4b4e0754a666","ios":"levelo://app?vid=9e23ed58-9b9a-4d67-9711-4b4e0754a666"},"vehicle_type_id":"4","last_reported":1706349960,"current_range_meters":29600,"station_id":"ce4bgvp2rcd13ifvqct0","pricing_plan_id":"free"},{"bike_id":"43236fd2-e2e9-4b1e-9ed5-bfdbf82475b3","system_id":"levelo_inurba_marseille","lat":43.33745,"lon":5.37437,"is_reserved":false,"is_disabled":false,"rental_uris":{"android":"levelo://app?vid=43236fd2-e2e9-4b1e-9ed5-bfdbf82475b3","ios":"levelo://app?vid=43236fd2-e2e9-4b1e-9ed5-bfdbf82475b3"},"vehicle_type_id":"4","last_reported":1706349960,"current_range_meters":29200,"station_id":"","pricing_plan_id":"free"},{"bike_id":"7e485a26-d2ec-4aef-a200-d1656c9e6a7c","system_id":"levelo_inurba_marseille","lat":43.30935,"lon":5.40141,"is_reserved":false,"is_disabled":false,"rental_uris":{"android":"levelo://app?vid=7e485a26-d2ec-4aef-a200-d1656c9e6a7c","ios":"levelo://app?vid=7e485a26-d2ec-4aef-a200-d1656c9e6a7c"},"vehicle_type_id":"4","last_reported":1706349960,"current_range_meters":24400,"station_id":"ce4bgvp2rcd13ifvqct0","pricing_plan_id":"free"},{"bike_id":"c490053e-ac92-454d-8697-23d9bd84c6a1","system_id":"levelo_inurba_marseille","lat":43.309371,"lon":5.401449,"is_reserved":false,"is_disabled":false,"rental_uris":{"android":"levelo://app?vid=c490053e-ac92-454d-8697-23d9bd84c6a1","ios":"levelo://app?vid=c490053e-ac92-454d-8697-23d9bd84c6a1"},"vehicle_type_id":"4","last_reported":1706349960,"current_range_meters":24400,"station_id":"ce4bgvp2rcd13ifvqct0","pricing_plan_id":"free"},{"bike_id":"2ce5a205-8f7d-449c-a5e9-a240e61c62f8","system_id":"levelo_inurba_marseille","lat":43.309371,"lon":5.401449,"is_reserved":false,"is_disabled":false,"rental_uris":{"android":"levelo://app?vid=2ce5a205-8f7d-449c-a5e9-a240e61c62f8","ios":"levelo://app?vid=2ce5a205-8f7d-449c-a5e9-a240e61c62f8"},"vehicle_type_id":"4","last_reported":1706349960,"current_range_meters":28000,"station_id":"ce4bgvp2rcd13ifvqct0","pricing_plan_id":"free"},{"bike_id":"5e50b5fa-cc27-4bb7-a1f3-ec4721f3e351","system_id":"levelo_inurba_marseille","lat":43.33747,"lon":5.37449,"is_reserved":false,"is_disabled":false,"rental_uris":{"android":"levelo://app?vid=5e50b5fa-cc27-4bb7-a1f3-ec4721f3e351","ios":"levelo://app?vid=5e50b5fa-cc27-4bb7-a1f3-ec4721f3e351"},"vehicle_type_id":"4","last_reported":1706349960,"current_range_meters":30800,"station_id":"","pricing_plan_id":"free"},{"bike_id":"80fa5b19-6ed9-4b6c-9858-d2a96a4e3452","system_id":"levelo_inurba_marseille","lat":43.309371,"lon":5.401449,"is_reserved":false,"is_disabled":false,"rental_uris":{"android":"levelo://app?vid=80fa5b19-6ed9-4b6c-9858-d2a96a4e3452","ios":"levelo://app?vid=80fa5b19-6ed9-4b6c-9858-d2a96a4e3452"},"vehicle_type_id":"4","last_reported":1706349960,"current_range_meters":17600,"station_id":"ce4bgvp2rcd13ifvqct0","pricing_plan_id":"free"},{"bike_id":"d342034f-acfe-423c-8f3f-343fbdea5188","system_id":"levelo_inurba_marseille","lat":43.33755,"lon":5.374579,"is_reserved":false,"is_disabled":false,"rental_uris":{"android":"levelo://app?vid=d342034f-acfe-423c-8f3f-343fbdea5188","ios":"levelo://app?vid=d342034f-acfe-423c-8f3f-343fbdea5188"},"vehicle_type_id":"4","last_reported":1706349960,"current_range_meters":24400,"station_id":"","pricing_plan_id":"free"},{"bike_id":"b7f12eab-e0a6-499e-87ec-2b4381c4602a","system_id":"levelo_inurba_marseille","lat":43.337525,"lon":5.374737,"is_reserved":false,"is_disabled":false,"rental_uris":{"android":"levelo://app?vid=b7f12eab-e0a6-499e-87ec-2b4381c4602a","ios":"levelo://app?vid=b7f12eab-e0a6-499e-87ec-2b4381c4602a"},"vehicle_type_id":"4","last_reported":1706349960,"current_range_meters":24800,"station_id":"","pricing_plan_id":"free"},{"bike_id":"910340a0-2dca-4aa3-a432-2a1f3ca44297","system_id":"levelo_inurba_marseille","lat":43.286593,"lon":5.363346,"is_reserved":false,"is_disabled":false,"rental_uris":{"android":"levelo://app?vid=910340a0-2dca-4aa3-a432-2a1f3ca44297","ios":"levelo://app?vid=910340a0-2dca-4aa3-a432-2a1f3ca44297"},"vehicle_type_id":"4","last_reported":1706349960,"current_range_meters":28400,"station_id":"ce4bhah2rcd13ifvqej0","pricing_plan_id":"free"},{"bike_id":"b7d3b81d-d85a-44b5-a0c7-8f9c9f74639e","system_id":"levelo_inurba_marseille","lat":43.33769,"lon":5.37447,"is_reserved":false,"is_disabled":false,"rental_uris":{"android":"levelo://app?vid=b7d3b81d-d85a-44b5-a0c7-8f9c9f74639e","ios":"levelo://app?vid=b7d3b81d-d85a-44b5-a0c7-8f9c9f74639e"},"vehicle_type_id":"4","last_reported":1706349960,"current_range_meters":25200,"station_id":"","pricing_plan_id":"free"},{"bike_id":"a86634c4-a5ce-48ad-b033-b332dee8fa95","system_id":"levelo_inurba_marseille","lat":43.301117,"lon":5.398795,"is_reserved":false,"is_disabled":false,"rental_uris":{"android":"levelo://app?vid=a86634c4-a5ce-48ad-b033-b332dee8fa95","ios":"levelo://app?vid=a86634c4-a5ce-48ad-b033-b332dee8fa95"},"vehicle_type_id":"4","last_reported":1706349960,"current_range_meters":20400,"station_id":"ce4bh0h2rcd13ifvqd40","pricing_plan_id":"free"},{"bike_id":"e18bb98c-8a45-46f3-8ecb-ee71a2349acb","system_id":"levelo_inurba_marseille","lat":43.287013,"lon":5.373843,"is_reserved":false,"is_disabled":false,"rental_uris":{"android":"levelo://app?vid=e18bb98c-8a45-46f3-8ecb-ee71a2349acb","ios":"levelo://app?vid=e18bb98c-8a45-46f3-8ecb-ee71a2349acb"},"vehicle_type_id":"4","last_reported":1706349960,"current_range_meters":20400,"station_id":"ce4bh3p2rcd13ifvqdq0","pricing_plan_id":"free"},{"bike_id":"8369e66b-3b6e-4cdb-9e18-5cec3a75882f","system_id":"levelo_inurba_marseille","lat":43.28694,"lon":5.37386,"is_reserved":false,"is_disabled":false,"rental_uris":{"android":"levelo://app?vid=8369e66b-3b6e-4cdb-9e18-5cec3a75882f","ios":"levelo://app?vid=8369e66b-3b6e-4cdb-9e18-5cec3a75882f"},"vehicle_type_id":"4","last_reported":1706349960,"current_range_meters":19600,"station_id":"ce4bh3p2rcd13ifvqdq0","pricing_plan_id":"free"},{"bike_id":"183bb1c1-398f-466c-b05d-327ac4efc436","system_id":"levelo_inurba_marseille","lat":43.302511,"lon":5.400653,"is_reserved":false,"is_disabled":false,"rental_uris":{"android":"levelo://app?vid=183bb1c1-398f-466c-b05d-327ac4efc436","ios":"levelo://app?vid=183bb1c1-398f-466c-b05d-327ac4efc436"},"vehicle_type_id":"4","last_reported":1706349960,"current_range_meters":15200,"station_id":"ce4bgth2rcd13ifvqch0","pricing_plan_id":"free"},{"bike_id":"86a8dd3e-3ddb-4eca-b44b-48b04223c915","system_id":"levelo_inurba_marseille","lat":43.289307,"lon":5.38406,"is_reserved":false,"is_disabled":false,"rental_uris":{"android":"levelo://app?vid=86a8dd3e-3ddb-4eca-b44b-48b04223c915","ios":"levelo://app?vid=86a8dd3e-3ddb-4eca-b44b-48b04223c915"},"vehicle_type_id":"4","last_reported":1706349960,"current_range_meters":27600,"station_id":"ce4bh612rcd13ifvqe6g","pricing_plan_id":"free"},{"bike_id":"7955caab-ece8-49f9-a7d8-2e6b179cf99c","system_id":"levelo_inurba_marseille","lat":43.302759,"lon":5.400793,"is_reserved":false,"is_disabled":false,"rental_uris":{"android":"levelo://app?vid=7955caab-ece8-49f9-a7d8-2e6b179cf99c","ios":"levelo://app?vid=7955caab-ece8-49f9-a7d8-2e6b179cf99c"},"vehicle_type_id":"4","last_reported":1706349960,"current_range_meters":15200,"station_id":"ce4bgvh2rcd13ifvqcs0","pricing_plan_id":"free"},{"bike_id":"01d3c2e2-9fbd-440b-98f8-30512320d602","system_id":"levelo_inurba_marseille","lat":43.290336,"lon":5.386425,"is_reserved":false,"is_disabled":false,"rental_uris":{"android":"levelo://app?vid=01d3c2e2-9fbd-440b-98f8-30512320d602","ios":"levelo://app?vid=01d3c2e2-9fbd-440b-98f8-30512320d602"},"vehicle_type_id":"4","last_reported":1706349960,"current_range_meters":18400,"station_id":"ce4bh4p2rcd13ifvqe0g","pricing_plan_id":"free"},{"bike_id":"cd2e8384-1758-41b7-8b66-e6112be1b4da","system_id":"levelo_inurba_marseille","lat":43.286039,"lon":5.370681,"is_reserved":false,"is_disabled":false,"rental_uris":{"android":"levelo://app?vid=cd2e8384-1758-41b7-8b66-e6112be1b4da","ios":"levelo://app?vid=cd2e8384-1758-41b7-8b66-e6112be1b4da"},"vehicle_type_id":"4","last_reported":1706349960,"current_range_meters":24000,"station_id":"ce4bht12rcd13ifvqi60","pricing_plan_id":"free"},{"bike_id":"eae3722c-b78f-4be5-b02d-e64bbe4108da","system_id":"levelo_inurba_marseille","lat":43.287185,"lon":5.379373,"is_reserved":false,"is_disabled":false,"rental_uris":{"android":"levelo://app?vid=eae3722c-b78f-4be5-b02d-e64bbe4108da","ios":"levelo://app?vid=eae3722c-b78f-4be5-b02d-e64bbe4108da"},"vehicle_type_id":"4","last_reported":1706349960,"current_range_meters":30000,"station_id":"ce4bh9p2rcd13ifvqec0","pricing_plan_id":"free"},{"bike_id":"c2794ec0-d51b-4cc9-8e7d-936c33faece1","system_id":"levelo_inurba_marseille","lat":43.287184,"lon":5.37937,"is_reserved":false,"is_disabled":false,"rental_uris":{"android":"levelo://app?vid=c2794ec0-d51b-4cc9-8e7d-936c33faece1","ios":"levelo://app?vid=c2794ec0-d51b-4cc9-8e7d-936c33faece1"},"vehicle_type_id":"4","last_reported":1706349960,"current_range_meters":16800,"station_id":"ce4bh9p2rcd13ifvqec0","pricing_plan_id":"free"},{"bike_id":"ddd40f48-bc1d-4a0e-8169-0492f6b8103c","system_id":"levelo_inurba_marseille","lat":43.287185,"lon":5.379373,"is_reserved":false,"is_disabled":false,"rental_uris":{"android":"levelo://app?vid=ddd40f48-bc1d-4a0e-8169-0492f6b8103c","ios":"levelo://app?vid=ddd40f48-bc1d-4a0e-8169-0492f6b8103c"},"vehicle_type_id":"4","last_reported":1706349960,"current_range_meters":22800,"station_id":"ce4bh9p2rcd13ifvqec0","pricing_plan_id":"free"},{"bike_id":"315e45df-6d01-4551-9d5f-6aca85d814c7","system_id":"levelo_inurba_marseille","lat":43.316956,"lon":5.404648,"is_reserved":false,"is_disabled":false,"rental_uris":{"android":"levelo://app?vid=315e45df-6d01-4551-9d5f-6aca85d814c7","ios":"levelo://app?vid=315e45df-6d01-4551-9d5f-6aca85d814c7"},"vehicle_type_id":"4","last_reported":1706349960,"current_range_meters":26400,"station_id":"ce4bh012rcd13ifvqd00","pricing_plan_id":"free"},{"bike_id":"4eddbdfe-93cf-4221-bb9d-31b393a2d4e0","system_id":"levelo_inurba_marseille","lat":43.316828,"lon":5.404723,"is_reserved":false,"is_disabled":false,"rental_uris":{"android":"levelo://app?vid=4eddbdfe-93cf-4221-bb9d-31b393a2d4e0","ios":"levelo://app?vid=4eddbdfe-93cf-4221-bb9d-31b393a2d4e0"},"vehicle_type_id":"4","last_reported":1706349960,"current_range_meters":19600,"station_id":"ce4bh012rcd13ifvqd00","pricing_plan_id":"free"},{"bike_id":"b332df60-0a81-4841-a021-c7d35a6d7740","system_id":"levelo_inurba_marseille","lat":43.316907,"lon":5.404676,"is_reserved":false,"is_disabled":false,"rental_uris":{"android":"levelo://app?vid=b332df60-0a81-4841-a021-c7d35a6d7740","ios":"levelo://app?vid=b332df60-0a81-4841-a021-c7d35a6d7740"},"vehicle_type_id":"4","last_reported":1706349960,"current_range_meters":10000,"station_id":"ce4bh012rcd13ifvqd00","pricing_plan_id":"free"},{"bike_id":"48bbdad8-9ad2-4e82-b576-c9f0d6337dba","system_id":"levelo_inurba_marseille","lat":43.31705,"lon":5.40465,"is_reserved":false,"is_disabled":false,"rental_uris":{"android":"levelo://app?vid=48bbdad8-9ad2-4e82-b576-c9f0d6337dba","ios":"levelo://app?vid=48bbdad8-9ad2-4e82-b576-c9f0d6337dba"},"vehicle_type_id":"4","last_reported":1706349960,"current_range_meters":9200,"station_id":"ce4bh012rcd13ifvqd00","pricing_plan_id":"free"},{"bike_id":"2251fc59-2828-4aff-966d-0a6777ecbd36","system_id":"levelo_inurba_marseille","lat":43.316919,"lon":5.404679,"is_reserved":false,"is_disabled":false,"rental_uris":{"android":"levelo://app?vid=2251fc59-2828-4aff-966d-0a6777ecbd36","ios":"levelo://app?vid=2251fc59-2828-4aff-966d-0a6777ecbd36"},"vehicle_type_id":"4","last_reported":1706349960,"current_range_meters":7600,"station_id":"ce4bh012rcd13ifvqd00","pricing_plan_id":"free"},{"bike_id":"067f72eb-f2f8-4229-9f25-2784bb7c6730","system_id":"levelo_inurba_marseille","lat":43.316828,"lon":5.404723,"is_reserved":false,"is_disabled":false,"rental_uris":{"android":"levelo://app?vid=067f72eb-f2f8-4229-9f25-2784bb7c6730","ios":"levelo://app?vid=067f72eb-f2f8-4229-9f25-2784bb7c6730"},"vehicle_type_id":"4","last_reported":1706349960,"current_range_meters":18000,"station_id":"ce4bh012rcd13ifvqd00","pricing_plan_id":"free"},{"bike_id":"c011c8ab-84d3-4588-a847-3df4c973ed80","system_id":"levelo_inurba_marseille","lat":43.316828,"lon":5.404723,"is_reserved":false,"is_disabled":false,"rental_uris":{"android":"levelo://app?vid=c011c8ab-84d3-4588-a847-3df4c973ed80","ios":"levelo://app?vid=c011c8ab-84d3-4588-a847-3df4c973ed80"},"vehicle_type_id":"4","last_reported":1706349960,"current_range_meters":13200,"station_id":"ce4bh012rcd13ifvqd00","pricing_plan_id":"free"},{"bike_id":"bdafa372-a206-4afd-82f2-3e275f049913","system_id":"levelo_inurba_marseille","lat":43.284538,"lon":5.358657,"is_reserved":false,"is_disabled":false,"rental_uris":{"android":"levelo://app?vid=bdafa372-a206-4afd-82f2-3e275f049913","ios":"levelo://app?vid=bdafa372-a206-4afd-82f2-3e275f049913"},"vehicle_type_id":"4","last_reported":1706349960,"current_range_meters":26000,"station_id":"ce4bhah2rcd13ifvqei0","pricing_plan_id":"free"},{"bike_id":"6ac8eaf8-d902-472c-8e32-1928b327043f","system_id":"levelo_inurba_marseille","lat":43.284538,"lon":5.358657,"is_reserved":false,"is_disabled":false,"rental_uris":{"android":"levelo://app?vid=6ac8eaf8-d902-472c-8e32-1928b327043f","ios":"levelo://app?vid=6ac8eaf8-d902-472c-8e32-1928b327043f"},"vehicle_type_id":"4","last_reported":1706349960,"current_range_meters":26400,"station_id":"ce4bhah2rcd13ifvqei0","pricing_plan_id":"free"},{"bike_id":"d8e93caa-366c-442f-90fa-7c4f6a474389","system_id":"levelo_inurba_marseille","lat":43.284538,"lon":5.358657,"is_reserved":false,"is_disabled":false,"rental_uris":{"android":"levelo://app?vid=d8e93caa-366c-442f-90fa-7c4f6a474389","ios":"levelo://app?vid=d8e93caa-366c-442f-90fa-7c4f6a474389"},"vehicle_type_id":"4","last_reported":1706349960,"current_range_meters":22400,"station_id":"ce4bhah2rcd13ifvqei0","pricing_plan_id":"free"},{"bike_id":"7b8610ad-df41-4fc3-8d70-b368302fad68","system_id":"levelo_inurba_marseille","lat":43.284573,"lon":5.358891,"is_reserved":false,"is_disabled":false,"rental_uris":{"android":"levelo://app?vid=7b8610ad-df41-4fc3-8d70-b368302fad68","ios":"levelo://app?vid=7b8610ad-df41-4fc3-8d70-b368302fad68"},"vehicle_type_id":"4","last_reported":1706349960,"current_range_meters":30800,"station_id":"ce4bhah2rcd13ifvqei0","pricing_plan_id":"free"},{"bike_id":"73887220-150b-4135-82e1-fc275dd94d69","system_id":"levelo_inurba_marseille","lat":43.284534,"lon":5.358662,"is_reserved":false,"is_disabled":false,"rental_uris":{"android":"levelo://app?vid=73887220-150b-4135-82e1-fc275dd94d69","ios":"levelo://app?vid=73887220-150b-4135-82e1-fc275dd94d69"},"vehicle_type_id":"4","last_reported":1706349960,"current_range_meters":17600,"station_id":"ce4bhah2rcd13ifvqei0","pricing_plan_id":"free"},{"bike_id":"56544b10-d8c2-42bb-af13-1e73214d6fa6","system_id":"levelo_inurba_marseille","lat":43.294314,"lon":5.397498,"is_reserved":false,"is_disabled":false,"rental_uris":{"android":"levelo://app?vid=56544b10-d8c2-42bb-af13-1e73214d6fa6","ios":"levelo://app?vid=56544b10-d8c2-42bb-af13-1e73214d6fa6"},"vehicle_type_id":"4","last_reported":1706349960,"current_range_meters":25600,"station_id":"ce4bh3h2rcd13ifvqdo0","pricing_plan_id":"free"},{"bike_id":"55993c3f-eb92-4bc7-9c66-80f3e0ea39aa","system_id":"levelo_inurba_marseille","lat":43.285856,"lon":5.350771,"is_reserved":false,"is_disabled":false,"rental_uris":{"android":"levelo://app?vid=55993c3f-eb92-4bc7-9c66-80f3e0ea39aa","ios":"levelo://app?vid=55993c3f-eb92-4bc7-9c66-80f3e0ea39aa"},"vehicle_type_id":"4","last_reported":1706349960,"current_range_meters":31200,"station_id":"ce4bhch2rcd13ifvqeug","pricing_plan_id":"free"},{"bike_id":"7eb8550f-b6d6-444b-b290-34eac0303f7e","system_id":"levelo_inurba_marseille","lat":43.285856,"lon":5.350771,"is_reserved":false,"is_disabled":false,"rental_uris":{"android":"levelo://app?vid=7eb8550f-b6d6-444b-b290-34eac0303f7e","ios":"levelo://app?vid=7eb8550f-b6d6-444b-b290-34eac0303f7e"},"vehicle_type_id":"4","last_reported":1706349960,"current_range_meters":8800,"station_id":"ce4bhch2rcd13ifvqeug","pricing_plan_id":"free"},{"bike_id":"97766269-ff63-4f7a-9ec9-2b869b957851","system_id":"levelo_inurba_marseille","lat":43.28609,"lon":5.35102,"is_reserved":false,"is_disabled":false,"rental_uris":{"android":"levelo://app?vid=97766269-ff63-4f7a-9ec9-2b869b957851","ios":"levelo://app?vid=97766269-ff63-4f7a-9ec9-2b869b957851"},"vehicle_type_id":"4","last_reported":1706349960,"current_range_meters":13200,"station_id":"ce4bhch2rcd13ifvqeug","pricing_plan_id":"free"},{"bike_id":"eccb0f66-d6aa-45e2-ab66-74ef999b9097","system_id":"levelo_inurba_marseille","lat":43.284204,"lon":5.375164,"is_reserved":false,"is_disabled":false,"rental_uris":{"android":"levelo://app?vid=eccb0f66-d6aa-45e2-ab66-74ef999b9097","ios":"levelo://app?vid=eccb0f66-d6aa-45e2-ab66-74ef999b9097"},"vehicle_type_id":"4","last_reported":1706349960,"current_range_meters":0,"station_id":"ce4bh412rcd13ifvqds0","pricing_plan_id":"free"},{"bike_id":"17cc1c80-210b-427c-905b-de770be20b02","system_id":"levelo_inurba_marseille","lat":43.283998,"lon":5.375062,"is_reserved":false,"is_disabled":false,"rental_uris":{"android":"levelo://app?vid=17cc1c80-210b-427c-905b-de770be20b02","ios":"levelo://app?vid=17cc1c80-210b-427c-905b-de770be20b02"},"vehicle_type_id":"4","last_reported":1706349960,"current_range_meters":14800,"station_id":"ce4bh412rcd13ifvqds0","pricing_plan_id":"free"},{"bike_id":"59075b31-cd2c-4091-b6ad-fa6f54d78034","system_id":"levelo_inurba_marseille","lat":43.283998,"lon":5.375062,"is_reserved":false,"is_disabled":false,"rental_uris":{"android":"levelo://app?vid=59075b31-cd2c-4091-b6ad-fa6f54d78034","ios":"levelo://app?vid=59075b31-cd2c-4091-b6ad-fa6f54d78034"},"vehicle_type_id":"4","last_reported":1706349960,"current_range_meters":30000,"station_id":"ce4bh412rcd13ifvqds0","pricing_plan_id":"free"},{"bike_id":"25fbf0f3-bb72-4fe5-b88e-93ab8bf6bd1f","system_id":"levelo_inurba_marseille","lat":43.295713,"lon":5.399639,"is_reserved":false,"is_disabled":false,"rental_uris":{"android":"levelo://app?vid=25fbf0f3-bb72-4fe5-b88e-93ab8bf6bd1f","ios":"levelo://app?vid=25fbf0f3-bb72-4fe5-b88e-93ab8bf6bd1f"},"vehicle_type_id":"4","last_reported":1706349960,"current_range_meters":800,"station_id":"ce4bh312rcd13ifvqdj0","pricing_plan_id":"free"},{"bike_id":"e6f1e10c-2b1d-490b-89b1-981381931476","system_id":"levelo_inurba_marseille","lat":43.286595,"lon":5.386795,"is_reserved":false,"is_disabled":false,"rental_uris":{"android":"levelo://app?vid=e6f1e10c-2b1d-490b-89b1-981381931476","ios":"levelo://app?vid=e6f1e10c-2b1d-490b-89b1-981381931476"},"vehicle_type_id":"4","last_reported":1706349960,"current_range_meters":30800,"station_id":"ce4bh492rcd13ifvqdug","pricing_plan_id":"free"},{"bike_id":"c912d2cf-dd2f-42da-a33e-988d13be0632","system_id":"levelo_inurba_marseille","lat":43.284534,"lon":5.358662,"is_reserved":false,"is_disabled":false,"rental_uris":{"android":"levelo://app?vid=c912d2cf-dd2f-42da-a33e-988d13be0632","ios":"levelo://app?vid=c912d2cf-dd2f-42da-a33e-988d13be0632"},"vehicle_type_id":"4","last_reported":1706349960,"current_range_meters":30000,"station_id":"ce4bhah2rcd13ifvqei0","pricing_plan_id":"free"},{"bike_id":"fe569c08-e0e1-4141-bac2-c6a16f5f5c74","system_id":"levelo_inurba_marseille","lat":43.33717,"lon":5.391857,"is_reserved":false,"is_disabled":false,"rental_uris":{"android":"levelo://app?vid=fe569c08-e0e1-4141-bac2-c6a16f5f5c74","ios":"levelo://app?vid=fe569c08-e0e1-4141-bac2-c6a16f5f5c74"},"vehicle_type_id":"4","last_reported":1706349960,"current_range_meters":30000,"station_id":"ce4bhr92rcd13ifvqhsg","pricing_plan_id":"free"},{"bike_id":"b4bd1ce7-26ad-41db-a915-a3b476b9e02e","system_id":"levelo_inurba_marseille","lat":43.323464,"lon":5.406297,"is_reserved":false,"is_disabled":false,"rental_uris":{"android":"levelo://app?vid=b4bd1ce7-26ad-41db-a915-a3b476b9e02e","ios":"levelo://app?vid=b4bd1ce7-26ad-41db-a915-a3b476b9e02e"},"vehicle_type_id":"4","last_reported":1706349960,"current_range_meters":31200,"station_id":"ce4bhq92rcd13ifvqhjg","pricing_plan_id":"free"},{"bike_id":"0f7dc65d-81b6-43d3-a99d-09d2738d60a2","system_id":"levelo_inurba_marseille","lat":43.323464,"lon":5.406297,"is_reserved":false,"is_disabled":false,"rental_uris":{"android":"levelo://app?vid=0f7dc65d-81b6-43d3-a99d-09d2738d60a2","ios":"levelo://app?vid=0f7dc65d-81b6-43d3-a99d-09d2738d60a2"},"vehicle_type_id":"4","last_reported":1706349960,"current_range_meters":18800,"station_id":"ce4bhq92rcd13ifvqhjg","pricing_plan_id":"free"},{"bike_id":"29c971f3-912e-4f79-8c22-d20e1f4b5d74","system_id":"levelo_inurba_marseille","lat":43.337168,"lon":5.391825,"is_reserved":false,"is_disabled":false,"rental_uris":{"android":"levelo://app?vid=29c971f3-912e-4f79-8c22-d20e1f4b5d74","ios":"levelo://app?vid=29c971f3-912e-4f79-8c22-d20e1f4b5d74"},"vehicle_type_id":"4","last_reported":1706349960,"current_range_meters":20800,"station_id":"ce4bhr92rcd13ifvqhsg","pricing_plan_id":"free"},{"bike_id":"6bb39aaf-175c-431c-881f-0ee7f6c160b5","system_id":"levelo_inurba_marseille","lat":43.284793,"lon":5.384119,"is_reserved":false,"is_disabled":false,"rental_uris":{"android":"levelo://app?vid=6bb39aaf-175c-431c-881f-0ee7f6c160b5","ios":"levelo://app?vid=6bb39aaf-175c-431c-881f-0ee7f6c160b5"},"vehicle_type_id":"4","last_reported":1706349960,"current_range_meters":28800,"station_id":"ce4bh512rcd13ifvqe3g","pricing_plan_id":"free"},{"bike_id":"a9764f00-68bf-4d37-b39e-f0af00be8f80","system_id":"levelo_inurba_marseille","lat":43.284793,"lon":5.384119,"is_reserved":false,"is_disabled":false,"rental_uris":{"android":"levelo://app?vid=a9764f00-68bf-4d37-b39e-f0af00be8f80","ios":"levelo://app?vid=a9764f00-68bf-4d37-b39e-f0af00be8f80"},"vehicle_type_id":"4","last_reported":1706349960,"current_range_meters":26800,"station_id":"ce4bh512rcd13ifvqe3g","pricing_plan_id":"free"},{"bike_id":"c9d3d7e1-846e-4590-8816-285ba025357a","system_id":"levelo_inurba_marseille","lat":43.288501,"lon":5.393087,"is_reserved":false,"is_disabled":false,"rental_uris":{"android":"levelo://app?vid=c9d3d7e1-846e-4590-8816-285ba025357a","ios":"levelo://app?vid=c9d3d7e1-846e-4590-8816-285ba025357a"},"vehicle_type_id":"4","last_reported":1706349960,"current_range_meters":29200,"station_id":"ce4bh2p2rcd13ifvqdi0","pricing_plan_id":"free"},{"bike_id":"17811d33-90db-4b44-8cf2-dbb1ac1bbf06","system_id":"levelo_inurba_marseille","lat":43.288501,"lon":5.393087,"is_reserved":false,"is_disabled":false,"rental_uris":{"android":"levelo://app?vid=17811d33-90db-4b44-8cf2-dbb1ac1bbf06","ios":"levelo://app?vid=17811d33-90db-4b44-8cf2-dbb1ac1bbf06"},"vehicle_type_id":"4","last_reported":1706349960,"current_range_meters":24800,"station_id":"ce4bh2p2rcd13ifvqdi0","pricing_plan_id":"free"},