{"last_updated":1732288198,"ttl":60,"version":"2.2","data":{"bikes":[{"bike_id":"b8b20a2e-0de0-4837-b560-d3ec42f86c87","system_id":"levelo_inurba_marseille","lat":43.30652,"lon":5.40093,"is_reserved":false,"is_disabled":false,"rental_uris":{"android":"levelo://app?vid=b8b20a2e-0de0-4837-b560-d3ec42f86c87","ios":"levelo://app?vid=b8b20a2e-0de0-4837-b560-d3ec42f86c87"},"vehicle_type_id":"4","last_reported":1732288199,"current_range_meters":3600,"station_id":"ce4bh112rcd13ifvqda0","pricing_plan_id":"cebpf4jnsgd1na2vs0mg"},{"bike_id":"0ec198db-a01d-486f-a6eb-0b37b6dfc94a","system_id":"levelo_inurba_marseille","lat":43.29002,"lon":5.35616,"is_reserved":false,"is_disabled":false,"rental_uris":{"android":"levelo://app?vid=0ec198db-a01d-486f-a6eb-0b37b6dfc94a","ios":"levelo://app?vid=0ec198db-a01d-486f-a6eb-0b37b6dfc94a"},"vehicle_type_id":"4","last_reported":1732288199,"current_range_meters":38800,"station_id":"ce4bhb92rcd13ifvqen0","pricing_plan_id":"cebpf4jnsgd1na2vs0mg"},{"bike_id":"e23b6c4c-d27e-407e-a72b-e3ea9129fcf8","system_id":"levelo_inurba_marseille","lat":43.32364,"lon":5.38882,"is_reserved":false,"is_disabled":false,"rental_uris":{"android":"levelo://app?vid=e23b6c4c-d27e-407e-a72b-e3ea9129fcf8","ios":"levelo://app?vid=e23b6c4c-d27e-407e-a72b-e3ea9129fcf8"},"vehicle_type_id":"4","last_reported":1732288199,"current_range_meters":33600,"station_id":"ce4bhqp2rcd13ifvqhog","pricing_plan_id":"cebpf4jnsgd1na2vs0mg"},{"bike_id":"8527133f-e94b-41ef-9b16-c99901d73e95","system_id":"levelo_inurba_marseille","lat":43.25575,"lon":5.38238,"is_reserved":false,"is_disabled":false,"rental_uris":{"android":"levelo://app?vid=8527133f-e94b-41ef-9b16-c99901d73e95","ios":"levelo://app?vid=8527133f-e94b-41ef-9b16-c99901d73e95"},"vehicle_type_id":"4","last_reported":1732288199,"current_range_meters":33200,"station_id":"ce4bhih2rcd13ifvqfs0","pricing_plan_id":"cebpf4jnsgd1na2vs0mg"},{"bike_id":"1a5a3b08-fc55-4b17-adaf-98ac64bb4ae6","system_id":"levelo_inurba_marseille","lat":43.29912,"lon":5.37473,"is_reserved":false,"is_disabled":false,"rental_uris":{"android":"levelo://app?vid=1a5a3b08-fc55-4b17-adaf-98ac64bb4ae6","ios":"levelo://app?vid=1a5a3b08-fc55-4b17-adaf-98ac64bb4ae6"},"vehicle_type_id":"4","last_reported":1732288199,"current_range_meters":24800,"station_id":"ce4bgjh2rcd13ifvqbg0","pricing_plan_id":"cebpf4jnsgd1na2vs0mg"},{"bike_id":"dbf1e441-5fe4-47ce-866b-ce9659b483b9","system_id":"levelo_inurba_marseille","lat":43.29634,"lon":5.40603,"is_reserved":false,"is_disabled":false,"rental_uris":{"android":"levelo://app?vid=dbf1e441-5fe4-47ce-866b-ce9659b483b9","ios":"levelo://app?vid=dbf1e441-5fe4-47ce-866b-ce9659b483b9"},"vehicle_type_id":"4","last_reported":1732288199,"current_range_meters":18000,"station_id":"ce4bh0h2rcd13ifvqd60","pricing_plan_id":"cebpf4jnsgd1na2vs0mg"},{"bike_id":"896b2297-b84a-495d-8ee8-43f2deca1b53","system_id":"levelo_inurba_marseille","lat":43.26955,"lon":5.3863,"is_reserved":false,"is_disabled":false,"rental_uris":{"android":"levelo://app?vid=896b2297-b84a-495d-8ee8-43f2deca1b53","ios":"levelo://app?vid=896b2297-b84a-495d-8ee8-43f2deca1b53"},"vehicle_type_id":"4","last_reported":1732288199,"current_range_meters":25600,"station_id":"ce4bhh92rcd13ifvqfh0","pricing_plan_id":"cebpf4jnsgd1na2vs0mg"},{"bike_id":"6dd72399-4c36-4f79-acf1-4c5ee36d28ce","system_id":"levelo_inurba_marseille","lat":43.26064,"lon":5.39395,"is_reserved":false,"is_disabled":false,"rental_uris":{"android":"levelo://app?vid=6dd72399-4c36-4f79-acf1-4c5ee36d28ce","ios":"levelo://app?vid=6dd72399-4c36-4f79-acf1-4c5ee36d28ce"},"vehicle_type_id":"4","last_reported":1732288199,"current_range_meters":35600,"station_id":"ce4bhh92rcd13ifvqfj0","pricing_plan_id":"cebpf4jnsgd1na2vs0mg"},{"bike_id":"a318f957-d478-4a90-a8ce-025a3b0e7abc","system_id":"levelo_inurba_marseille","lat":43.30547,"lon":5.36549,"is_reserved":false,"is_disabled":false,"rental_uris":{"android":"levelo://app?vid=a318f957-d478-4a90-a8ce-025a3b0e7abc","ios":"levelo://app?vid=a318f957-d478-4a90-a8ce-025a3b0e7abc"},"vehicle_type_id":"4","last_reported":1732288199,"current_range_meters":18000,"station_id":"ce4bgs12rcd13ifvqcag","pricing_plan_id":"cebpf4jnsgd1na2vs0mg"},{"bike_id":"15a61a6c-40ba-40d9-9754-85b1e40e6e21","system_id":"levelo_inurba_marseille","lat":43.30136,"lon":5.37435,"is_reserved":false,"is_disabled":false,"rental_uris":{"android":"levelo://app?vid=15a61a6c-40ba-40d9-9754-85b1e40e6e21","ios":"levelo://app?vid=15a61a6c-40ba-40d9-9754-85b1e40e6e21"},"vehicle_type_id":"4","last_reported":1732288199,"current_range_meters":38800,"station_id":"ce4bgs92rcd13ifvqcc0","pricing_plan_id":"cebpf4jnsgd1na2vs0mg"},{"bike_id":"68a9873e-df2d-48ea-bc6f-1044a040144e","system_id":"levelo_inurba_marseille","lat":43.29551,"lon":5.42298,"is_reserved":false,"is_disabled":false,"rental_uris":{"android":"levelo://app?vid=68a9873e-df2d-48ea-bc6f-1044a040144e","ios":"levelo://app?vid=68a9873e-df2d-48ea-bc6f-1044a040144e"},"vehicle_type_id":"4","last_reported":1732288199,"current_range_meters":38000,"station_id":"ce4bhph2rcd13ifvqhdg","pricing_plan_id":"cebpf4jnsgd1na2vs0mg"},{"bike_id":"cc45001e-86ba-42cc-9993-ed5261abbfe0","system_id":"levelo_inurba_marseille","lat":43.32356,"lon":5.38883,"is_reserved":false,"is_disabled":false,"rental_uris":{"android":"levelo://app?vid=cc45001e-86ba-42cc-9993-ed5261abbfe0","ios":"levelo://app?vid=cc45001e-86ba-42cc-9993-ed5261abbfe0"},"vehicle_type_id":"4","last_reported":1732288199,"current_range_meters":13600,"station_id":"ce4bhqp2rcd13ifvqhog","pricing_plan_id":"cebpf4jnsgd1na2vs0mg"},{"bike_id":"eb2746ce-8c81-413d-999f-bedd22942363","system_id":"levelo_inurba_marseille","lat":43.29848,"lon":5.36288,"is_reserved":false,"is_disabled":false,"rental_uris":{"android":"levelo://app?vid=eb2746ce-8c81-413d-999f-bedd22942363","ios":"levelo://app?vid=eb2746ce-8c81-413d-999f-bedd22942363"},"vehicle_type_id":"4","last_reported":1732288199,"current_range_meters":30400,"station_id":"ce4bgpp2rcd13ifvqc3g","pricing_plan_id":"cebpf4jnsgd1na2vs0mg"},{"bike_id":"75acd4bf-0b28-4c3f-b69c-8eeb6f2a31bc","system_id":"levelo_inurba_marseille","lat":43.23151,"lon":5.43713,"is_reserved":false,"is_disabled":false,"rental_uris":{"android":"levelo://app?vid=75acd4bf-0b28-4c3f-b69c-8eeb6f2a31bc","ios":"levelo://app?vid=75acd4bf-0b28-4c3f-b69c-8eeb6f2a31bc"},"vehicle_type_id":"4","last_reported":1732288199,"current_range_meters":15200,"station_id":"ce4bhmp2rcd13ifvqgog","pricing_plan_id":"cebpf4jnsgd1na2vs0mg"},{"bike_id":"c0755ad7-8353-40d1-98a4-bba43ca0e3ab","system_id":"levelo_inurba_marseille","lat":43.33721,"lon":5.39196,"is_reserved":false,"is_disabled":false,"rental_uris":{"android":"levelo://app?vid=c0755ad7-8353-40d1-98a4-bba43ca0e3ab","ios":"levelo://app?vid=c0755ad7-8353-40d1-98a4-bba43ca0e3ab"},"vehicle_type_id":"4","last_reported":1732288199,"current_range_meters":11600,"station_id":"ce4bhr92rcd13ifvqhsg","pricing_plan_id":"cebpf4jnsgd1na2vs0mg"},{"bike_id":"82fadf23-de44-4ca2-b6f6-03d74c491e72","system_id":"levelo_inurba_marseille","lat":43.32338,"lon":5.40627,"is_reserved":false,"is_disabled":false,"rental_uris":{"android":"levelo://app?vid=82fadf23-de44-4ca2-b6f6-03d74c491e72","ios":"levelo://app?vid=82fadf23-de44-4ca2-b6f6-03d74c491e72"},"vehicle_type_id":"4","last_reported":1732288199,"current_range_meters":33200,"station_id":"ce4bhq92rcd13ifvqhjg","pricing_plan_id":"cebpf4jnsgd1na2vs0mg"},{"bike_id":"019bba07-8bac-4211-817b-c31fcc663627","system_id":"levelo_inurba_marseille","lat":43.282532,"lon":5.351115,"is_reserved":false,"is_disabled":false,"rental_uris":{"android":"levelo://app?vid=019bba07-8bac-4211-817b-c31fcc663627","ios":"levelo://app?vid=019bba07-8bac-4211-817b-c31fcc663627"},"vehicle_type_id":"4","last_reported":1732288199,"current_range_meters":7200,"station_id":"ce4bhbp2rcd13ifvqerg","pricing_plan_id":"cebpf4jnsgd1na2vs0mg"},{"bike_id":"a60efe50-454b-4c1c-93bc-fab28a75fcff","system_id":"levelo_inurba_marseille","lat":43.27504,"lon":5.42452,"is_reserved":false,"is_disabled":true,"rental_uris":{"android":"levelo://app?vid=a60efe50-454b-4c1c-93bc-fab28a75fcff","ios":"levelo://app?vid=a60efe50-454b-4c1c-93bc-fab28a75fcff"},"vehicle_type_id":"4","last_reported":1732288199,"current_range_meters":0,"station_id":"ce4bhn92rcd13ifvqgrg","pricing_plan_id":"cebpf4jnsgd1na2vs0mg"},{"bike_id":"f00f0dee-fe9c-4db4-a4a5-3b7ae6da8251","system_id":"levelo_inurba_marseille","lat":43.27211,"lon":5.39187,"is_reserved":false,"is_disabled":false,"rental_uris":{"android":"levelo://app?vid=f00f0dee-fe9c-4db4-a4a5-3b7ae6da8251","ios":"levelo://app?vid=f00f0dee-fe9c-4db4-a4a5-3b7ae6da8251"},"vehicle_type_id":"4","last_reported":1732288199,"current_range_meters":24800,"station_id":"ce4bhhp2rcd13ifvqfm0","pricing_plan_id":"cebpf4jnsgd1na2vs0mg"},{"bike_id":"a3dfa29f-d880-4cbe-b909-b4e217158e03","system_id":"levelo_inurba_marseille","lat":43.27178,"lon":5.40994,"is_reserved":false,"is_disabled":true,"rental_uris":{"android":"levelo://app?vid=a3dfa29f-d880-4cbe-b909-b4e217158e03","ios":"levelo://app?vid=a3dfa29f-d880-4cbe-b909-b4e217158e03"},"vehicle_type_id":"4","last_reported":1732288199,"current_range_meters":35600,"station_id":"ce4bhl12rcd13ifvqgf0","pricing_plan_id":"cebpf4jnsgd1na2vs0mg"},{"bike_id":"d2321b4c-ae3a-4b43-8bcd-12cb7984481d","system_id":"levelo_inurba_marseille","lat":43.30756,"lon":5.37029,"is_reserved":false,"is_disabled":true,"rental_uris":{"android":"levelo://app?vid=d2321b4c-ae3a-4b43-8bcd-12cb7984481d","ios":"levelo://app?vid=d2321b4c-ae3a-4b43-8bcd-12cb7984481d"},"vehicle_type_id":"4","last_reported":1732288199,"current_range_meters":16800,"station_id":"","pricing_plan_id":"cebpf4jnsgd1na2vs0mg"},{"bike_id":"da044e00-3e59-45e9-a7c3-a1cfe99611cf","system_id":"levelo_inurba_marseille","lat":43.30794,"lon":5.38159,"is_reserved":false,"is_disabled":false,"rental_uris":{"android":"levelo://app?vid=da044e00-3e59-45e9-a7c3-a1cfe99611cf","ios":"levelo://app?vid=da044e00-3e59-45e9-a7c3-a1cfe99611cf"},"vehicle_type_id":"4","last_reported":1732288199,"current_range_meters":37600,"station_id":"ce4bgt12rcd13ifvqce0","pricing_plan_id":"cebpf4jnsgd1na2vs0mg"},{"bike_id":"c98e2ba2-9302-4f6b-836f-e37fce0bf95e","system_id":"levelo_inurba_marseille","lat":43.29024,"lon":5.37166,"is_reserved":false,"is_disabled":false,"rental_uris":{"android":"levelo://app?vid=c98e2ba2-9302-4f6b-836f-e37fce0bf95e","ios":"levelo://app?vid=c98e2ba2-9302-4f6b-836f-e37fce0bf95e"},"vehicle_type_id":"4","last_reported":1732288199,"current_range_meters":38800,"station_id":"ce4bh5p2rcd13ifvqe4g","pricing_plan_id":"cebpf4jnsgd1na2vs0mg"},{"bike_id":"9be72814-f80c-46a7-b916-ab8ba52deb9f","system_id":"levelo_inurba_marseille","lat":43.26807,"lon":5.40268,"is_reserved":false,"is_disabled":false,"rental_uris":{"android":"levelo://app?vid=9be72814-f80c-46a7-b916-ab8ba52deb9f","ios":"levelo://app?vid=9be72814-f80c-46a7-b916-ab8ba52deb9f"},"vehicle_type_id":"4","last_reported":1732288199,"current_range_meters":30000,"station_id":"ce501612rcd8frsf0b60","pricing_plan_id":"cebpf4jnsgd1na2vs0mg"},{"bike_id":"5c3000a0-a190-4007-a723-aa2707fd1ce3","system_id":"levelo_inurba_marseille","lat":43.22928,"lon":5.354,"is_reserved":false,"is_disabled":false,"rental_uris":{"android":"levelo://app?vid=5c3000a0-a190-4007-a723-aa2707fd1ce3","ios":"levelo://app?vid=5c3000a0-a190-4007-a723-aa2707fd1ce3"},"vehicle_type_id":"4","last_reported":1732288199,"current_range_meters":38800,"station_id":"cpo3532slgdg3j2ikp40","pricing_plan_id":"cebpf4jnsgd1na2vs0mg"},{"bike_id":"1c5fdcc2-ba84-4c46-bf38-3d224d434b52","system_id":"levelo_inurba_marseille","lat":43.32339,"lon":5.40623,"is_reserved":false,"is_disabled":false,"rental_uris":{"android":"levelo://app?vid=1c5fdcc2-ba84-4c46-bf38-3d224d434b52","ios":"levelo://app?vid=1c5fdcc2-ba84-4c46-bf38-3d224d434b52"},"vehicle_type_id":"4","last_reported":1732288199,"current_range_meters":3200,"station_id":"ce4bhq92rcd13ifvqhjg","pricing_plan_id":"cebpf4jnsgd1na2vs0mg"},{"bike_id":"df519e79-d306-4d38-923f-efe6f835ac1e","system_id":"levelo_inurba_marseille","lat":43.25104,"lon":5.40335,"is_reserved":false,"is_disabled":false,"rental_uris":{"android":"levelo://app?vid=df519e79-d306-4d38-923f-efe6f835ac1e","ios":"levelo://app?vid=df519e79-d306-4d38-923f-efe6f835ac1e"},"vehicle_type_id":"4","last_reported":1732288199,"current_range_meters":6400,"station_id":"ce4bhlh2rcd13ifvqgig","pricing_plan_id":"cebpf4jnsgd1na2vs0mg"},{"bike_id":"13d97e51-4629-4dea-a020-c8d4f7dbd452","system_id":"levelo_inurba_marseille","lat":43.28415,"lon":5.34992,"is_reserved":false,"is_disabled":false,"rental_uris":{"android":"levelo://app?vid=13d97e51-4629-4dea-a020-c8d4f7dbd452","ios":"levelo://app?vid=13d97e51-4629-4dea-a020-c8d4f7dbd452"},"vehicle_type_id":"4","last_reported":1732288199,"current_range_meters":17600,"station_id":"ce4bhbh2rcd13ifvqepg","pricing_plan_id":"cebpf4jnsgd1na2vs0mg"},{"bike_id":"3f4b586a-f19b-437c-a62a-b21b76562db2","system_id":"levelo_inurba_marseille","lat":43.23184,"lon":5.39982,"is_reserved":false,"is_disabled":false,"rental_uris":{"android":"levelo://app?vid=3f4b586a-f19b-437c-a62a-b21b76562db2","ios":"levelo://app?vid=3f4b586a-f19b-437c-a62a-b21b76562db2"},"vehicle_type_id":"4","last_reported":1732288199,"current_range_meters":3600,"station_id":"ce4bhn12rcd13ifvqgqg","pricing_plan_id":"cebpf4jnsgd1na2vs0mg"},{"bike_id":"f7788d6e-0b49-40d5-9e34-cb5269ed9290","system_id":"levelo_inurba_marseille","lat":43.29102,"lon":5.381515,"is_reserved":false,"is_disabled":false,"rental_uris":{"android":"levelo://app?vid=f7788d6e-0b49-40d5-9e34-cb5269ed9290","ios":"levelo://app?vid=f7788d6e-0b49-40d5-9e34-cb5269ed9290"},"vehicle_type_id":"4","last_reported":1732288199,"current_range_meters":27600,"station_id":"ce4bh512rcd13ifvqe2g","pricing_plan_id":"cebpf4jnsgd1na2vs0mg"},{"bike_id":"74b5463a-01d7-428c-a87f-824daf27cde1","system_id":"levelo_inurba_marseille","lat":43.3302,"lon":5.39052,"is_reserved":false,"is_disabled":false,"rental_uris":{"android":"levelo://app?vid=74b5463a-01d7-428c-a87f-824daf27cde1","ios":"levelo://app?vid=74b5463a-01d7-428c-a87f-824daf27cde1"},"vehicle_type_id":"4","last_reported":1732288199,"current_range_meters":24000,"station_id":"ce4bhr92rcd13ifvqhrg","pricing_plan_id":"cebpf4jnsgd1na2vs0mg"},{"bike_id":"f20d69a5-0fca-4329-a86f-8d5c504ec951","system_id":"levelo_inurba_marseille","lat":43.27211,"lon":5.39189,"is_reserved":false,"is_disabled":false,"rental_uris":{"android":"levelo://app?vid=f20d69a5-0fca-4329-a86f-8d5c504ec951","ios":"levelo://app?vid=f20d69a5-0fca-4329-a86f-8d5c504ec951"},"vehicle_type_id":"4","last_reported":1732288199,"current_range_meters":38800,"station_id":"ce4bhhp2rcd13ifvqfm0","pricing_plan_id":"cebpf4jnsgd1na2vs0mg"},{"bike_id":"1cd0daee-d68a-4e66-9883-fbe67fd8260f","system_id":"levelo_inurba_marseille","lat":43.305794,"lon":5.370686,"is_reserved":false,"is_disabled":true,"rental_uris":{"android":"levelo://app?vid=1cd0daee-d68a-4e66-9883-fbe67fd8260f","ios":"levelo://app?vid=1cd0daee-d68a-4e66-9883-fbe67fd8260f"},"vehicle_type_id":"4","last_reported":1732288199,"current_range_meters":0,"station_id":"","pricing_plan_id":"cebpf4jnsgd1na2vs0mg"},{"bike_id":"3ecd968f-1f7e-4bd4-968d-4e3b4005d51b","system_id":"levelo_inurba_marseille","lat":43.31056,"lon":5.37894,"is_reserved":false,"is_disabled":true,"rental_uris":{"android":"levelo://app?vid=3ecd968f-1f7e-4bd4-968d-4e3b4005d51b","ios":"levelo://app?vid=3ecd968f-1f7e-4bd4-968d-4e3b4005d51b"},"vehicle_type_id":"4","last_reported":1732288199,"current_range_meters":3600,"station_id":"","pricing_plan_id":"cebpf4jnsgd1na2vs0mg"},{"bike_id":"e5bc1dc2-782c-4b6a-aff0-a9a1a2d4a764","system_id":"levelo_inurba_marseille","lat":43.28917,"lon":5.38406,"is_reserved":false,"is_disabled":false,"rental_uris":{"android":"levelo://app?vid=e5bc1dc2-782c-4b6a-aff0-a9a1a2d4a764","ios":"levelo://app?vid=e5bc1dc2-782c-4b6a-aff0-a9a1a2d4a764"},"vehicle_type_id":"4","last_reported":1732288199,"current_range_meters":36400,"station_id":"ce4bh612rcd13ifvqe6g","pricing_plan_id":"cebpf4jnsgd1na2vs0mg"},{"bike_id":"0357a561-56d6-4846-b11d-a03c1167541e","system_id":"levelo_inurba_marseille","lat":43.262,"lon":5.37934,"is_reserved":false,"is_disabled":false,"rental_uris":{"android":"levelo://app?vid=0357a561-56d6-4846-b11d-a03c1167541e","ios":"levelo://app?vid=0357a561-56d6-4846-b11d-a03c1167541e"},"vehicle_type_id":"4","last_reported":1732288199,"current_range_meters":10800,"station_id":"ce4bhjp2rcd13ifvqg90","pricing_plan_id":"cebpf4jnsgd1na2vs0mg"},{"bike_id":"51410e4f-39b2-4da7-a32e-6d80ddde8826","system_id":"levelo_inurba_marseille","lat":43.30892,"lon":5.37196,"is_reserved":false,"is_disabled":false,"rental_uris":{"android":"levelo://app?vid=51410e4f-39b2-4da7-a32e-6d80ddde8826","ios":"levelo://app?vid=51410e4f-39b2-4da7-a32e-6d80ddde8826"},"vehicle_type_id":"4","last_reported":1732288199,"current_range_meters":30400,"station_id":"ce4bguh2rcd13ifvqckg","pricing_plan_id":"cebpf4jnsgd1na2vs0mg"},{"bike_id":"a862d48f-acc3-480f-8dee-b39a7f1d906c","system_id":"levelo_inurba_marseille","lat":43.30926,"lon":5.40145,"is_reserved":false,"is_disabled":false,"rental_uris":{"android":"levelo://app?vid=a862d48f-acc3-480f-8dee-b39a7f1d906c","ios":"levelo://app?vid=a862d48f-acc3-480f-8dee-b39a7f1d906c"},"vehicle_type_id":"4","last_reported":1732288199,"current_range_meters":25600,"station_id":"ce4bgvp2rcd13ifvqct0","pricing_plan_id":"cebpf4jnsgd1na2vs0mg"},{"bike_id":"f1ad9ce2-123c-4935-bc55-a0d4b05ba4de","system_id":"levelo_inurba_marseille","lat":43.32047,"lon":5.41549,"is_reserved":false,"is_disabled":false,"rental_uris":{"android":"levelo://app?vid=f1ad9ce2-123c-4935-bc55-a0d4b05ba4de","ios":"levelo://app?vid=f1ad9ce2-123c-4935-bc55-a0d4b05ba4de"},"vehicle_type_id":"4","last_reported":1732288199,"current_range_meters":38800,"station_id":"ce4bhq92rcd13ifvqhkg","pricing_plan_id":"cebpf4jnsgd1na2vs0mg"},{"bike_id":"bdac8ff3-e713-4a02-9f76-78fc6782aa52","system_id":"levelo_inurba_marseille","lat":43.23141,"lon":5.43736,"is_reserved":false,"is_disabled":false,"rental_uris":{"android":"levelo://app?vid=bdac8ff3-e713-4a02-9f76-78fc6782aa52","ios":"levelo://app?vid=bdac8ff3-e713-4a02-9f76-78fc6782aa52"},"vehicle_type_id":"4","last_reported":1732288199,"current_range_meters":23200,"station_id":"ce4bhmp2rcd13ifvqgog","pricing_plan_id":"cebpf4jnsgd1na2vs0mg"},{"bike_id":"c8c71d6a-3155-4ee9-ba4f-a4d0d36b4405","system_id":"levelo_inurba_marseille","lat":43.26678,"lon":5.38278,"is_reserved":false,"is_disabled":false,"rental_uris":{"android":"levelo://app?vid=c8c71d6a-3155-4ee9-ba4f-a4d0d36b4405","ios":"levelo://app?vid=c8c71d6a-3155-4ee9-ba4f-a4d0d36b4405"},"vehicle_type_id":"4","last_reported":1732288199,"current_range_meters":38800,"station_id":"ce4bhg92rcd13ifvqf90","pricing_plan_id":"cebpf4jnsgd1na2vs0mg"},{"bike_id":"7a8db3dc-7ed9-4c06-814c-f1b4ad393ca2","system_id":"levelo_inurba_marseille","lat":43.31824,"lon":5.38784,"is_reserved":false,"is_disabled":false,"rental_uris":{"android":"levelo://app?vid=7a8db3dc-7ed9-4c06-814c-f1b4ad393ca2","ios":"levelo://app?vid=7a8db3dc-7ed9-4c06-814c-f1b4ad393ca2"},"vehicle_type_id":"4","last_reported":1732288199,"current_range_meters":33200,"station_id":"","pricing_plan_id":"cebpf4jnsgd1na2vs0mg"},{"bike_id":"ac1b3788-b03a-4376-bf72-320fd033ea51","system_id":"levelo_inurba_marseille","lat":43.27656,"lon":5.38898,"is_reserved":false,"is_disabled":true,"rental_uris":{"android":"levelo://app?vid=ac1b3788-b03a-4376-bf72-320fd033ea51","ios":"levelo://app?vid=ac1b3788-b03a-4376-bf72-320fd033ea51"},"vehicle_type_id":"4","last_reported":1732288199,"current_range_meters":16800,"station_id":"ce4bhi12rcd13ifvqfo0","pricing_plan_id":"cebpf4jnsgd1na2vs0mg"},{"bike_id":"8157b22b-fcbc-4b76-b84e-e655e1fa2503","system_id":"levelo_inurba_marseille","lat":43.29107,"lon":5.38149,"is_reserved":false,"is_disabled":false,"rental_uris":{"android":"levelo://app?vid=8157b22b-fcbc-4b76-b84e-e655e1fa2503","ios":"levelo://app?vid=8157b22b-fcbc-4b76-b84e-e655e1fa2503"},"vehicle_type_id":"4","last_reported":1732288199,"current_range_meters":38800,"station_id":"ce4bh512rcd13ifvqe2g","pricing_plan_id":"cebpf4jnsgd1na2vs0mg"},{"bike_id":"92792c92-9569-47e9-af45-4062ff6391ed","system_id":"levelo_inurba_marseille","lat":43.31162,"lon":5.38722,"is_reserved":false,"is_disabled":false,"rental_uris":{"android":"levelo://app?vid=92792c92-9569-47e9-af45-4062ff6391ed","ios":"levelo://app?vid=92792c92-9569-47e9-af45-4062ff6391ed"},"vehicle_type_id":"4","last_reported":1732288199,"current_range_meters":24800,"station_id":"ce4bgv12rcd13ifvqcp0","pricing_plan_id":"cebpf4jnsgd1na2vs0mg"},{"bike_id":"ebe2b43b-e5bb-4158-835b-e46b2ce0d167","system_id":"levelo_inurba_marseille","lat":43.22928,"lon":5.35372,"is_reserved":false,"is_disabled":false,"rental_uris":{"android":"levelo://app?vid=ebe2b43b-e5bb-4158-835b-e46b2ce0d167","ios":"levelo://app?vid=ebe2b43b-e5bb-4158-835b-e46b2ce0d167"},"vehicle_type_id":"4","last_reported":1732288199,"current_range_meters":33600,"station_id":"cpo3532slgdg3j2ikp40","pricing_plan_id":"cebpf4jnsgd1na2vs0mg"},{"bike_id":"50152de5-e16c-4be4-8c9d-0adf168e6242","system_id":"levelo_inurba_marseille","lat":43.2315,"lon":5.43719,"is_reserved":false,"is_disabled":true,"rental_uris":{"android":"levelo://app?vid=50152de5-e16c-4be4-8c9d-0adf168e6242","ios":"levelo://app?vid=50152de5-e16c-4be4-8c9d-0adf168e6242"},"vehicle_type_id":"4","last_reported":1732288199,"current_range_meters":0,"station_id":"ce4bhmp2rcd13ifvqgog","pricing_plan_id":"cebpf4jnsgd1na2vs0mg"},{"bike_id":"bd1d43cd-099f-4a7f-a9c4-4be6f298ec9d","system_id":"levelo_inurba_marseille","lat":43.2971,"lon":5.37703,"is_reserved":false,"is_disabled":false,"rental_uris":{"android":"levelo://app?vid=bd1d43cd-099f-4a7f-a9c4-4be6f298ec9d","ios":"levelo://app?vid=bd1d43cd-099f-4a7f-a9c4-4be6f298ec9d"},"vehicle_type_id":"4","last_reported":1732288199,"current_range_meters":19200,"station_id":"ce4bgkh2rcd13ifvqbl0","pricing_plan_id":"cebpf4jnsgd1na2vs0mg"},{"bike_id":"d3f88ac1-af0e-4fe3-957f-9fb722f55ef1","system_id":"levelo_inurba_marseille","lat":43.3248,"lon":5.36567,"is_reserved":false,"is_disabled":false,"rental_uris":{"android":"levelo://app?vid=d3f88ac1-af0e-4fe3-957f-9fb722f55ef1","ios":"levelo://app?vid=d3f88ac1-af0e-4fe3-957f-9fb722f55ef1"},"vehicle_type_id":"4","last_reported":1732288199,"current_range_meters":36000,"station_id":"ce4bhs12rcd13ifvqhvg","pricing_plan_id":"cebpf4jnsgd1na2vs0mg"},{"bike_id":"54c941fb-b114-418e-bf6b-63c539598484","system_id":"levelo_inurba_marseille","lat":43.31488,"lon":5.37317,"is_reserved":false,"is_disabled":true,"rental_uris":{"android":"levelo://app?vid=54c941fb-b114-418e-bf6b-63c539598484","ios":"levelo://app?vid=54c941fb-b114-418e-bf6b-63c539598484"},"vehicle_type_id":"4","last_reported":1732288199,"current_range_meters":0,"station_id":"ce4bgt12rcd13ifvqcd0","pricing_plan_id":"cebpf4jnsgd1na2vs0mg"},{"bike_id":"508efe2b-127f-4e31-bd59-889e4fbadb6a","system_id":"levelo_inurba_marseille","lat":43.29572,"lon":5.39972,"is_reserved":false,"is_disabled":false,"rental_uris":{"android":"levelo://app?vid=508efe2b-127f-4e31-bd59-889e4fbadb6a","ios":"levelo://app?vid=508efe2b-127f-4e31-bd59-889e4fbadb6a"},"vehicle_type_id":"4","last_reported":1732288199,"current_range_meters":32000,"station_id":"ce4bh312rcd13ifvqdj0","pricing_plan_id":"cebpf4jnsgd1na2vs0mg"},{"bike_id":"b5ed68d6-2196-4a0f-abc8-b20c12f40d85","system_id":"levelo_inurba_marseille","lat":43.30152,"lon":5.38092,"is_reserved":false,"is_disabled":false,"rental_uris":{"android":"levelo://app?vid=b5ed68d6-2196-4a0f-abc8-b20c12f40d85","ios":"levelo://app?vid=b5ed68d6-2196-4a0f-abc8-b20c12f40d85"},"vehicle_type_id":"4","last_reported":1732288199,"current_range_meters":8400,"station_id":"ce4bgjp2rcd13ifvqbh0","pricing_plan_id":"cebpf4jnsgd1na2vs0mg"},{"bike_id":"dcfb4441-f302-4635-b520-5eeea1e4d956","system_id":"levelo_inurba_marseille","lat":43.27617,"lon":5.36111,"is_reserved":false,"is_disabled":true,"rental_uris":{"android":"levelo://app?vid=dcfb4441-f302-4635-b520-5eeea1e4d956","ios":"levelo://app?vid=dcfb4441-f302-4635-b520-5eeea1e4d956"},"vehicle_type_id":"4","last_reported":1732288199,"current_range_meters":800,"station_id":"ce4bgj92rcd13ifvqbe0","pricing_plan_id":"cebpf4jnsgd1na2vs0mg"},{"bike_id":"86516b1e-3544-4c3e-8975-d29dc11340a0","system_id":"levelo_inurba_marseille","lat":43.31822,"lon":5.38781,"is_reserved":false,"is_disabled":false,"rental_uris":{"android":"levelo://app?vid=86516b1e-3544-4c3e-8975-d29dc11340a0","ios":"levelo://app?vid=86516b1e-3544-4c3e-8975-d29dc11340a0"},"vehicle_type_id":"4","last_reported":1732288199,"current_range_meters":25600,"station_id":"","pricing_plan_id":"cebpf4jnsgd1na2vs0mg"},{"bike_id":"567b5bec-6f69-4097-9d92-252add5a5c8a","system_id":"levelo_inurba_marseille","lat":43.25578,"lon":5.38241,"is_reserved":false,"is_disabled":false,"rental_uris":{"android":"levelo://app?vid=567b5bec-6f69-4097-9d92-252add5a5c8a","ios":"levelo://app?vid=567b5bec-6f69-4097-9d92-252add5a5c8a"},"vehicle_type_id":"4","last_reported":1732288199,"current_range_meters":36400,"station_id":"ce4bhih2rcd13ifvqfs0","pricing_plan_id":"cebpf4jnsgd1na2vs0mg"},{"bike_id":"731316de-0aa8-4385-bdf7-05632893cb6a","system_id":"levelo_inurba_marseille","lat":43.25494,"lon":5.37653,"is_reserved":false,"is_disabled":false,"rental_uris":{"android":"levelo://app?vid=731316de-0aa8-4385-bdf7-05632893cb6a","ios":"levelo://app?vid=731316de-0aa8-4385-bdf7-05632893cb6a"},"vehicle_type_id":"4","last_reported":1732288199,"current_range_meters":28800,"station_id":"ce4bhh12rcd13ifvqff0","pricing_plan_id":"cebpf4jnsgd1na2vs0mg"},{"bike_id":"13216ffc-4303-433a-8108-a924414c4325","system_id":"levelo_inurba_marseille","lat":43.27665,"lon":5.38883,"is_reserved":false,"is_disabled":false,"rental_uris":{"android":"levelo://app?vid=13216ffc-4303-433a-8108-a924414c4325","ios":"levelo://app?vid=13216ffc-4303-433a-8108-a924414c4325"},"vehicle_type_id":"4","last_reported":1732288199,"current_range_meters":4400,"station_id":"ce4bhi12rcd13ifvqfo0","pricing_plan_id":"cebpf4jnsgd1na2vs0mg"},{"bike_id":"161929c3-33a6-4b2a-8e1e-43cf8eda5a05","system_id":"levelo_inurba_marseille","lat":43.33019,"lon":5.39045,"is_reserved":false,"is_disabled":false,"rental_uris":{"android":"levelo://app?vid=161929c3-33a6-4b2a-8e1e-43cf8eda5a05","ios":"levelo://app?vid=161929c3-33a6-4b2a-8e1e-43cf8eda5a05"},"vehicle_type_id":"4","last_reported":1732288199,"current_range_meters":16800,"station_id":"ce4bhr92rcd13ifvqhrg","pricing_plan_id":"cebpf4jnsgd1na2vs0mg"},{"bike_id":"4c709694-680d-455f-b6ff-b56b2a93d62d","system_id":"levelo_inurba_marseille","lat":43.31476,"lon":5.37317,"is_reserved":false,"is_disabled":false,"rental_uris":{"android":"levelo://app?vid=4c709694-680d-455f-b6ff-b56b2a93d62d","ios":"levelo://app?vid=4c709694-680d-455f-b6ff-b56b2a93d62d"},"vehicle_type_id":"4","last_reported":1732288199,"current_range_meters":28000,"station_id":"ce4bgt12rcd13ifvqcd0","pricing_plan_id":"cebpf4jnsgd1na2vs0mg"},{"bike_id":"f2bfe9c0-f191-49f6-b53a-bc9f7a7584d9","system_id":"levelo_inurba_marseille","lat":43.29193,"lon":5.3933,"is_reserved":false,"is_disabled":false,"rental_uris":{"android":"levelo://app?vid=f2bfe9c0-f191-49f6-b53a-bc9f7a7584d9","ios":"levelo://app?vid=f2bfe9c0-f191-49f6-b53a-bc9f7a7584d9"},"vehicle_type_id":"4","last_reported":1732288199,"current_range_meters":34800,"station_id":"ce4bh192rcd13ifvqdd0","pricing_plan_id":"cebpf4jnsgd1na2vs0mg"},{"bike_id":"f9e35db8-2f7a-4f43-8c70-83778761d42d","system_id":"levelo_inurba_marseille","lat":43.23185,"lon":5.35569,"is_reserved":false,"is_disabled":true,"rental_uris":{"android":"levelo://app?vid=f9e35db8-2f7a-4f43-8c70-83778761d42d","ios":"levelo://app?vid=f9e35db8-2f7a-4f43-8c70-83778761d42d"},"vehicle_type_id":"4","last_reported":1732288199,"current_range_meters":36800,"station_id":"ce4bhu92rcd13ifvqi70","pricing_plan_id":"cebpf4jnsgd1na2vs0mg"},{"bike_id":"d276d0c8-b739-4fa2-a9a1-c57ee643a3d3","system_id":"levelo_inurba_marseille","lat":43.29276,"lon":5.36845,"is_reserved":false,"is_disabled":false,"rental_uris":{"android":"levelo://app?vid=d276d0c8-b739-4fa2-a9a1-c57ee643a3d3","ios":"levelo://app?vid=d276d0c8-b739-4fa2-a9a1-c57ee643a3d3"},"vehicle_type_id":"4","last_reported":1732288199,"current_range_meters":35600,"station_id":"ce4bhbp2rcd13ifvqesg","pricing_plan_id":"cebpf4jnsgd1na2vs0mg"},{"bike_id":"77490125-0655-4989-b3ce-a17ce544d9c0","system_id":"levelo_inurba_marseille","lat":43.3134,"lon":5.39701,"is_reserved":false,"is_disabled":false,"rental_uris":{"android":"levelo://app?vid=77490125-0655-4989-b3ce-a17ce544d9c0","ios":"levelo://app?vid=77490125-0655-4989-b3ce-a17ce544d9c0"},"vehicle_type_id":"4","last_reported":1732288199,"current_range_meters":30800,"station_id":"ce4bgvp2rcd13ifvqcu0","pricing_plan_id":"cebpf4jnsgd1na2vs0mg"},{"bike_id":"f4c2186d-628c-41f3-a5a5-bb253eb2b337","system_id":"levelo_inurba_marseille","lat":43.29717,"lon":5.37689,"is_reserved":false,"is_disabled":false,"rental_uris":{"android":"levelo://app?vid=f4c2186d-628c-41f3-a5a5-bb253eb2b337","ios":"levelo://app?vid=f4c2186d-628c-41f3-a5a5-bb253eb2b337"},"vehicle_type_id":"4","last_reported":1732288199,"current_range_meters":16400,"station_id":"ce4bgkh2rcd13ifvqbl0","pricing_plan_id":"cebpf4jnsgd1na2vs0mg"},{"bike_id":"38f8c1b1-2a52-42ce-a753-429fe651297e","system_id":"levelo_inurba_marseille","lat":43.262,"lon":5.37941,"is_reserved":false,"is_disabled":false,"rental_uris":{"android":"levelo://app?vid=38f8c1b1-2a52-42ce-a753-429fe651297e","ios":"levelo://app?vid=38f8c1b1-2a52-42ce-a753-429fe651297e"},"vehicle_type_id":"4","last_reported":1732288199,"current_range_meters":27200,"station_id":"ce4bhjp2rcd13ifvqg90","pricing_plan_id":"cebpf4jnsgd1na2vs0mg"},{"bike_id":"17b263e7-11a4-4e49-99f1-347989185c5a","system_id":"levelo_inurba_marseille","lat":43.27185,"lon":5.40998,"is_reserved":false,"is_disabled":false,"rental_uris":{"android":"levelo://app?vid=17b263e7-11a4-4e49-99f1-347989185c5a","ios":"levelo://app?vid=17b263e7-11a4-4e49-99f1-347989185c5a"},"vehicle_type_id":"4","last_reported":1732288199,"current_range_meters":38800,"station_id":"ce4bhl12rcd13ifvqgf0","pricing_plan_id":"cebpf4jnsgd1na2vs0mg"},{"bike_id":"ac894d2b-d4fc-430d-9b98-f63b338519b2","system_id":"levelo_inurba_marseille","lat":43.2594,"lon":5.40906,"is_reserved":false,"is_disabled":false,"rental_uris":{"android":"levelo://app?vid=ac894d2b-d4fc-430d-9b98-f63b338519b2","ios":"levelo://app?vid=ac894d2b-d4fc-430d-9b98-f63b338519b2"},"vehicle_type_id":"4","last_reported":1732288199,"current_range_meters":27200,"station_id":"ce4bhm92rcd13ifvqglg","pricing_plan_id":"cebpf4jnsgd1na2vs0mg"},{"bike_id":"a06c2ba2-557a-4b3d-abd2-d68c1f5aef4b","system_id":"levelo_inurba_marseille","lat":43.2893,"lon":5.36648,"is_reserved":false,"is_disabled":false,"rental_uris":{"android":"levelo://app?vid=a06c2ba2-557a-4b3d-abd2-d68c1f5aef4b","ios":"levelo://app?vid=a06c2ba2-557a-4b3d-abd2-d68c1f5aef4b"},"vehicle_type_id":"4","last_reported":1732288199,"current_range_meters":38800,"station_id":"ce4bhap2rcd13ifvqek0","pricing_plan_id":"cebpf4jnsgd1na2vs0mg"},{"bike_id":"35005469-a36f-4579-b926-2bbc2fea0fa4","system_id":"levelo_inurba_marseille","lat":43.31359,"lon":5.36709,"is_reserved":false,"is_disabled":false,"rental_uris":{"android":"levelo://app?vid=35005469-a36f-4579-b926-2bbc2fea0fa4","ios":"levelo://app?vid=35005469-a36f-4579-b926-2bbc2fea0fa4"},"vehicle_type_id":"4","last_reported":1732288199,"current_range_meters":9200,"station_id":"ce4bgr92rcd13ifvqc6g","pricing_plan_id":"cebpf4jnsgd1na2vs0mg"},{"bike_id":"70c74594-4963-4ad0-91bf-4f20fe02e74f","system_id":"levelo_inurba_marseille","lat":43.23177,"lon":5.39985,"is_reserved":false,"is_disabled":false,"rental_uris":{"android":"levelo://app?vid=70c74594-4963-4ad0-91bf-4f20fe02e74f","ios":"levelo://app?vid=70c74594-4963-4ad0-91bf-4f20fe02e74f"},"vehicle_type_id":"4","last_reported":1732288199,"current_range_meters":20400,"station_id":"ce4bhn12rcd13ifvqgqg","pricing_plan_id":"cebpf4jnsgd1na2vs0mg"},{"bike_id":"d171102d-5d57-4ae8-9a62-d033c7be6eac","system_id":"levelo_inurba_marseille","lat":43.293,"lon":5.37459,"is_reserved":false,"is_disabled":false,"rental_uris":{"android":"levelo://app?vid=d171102d-5d57-4ae8-9a62-d033c7be6eac","ios":"levelo://app?vid=d171102d-5d57-4ae8-9a62-d033c7be6eac"},"vehicle_type_id":"4","last_reported":1732288199,"current_range_meters":38400,"station_id":"ce4bgi12rcd13ifvqb70","pricing_plan_id":"cebpf4jnsgd1na2vs0mg"},{"bike_id":"9944fad4-5f58-4bdc-985a-3a03c36f291d","system_id":"levelo_inurba_marseille","lat":43.30274,"lon":5.36887,"is_reserved":false,"is_disabled":false,"rental_uris":{"android":"levelo://app?vid=9944fad4-5f58-4bdc-985a-3a03c36f291d","ios":"levelo://app?vid=9944fad4-5f58-4bdc-985a-3a03c36f291d"},"vehicle_type_id":"4","last_reported":1732288199,"current_range_meters":4800,"station_id":"ce4bgqh2rcd13ifvqc5g","pricing_plan_id":"cebpf4jnsgd1na2vs0mg"},{"bike_id":"faaf7e4a-7946-4bff-baba-9c07794f0af2","system_id":"levelo_inurba_marseille","lat":43.27997,"lon":5.40011,"is_reserved":false,"is_disabled":false,"rental_uris":{"android":"levelo://app?vid=faaf7e4a-7946-4bff-baba-9c07794f0af2","ios":"levelo://app?vid=faaf7e4a-7946-4bff-baba-9c07794f0af2"},"vehicle_type_id":"4","last_reported":1732288199,"current_range_meters":11600,"station_id":"ce4bho92rcd13ifvqh4g","pricing_plan_id":"cebpf4jnsgd1na2vs0mg"},{"bike_id":"cdaafd2d-0da1-4fac-9881-15c66a7cd7c0","system_id":"levelo_inurba_marseille","lat":43.23146,"lon":5.43713,"is_reserved":false,"is_disabled":false,"rental_uris":{"android":"levelo://app?vid=cdaafd2d-0da1-4fac-9881-15c66a7cd7c0","ios":"levelo://app?vid=cdaafd2d-0da1-4fac-9881-15c66a7cd7c0"},"vehicle_type_id":"4","last_reported":1732288199,"current_range_meters":38800,"station_id":"ce4bhmp2rcd13ifvqgog","pricing_plan_id":"cebpf4jnsgd1na2vs0mg"},{"bike_id":"b03f69f7-b71a-4f20-b004-cac08d3d55e5","system_id":"levelo_inurba_marseille","lat":43.32364,"lon":5.38887,"is_reserved":false,"is_disabled":false,"rental_uris":{"android":"levelo://app?vid=b03f69f7-b71a-4f20-b004-cac08d3d55e5","ios":"levelo://app?vid=b03f69f7-b71a-4f20-b004-cac08d3d55e5"},"vehicle_type_id":"4","last_reported":1732288199,"current_range_meters":28800,"station_id":"ce4bhqp2rcd13ifvqhog","pricing_plan_id":"cebpf4jnsgd1na2vs0mg"},{"bike_id":"99d5eeb3-6513-46db-81bf-de6e43866527","system_id":"levelo_inurba_marseille","lat":43.32366,"lon":5.38883,"is_reserved":false,"is_disabled":false,"rental_uris":{"android":"levelo://app?vid=99d5eeb3-6513-46db-81bf-de6e43866527","ios":"levelo://app?vid=99d5eeb3-6513-46db-81bf-de6e43866527"},"vehicle_type_id":"4","last_reported":1732288199,"current_range_meters":37600,"station_id":"ce4bhqp2rcd13ifvqhog","pricing_plan_id":"cebpf4jnsgd1na2vs0mg"},{"bike_id":"49e2b5de-4ebe-413c-9048-e564f7d37032","system_id":"levelo_inurba_marseille","lat":43.29308,"lon":5.37165,"is_reserved":false,"is_disabled":false,"rental_uris":{"android":"levelo://app?vid=49e2b5de-4ebe-413c-9048-e564f7d37032","ios":"levelo://app?vid=49e2b5de-4ebe-413c-9048-e564f7d37032"},"vehicle_type_id":"4","last_reported":1732288199,"current_range_meters":30800,"station_id":"ce4bgh92rcd13ifvqb40","pricing_plan_id":"cebpf4jnsgd1na2vs0mg"},{"bike_id":"1ef17f0c-9df8-40aa-bad8-8fe504107889","system_id":"levelo_inurba_marseille","lat":43.31825,"lon":5.38778,"is_reserved":false,"is_disabled":false,"rental_uris":{"android":"levelo://app?vid=1ef17f0c-9df8-40aa-bad8-8fe504107889","ios":"levelo://app?vid=1ef17f0c-9df8-40aa-bad8-8fe504107889"},"vehicle_type_id":"4","last_reported":1732288199,"current_range_meters":38800,"station_id":"","pricing_plan_id":"cebpf4jnsgd1na2vs0mg"},{"bike_id":"2a2cbc19-6a35-49b1-ab3e-4e6ebfb17f7a","system_id":"levelo_inurba_marseille","lat":43.279957,"lon":5.416653,"is_reserved":false,"is_disabled":false,"rental_uris":{"android":"levelo://app?vid=2a2cbc19-6a35-49b1-ab3e-4e6ebfb17f7a","ios":"levelo://app?vid=2a2cbc19-6a35-49b1-ab3e-4e6ebfb17f7a"},"vehicle_type_id":"4","last_reported":1732288199,"current_range_meters":37600,"station_id":"ce4bho12rcd13ifvqh1g","pricing_plan_id":"cebpf4jnsgd1na2vs0mg"},{"bike_id":"079f3699-b1ef-4c18-b504-2e02d2270464","system_id":"levelo_inurba_marseille","lat":43.28415,"lon":5.34995,"is_reserved":false,"is_disabled":false,"rental_uris":{"android":"levelo://app?vid=079f3699-b1ef-4c18-b504-2e02d2270464","ios":"levelo://app?vid=079f3699-b1ef-4c18-b504-2e02d2270464"},"vehicle_type_id":"4","last_reported":1732288199,"current_range_meters":38800,"station_id":"ce4bhbh2rcd13ifvqepg","pricing_plan_id":"cebpf4jnsgd1na2vs0mg"},{"bike_id":"7cd6f2ab-9cbf-4cfa-8082-7bdecaf781d1","system_id":"levelo_inurba_marseille","lat":43.2991,"lon":5.37475,"is_reserved":false,"is_disabled":false,"rental_uris":{"android":"levelo://app?vid=7cd6f2ab-9cbf-4cfa-8082-7bdecaf781d1","ios":"levelo://app?vid=7cd6f2ab-9cbf-4cfa-8082-7bdecaf781d1"},"vehicle_type_id":"4","last_reported":1732288199,"current_range_meters":30800,"station_id":"ce4bgjh2rcd13ifvqbg0","pricing_plan_id":"cebpf4jnsgd1na2vs0mg"},{"bike_id":"adf95c6e-4be6-4c7b-94b7-d7809b4bfd64","system_id":"levelo_inurba_marseille","lat":43.26767,"lon":5.402376,"is_reserved":false,"is_disabled":false,"rental_uris":{"android":"levelo://app?vid=adf95c6e-4be6-4c7b-94b7-d7809b4bfd64","ios":"levelo://app?vid=adf95c6e-4be6-4c7b-94b7-d7809b4bfd64"},"vehicle_type_id":"4","last_reported":1732288199,"current_range_meters":24400,"station_id":"ce501612rcd8frsf0b60","pricing_plan_id":"cebpf4jnsgd1na2vs0mg"},{"bike_id":"582c2c89-77db-4093-b46d-f05ca75127e0","system_id":"levelo_inurba_marseille","lat":43.3025,"lon":5.40068,"is_reserved":false,"is_disabled":false,"rental_uris":{"android":"levelo://app?vid=582c2c89-77db-4093-b46d-f05ca75127e0","ios":"levelo://app?vid=582c2c89-77db-4093-b46d-f05ca75127e0"},"vehicle_type_id":"4","last_reported":1732288199,"current_range_meters":38800,"station_id":"ce4bgvh2rcd13ifvqcs0","pricing_plan_id":"cebpf4jnsgd1na2vs0mg"},{"bike_id":"4bdef8b5-d12f-41dc-8fcc-abf7411704c1","system_id":"levelo_inurba_marseille","lat":43.23179,"lon":5.39994,"is_reserved":false,"is_disabled":true,"rental_uris":{"android":"levelo://app?vid=4bdef8b5-d12f-41dc-8fcc-abf7411704c1","ios":"levelo://app?vid=4bdef8b5-d12f-41dc-8fcc-abf7411704c1"},"vehicle_type_id":"4","last_reported":1732288199,"current_range_meters":800,"station_id":"ce4bhn12rcd13ifvqgqg","pricing_plan_id":"cebpf4jnsgd1na2vs0mg"},{"bike_id":"f12a43b9-25c7-452d-a364-59c786433e73","system_id":"levelo_inurba_marseille","lat":43.29195,"lon":5.3581,"is_reserved":false,"is_disabled":false,"rental_uris":{"android":"levelo://app?vid=f12a43b9-25c7-452d-a364-59c786433e73","ios":"levelo://app?vid=f12a43b9-25c7-452d-a364-59c786433e73"},"vehicle_type_id":"4","last_reported":1732288199,"current_range_meters":36800,"station_id":"ce4bhb12rcd13ifvqel0","pricing_plan_id":"cebpf4jnsgd1na2vs0mg"},{"bike_id":"e634b525-4bbb-4293-b7bd-453bf0616a91","system_id":"levelo_inurba_marseille","lat":43.28415,"lon":5.34997,"is_reserved":false,"is_disabled":false,"rental_uris":{"android":"levelo://app?vid=e634b525-4bbb-4293-b7bd-453bf0616a91","ios":"levelo://app?vid=e634b525-4bbb-4293-b7bd-453bf0616a91"},"vehicle_type_id":"4","last_reported":1732288199,"current_range_meters":38800,"station_id":"ce4bhbh2rcd13ifvqepg","pricing_plan_id":"cebpf4jnsgd1na2vs0mg"},{"bike_id":"26dbb135-9d0a-46f2-8550-e99fb4c2e042","system_id":"levelo_inurba_marseille","lat":43.27201,"lon":5.39198,"is_reserved":false,"is_disabled":true,"rental_uris":{"android":"levelo://app?vid=26dbb135-9d0a-46f2-8550-e99fb4c2e042","ios":"levelo://app?vid=26dbb135-9d0a-46f2-8550-e99fb4c2e042"},"vehicle_type_id":"4","last_reported":1732288199,"current_range_meters":1200,"station_id":"ce4bhhp2rcd13ifvqfm0","pricing_plan_id":"cebpf4jnsgd1na2vs0mg"},{"bike_id":"11c5ed7c-dad2-4605-8db8-4918d0818190","system_id":"levelo_inurba_marseille","lat":43.31724,"lon":5.42407,"is_reserved":false,"is_disabled":false,"rental_uris":{"android":"levelo://app?vid=11c5ed7c-dad2-4605-8db8-4918d0818190","ios":"levelo://app?vid=11c5ed7c-dad2-4605-8db8-4918d0818190"},"vehicle_type_id":"4","last_reported":1732288199,"current_range_meters":38800,"station_id":"ce4bhp92rcd13ifvqhbg","pricing_plan_id":"cebpf4jnsgd1na2vs0mg"},{"bike_id":"0095ad20-ad5f-44a7-9525-b9e20bba5907","system_id":"levelo_inurba_marseille","lat":43.24079,"lon":5.37743,"is_reserved":false,"is_disabled":true,"rental_uris":{"android":"levelo://app?vid=0095ad20-ad5f-44a7-9525-b9e20bba5907","ios":"levelo://app?vid=0095ad20-ad5f-44a7-9525-b9e20bba5907"},"vehicle_type_id":"4","last_reported":1732288199,"current_range_meters":800,"station_id":"ce4bhnp2rcd13ifvqgvg","pricing_plan_id":"cebpf4jnsgd1na2vs0mg"},{"bike_id":"0b8e73b7-ee6a-4234-af3a-7e78dba41912","system_id":"levelo_inurba_marseille","lat":43.249976,"lon":5.389348,"is_reserved":false,"is_disabled":false,"rental_uris":{"android":"levelo://app?vid=0b8e73b7-ee6a-4234-af3a-7e78dba41912","ios":"levelo://app?vid=0b8e73b7-ee6a-4234-af3a-7e78dba41912"},"vehicle_type_id":"4","last_reported":1732288199,"current_range_meters":3600,"station_id":"ce4bhgp2rcd13ifvqfd0","pricing_plan_id":"cebpf4jnsgd1na2vs0mg"},{"bike_id":"68507491-898a-4a1e-a4b4-b53874a00ff4","system_id":"levelo_inurba_marseille","lat":43.29161,"lon":5.37157,"is_reserved":false,"is_disabled":false,"rental_uris":{"android":"levelo://app?vid=68507491-898a-4a1e-a4b4-b53874a00ff4","ios":"levelo://app?vid=68507491-898a-4a1e-a4b4-b53874a00ff4"},"vehicle_type_id":"4","last_reported":1732288199,"current_range_meters":38800,"station_id":"ce4bha92rcd13ifvqeh0","pricing_plan_id":"cebpf4jnsgd1na2vs0mg"},{"bike_id":"85c29866-cbfb-46bc-a4b2-f87ab384de3b","system_id":"levelo_inurba_marseille","lat":43.30895,"lon":5.37184,"is_reserved":false,"is_disabled":false,"rental_uris":{"android":"levelo://app?vid=85c29866-cbfb-46bc-a4b2-f87ab384de3b","ios":"levelo://app?vid=85c29866-cbfb-46bc-a4b2-f87ab384de3b"},"vehicle_type_id":"4","last_reported":1732288199,"current_range_meters":6800,"station_id":"ce4bguh2rcd13ifvqckg","pricing_plan_id":"cebpf4jnsgd1na2vs0mg"},{"bike_id":"31d2a5f6-edbd-4b31-9adb-8b0ab7d5f743","system_id":"levelo_inurba_marseille","lat":43.289307,"lon":5.381869,"is_reserved":false,"is_disabled":false,"rental_uris":{"android":"levelo://app?vid=31d2a5f6-edbd-4b31-9adb-8b0ab7d5f743","ios":"levelo://app?vid=31d2a5f6-edbd-4b31-9adb-8b0ab7d5f743"},"vehicle_type_id":"4","last_reported":1732288199,"current_range_meters":18800,"station_id":"ce4bho92rcd13ifvqh3g","pricing_plan_id":"cebpf4jnsgd1na2vs0mg"},{"bike_id":"3193222d-584b-4642-a1d8-0c04b2309736","system_id":"levelo_inurba_marseille","lat":43.33728,"lon":5.3919,"is_reserved":false,"is_disabled":false,"rental_uris":{"android":"levelo://app?vid=3193222d-584b-4642-a1d8-0c04b2309736","ios":"levelo://app?vid=3193222d-584b-4642-a1d8-0c04b2309736"},"vehicle_type_id":"4","last_reported":1732288199,"current_range_meters":36800,"station_id":"ce4bhr92rcd13ifvqhsg","pricing_plan_id":"cebpf4jnsgd1na2vs0mg"},{"bike_id":"c4b7d873-4697-47c8-8651-0974be04427a","system_id":"levelo_inurba_marseille","lat":43.26688,"lon":5.38282,"is_reserved":false,"is_disabled":false,"rental_uris":{"android":"levelo://app?vid=c4b7d873-4697-47c8-8651-0974be04427a","ios":"levelo://app?vid=c4b7d873-4697-47c8-8651-0974be04427a"},"vehicle_type_id":"4","last_reported":1732288199,"current_range_meters":30000,"station_id":"ce4bhg92rcd13ifvqf90","pricing_plan_id":"cebpf4jnsgd1na2vs0mg"},{"bike_id":"581d2ef0-341e-4d2e-aa56-04a8ac8af4f6","system_id":"levelo_inurba_marseille","lat":43.33022,"lon":5.39045,"is_reserved":false,"is_disabled":false,"rental_uris":{"android":"levelo://app?vid=581d2ef0-341e-4d2e-aa56-04a8ac8af4f6","ios":"levelo://app?vid=581d2ef0-341e-4d2e-aa56-04a8ac8af4f6"},"vehicle_type_id":"4","last_reported":1732288199,"current_range_meters":38800,"station_id":"ce4bhr92rcd13ifvqhrg","pricing_plan_id":"cebpf4jnsgd1na2vs0mg"},{"bike_id":"f5ba47b4-1ee8-4f8a-98a6-525d861a7a50","system_id":"levelo_inurba_marseille","lat":43.30782,"lon":5.37656,"is_reserved":false,"is_disabled":false,"rental_uris":{"android":"levelo://app?vid=f5ba47b4-1ee8-4f8a-98a6-525d861a7a50","ios":"levelo://app?vid=f5ba47b4-1ee8-4f8a-98a6-525d861a7a50"},"vehicle_type_id":"4","last_reported":1732288199,"current_range_meters":16800,"station_id":"ce4bgv92rcd13ifvqcq0","pricing_plan_id":"cebpf4jnsgd1na2vs0mg"},{"bike_id":"cca7d846-b37b-4ffe-8591-ce82a40ac5bc","system_id":"levelo_inurba_marseille","lat":43.30202,"lon":5.39478,"is_reserved":false,"is_disabled":false,"rental_uris":{"android":"levelo://app?vid=cca7d846-b37b-4ffe-8591-ce82a40ac5bc","ios":"levelo://app?vid=cca7d846-b37b-4ffe-8591-ce82a40ac5bc"},"vehicle_type_id":"4","last_reported":1732288199,"current_range_meters":38400,"station_id":"ce4bh0p2rcd13ifvqd70","pricing_plan_id":"cebpf4jnsgd1na2vs0mg"},{"bike_id":"1fe36207-a189-42b7-a2ae-a1bed57e3dd0","system_id":"levelo_inurba_marseille","lat":43.26032,"lon":5.37555,"is_reserved":false,"is_disabled":false,"rental_uris":{"android":"levelo://app?vid=1fe36207-a189-42b7-a2ae-a1bed57e3dd0","ios":"levelo://app?vid=1fe36207-a189-42b7-a2ae-a1bed57e3dd0"},"vehicle_type_id":"4","last_reported":1732288199,"current_range_meters":18800,"station_id":"ce4bhgh2rcd13ifvqfa0","pricing_plan_id":"cebpf4jnsgd1na2vs0mg"},{"bike_id":"4ecdaf55-87e7-42ea-ac0e-a41de2a6b49d","system_id":"levelo_inurba_marseille","lat":43.31991,"lon":5.38161,"is_reserved":false,"is_disabled":false,"rental_uris":{"android":"levelo://app?vid=4ecdaf55-87e7-42ea-ac0e-a41de2a6b49d","ios":"levelo://app?vid=4ecdaf55-87e7-42ea-ac0e-a41de2a6b49d"},"vehicle_type_id":"4","last_reported":1732288199,"current_range_meters":27600,"station_id":"ce4bhr12rcd13ifvqhpg","pricing_plan_id":"cebpf4jnsgd1na2vs0mg"},{"bike_id":"51ce6112-ca51-4a26-8335-063dea88ee84","system_id":"levelo_inurba_marseille","lat":43.26061,"lon":5.39398,"is_reserved":false,"is_disabled":false,"rental_uris":{"android":"levelo://app?vid=51ce6112-ca51-4a26-8335-063dea88ee84","ios":"levelo://app?vid=51ce6112-ca51-4a26-8335-063dea88ee84"},"vehicle_type_id":"4","last_reported":1732288199,"current_range_meters":10800,"station_id":"ce4bhh92rcd13ifvqfj0","pricing_plan_id":"cebpf4jnsgd1na2vs0mg"},{"bike_id":"70e350b1-f528-41e7-859e-8e846e202d85","system_id":"levelo_inurba_marseille","lat":43.29632,"lon":5.40601,"is_reserved":false,"is_disabled":false,"rental_uris":{"android":"levelo://app?vid=70e350b1-f528-41e7-859e-8e846e202d85","ios":"levelo://app?vid=70e350b1-f528-41e7-859e-8e846e202d85"},"vehicle_type_id":"4","last_reported":1732288199,"current_range_meters":3200,"station_id":"ce4bh0h2rcd13ifvqd60","pricing_plan_id":"cebpf4jnsgd1na2vs0mg"},{"bike_id":"49287c03-8032-4e43-9bbe-bc09ae6b2e3c","system_id":"levelo_inurba_marseille","lat":43.29787,"lon":5.40413,"is_reserved":false,"is_disabled":false,"rental_uris":{"android":"levelo://app?vid=49287c03-8032-4e43-9bbe-bc09ae6b2e3c","ios":"levelo://app?vid=49287c03-8032-4e43-9bbe-bc09ae6b2e3c"},"vehicle_type_id":"4","last_reported":1732288199,"current_range_meters":16800,"station_id":"ce4bh112rcd13ifvqd90","pricing_plan_id":"cebpf4jnsgd1na2vs0mg"},{"bike_id":"fc0b1b0c-9a21-495d-be52-0d91f5503bfa","system_id":"levelo_inurba_marseille","lat":43.22928,"lon":5.3538,"is_reserved":false,"is_disabled":false,"rental_uris":{"android":"levelo://app?vid=fc0b1b0c-9a21-495d-be52-0d91f5503bfa","ios":"levelo://app?vid=fc0b1b0c-9a21-495d-be52-0d91f5503bfa"},"vehicle_type_id":"4","last_reported":1732288199,"current_range_meters":26000,"station_id":"cpo3532slgdg3j2ikp40","pricing_plan_id":"cebpf4jnsgd1na2vs0mg"},{"bike_id":"a79a93cc-8de9-4580-8645-28fbed606083","system_id":"levelo_inurba_marseille","lat":43.30769,"lon":5.37653,"is_reserved":false,"is_disabled":false,"rental_uris":{"android":"levelo://app?vid=a79a93cc-8de9-4580-8645-28fbed606083","ios":"levelo://app?vid=a79a93cc-8de9-4580-8645-28fbed606083"},"vehicle_type_id":"4","last_reported":1732288199,"current_range_meters":39200,"station_id":"ce4bgv92rcd13ifvqcq0","pricing_plan_id":"cebpf4jnsgd1na2vs0mg"},{"bike_id":"ef478ce6-2f7c-462f-bf7b-2b057e4554b4","system_id":"levelo_inurba_marseille","lat":43.29204,"lon":5.3933,"is_reserved":false,"is_disabled":false,"rental_uris":{"android":"levelo://app?vid=ef478ce6-2f7c-462f-bf7b-2b057e4554b4","ios":"levelo://app?vid=ef478ce6-2f7c-462f-bf7b-2b057e4554b4"},"vehicle_type_id":"4","last_reported":1732288199,"current_range_meters":4800,"station_id":"ce4bh192rcd13ifvqdd0","pricing_plan_id":"cebpf4jnsgd1na2vs0mg"},{"bike_id":"b7c51b70-61e5-4c47-bfcb-dc97b8f54bf2","system_id":"levelo_inurba_marseille","lat":43.32096,"lon":5.36782,"is_reserved":false,"is_disabled":false,"rental_uris":{"android":"levelo://app?vid=b7c51b70-61e5-4c47-bfcb-dc97b8f54bf2","ios":"levelo://app?vid=b7c51b70-61e5-4c47-bfcb-dc97b8f54bf2"},"vehicle_type_id":"4","last_reported":1732288199,"current_range_meters":4000,"station_id":"ce4bhrh2rcd13ifvqhug","pricing_plan_id":"cebpf4jnsgd1na2vs0mg"},{"bike_id":"35799ffd-e120-47ae-ba81-5038ad1d78ad","system_id":"levelo_inurba_marseille","lat":43.26678,"lon":5.38269,"is_reserved":false,"is_disabled":false,"rental_uris":{"android":"levelo://app?vid=35799ffd-e120-47ae-ba81-5038ad1d78ad","ios":"levelo://app?vid=35799ffd-e120-47ae-ba81-5038ad1d78ad"},"vehicle_type_id":"4","last_reported":1732288199,"current_range_meters":38800,"station_id":"ce4bhg92rcd13ifvqf90","pricing_plan_id":"cebpf4jnsgd1na2vs0mg"},{"bike_id":"a51e82b7-997c-467d-8058-02f504d77c87","system_id":"levelo_inurba_marseille","lat":43.25,"lon":5.38934,"is_reserved":false,"is_disabled":false,"rental_uris":{"android":"levelo://app?vid=a51e82b7-997c-467d-8058-02f504d77c87","ios":"levelo://app?vid=a51e82b7-997c-467d-8058-02f504d77c87"},"vehicle_type_id":"4","last_reported":1732288199,"current_range_meters":16800,"station_id":"ce4bhgp2rcd13ifvqfd0","pricing_plan_id":"cebpf4jnsgd1na2vs0mg"},{"bike_id":"7251622e-73a9-419f-947b-70fd7086d2b8","system_id":"levelo_inurba_marseille","lat":43.29579,"lon":5.36773,"is_reserved":false,"is_disabled":false,"rental_uris":{"android":"levelo://app?vid=7251622e-73a9-419f-947b-70fd7086d2b8","ios":"levelo://app?vid=7251622e-73a9-419f-947b-70fd7086d2b8"},"vehicle_type_id":"4","last_reported":1732288199,"current_range_meters":10000,"station_id":"","pricing_plan_id":"cebpf4jnsgd1na2vs0mg"},{"bike_id":"9d76029c-8202-41ad-a5e8-699cb6009143","system_id":"levelo_inurba_marseille","lat":43.23144,"lon":5.43723,"is_reserved":false,"is_disabled":false,"rental_uris":{"android":"levelo://app?vid=9d76029c-8202-41ad-a5e8-699cb6009143","ios":"levelo://app?vid=9d76029c-8202-41ad-a5e8-699cb6009143"},"vehicle_type_id":"4","last_reported":1732288199,"current_range_meters":32000,"station_id":"ce4bhmp2rcd13ifvqgog","pricing_plan_id":"cebpf4jnsgd1na2vs0mg"},{"bike_id":"064146a1-47fa-49db-ac09-6e31532f192a","system_id":"levelo_inurba_marseille","lat":43.28263,"lon":5.35077,"is_reserved":false,"is_disabled":false,"rental_uris":{"android":"levelo://app?vid=064146a1-47fa-49db-ac09-6e31532f192a","ios":"levelo://app?vid=064146a1-47fa-49db-ac09-6e31532f192a"},"vehicle_type_id":"4","last_reported":1732288199,"current_range_meters":16800,"station_id":"ce4bhbp2rcd13ifvqerg","pricing_plan_id":"cebpf4jnsgd1na2vs0mg"},{"bike_id":"daeeea5f-f915-4a2c-8bfc-be8db3ac738d","system_id":"levelo_inurba_marseille","lat":43.25003,"lon":5.38925,"is_reserved":false,"is_disabled":false,"rental_uris":{"android":"levelo://app?vid=daeeea5f-f915-4a2c-8bfc-be8db3ac738d","ios":"levelo://app?vid=daeeea5f-f915-4a2c-8bfc-be8db3ac738d"},"vehicle_type_id":"4","last_reported":1732288199,"current_range_meters":22400,"station_id":"ce4bhgp2rcd13ifvqfd0","pricing_plan_id":"cebpf4jnsgd1na2vs0mg"},{"bike_id":"a0d88b30-8e57-48c2-9f80-51c667457f90","system_id":"levelo_inurba_marseille","lat":43.30892,"lon":5.37205,"is_reserved":false,"is_disabled":false,"rental_uris":{"android":"levelo://app?vid=a0d88b30-8e57-48c2-9f80-51c667457f90","ios":"levelo://app?vid=a0d88b30-8e57-48c2-9f80-51c667457f90"},"vehicle_type_id":"4","last_reported":1732288199,"current_range_meters":24400,"station_id":"ce4bguh2rcd13ifvqckg","pricing_plan_id":"cebpf4jnsgd1na2vs0mg"},{"bike_id":"6caabee8-1117-45cc-a2f9-7bb7656b80df","system_id":"levelo_inurba_marseille","lat":43.27176,"lon":5.41002,"is_reserved":false,"is_disabled":false,"rental_uris":{"android":"levelo://app?vid=6caabee8-1117-45cc-a2f9-7bb7656b80df","ios":"levelo://app?vid=6caabee8-1117-45cc-a2f9-7bb7656b80df"},"vehicle_type_id":"4","last_reported":1732288199,"current_range_meters":20800,"station_id":"ce4bhl12rcd13ifvqgf0","pricing_plan_id":"cebpf4jnsgd1na2vs0mg"},{"bike_id":"2ce56eac-607f-4aee-97f1-1efe9a148076","system_id":"levelo_inurba_marseille","lat":43.22928,"lon":5.35378,"is_reserved":false,"is_disabled":false,"rental_uris":{"android":"levelo://app?vid=2ce56eac-607f-4aee-97f1-1efe9a148076","ios":"levelo://app?vid=2ce56eac-607f-4aee-97f1-1efe9a148076"},"vehicle_type_id":"4","last_reported":1732288199,"current_range_meters":16000,"station_id":"cpo3532slgdg3j2ikp40","pricing_plan_id":"cebpf4jnsgd1na2vs0mg"},{"bike_id":"3c5d0254-2542-44e0-aa08-1a8753e937a8","system_id":"levelo_inurba_marseille","lat":43.26682,"lon":5.38274,"is_reserved":false,"is_disabled":false,"rental_uris":{"android":"levelo://app?vid=3c5d0254-2542-44e0-aa08-1a8753e937a8","ios":"levelo://app?vid=3c5d0254-2542-44e0-aa08-1a8753e937a8"},"vehicle_type_id":"4","last_reported":1732288199,"current_range_meters":38800,"station_id":"ce4bhg92rcd13ifvqf90","pricing_plan_id":"cebpf4jnsgd1na2vs0mg"},{"bike_id":"5e11c1f8-c52c-4698-84fc-60dd64008975","system_id":"levelo_inurba_marseille","lat":43.29254,"lon":5.39754,"is_reserved":false,"is_disabled":false,"rental_uris":{"android":"levelo://app?vid=5e11c1f8-c52c-4698-84fc-60dd64008975","ios":"levelo://app?vid=5e11c1f8-c52c-4698-84fc-60dd64008975"},"vehicle_type_id":"4","last_reported":1732288199,"current_range_meters":10000,"station_id":"ce4bh3h2rcd13ifvqdo0","pricing_plan_id":"cebpf4jnsgd1na2vs0mg"},{"bike_id":"637cdd55-1059-4c17-8140-6532e6d8e718","system_id":"levelo_inurba_marseille","lat":43.23192,"lon":5.35556,"is_reserved":false,"is_disabled":false,"rental_uris":{"android":"levelo://app?vid=637cdd55-1059-4c17-8140-6532e6d8e718","ios":"levelo://app?vid=637cdd55-1059-4c17-8140-6532e6d8e718"},"vehicle_type_id":"4","last_reported":1732288199,"current_range_meters":36800,"station_id":"ce4bhu92rcd13ifvqi70","pricing_plan_id":"cebpf4jnsgd1na2vs0mg"},{"bike_id":"1904e4d6-e1e0-456f-9800-8b0e0e7107b4","system_id":"levelo_inurba_marseille","lat":43.23152,"lon":5.43705,"is_reserved":false,"is_disabled":false,"rental_uris":{"android":"levelo://app?vid=1904e4d6-e1e0-456f-9800-8b0e0e7107b4","ios":"levelo://app?vid=1904e4d6-e1e0-456f-9800-8b0e0e7107b4"},"vehicle_type_id":"4","last_reported":1732288199,"current_range_meters":38800,"station_id":"ce4bhmp2rcd13ifvqgog","pricing_plan_id":"cebpf4jnsgd1na2vs0mg"},{"bike_id":"1eff5ce5-2d56-4465-a12c-60db9ec2175a","system_id":"levelo_inurba_marseille","lat":43.22926,"lon":5.35375,"is_reserved":false,"is_disabled":false,"rental_uris":{"android":"levelo://app?vid=1eff5ce5-2d56-4465-a12c-60db9ec2175a","ios":"levelo://app?vid=1eff5ce5-2d56-4465-a12c-60db9ec2175a"},"vehicle_type_id":"4","last_reported":1732288199,"current_range_meters":4400,"station_id":"cpo3532slgdg3j2ikp40","pricing_plan_id":"cebpf4jnsgd1na2vs0mg"},{"bike_id":"dc815649-e3e3-48aa-b0fd-022cdb8ac58a","system_id":"levelo_inurba_marseille","lat":43.32361,"lon":5.38891,"is_reserved":false,"is_disabled":false,"rental_uris":{"android":"levelo://app?vid=dc815649-e3e3-48aa-b0fd-022cdb8ac58a","ios":"levelo://app?vid=dc815649-e3e3-48aa-b0fd-022cdb8ac58a"},"vehicle_type_id":"4","last_reported":1732288199,"current_range_meters":36400,"station_id":"ce4bhqp2rcd13ifvqhog","pricing_plan_id":"cebpf4jnsgd1na2vs0mg"},{"bike_id":"ee5718ff-0285-4bed-bf9b-fa66bc9bd785","system_id":"levelo_inurba_marseille","lat":43.30172,"lon":5.36633,"is_reserved":false,"is_disabled":false,"rental_uris":{"android":"levelo://app?vid=ee5718ff-0285-4bed-bf9b-fa66bc9bd785","ios":"levelo://app?vid=ee5718ff-0285-4bed-bf9b-fa66bc9bd785"},"vehicle_type_id":"4","last_reported":1732288199,"current_range_meters":38400,"station_id":"ce4bgrh2rcd13ifvqc8g","pricing_plan_id":"cebpf4jnsgd1na2vs0mg"},{"bike_id":"5ebb7e87-9e02-4937-b81d-26d2f8cdb2be","system_id":"levelo_inurba_marseille","lat":43.29787,"lon":5.39345,"is_reserved":false,"is_disabled":true,"rental_uris":{"android":"levelo://app?vid=5ebb7e87-9e02-4937-b81d-26d2f8cdb2be","ios":"levelo://app?vid=5ebb7e87-9e02-4937-b81d-26d2f8cdb2be"},"vehicle_type_id":"4","last_reported":1732288199,"current_range_meters":0,"station_id":"chh1huq6cuj3fo74tm60","pricing_plan_id":"cebpf4jnsgd1na2vs0mg"},{"bike_id":"623d54d0-ab3c-465b-bed2-a4bd22a445b3","system_id":"levelo_inurba_marseille","lat":43.30248,"lon":5.40097,"is_reserved":false,"is_disabled":false,"rental_uris":{"android":"levelo://app?vid=623d54d0-ab3c-465b-bed2-a4bd22a445b3","ios":"levelo://app?vid=623d54d0-ab3c-465b-bed2-a4bd22a445b3"},"vehicle_type_id":"4","last_reported":1732288199,"current_range_meters":29600,"station_id":"ce4bgvh2rcd13ifvqcs0","pricing_plan_id":"cebpf4jnsgd1na2vs0mg"},{"bike_id":"d074ee4d-c65e-4571-9c59-b48ab7e9832e","system_id":"levelo_inurba_marseille","lat":43.25088,"lon":5.39537,"is_reserved":false,"is_disabled":false,"rental_uris":{"android":"levelo://app?vid=d074ee4d-c65e-4571-9c59-b48ab7e9832e","ios":"levelo://app?vid=d074ee4d-c65e-4571-9c59-b48ab7e9832e"},"vehicle_type_id":"4","last_reported":1732288199,"current_range_meters":33200,"station_id":"ce4bhm12rcd13ifvqgkg","pricing_plan_id":"cebpf4jnsgd1na2vs0mg"},{"bike_id":"a1774b00-d1e6-47ae-85d0-b34c4ee5bea9","system_id":"levelo_inurba_marseille","lat":43.26552,"lon":5.37286,"is_reserved":false,"is_disabled":false,"rental_uris":{"android":"levelo://app?vid=a1774b00-d1e6-47ae-85d0-b34c4ee5bea9","ios":"levelo://app?vid=a1774b00-d1e6-47ae-85d0-b34c4ee5bea9"},"vehicle_type_id":"4","last_reported":1732288199,"current_range_meters":38800,"station_id":"ce4bhg12rcd13ifvqf70","pricing_plan_id":"cebpf4jnsgd1na2vs0mg"},{"bike_id":"70c665a5-d246-459f-aaba-48c23a4ecac8","system_id":"levelo_inurba_marseille","lat":43.26026,"lon":5.37551,"is_reserved":false,"is_disabled":false,"rental_uris":{"android":"levelo://app?vid=70c665a5-d246-459f-aaba-48c23a4ecac8","ios":"levelo://app?vid=70c665a5-d246-459f-aaba-48c23a4ecac8"},"vehicle_type_id":"4","last_reported":1732288199,"current_range_meters":9600,"station_id":"ce4bhgh2rcd13ifvqfa0","pricing_plan_id":"cebpf4jnsgd1na2vs0mg"},{"bike_id":"fb46633f-9e00-469c-bbd0-67b423838002","system_id":"levelo_inurba_marseille","lat":43.26807,"lon":5.40276,"is_reserved":false,"is_disabled":false,"rental_uris":{"android":"levelo://app?vid=fb46633f-9e00-469c-bbd0-67b423838002","ios":"levelo://app?vid=fb46633f-9e00-469c-bbd0-67b423838002"},"vehicle_type_id":"4","last_reported":1732288199,"current_range_meters":14800,"station_id":"ce501612rcd8frsf0b60","pricing_plan_id":"cebpf4jnsgd1na2vs0mg"},{"bike_id":"f796b412-9140-415f-9f98-4b489dc2b14e","system_id":"levelo_inurba_marseille","lat":43.26936,"lon":5.40254,"is_reserved":false,"is_disabled":false,"rental_uris":{"android":"levelo://app?vid=f796b412-9140-415f-9f98-4b489dc2b14e","ios":"levelo://app?vid=f796b412-9140-415f-9f98-4b489dc2b14e"},"vehicle_type_id":"4","last_reported":1732288199,"current_range_meters":38800,"station_id":"cjm6bp8fraef2m0cb0m0","pricing_plan_id":"cebpf4jnsgd1na2vs0mg"},{"bike_id":"53209ac8-eb4c-44ea-965c-d8ad7615d812","system_id":"levelo_inurba_marseille","lat":43.2972,"lon":5.37687,"is_reserved":false,"is_disabled":false,"rental_uris":{"android":"levelo://app?vid=53209ac8-eb4c-44ea-965c-d8ad7615d812","ios":"levelo://app?vid=53209ac8-eb4c-44ea-965c-d8ad7615d812"},"vehicle_type_id":"4","last_reported":1732288199,"current_range_meters":35200,"station_id":"ce4bgkh2rcd13ifvqbl0","pricing_plan_id":"cebpf4jnsgd1na2vs0mg"},{"bike_id":"75160751-1069-43f1-908c-f8a163732076","system_id":"levelo_inurba_marseille","lat":43.31706,"lon":5.43715,"is_reserved":false,"is_disabled":false,"rental_uris":{"android":"levelo://app?vid=75160751-1069-43f1-908c-f8a163732076","ios":"levelo://app?vid=75160751-1069-43f1-908c-f8a163732076"},"vehicle_type_id":"4","last_reported":1732288199,"current_range_meters":39200,"station_id":"ce4bhp92rcd13ifvqhcg","pricing_plan_id":"cebpf4jnsgd1na2vs0mg"},{"bike_id":"8e5f7d32-6613-4d7e-b53d-b5ddff5cb6c6","system_id":"levelo_inurba_marseille","lat":43.23958,"lon":5.36642,"is_reserved":false,"is_disabled":false,"rental_uris":{"android":"levelo://app?vid=8e5f7d32-6613-4d7e-b53d-b5ddff5cb6c6","ios":"levelo://app?vid=8e5f7d32-6613-4d7e-b53d-b5ddff5cb6c6"},"vehicle_type_id":"4","last_reported":1732288199,"current_range_meters":38800,"station_id":"ce4bhi12rcd13ifvqfp0","pricing_plan_id":"cebpf4jnsgd1na2vs0mg"},{"bike_id":"9284dc21-9ba2-4669-b8d7-ae7790be6a09","system_id":"levelo_inurba_marseille","lat":43.298413,"lon":5.362665,"is_reserved":false,"is_disabled":false,"rental_uris":{"android":"levelo://app?vid=9284dc21-9ba2-4669-b8d7-ae7790be6a09","ios":"levelo://app?vid=9284dc21-9ba2-4669-b8d7-ae7790be6a09"},"vehicle_type_id":"4","last_reported":1732288199,"current_range_meters":38800,"station_id":"ce4bgpp2rcd13ifvqc3g","pricing_plan_id":"cebpf4jnsgd1na2vs0mg"},{"bike_id":"448b4be7-3dfe-40e5-b9e4-04aad95d4610","system_id":"levelo_inurba_marseille","lat":43.30135,"lon":5.3742,"is_reserved":false,"is_disabled":false,"rental_uris":{"android":"levelo://app?vid=448b4be7-3dfe-40e5-b9e4-04aad95d4610","ios":"levelo://app?vid=448b4be7-3dfe-40e5-b9e4-04aad95d4610"},"vehicle_type_id":"4","last_reported":1732288199,"current_range_meters":27200,"station_id":"ce4bgs92rcd13ifvqcc0","pricing_plan_id":"cebpf4jnsgd1na2vs0mg"},{"bike_id":"d50fae79-a23b-4b26-bc0c-86364a6bce7e","system_id":"levelo_inurba_marseille","lat":43.319955,"lon":5.38148,"is_reserved":false,"is_disabled":false,"rental_uris":{"android":"levelo://app?vid=d50fae79-a23b-4b26-bc0c-86364a6bce7e","ios":"levelo://app?vid=d50fae79-a23b-4b26-bc0c-86364a6bce7e"},"vehicle_type_id":"4","last_reported":1732288199,"current_range_meters":38800,"station_id":"ce4bhr12rcd13ifvqhpg","pricing_plan_id":"cebpf4jnsgd1na2vs0mg"},{"bike_id":"f06cd204-9b99-43f6-9639-1b61c764ed1a","system_id":"levelo_inurba_marseille","lat":43.31757,"lon":5.39019,"is_reserved":false,"is_disabled":false,"rental_uris":{"android":"levelo://app?vid=f06cd204-9b99-43f6-9639-1b61c764ed1a","ios":"levelo://app?vid=f06cd204-9b99-43f6-9639-1b61c764ed1a"},"vehicle_type_id":"4","last_reported":1732288199,"current_range_meters":30800,"station_id":"ce4bhqp2rcd13ifvqhng","pricing_plan_id":"cebpf4jnsgd1na2vs0mg"},{"bike_id":"8268ca29-cc94-4b05-acb5-36a3938bdc45","system_id":"levelo_inurba_marseille","lat":43.28411,"lon":5.35001,"is_reserved":false,"is_disabled":false,"rental_uris":{"android":"levelo://app?vid=8268ca29-cc94-4b05-acb5-36a3938bdc45","ios":"levelo://app?vid=8268ca29-cc94-4b05-acb5-36a3938bdc45"},"vehicle_type_id":"4","last_reported":1732288199,"current_range_meters":28000,"station_id":"ce4bhbh2rcd13ifvqepg","pricing_plan_id":"cebpf4jnsgd1na2vs0mg"},{"bike_id":"f689ab61-e526-43ba-b443-410e33c02d9e","system_id":"levelo_inurba_marseille","lat":43.25499,"lon":5.3765,"is_reserved":false,"is_disabled":true,"rental_uris":{"android":"levelo://app?vid=f689ab61-e526-43ba-b443-410e33c02d9e","ios":"levelo://app?vid=f689ab61-e526-43ba-b443-410e33c02d9e"},"vehicle_type_id":"4","last_reported":1732288199,"current_range_meters":400,"station_id":"ce4bhh12rcd13ifvqff0","pricing_plan_id":"cebpf4jnsgd1na2vs0mg"},{"bike_id":"d99d745a-edcb-4d3d-bf9d-7fa79bc2aaf5","system_id":"levelo_inurba_marseille","lat":43.31999,"lon":5.38175,"is_reserved":false,"is_disabled":false,"rental_uris":{"android":"levelo://app?vid=d99d745a-edcb-4d3d-bf9d-7fa79bc2aaf5","ios":"levelo://app?vid=d99d745a-edcb-4d3d-bf9d-7fa79bc2aaf5"},"vehicle_type_id":"4","last_reported":1732288199,"current_range_meters":17600,"station_id":"ce4bhr12rcd13ifvqhpg","pricing_plan_id":"cebpf4jnsgd1na2vs0mg"},{"bike_id":"6cb57b7a-5d4d-48e7-a745-0896429a749c","system_id":"levelo_inurba_marseille","lat":43.29632,"lon":5.40607,"is_reserved":false,"is_disabled":false,"rental_uris":{"android":"levelo://app?vid=6cb57b7a-5d4d-48e7-a745-0896429a749c","ios":"levelo://app?vid=6cb57b7a-5d4d-48e7-a745-0896429a749c"},"vehicle_type_id":"4","last_reported":1732288199,"current_range_meters":38800,"station_id":"ce4bh0h2rcd13ifvqd60","pricing_plan_id":"cebpf4jnsgd1na2vs0mg"},{"bike_id":"5206bccf-041f-4885-ba69-2b15d631fb97","system_id":"levelo_inurba_marseille","lat":43.25087,"lon":5.39527,"is_reserved":false,"is_disabled":true,"rental_uris":{"android":"levelo://app?vid=5206bccf-041f-4885-ba69-2b15d631fb97","ios":"levelo://app?vid=5206bccf-041f-4885-ba69-2b15d631fb97"},"vehicle_type_id":"4","last_reported":1732288199,"current_range_meters":11200,"station_id":"ce4bhm12rcd13ifvqgkg","pricing_plan_id":"cebpf4jnsgd1na2vs0mg"},{"bike_id":"ce9fb9d4-5647-49dc-ab9f-a1547699654d","system_id":"levelo_inurba_marseille","lat":43.3014,"lon":5.37419,"is_reserved":false,"is_disabled":false,"rental_uris":{"android":"levelo://app?vid=ce9fb9d4-5647-49dc-ab9f-a1547699654d","ios":"levelo://app?vid=ce9fb9d4-5647-49dc-ab9f-a1547699654d"},"vehicle_type_id":"4","last_reported":1732288199,"current_range_meters":11200,"station_id":"ce4bgs92rcd13ifvqcc0","pricing_plan_id":"cebpf4jnsgd1na2vs0mg"},{"bike_id":"552ae1f9-34eb-4d70-a19b-3616d3661778","system_id":"levelo_inurba_marseille","lat":43.33727,"lon":5.39184,"is_reserved":false,"is_disabled":false,"rental_uris":{"android":"levelo://app?vid=552ae1f9-34eb-4d70-a19b-3616d3661778","ios":"levelo://app?vid=552ae1f9-34eb-4d70-a19b-3616d3661778"},"vehicle_type_id":"4","last_reported":1732288199,"current_range_meters":24800,"station_id":"ce4bhr92rcd13ifvqhsg","pricing_plan_id":"cebpf4jnsgd1na2vs0mg"},{"bike_id":"f7f3756c-1ec7-4782-9c87-6273f87b6774","system_id":"levelo_inurba_marseille","lat":43.337444,"lon":5.374475,"is_reserved":false,"is_disabled":false,"rental_uris":{"android":"levelo://app?vid=f7f3756c-1ec7-4782-9c87-6273f87b6774","ios":"levelo://app?vid=f7f3756c-1ec7-4782-9c87-6273f87b6774"},"vehicle_type_id":"4","last_reported":1732288199,"current_range_meters":36800,"station_id":"","pricing_plan_id":"cebpf4jnsgd1na2vs0mg"},{"bike_id":"7511195d-8826-4960-a89f-c5ab13e35235","system_id":"levelo_inurba_marseille","lat":43.26949,"lon":5.38633,"is_reserved":false,"is_disabled":true,"rental_uris":{"android":"levelo://app?vid=7511195d-8826-4960-a89f-c5ab13e35235","ios":"levelo://app?vid=7511195d-8826-4960-a89f-c5ab13e35235"},"vehicle_type_id":"4","last_reported":1732288199,"current_range_meters":0,"station_id":"ce4bhh92rcd13ifvqfh0","pricing_plan_id":"cebpf4jnsgd1na2vs0mg"},{"bike_id":"4d07820d-d680-4739-82c4-378109fda2a7","system_id":"levelo_inurba_marseille","lat":43.30874,"lon":5.39648,"is_reserved":false,"is_disabled":false,"rental_uris":{"android":"levelo://app?vid=4d07820d-d680-4739-82c4-378109fda2a7","ios":"levelo://app?vid=4d07820d-d680-4739-82c4-378109fda2a7"},"vehicle_type_id":"4","last_reported":1732288199,"current_range_meters":25600,"station_id":"ce4bh012rcd13ifvqcv0","pricing_plan_id":"cebpf4jnsgd1na2vs0mg"},{"bike_id":"028e5427-36e2-49e1-b3db-260058fffb58","system_id":"levelo_inurba_marseille","lat":43.25577,"lon":5.38248,"is_reserved":false,"is_disabled":false,"rental_uris":{"android":"levelo://app?vid=028e5427-36e2-49e1-b3db-260058fffb58","ios":"levelo://app?vid=028e5427-36e2-49e1-b3db-260058fffb58"},"vehicle_type_id":"4","last_reported":1732288199,"current_range_meters":16400,"station_id":"ce4bhih2rcd13ifvqfs0","pricing_plan_id":"cebpf4jnsgd1na2vs0mg"},{"bike_id":"1453fddf-c64f-4c02-ace1-55caffeaf55e","system_id":"levelo_inurba_marseille","lat":43.32283,"lon":5.38273,"is_reserved":false,"is_disabled":false,"rental_uris":{"android":"levelo://app?vid=1453fddf-c64f-4c02-ace1-55caffeaf55e","ios":"levelo://app?vid=1453fddf-c64f-4c02-ace1-55caffeaf55e"},"vehicle_type_id":"4","last_reported":1732288199,"current_range_meters":38800,"station_id":"ce4bhr12rcd13ifvqhqg","pricing_plan_id":"cebpf4jnsgd1na2vs0mg"},{"bike_id":"a784b263-93a1-4227-95d2-bf22ed044a89","system_id":"levelo_inurba_marseille","lat":43.29895,"lon":5.43672,"is_reserved":false,"is_disabled":false,"rental_uris":{"android":"levelo://app?vid=a784b263-93a1-4227-95d2-bf22ed044a89","ios":"levelo://app?vid=a784b263-93a1-4227-95d2-bf22ed044a89"},"vehicle_type_id":"4","last_reported":1732288199,"current_range_meters":6000,"station_id":"ce4bhpp2rcd13ifvqhfg","pricing_plan_id":"cebpf4jnsgd1na2vs0mg"},{"bike_id":"0d5efe48-32bd-461f-be09-c1d5e2d6ef37","system_id":"levelo_inurba_marseille","lat":43.32364,"lon":5.38888,"is_reserved":false,"is_disabled":false,"rental_uris":{"android":"levelo://app?vid=0d5efe48-32bd-461f-be09-c1d5e2d6ef37","ios":"levelo://app?vid=0d5efe48-32bd-461f-be09-c1d5e2d6ef37"},"vehicle_type_id":"4","last_reported":1732288199,"current_range_meters":32800,"station_id":"ce4bhqp2rcd13ifvqhog","pricing_plan_id":"cebpf4jnsgd1na2vs0mg"},{"bike_id":"b47f4ab5-e1f3-40a6-ae38-cb588825cb4c","system_id":"levelo_inurba_marseille","lat":43.30809,"lon":5.38157,"is_reserved":false,"is_disabled":false,"rental_uris":{"android":"levelo://app?vid=b47f4ab5-e1f3-40a6-ae38-cb588825cb4c","ios":"levelo://app?vid=b47f4ab5-e1f3-40a6-ae38-cb588825cb4c"},"vehicle_type_id":"4","last_reported":1732288199,"current_range_meters":18000,"station_id":"ce4bgt12rcd13ifvqce0","pricing_plan_id":"cebpf4jnsgd1na2vs0mg"},{"bike_id":"eed63595-af4c-4af9-9f47-c0b889d6180f","system_id":"levelo_inurba_marseille","lat":43.30516,"lon":5.36523,"is_reserved":false,"is_disabled":false,"rental_uris":{"android":"levelo://app?vid=eed63595-af4c-4af9-9f47-c0b889d6180f","ios":"levelo://app?vid=eed63595-af4c-4af9-9f47-c0b889d6180f"},"vehicle_type_id":"4","last_reported":1732288199,"current_range_meters":27600,"station_id":"ce4bgs12rcd13ifvqcag","pricing_plan_id":"cebpf4jnsgd1na2vs0mg"},{"bike_id":"622e9349-05f1-42c9-a26a-206b658a7151","system_id":"levelo_inurba_marseille","lat":43.28261,"lon":5.35078,"is_reserved":false,"is_disabled":false,"rental_uris":{"android":"levelo://app?vid=622e9349-05f1-42c9-a26a-206b658a7151","ios":"levelo://app?vid=622e9349-05f1-42c9-a26a-206b658a7151"},"vehicle_type_id":"4","last_reported":1732288199,"current_range_meters":32000,"station_id":"ce4bhbp2rcd13ifvqerg","pricing_plan_id":"cebpf4jnsgd1na2vs0mg"},{"bike_id":"c2a59ab3-d6b8-4918-82c9-bfcce921601e","system_id":"levelo_inurba_marseille","lat":43.32478,"lon":5.36578,"is_reserved":false,"is_disabled":false,"rental_uris":{"android":"levelo://app?vid=c2a59ab3-d6b8-4918-82c9-bfcce921601e","ios":"levelo://app?vid=c2a59ab3-d6b8-4918-82c9-bfcce921601e"},"vehicle_type_id":"4","last_reported":1732288199,"current_range_meters":17600,"station_id":"ce4bhs12rcd13ifvqhvg","pricing_plan_id":"cebpf4jnsgd1na2vs0mg"},{"bike_id":"3814d5d3-9e1a-4999-b1c9-82bf61d0e64f","system_id":"levelo_inurba_marseille","lat":43.29546,"lon":5.42292,"is_reserved":false,"is_disabled":true,"rental_uris":{"android":"levelo://app?vid=3814d5d3-9e1a-4999-b1c9-82bf61d0e64f","ios":"levelo://app?vid=3814d5d3-9e1a-4999-b1c9-82bf61d0e64f"},"vehicle_type_id":"4","last_reported":1732288199,"current_range_meters":0,"station_id":"ce4bhph2rcd13ifvqhdg","pricing_plan_id":"cebpf4jnsgd1na2vs0mg"},{"bike_id":"4fe80ffc-4df8-4ae3-aa53-bb17cdd54e27","system_id":"levelo_inurba_marseille","lat":43.30137,"lon":5.37419,"is_reserved":false,"is_disabled":false,"rental_uris":{"android":"levelo://app?vid=4fe80ffc-4df8-4ae3-aa53-bb17cdd54e27","ios":"levelo://app?vid=4fe80ffc-4df8-4ae3-aa53-bb17cdd54e27"},"vehicle_type_id":"4","last_reported":1732288199,"current_range_meters":16400,"station_id":"ce4bgs92rcd13ifvqcc0","pricing_plan_id":"cebpf4jnsgd1na2vs0mg"},{"bike_id":"c379b22e-d0cb-4821-b46e-ab74802a5b8d","system_id":"levelo_inurba_marseille","lat":43.3123,"lon":5.36858,"is_reserved":false,"is_disabled":false,"rental_uris":{"android":"levelo://app?vid=c379b22e-d0cb-4821-b46e-ab74802a5b8d","ios":"levelo://app?vid=c379b22e-d0cb-4821-b46e-ab74802a5b8d"},"vehicle_type_id":"4","last_reported":1732288199,"current_range_meters":19200,"station_id":"ce4bgl92rcd13ifvqbq0","pricing_plan_id":"cebpf4jnsgd1na2vs0mg"},{"bike_id":"1547dcda-0e28-45e1-ad96-235e0d6b89f2","system_id":"levelo_inurba_marseille","lat":43.30466,"lon":5.37911,"is_reserved":false,"is_disabled":false,"rental_uris":{"android":"levelo://app?vid=1547dcda-0e28-45e1-ad96-235e0d6b89f2","ios":"levelo://app?vid=1547dcda-0e28-45e1-ad96-235e0d6b89f2"},"vehicle_type_id":"4","last_reported":1732288199,"current_range_meters":37600,"station_id":"ce4bgup2rcd13ifvqcn0","pricing_plan_id":"cebpf4jnsgd1na2vs0mg"},{"bike_id":"26cabe54-ec0e-47e4-b313-a9320e2dc516","system_id":"levelo_inurba_marseille","lat":43.27814,"lon":5.40716,"is_reserved":false,"is_disabled":false,"rental_uris":{"android":"levelo://app?vid=26cabe54-ec0e-47e4-b313-a9320e2dc516","ios":"levelo://app?vid=26cabe54-ec0e-47e4-b313-a9320e2dc516"},"vehicle_type_id":"4","last_reported":1732288199,"current_range_meters":36400,"station_id":"ce4bhnh2rcd13ifvqgtg","pricing_plan_id":"cebpf4jnsgd1na2vs0mg"},{"bike_id":"a2c19151-4188-4b6a-b7e8-07dd45b82ba1","system_id":"levelo_inurba_marseille","lat":43.32478,"lon":5.36583,"is_reserved":false,"is_disabled":false,"rental_uris":{"android":"levelo://app?vid=a2c19151-4188-4b6a-b7e8-07dd45b82ba1","ios":"levelo://app?vid=a2c19151-4188-4b6a-b7e8-07dd45b82ba1"},"vehicle_type_id":"4","last_reported":1732288199,"current_range_meters":20000,"station_id":"ce4bhs12rcd13ifvqhvg","pricing_plan_id":"cebpf4jnsgd1na2vs0mg"},{"bike_id":"e78fa47f-759a-46ae-af0e-d1e5601e3a40","system_id":"levelo_inurba_marseille","lat":43.30884,"lon":5.37204,"is_reserved":false,"is_disabled":false,"rental_uris":{"android":"levelo://app?vid=e78fa47f-759a-46ae-af0e-d1e5601e3a40","ios":"levelo://app?vid=e78fa47f-759a-46ae-af0e-d1e5601e3a40"},"vehicle_type_id":"4","last_reported":1732288199,"current_range_meters":38800,"station_id":"ce4bguh2rcd13ifvqckg","pricing_plan_id":"cebpf4jnsgd1na2vs0mg"},{"bike_id":"13b751d7-077d-4f29-8350-fc32ddaecb6a","system_id":"levelo_inurba_marseille","lat":43.26549,"lon":5.37289,"is_reserved":false,"is_disabled":false,"rental_uris":{"android":"levelo://app?vid=13b751d7-077d-4f29-8350-fc32ddaecb6a","ios":"levelo://app?vid=13b751d7-077d-4f29-8350-fc32ddaecb6a"},"vehicle_type_id":"4","last_reported":1732288199,"current_range_meters":38000,"station_id":"ce4bhg12rcd13ifvqf70","pricing_plan_id":"cebpf4jnsgd1na2vs0mg"},{"bike_id":"e5951ee3-4a5a-4ebb-b469-096c5188dfa3","system_id":"levelo_inurba_marseille","lat":43.23187,"lon":5.35555,"is_reserved":false,"is_disabled":false,"rental_uris":{"android":"levelo://app?vid=e5951ee3-4a5a-4ebb-b469-096c5188dfa3","ios":"levelo://app?vid=e5951ee3-4a5a-4ebb-b469-096c5188dfa3"},"vehicle_type_id":"4","last_reported":1732288199,"current_range_meters":28000,"station_id":"ce4bhu92rcd13ifvqi70","pricing_plan_id":"cebpf4jnsgd1na2vs0mg"},{"bike_id":"17a47c7e-cabb-487d-a215-0ab261176b47","system_id":"levelo_inurba_marseille","lat":43.28154,"lon":5.42651,"is_reserved":false,"is_disabled":true,"rental_uris":{"android":"levelo://app?vid=17a47c7e-cabb-487d-a215-0ab261176b47","ios":"levelo://app?vid=17a47c7e-cabb-487d-a215-0ab261176b47"},"vehicle_type_id":"4","last_reported":1732288199,"current_range_meters":800,"station_id":"ce4bhnh2rcd13ifvqgug","pricing_plan_id":"cebpf4jnsgd1na2vs0mg"},{"bike_id":"8d13985d-3bdf-49ab-9373-fe6216716dff","system_id":"levelo_inurba_marseille","lat":43.27438,"lon":5.39016,"is_reserved":false,"is_disabled":false,"rental_uris":{"android":"levelo://app?vid=8d13985d-3bdf-49ab-9373-fe6216716dff","ios":"levelo://app?vid=8d13985d-3bdf-49ab-9373-fe6216716dff"},"vehicle_type_id":"4","last_reported":1732288199,"current_range_meters":30000,"station_id":"","pricing_plan_id":"cebpf4jnsgd1na2vs0mg"},{"bike_id":"689f2c55-3a6e-45a9-813c-37b26e8b6c58","system_id":"levelo_inurba_marseille","lat":43.29918,"lon":5.37475,"is_reserved":false,"is_disabled":false,"rental_uris":{"android":"levelo://app?vid=689f2c55-3a6e-45a9-813c-37b26e8b6c58","ios":"levelo://app?vid=689f2c55-3a6e-45a9-813c-37b26e8b6c58"},"vehicle_type_id":"4","last_reported":1732288199,"current_range_meters":33600,"station_id":"ce4bgjh2rcd13ifvqbg0","pricing_plan_id":"cebpf4jnsgd1na2vs0mg"},{"bike_id":"598543c3-4504-4ea3-976e-b45e767de5ed","system_id":"levelo_inurba_marseille","lat":43.32358,"lon":5.38877,"is_reserved":false,"is_disabled":false,"rental_uris":{"android":"levelo://app?vid=598543c3-4504-4ea3-976e-b45e767de5ed","ios":"levelo://app?vid=598543c3-4504-4ea3-976e-b45e767de5ed"},"vehicle_type_id":"4","last_reported":1732288199,"current_range_meters":36000,"station_id":"ce4bhqp2rcd13ifvqhog","pricing_plan_id":"cebpf4jnsgd1na2vs0mg"},{"bike_id":"2314b88a-0b3e-4a78-950a-d4729ecfb5a5","system_id":"levelo_inurba_marseille","lat":43.295797,"lon":5.367434,"is_reserved":false,"is_disabled":false,"rental_uris":{"android":"levelo://app?vid=2314b88a-0b3e-4a78-950a-d4729ecfb5a5","ios":"levelo://app?vid=2314b88a-0b3e-4a78-950a-d4729ecfb5a5"},"vehicle_type_id":"4","last_reported":1732288199,"current_range_meters":22800,"station_id":"ce4bgph2rcd13ifvqc2g","pricing_plan_id":"cebpf4jnsgd1na2vs0mg"},{"bike_id":"44abef4f-7bb3-417f-9f17-632a234b6e5d","system_id":"levelo_inurba_marseille","lat":43.32109,"lon":5.3678,"is_reserved":false,"is_disabled":false,"rental_uris":{"android":"levelo://app?vid=44abef4f-7bb3-417f-9f17-632a234b6e5d","ios":"levelo://app?vid=44abef4f-7bb3-417f-9f17-632a234b6e5d"},"vehicle_type_id":"4","last_reported":1732288199,"current_range_meters":22800,"station_id":"ce4bhrh2rcd13ifvqhug","pricing_plan_id":"cebpf4jnsgd1na2vs0mg"},{"bike_id":"830ab6f1-9f97-4b81-a374-96032fba99d2","system_id":"levelo_inurba_marseille","lat":43.24469,"lon":5.36917,"is_reserved":false,"is_disabled":true,"rental_uris":{"android":"levelo://app?vid=830ab6f1-9f97-4b81-a374-96032fba99d2","ios":"levelo://app?vid=830ab6f1-9f97-4b81-a374-96032fba99d2"},"vehicle_type_id":"4","last_reported":1732288199,"current_range_meters":26000,"station_id":"","pricing_plan_id":"cebpf4jnsgd1na2vs0mg"},{"bike_id":"6c948e9c-d5b3-4fe5-a918-1bd2f7c83b02","system_id":"levelo_inurba_marseille","lat":43.32105,"lon":5.36785,"is_reserved":false,"is_disabled":false,"rental_uris":{"android":"levelo://app?vid=6c948e9c-d5b3-4fe5-a918-1bd2f7c83b02","ios":"levelo://app?vid=6c948e9c-d5b3-4fe5-a918-1bd2f7c83b02"},"vehicle_type_id":"4","last_reported":1732288199,"current_range_meters":37600,"station_id":"ce4bhrh2rcd13ifvqhug","pricing_plan_id":"cebpf4jnsgd1na2vs0mg"},{"bike_id":"9e620abf-d324-4f99-84fc-d67e71109f2a","system_id":"levelo_inurba_marseille","lat":43.31078,"lon":5.42428,"is_reserved":false,"is_disabled":true,"rental_uris":{"android":"levelo://app?vid=9e620abf-d324-4f99-84fc-d67e71109f2a","ios":"levelo://app?vid=9e620abf-d324-4f99-84fc-d67e71109f2a"},"vehicle_type_id":"4","last_reported":1732288199,"current_range_meters":3600,"station_id":"ce4bhp92rcd13ifvqhag","pricing_plan_id":"cebpf4jnsgd1na2vs0mg"},{"bike_id":"9388a7ff-9c5c-4c26-9899-39b2408cf7e3","system_id":"levelo_inurba_marseille","lat":43.31025,"lon":5.38342,"is_reserved":false,"is_disabled":true,"rental_uris":{"android":"levelo://app?vid=9388a7ff-9c5c-4c26-9899-39b2408cf7e3","ios":"levelo://app?vid=9388a7ff-9c5c-4c26-9899-39b2408cf7e3"},"vehicle_type_id":"4","last_reported":1732288199,"current_range_meters":0,"station_id":"","pricing_plan_id":"cebpf4jnsgd1na2vs0mg"},{"bike_id":"4e81cd8c-84c5-4e45-83bb-8f2e1aff5aaa","system_id":"levelo_inurba_marseille","lat":43.30426,"lon":5.38893,"is_reserved":false,"is_disabled":false,"rental_uris":{"android":"levelo://app?vid=4e81cd8c-84c5-4e45-83bb-8f2e1aff5aaa","ios":"levelo://app?vid=4e81cd8c-84c5-4e45-83bb-8f2e1aff5aaa"},"vehicle_type_id":"4","last_reported":1732288199,"current_range_meters":9600,"station_id":"ce4bgk12rcd13ifvqbi0","pricing_plan_id":"cebpf4jnsgd1na2vs0mg"},{"bike_id":"9d61fba0-d059-4c51-a538-664f3bc81691","system_id":"levelo_inurba_marseille","lat":43.27815,"lon":5.40723,"is_reserved":false,"is_disabled":false,"rental_uris":{"android":"levelo://app?vid=9d61fba0-d059-4c51-a538-664f3bc81691","ios":"levelo://app?vid=9d61fba0-d059-4c51-a538-664f3bc81691"},"vehicle_type_id":"4","last_reported":1732288199,"current_range_meters":28000,"station_id":"ce4bhnh2rcd13ifvqgtg","pricing_plan_id":"cebpf4jnsgd1na2vs0mg"},{"bike_id":"b22c2e27-8278-4704-a5ba-e868398ec547","system_id":"levelo_inurba_marseille","lat":43.29248,"lon":5.38452,"is_reserved":false,"is_disabled":false,"rental_uris":{"android":"levelo://app?vid=b22c2e27-8278-4704-a5ba-e868398ec547","ios":"levelo://app?vid=b22c2e27-8278-4704-a5ba-e868398ec547"},"vehicle_type_id":"4","last_reported":1732288199,"current_range_meters":38800,"station_id":"ce4bh692rcd13ifvqea0","pricing_plan_id":"cebpf4jnsgd1na2vs0mg"},{"bike_id":"5c53cfbd-2547-413a-b79a-f8cc3b1ca992","system_id":"levelo_inurba_marseille","lat":43.321145,"lon":5.367705,"is_reserved":false,"is_disabled":false,"rental_uris":{"android":"levelo://app?vid=5c53cfbd-2547-413a-b79a-f8cc3b1ca992","ios":"levelo://app?vid=5c53cfbd-2547-413a-b79a-f8cc3b1ca992"},"vehicle_type_id":"4","last_reported":1732288199,"current_range_meters":16000,"station_id":"ce4bhrh2rcd13ifvqhug","pricing_plan_id":"cebpf4jnsgd1na2vs0mg"},{"bike_id":"33bedd64-700b-4092-a67d-d980512e2898","system_id":"levelo_inurba_marseille","lat":43.29517,"lon":5.39404,"is_reserved":false,"is_disabled":true,"rental_uris":{"android":"levelo://app?vid=33bedd64-700b-4092-a67d-d980512e2898","ios":"levelo://app?vid=33bedd64-700b-4092-a67d-d980512e2898"},"vehicle_type_id":"4","last_reported":1732288199,"current_range_meters":0,"station_id":"ce4bh292rcd13ifvqdf0","pricing_plan_id":"cebpf4jnsgd1na2vs0mg"},{"bike_id":"5f4ac3cc-bda5-44b5-92f4-d0063a57d339","system_id":"levelo_inurba_marseille","lat":43.26221,"lon":5.3746,"is_reserved":false,"is_disabled":false,"rental_uris":{"android":"levelo://app?vid=5f4ac3cc-bda5-44b5-92f4-d0063a57d339","ios":"levelo://app?vid=5f4ac3cc-bda5-44b5-92f4-d0063a57d339"},"vehicle_type_id":"4","last_reported":1732288199,"current_range_meters":38000,"station_id":"ce4bhgp2rcd13ifvqfc0","pricing_plan_id":"cebpf4jnsgd1na2vs0mg"},{"bike_id":"3c757abc-635b-41bb-b092-63258ec55391","system_id":"levelo_inurba_marseille","lat":43.32105,"lon":5.36776,"is_reserved":false,"is_disabled":false,"rental_uris":{"android":"levelo://app?vid=3c757abc-635b-41bb-b092-63258ec55391","ios":"levelo://app?vid=3c757abc-635b-41bb-b092-63258ec55391"},"vehicle_type_id":"4","last_reported":1732288199,"current_range_meters":10800,"station_id":"ce4bhrh2rcd13ifvqhug","pricing_plan_id":"cebpf4jnsgd1na2vs0mg"},{"bike_id":"c39d2a6b-971a-4102-af38-404b98ad453d","system_id":"levelo_inurba_marseille","lat":43.29302,"lon":5.37178,"is_reserved":false,"is_disabled":false,"rental_uris":{"android":"levelo://app?vid=c39d2a6b-971a-4102-af38-404b98ad453d","ios":"levelo://app?vid=c39d2a6b-971a-4102-af38-404b98ad453d"},"vehicle_type_id":"4","last_reported":1732288199,"current_range_meters":23200,"station_id":"ce4bgh92rcd13ifvqb40","pricing_plan_id":"cebpf4jnsgd1na2vs0mg"},{"bike_id":"a8e9a662-4b79-4b79-a7b5-7929ca6a84fa","system_id":"levelo_inurba_marseille","lat":43.32536,"lon":5.41435,"is_reserved":false,"is_disabled":false,"rental_uris":{"android":"levelo://app?vid=a8e9a662-4b79-4b79-a7b5-7929ca6a84fa","ios":"levelo://app?vid=a8e9a662-4b79-4b79-a7b5-7929ca6a84fa"},"vehicle_type_id":"4","last_reported":1732288199,"current_range_meters":30000,"station_id":"ce4bhq12rcd13ifvqhhg","pricing_plan_id":"cebpf4jnsgd1na2vs0mg"},{"bike_id":"d371ba93-010c-4f34-acfc-d3b9ae74fe38","system_id":"levelo_inurba_marseille","lat":43.3088,"lon":5.39653,"is_reserved":false,"is_disabled":false,"rental_uris":{"android":"levelo://app?vid=d371ba93-010c-4f34-acfc-d3b9ae74fe38","ios":"levelo://app?vid=d371ba93-010c-4f34-acfc-d3b9ae74fe38"},"vehicle_type_id":"4","last_reported":1732288199,"current_range_meters":29600,"station_id":"ce4bh012rcd13ifvqcv0","pricing_plan_id":"cebpf4jnsgd1na2vs0mg"},{"bike_id":"2c34b105-3a22-4d9e-88d6-fa92fabceacd","system_id":"levelo_inurba_marseille","lat":43.28456,"lon":5.3589,"is_reserved":false,"is_disabled":false,"rental_uris":{"android":"levelo://app?vid=2c34b105-3a22-4d9e-88d6-fa92fabceacd","ios":"levelo://app?vid=2c34b105-3a22-4d9e-88d6-fa92fabceacd"},"vehicle_type_id":"4","last_reported":1732288199,"current_range_meters":36800,"station_id":"ce4bhah2rcd13ifvqei0","pricing_plan_id":"cebpf4jnsgd1na2vs0mg"},{"bike_id":"c81f1ac7-1082-4d15-9587-89d89cc2300f","system_id":"levelo_inurba_marseille","lat":43.31701,"lon":5.37734,"is_reserved":false,"is_disabled":false,"rental_uris":{"android":"levelo://app?vid=c81f1ac7-1082-4d15-9587-89d89cc2300f","ios":"levelo://app?vid=c81f1ac7-1082-4d15-9587-89d89cc2300f"},"vehicle_type_id":"4","last_reported":1732288199,"current_range_meters":38000,"station_id":"ce4bgth2rcd13ifvqch0","pricing_plan_id":"cebpf4jnsgd1na2vs0mg"},{"bike_id":"840c9792-0bf7-4b9c-9837-ec7b14329bed","system_id":"levelo_inurba_marseille","lat":43.27047,"lon":5.4027,"is_reserved":false,"is_disabled":false,"rental_uris":{"android":"levelo://app?vid=840c9792-0bf7-4b9c-9837-ec7b14329bed","ios":"levelo://app?vid=840c9792-0bf7-4b9c-9837-ec7b14329bed"},"vehicle_type_id":"4","last_reported":1732288199,"current_range_meters":36800,"station_id":"ce4bhk92rcd13ifvqgc0","pricing_plan_id":"cebpf4jnsgd1na2vs0mg"},{"bike_id":"89429ed2-f839-4749-bcb9-3e5230fe3bfb","system_id":"levelo_inurba_marseille","lat":43.3373,"lon":5.39186,"is_reserved":false,"is_disabled":false,"rental_uris":{"android":"levelo://app?vid=89429ed2-f839-4749-bcb9-3e5230fe3bfb","ios":"levelo://app?vid=89429ed2-f839-4749-bcb9-3e5230fe3bfb"},"vehicle_type_id":"4","last_reported":1732288199,"current_range_meters":37600,"station_id":"ce4bhr92rcd13ifvqhsg","pricing_plan_id":"cebpf4jnsgd1na2vs0mg"},{"bike_id":"690cad82-5451-4d16-9117-3f30baacd75d","system_id":"levelo_inurba_marseille","lat":43.30416,"lon":5.41288,"is_reserved":false,"is_disabled":false,"rental_uris":{"android":"levelo://app?vid=690cad82-5451-4d16-9117-3f30baacd75d","ios":"levelo://app?vid=690cad82-5451-4d16-9117-3f30baacd75d"},"vehicle_type_id":"4","last_reported":1732288199,"current_range_meters":12000,"station_id":"ce4bhop2rcd13ifvqh8g","pricing_plan_id":"cebpf4jnsgd1na2vs0mg"},{"bike_id":"8733f3dd-ff62-4397-921d-f3319423a200","system_id":"levelo_inurba_marseille","lat":43.27813,"lon":5.40717,"is_reserved":false,"is_disabled":false,"rental_uris":{"android":"levelo://app?vid=8733f3dd-ff62-4397-921d-f3319423a200","ios":"levelo://app?vid=8733f3dd-ff62-4397-921d-f3319423a200"},"vehicle_type_id":"4","last_reported":1732288199,"current_range_meters":4800,"station_id":"ce4bhnh2rcd13ifvqgtg","pricing_plan_id":"cebpf4jnsgd1na2vs0mg"},{"bike_id":"6965c515-9b58-41fc-be4e-6e6a11fe13d3","system_id":"levelo_inurba_marseille","lat":43.30902,"lon":5.36853,"is_reserved":false,"is_disabled":false,"rental_uris":{"android":"levelo://app?vid=6965c515-9b58-41fc-be4e-6e6a11fe13d3","ios":"levelo://app?vid=6965c515-9b58-41fc-be4e-6e6a11fe13d3"},"vehicle_type_id":"4","last_reported":1732288199,"current_range_meters":26800,"station_id":"ce4bgn92rcd13ifvqbvg","pricing_plan_id":"cebpf4jnsgd1na2vs0mg"},{"bike_id":"304ef428-9450-440f-a8db-1138e82ecbd5","system_id":"levelo_inurba_marseille","lat":43.25934,"lon":5.40906,"is_reserved":false,"is_disabled":false,"rental_uris":{"android":"levelo://app?vid=304ef428-9450-440f-a8db-1138e82ecbd5","ios":"levelo://app?vid=304ef428-9450-440f-a8db-1138e82ecbd5"},"vehicle_type_id":"4","last_reported":1732288199,"current_range_meters":35600,"station_id":"ce4bhm92rcd13ifvqglg","pricing_plan_id":"cebpf4jnsgd1na2vs0mg"},{"bike_id":"bd97536b-1c94-425f-84b1-bfe39ce7fe0b","system_id":"levelo_inurba_marseille","lat":43.29874,"lon":5.38908,"is_reserved":false,"is_disabled":false,"rental_uris":{"android":"levelo://app?vid=bd97536b-1c94-425f-84b1-bfe39ce7fe0b","ios":"levelo://app?vid=bd97536b-1c94-425f-84b1-bfe39ce7fe0b"},"vehicle_type_id":"4","last_reported":1732288199,"current_range_meters":8400,"station_id":"ce4bh392rcd13ifvqdl0","pricing_plan_id":"cebpf4jnsgd1na2vs0mg"},{"bike_id":"2f1ba38b-79f9-47cb-8765-ae7e86ec1fd9","system_id":"levelo_inurba_marseille","lat":43.26196,"lon":5.37455,"is_reserved":false,"is_disabled":false,"rental_uris":{"android":"levelo://app?vid=2f1ba38b-79f9-47cb-8765-ae7e86ec1fd9","ios":"levelo://app?vid=2f1ba38b-79f9-47cb-8765-ae7e86ec1fd9"},"vehicle_type_id":"4","last_reported":1732288199,"current_range_meters":24400,"station_id":"ce4bhgp2rcd13ifvqfc0","pricing_plan_id":"cebpf4jnsgd1na2vs0mg"},{"bike_id":"40191457-cce3-490d-a141-5a0449d2f1c2","system_id":"levelo_inurba_marseille","lat":43.30071,"lon":5.37456,"is_reserved":false,"is_disabled":false,"rental_uris":{"android":"levelo://app?vid=40191457-cce3-490d-a141-5a0449d2f1c2","ios":"levelo://app?vid=40191457-cce3-490d-a141-5a0449d2f1c2"},"vehicle_type_id":"4","last_reported":1732288199,"current_range_meters":22400,"station_id":"","pricing_plan_id":"cebpf4jnsgd1na2vs0mg"},{"bike_id":"a2f3eb58-8385-4dd0-9c1f-8bc45ba5c4a1","system_id":"levelo_inurba_marseille","lat":43.30883,"lon":5.3965,"is_reserved":false,"is_disabled":false,"rental_uris":{"android":"levelo://app?vid=a2f3eb58-8385-4dd0-9c1f-8bc45ba5c4a1","ios":"levelo://app?vid=a2f3eb58-8385-4dd0-9c1f-8bc45ba5c4a1"},"vehicle_type_id":"4","last_reported":1732288199,"current_range_meters":27600,"station_id":"ce4bh012rcd13ifvqcv0","pricing_plan_id":"cebpf4jnsgd1na2vs0mg"},{"bike_id":"7770b1cc-2a54-4d08-8255-6bed2fc397aa","system_id":"levelo_inurba_marseille","lat":43.231942,"lon":5.355468,"is_reserved":false,"is_disabled":false,"rental_uris":{"android":"levelo://app?vid=7770b1cc-2a54-4d08-8255-6bed2fc397aa","ios":"levelo://app?vid=7770b1cc-2a54-4d08-8255-6bed2fc397aa"},"vehicle_type_id":"4","last_reported":1732288199,"current_range_meters":9600,"station_id":"ce4bhu92rcd13ifvqi70","pricing_plan_id":"cebpf4jnsgd1na2vs0mg"},{"bike_id":"e397b035-09df-4dd9-869c-705b86271e7b","system_id":"levelo_inurba_marseille","lat":43.30544,"lon":5.36542,"is_reserved":false,"is_disabled":false,"rental_uris":{"android":"levelo://app?vid=e397b035-09df-4dd9-869c-705b86271e7b","ios":"levelo://app?vid=e397b035-09df-4dd9-869c-705b86271e7b"},"vehicle_type_id":"4","last_reported":1732288199,"current_range_meters":24800,"station_id":"ce4bgs12rcd13ifvqcag","pricing_plan_id":"cebpf4jnsgd1na2vs0mg"},{"bike_id":"832e4346-5181-4bbd-9941-7a45a180a4c4","system_id":"levelo_inurba_marseille","lat":43.24543,"lon":5.39527,"is_reserved":false,"is_disabled":true,"rental_uris":{"android":"levelo://app?vid=832e4346-5181-4bbd-9941-7a45a180a4c4","ios":"levelo://app?vid=832e4346-5181-4bbd-9941-7a45a180a4c4"},"vehicle_type_id":"4","last_reported":1732288199,"current_range_meters":1200,"station_id":"ce4bhlp2rcd13ifvqgjg","pricing_plan_id":"cebpf4jnsgd1na2vs0mg"},{"bike_id":"fdaf890b-328d-4c6c-b370-bc14721c2873","system_id":"levelo_inurba_marseille","lat":43.25818,"lon":5.39435,"is_reserved":false,"is_disabled":true,"rental_uris":{"android":"levelo://app?vid=fdaf890b-328d-4c6c-b370-bc14721c2873","ios":"levelo://app?vid=fdaf890b-328d-4c6c-b370-bc14721c2873"},"vehicle_type_id":"4","last_reported":1732288199,"current_range_meters":0,"station_id":"ce4bhip2rcd13ifvqft0","pricing_plan_id":"cebpf4jnsgd1na2vs0mg"},{"bike_id":"1ab4519b-c1c8-47d5-bca5-e407b78cd414","system_id":"levelo_inurba_marseille","lat":43.31997,"lon":5.38161,"is_reserved":false,"is_disabled":false,"rental_uris":{"android":"levelo://app?vid=1ab4519b-c1c8-47d5-bca5-e407b78cd414","ios":"levelo://app?vid=1ab4519b-c1c8-47d5-bca5-e407b78cd414"},"vehicle_type_id":"4","last_reported":1732288199,"current_range_meters":22000,"station_id":"ce4bhr12rcd13ifvqhpg","pricing_plan_id":"cebpf4jnsgd1na2vs0mg"},{"bike_id":"6c224183-e622-461d-8216-58bdc68bb4b1","system_id":"levelo_inurba_marseille","lat":43.32478,"lon":5.36575,"is_reserved":false,"is_disabled":false,"rental_uris":{"android":"levelo://app?vid=6c224183-e622-461d-8216-58bdc68bb4b1","ios":"levelo://app?vid=6c224183-e622-461d-8216-58bdc68bb4b1"},"vehicle_type_id":"4","last_reported":1732288199,"current_range_meters":29600,"station_id":"ce4bhs12rcd13ifvqhvg","pricing_plan_id":"cebpf4jnsgd1na2vs0mg"},{"bike_id":"aa6abcb4-0823-4afd-b830-3bba30c612d6","system_id":"levelo_inurba_marseille","lat":43.24808,"lon":5.37456,"is_reserved":false,"is_disabled":false,"rental_uris":{"android":"levelo://app?vid=aa6abcb4-0823-4afd-b830-3bba30c612d6","ios":"levelo://app?vid=aa6abcb4-0823-4afd-b830-3bba30c612d6"},"vehicle_type_id":"4","last_reported":1732288199,"current_range_meters":16000,"station_id":"ce4bhgh2rcd13ifvqfb0","pricing_plan_id":"cebpf4jnsgd1na2vs0mg"},{"bike_id":"b7f641a2-eff0-4247-b0d3-5e3dabf3eb69","system_id":"levelo_inurba_marseille","lat":43.28693,"lon":5.374,"is_reserved":false,"is_disabled":false,"rental_uris":{"android":"levelo://app?vid=b7f641a2-eff0-4247-b0d3-5e3dabf3eb69","ios":"levelo://app?vid=b7f641a2-eff0-4247-b0d3-5e3dabf3eb69"},"vehicle_type_id":"4","last_reported":1732288199,"current_range_meters":4800,"station_id":"ce4bh3p2rcd13ifvqdq0","pricing_plan_id":"cebpf4jnsgd1na2vs0mg"},{"bike_id":"55247e37-6e06-459c-8a4a-47b95df36ca7","system_id":"levelo_inurba_marseille","lat":43.27807,"lon":5.40714,"is_reserved":false,"is_disabled":false,"rental_uris":{"android":"levelo://app?vid=55247e37-6e06-459c-8a4a-47b95df36ca7","ios":"levelo://app?vid=55247e37-6e06-459c-8a4a-47b95df36ca7"},"vehicle_type_id":"4","last_reported":1732288199,"current_range_meters":30400,"station_id":"ce4bhnh2rcd13ifvqgtg","pricing_plan_id":"cebpf4jnsgd1na2vs0mg"},{"bike_id":"df2a42f5-e243-427f-9281-755e36930583","system_id":"levelo_inurba_marseille","lat":43.27203,"lon":5.3919,"is_reserved":false,"is_disabled":false,"rental_uris":{"android":"levelo://app?vid=df2a42f5-e243-427f-9281-755e36930583","ios":"levelo://app?vid=df2a42f5-e243-427f-9281-755e36930583"},"vehicle_type_id":"4","last_reported":1732288199,"current_range_meters":8800,"station_id":"ce4bhlp2rcd13ifvqgjg","pricing_plan_id":"cebpf4jnsgd1na2vs0mg"},{"bike_id":"81ec72ed-62e3-4550-9b74-c43570df667f","system_id":"levelo_inurba_marseille","lat":43.29965,"lon":5.38503,"is_reserved":false,"is_disabled":false,"rental_uris":{"android":"levelo://app?vid=81ec72ed-62e3-4550-9b74-c43570df667f","ios":"levelo://app?vid=81ec72ed-62e3-4550-9b74-c43570df667f"},"vehicle_type_id":"4","last_reported":1732288199,"current_range_meters":8000,"station_id":"ce4bgj92rcd13ifvqbd0","pricing_plan_id":"cebpf4jnsgd1na2vs0mg"},{"bike_id":"62cb9772-be06-4cc9-9f01-80ae721d2724","system_id":"levelo_inurba_marseille","lat":43.30902,"lon":5.40336,"is_reserved":false,"is_disabled":false,"rental_uris":{"android":"levelo://app?vid=62cb9772-be06-4cc9-9f01-80ae721d2724","ios":"levelo://app?vid=62cb9772-be06-4cc9-9f01-80ae721d2724"},"vehicle_type_id":"4","last_reported":1732288199,"current_range_meters":16800,"station_id":"ce4bh092rcd13ifvqd20","pricing_plan_id":"cebpf4jnsgd1na2vs0mg"},{"bike_id":"9859dc09-1ecd-4745-ba06-9778fc2bc8ed","system_id":"levelo_inurba_marseille","lat":43.2826,"lon":5.35073,"is_reserved":false,"is_disabled":false,"rental_uris":{"android":"levelo://app?vid=9859dc09-1ecd-4745-ba06-9778fc2bc8ed","ios":"levelo://app?vid=9859dc09-1ecd-4745-ba06-9778fc2bc8ed"},"vehicle_type_id":"4","last_reported":1732288199,"current_range_meters":38800,"station_id":"ce4bhbp2rcd13ifvqerg","pricing_plan_id":"cebpf4jnsgd1na2vs0mg"},{"bike_id":"ae89fa91-47cb-48a3-a6e2-358ac1009ba6","system_id":"levelo_inurba_marseille","lat":43.25825,"lon":5.39438,"is_reserved":false,"is_disabled":false,"rental_uris":{"android":"levelo://app?vid=ae89fa91-47cb-48a3-a6e2-358ac1009ba6","ios":"levelo://app?vid=ae89fa91-47cb-48a3-a6e2-358ac1009ba6"},"vehicle_type_id":"4","last_reported":1732288199,"current_range_meters":8800,"station_id":"ce4bhip2rcd13ifvqft0","pricing_plan_id":"cebpf4jnsgd1na2vs0mg"},{"bike_id":"21ed0db4-f669-45a2-952c-046b3a24a5af","system_id":"levelo_inurba_marseille","lat":43.27806,"lon":5.40727,"is_reserved":false,"is_disabled":false,"rental_uris":{"android":"levelo://app?vid=21ed0db4-f669-45a2-952c-046b3a24a5af","ios":"levelo://app?vid=21ed0db4-f669-45a2-952c-046b3a24a5af"},"vehicle_type_id":"4","last_reported":1732288199,"current_range_meters":27200,"station_id":"ce4bhnh2rcd13ifvqgtg","pricing_plan_id":"cebpf4jnsgd1na2vs0mg"},{"bike_id":"9450e3c0-b4ee-4aee-9a2b-95d9b2d7eed6","system_id":"levelo_inurba_marseille","lat":43.28413,"lon":5.34987,"is_reserved":false,"is_disabled":false,"rental_uris":{"android":"levelo://app?vid=9450e3c0-b4ee-4aee-9a2b-95d9b2d7eed6","ios":"levelo://app?vid=9450e3c0-b4ee-4aee-9a2b-95d9b2d7eed6"},"vehicle_type_id":"4","last_reported":1732288199,"current_range_meters":23200,"station_id":"ce4bhbh2rcd13ifvqepg","pricing_plan_id":"cebpf4jnsgd1na2vs0mg"},{"bike_id":"158d3528-c557-41f0-97d6-08927d630f53","system_id":"levelo_inurba_marseille","lat":43.24081,"lon":5.37755,"is_reserved":false,"is_disabled":false,"rental_uris":{"android":"levelo://app?vid=158d3528-c557-41f0-97d6-08927d630f53","ios":"levelo://app?vid=158d3528-c557-41f0-97d6-08927d630f53"},"vehicle_type_id":"4","last_reported":1732288199,"current_range_meters":16400,"station_id":"ce4bhnp2rcd13ifvqgvg","pricing_plan_id":"cebpf4jnsgd1na2vs0mg"},{"bike_id":"58b6c41f-8e31-490c-8228-32531c9e4dbd","system_id":"levelo_inurba_marseille","lat":43.29913,"lon":5.37476,"is_reserved":false,"is_disabled":false,"rental_uris":{"android":"levelo://app?vid=58b6c41f-8e31-490c-8228-32531c9e4dbd","ios":"levelo://app?vid=58b6c41f-8e31-490c-8228-32531c9e4dbd"},"vehicle_type_id":"4","last_reported":1732288199,"current_range_meters":38000,"station_id":"ce4bgjh2rcd13ifvqbg0","pricing_plan_id":"cebpf4jnsgd1na2vs0mg"},{"bike_id":"2b806095-dd5d-4c98-bf23-a2fda8dd3be6","system_id":"levelo_inurba_marseille","lat":43.25006,"lon":5.38934,"is_reserved":false,"is_disabled":false,"rental_uris":{"android":"levelo://app?vid=2b806095-dd5d-4c98-bf23-a2fda8dd3be6","ios":"levelo://app?vid=2b806095-dd5d-4c98-bf23-a2fda8dd3be6"},"vehicle_type_id":"4","last_reported":1732288199,"current_range_meters":38800,"station_id":"ce4bhgp2rcd13ifvqfd0","pricing_plan_id":"cebpf4jnsgd1na2vs0mg"},{"bike_id":"e2250792-03ed-4dd8-abff-7ce782e1cc6e","system_id":"levelo_inurba_marseille","lat":43.33756,"lon":5.37457,"is_reserved":false,"is_disabled":false,"rental_uris":{"android":"levelo://app?vid=e2250792-03ed-4dd8-abff-7ce782e1cc6e","ios":"levelo://app?vid=e2250792-03ed-4dd8-abff-7ce782e1cc6e"},"vehicle_type_id":"4","last_reported":1732288199,"current_range_meters":25600,"station_id":"","pricing_plan_id":"cebpf4jnsgd1na2vs0mg"},{"bike_id":"9044f75c-15b5-4f34-bbd2-226c9f41adac","system_id":"levelo_inurba_marseille","lat":43.27608,"lon":5.36116,"is_reserved":false,"is_disabled":true,"rental_uris":{"android":"levelo://app?vid=9044f75c-15b5-4f34-bbd2-226c9f41adac","ios":"levelo://app?vid=9044f75c-15b5-4f34-bbd2-226c9f41adac"},"vehicle_type_id":"4","last_reported":1732288199,"current_range_meters":17200,"station_id":"ce4bgj92rcd13ifvqbe0","pricing_plan_id":"cebpf4jnsgd1na2vs0mg"},{"bike_id":"8b7085b6-bc41-4a45-a35d-444d2169c7cd","system_id":"levelo_inurba_marseille","lat":43.33753,"lon":5.37453,"is_reserved":false,"is_disabled":false,"rental_uris":{"android":"levelo://app?vid=8b7085b6-bc41-4a45-a35d-444d2169c7cd","ios":"levelo://app?vid=8b7085b6-bc41-4a45-a35d-444d2169c7cd"},"vehicle_type_id":"4","last_reported":1732288199,"current_range_meters":19600,"station_id":"","pricing_plan_id":"cebpf4jnsgd1na2vs0mg"},{"bike_id":"d5f7ffee-2929-438e-adcd-57483b3e9b6b","system_id":"levelo_inurba_marseille","lat":43.28932,"lon":5.36652,"is_reserved":false,"is_disabled":false,"rental_uris":{"android":"levelo://app?vid=d5f7ffee-2929-438e-adcd-57483b3e9b6b","ios":"levelo://app?vid=d5f7ffee-2929-438e-adcd-57483b3e9b6b"},"vehicle_type_id":"4","last_reported":1732288199,"current_range_meters":38000,"station_id":"ce4bhap2rcd13ifvqek0","pricing_plan_id":"cebpf4jnsgd1na2vs0mg"},