{"last_updated":1726603769,"ttl":30,"version":"2.2","data":{"bikes":[{"bike_id":"d8a7bbae-3d0e-457c-8e82-e6128d956f4d","system_id":"levelo_inurba_marseille","lat":43.27511,"lon":5.4246,"is_reserved":false,"is_disabled":false,"rental_uris":{"android":"levelo://app?vid=d8a7bbae-3d0e-457c-8e82-e6128d956f4d","ios":"levelo://app?vid=d8a7bbae-3d0e-457c-8e82-e6128d956f4d"},"vehicle_type_id":"4","last_reported":1726603769,"current_range_meters":10000,"station_id":"ce4bhn92rcd13ifvqgrg","pricing_plan_id":"cebpf4jnsgd1na2vs0mg"},{"bike_id":"65712b9a-28c5-4e00-ab3a-ec23b0f45f3c","system_id":"levelo_inurba_marseille","lat":43.27942,"lon":5.41049,"is_reserved":false,"is_disabled":false,"rental_uris":{"android":"levelo://app?vid=65712b9a-28c5-4e00-ab3a-ec23b0f45f3c","ios":"levelo://app?vid=65712b9a-28c5-4e00-ab3a-ec23b0f45f3c"},"vehicle_type_id":"4","last_reported":1726603769,"current_range_meters":8000,"station_id":"ce4bhnp2rcd13ifvqh0g","pricing_plan_id":"cebpf4jnsgd1na2vs0mg"},{"bike_id":"b47519d6-37f9-4853-a91a-eb691d0c56d6","system_id":"levelo_inurba_marseille","lat":43.269684,"lon":5.421868,"is_reserved":false,"is_disabled":false,"rental_uris":{"android":"levelo://app?vid=b47519d6-37f9-4853-a91a-eb691d0c56d6","ios":"levelo://app?vid=b47519d6-37f9-4853-a91a-eb691d0c56d6"},"vehicle_type_id":"4","last_reported":1726603769,"current_range_meters":22800,"station_id":"ce4bhk92rcd13ifvqgb0","pricing_plan_id":"cebpf4jnsgd1na2vs0mg"},{"bike_id":"107e4aee-ad14-46b2-a454-362a4fded6a1","system_id":"levelo_inurba_marseille","lat":43.28083,"lon":5.39659,"is_reserved":false,"is_disabled":false,"rental_uris":{"android":"levelo://app?vid=107e4aee-ad14-46b2-a454-362a4fded6a1","ios":"levelo://app?vid=107e4aee-ad14-46b2-a454-362a4fded6a1"},"vehicle_type_id":"4","last_reported":1726603769,"current_range_meters":34000,"station_id":"ce4bho12rcd13ifvqh2g","pricing_plan_id":"cebpf4jnsgd1na2vs0mg"},{"bike_id":"43176770-eaee-4996-86c7-d408161e4ce6","system_id":"levelo_inurba_marseille","lat":43.29896,"lon":5.43665,"is_reserved":false,"is_disabled":false,"rental_uris":{"android":"levelo://app?vid=43176770-eaee-4996-86c7-d408161e4ce6","ios":"levelo://app?vid=43176770-eaee-4996-86c7-d408161e4ce6"},"vehicle_type_id":"4","last_reported":1726603769,"current_range_meters":38800,"station_id":"ce4bhpp2rcd13ifvqhfg","pricing_plan_id":"cebpf4jnsgd1na2vs0mg"},{"bike_id":"98dbbabc-9f8d-44e6-86dd-2ae0464166df","system_id":"levelo_inurba_marseille","lat":43.3133,"lon":5.39704,"is_reserved":false,"is_disabled":false,"rental_uris":{"android":"levelo://app?vid=98dbbabc-9f8d-44e6-86dd-2ae0464166df","ios":"levelo://app?vid=98dbbabc-9f8d-44e6-86dd-2ae0464166df"},"vehicle_type_id":"4","last_reported":1726603769,"current_range_meters":39200,"station_id":"ce4bgvp2rcd13ifvqcu0","pricing_plan_id":"cebpf4jnsgd1na2vs0mg"},{"bike_id":"7d3f0122-d2f2-480e-bb1c-9741d43c8a79","system_id":"levelo_inurba_marseille","lat":43.28025,"lon":5.36954,"is_reserved":false,"is_disabled":false,"rental_uris":{"android":"levelo://app?vid=7d3f0122-d2f2-480e-bb1c-9741d43c8a79","ios":"levelo://app?vid=7d3f0122-d2f2-480e-bb1c-9741d43c8a79"},"vehicle_type_id":"4","last_reported":1726603769,"current_range_meters":38800,"station_id":"ce4bha12rcd13ifvqef0","pricing_plan_id":"cebpf4jnsgd1na2vs0mg"},{"bike_id":"017ad941-2bc7-4c23-aa10-a9af1a423d28","system_id":"levelo_inurba_marseille","lat":43.33028,"lon":5.39044,"is_reserved":false,"is_disabled":false,"rental_uris":{"android":"levelo://app?vid=017ad941-2bc7-4c23-aa10-a9af1a423d28","ios":"levelo://app?vid=017ad941-2bc7-4c23-aa10-a9af1a423d28"},"vehicle_type_id":"4","last_reported":1726603769,"current_range_meters":14800,"station_id":"ce4bhr92rcd13ifvqhrg","pricing_plan_id":"cebpf4jnsgd1na2vs0mg"},{"bike_id":"b679e135-2e71-4d04-938c-7a569bd0801a","system_id":"levelo_inurba_marseille","lat":43.27072,"lon":5.42283,"is_reserved":false,"is_disabled":false,"rental_uris":{"android":"levelo://app?vid=b679e135-2e71-4d04-938c-7a569bd0801a","ios":"levelo://app?vid=b679e135-2e71-4d04-938c-7a569bd0801a"},"vehicle_type_id":"4","last_reported":1726603769,"current_range_meters":33600,"station_id":"ce4bhk92rcd13ifvqgb0","pricing_plan_id":"cebpf4jnsgd1na2vs0mg"},{"bike_id":"c0fb0485-2f0f-46e4-b423-6aa86590efb8","system_id":"levelo_inurba_marseille","lat":43.27059,"lon":5.40262,"is_reserved":false,"is_disabled":false,"rental_uris":{"android":"levelo://app?vid=c0fb0485-2f0f-46e4-b423-6aa86590efb8","ios":"levelo://app?vid=c0fb0485-2f0f-46e4-b423-6aa86590efb8"},"vehicle_type_id":"4","last_reported":1726603769,"current_range_meters":16000,"station_id":"ce4bhk92rcd13ifvqgc0","pricing_plan_id":"cebpf4jnsgd1na2vs0mg"},{"bike_id":"0821efe0-9ae8-493d-8128-9ec7cc7b9d1f","system_id":"levelo_inurba_marseille","lat":43.32333,"lon":5.40623,"is_reserved":false,"is_disabled":false,"rental_uris":{"android":"levelo://app?vid=0821efe0-9ae8-493d-8128-9ec7cc7b9d1f","ios":"levelo://app?vid=0821efe0-9ae8-493d-8128-9ec7cc7b9d1f"},"vehicle_type_id":"4","last_reported":1726603769,"current_range_meters":28000,"station_id":"ce4bhq92rcd13ifvqhjg","pricing_plan_id":"cebpf4jnsgd1na2vs0mg"},{"bike_id":"bf2f4e0c-cd5c-4276-8f8a-e0f8f1a0a3db","system_id":"levelo_inurba_marseille","lat":43.29631,"lon":5.40599,"is_reserved":false,"is_disabled":false,"rental_uris":{"android":"levelo://app?vid=bf2f4e0c-cd5c-4276-8f8a-e0f8f1a0a3db","ios":"levelo://app?vid=bf2f4e0c-cd5c-4276-8f8a-e0f8f1a0a3db"},"vehicle_type_id":"4","last_reported":1726603769,"current_range_meters":38800,"station_id":"ce4bh0h2rcd13ifvqd60","pricing_plan_id":"cebpf4jnsgd1na2vs0mg"},{"bike_id":"7dc24929-a49f-4306-8c33-0510d66e7e2d","system_id":"levelo_inurba_marseille","lat":43.29313,"lon":5.3718,"is_reserved":false,"is_disabled":false,"rental_uris":{"android":"levelo://app?vid=7dc24929-a49f-4306-8c33-0510d66e7e2d","ios":"levelo://app?vid=7dc24929-a49f-4306-8c33-0510d66e7e2d"},"vehicle_type_id":"4","last_reported":1726603769,"current_range_meters":12400,"station_id":"ce4bgh92rcd13ifvqb40","pricing_plan_id":"cebpf4jnsgd1na2vs0mg"},{"bike_id":"237e8bb1-7b46-47f8-9e45-c37ec803f20b","system_id":"levelo_inurba_marseille","lat":43.29621,"lon":5.37146,"is_reserved":false,"is_disabled":false,"rental_uris":{"android":"levelo://app?vid=237e8bb1-7b46-47f8-9e45-c37ec803f20b","ios":"levelo://app?vid=237e8bb1-7b46-47f8-9e45-c37ec803f20b"},"vehicle_type_id":"4","last_reported":1726603769,"current_range_meters":26800,"station_id":"ce4bgnh2rcd13ifvqc0g","pricing_plan_id":"cebpf4jnsgd1na2vs0mg"},{"bike_id":"04802112-1398-447a-bc2d-b87684325f30","system_id":"levelo_inurba_marseille","lat":43.27067,"lon":5.42279,"is_reserved":false,"is_disabled":false,"rental_uris":{"android":"levelo://app?vid=04802112-1398-447a-bc2d-b87684325f30","ios":"levelo://app?vid=04802112-1398-447a-bc2d-b87684325f30"},"vehicle_type_id":"4","last_reported":1726603769,"current_range_meters":26800,"station_id":"ce4bhk92rcd13ifvqgb0","pricing_plan_id":"cebpf4jnsgd1na2vs0mg"},{"bike_id":"e5324e86-752d-4b90-9b71-e4acf8c1da5d","system_id":"levelo_inurba_marseille","lat":43.28941,"lon":5.36385,"is_reserved":false,"is_disabled":false,"rental_uris":{"android":"levelo://app?vid=e5324e86-752d-4b90-9b71-e4acf8c1da5d","ios":"levelo://app?vid=e5324e86-752d-4b90-9b71-e4acf8c1da5d"},"vehicle_type_id":"4","last_reported":1726603769,"current_range_meters":36800,"station_id":"ce4bhc92rcd13ifvqetg","pricing_plan_id":"cebpf4jnsgd1na2vs0mg"},{"bike_id":"36587967-1e79-47c3-ba21-dd6bfe64ec87","system_id":"levelo_inurba_marseille","lat":43.3237,"lon":5.38882,"is_reserved":false,"is_disabled":false,"rental_uris":{"android":"levelo://app?vid=36587967-1e79-47c3-ba21-dd6bfe64ec87","ios":"levelo://app?vid=36587967-1e79-47c3-ba21-dd6bfe64ec87"},"vehicle_type_id":"4","last_reported":1726603769,"current_range_meters":13600,"station_id":"ce4bhqp2rcd13ifvqhog","pricing_plan_id":"cebpf4jnsgd1na2vs0mg"},{"bike_id":"c9bfc159-e0f4-4abf-9ed8-6a2754504468","system_id":"levelo_inurba_marseille","lat":43.3136,"lon":5.3849,"is_reserved":false,"is_disabled":false,"rental_uris":{"android":"levelo://app?vid=c9bfc159-e0f4-4abf-9ed8-6a2754504468","ios":"levelo://app?vid=c9bfc159-e0f4-4abf-9ed8-6a2754504468"},"vehicle_type_id":"4","last_reported":1726603769,"current_range_meters":27200,"station_id":"ce4bgt92rcd13ifvqcf0","pricing_plan_id":"cebpf4jnsgd1na2vs0mg"},{"bike_id":"48e813ad-be66-4827-b05a-937b7ffce9b7","system_id":"levelo_inurba_marseille","lat":43.28844,"lon":5.35846,"is_reserved":false,"is_disabled":false,"rental_uris":{"android":"levelo://app?vid=48e813ad-be66-4827-b05a-937b7ffce9b7","ios":"levelo://app?vid=48e813ad-be66-4827-b05a-937b7ffce9b7"},"vehicle_type_id":"4","last_reported":1726603769,"current_range_meters":2800,"station_id":"ce4bhb12rcd13ifvqem0","pricing_plan_id":"cebpf4jnsgd1na2vs0mg"},{"bike_id":"103a716b-dbc7-4e49-a7f2-16e378e92b85","system_id":"levelo_inurba_marseille","lat":43.22925,"lon":5.35376,"is_reserved":false,"is_disabled":false,"rental_uris":{"android":"levelo://app?vid=103a716b-dbc7-4e49-a7f2-16e378e92b85","ios":"levelo://app?vid=103a716b-dbc7-4e49-a7f2-16e378e92b85"},"vehicle_type_id":"4","last_reported":1726603769,"current_range_meters":28400,"station_id":"cpo3532slgdg3j2ikp40","pricing_plan_id":"cebpf4jnsgd1na2vs0mg"},{"bike_id":"fd65288c-5a6e-41e3-9409-1a0484577bf1","system_id":"levelo_inurba_marseille","lat":43.29631,"lon":5.40603,"is_reserved":false,"is_disabled":false,"rental_uris":{"android":"levelo://app?vid=fd65288c-5a6e-41e3-9409-1a0484577bf1","ios":"levelo://app?vid=fd65288c-5a6e-41e3-9409-1a0484577bf1"},"vehicle_type_id":"4","last_reported":1726603769,"current_range_meters":27200,"station_id":"ce4bh0h2rcd13ifvqd60","pricing_plan_id":"cebpf4jnsgd1na2vs0mg"},{"bike_id":"8043d702-42a5-4215-848a-8c7838ed1702","system_id":"levelo_inurba_marseille","lat":43.32287,"lon":5.38263,"is_reserved":false,"is_disabled":false,"rental_uris":{"android":"levelo://app?vid=8043d702-42a5-4215-848a-8c7838ed1702","ios":"levelo://app?vid=8043d702-42a5-4215-848a-8c7838ed1702"},"vehicle_type_id":"4","last_reported":1726603769,"current_range_meters":26800,"station_id":"ce4bhr12rcd13ifvqhqg","pricing_plan_id":"cebpf4jnsgd1na2vs0mg"},{"bike_id":"36ff1673-e996-4918-8958-9ffc564ae753","system_id":"levelo_inurba_marseille","lat":43.29264,"lon":5.40911,"is_reserved":false,"is_disabled":false,"rental_uris":{"android":"levelo://app?vid=36ff1673-e996-4918-8958-9ffc564ae753","ios":"levelo://app?vid=36ff1673-e996-4918-8958-9ffc564ae753"},"vehicle_type_id":"4","last_reported":1726603769,"current_range_meters":38800,"station_id":"ce4bh192rcd13ifvqdc0","pricing_plan_id":"cebpf4jnsgd1na2vs0mg"},{"bike_id":"3427fbf2-6c72-4196-85b8-e1fb3f089f44","system_id":"levelo_inurba_marseille","lat":43.29256,"lon":5.38457,"is_reserved":false,"is_disabled":false,"rental_uris":{"android":"levelo://app?vid=3427fbf2-6c72-4196-85b8-e1fb3f089f44","ios":"levelo://app?vid=3427fbf2-6c72-4196-85b8-e1fb3f089f44"},"vehicle_type_id":"4","last_reported":1726603769,"current_range_meters":25200,"station_id":"ce4bh692rcd13ifvqea0","pricing_plan_id":"cebpf4jnsgd1na2vs0mg"},{"bike_id":"7b1be020-a90f-4f1f-b544-732190d38034","system_id":"levelo_inurba_marseille","lat":43.29664,"lon":5.37951,"is_reserved":false,"is_disabled":false,"rental_uris":{"android":"levelo://app?vid=7b1be020-a90f-4f1f-b544-732190d38034","ios":"levelo://app?vid=7b1be020-a90f-4f1f-b544-732190d38034"},"vehicle_type_id":"4","last_reported":1726603769,"current_range_meters":28000,"station_id":"","pricing_plan_id":"cebpf4jnsgd1na2vs0mg"},{"bike_id":"8cd1ebf6-516f-4fde-a105-5984b51f5363","system_id":"levelo_inurba_marseille","lat":43.28703,"lon":5.39988,"is_reserved":false,"is_disabled":false,"rental_uris":{"android":"levelo://app?vid=8cd1ebf6-516f-4fde-a105-5984b51f5363","ios":"levelo://app?vid=8cd1ebf6-516f-4fde-a105-5984b51f5363"},"vehicle_type_id":"4","last_reported":1726603769,"current_range_meters":36800,"station_id":"ce4bho92rcd13ifvqh3g","pricing_plan_id":"cebpf4jnsgd1na2vs0mg"},{"bike_id":"2a5808e5-1612-4dc1-a62b-b9c71459256c","system_id":"levelo_inurba_marseille","lat":43.34083,"lon":5.39106,"is_reserved":false,"is_disabled":false,"rental_uris":{"android":"levelo://app?vid=2a5808e5-1612-4dc1-a62b-b9c71459256c","ios":"levelo://app?vid=2a5808e5-1612-4dc1-a62b-b9c71459256c"},"vehicle_type_id":"4","last_reported":1726603769,"current_range_meters":8800,"station_id":"","pricing_plan_id":"cebpf4jnsgd1na2vs0mg"},{"bike_id":"9def4d63-7cec-4ef3-bac5-883bf42519e2","system_id":"levelo_inurba_marseille","lat":43.28455,"lon":5.35906,"is_reserved":false,"is_disabled":false,"rental_uris":{"android":"levelo://app?vid=9def4d63-7cec-4ef3-bac5-883bf42519e2","ios":"levelo://app?vid=9def4d63-7cec-4ef3-bac5-883bf42519e2"},"vehicle_type_id":"4","last_reported":1726603769,"current_range_meters":16000,"station_id":"ce4bhah2rcd13ifvqei0","pricing_plan_id":"cebpf4jnsgd1na2vs0mg"},{"bike_id":"69fabb06-4e65-4b54-9c62-ea4ce601487a","system_id":"levelo_inurba_marseille","lat":43.32287,"lon":5.38268,"is_reserved":false,"is_disabled":false,"rental_uris":{"android":"levelo://app?vid=69fabb06-4e65-4b54-9c62-ea4ce601487a","ios":"levelo://app?vid=69fabb06-4e65-4b54-9c62-ea4ce601487a"},"vehicle_type_id":"4","last_reported":1726603769,"current_range_meters":6000,"station_id":"ce4bhr12rcd13ifvqhqg","pricing_plan_id":"cebpf4jnsgd1na2vs0mg"},{"bike_id":"8e348505-df72-410a-93d0-1c9770028c82","system_id":"levelo_inurba_marseille","lat":43.30798,"lon":5.43533,"is_reserved":false,"is_disabled":false,"rental_uris":{"android":"levelo://app?vid=8e348505-df72-410a-93d0-1c9770028c82","ios":"levelo://app?vid=8e348505-df72-410a-93d0-1c9770028c82"},"vehicle_type_id":"4","last_reported":1726603769,"current_range_meters":36000,"station_id":"ce4bhph2rcd13ifvqheg","pricing_plan_id":"cebpf4jnsgd1na2vs0mg"},{"bike_id":"b4450704-51e1-4ff8-a772-08322cc70eb7","system_id":"levelo_inurba_marseille","lat":43.232,"lon":5.35559,"is_reserved":false,"is_disabled":false,"rental_uris":{"android":"levelo://app?vid=b4450704-51e1-4ff8-a772-08322cc70eb7","ios":"levelo://app?vid=b4450704-51e1-4ff8-a772-08322cc70eb7"},"vehicle_type_id":"4","last_reported":1726603769,"current_range_meters":37600,"station_id":"ce4bhu92rcd13ifvqi70","pricing_plan_id":"cebpf4jnsgd1na2vs0mg"},{"bike_id":"5e45b63e-f60e-4a3e-bd87-568073cf021c","system_id":"levelo_inurba_marseille","lat":43.28258,"lon":5.35054,"is_reserved":false,"is_disabled":false,"rental_uris":{"android":"levelo://app?vid=5e45b63e-f60e-4a3e-bd87-568073cf021c","ios":"levelo://app?vid=5e45b63e-f60e-4a3e-bd87-568073cf021c"},"vehicle_type_id":"4","last_reported":1726603769,"current_range_meters":38400,"station_id":"ce4bhbp2rcd13ifvqerg","pricing_plan_id":"cebpf4jnsgd1na2vs0mg"},{"bike_id":"bcedda15-e030-4a02-ba39-1e6bffe27b87","system_id":"levelo_inurba_marseille","lat":43.30189,"lon":5.36427,"is_reserved":false,"is_disabled":false,"rental_uris":{"android":"levelo://app?vid=bcedda15-e030-4a02-ba39-1e6bffe27b87","ios":"levelo://app?vid=bcedda15-e030-4a02-ba39-1e6bffe27b87"},"vehicle_type_id":"4","last_reported":1726603769,"current_range_meters":33200,"station_id":"cki0cbj6b192h4jlfktg","pricing_plan_id":"cebpf4jnsgd1na2vs0mg"},{"bike_id":"c2667222-5d26-4d9c-a938-761c480fe584","system_id":"levelo_inurba_marseille","lat":43.33024,"lon":5.39038,"is_reserved":false,"is_disabled":false,"rental_uris":{"android":"levelo://app?vid=c2667222-5d26-4d9c-a938-761c480fe584","ios":"levelo://app?vid=c2667222-5d26-4d9c-a938-761c480fe584"},"vehicle_type_id":"4","last_reported":1726603769,"current_range_meters":15200,"station_id":"ce4bhr92rcd13ifvqhrg","pricing_plan_id":"cebpf4jnsgd1na2vs0mg"},{"bike_id":"6e4c85b4-a1c2-45f6-a329-7b57679e1aaa","system_id":"levelo_inurba_marseille","lat":43.30434,"lon":5.38894,"is_reserved":false,"is_disabled":false,"rental_uris":{"android":"levelo://app?vid=6e4c85b4-a1c2-45f6-a329-7b57679e1aaa","ios":"levelo://app?vid=6e4c85b4-a1c2-45f6-a329-7b57679e1aaa"},"vehicle_type_id":"4","last_reported":1726603769,"current_range_meters":14800,"station_id":"ce4bgk12rcd13ifvqbi0","pricing_plan_id":"cebpf4jnsgd1na2vs0mg"},{"bike_id":"498e795b-c158-46ba-9d30-4a239a5ef6a1","system_id":"levelo_inurba_marseille","lat":43.27997,"lon":5.40012,"is_reserved":false,"is_disabled":false,"rental_uris":{"android":"levelo://app?vid=498e795b-c158-46ba-9d30-4a239a5ef6a1","ios":"levelo://app?vid=498e795b-c158-46ba-9d30-4a239a5ef6a1"},"vehicle_type_id":"4","last_reported":1726603769,"current_range_meters":8000,"station_id":"ce4bho92rcd13ifvqh4g","pricing_plan_id":"cebpf4jnsgd1na2vs0mg"},{"bike_id":"826a7318-6bfb-411f-81d4-41b729485350","system_id":"levelo_inurba_marseille","lat":43.28455,"lon":5.35887,"is_reserved":false,"is_disabled":false,"rental_uris":{"android":"levelo://app?vid=826a7318-6bfb-411f-81d4-41b729485350","ios":"levelo://app?vid=826a7318-6bfb-411f-81d4-41b729485350"},"vehicle_type_id":"4","last_reported":1726603769,"current_range_meters":10800,"station_id":"ce4bhah2rcd13ifvqei0","pricing_plan_id":"cebpf4jnsgd1na2vs0mg"},{"bike_id":"7889924c-02ee-468c-a614-cc0380bf6c3f","system_id":"levelo_inurba_marseille","lat":43.26215,"lon":5.37439,"is_reserved":false,"is_disabled":false,"rental_uris":{"android":"levelo://app?vid=7889924c-02ee-468c-a614-cc0380bf6c3f","ios":"levelo://app?vid=7889924c-02ee-468c-a614-cc0380bf6c3f"},"vehicle_type_id":"4","last_reported":1726603769,"current_range_meters":38000,"station_id":"ce4bhgp2rcd13ifvqfc0","pricing_plan_id":"cebpf4jnsgd1na2vs0mg"},{"bike_id":"fda9362d-0fc1-4a8f-8d5f-55f8e9b34aa4","system_id":"levelo_inurba_marseille","lat":43.28,"lon":5.40008,"is_reserved":false,"is_disabled":false,"rental_uris":{"android":"levelo://app?vid=fda9362d-0fc1-4a8f-8d5f-55f8e9b34aa4","ios":"levelo://app?vid=fda9362d-0fc1-4a8f-8d5f-55f8e9b34aa4"},"vehicle_type_id":"4","last_reported":1726603769,"current_range_meters":8800,"station_id":"ce4bho92rcd13ifvqh4g","pricing_plan_id":"cebpf4jnsgd1na2vs0mg"},{"bike_id":"5fbc3e0a-46a7-4ad7-bacc-ba5c08e8395b","system_id":"levelo_inurba_marseille","lat":43.29201,"lon":5.39331,"is_reserved":false,"is_disabled":false,"rental_uris":{"android":"levelo://app?vid=5fbc3e0a-46a7-4ad7-bacc-ba5c08e8395b","ios":"levelo://app?vid=5fbc3e0a-46a7-4ad7-bacc-ba5c08e8395b"},"vehicle_type_id":"4","last_reported":1726603769,"current_range_meters":37600,"station_id":"ce4bh192rcd13ifvqdd0","pricing_plan_id":"cebpf4jnsgd1na2vs0mg"},{"bike_id":"394e6ae4-aa38-47e5-ad65-1154f489383d","system_id":"levelo_inurba_marseille","lat":43.29124,"lon":5.35572,"is_reserved":false,"is_disabled":false,"rental_uris":{"android":"levelo://app?vid=394e6ae4-aa38-47e5-ad65-1154f489383d","ios":"levelo://app?vid=394e6ae4-aa38-47e5-ad65-1154f489383d"},"vehicle_type_id":"4","last_reported":1726603769,"current_range_meters":24800,"station_id":"","pricing_plan_id":"cebpf4jnsgd1na2vs0mg"},{"bike_id":"5aa02a04-475b-4ea0-89ff-7712b039f7f3","system_id":"levelo_inurba_marseille","lat":43.27062,"lon":5.4026,"is_reserved":false,"is_disabled":false,"rental_uris":{"android":"levelo://app?vid=5aa02a04-475b-4ea0-89ff-7712b039f7f3","ios":"levelo://app?vid=5aa02a04-475b-4ea0-89ff-7712b039f7f3"},"vehicle_type_id":"4","last_reported":1726603769,"current_range_meters":22000,"station_id":"ce4bhk92rcd13ifvqgc0","pricing_plan_id":"cebpf4jnsgd1na2vs0mg"},{"bike_id":"f409a27c-3291-4d9b-ac57-9e74e75d80d1","system_id":"levelo_inurba_marseille","lat":43.3236,"lon":5.38889,"is_reserved":false,"is_disabled":false,"rental_uris":{"android":"levelo://app?vid=f409a27c-3291-4d9b-ac57-9e74e75d80d1","ios":"levelo://app?vid=f409a27c-3291-4d9b-ac57-9e74e75d80d1"},"vehicle_type_id":"4","last_reported":1726603769,"current_range_meters":12000,"station_id":"ce4bhqp2rcd13ifvqhog","pricing_plan_id":"cebpf4jnsgd1na2vs0mg"},{"bike_id":"885b9b55-8160-4fd4-8349-cf3a1587cff0","system_id":"levelo_inurba_marseille","lat":43.28077,"lon":5.39659,"is_reserved":false,"is_disabled":false,"rental_uris":{"android":"levelo://app?vid=885b9b55-8160-4fd4-8349-cf3a1587cff0","ios":"levelo://app?vid=885b9b55-8160-4fd4-8349-cf3a1587cff0"},"vehicle_type_id":"4","last_reported":1726603769,"current_range_meters":36400,"station_id":"ce4bho12rcd13ifvqh2g","pricing_plan_id":"cebpf4jnsgd1na2vs0mg"},{"bike_id":"599f33eb-85e2-4b37-b14a-3a336b5ea219","system_id":"levelo_inurba_marseille","lat":43.30093,"lon":5.39075,"is_reserved":false,"is_disabled":false,"rental_uris":{"android":"levelo://app?vid=599f33eb-85e2-4b37-b14a-3a336b5ea219","ios":"levelo://app?vid=599f33eb-85e2-4b37-b14a-3a336b5ea219"},"vehicle_type_id":"4","last_reported":1726603769,"current_range_meters":16000,"station_id":"ce4bh192rcd13ifvqdb0","pricing_plan_id":"cebpf4jnsgd1na2vs0mg"},{"bike_id":"f9af2df6-bfd5-4987-b6d2-23f6552c5784","system_id":"levelo_inurba_marseille","lat":43.295959,"lon":5.380996,"is_reserved":false,"is_disabled":false,"rental_uris":{"android":"levelo://app?vid=f9af2df6-bfd5-4987-b6d2-23f6552c5784","ios":"levelo://app?vid=f9af2df6-bfd5-4987-b6d2-23f6552c5784"},"vehicle_type_id":"4","last_reported":1726603769,"current_range_meters":16800,"station_id":"cki0cbj6b192h4jlfktg","pricing_plan_id":"cebpf4jnsgd1na2vs0mg"},{"bike_id":"dc67f126-5c80-4b0e-91b6-6afd0264d715","system_id":"levelo_inurba_marseille","lat":43.295392,"lon":5.374955,"is_reserved":false,"is_disabled":false,"rental_uris":{"android":"levelo://app?vid=dc67f126-5c80-4b0e-91b6-6afd0264d715","ios":"levelo://app?vid=dc67f126-5c80-4b0e-91b6-6afd0264d715"},"vehicle_type_id":"4","last_reported":1726603769,"current_range_meters":11600,"station_id":"ce4bgkp2rcd13ifvqbmg","pricing_plan_id":"cebpf4jnsgd1na2vs0mg"},{"bike_id":"ee7cab51-ac41-4df2-a570-0b8afed077f6","system_id":"levelo_inurba_marseille","lat":43.33021,"lon":5.39039,"is_reserved":false,"is_disabled":false,"rental_uris":{"android":"levelo://app?vid=ee7cab51-ac41-4df2-a570-0b8afed077f6","ios":"levelo://app?vid=ee7cab51-ac41-4df2-a570-0b8afed077f6"},"vehicle_type_id":"4","last_reported":1726603769,"current_range_meters":28400,"station_id":"ce4bhr92rcd13ifvqhrg","pricing_plan_id":"cebpf4jnsgd1na2vs0mg"},{"bike_id":"c7f93bf2-2b30-4c5c-aa72-447b3f4a28ea","system_id":"levelo_inurba_marseille","lat":43.29895,"lon":5.43668,"is_reserved":false,"is_disabled":false,"rental_uris":{"android":"levelo://app?vid=c7f93bf2-2b30-4c5c-aa72-447b3f4a28ea","ios":"levelo://app?vid=c7f93bf2-2b30-4c5c-aa72-447b3f4a28ea"},"vehicle_type_id":"4","last_reported":1726603769,"current_range_meters":8000,"station_id":"ce4bhpp2rcd13ifvqhfg","pricing_plan_id":"cebpf4jnsgd1na2vs0mg"},{"bike_id":"a3efd81c-da06-42d6-889e-44923da28ff8","system_id":"levelo_inurba_marseille","lat":43.28105,"lon":5.37836,"is_reserved":false,"is_disabled":false,"rental_uris":{"android":"levelo://app?vid=a3efd81c-da06-42d6-889e-44923da28ff8","ios":"levelo://app?vid=a3efd81c-da06-42d6-889e-44923da28ff8"},"vehicle_type_id":"4","last_reported":1726603769,"current_range_meters":20000,"station_id":"ce4bha12rcd13ifvqee0","pricing_plan_id":"cebpf4jnsgd1na2vs0mg"},{"bike_id":"6d398055-ba33-4127-aa64-5cbde7e549c4","system_id":"levelo_inurba_marseille","lat":43.31994,"lon":5.38153,"is_reserved":false,"is_disabled":false,"rental_uris":{"android":"levelo://app?vid=6d398055-ba33-4127-aa64-5cbde7e549c4","ios":"levelo://app?vid=6d398055-ba33-4127-aa64-5cbde7e549c4"},"vehicle_type_id":"4","last_reported":1726603769,"current_range_meters":36800,"station_id":"ce4bhr12rcd13ifvqhpg","pricing_plan_id":"cebpf4jnsgd1na2vs0mg"},{"bike_id":"b62a9610-ebe1-445b-8d81-d796bfa6285e","system_id":"levelo_inurba_marseille","lat":43.309327,"lon":5.401412,"is_reserved":false,"is_disabled":false,"rental_uris":{"android":"levelo://app?vid=b62a9610-ebe1-445b-8d81-d796bfa6285e","ios":"levelo://app?vid=b62a9610-ebe1-445b-8d81-d796bfa6285e"},"vehicle_type_id":"4","last_reported":1726603769,"current_range_meters":16400,"station_id":"ce4bgvp2rcd13ifvqct0","pricing_plan_id":"cebpf4jnsgd1na2vs0mg"},{"bike_id":"57c55890-9622-407f-92d9-6af7734663b4","system_id":"levelo_inurba_marseille","lat":43.23182,"lon":5.39995,"is_reserved":false,"is_disabled":false,"rental_uris":{"android":"levelo://app?vid=57c55890-9622-407f-92d9-6af7734663b4","ios":"levelo://app?vid=57c55890-9622-407f-92d9-6af7734663b4"},"vehicle_type_id":"4","last_reported":1726603769,"current_range_meters":18800,"station_id":"ce4bhn12rcd13ifvqgqg","pricing_plan_id":"cebpf4jnsgd1na2vs0mg"},{"bike_id":"2df18966-5fec-4175-82c5-cee36a200007","system_id":"levelo_inurba_marseille","lat":43.3059,"lon":5.39362,"is_reserved":false,"is_disabled":false,"rental_uris":{"android":"levelo://app?vid=2df18966-5fec-4175-82c5-cee36a200007","ios":"levelo://app?vid=2df18966-5fec-4175-82c5-cee36a200007"},"vehicle_type_id":"4","last_reported":1726603769,"current_range_meters":14000,"station_id":"ce4bh0p2rcd13ifvqd80","pricing_plan_id":"cebpf4jnsgd1na2vs0mg"},{"bike_id":"24743457-5f42-41c6-bed7-b8ed08b24661","system_id":"levelo_inurba_marseille","lat":43.25116,"lon":5.4032,"is_reserved":false,"is_disabled":false,"rental_uris":{"android":"levelo://app?vid=24743457-5f42-41c6-bed7-b8ed08b24661","ios":"levelo://app?vid=24743457-5f42-41c6-bed7-b8ed08b24661"},"vehicle_type_id":"4","last_reported":1726603769,"current_range_meters":12400,"station_id":"ce4bhlh2rcd13ifvqgig","pricing_plan_id":"cebpf4jnsgd1na2vs0mg"},{"bike_id":"a61689aa-5c1a-4413-8538-941f73ca00b9","system_id":"levelo_inurba_marseille","lat":43.26195,"lon":5.37447,"is_reserved":false,"is_disabled":false,"rental_uris":{"android":"levelo://app?vid=a61689aa-5c1a-4413-8538-941f73ca00b9","ios":"levelo://app?vid=a61689aa-5c1a-4413-8538-941f73ca00b9"},"vehicle_type_id":"4","last_reported":1726603769,"current_range_meters":38400,"station_id":"ce4bhgp2rcd13ifvqfc0","pricing_plan_id":"cebpf4jnsgd1na2vs0mg"},{"bike_id":"b88d8bac-711e-49d2-9eee-8f0f2fcec434","system_id":"levelo_inurba_marseille","lat":43.3303,"lon":5.39038,"is_reserved":false,"is_disabled":false,"rental_uris":{"android":"levelo://app?vid=b88d8bac-711e-49d2-9eee-8f0f2fcec434","ios":"levelo://app?vid=b88d8bac-711e-49d2-9eee-8f0f2fcec434"},"vehicle_type_id":"4","last_reported":1726603769,"current_range_meters":28000,"station_id":"ce4bhr92rcd13ifvqhrg","pricing_plan_id":"cebpf4jnsgd1na2vs0mg"},{"bike_id":"90adbc94-fd4a-4406-8df3-c7b6488a4f5c","system_id":"levelo_inurba_marseille","lat":43.245605,"lon":5.395248,"is_reserved":false,"is_disabled":false,"rental_uris":{"android":"levelo://app?vid=90adbc94-fd4a-4406-8df3-c7b6488a4f5c","ios":"levelo://app?vid=90adbc94-fd4a-4406-8df3-c7b6488a4f5c"},"vehicle_type_id":"4","last_reported":1726603769,"current_range_meters":6800,"station_id":"ce4bhoh2rcd13ifvqh5g","pricing_plan_id":"cebpf4jnsgd1na2vs0mg"},{"bike_id":"2189c212-ccd8-46f4-bde9-9d5f8bd683d8","system_id":"levelo_inurba_marseille","lat":43.265686,"lon":5.390122,"is_reserved":false,"is_disabled":false,"rental_uris":{"android":"levelo://app?vid=2189c212-ccd8-46f4-bde9-9d5f8bd683d8","ios":"levelo://app?vid=2189c212-ccd8-46f4-bde9-9d5f8bd683d8"},"vehicle_type_id":"4","last_reported":1726603769,"current_range_meters":33200,"station_id":"ce4bhe12rcd13ifvqf30","pricing_plan_id":"cebpf4jnsgd1na2vs0mg"},{"bike_id":"2e2254f6-d3ed-4277-af5f-ee204e464f40","system_id":"levelo_inurba_marseille","lat":43.29937,"lon":5.41323,"is_reserved":false,"is_disabled":false,"rental_uris":{"android":"levelo://app?vid=2e2254f6-d3ed-4277-af5f-ee204e464f40","ios":"levelo://app?vid=2e2254f6-d3ed-4277-af5f-ee204e464f40"},"vehicle_type_id":"4","last_reported":1726603769,"current_range_meters":38800,"station_id":"ce4bhp12rcd13ifvqh9g","pricing_plan_id":"cebpf4jnsgd1na2vs0mg"},{"bike_id":"7ffa0a34-2412-4cf6-a653-08d8c8ef67dd","system_id":"levelo_inurba_marseille","lat":43.31978,"lon":5.43842,"is_reserved":false,"is_disabled":false,"rental_uris":{"android":"levelo://app?vid=7ffa0a34-2412-4cf6-a653-08d8c8ef67dd","ios":"levelo://app?vid=7ffa0a34-2412-4cf6-a653-08d8c8ef67dd"},"vehicle_type_id":"4","last_reported":1726603769,"current_range_meters":16800,"station_id":"","pricing_plan_id":"cebpf4jnsgd1na2vs0mg"},{"bike_id":"60696c21-e7eb-4802-a342-911ea3071c71","system_id":"levelo_inurba_marseille","lat":43.31671,"lon":5.39669,"is_reserved":false,"is_disabled":false,"rental_uris":{"android":"levelo://app?vid=60696c21-e7eb-4802-a342-911ea3071c71","ios":"levelo://app?vid=60696c21-e7eb-4802-a342-911ea3071c71"},"vehicle_type_id":"4","last_reported":1726603769,"current_range_meters":26000,"station_id":"","pricing_plan_id":"cebpf4jnsgd1na2vs0mg"},{"bike_id":"8cb592d9-f82f-4171-894f-8d7ffa6525e5","system_id":"levelo_inurba_marseille","lat":43.232,"lon":5.35551,"is_reserved":false,"is_disabled":false,"rental_uris":{"android":"levelo://app?vid=8cb592d9-f82f-4171-894f-8d7ffa6525e5","ios":"levelo://app?vid=8cb592d9-f82f-4171-894f-8d7ffa6525e5"},"vehicle_type_id":"4","last_reported":1726603769,"current_range_meters":17600,"station_id":"ce4bhu92rcd13ifvqi70","pricing_plan_id":"cebpf4jnsgd1na2vs0mg"},{"bike_id":"8d88c07c-4556-43d6-8940-ca6809bdad6b","system_id":"levelo_inurba_marseille","lat":43.2808,"lon":5.39663,"is_reserved":false,"is_disabled":false,"rental_uris":{"android":"levelo://app?vid=8d88c07c-4556-43d6-8940-ca6809bdad6b","ios":"levelo://app?vid=8d88c07c-4556-43d6-8940-ca6809bdad6b"},"vehicle_type_id":"4","last_reported":1726603769,"current_range_meters":38800,"station_id":"ce4bho12rcd13ifvqh2g","pricing_plan_id":"cebpf4jnsgd1na2vs0mg"},{"bike_id":"699d09b8-17ae-4b5a-81a4-f0906a954e6d","system_id":"levelo_inurba_marseille","lat":43.32293,"lon":5.38267,"is_reserved":false,"is_disabled":false,"rental_uris":{"android":"levelo://app?vid=699d09b8-17ae-4b5a-81a4-f0906a954e6d","ios":"levelo://app?vid=699d09b8-17ae-4b5a-81a4-f0906a954e6d"},"vehicle_type_id":"4","last_reported":1726603769,"current_range_meters":12400,"station_id":"ce4bhr12rcd13ifvqhqg","pricing_plan_id":"cebpf4jnsgd1na2vs0mg"},{"bike_id":"20a4a91d-8541-4958-9b2e-4e75165c8a2a","system_id":"levelo_inurba_marseille","lat":43.30799,"lon":5.43518,"is_reserved":false,"is_disabled":false,"rental_uris":{"android":"levelo://app?vid=20a4a91d-8541-4958-9b2e-4e75165c8a2a","ios":"levelo://app?vid=20a4a91d-8541-4958-9b2e-4e75165c8a2a"},"vehicle_type_id":"4","last_reported":1726603769,"current_range_meters":12000,"station_id":"ce4bhph2rcd13ifvqheg","pricing_plan_id":"cebpf4jnsgd1na2vs0mg"},{"bike_id":"c3bcca86-6294-4639-9d07-9722d40f464e","system_id":"levelo_inurba_marseille","lat":43.29901,"lon":5.4367,"is_reserved":false,"is_disabled":false,"rental_uris":{"android":"levelo://app?vid=c3bcca86-6294-4639-9d07-9722d40f464e","ios":"levelo://app?vid=c3bcca86-6294-4639-9d07-9722d40f464e"},"vehicle_type_id":"4","last_reported":1726603769,"current_range_meters":30400,"station_id":"ce4bhpp2rcd13ifvqhfg","pricing_plan_id":"cebpf4jnsgd1na2vs0mg"},{"bike_id":"4058ff99-3656-4d69-9a4f-47db60fcbfd5","system_id":"levelo_inurba_marseille","lat":43.28935,"lon":5.36397,"is_reserved":false,"is_disabled":false,"rental_uris":{"android":"levelo://app?vid=4058ff99-3656-4d69-9a4f-47db60fcbfd5","ios":"levelo://app?vid=4058ff99-3656-4d69-9a4f-47db60fcbfd5"},"vehicle_type_id":"4","last_reported":1726603769,"current_range_meters":37600,"station_id":"ce4bhc92rcd13ifvqetg","pricing_plan_id":"cebpf4jnsgd1na2vs0mg"},{"bike_id":"464b765a-5bcf-418f-9058-526dab1b44f9","system_id":"levelo_inurba_marseille","lat":43.32293,"lon":5.3827,"is_reserved":false,"is_disabled":false,"rental_uris":{"android":"levelo://app?vid=464b765a-5bcf-418f-9058-526dab1b44f9","ios":"levelo://app?vid=464b765a-5bcf-418f-9058-526dab1b44f9"},"vehicle_type_id":"4","last_reported":1726603769,"current_range_meters":24800,"station_id":"ce4bhr12rcd13ifvqhqg","pricing_plan_id":"cebpf4jnsgd1na2vs0mg"},{"bike_id":"02977118-69a6-4ca8-82d1-77e2b60e8c97","system_id":"levelo_inurba_marseille","lat":43.29047,"lon":5.35912,"is_reserved":false,"is_disabled":false,"rental_uris":{"android":"levelo://app?vid=02977118-69a6-4ca8-82d1-77e2b60e8c97","ios":"levelo://app?vid=02977118-69a6-4ca8-82d1-77e2b60e8c97"},"vehicle_type_id":"4","last_reported":1726603769,"current_range_meters":11600,"station_id":"ce4bha92rcd13ifvqeg0","pricing_plan_id":"cebpf4jnsgd1na2vs0mg"},{"bike_id":"8e3c84db-879d-4669-8d43-f74eed3d4c1b","system_id":"levelo_inurba_marseille","lat":43.27372,"lon":5.36265,"is_reserved":false,"is_disabled":false,"rental_uris":{"android":"levelo://app?vid=8e3c84db-879d-4669-8d43-f74eed3d4c1b","ios":"levelo://app?vid=8e3c84db-879d-4669-8d43-f74eed3d4c1b"},"vehicle_type_id":"4","last_reported":1726603769,"current_range_meters":39200,"station_id":"ce4bhbh2rcd13ifvqeo0","pricing_plan_id":"cebpf4jnsgd1na2vs0mg"},{"bike_id":"b1db6496-7d7b-4acc-a88c-e5406d38e100","system_id":"levelo_inurba_marseille","lat":43.23197,"lon":5.35544,"is_reserved":false,"is_disabled":false,"rental_uris":{"android":"levelo://app?vid=b1db6496-7d7b-4acc-a88c-e5406d38e100","ios":"levelo://app?vid=b1db6496-7d7b-4acc-a88c-e5406d38e100"},"vehicle_type_id":"4","last_reported":1726603769,"current_range_meters":25600,"station_id":"ce4bhu92rcd13ifvqi70","pricing_plan_id":"cebpf4jnsgd1na2vs0mg"},{"bike_id":"d2baf990-425e-4a35-ab9e-d967e4cf1b37","system_id":"levelo_inurba_marseille","lat":43.304382,"lon":5.397554,"is_reserved":false,"is_disabled":false,"rental_uris":{"android":"levelo://app?vid=d2baf990-425e-4a35-ab9e-d967e4cf1b37","ios":"levelo://app?vid=d2baf990-425e-4a35-ab9e-d967e4cf1b37"},"vehicle_type_id":"4","last_reported":1726603769,"current_range_meters":38800,"station_id":"ce4bh092rcd13ifvqd20","pricing_plan_id":"cebpf4jnsgd1na2vs0mg"},{"bike_id":"dcdcddf6-8766-4bf9-ba89-8fe4bdd00b6c","system_id":"levelo_inurba_marseille","lat":43.30306,"lon":5.36897,"is_reserved":false,"is_disabled":false,"rental_uris":{"android":"levelo://app?vid=dcdcddf6-8766-4bf9-ba89-8fe4bdd00b6c","ios":"levelo://app?vid=dcdcddf6-8766-4bf9-ba89-8fe4bdd00b6c"},"vehicle_type_id":"4","last_reported":1726603769,"current_range_meters":38800,"station_id":"ce4bgqh2rcd13ifvqc5g","pricing_plan_id":"cebpf4jnsgd1na2vs0mg"},{"bike_id":"657d2ce3-df51-45da-bb47-734f0cd56ed6","system_id":"levelo_inurba_marseille","lat":43.271889,"lon":5.409929,"is_reserved":false,"is_disabled":false,"rental_uris":{"android":"levelo://app?vid=657d2ce3-df51-45da-bb47-734f0cd56ed6","ios":"levelo://app?vid=657d2ce3-df51-45da-bb47-734f0cd56ed6"},"vehicle_type_id":"4","last_reported":1726603769,"current_range_meters":27600,"station_id":"ce4bhl12rcd13ifvqgf0","pricing_plan_id":"cebpf4jnsgd1na2vs0mg"},{"bike_id":"806cac2a-bfa5-4b02-a061-2bb66ffe7b7a","system_id":"levelo_inurba_marseille","lat":43.30592,"lon":5.39353,"is_reserved":false,"is_disabled":false,"rental_uris":{"android":"levelo://app?vid=806cac2a-bfa5-4b02-a061-2bb66ffe7b7a","ios":"levelo://app?vid=806cac2a-bfa5-4b02-a061-2bb66ffe7b7a"},"vehicle_type_id":"4","last_reported":1726603769,"current_range_meters":38800,"station_id":"ce4bh0p2rcd13ifvqd80","pricing_plan_id":"cebpf4jnsgd1na2vs0mg"},{"bike_id":"b645ac77-0d58-4fa9-8ad3-947af8bdb1d9","system_id":"levelo_inurba_marseille","lat":43.29897,"lon":5.43669,"is_reserved":false,"is_disabled":false,"rental_uris":{"android":"levelo://app?vid=b645ac77-0d58-4fa9-8ad3-947af8bdb1d9","ios":"levelo://app?vid=b645ac77-0d58-4fa9-8ad3-947af8bdb1d9"},"vehicle_type_id":"4","last_reported":1726603769,"current_range_meters":23200,"station_id":"ce4bhpp2rcd13ifvqhfg","pricing_plan_id":"cebpf4jnsgd1na2vs0mg"},{"bike_id":"c21f9f8f-0898-4eb1-a516-693c2cb81280","system_id":"levelo_inurba_marseille","lat":43.26201,"lon":5.37514,"is_reserved":false,"is_disabled":false,"rental_uris":{"android":"levelo://app?vid=c21f9f8f-0898-4eb1-a516-693c2cb81280","ios":"levelo://app?vid=c21f9f8f-0898-4eb1-a516-693c2cb81280"},"vehicle_type_id":"4","last_reported":1726603769,"current_range_meters":38400,"station_id":"","pricing_plan_id":"cebpf4jnsgd1na2vs0mg"},{"bike_id":"f2622df9-3e59-4b0a-8884-37dbdb2ebc9c","system_id":"levelo_inurba_marseille","lat":43.28712,"lon":5.37943,"is_reserved":false,"is_disabled":false,"rental_uris":{"android":"levelo://app?vid=f2622df9-3e59-4b0a-8884-37dbdb2ebc9c","ios":"levelo://app?vid=f2622df9-3e59-4b0a-8884-37dbdb2ebc9c"},"vehicle_type_id":"4","last_reported":1726603769,"current_range_meters":16800,"station_id":"ce4bh9p2rcd13ifvqec0","pricing_plan_id":"cebpf4jnsgd1na2vs0mg"},{"bike_id":"9a92abb3-59cd-4477-a507-b141c652f151","system_id":"levelo_inurba_marseille","lat":43.28101,"lon":5.37836,"is_reserved":false,"is_disabled":false,"rental_uris":{"android":"levelo://app?vid=9a92abb3-59cd-4477-a507-b141c652f151","ios":"levelo://app?vid=9a92abb3-59cd-4477-a507-b141c652f151"},"vehicle_type_id":"4","last_reported":1726603769,"current_range_meters":11600,"station_id":"ce4bha12rcd13ifvqee0","pricing_plan_id":"cebpf4jnsgd1na2vs0mg"},{"bike_id":"c91add28-4043-42c8-af0d-55f7ed056780","system_id":"levelo_inurba_marseille","lat":43.29284,"lon":5.40118,"is_reserved":false,"is_disabled":false,"rental_uris":{"android":"levelo://app?vid=c91add28-4043-42c8-af0d-55f7ed056780","ios":"levelo://app?vid=c91add28-4043-42c8-af0d-55f7ed056780"},"vehicle_type_id":"4","last_reported":1726603769,"current_range_meters":15200,"station_id":"ce4bh312rcd13ifvqdk0","pricing_plan_id":"cebpf4jnsgd1na2vs0mg"},{"bike_id":"7fcffe3e-1934-48e3-935e-38193e1e42af","system_id":"levelo_inurba_marseille","lat":43.29632,"lon":5.40597,"is_reserved":false,"is_disabled":false,"rental_uris":{"android":"levelo://app?vid=7fcffe3e-1934-48e3-935e-38193e1e42af","ios":"levelo://app?vid=7fcffe3e-1934-48e3-935e-38193e1e42af"},"vehicle_type_id":"4","last_reported":1726603769,"current_range_meters":38800,"station_id":"ce4bh0h2rcd13ifvqd60","pricing_plan_id":"cebpf4jnsgd1na2vs0mg"},{"bike_id":"e836156f-966e-4b75-8bf0-18495ca20864","system_id":"levelo_inurba_marseille","lat":43.28614,"lon":5.35103,"is_reserved":false,"is_disabled":false,"rental_uris":{"android":"levelo://app?vid=e836156f-966e-4b75-8bf0-18495ca20864","ios":"levelo://app?vid=e836156f-966e-4b75-8bf0-18495ca20864"},"vehicle_type_id":"4","last_reported":1726603769,"current_range_meters":10800,"station_id":"ce4bhch2rcd13ifvqeug","pricing_plan_id":"cebpf4jnsgd1na2vs0mg"},{"bike_id":"677498c9-746b-4650-9a8e-2c7479635944","system_id":"levelo_inurba_marseille","lat":43.3303,"lon":5.39056,"is_reserved":false,"is_disabled":false,"rental_uris":{"android":"levelo://app?vid=677498c9-746b-4650-9a8e-2c7479635944","ios":"levelo://app?vid=677498c9-746b-4650-9a8e-2c7479635944"},"vehicle_type_id":"4","last_reported":1726603769,"current_range_meters":19600,"station_id":"ce4bhr92rcd13ifvqhrg","pricing_plan_id":"cebpf4jnsgd1na2vs0mg"},{"bike_id":"defed62e-4906-448a-ab8d-c7f3b09d44f8","system_id":"levelo_inurba_marseille","lat":43.28725,"lon":5.361,"is_reserved":false,"is_disabled":false,"rental_uris":{"android":"levelo://app?vid=defed62e-4906-448a-ab8d-c7f3b09d44f8","ios":"levelo://app?vid=defed62e-4906-448a-ab8d-c7f3b09d44f8"},"vehicle_type_id":"4","last_reported":1726603769,"current_range_meters":32400,"station_id":"cki0cbj6b192h4jlfktg","pricing_plan_id":"cebpf4jnsgd1na2vs0mg"},{"bike_id":"2b6686af-adcb-4f0c-b71f-73fe9b9a5c36","system_id":"levelo_inurba_marseille","lat":43.34154,"lon":5.40904,"is_reserved":false,"is_disabled":false,"rental_uris":{"android":"levelo://app?vid=2b6686af-adcb-4f0c-b71f-73fe9b9a5c36","ios":"levelo://app?vid=2b6686af-adcb-4f0c-b71f-73fe9b9a5c36"},"vehicle_type_id":"4","last_reported":1726603769,"current_range_meters":38000,"station_id":"ce4bhqh2rcd13ifvqhlg","pricing_plan_id":"cebpf4jnsgd1na2vs0mg"},{"bike_id":"1d0e82e0-c627-46a9-9900-72456a2e4f58","system_id":"levelo_inurba_marseille","lat":43.24071,"lon":5.37756,"is_reserved":false,"is_disabled":false,"rental_uris":{"android":"levelo://app?vid=1d0e82e0-c627-46a9-9900-72456a2e4f58","ios":"levelo://app?vid=1d0e82e0-c627-46a9-9900-72456a2e4f58"},"vehicle_type_id":"4","last_reported":1726603769,"current_range_meters":39200,"station_id":"ce4bhnp2rcd13ifvqgvg","pricing_plan_id":"cebpf4jnsgd1na2vs0mg"},{"bike_id":"a8059881-c19c-479b-bcd3-865b64c8ceb5","system_id":"levelo_inurba_marseille","lat":43.24806,"lon":5.37458,"is_reserved":false,"is_disabled":false,"rental_uris":{"android":"levelo://app?vid=a8059881-c19c-479b-bcd3-865b64c8ceb5","ios":"levelo://app?vid=a8059881-c19c-479b-bcd3-865b64c8ceb5"},"vehicle_type_id":"4","last_reported":1726603769,"current_range_meters":38800,"station_id":"ce4bhgh2rcd13ifvqfb0","pricing_plan_id":"cebpf4jnsgd1na2vs0mg"},{"bike_id":"1e93cb79-1aaf-4438-84c7-042ca661621c","system_id":"levelo_inurba_marseille","lat":43.31534,"lon":5.38032,"is_reserved":false,"is_disabled":false,"rental_uris":{"android":"levelo://app?vid=1e93cb79-1aaf-4438-84c7-042ca661621c","ios":"levelo://app?vid=1e93cb79-1aaf-4438-84c7-042ca661621c"},"vehicle_type_id":"4","last_reported":1726603769,"current_range_meters":14000,"station_id":"ce4bhsp2rcd13ifvqi50","pricing_plan_id":"cebpf4jnsgd1na2vs0mg"},{"bike_id":"0e7fa0af-7f2f-4ef9-9134-c3fffbdc0a42","system_id":"levelo_inurba_marseille","lat":43.31367,"lon":5.38495,"is_reserved":false,"is_disabled":false,"rental_uris":{"android":"levelo://app?vid=0e7fa0af-7f2f-4ef9-9134-c3fffbdc0a42","ios":"levelo://app?vid=0e7fa0af-7f2f-4ef9-9134-c3fffbdc0a42"},"vehicle_type_id":"4","last_reported":1726603769,"current_range_meters":31200,"station_id":"ce4bgt92rcd13ifvqcf0","pricing_plan_id":"cebpf4jnsgd1na2vs0mg"},{"bike_id":"c42c569f-da80-4794-aeb2-c9ae7310ca55","system_id":"levelo_inurba_marseille","lat":43.31369,"lon":5.36694,"is_reserved":false,"is_disabled":false,"rental_uris":{"android":"levelo://app?vid=c42c569f-da80-4794-aeb2-c9ae7310ca55","ios":"levelo://app?vid=c42c569f-da80-4794-aeb2-c9ae7310ca55"},"vehicle_type_id":"4","last_reported":1726603769,"current_range_meters":37600,"station_id":"ce4bgr92rcd13ifvqc6g","pricing_plan_id":"cebpf4jnsgd1na2vs0mg"},{"bike_id":"e322896a-9301-4e00-8a2b-00ac0afcf56a","system_id":"levelo_inurba_marseille","lat":43.29706,"lon":5.3662,"is_reserved":false,"is_disabled":false,"rental_uris":{"android":"levelo://app?vid=e322896a-9301-4e00-8a2b-00ac0afcf56a","ios":"levelo://app?vid=e322896a-9301-4e00-8a2b-00ac0afcf56a"},"vehicle_type_id":"4","last_reported":1726603769,"current_range_meters":38400,"station_id":"ce4bgn12rcd13ifvqbt0","pricing_plan_id":"cebpf4jnsgd1na2vs0mg"},{"bike_id":"0e927dee-d218-49a7-8a39-8313d428dfbf","system_id":"levelo_inurba_marseille","lat":43.30542,"lon":5.367322,"is_reserved":false,"is_disabled":false,"rental_uris":{"android":"levelo://app?vid=0e927dee-d218-49a7-8a39-8313d428dfbf","ios":"levelo://app?vid=0e927dee-d218-49a7-8a39-8313d428dfbf"},"vehicle_type_id":"4","last_reported":1726603769,"current_range_meters":18000,"station_id":"ce4bgrp2rcd13ifvqc9g","pricing_plan_id":"cebpf4jnsgd1na2vs0mg"},{"bike_id":"20c56279-8c45-4039-b2ec-4b93001c9d8d","system_id":"levelo_inurba_marseille","lat":43.28,"lon":5.39982,"is_reserved":false,"is_disabled":false,"rental_uris":{"android":"levelo://app?vid=20c56279-8c45-4039-b2ec-4b93001c9d8d","ios":"levelo://app?vid=20c56279-8c45-4039-b2ec-4b93001c9d8d"},"vehicle_type_id":"4","last_reported":1726603769,"current_range_meters":34000,"station_id":"ce4bho92rcd13ifvqh4g","pricing_plan_id":"cebpf4jnsgd1na2vs0mg"},{"bike_id":"1af04a42-5ed6-4406-b3fc-ca556592689a","system_id":"levelo_inurba_marseille","lat":43.30935,"lon":5.40144,"is_reserved":false,"is_disabled":false,"rental_uris":{"android":"levelo://app?vid=1af04a42-5ed6-4406-b3fc-ca556592689a","ios":"levelo://app?vid=1af04a42-5ed6-4406-b3fc-ca556592689a"},"vehicle_type_id":"4","last_reported":1726603769,"current_range_meters":8400,"station_id":"ce4bgvp2rcd13ifvqct0","pricing_plan_id":"cebpf4jnsgd1na2vs0mg"},{"bike_id":"0be8a7fb-2750-4d4b-9eb1-c4fd7b06ea50","system_id":"levelo_inurba_marseille","lat":43.29975,"lon":5.38496,"is_reserved":false,"is_disabled":false,"rental_uris":{"android":"levelo://app?vid=0be8a7fb-2750-4d4b-9eb1-c4fd7b06ea50","ios":"levelo://app?vid=0be8a7fb-2750-4d4b-9eb1-c4fd7b06ea50"},"vehicle_type_id":"4","last_reported":1726603769,"current_range_meters":38800,"station_id":"ce4bgj92rcd13ifvqbd0","pricing_plan_id":"cebpf4jnsgd1na2vs0mg"},{"bike_id":"9dbc1275-dff3-4f6f-ac47-2da20b7eaced","system_id":"levelo_inurba_marseille","lat":43.24069,"lon":5.37744,"is_reserved":false,"is_disabled":false,"rental_uris":{"android":"levelo://app?vid=9dbc1275-dff3-4f6f-ac47-2da20b7eaced","ios":"levelo://app?vid=9dbc1275-dff3-4f6f-ac47-2da20b7eaced"},"vehicle_type_id":"4","last_reported":1726603769,"current_range_meters":38800,"station_id":"ce4bhnp2rcd13ifvqgvg","pricing_plan_id":"cebpf4jnsgd1na2vs0mg"},{"bike_id":"9ea9f2c6-e3d7-4c8d-bac8-7d45ea471e22","system_id":"levelo_inurba_marseille","lat":43.29793,"lon":5.39344,"is_reserved":false,"is_disabled":false,"rental_uris":{"android":"levelo://app?vid=9ea9f2c6-e3d7-4c8d-bac8-7d45ea471e22","ios":"levelo://app?vid=9ea9f2c6-e3d7-4c8d-bac8-7d45ea471e22"},"vehicle_type_id":"4","last_reported":1726603769,"current_range_meters":38800,"station_id":"chh1huq6cuj3fo74tm60","pricing_plan_id":"cebpf4jnsgd1na2vs0mg"},{"bike_id":"99684f50-b398-427b-a4e9-7ca0a0382c79","system_id":"levelo_inurba_marseille","lat":43.23192,"lon":5.35552,"is_reserved":false,"is_disabled":false,"rental_uris":{"android":"levelo://app?vid=99684f50-b398-427b-a4e9-7ca0a0382c79","ios":"levelo://app?vid=99684f50-b398-427b-a4e9-7ca0a0382c79"},"vehicle_type_id":"4","last_reported":1726603769,"current_range_meters":38800,"station_id":"ce4bhu92rcd13ifvqi70","pricing_plan_id":"cebpf4jnsgd1na2vs0mg"},{"bike_id":"ee55a312-9bf8-4fe9-8bc3-5f5766f45d3c","system_id":"levelo_inurba_marseille","lat":43.29965,"lon":5.37181,"is_reserved":false,"is_disabled":false,"rental_uris":{"android":"levelo://app?vid=ee55a312-9bf8-4fe9-8bc3-5f5766f45d3c","ios":"levelo://app?vid=ee55a312-9bf8-4fe9-8bc3-5f5766f45d3c"},"vehicle_type_id":"4","last_reported":1726603769,"current_range_meters":7200,"station_id":"ce4bgr92rcd13ifvqc7g","pricing_plan_id":"cebpf4jnsgd1na2vs0mg"},{"bike_id":"d782c430-b2c7-45ce-aaaf-78dc9a80ca97","system_id":"levelo_inurba_marseille","lat":43.33028,"lon":5.39043,"is_reserved":false,"is_disabled":false,"rental_uris":{"android":"levelo://app?vid=d782c430-b2c7-45ce-aaaf-78dc9a80ca97","ios":"levelo://app?vid=d782c430-b2c7-45ce-aaaf-78dc9a80ca97"},"vehicle_type_id":"4","last_reported":1726603769,"current_range_meters":26800,"station_id":"ce4bhr92rcd13ifvqhrg","pricing_plan_id":"cebpf4jnsgd1na2vs0mg"},{"bike_id":"dd4b5128-6c65-4324-96d6-df731de78aa8","system_id":"levelo_inurba_marseille","lat":43.33023,"lon":5.39036,"is_reserved":false,"is_disabled":false,"rental_uris":{"android":"levelo://app?vid=dd4b5128-6c65-4324-96d6-df731de78aa8","ios":"levelo://app?vid=dd4b5128-6c65-4324-96d6-df731de78aa8"},"vehicle_type_id":"4","last_reported":1726603769,"current_range_meters":24800,"station_id":"ce4bhr92rcd13ifvqhrg","pricing_plan_id":"cebpf4jnsgd1na2vs0mg"},{"bike_id":"6c1468de-e14a-407b-9a20-3cdfa0922744","system_id":"levelo_inurba_marseille","lat":43.28453,"lon":5.35895,"is_reserved":false,"is_disabled":false,"rental_uris":{"android":"levelo://app?vid=6c1468de-e14a-407b-9a20-3cdfa0922744","ios":"levelo://app?vid=6c1468de-e14a-407b-9a20-3cdfa0922744"},"vehicle_type_id":"4","last_reported":1726603769,"current_range_meters":38800,"station_id":"ce4bhah2rcd13ifvqei0","pricing_plan_id":"cebpf4jnsgd1na2vs0mg"},{"bike_id":"0492eecb-b4a4-443a-885f-f977e84bba00","system_id":"levelo_inurba_marseille","lat":43.29518,"lon":5.39039,"is_reserved":false,"is_disabled":false,"rental_uris":{"android":"levelo://app?vid=0492eecb-b4a4-443a-885f-f977e84bba00","ios":"levelo://app?vid=0492eecb-b4a4-443a-885f-f977e84bba00"},"vehicle_type_id":"4","last_reported":1726603769,"current_range_meters":38800,"station_id":"ce4bh3p2rcd13ifvqdp0","pricing_plan_id":"cebpf4jnsgd1na2vs0mg"},{"bike_id":"2b714e73-49f8-4f26-bb6d-7d72ce23aabc","system_id":"levelo_inurba_marseille","lat":43.23053,"lon":5.35488,"is_reserved":false,"is_disabled":false,"rental_uris":{"android":"levelo://app?vid=2b714e73-49f8-4f26-bb6d-7d72ce23aabc","ios":"levelo://app?vid=2b714e73-49f8-4f26-bb6d-7d72ce23aabc"},"vehicle_type_id":"4","last_reported":1726603769,"current_range_meters":10800,"station_id":"cpo3342slgdg3j2ifvpg","pricing_plan_id":"cebpf4jnsgd1na2vs0mg"},{"bike_id":"1f2d52f1-bb7a-4b46-ad36-d1cb9ca14f0d","system_id":"levelo_inurba_marseille","lat":43.31168,"lon":5.38723,"is_reserved":false,"is_disabled":false,"rental_uris":{"android":"levelo://app?vid=1f2d52f1-bb7a-4b46-ad36-d1cb9ca14f0d","ios":"levelo://app?vid=1f2d52f1-bb7a-4b46-ad36-d1cb9ca14f0d"},"vehicle_type_id":"4","last_reported":1726603769,"current_range_meters":36800,"station_id":"ce4bgv12rcd13ifvqcp0","pricing_plan_id":"cebpf4jnsgd1na2vs0mg"},{"bike_id":"fe10f2c4-970c-41e5-956b-4faa8a9f102c","system_id":"levelo_inurba_marseille","lat":43.27995,"lon":5.4002,"is_reserved":false,"is_disabled":false,"rental_uris":{"android":"levelo://app?vid=fe10f2c4-970c-41e5-956b-4faa8a9f102c","ios":"levelo://app?vid=fe10f2c4-970c-41e5-956b-4faa8a9f102c"},"vehicle_type_id":"4","last_reported":1726603769,"current_range_meters":4400,"station_id":"ce4bho92rcd13ifvqh4g","pricing_plan_id":"cebpf4jnsgd1na2vs0mg"},{"bike_id":"24b6223a-97c2-4a98-b8cd-63273ae1c7bd","system_id":"levelo_inurba_marseille","lat":43.31349,"lon":5.38505,"is_reserved":false,"is_disabled":false,"rental_uris":{"android":"levelo://app?vid=24b6223a-97c2-4a98-b8cd-63273ae1c7bd","ios":"levelo://app?vid=24b6223a-97c2-4a98-b8cd-63273ae1c7bd"},"vehicle_type_id":"4","last_reported":1726603769,"current_range_meters":32000,"station_id":"ce4bgt92rcd13ifvqcf0","pricing_plan_id":"cebpf4jnsgd1na2vs0mg"},{"bike_id":"62c2e691-b15e-4b15-aa0b-a3cce6a07671","system_id":"levelo_inurba_marseille","lat":43.2871,"lon":5.3998,"is_reserved":false,"is_disabled":false,"rental_uris":{"android":"levelo://app?vid=62c2e691-b15e-4b15-aa0b-a3cce6a07671","ios":"levelo://app?vid=62c2e691-b15e-4b15-aa0b-a3cce6a07671"},"vehicle_type_id":"4","last_reported":1726603769,"current_range_meters":15200,"station_id":"ce4bho92rcd13ifvqh3g","pricing_plan_id":"cebpf4jnsgd1na2vs0mg"},{"bike_id":"33f69f3f-8823-49c1-90ed-ec30bb04d814","system_id":"levelo_inurba_marseille","lat":43.24073,"lon":5.37757,"is_reserved":false,"is_disabled":false,"rental_uris":{"android":"levelo://app?vid=33f69f3f-8823-49c1-90ed-ec30bb04d814","ios":"levelo://app?vid=33f69f3f-8823-49c1-90ed-ec30bb04d814"},"vehicle_type_id":"4","last_reported":1726603769,"current_range_meters":38800,"station_id":"ce4bhnp2rcd13ifvqgvg","pricing_plan_id":"cebpf4jnsgd1na2vs0mg"},{"bike_id":"d1d6e796-d9a9-418a-8207-676d498db106","system_id":"levelo_inurba_marseille","lat":43.28032,"lon":5.36955,"is_reserved":false,"is_disabled":false,"rental_uris":{"android":"levelo://app?vid=d1d6e796-d9a9-418a-8207-676d498db106","ios":"levelo://app?vid=d1d6e796-d9a9-418a-8207-676d498db106"},"vehicle_type_id":"4","last_reported":1726603769,"current_range_meters":3600,"station_id":"ce4bha12rcd13ifvqef0","pricing_plan_id":"cebpf4jnsgd1na2vs0mg"},{"bike_id":"e8befb56-1303-484d-9ed5-cb1654ca2bd2","system_id":"levelo_inurba_marseille","lat":43.2396,"lon":5.36633,"is_reserved":false,"is_disabled":false,"rental_uris":{"android":"levelo://app?vid=e8befb56-1303-484d-9ed5-cb1654ca2bd2","ios":"levelo://app?vid=e8befb56-1303-484d-9ed5-cb1654ca2bd2"},"vehicle_type_id":"4","last_reported":1726603769,"current_range_meters":38800,"station_id":"ce4bhi12rcd13ifvqfp0","pricing_plan_id":"cebpf4jnsgd1na2vs0mg"},{"bike_id":"2e4c0d1a-a4a2-40d5-9c70-26993c46a5f6","system_id":"levelo_inurba_marseille","lat":43.23199,"lon":5.35554,"is_reserved":false,"is_disabled":false,"rental_uris":{"android":"levelo://app?vid=2e4c0d1a-a4a2-40d5-9c70-26993c46a5f6","ios":"levelo://app?vid=2e4c0d1a-a4a2-40d5-9c70-26993c46a5f6"},"vehicle_type_id":"4","last_reported":1726603769,"current_range_meters":38800,"station_id":"ce4bhu92rcd13ifvqi70","pricing_plan_id":"cebpf4jnsgd1na2vs0mg"},{"bike_id":"2af8965c-c953-4ba3-b2f3-481d779c63e0","system_id":"levelo_inurba_marseille","lat":43.2793,"lon":5.39586,"is_reserved":false,"is_disabled":false,"rental_uris":{"android":"levelo://app?vid=2af8965c-c953-4ba3-b2f3-481d779c63e0","ios":"levelo://app?vid=2af8965c-c953-4ba3-b2f3-481d779c63e0"},"vehicle_type_id":"4","last_reported":1726603769,"current_range_meters":36800,"station_id":"ce4bhf92rcd13ifvqf40","pricing_plan_id":"cebpf4jnsgd1na2vs0mg"},{"bike_id":"b4da9004-7168-45e2-b568-f06c2bc29313","system_id":"levelo_inurba_marseille","lat":43.26548,"lon":5.37287,"is_reserved":false,"is_disabled":false,"rental_uris":{"android":"levelo://app?vid=b4da9004-7168-45e2-b568-f06c2bc29313","ios":"levelo://app?vid=b4da9004-7168-45e2-b568-f06c2bc29313"},"vehicle_type_id":"4","last_reported":1726603769,"current_range_meters":38800,"station_id":"ce4bhg12rcd13ifvqf70","pricing_plan_id":"cebpf4jnsgd1na2vs0mg"},{"bike_id":"883b0f70-5b2a-4fae-ad4d-f95872e47fd9","system_id":"levelo_inurba_marseille","lat":43.28003,"lon":5.40011,"is_reserved":false,"is_disabled":false,"rental_uris":{"android":"levelo://app?vid=883b0f70-5b2a-4fae-ad4d-f95872e47fd9","ios":"levelo://app?vid=883b0f70-5b2a-4fae-ad4d-f95872e47fd9"},"vehicle_type_id":"4","last_reported":1726603769,"current_range_meters":16400,"station_id":"ce4bho92rcd13ifvqh4g","pricing_plan_id":"cebpf4jnsgd1na2vs0mg"},{"bike_id":"c5fef12e-b96d-4da4-b077-b267075bbcac","system_id":"levelo_inurba_marseille","lat":43.22931,"lon":5.35378,"is_reserved":false,"is_disabled":false,"rental_uris":{"android":"levelo://app?vid=c5fef12e-b96d-4da4-b077-b267075bbcac","ios":"levelo://app?vid=c5fef12e-b96d-4da4-b077-b267075bbcac"},"vehicle_type_id":"4","last_reported":1726603769,"current_range_meters":25200,"station_id":"cpo3532slgdg3j2ikp40","pricing_plan_id":"cebpf4jnsgd1na2vs0mg"},{"bike_id":"4e2c2699-3b3a-4d93-8b4c-cf2922b45c99","system_id":"levelo_inurba_marseille","lat":43.24077,"lon":5.37755,"is_reserved":false,"is_disabled":false,"rental_uris":{"android":"levelo://app?vid=4e2c2699-3b3a-4d93-8b4c-cf2922b45c99","ios":"levelo://app?vid=4e2c2699-3b3a-4d93-8b4c-cf2922b45c99"},"vehicle_type_id":"4","last_reported":1726603769,"current_range_meters":32000,"station_id":"ce4bhnp2rcd13ifvqgvg","pricing_plan_id":"cebpf4jnsgd1na2vs0mg"},{"bike_id":"d35a3f03-1671-4a46-956e-5cb9a4feb2d9","system_id":"levelo_inurba_marseille","lat":43.28669,"lon":5.3866,"is_reserved":false,"is_disabled":false,"rental_uris":{"android":"levelo://app?vid=d35a3f03-1671-4a46-956e-5cb9a4feb2d9","ios":"levelo://app?vid=d35a3f03-1671-4a46-956e-5cb9a4feb2d9"},"vehicle_type_id":"4","last_reported":1726603769,"current_range_meters":9200,"station_id":"ce4bh492rcd13ifvqdug","pricing_plan_id":"cebpf4jnsgd1na2vs0mg"},{"bike_id":"45591303-774c-4a20-bce0-16a76eb6254f","system_id":"levelo_inurba_marseille","lat":43.29619,"lon":5.37155,"is_reserved":false,"is_disabled":false,"rental_uris":{"android":"levelo://app?vid=45591303-774c-4a20-bce0-16a76eb6254f","ios":"levelo://app?vid=45591303-774c-4a20-bce0-16a76eb6254f"},"vehicle_type_id":"4","last_reported":1726603769,"current_range_meters":38400,"station_id":"ce4bgnh2rcd13ifvqc0g","pricing_plan_id":"cebpf4jnsgd1na2vs0mg"},{"bike_id":"9e7e6ba6-8a52-4ded-a04c-6611360fb83e","system_id":"levelo_inurba_marseille","lat":43.29437,"lon":5.39756,"is_reserved":false,"is_disabled":false,"rental_uris":{"android":"levelo://app?vid=9e7e6ba6-8a52-4ded-a04c-6611360fb83e","ios":"levelo://app?vid=9e7e6ba6-8a52-4ded-a04c-6611360fb83e"},"vehicle_type_id":"4","last_reported":1726603769,"current_range_meters":27200,"station_id":"ce4bh3h2rcd13ifvqdo0","pricing_plan_id":"cebpf4jnsgd1na2vs0mg"},{"bike_id":"255def12-1a7e-4787-b2e4-a6a54888a394","system_id":"levelo_inurba_marseille","lat":43.32486,"lon":5.36582,"is_reserved":false,"is_disabled":false,"rental_uris":{"android":"levelo://app?vid=255def12-1a7e-4787-b2e4-a6a54888a394","ios":"levelo://app?vid=255def12-1a7e-4787-b2e4-a6a54888a394"},"vehicle_type_id":"4","last_reported":1726603769,"current_range_meters":6000,"station_id":"ce4bhs12rcd13ifvqhvg","pricing_plan_id":"cebpf4jnsgd1na2vs0mg"},{"bike_id":"6dd17a2f-59bb-4453-859d-2c09ab795824","system_id":"levelo_inurba_marseille","lat":43.33024,"lon":5.39043,"is_reserved":false,"is_disabled":false,"rental_uris":{"android":"levelo://app?vid=6dd17a2f-59bb-4453-859d-2c09ab795824","ios":"levelo://app?vid=6dd17a2f-59bb-4453-859d-2c09ab795824"},"vehicle_type_id":"4","last_reported":1726603769,"current_range_meters":28800,"station_id":"ce4bhr92rcd13ifvqhrg","pricing_plan_id":"cebpf4jnsgd1na2vs0mg"},{"bike_id":"88d2b912-cc09-457a-8c75-48c24155dfba","system_id":"levelo_inurba_marseille","lat":43.27994,"lon":5.40006,"is_reserved":false,"is_disabled":false,"rental_uris":{"android":"levelo://app?vid=88d2b912-cc09-457a-8c75-48c24155dfba","ios":"levelo://app?vid=88d2b912-cc09-457a-8c75-48c24155dfba"},"vehicle_type_id":"4","last_reported":1726603769,"current_range_meters":4000,"station_id":"ce4bho92rcd13ifvqh4g","pricing_plan_id":"cebpf4jnsgd1na2vs0mg"},{"bike_id":"b7ea11e1-154e-4e10-af5f-38667e97e429","system_id":"levelo_inurba_marseille","lat":43.30437,"lon":5.41371,"is_reserved":false,"is_disabled":false,"rental_uris":{"android":"levelo://app?vid=b7ea11e1-154e-4e10-af5f-38667e97e429","ios":"levelo://app?vid=b7ea11e1-154e-4e10-af5f-38667e97e429"},"vehicle_type_id":"4","last_reported":1726603769,"current_range_meters":7200,"station_id":"","pricing_plan_id":"cebpf4jnsgd1na2vs0mg"},{"bike_id":"a17acf09-f087-4d49-a12d-f0daedd3abe6","system_id":"levelo_inurba_marseille","lat":43.30802,"lon":5.43525,"is_reserved":false,"is_disabled":false,"rental_uris":{"android":"levelo://app?vid=a17acf09-f087-4d49-a12d-f0daedd3abe6","ios":"levelo://app?vid=a17acf09-f087-4d49-a12d-f0daedd3abe6"},"vehicle_type_id":"4","last_reported":1726603769,"current_range_meters":38800,"station_id":"ce4bhph2rcd13ifvqheg","pricing_plan_id":"cebpf4jnsgd1na2vs0mg"},{"bike_id":"7050c3fc-5fdc-468c-8737-4feab9a71872","system_id":"levelo_inurba_marseille","lat":43.27609,"lon":5.36122,"is_reserved":false,"is_disabled":false,"rental_uris":{"android":"levelo://app?vid=7050c3fc-5fdc-468c-8737-4feab9a71872","ios":"levelo://app?vid=7050c3fc-5fdc-468c-8737-4feab9a71872"},"vehicle_type_id":"4","last_reported":1726603769,"current_range_meters":38800,"station_id":"ce4bgj92rcd13ifvqbe0","pricing_plan_id":"cebpf4jnsgd1na2vs0mg"},{"bike_id":"d954172d-bde2-4d22-8052-4908015cb374","system_id":"levelo_inurba_marseille","lat":43.29928,"lon":5.36547,"is_reserved":false,"is_disabled":false,"rental_uris":{"android":"levelo://app?vid=d954172d-bde2-4d22-8052-4908015cb374","ios":"levelo://app?vid=d954172d-bde2-4d22-8052-4908015cb374"},"vehicle_type_id":"4","last_reported":1726603769,"current_range_meters":18000,"station_id":"ce4bgm92rcd13ifvqbr0","pricing_plan_id":"cebpf4jnsgd1na2vs0mg"},{"bike_id":"70fc7e83-326c-4da5-9b44-70451b78b4c2","system_id":"levelo_inurba_marseille","lat":43.32483,"lon":5.36567,"is_reserved":false,"is_disabled":false,"rental_uris":{"android":"levelo://app?vid=70fc7e83-326c-4da5-9b44-70451b78b4c2","ios":"levelo://app?vid=70fc7e83-326c-4da5-9b44-70451b78b4c2"},"vehicle_type_id":"4","last_reported":1726603769,"current_range_meters":14400,"station_id":"ce4bhs12rcd13ifvqhvg","pricing_plan_id":"cebpf4jnsgd1na2vs0mg"},{"bike_id":"1522ee2e-2bde-44fb-9e73-60b151d9acc2","system_id":"levelo_inurba_marseille","lat":43.25086,"lon":5.39511,"is_reserved":false,"is_disabled":false,"rental_uris":{"android":"levelo://app?vid=1522ee2e-2bde-44fb-9e73-60b151d9acc2","ios":"levelo://app?vid=1522ee2e-2bde-44fb-9e73-60b151d9acc2"},"vehicle_type_id":"4","last_reported":1726603769,"current_range_meters":9200,"station_id":"ce4bhm12rcd13ifvqgkg","pricing_plan_id":"cebpf4jnsgd1na2vs0mg"},{"bike_id":"6bbde286-5333-403d-b932-6c6db8cf9589","system_id":"levelo_inurba_marseille","lat":43.289063,"lon":5.39534,"is_reserved":false,"is_disabled":false,"rental_uris":{"android":"levelo://app?vid=6bbde286-5333-403d-b932-6c6db8cf9589","ios":"levelo://app?vid=6bbde286-5333-403d-b932-6c6db8cf9589"},"vehicle_type_id":"4","last_reported":1726603769,"current_range_meters":6800,"station_id":"","pricing_plan_id":"cebpf4jnsgd1na2vs0mg"},{"bike_id":"8d9f1c04-c36f-42f8-8dd4-e869b55a7d2c","system_id":"levelo_inurba_marseille","lat":43.24185,"lon":5.39727,"is_reserved":false,"is_disabled":false,"rental_uris":{"android":"levelo://app?vid=8d9f1c04-c36f-42f8-8dd4-e869b55a7d2c","ios":"levelo://app?vid=8d9f1c04-c36f-42f8-8dd4-e869b55a7d2c"},"vehicle_type_id":"4","last_reported":1726603769,"current_range_meters":25600,"station_id":"ce4bhn12rcd13ifvqgpg","pricing_plan_id":"cebpf4jnsgd1na2vs0mg"},{"bike_id":"446b2bff-a89e-45e8-a0b9-5ba39ecd2ea0","system_id":"levelo_inurba_marseille","lat":43.27371,"lon":5.36261,"is_reserved":false,"is_disabled":false,"rental_uris":{"android":"levelo://app?vid=446b2bff-a89e-45e8-a0b9-5ba39ecd2ea0","ios":"levelo://app?vid=446b2bff-a89e-45e8-a0b9-5ba39ecd2ea0"},"vehicle_type_id":"4","last_reported":1726603769,"current_range_meters":28000,"station_id":"ce4bhbh2rcd13ifvqeo0","pricing_plan_id":"cebpf4jnsgd1na2vs0mg"},{"bike_id":"84fff7ff-831a-4fef-a815-767fc6abb806","system_id":"levelo_inurba_marseille","lat":43.27991,"lon":5.40016,"is_reserved":false,"is_disabled":false,"rental_uris":{"android":"levelo://app?vid=84fff7ff-831a-4fef-a815-767fc6abb806","ios":"levelo://app?vid=84fff7ff-831a-4fef-a815-767fc6abb806"},"vehicle_type_id":"4","last_reported":1726603769,"current_range_meters":18000,"station_id":"ce4bho92rcd13ifvqh4g","pricing_plan_id":"cebpf4jnsgd1na2vs0mg"},{"bike_id":"fe78de42-3113-4d74-9793-bfa3fe7c2bfc","system_id":"levelo_inurba_marseille","lat":43.29255,"lon":5.40912,"is_reserved":false,"is_disabled":false,"rental_uris":{"android":"levelo://app?vid=fe78de42-3113-4d74-9793-bfa3fe7c2bfc","ios":"levelo://app?vid=fe78de42-3113-4d74-9793-bfa3fe7c2bfc"},"vehicle_type_id":"4","last_reported":1726603769,"current_range_meters":39200,"station_id":"ce4bh192rcd13ifvqdc0","pricing_plan_id":"cebpf4jnsgd1na2vs0mg"},{"bike_id":"4e7610a5-9867-422f-a1e3-ff8c4d964791","system_id":"levelo_inurba_marseille","lat":43.25085,"lon":5.3952,"is_reserved":false,"is_disabled":false,"rental_uris":{"android":"levelo://app?vid=4e7610a5-9867-422f-a1e3-ff8c4d964791","ios":"levelo://app?vid=4e7610a5-9867-422f-a1e3-ff8c4d964791"},"vehicle_type_id":"4","last_reported":1726603769,"current_range_meters":30400,"station_id":"ce4bhm12rcd13ifvqgkg","pricing_plan_id":"cebpf4jnsgd1na2vs0mg"},{"bike_id":"eff58d7e-51e0-4a12-b583-83be93b6ef56","system_id":"levelo_inurba_marseille","lat":43.30889,"lon":5.37194,"is_reserved":false,"is_disabled":false,"rental_uris":{"android":"levelo://app?vid=eff58d7e-51e0-4a12-b583-83be93b6ef56","ios":"levelo://app?vid=eff58d7e-51e0-4a12-b583-83be93b6ef56"},"vehicle_type_id":"4","last_reported":1726603769,"current_range_meters":22000,"station_id":"ce4bguh2rcd13ifvqckg","pricing_plan_id":"cebpf4jnsgd1na2vs0mg"},{"bike_id":"65eecb51-7024-4f30-af20-d65f809bce2b","system_id":"levelo_inurba_marseille","lat":43.31344,"lon":5.37942,"is_reserved":false,"is_disabled":false,"rental_uris":{"android":"levelo://app?vid=65eecb51-7024-4f30-af20-d65f809bce2b","ios":"levelo://app?vid=65eecb51-7024-4f30-af20-d65f809bce2b"},"vehicle_type_id":"4","last_reported":1726603769,"current_range_meters":6800,"station_id":"","pricing_plan_id":"cebpf4jnsgd1na2vs0mg"},{"bike_id":"85f35905-070a-4a43-b69b-19cfcf5195a8","system_id":"levelo_inurba_marseille","lat":43.29561,"lon":5.42285,"is_reserved":false,"is_disabled":false,"rental_uris":{"android":"levelo://app?vid=85f35905-070a-4a43-b69b-19cfcf5195a8","ios":"levelo://app?vid=85f35905-070a-4a43-b69b-19cfcf5195a8"},"vehicle_type_id":"4","last_reported":1726603769,"current_range_meters":38800,"station_id":"ce4bhph2rcd13ifvqhdg","pricing_plan_id":"cebpf4jnsgd1na2vs0mg"},{"bike_id":"7fc922f0-fed0-41ec-a8c3-58882969f9b9","system_id":"levelo_inurba_marseille","lat":43.27995,"lon":5.40004,"is_reserved":false,"is_disabled":false,"rental_uris":{"android":"levelo://app?vid=7fc922f0-fed0-41ec-a8c3-58882969f9b9","ios":"levelo://app?vid=7fc922f0-fed0-41ec-a8c3-58882969f9b9"},"vehicle_type_id":"4","last_reported":1726603769,"current_range_meters":26800,"station_id":"ce4bho92rcd13ifvqh4g","pricing_plan_id":"cebpf4jnsgd1na2vs0mg"},{"bike_id":"3a7bfbc6-ed61-4d97-8b45-6da28813a492","system_id":"levelo_inurba_marseille","lat":43.29014,"lon":5.3733,"is_reserved":false,"is_disabled":false,"rental_uris":{"android":"levelo://app?vid=3a7bfbc6-ed61-4d97-8b45-6da28813a492","ios":"levelo://app?vid=3a7bfbc6-ed61-4d97-8b45-6da28813a492"},"vehicle_type_id":"4","last_reported":1726603769,"current_range_meters":27200,"station_id":"ce4bh5p2rcd13ifvqe4g","pricing_plan_id":"cebpf4jnsgd1na2vs0mg"},{"bike_id":"5ad76090-8691-48ec-9040-016e70c34f7b","system_id":"levelo_inurba_marseille","lat":43.28035,"lon":5.36946,"is_reserved":false,"is_disabled":false,"rental_uris":{"android":"levelo://app?vid=5ad76090-8691-48ec-9040-016e70c34f7b","ios":"levelo://app?vid=5ad76090-8691-48ec-9040-016e70c34f7b"},"vehicle_type_id":"4","last_reported":1726603769,"current_range_meters":32800,"station_id":"ce4bha12rcd13ifvqef0","pricing_plan_id":"cebpf4jnsgd1na2vs0mg"},{"bike_id":"54c25936-0917-4d26-b1d6-5f1b310d5d09","system_id":"levelo_inurba_marseille","lat":43.26061,"lon":5.39399,"is_reserved":false,"is_disabled":false,"rental_uris":{"android":"levelo://app?vid=54c25936-0917-4d26-b1d6-5f1b310d5d09","ios":"levelo://app?vid=54c25936-0917-4d26-b1d6-5f1b310d5d09"},"vehicle_type_id":"4","last_reported":1726603769,"current_range_meters":4800,"station_id":"ce4bhh92rcd13ifvqfj0","pricing_plan_id":"cebpf4jnsgd1na2vs0mg"},{"bike_id":"488f6208-7d65-408c-8e8a-7fd5ce88a449","system_id":"levelo_inurba_marseille","lat":43.28725,"lon":5.36085,"is_reserved":false,"is_disabled":false,"rental_uris":{"android":"levelo://app?vid=488f6208-7d65-408c-8e8a-7fd5ce88a449","ios":"levelo://app?vid=488f6208-7d65-408c-8e8a-7fd5ce88a449"},"vehicle_type_id":"4","last_reported":1726603769,"current_range_meters":8400,"station_id":"cki0cbj6b192h4jlfktg","pricing_plan_id":"cebpf4jnsgd1na2vs0mg"},{"bike_id":"a7bf61cc-23d9-4b47-b1d1-00838585cb31","system_id":"levelo_inurba_marseille","lat":43.29792,"lon":5.39342,"is_reserved":false,"is_disabled":false,"rental_uris":{"android":"levelo://app?vid=a7bf61cc-23d9-4b47-b1d1-00838585cb31","ios":"levelo://app?vid=a7bf61cc-23d9-4b47-b1d1-00838585cb31"},"vehicle_type_id":"4","last_reported":1726603769,"current_range_meters":38800,"station_id":"chh1huq6cuj3fo74tm60","pricing_plan_id":"cebpf4jnsgd1na2vs0mg"},{"bike_id":"8df9b443-9de8-4722-8249-b1177eae6398","system_id":"levelo_inurba_marseille","lat":43.29795,"lon":5.39337,"is_reserved":false,"is_disabled":false,"rental_uris":{"android":"levelo://app?vid=8df9b443-9de8-4722-8249-b1177eae6398","ios":"levelo://app?vid=8df9b443-9de8-4722-8249-b1177eae6398"},"vehicle_type_id":"4","last_reported":1726603769,"current_range_meters":36800,"station_id":"chh1huq6cuj3fo74tm60","pricing_plan_id":"cebpf4jnsgd1na2vs0mg"},{"bike_id":"fb532b74-5d2a-452c-b1a9-cb0dfb602d3c","system_id":"levelo_inurba_marseille","lat":43.25828,"lon":5.39436,"is_reserved":false,"is_disabled":false,"rental_uris":{"android":"levelo://app?vid=fb532b74-5d2a-452c-b1a9-cb0dfb602d3c","ios":"levelo://app?vid=fb532b74-5d2a-452c-b1a9-cb0dfb602d3c"},"vehicle_type_id":"4","last_reported":1726603769,"current_range_meters":11600,"station_id":"ce4bhip2rcd13ifvqft0","pricing_plan_id":"cebpf4jnsgd1na2vs0mg"},{"bike_id":"e1055f26-c66c-41ee-bf2f-25406c6db080","system_id":"levelo_inurba_marseille","lat":43.33027,"lon":5.39049,"is_reserved":false,"is_disabled":false,"rental_uris":{"android":"levelo://app?vid=e1055f26-c66c-41ee-bf2f-25406c6db080","ios":"levelo://app?vid=e1055f26-c66c-41ee-bf2f-25406c6db080"},"vehicle_type_id":"4","last_reported":1726603769,"current_range_meters":36800,"station_id":"ce4bhr92rcd13ifvqhrg","pricing_plan_id":"cebpf4jnsgd1na2vs0mg"},{"bike_id":"7f4c1b54-da33-4cbd-8666-5285f9a039ca","system_id":"levelo_inurba_marseille","lat":43.30535,"lon":5.3843,"is_reserved":false,"is_disabled":false,"rental_uris":{"android":"levelo://app?vid=7f4c1b54-da33-4cbd-8666-5285f9a039ca","ios":"levelo://app?vid=7f4c1b54-da33-4cbd-8666-5285f9a039ca"},"vehicle_type_id":"4","last_reported":1726603769,"current_range_meters":31200,"station_id":"ce4bgg92rcd13ifvqb30","pricing_plan_id":"cebpf4jnsgd1na2vs0mg"},{"bike_id":"a13b8302-4ea2-4c29-8731-e0e42e68149a","system_id":"levelo_inurba_marseille","lat":43.32293,"lon":5.38277,"is_reserved":false,"is_disabled":false,"rental_uris":{"android":"levelo://app?vid=a13b8302-4ea2-4c29-8731-e0e42e68149a","ios":"levelo://app?vid=a13b8302-4ea2-4c29-8731-e0e42e68149a"},"vehicle_type_id":"4","last_reported":1726603769,"current_range_meters":38800,"station_id":"ce4bhr12rcd13ifvqhqg","pricing_plan_id":"cebpf4jnsgd1na2vs0mg"},{"bike_id":"7cfd4a31-13a3-48bb-9faa-112f6c22e584","system_id":"levelo_inurba_marseille","lat":43.23759,"lon":5.36431,"is_reserved":false,"is_disabled":false,"rental_uris":{"android":"levelo://app?vid=7cfd4a31-13a3-48bb-9faa-112f6c22e584","ios":"levelo://app?vid=7cfd4a31-13a3-48bb-9faa-112f6c22e584"},"vehicle_type_id":"4","last_reported":1726603769,"current_range_meters":4000,"station_id":"","pricing_plan_id":"cebpf4jnsgd1na2vs0mg"},{"bike_id":"7f3e6039-3f69-453d-9df3-160f49f86f48","system_id":"levelo_inurba_marseille","lat":43.25821,"lon":5.39437,"is_reserved":false,"is_disabled":false,"rental_uris":{"android":"levelo://app?vid=7f3e6039-3f69-453d-9df3-160f49f86f48","ios":"levelo://app?vid=7f3e6039-3f69-453d-9df3-160f49f86f48"},"vehicle_type_id":"4","last_reported":1726603769,"current_range_meters":14000,"station_id":"ce4bhip2rcd13ifvqft0","pricing_plan_id":"cebpf4jnsgd1na2vs0mg"},{"bike_id":"9817be4f-4df1-45c0-b71b-85315d53cadd","system_id":"levelo_inurba_marseille","lat":43.28341,"lon":5.38113,"is_reserved":false,"is_disabled":false,"rental_uris":{"android":"levelo://app?vid=9817be4f-4df1-45c0-b71b-85315d53cadd","ios":"levelo://app?vid=9817be4f-4df1-45c0-b71b-85315d53cadd"},"vehicle_type_id":"4","last_reported":1726603769,"current_range_meters":32000,"station_id":"ce4bh412rcd13ifvqdr0","pricing_plan_id":"cebpf4jnsgd1na2vs0mg"},{"bike_id":"db7df4a6-605a-4035-a15c-80a3493b0d52","system_id":"levelo_inurba_marseille","lat":43.27936,"lon":5.41047,"is_reserved":false,"is_disabled":false,"rental_uris":{"android":"levelo://app?vid=db7df4a6-605a-4035-a15c-80a3493b0d52","ios":"levelo://app?vid=db7df4a6-605a-4035-a15c-80a3493b0d52"},"vehicle_type_id":"4","last_reported":1726603769,"current_range_meters":8800,"station_id":"ce4bhnp2rcd13ifvqh0g","pricing_plan_id":"cebpf4jnsgd1na2vs0mg"},{"bike_id":"faea3008-27de-4732-a30f-d151979482e6","system_id":"levelo_inurba_marseille","lat":43.2952,"lon":5.39399,"is_reserved":false,"is_disabled":false,"rental_uris":{"android":"levelo://app?vid=faea3008-27de-4732-a30f-d151979482e6","ios":"levelo://app?vid=faea3008-27de-4732-a30f-d151979482e6"},"vehicle_type_id":"4","last_reported":1726603769,"current_range_meters":6800,"station_id":"ce4bh292rcd13ifvqdf0","pricing_plan_id":"cebpf4jnsgd1na2vs0mg"},{"bike_id":"3dc47dd1-340e-461f-8e2f-d8a9319bde86","system_id":"levelo_inurba_marseille","lat":43.29797,"lon":5.37108,"is_reserved":false,"is_disabled":false,"rental_uris":{"android":"levelo://app?vid=3dc47dd1-340e-461f-8e2f-d8a9319bde86","ios":"levelo://app?vid=3dc47dd1-340e-461f-8e2f-d8a9319bde86"},"vehicle_type_id":"4","last_reported":1726603769,"current_range_meters":18800,"station_id":"ce4bgop2rcd13ifvqc1g","pricing_plan_id":"cebpf4jnsgd1na2vs0mg"},{"bike_id":"cbaf03bf-0340-4293-a424-18d0ef0b595f","system_id":"levelo_inurba_marseille","lat":43.29898,"lon":5.43664,"is_reserved":false,"is_disabled":false,"rental_uris":{"android":"levelo://app?vid=cbaf03bf-0340-4293-a424-18d0ef0b595f","ios":"levelo://app?vid=cbaf03bf-0340-4293-a424-18d0ef0b595f"},"vehicle_type_id":"4","last_reported":1726603769,"current_range_meters":19600,"station_id":"ce4bhpp2rcd13ifvqhfg","pricing_plan_id":"cebpf4jnsgd1na2vs0mg"},{"bike_id":"23658419-ac7d-4807-acce-c2fde1380024","system_id":"levelo_inurba_marseille","lat":43.26496,"lon":5.39543,"is_reserved":false,"is_disabled":false,"rental_uris":{"android":"levelo://app?vid=23658419-ac7d-4807-acce-c2fde1380024","ios":"levelo://app?vid=23658419-ac7d-4807-acce-c2fde1380024"},"vehicle_type_id":"4","last_reported":1726603769,"current_range_meters":7200,"station_id":"ce4bhi12rcd13ifvqfq0","pricing_plan_id":"cebpf4jnsgd1na2vs0mg"},{"bike_id":"9ae1ff55-f983-41af-8b45-d9d4fcfb7459","system_id":"levelo_inurba_marseille","lat":43.24666,"lon":5.38157,"is_reserved":false,"is_disabled":false,"rental_uris":{"android":"levelo://app?vid=9ae1ff55-f983-41af-8b45-d9d4fcfb7459","ios":"levelo://app?vid=9ae1ff55-f983-41af-8b45-d9d4fcfb7459"},"vehicle_type_id":"4","last_reported":1726603769,"current_range_meters":400,"station_id":"ce4bhih2rcd13ifvqfr0","pricing_plan_id":"cebpf4jnsgd1na2vs0mg"},{"bike_id":"d8e751ce-68d8-4843-af31-f29be99d953d","system_id":"levelo_inurba_marseille","lat":43.23961,"lon":5.36634,"is_reserved":false,"is_disabled":false,"rental_uris":{"android":"levelo://app?vid=d8e751ce-68d8-4843-af31-f29be99d953d","ios":"levelo://app?vid=d8e751ce-68d8-4843-af31-f29be99d953d"},"vehicle_type_id":"4","last_reported":1726603769,"current_range_meters":11200,"station_id":"ce4bhi12rcd13ifvqfp0","pricing_plan_id":"cebpf4jnsgd1na2vs0mg"},{"bike_id":"09a8384a-e829-45ba-8932-4142fac917da","system_id":"levelo_inurba_marseille","lat":43.30783,"lon":5.37646,"is_reserved":false,"is_disabled":false,"rental_uris":{"android":"levelo://app?vid=09a8384a-e829-45ba-8932-4142fac917da","ios":"levelo://app?vid=09a8384a-e829-45ba-8932-4142fac917da"},"vehicle_type_id":"4","last_reported":1726603769,"current_range_meters":11200,"station_id":"ce4bgv92rcd13ifvqcq0","pricing_plan_id":"cebpf4jnsgd1na2vs0mg"},{"bike_id":"73e17ec8-e47d-415b-a693-9917ccf29905","system_id":"levelo_inurba_marseille","lat":43.31757,"lon":5.39011,"is_reserved":false,"is_disabled":false,"rental_uris":{"android":"levelo://app?vid=73e17ec8-e47d-415b-a693-9917ccf29905","ios":"levelo://app?vid=73e17ec8-e47d-415b-a693-9917ccf29905"},"vehicle_type_id":"4","last_reported":1726603769,"current_range_meters":39200,"station_id":"ce4bhqp2rcd13ifvqhng","pricing_plan_id":"cebpf4jnsgd1na2vs0mg"},{"bike_id":"1f355529-5ae1-4b9b-8cf5-039bf1803d01","system_id":"levelo_inurba_marseille","lat":43.31729,"lon":5.42398,"is_reserved":false,"is_disabled":false,"rental_uris":{"android":"levelo://app?vid=1f355529-5ae1-4b9b-8cf5-039bf1803d01","ios":"levelo://app?vid=1f355529-5ae1-4b9b-8cf5-039bf1803d01"},"vehicle_type_id":"4","last_reported":1726603769,"current_range_meters":38000,"station_id":"ce4bhp92rcd13ifvqhbg","pricing_plan_id":"cebpf4jnsgd1na2vs0mg"},{"bike_id":"028b53f1-b4c0-4b30-b924-d15e885791dc","system_id":"levelo_inurba_marseille","lat":43.319633,"lon":5.382706,"is_reserved":false,"is_disabled":false,"rental_uris":{"android":"levelo://app?vid=028b53f1-b4c0-4b30-b924-d15e885791dc","ios":"levelo://app?vid=028b53f1-b4c0-4b30-b924-d15e885791dc"},"vehicle_type_id":"4","last_reported":1726603769,"current_range_meters":36800,"station_id":"ce4bhr12rcd13ifvqhpg","pricing_plan_id":"cebpf4jnsgd1na2vs0mg"},{"bike_id":"bb9b0b96-fc7b-46c6-8bd7-e61f24aa0921","system_id":"levelo_inurba_marseille","lat":43.3237,"lon":5.38887,"is_reserved":false,"is_disabled":false,"rental_uris":{"android":"levelo://app?vid=bb9b0b96-fc7b-46c6-8bd7-e61f24aa0921","ios":"levelo://app?vid=bb9b0b96-fc7b-46c6-8bd7-e61f24aa0921"},"vehicle_type_id":"4","last_reported":1726603769,"current_range_meters":3600,"station_id":"ce4bhqp2rcd13ifvqhog","pricing_plan_id":"cebpf4jnsgd1na2vs0mg"},{"bike_id":"728f1fe9-98b8-4266-a8fe-7ff0429c93b2","system_id":"levelo_inurba_marseille","lat":43.29524,"lon":5.39048,"is_reserved":false,"is_disabled":false,"rental_uris":{"android":"levelo://app?vid=728f1fe9-98b8-4266-a8fe-7ff0429c93b2","ios":"levelo://app?vid=728f1fe9-98b8-4266-a8fe-7ff0429c93b2"},"vehicle_type_id":"4","last_reported":1726603769,"current_range_meters":38800,"station_id":"ce4bh3p2rcd13ifvqdp0","pricing_plan_id":"cebpf4jnsgd1na2vs0mg"},{"bike_id":"87329a44-79e9-4a6c-9ee8-169764409136","system_id":"levelo_inurba_marseille","lat":43.29522,"lon":5.37511,"is_reserved":false,"is_disabled":false,"rental_uris":{"android":"levelo://app?vid=87329a44-79e9-4a6c-9ee8-169764409136","ios":"levelo://app?vid=87329a44-79e9-4a6c-9ee8-169764409136"},"vehicle_type_id":"4","last_reported":1726603769,"current_range_meters":38800,"station_id":"ce4bgkp2rcd13ifvqbmg","pricing_plan_id":"cebpf4jnsgd1na2vs0mg"},{"bike_id":"fab0bd94-d39d-4613-9a3d-d8fa519b31d4","system_id":"levelo_inurba_marseille","lat":43.25868,"lon":5.39895,"is_reserved":false,"is_disabled":false,"rental_uris":{"android":"levelo://app?vid=fab0bd94-d39d-4613-9a3d-d8fa519b31d4","ios":"levelo://app?vid=fab0bd94-d39d-4613-9a3d-d8fa519b31d4"},"vehicle_type_id":"4","last_reported":1726603769,"current_range_meters":8000,"station_id":"ce4bhl92rcd13ifvqghg","pricing_plan_id":"cebpf4jnsgd1na2vs0mg"},{"bike_id":"c82d7f3c-afe2-4dff-9dcb-16ae1a7b7ae3","system_id":"levelo_inurba_marseille","lat":43.32294,"lon":5.38262,"is_reserved":false,"is_disabled":false,"rental_uris":{"android":"levelo://app?vid=c82d7f3c-afe2-4dff-9dcb-16ae1a7b7ae3","ios":"levelo://app?vid=c82d7f3c-afe2-4dff-9dcb-16ae1a7b7ae3"},"vehicle_type_id":"4","last_reported":1726603769,"current_range_meters":8400,"station_id":"ce4bhr12rcd13ifvqhqg","pricing_plan_id":"cebpf4jnsgd1na2vs0mg"},{"bike_id":"cd5bcc1f-6586-4314-9ac3-73bb4c6b0673","system_id":"levelo_inurba_marseille","lat":43.274872,"lon":5.424514,"is_reserved":false,"is_disabled":false,"rental_uris":{"android":"levelo://app?vid=cd5bcc1f-6586-4314-9ac3-73bb4c6b0673","ios":"levelo://app?vid=cd5bcc1f-6586-4314-9ac3-73bb4c6b0673"},"vehicle_type_id":"4","last_reported":1726603769,"current_range_meters":22800,"station_id":"ce4bhn92rcd13ifvqgrg","pricing_plan_id":"cebpf4jnsgd1na2vs0mg"},{"bike_id":"db134a01-c8be-483f-ba9f-31d7a2901e3b","system_id":"levelo_inurba_marseille","lat":43.28717,"lon":5.36097,"is_reserved":false,"is_disabled":false,"rental_uris":{"android":"levelo://app?vid=db134a01-c8be-483f-ba9f-31d7a2901e3b","ios":"levelo://app?vid=db134a01-c8be-483f-ba9f-31d7a2901e3b"},"vehicle_type_id":"4","last_reported":1726603769,"current_range_meters":13600,"station_id":"cki0cbj6b192h4jlfktg","pricing_plan_id":"cebpf4jnsgd1na2vs0mg"},{"bike_id":"328d45f9-980e-4811-97c0-47d761861509","system_id":"levelo_inurba_marseille","lat":43.29847,"lon":5.37836,"is_reserved":false,"is_disabled":false,"rental_uris":{"android":"levelo://app?vid=328d45f9-980e-4811-97c0-47d761861509","ios":"levelo://app?vid=328d45f9-980e-4811-97c0-47d761861509"},"vehicle_type_id":"4","last_reported":1726603769,"current_range_meters":16000,"station_id":"ce4bgkh2rcd13ifvqbl0","pricing_plan_id":"cebpf4jnsgd1na2vs0mg"},{"bike_id":"03e2c5ba-06a9-4865-be73-faa219b71a00","system_id":"levelo_inurba_marseille","lat":43.24681,"lon":5.38162,"is_reserved":false,"is_disabled":false,"rental_uris":{"android":"levelo://app?vid=03e2c5ba-06a9-4865-be73-faa219b71a00","ios":"levelo://app?vid=03e2c5ba-06a9-4865-be73-faa219b71a00"},"vehicle_type_id":"4","last_reported":1726603769,"current_range_meters":29600,"station_id":"ce4bhih2rcd13ifvqfr0","pricing_plan_id":"cebpf4jnsgd1na2vs0mg"},{"bike_id":"72c7f9c0-3e19-4baa-a0d2-80a592f80b1a","system_id":"levelo_inurba_marseille","lat":43.28566,"lon":5.39492,"is_reserved":false,"is_disabled":false,"rental_uris":{"android":"levelo://app?vid=72c7f9c0-3e19-4baa-a0d2-80a592f80b1a","ios":"levelo://app?vid=72c7f9c0-3e19-4baa-a0d2-80a592f80b1a"},"vehicle_type_id":"4","last_reported":1726603769,"current_range_meters":30800,"station_id":"ce4bh292rcd13ifvqdg0","pricing_plan_id":"cebpf4jnsgd1na2vs0mg"},{"bike_id":"ff70ac17-428b-4ed9-8a4c-fbadfd5b9285","system_id":"levelo_inurba_marseille","lat":43.24673,"lon":5.38166,"is_reserved":false,"is_disabled":false,"rental_uris":{"android":"levelo://app?vid=ff70ac17-428b-4ed9-8a4c-fbadfd5b9285","ios":"levelo://app?vid=ff70ac17-428b-4ed9-8a4c-fbadfd5b9285"},"vehicle_type_id":"4","last_reported":1726603769,"current_range_meters":33200,"station_id":"ce4bhih2rcd13ifvqfr0","pricing_plan_id":"cebpf4jnsgd1na2vs0mg"},{"bike_id":"b1512e21-0d75-4511-8316-0151c5567a4e","system_id":"levelo_inurba_marseille","lat":43.29705,"lon":5.36602,"is_reserved":false,"is_disabled":false,"rental_uris":{"android":"levelo://app?vid=b1512e21-0d75-4511-8316-0151c5567a4e","ios":"levelo://app?vid=b1512e21-0d75-4511-8316-0151c5567a4e"},"vehicle_type_id":"4","last_reported":1726603769,"current_range_meters":20000,"station_id":"ce4bgn12rcd13ifvqbt0","pricing_plan_id":"cebpf4jnsgd1na2vs0mg"},{"bike_id":"75e7fd6e-8221-4e11-8676-da14e45d21f7","system_id":"levelo_inurba_marseille","lat":43.27999,"lon":5.40018,"is_reserved":false,"is_disabled":false,"rental_uris":{"android":"levelo://app?vid=75e7fd6e-8221-4e11-8676-da14e45d21f7","ios":"levelo://app?vid=75e7fd6e-8221-4e11-8676-da14e45d21f7"},"vehicle_type_id":"4","last_reported":1726603769,"current_range_meters":35200,"station_id":"ce4bho92rcd13ifvqh4g","pricing_plan_id":"cebpf4jnsgd1na2vs0mg"},{"bike_id":"fa690805-233a-4a70-a9f3-33f1b67cdb1f","system_id":"levelo_inurba_marseille","lat":43.32286,"lon":5.38265,"is_reserved":false,"is_disabled":false,"rental_uris":{"android":"levelo://app?vid=fa690805-233a-4a70-a9f3-33f1b67cdb1f","ios":"levelo://app?vid=fa690805-233a-4a70-a9f3-33f1b67cdb1f"},"vehicle_type_id":"4","last_reported":1726603769,"current_range_meters":30800,"station_id":"ce4bhr12rcd13ifvqhqg","pricing_plan_id":"cebpf4jnsgd1na2vs0mg"},{"bike_id":"d4dee6ce-09ee-4472-9917-4640f642bb72","system_id":"levelo_inurba_marseille","lat":43.22934,"lon":5.35375,"is_reserved":false,"is_disabled":false,"rental_uris":{"android":"levelo://app?vid=d4dee6ce-09ee-4472-9917-4640f642bb72","ios":"levelo://app?vid=d4dee6ce-09ee-4472-9917-4640f642bb72"},"vehicle_type_id":"4","last_reported":1726603769,"current_range_meters":32800,"station_id":"cpo3532slgdg3j2ikp40","pricing_plan_id":"cebpf4jnsgd1na2vs0mg"},{"bike_id":"8b608b96-fedf-4511-8d4b-09bad2606e1a","system_id":"levelo_inurba_marseille","lat":43.27726,"lon":5.4114,"is_reserved":false,"is_disabled":false,"rental_uris":{"android":"levelo://app?vid=8b608b96-fedf-4511-8d4b-09bad2606e1a","ios":"levelo://app?vid=8b608b96-fedf-4511-8d4b-09bad2606e1a"},"vehicle_type_id":"4","last_reported":1726603769,"current_range_meters":8400,"station_id":"","pricing_plan_id":"cebpf4jnsgd1na2vs0mg"},{"bike_id":"e7aa2c66-5d42-4d6a-9c7a-cc018d87e110","system_id":"levelo_inurba_marseille","lat":43.28654,"lon":5.36362,"is_reserved":false,"is_disabled":false,"rental_uris":{"android":"levelo://app?vid=e7aa2c66-5d42-4d6a-9c7a-cc018d87e110","ios":"levelo://app?vid=e7aa2c66-5d42-4d6a-9c7a-cc018d87e110"},"vehicle_type_id":"4","last_reported":1726603769,"current_range_meters":24800,"station_id":"ce4bhah2rcd13ifvqej0","pricing_plan_id":"cebpf4jnsgd1na2vs0mg"},{"bike_id":"74fcf1e7-64a1-42f8-bcec-bf0af491e527","system_id":"levelo_inurba_marseille","lat":43.3171,"lon":5.43707,"is_reserved":false,"is_disabled":false,"rental_uris":{"android":"levelo://app?vid=74fcf1e7-64a1-42f8-bcec-bf0af491e527","ios":"levelo://app?vid=74fcf1e7-64a1-42f8-bcec-bf0af491e527"},"vehicle_type_id":"4","last_reported":1726603769,"current_range_meters":12400,"station_id":"ce4bhp92rcd13ifvqhcg","pricing_plan_id":"cebpf4jnsgd1na2vs0mg"},{"bike_id":"7934c2b6-1bac-43bf-8ede-d33bc81e347b","system_id":"levelo_inurba_marseille","lat":43.2397,"lon":5.36637,"is_reserved":false,"is_disabled":false,"rental_uris":{"android":"levelo://app?vid=7934c2b6-1bac-43bf-8ede-d33bc81e347b","ios":"levelo://app?vid=7934c2b6-1bac-43bf-8ede-d33bc81e347b"},"vehicle_type_id":"4","last_reported":1726603769,"current_range_meters":38800,"station_id":"ce4bhi12rcd13ifvqfp0","pricing_plan_id":"cebpf4jnsgd1na2vs0mg"},{"bike_id":"8e1fdf17-2211-46da-9d6a-081bb876b3c5","system_id":"levelo_inurba_marseille","lat":43.29261,"lon":5.40906,"is_reserved":false,"is_disabled":false,"rental_uris":{"android":"levelo://app?vid=8e1fdf17-2211-46da-9d6a-081bb876b3c5","ios":"levelo://app?vid=8e1fdf17-2211-46da-9d6a-081bb876b3c5"},"vehicle_type_id":"4","last_reported":1726603769,"current_range_meters":28000,"station_id":"ce4bh192rcd13ifvqdc0","pricing_plan_id":"cebpf4jnsgd1na2vs0mg"},{"bike_id":"15fa5f55-16e3-4073-b804-ad07776e8a41","system_id":"levelo_inurba_marseille","lat":43.294356,"lon":5.39752,"is_reserved":false,"is_disabled":false,"rental_uris":{"android":"levelo://app?vid=15fa5f55-16e3-4073-b804-ad07776e8a41","ios":"levelo://app?vid=15fa5f55-16e3-4073-b804-ad07776e8a41"},"vehicle_type_id":"4","last_reported":1726603769,"current_range_meters":10800,"station_id":"ce4bh3h2rcd13ifvqdo0","pricing_plan_id":"cebpf4jnsgd1na2vs0mg"},{"bike_id":"0fa03bf4-77dd-4e5f-91b5-9667c5d7251c","system_id":"levelo_inurba_marseille","lat":43.307434,"lon":5.375935,"is_reserved":false,"is_disabled":false,"rental_uris":{"android":"levelo://app?vid=0fa03bf4-77dd-4e5f-91b5-9667c5d7251c","ios":"levelo://app?vid=0fa03bf4-77dd-4e5f-91b5-9667c5d7251c"},"vehicle_type_id":"4","last_reported":1726603769,"current_range_meters":6400,"station_id":"ce4bgv92rcd13ifvqcq0","pricing_plan_id":"cebpf4jnsgd1na2vs0mg"},{"bike_id":"35c9b345-8a9c-416a-b6b2-9a402f966d92","system_id":"levelo_inurba_marseille","lat":43.280029,"lon":5.400086,"is_reserved":false,"is_disabled":false,"rental_uris":{"android":"levelo://app?vid=35c9b345-8a9c-416a-b6b2-9a402f966d92","ios":"levelo://app?vid=35c9b345-8a9c-416a-b6b2-9a402f966d92"},"vehicle_type_id":"4","last_reported":1726603769,"current_range_meters":16800,"station_id":"ce4bho92rcd13ifvqh4g","pricing_plan_id":"cebpf4jnsgd1na2vs0mg"},{"bike_id":"5e25f680-9481-4316-8a84-ddb415a5530a","system_id":"levelo_inurba_marseille","lat":43.26474,"lon":5.395614,"is_reserved":false,"is_disabled":false,"rental_uris":{"android":"levelo://app?vid=5e25f680-9481-4316-8a84-ddb415a5530a","ios":"levelo://app?vid=5e25f680-9481-4316-8a84-ddb415a5530a"},"vehicle_type_id":"4","last_reported":1726603769,"current_range_meters":19200,"station_id":"ce4bhi12rcd13ifvqfq0","pricing_plan_id":"cebpf4jnsgd1na2vs0mg"},{"bike_id":"dcefe4d8-7a41-47ce-b066-0df15725db89","system_id":"levelo_inurba_marseille","lat":43.30437,"lon":5.38899,"is_reserved":false,"is_disabled":false,"rental_uris":{"android":"levelo://app?vid=dcefe4d8-7a41-47ce-b066-0df15725db89","ios":"levelo://app?vid=dcefe4d8-7a41-47ce-b066-0df15725db89"},"vehicle_type_id":"4","last_reported":1726603769,"current_range_meters":10000,"station_id":"ce4bgk12rcd13ifvqbi0","pricing_plan_id":"cebpf4jnsgd1na2vs0mg"},{"bike_id":"a3c26967-12ec-448c-b21a-bb691683b716","system_id":"levelo_inurba_marseille","lat":43.23178,"lon":5.39992,"is_reserved":false,"is_disabled":false,"rental_uris":{"android":"levelo://app?vid=a3c26967-12ec-448c-b21a-bb691683b716","ios":"levelo://app?vid=a3c26967-12ec-448c-b21a-bb691683b716"},"vehicle_type_id":"4","last_reported":1726603769,"current_range_meters":9600,"station_id":"ce4bhn12rcd13ifvqgqg","pricing_plan_id":"cebpf4jnsgd1na2vs0mg"},{"bike_id":"36998750-85f9-4601-a517-26167687809f","system_id":"levelo_inurba_marseille","lat":43.31335,"lon":5.39695,"is_reserved":false,"is_disabled":false,"rental_uris":{"android":"levelo://app?vid=36998750-85f9-4601-a517-26167687809f","ios":"levelo://app?vid=36998750-85f9-4601-a517-26167687809f"},"vehicle_type_id":"4","last_reported":1726603769,"current_range_meters":24000,"station_id":"ce4bgvp2rcd13ifvqcu0","pricing_plan_id":"cebpf4jnsgd1na2vs0mg"},{"bike_id":"a346e3cf-583f-4ec6-b56c-3a1ed325f634","system_id":"levelo_inurba_marseille","lat":43.2962,"lon":5.37152,"is_reserved":false,"is_disabled":false,"rental_uris":{"android":"levelo://app?vid=a346e3cf-583f-4ec6-b56c-3a1ed325f634","ios":"levelo://app?vid=a346e3cf-583f-4ec6-b56c-3a1ed325f634"},"vehicle_type_id":"4","last_reported":1726603769,"current_range_meters":10000,"station_id":"ce4bgnh2rcd13ifvqc0g","pricing_plan_id":"cebpf4jnsgd1na2vs0mg"},{"bike_id":"f7c2b6b6-fe36-4599-98e2-50ede71d1d39","system_id":"levelo_inurba_marseille","lat":43.30085,"lon":5.39083,"is_reserved":false,"is_disabled":false,"rental_uris":{"android":"levelo://app?vid=f7c2b6b6-fe36-4599-98e2-50ede71d1d39","ios":"levelo://app?vid=f7c2b6b6-fe36-4599-98e2-50ede71d1d39"},"vehicle_type_id":"4","last_reported":1726603769,"current_range_meters":37600,"station_id":"ce4bh192rcd13ifvqdb0","pricing_plan_id":"cebpf4jnsgd1na2vs0mg"},{"bike_id":"763311e2-11d6-4b84-a9e9-b0617866ec04","system_id":"levelo_inurba_marseille","lat":43.3134,"lon":5.39694,"is_reserved":false,"is_disabled":false,"rental_uris":{"android":"levelo://app?vid=763311e2-11d6-4b84-a9e9-b0617866ec04","ios":"levelo://app?vid=763311e2-11d6-4b84-a9e9-b0617866ec04"},"vehicle_type_id":"4","last_reported":1726603769,"current_range_meters":30400,"station_id":"ce4bgvp2rcd13ifvqcu0","pricing_plan_id":"cebpf4jnsgd1na2vs0mg"},{"bike_id":"1fcbd01a-427d-43a5-9535-912c25efa134","system_id":"levelo_inurba_marseille","lat":43.23207,"lon":5.35551,"is_reserved":false,"is_disabled":false,"rental_uris":{"android":"levelo://app?vid=1fcbd01a-427d-43a5-9535-912c25efa134","ios":"levelo://app?vid=1fcbd01a-427d-43a5-9535-912c25efa134"},"vehicle_type_id":"4","last_reported":1726603769,"current_range_meters":38800,"station_id":"ce4bhu92rcd13ifvqi70","pricing_plan_id":"cebpf4jnsgd1na2vs0mg"},{"bike_id":"5e3f6124-14aa-43ac-9a41-fb3522a8029a","system_id":"levelo_inurba_marseille","lat":43.30095,"lon":5.39079,"is_reserved":false,"is_disabled":false,"rental_uris":{"android":"levelo://app?vid=5e3f6124-14aa-43ac-9a41-fb3522a8029a","ios":"levelo://app?vid=5e3f6124-14aa-43ac-9a41-fb3522a8029a"},"vehicle_type_id":"4","last_reported":1726603769,"current_range_meters":15200,"station_id":"ce4bh192rcd13ifvqdb0","pricing_plan_id":"cebpf4jnsgd1na2vs0mg"},{"bike_id":"0116f5d3-81ef-4309-acb7-ea09798e8f1c","system_id":"levelo_inurba_marseille","lat":43.30142,"lon":5.38075,"is_reserved":false,"is_disabled":false,"rental_uris":{"android":"levelo://app?vid=0116f5d3-81ef-4309-acb7-ea09798e8f1c","ios":"levelo://app?vid=0116f5d3-81ef-4309-acb7-ea09798e8f1c"},"vehicle_type_id":"4","last_reported":1726603769,"current_range_meters":3200,"station_id":"ce4bgjp2rcd13ifvqbh0","pricing_plan_id":"cebpf4jnsgd1na2vs0mg"},{"bike_id":"f509d080-25ab-4351-a5ac-1fd1e01679f0","system_id":"levelo_inurba_marseille","lat":43.28368,"lon":5.38635,"is_reserved":false,"is_disabled":false,"rental_uris":{"android":"levelo://app?vid=f509d080-25ab-4351-a5ac-1fd1e01679f0","ios":"levelo://app?vid=f509d080-25ab-4351-a5ac-1fd1e01679f0"},"vehicle_type_id":"4","last_reported":1726603769,"current_range_meters":13600,"station_id":"ce4bh492rcd13ifvqdvg","pricing_plan_id":"cebpf4jnsgd1na2vs0mg"},{"bike_id":"e5ce120e-f189-4882-876a-d185220bcf95","system_id":"levelo_inurba_marseille","lat":43.33025,"lon":5.39061,"is_reserved":false,"is_disabled":false,"rental_uris":{"android":"levelo://app?vid=e5ce120e-f189-4882-876a-d185220bcf95","ios":"levelo://app?vid=e5ce120e-f189-4882-876a-d185220bcf95"},"vehicle_type_id":"4","last_reported":1726603769,"current_range_meters":15200,"station_id":"ce4bhr92rcd13ifvqhrg","pricing_plan_id":"cebpf4jnsgd1na2vs0mg"},{"bike_id":"76563396-add3-43ad-b2a4-cf8053faa089","system_id":"levelo_inurba_marseille","lat":43.27057,"lon":5.4026,"is_reserved":false,"is_disabled":false,"rental_uris":{"android":"levelo://app?vid=76563396-add3-43ad-b2a4-cf8053faa089","ios":"levelo://app?vid=76563396-add3-43ad-b2a4-cf8053faa089"},"vehicle_type_id":"4","last_reported":1726603769,"current_range_meters":24000,"station_id":"ce4bhk92rcd13ifvqgc0","pricing_plan_id":"cebpf4jnsgd1na2vs0mg"},{"bike_id":"95f8bd80-423e-4ea8-ad50-2e9854f65eb3","system_id":"levelo_inurba_marseille","lat":43.27982,"lon":5.40023,"is_reserved":false,"is_disabled":false,"rental_uris":{"android":"levelo://app?vid=95f8bd80-423e-4ea8-ad50-2e9854f65eb3","ios":"levelo://app?vid=95f8bd80-423e-4ea8-ad50-2e9854f65eb3"},"vehicle_type_id":"4","last_reported":1726603769,"current_range_meters":6800,"station_id":"ce4bho92rcd13ifvqh4g","pricing_plan_id":"cebpf4jnsgd1na2vs0mg"},{"bike_id":"648a8058-3978-4bdc-b6dd-222902e3989a","system_id":"levelo_inurba_marseille","lat":43.25106,"lon":5.40326,"is_reserved":false,"is_disabled":false,"rental_uris":{"android":"levelo://app?vid=648a8058-3978-4bdc-b6dd-222902e3989a","ios":"levelo://app?vid=648a8058-3978-4bdc-b6dd-222902e3989a"},"vehicle_type_id":"4","last_reported":1726603769,"current_range_meters":30400,"station_id":"ce4bhlh2rcd13ifvqgig","pricing_plan_id":"cebpf4jnsgd1na2vs0mg"},{"bike_id":"007de2b4-0fa6-43ed-bf82-5144ca4f769b","system_id":"levelo_inurba_marseille","lat":43.23991,"lon":5.36584,"is_reserved":false,"is_disabled":false,"rental_uris":{"android":"levelo://app?vid=007de2b4-0fa6-43ed-bf82-5144ca4f769b","ios":"levelo://app?vid=007de2b4-0fa6-43ed-bf82-5144ca4f769b"},"vehicle_type_id":"4","last_reported":1726603769,"current_range_meters":22800,"station_id":"ce4bhi12rcd13ifvqfp0","pricing_plan_id":"cebpf4jnsgd1na2vs0mg"},{"bike_id":"cf53d9cc-dfd9-4b9b-825e-24ce349fec0a","system_id":"levelo_inurba_marseille","lat":43.294355,"lon":5.397441,"is_reserved":false,"is_disabled":false,"rental_uris":{"android":"levelo://app?vid=cf53d9cc-dfd9-4b9b-825e-24ce349fec0a","ios":"levelo://app?vid=cf53d9cc-dfd9-4b9b-825e-24ce349fec0a"},"vehicle_type_id":"4","last_reported":1726603769,"current_range_meters":12400,"station_id":"","pricing_plan_id":"cebpf4jnsgd1na2vs0mg"},{"bike_id":"6f387a41-1a28-4619-ac86-26875678b81b","system_id":"levelo_inurba_marseille","lat":43.29897,"lon":5.43672,"is_reserved":false,"is_disabled":false,"rental_uris":{"android":"levelo://app?vid=6f387a41-1a28-4619-ac86-26875678b81b","ios":"levelo://app?vid=6f387a41-1a28-4619-ac86-26875678b81b"},"vehicle_type_id":"4","last_reported":1726603769,"current_range_meters":19200,"station_id":"ce4bhpp2rcd13ifvqhfg","pricing_plan_id":"cebpf4jnsgd1na2vs0mg"},{"bike_id":"ee6d710f-cbb2-4b99-bbe1-9d275f43040c","system_id":"levelo_inurba_marseille","lat":43.324922,"lon":5.366683,"is_reserved":false,"is_disabled":false,"rental_uris":{"android":"levelo://app?vid=ee6d710f-cbb2-4b99-bbe1-9d275f43040c","ios":"levelo://app?vid=ee6d710f-cbb2-4b99-bbe1-9d275f43040c"},"vehicle_type_id":"4","last_reported":1726603769,"current_range_meters":16000,"station_id":"ce4bhs12rcd13ifvqhvg","pricing_plan_id":"cebpf4jnsgd1na2vs0mg"},{"bike_id":"cefef181-c810-41bd-b190-934f5a122749","system_id":"levelo_inurba_marseille","lat":43.30096,"lon":5.39083,"is_reserved":false,"is_disabled":false,"rental_uris":{"android":"levelo://app?vid=cefef181-c810-41bd-b190-934f5a122749","ios":"levelo://app?vid=cefef181-c810-41bd-b190-934f5a122749"},"vehicle_type_id":"4","last_reported":1726603769,"current_range_meters":14400,"station_id":"ce4bh192rcd13ifvqdb0","pricing_plan_id":"cebpf4jnsgd1na2vs0mg"},{"bike_id":"ad68a82b-bd80-4fc2-b221-0a2e1342d3da","system_id":"levelo_inurba_marseille","lat":43.3176,"lon":5.39019,"is_reserved":false,"is_disabled":false,"rental_uris":{"android":"levelo://app?vid=ad68a82b-bd80-4fc2-b221-0a2e1342d3da","ios":"levelo://app?vid=ad68a82b-bd80-4fc2-b221-0a2e1342d3da"},"vehicle_type_id":"4","last_reported":1726603769,"current_range_meters":24400,"station_id":"ce4bhqp2rcd13ifvqhng","pricing_plan_id":"cebpf4jnsgd1na2vs0mg"},{"bike_id":"c0d62fad-42ba-4d3e-a95c-a33a39dfef05","system_id":"levelo_inurba_marseille","lat":43.31161,"lon":5.38725,"is_reserved":false,"is_disabled":false,"rental_uris":{"android":"levelo://app?vid=c0d62fad-42ba-4d3e-a95c-a33a39dfef05","ios":"levelo://app?vid=c0d62fad-42ba-4d3e-a95c-a33a39dfef05"},"vehicle_type_id":"4","last_reported":1726603769,"current_range_meters":38800,"station_id":"ce4bgv12rcd13ifvqcp0","pricing_plan_id":"cebpf4jnsgd1na2vs0mg"},{"bike_id":"c88fecee-ed09-4a3d-89bc-ab7e234222f9","system_id":"levelo_inurba_marseille","lat":43.29797,"lon":5.40404,"is_reserved":false,"is_disabled":false,"rental_uris":{"android":"levelo://app?vid=c88fecee-ed09-4a3d-89bc-ab7e234222f9","ios":"levelo://app?vid=c88fecee-ed09-4a3d-89bc-ab7e234222f9"},"vehicle_type_id":"4","last_reported":1726603769,"current_range_meters":16800,"station_id":"ce4bh112rcd13ifvqd90","pricing_plan_id":"cebpf4jnsgd1na2vs0mg"},{"bike_id":"d2e9915b-6def-4d28-9ee7-7a207ee3e5e7","system_id":"levelo_inurba_marseille","lat":43.27614,"lon":5.36119,"is_reserved":false,"is_disabled":false,"rental_uris":{"android":"levelo://app?vid=d2e9915b-6def-4d28-9ee7-7a207ee3e5e7","ios":"levelo://app?vid=d2e9915b-6def-4d28-9ee7-7a207ee3e5e7"},"vehicle_type_id":"4","last_reported":1726603769,"current_range_meters":26000,"station_id":"ce4bgj92rcd13ifvqbe0","pricing_plan_id":"cebpf4jnsgd1na2vs0mg"},{"bike_id":"0b056705-e3ce-4d85-80d0-7288863b7d52","system_id":"levelo_inurba_marseille","lat":43.30323,"lon":5.40447,"is_reserved":false,"is_disabled":false,"rental_uris":{"android":"levelo://app?vid=0b056705-e3ce-4d85-80d0-7288863b7d52","ios":"levelo://app?vid=0b056705-e3ce-4d85-80d0-7288863b7d52"},"vehicle_type_id":"4","last_reported":1726603769,"current_range_meters":38800,"station_id":"ce4bh012rcd13ifvqd10","pricing_plan_id":"cebpf4jnsgd1na2vs0mg"},{"bike_id":"21c847ca-66cd-4e35-96d5-5c1e6ed5ecd1","system_id":"levelo_inurba_marseille","lat":43.29442,"lon":5.39753,"is_reserved":false,"is_disabled":false,"rental_uris":{"android":"levelo://app?vid=21c847ca-66cd-4e35-96d5-5c1e6ed5ecd1","ios":"levelo://app?vid=21c847ca-66cd-4e35-96d5-5c1e6ed5ecd1"},"vehicle_type_id":"4","last_reported":1726603769,"current_range_meters":13600,"station_id":"ce4bh3h2rcd13ifvqdo0","pricing_plan_id":"cebpf4jnsgd1na2vs0mg"},{"bike_id":"dbd98bc5-b0a2-4da5-bab8-fcdfea9ab87e","system_id":"levelo_inurba_marseille","lat":43.29708,"lon":5.36615,"is_reserved":false,"is_disabled":false,"rental_uris":{"android":"levelo://app?vid=dbd98bc5-b0a2-4da5-bab8-fcdfea9ab87e","ios":"levelo://app?vid=dbd98bc5-b0a2-4da5-bab8-fcdfea9ab87e"},"vehicle_type_id":"4","last_reported":1726603769,"current_range_meters":38000,"station_id":"ce4bgn12rcd13ifvqbt0","pricing_plan_id":"cebpf4jnsgd1na2vs0mg"},{"bike_id":"6eb27db3-9275-4ef7-8208-c4c03280b644","system_id":"levelo_inurba_marseille","lat":43.30137,"lon":5.37421,"is_reserved":false,"is_disabled":false,"rental_uris":{"android":"levelo://app?vid=6eb27db3-9275-4ef7-8208-c4c03280b644","ios":"levelo://app?vid=6eb27db3-9275-4ef7-8208-c4c03280b644"},"vehicle_type_id":"4","last_reported":1726603769,"current_range_meters":2800,"station_id":"ce4bgs92rcd13ifvqcc0","pricing_plan_id":"cebpf4jnsgd1na2vs0mg"},{"bike_id":"ca42bf31-578d-4027-86c9-a89c31ecd503","system_id":"levelo_inurba_marseille","lat":43.3237,"lon":5.38879,"is_reserved":false,"is_disabled":false,"rental_uris":{"android":"levelo://app?vid=ca42bf31-578d-4027-86c9-a89c31ecd503","ios":"levelo://app?vid=ca42bf31-578d-4027-86c9-a89c31ecd503"},"vehicle_type_id":"4","last_reported":1726603769,"current_range_meters":10000,"station_id":"ce4bhqp2rcd13ifvqhog","pricing_plan_id":"cebpf4jnsgd1na2vs0mg"},{"bike_id":"4fbdb9b7-b760-4550-bf29-9bf6e794ceb9","system_id":"levelo_inurba_marseille","lat":43.25121,"lon":5.4032,"is_reserved":false,"is_disabled":false,"rental_uris":{"android":"levelo://app?vid=4fbdb9b7-b760-4550-bf29-9bf6e794ceb9","ios":"levelo://app?vid=4fbdb9b7-b760-4550-bf29-9bf6e794ceb9"},"vehicle_type_id":"4","last_reported":1726603769,"current_range_meters":38800,"station_id":"ce4bhlh2rcd13ifvqgig","pricing_plan_id":"cebpf4jnsgd1na2vs0mg"},{"bike_id":"6480f9cc-465c-461c-b9ba-0dfe692f729e","system_id":"levelo_inurba_marseille","lat":43.30354,"lon":5.41886,"is_reserved":false,"is_disabled":false,"rental_uris":{"android":"levelo://app?vid=6480f9cc-465c-461c-b9ba-0dfe692f729e","ios":"levelo://app?vid=6480f9cc-465c-461c-b9ba-0dfe692f729e"},"vehicle_type_id":"4","last_reported":1726603769,"current_range_meters":14000,"station_id":"ce4bhop2rcd13ifvqh7g","pricing_plan_id":"cebpf4jnsgd1na2vs0mg"},{"bike_id":"11c28e43-4db3-4886-b901-89d678b9f20f","system_id":"levelo_inurba_marseille","lat":43.29519,"lon":5.37451,"is_reserved":false,"is_disabled":false,"rental_uris":{"android":"levelo://app?vid=11c28e43-4db3-4886-b901-89d678b9f20f","ios":"levelo://app?vid=11c28e43-4db3-4886-b901-89d678b9f20f"},"vehicle_type_id":"4","last_reported":1726603769,"current_range_meters":28400,"station_id":"ce4bgkp2rcd13ifvqbmg","pricing_plan_id":"cebpf4jnsgd1na2vs0mg"},