{"last_updated":1686962343,"ttl":30,"version":"2.2","data":{"bikes":[{"bike_id":"1615f221-8f08-4abe-bc90-671ab5eb1b03","system_id":"levelo_inurba_marseille","lat":43.313391,"lon":5.36706,"is_reserved":false,"is_disabled":false,"rental_uris":{"android":"levelo://app?vid=1615f221-8f08-4abe-bc90-671ab5eb1b03","ios":"levelo://app?vid=1615f221-8f08-4abe-bc90-671ab5eb1b03"},"vehicle_type_id":"4","last_reported":1686962344,"current_range_meters":25600,"station_id":"ce4bgr92rcd13ifvqc6g","pricing_plan_id":"free"},{"bike_id":"6f3ed759-34b6-407c-852f-dcce198c67f8","system_id":"levelo_inurba_marseille","lat":43.309076,"lon":5.368465,"is_reserved":false,"is_disabled":false,"rental_uris":{"android":"levelo://app?vid=6f3ed759-34b6-407c-852f-dcce198c67f8","ios":"levelo://app?vid=6f3ed759-34b6-407c-852f-dcce198c67f8"},"vehicle_type_id":"4","last_reported":1686962344,"current_range_meters":0,"station_id":"ce4bgn92rcd13ifvqbvg","pricing_plan_id":"free"},{"bike_id":"813d2ea6-0ab5-4f5b-a035-e02a6477a758","system_id":"levelo_inurba_marseille","lat":43.314811,"lon":5.373103,"is_reserved":false,"is_disabled":false,"rental_uris":{"android":"levelo://app?vid=813d2ea6-0ab5-4f5b-a035-e02a6477a758","ios":"levelo://app?vid=813d2ea6-0ab5-4f5b-a035-e02a6477a758"},"vehicle_type_id":"4","last_reported":1686962344,"current_range_meters":26000,"station_id":"ce4bgt12rcd13ifvqcd0","pricing_plan_id":"free"},{"bike_id":"c39d44af-cb99-46cc-a64a-3fff3934cdd1","system_id":"levelo_inurba_marseille","lat":43.314811,"lon":5.373103,"is_reserved":false,"is_disabled":false,"rental_uris":{"android":"levelo://app?vid=c39d44af-cb99-46cc-a64a-3fff3934cdd1","ios":"levelo://app?vid=c39d44af-cb99-46cc-a64a-3fff3934cdd1"},"vehicle_type_id":"4","last_reported":1686962344,"current_range_meters":31200,"station_id":"ce4bgt12rcd13ifvqcd0","pricing_plan_id":"free"},{"bike_id":"6f3850d0-56fb-4181-a831-a67c1fd38537","system_id":"levelo_inurba_marseille","lat":43.308606,"lon":5.372099,"is_reserved":false,"is_disabled":false,"rental_uris":{"android":"levelo://app?vid=6f3850d0-56fb-4181-a831-a67c1fd38537","ios":"levelo://app?vid=6f3850d0-56fb-4181-a831-a67c1fd38537"},"vehicle_type_id":"4","last_reported":1686962344,"current_range_meters":25200,"station_id":"ce4bguh2rcd13ifvqckg","pricing_plan_id":"free"},{"bike_id":"8b882f6f-8785-49aa-ada2-2c191f9e5dcf","system_id":"levelo_inurba_marseille","lat":43.308606,"lon":5.372099,"is_reserved":false,"is_disabled":false,"rental_uris":{"android":"levelo://app?vid=8b882f6f-8785-49aa-ada2-2c191f9e5dcf","ios":"levelo://app?vid=8b882f6f-8785-49aa-ada2-2c191f9e5dcf"},"vehicle_type_id":"4","last_reported":1686962344,"current_range_meters":26400,"station_id":"ce4bguh2rcd13ifvqckg","pricing_plan_id":"free"},{"bike_id":"739bb2be-33b1-40cd-b95b-ecac5a2fc4af","system_id":"levelo_inurba_marseille","lat":43.308606,"lon":5.372099,"is_reserved":false,"is_disabled":false,"rental_uris":{"android":"levelo://app?vid=739bb2be-33b1-40cd-b95b-ecac5a2fc4af","ios":"levelo://app?vid=739bb2be-33b1-40cd-b95b-ecac5a2fc4af"},"vehicle_type_id":"4","last_reported":1686962344,"current_range_meters":30800,"station_id":"ce4bguh2rcd13ifvqckg","pricing_plan_id":"free"},{"bike_id":"5b49b277-b9e9-46f4-be4e-78c444274c59","system_id":"levelo_inurba_marseille","lat":43.308606,"lon":5.372099,"is_reserved":false,"is_disabled":false,"rental_uris":{"android":"levelo://app?vid=5b49b277-b9e9-46f4-be4e-78c444274c59","ios":"levelo://app?vid=5b49b277-b9e9-46f4-be4e-78c444274c59"},"vehicle_type_id":"4","last_reported":1686962344,"current_range_meters":29200,"station_id":"ce4bguh2rcd13ifvqckg","pricing_plan_id":"free"},{"bike_id":"ab9508de-8a14-4605-abaa-bb5121c76072","system_id":"levelo_inurba_marseille","lat":43.30536,"lon":5.36723,"is_reserved":false,"is_disabled":false,"rental_uris":{"android":"levelo://app?vid=ab9508de-8a14-4605-abaa-bb5121c76072","ios":"levelo://app?vid=ab9508de-8a14-4605-abaa-bb5121c76072"},"vehicle_type_id":"4","last_reported":1686962344,"current_range_meters":12000,"station_id":"ce4bgrp2rcd13ifvqc9g","pricing_plan_id":"free"},{"bike_id":"58d1ce3c-aa8d-4000-abcd-c41a3b25f47d","system_id":"levelo_inurba_marseille","lat":43.311125,"lon":5.377624,"is_reserved":false,"is_disabled":false,"rental_uris":{"android":"levelo://app?vid=58d1ce3c-aa8d-4000-abcd-c41a3b25f47d","ios":"levelo://app?vid=58d1ce3c-aa8d-4000-abcd-c41a3b25f47d"},"vehicle_type_id":"4","last_reported":1686962344,"current_range_meters":6400,"station_id":"ce4bgt92rcd13ifvqcg0","pricing_plan_id":"free"},{"bike_id":"c3ba90eb-a943-4a9c-b70d-d355daca4f1d","system_id":"levelo_inurba_marseille","lat":43.311125,"lon":5.377624,"is_reserved":false,"is_disabled":false,"rental_uris":{"android":"levelo://app?vid=c3ba90eb-a943-4a9c-b70d-d355daca4f1d","ios":"levelo://app?vid=c3ba90eb-a943-4a9c-b70d-d355daca4f1d"},"vehicle_type_id":"4","last_reported":1686962344,"current_range_meters":31200,"station_id":"ce4bgt92rcd13ifvqcg0","pricing_plan_id":"free"},{"bike_id":"4fa084c6-8e62-429d-9e78-297dd52c5075","system_id":"levelo_inurba_marseille","lat":43.311125,"lon":5.377624,"is_reserved":false,"is_disabled":false,"rental_uris":{"android":"levelo://app?vid=4fa084c6-8e62-429d-9e78-297dd52c5075","ios":"levelo://app?vid=4fa084c6-8e62-429d-9e78-297dd52c5075"},"vehicle_type_id":"4","last_reported":1686962344,"current_range_meters":15600,"station_id":"ce4bgt92rcd13ifvqcg0","pricing_plan_id":"free"},{"bike_id":"d9053597-4116-4e8f-b2c7-cb882b0f4abc","system_id":"levelo_inurba_marseille","lat":43.311131,"lon":5.377651,"is_reserved":false,"is_disabled":false,"rental_uris":{"android":"levelo://app?vid=d9053597-4116-4e8f-b2c7-cb882b0f4abc","ios":"levelo://app?vid=d9053597-4116-4e8f-b2c7-cb882b0f4abc"},"vehicle_type_id":"4","last_reported":1686962344,"current_range_meters":30000,"station_id":"ce4bgt92rcd13ifvqcg0","pricing_plan_id":"free"},{"bike_id":"392d2bad-b508-4faa-9a4d-18c86da73251","system_id":"levelo_inurba_marseille","lat":43.311125,"lon":5.377624,"is_reserved":false,"is_disabled":false,"rental_uris":{"android":"levelo://app?vid=392d2bad-b508-4faa-9a4d-18c86da73251","ios":"levelo://app?vid=392d2bad-b508-4faa-9a4d-18c86da73251"},"vehicle_type_id":"4","last_reported":1686962344,"current_range_meters":24400,"station_id":"ce4bgt92rcd13ifvqcg0","pricing_plan_id":"free"},{"bike_id":"46df6f56-1135-49f2-8aa4-e221987385d2","system_id":"levelo_inurba_marseille","lat":43.317075,"lon":5.377367,"is_reserved":false,"is_disabled":false,"rental_uris":{"android":"levelo://app?vid=46df6f56-1135-49f2-8aa4-e221987385d2","ios":"levelo://app?vid=46df6f56-1135-49f2-8aa4-e221987385d2"},"vehicle_type_id":"4","last_reported":1686962344,"current_range_meters":17200,"station_id":"ce4bgth2rcd13ifvqch0","pricing_plan_id":"free"},{"bike_id":"09941c8e-d9e9-4d84-87eb-77d4dbb68a64","system_id":"levelo_inurba_marseille","lat":43.317075,"lon":5.377367,"is_reserved":false,"is_disabled":false,"rental_uris":{"android":"levelo://app?vid=09941c8e-d9e9-4d84-87eb-77d4dbb68a64","ios":"levelo://app?vid=09941c8e-d9e9-4d84-87eb-77d4dbb68a64"},"vehicle_type_id":"4","last_reported":1686962344,"current_range_meters":27600,"station_id":"ce4bgth2rcd13ifvqch0","pricing_plan_id":"free"},{"bike_id":"2424216c-0462-4ad0-b127-d0366c91b61c","system_id":"levelo_inurba_marseille","lat":43.317075,"lon":5.377367,"is_reserved":false,"is_disabled":false,"rental_uris":{"android":"levelo://app?vid=2424216c-0462-4ad0-b127-d0366c91b61c","ios":"levelo://app?vid=2424216c-0462-4ad0-b127-d0366c91b61c"},"vehicle_type_id":"4","last_reported":1686962344,"current_range_meters":29600,"station_id":"ce4bgth2rcd13ifvqch0","pricing_plan_id":"free"},{"bike_id":"2754d6b1-c631-489f-8bbd-48263c28661c","system_id":"levelo_inurba_marseille","lat":43.315289,"lon":5.380349,"is_reserved":false,"is_disabled":false,"rental_uris":{"android":"levelo://app?vid=2754d6b1-c631-489f-8bbd-48263c28661c","ios":"levelo://app?vid=2754d6b1-c631-489f-8bbd-48263c28661c"},"vehicle_type_id":"4","last_reported":1686962344,"current_range_meters":10400,"station_id":"ce4bhsp2rcd13ifvqi50","pricing_plan_id":"free"},{"bike_id":"46bb3f47-908b-4b9e-9d58-bbeb1fffa81a","system_id":"levelo_inurba_marseille","lat":43.315293,"lon":5.380349,"is_reserved":false,"is_disabled":false,"rental_uris":{"android":"levelo://app?vid=46bb3f47-908b-4b9e-9d58-bbeb1fffa81a","ios":"levelo://app?vid=46bb3f47-908b-4b9e-9d58-bbeb1fffa81a"},"vehicle_type_id":"4","last_reported":1686962344,"current_range_meters":14400,"station_id":"ce4bhsp2rcd13ifvqi50","pricing_plan_id":"free"},{"bike_id":"b3aafb43-eded-49bc-a398-70a1458b366c","system_id":"levelo_inurba_marseille","lat":43.315289,"lon":5.380349,"is_reserved":false,"is_disabled":false,"rental_uris":{"android":"levelo://app?vid=b3aafb43-eded-49bc-a398-70a1458b366c","ios":"levelo://app?vid=b3aafb43-eded-49bc-a398-70a1458b366c"},"vehicle_type_id":"4","last_reported":1686962344,"current_range_meters":22800,"station_id":"ce4bhsp2rcd13ifvqi50","pricing_plan_id":"free"},{"bike_id":"a6eba36c-890d-465a-813d-fb1510a8737c","system_id":"levelo_inurba_marseille","lat":43.301939,"lon":5.366286,"is_reserved":false,"is_disabled":false,"rental_uris":{"android":"levelo://app?vid=a6eba36c-890d-465a-813d-fb1510a8737c","ios":"levelo://app?vid=a6eba36c-890d-465a-813d-fb1510a8737c"},"vehicle_type_id":"4","last_reported":1686962344,"current_range_meters":21600,"station_id":"ce4bgrh2rcd13ifvqc8g","pricing_plan_id":"free"},{"bike_id":"caf71373-45ef-421d-a10f-74a25a86cbc6","system_id":"levelo_inurba_marseille","lat":43.301939,"lon":5.366286,"is_reserved":false,"is_disabled":false,"rental_uris":{"android":"levelo://app?vid=caf71373-45ef-421d-a10f-74a25a86cbc6","ios":"levelo://app?vid=caf71373-45ef-421d-a10f-74a25a86cbc6"},"vehicle_type_id":"4","last_reported":1686962344,"current_range_meters":10400,"station_id":"ce4bgrh2rcd13ifvqc8g","pricing_plan_id":"free"},{"bike_id":"11629adb-8add-4f4f-af41-90b1e04876b0","system_id":"levelo_inurba_marseille","lat":43.308012,"lon":5.381511,"is_reserved":false,"is_disabled":false,"rental_uris":{"android":"levelo://app?vid=11629adb-8add-4f4f-af41-90b1e04876b0","ios":"levelo://app?vid=11629adb-8add-4f4f-af41-90b1e04876b0"},"vehicle_type_id":"4","last_reported":1686962344,"current_range_meters":24400,"station_id":"ce4bgt12rcd13ifvqce0","pricing_plan_id":"free"},{"bike_id":"48eb6878-17c3-47d0-8787-065910bd8bca","system_id":"levelo_inurba_marseille","lat":43.30806,"lon":5.38151,"is_reserved":false,"is_disabled":false,"rental_uris":{"android":"levelo://app?vid=48eb6878-17c3-47d0-8787-065910bd8bca","ios":"levelo://app?vid=48eb6878-17c3-47d0-8787-065910bd8bca"},"vehicle_type_id":"4","last_reported":1686962344,"current_range_meters":2400,"station_id":"","pricing_plan_id":"free"},{"bike_id":"33519469-6e89-4169-bef2-01e4c1a1d7ff","system_id":"levelo_inurba_marseille","lat":43.30811,"lon":5.38155,"is_reserved":false,"is_disabled":false,"rental_uris":{"android":"levelo://app?vid=33519469-6e89-4169-bef2-01e4c1a1d7ff","ios":"levelo://app?vid=33519469-6e89-4169-bef2-01e4c1a1d7ff"},"vehicle_type_id":"4","last_reported":1686962344,"current_range_meters":7200,"station_id":"ce4bgt12rcd13ifvqce0","pricing_plan_id":"free"},{"bike_id":"721ca755-5419-4da8-8f0f-ef8c35c044cc","system_id":"levelo_inurba_marseille","lat":43.308012,"lon":5.381511,"is_reserved":false,"is_disabled":false,"rental_uris":{"android":"levelo://app?vid=721ca755-5419-4da8-8f0f-ef8c35c044cc","ios":"levelo://app?vid=721ca755-5419-4da8-8f0f-ef8c35c044cc"},"vehicle_type_id":"4","last_reported":1686962344,"current_range_meters":24800,"station_id":"ce4bgt12rcd13ifvqce0","pricing_plan_id":"free"},{"bike_id":"6333e840-4ab0-43a6-a339-aead18cede89","system_id":"levelo_inurba_marseille","lat":43.308012,"lon":5.381511,"is_reserved":false,"is_disabled":false,"rental_uris":{"android":"levelo://app?vid=6333e840-4ab0-43a6-a339-aead18cede89","ios":"levelo://app?vid=6333e840-4ab0-43a6-a339-aead18cede89"},"vehicle_type_id":"4","last_reported":1686962344,"current_range_meters":19200,"station_id":"ce4bgt12rcd13ifvqce0","pricing_plan_id":"free"},{"bike_id":"2ec54fb0-89ce-425d-8219-040a30476501","system_id":"levelo_inurba_marseille","lat":43.308012,"lon":5.381511,"is_reserved":false,"is_disabled":false,"rental_uris":{"android":"levelo://app?vid=2ec54fb0-89ce-425d-8219-040a30476501","ios":"levelo://app?vid=2ec54fb0-89ce-425d-8219-040a30476501"},"vehicle_type_id":"4","last_reported":1686962344,"current_range_meters":1200,"station_id":"ce4bgt12rcd13ifvqce0","pricing_plan_id":"free"},{"bike_id":"ae33307b-fcd5-479b-9ae1-9002ed226c6e","system_id":"levelo_inurba_marseille","lat":43.308012,"lon":5.381511,"is_reserved":false,"is_disabled":false,"rental_uris":{"android":"levelo://app?vid=ae33307b-fcd5-479b-9ae1-9002ed226c6e","ios":"levelo://app?vid=ae33307b-fcd5-479b-9ae1-9002ed226c6e"},"vehicle_type_id":"4","last_reported":1686962344,"current_range_meters":12800,"station_id":"ce4bgt12rcd13ifvqce0","pricing_plan_id":"free"},{"bike_id":"49889d09-bc82-454f-b1ae-329b65354f31","system_id":"levelo_inurba_marseille","lat":43.308012,"lon":5.381511,"is_reserved":false,"is_disabled":false,"rental_uris":{"android":"levelo://app?vid=49889d09-bc82-454f-b1ae-329b65354f31","ios":"levelo://app?vid=49889d09-bc82-454f-b1ae-329b65354f31"},"vehicle_type_id":"4","last_reported":1686962344,"current_range_meters":4800,"station_id":"ce4bgt12rcd13ifvqce0","pricing_plan_id":"free"},{"bike_id":"cbf3647a-5656-4b96-a2c3-cc90f603a080","system_id":"levelo_inurba_marseille","lat":43.304606,"lon":5.379026,"is_reserved":false,"is_disabled":false,"rental_uris":{"android":"levelo://app?vid=cbf3647a-5656-4b96-a2c3-cc90f603a080","ios":"levelo://app?vid=cbf3647a-5656-4b96-a2c3-cc90f603a080"},"vehicle_type_id":"4","last_reported":1686962344,"current_range_meters":1600,"station_id":"ce4bgup2rcd13ifvqcn0","pricing_plan_id":"free"},{"bike_id":"32827146-2d6b-4fb1-b00e-6b2f535ca544","system_id":"levelo_inurba_marseille","lat":43.30472,"lon":5.37912,"is_reserved":false,"is_disabled":false,"rental_uris":{"android":"levelo://app?vid=32827146-2d6b-4fb1-b00e-6b2f535ca544","ios":"levelo://app?vid=32827146-2d6b-4fb1-b00e-6b2f535ca544"},"vehicle_type_id":"4","last_reported":1686962344,"current_range_meters":30400,"station_id":"ce4bgup2rcd13ifvqcn0","pricing_plan_id":"free"},{"bike_id":"9ab705dc-f921-4856-b5bb-e04f07b43321","system_id":"levelo_inurba_marseille","lat":43.304606,"lon":5.379026,"is_reserved":false,"is_disabled":false,"rental_uris":{"android":"levelo://app?vid=9ab705dc-f921-4856-b5bb-e04f07b43321","ios":"levelo://app?vid=9ab705dc-f921-4856-b5bb-e04f07b43321"},"vehicle_type_id":"4","last_reported":1686962344,"current_range_meters":1200,"station_id":"ce4bgup2rcd13ifvqcn0","pricing_plan_id":"free"},{"bike_id":"adb3e9fb-a6bd-4100-b77e-8dadb3c5234a","system_id":"levelo_inurba_marseille","lat":43.30467,"lon":5.37909,"is_reserved":false,"is_disabled":false,"rental_uris":{"android":"levelo://app?vid=adb3e9fb-a6bd-4100-b77e-8dadb3c5234a","ios":"levelo://app?vid=adb3e9fb-a6bd-4100-b77e-8dadb3c5234a"},"vehicle_type_id":"4","last_reported":1686962344,"current_range_meters":8800,"station_id":"ce4bgup2rcd13ifvqcn0","pricing_plan_id":"free"},{"bike_id":"fc4a69da-5dee-4c68-8631-20ee11bc487b","system_id":"levelo_inurba_marseille","lat":43.304606,"lon":5.379026,"is_reserved":false,"is_disabled":false,"rental_uris":{"android":"levelo://app?vid=fc4a69da-5dee-4c68-8631-20ee11bc487b","ios":"levelo://app?vid=fc4a69da-5dee-4c68-8631-20ee11bc487b"},"vehicle_type_id":"4","last_reported":1686962344,"current_range_meters":31200,"station_id":"ce4bgup2rcd13ifvqcn0","pricing_plan_id":"free"},{"bike_id":"315b4eca-f49b-4b15-a0f1-21c983137d3e","system_id":"levelo_inurba_marseille","lat":43.304606,"lon":5.379026,"is_reserved":false,"is_disabled":false,"rental_uris":{"android":"levelo://app?vid=315b4eca-f49b-4b15-a0f1-21c983137d3e","ios":"levelo://app?vid=315b4eca-f49b-4b15-a0f1-21c983137d3e"},"vehicle_type_id":"4","last_reported":1686962344,"current_range_meters":10400,"station_id":"ce4bgup2rcd13ifvqcn0","pricing_plan_id":"free"},{"bike_id":"43fc693e-f2a9-4aec-8fd9-d094bb02cb70","system_id":"levelo_inurba_marseille","lat":43.304606,"lon":5.379026,"is_reserved":false,"is_disabled":false,"rental_uris":{"android":"levelo://app?vid=43fc693e-f2a9-4aec-8fd9-d094bb02cb70","ios":"levelo://app?vid=43fc693e-f2a9-4aec-8fd9-d094bb02cb70"},"vehicle_type_id":"4","last_reported":1686962344,"current_range_meters":23200,"station_id":"ce4bgup2rcd13ifvqcn0","pricing_plan_id":"free"},{"bike_id":"9f3a129a-ea77-4460-b3f5-662da8601911","system_id":"levelo_inurba_marseille","lat":43.3014,"lon":5.37404,"is_reserved":false,"is_disabled":false,"rental_uris":{"android":"levelo://app?vid=9f3a129a-ea77-4460-b3f5-662da8601911","ios":"levelo://app?vid=9f3a129a-ea77-4460-b3f5-662da8601911"},"vehicle_type_id":"4","last_reported":1686962344,"current_range_meters":31200,"station_id":"ce4bgs92rcd13ifvqcc0","pricing_plan_id":"free"},{"bike_id":"31faf0c9-e4ae-46ea-8016-d04c1a02b106","system_id":"levelo_inurba_marseille","lat":43.30143,"lon":5.37413,"is_reserved":false,"is_disabled":false,"rental_uris":{"android":"levelo://app?vid=31faf0c9-e4ae-46ea-8016-d04c1a02b106","ios":"levelo://app?vid=31faf0c9-e4ae-46ea-8016-d04c1a02b106"},"vehicle_type_id":"4","last_reported":1686962344,"current_range_meters":20800,"station_id":"ce4bgs92rcd13ifvqcc0","pricing_plan_id":"free"},{"bike_id":"16e72490-daac-4bae-9425-2f086768338e","system_id":"levelo_inurba_marseille","lat":43.31999,"lon":5.38152,"is_reserved":false,"is_disabled":false,"rental_uris":{"android":"levelo://app?vid=16e72490-daac-4bae-9425-2f086768338e","ios":"levelo://app?vid=16e72490-daac-4bae-9425-2f086768338e"},"vehicle_type_id":"4","last_reported":1686962344,"current_range_meters":25600,"station_id":"ce4bhr12rcd13ifvqhpg","pricing_plan_id":"free"},{"bike_id":"8fce8128-d8b9-4e54-b948-117df1579464","system_id":"levelo_inurba_marseille","lat":43.32004,"lon":5.38157,"is_reserved":false,"is_disabled":false,"rental_uris":{"android":"levelo://app?vid=8fce8128-d8b9-4e54-b948-117df1579464","ios":"levelo://app?vid=8fce8128-d8b9-4e54-b948-117df1579464"},"vehicle_type_id":"4","last_reported":1686962344,"current_range_meters":20800,"station_id":"ce4bhr12rcd13ifvqhpg","pricing_plan_id":"free"},{"bike_id":"35c2b480-e69a-4543-9412-895f27c2a34e","system_id":"levelo_inurba_marseille","lat":43.32005,"lon":5.38168,"is_reserved":false,"is_disabled":false,"rental_uris":{"android":"levelo://app?vid=35c2b480-e69a-4543-9412-895f27c2a34e","ios":"levelo://app?vid=35c2b480-e69a-4543-9412-895f27c2a34e"},"vehicle_type_id":"4","last_reported":1686962344,"current_range_meters":31200,"station_id":"ce4bhr12rcd13ifvqhpg","pricing_plan_id":"free"},{"bike_id":"330412da-b9eb-49fa-9ba0-9288ee9ddd31","system_id":"levelo_inurba_marseille","lat":43.30056,"lon":5.37522,"is_reserved":false,"is_disabled":false,"rental_uris":{"android":"levelo://app?vid=330412da-b9eb-49fa-9ba0-9288ee9ddd31","ios":"levelo://app?vid=330412da-b9eb-49fa-9ba0-9288ee9ddd31"},"vehicle_type_id":"4","last_reported":1686962344,"current_range_meters":21200,"station_id":"","pricing_plan_id":"free"},{"bike_id":"8acc6e83-457b-4f1c-98d1-0af1725aeef0","system_id":"levelo_inurba_marseille","lat":43.311722,"lon":5.387247,"is_reserved":false,"is_disabled":false,"rental_uris":{"android":"levelo://app?vid=8acc6e83-457b-4f1c-98d1-0af1725aeef0","ios":"levelo://app?vid=8acc6e83-457b-4f1c-98d1-0af1725aeef0"},"vehicle_type_id":"4","last_reported":1686962344,"current_range_meters":16800,"station_id":"ce4bgv12rcd13ifvqcp0","pricing_plan_id":"free"},{"bike_id":"d7795299-a577-4448-a367-db57ef0f5ec6","system_id":"levelo_inurba_marseille","lat":43.311722,"lon":5.387247,"is_reserved":false,"is_disabled":false,"rental_uris":{"android":"levelo://app?vid=d7795299-a577-4448-a367-db57ef0f5ec6","ios":"levelo://app?vid=d7795299-a577-4448-a367-db57ef0f5ec6"},"vehicle_type_id":"4","last_reported":1686962344,"current_range_meters":1200,"station_id":"ce4bgv12rcd13ifvqcp0","pricing_plan_id":"free"},{"bike_id":"56585c89-ab43-4249-8283-67df7ca612b4","system_id":"levelo_inurba_marseille","lat":43.311722,"lon":5.387247,"is_reserved":false,"is_disabled":false,"rental_uris":{"android":"levelo://app?vid=56585c89-ab43-4249-8283-67df7ca612b4","ios":"levelo://app?vid=56585c89-ab43-4249-8283-67df7ca612b4"},"vehicle_type_id":"4","last_reported":1686962344,"current_range_meters":24000,"station_id":"ce4bgv12rcd13ifvqcp0","pricing_plan_id":"free"},{"bike_id":"176f4894-d7fc-460e-aa5d-7c8c1e206dc3","system_id":"levelo_inurba_marseille","lat":43.297163,"lon":5.365866,"is_reserved":false,"is_disabled":false,"rental_uris":{"android":"levelo://app?vid=176f4894-d7fc-460e-aa5d-7c8c1e206dc3","ios":"levelo://app?vid=176f4894-d7fc-460e-aa5d-7c8c1e206dc3"},"vehicle_type_id":"4","last_reported":1686962344,"current_range_meters":18400,"station_id":"ce4bgn12rcd13ifvqbt0","pricing_plan_id":"free"},{"bike_id":"88d0330c-5bb0-4a19-9b65-d4683b42e015","system_id":"levelo_inurba_marseille","lat":43.29683,"lon":5.36046,"is_reserved":false,"is_disabled":false,"rental_uris":{"android":"levelo://app?vid=88d0330c-5bb0-4a19-9b65-d4683b42e015","ios":"levelo://app?vid=88d0330c-5bb0-4a19-9b65-d4683b42e015"},"vehicle_type_id":"4","last_reported":1686962344,"current_range_meters":8400,"station_id":"ce4bgpp2rcd13ifvqc3g","pricing_plan_id":"free"},{"bike_id":"24f41ca5-b432-4feb-a0c8-a15026b97306","system_id":"levelo_inurba_marseille","lat":43.296131,"lon":5.370773,"is_reserved":false,"is_disabled":false,"rental_uris":{"android":"levelo://app?vid=24f41ca5-b432-4feb-a0c8-a15026b97306","ios":"levelo://app?vid=24f41ca5-b432-4feb-a0c8-a15026b97306"},"vehicle_type_id":"4","last_reported":1686962344,"current_range_meters":18000,"station_id":"ce4bgnh2rcd13ifvqc0g","pricing_plan_id":"free"},{"bike_id":"70bff5c5-1204-47bf-919a-95a3fb278fcf","system_id":"levelo_inurba_marseille","lat":43.299028,"lon":5.381509,"is_reserved":false,"is_disabled":false,"rental_uris":{"android":"levelo://app?vid=70bff5c5-1204-47bf-919a-95a3fb278fcf","ios":"levelo://app?vid=70bff5c5-1204-47bf-919a-95a3fb278fcf"},"vehicle_type_id":"4","last_reported":1686962344,"current_range_meters":26400,"station_id":"ce4bgj12rcd13ifvqbc0","pricing_plan_id":"free"},{"bike_id":"be7f9fb1-9c01-4231-8f99-34de379e668c","system_id":"levelo_inurba_marseille","lat":43.309589,"lon":5.390258,"is_reserved":false,"is_disabled":false,"rental_uris":{"android":"levelo://app?vid=be7f9fb1-9c01-4231-8f99-34de379e668c","ios":"levelo://app?vid=be7f9fb1-9c01-4231-8f99-34de379e668c"},"vehicle_type_id":"4","last_reported":1686962344,"current_range_meters":16000,"station_id":"ce4bgup2rcd13ifvqco0","pricing_plan_id":"free"},{"bike_id":"f2318124-78d6-462b-8341-d1e58f2c9157","system_id":"levelo_inurba_marseille","lat":43.309589,"lon":5.390258,"is_reserved":false,"is_disabled":false,"rental_uris":{"android":"levelo://app?vid=f2318124-78d6-462b-8341-d1e58f2c9157","ios":"levelo://app?vid=f2318124-78d6-462b-8341-d1e58f2c9157"},"vehicle_type_id":"4","last_reported":1686962344,"current_range_meters":20800,"station_id":"ce4bgup2rcd13ifvqco0","pricing_plan_id":"free"},{"bike_id":"f0d398ba-5fbd-40a2-8eb4-3daf2a765a19","system_id":"levelo_inurba_marseille","lat":43.317557,"lon":5.390173,"is_reserved":false,"is_disabled":false,"rental_uris":{"android":"levelo://app?vid=f0d398ba-5fbd-40a2-8eb4-3daf2a765a19","ios":"levelo://app?vid=f0d398ba-5fbd-40a2-8eb4-3daf2a765a19"},"vehicle_type_id":"4","last_reported":1686962344,"current_range_meters":27200,"station_id":"ce4bhqp2rcd13ifvqhng","pricing_plan_id":"free"},{"bike_id":"f6cb89c9-4f39-4c2e-8a69-b2f9c75b9ad2","system_id":"levelo_inurba_marseille","lat":43.317557,"lon":5.390173,"is_reserved":false,"is_disabled":false,"rental_uris":{"android":"levelo://app?vid=f6cb89c9-4f39-4c2e-8a69-b2f9c75b9ad2","ios":"levelo://app?vid=f6cb89c9-4f39-4c2e-8a69-b2f9c75b9ad2"},"vehicle_type_id":"4","last_reported":1686962344,"current_range_meters":26800,"station_id":"ce4bhqp2rcd13ifvqhng","pricing_plan_id":"free"},{"bike_id":"7e19f6e8-c594-4a18-9388-3bcca6b82816","system_id":"levelo_inurba_marseille","lat":43.317557,"lon":5.390173,"is_reserved":false,"is_disabled":false,"rental_uris":{"android":"levelo://app?vid=7e19f6e8-c594-4a18-9388-3bcca6b82816","ios":"levelo://app?vid=7e19f6e8-c594-4a18-9388-3bcca6b82816"},"vehicle_type_id":"4","last_reported":1686962344,"current_range_meters":24000,"station_id":"ce4bhqp2rcd13ifvqhng","pricing_plan_id":"free"},{"bike_id":"d4c71e33-1695-4403-9bf7-c782499bc9a8","system_id":"levelo_inurba_marseille","lat":43.304274,"lon":5.388873,"is_reserved":false,"is_disabled":false,"rental_uris":{"android":"levelo://app?vid=d4c71e33-1695-4403-9bf7-c782499bc9a8","ios":"levelo://app?vid=d4c71e33-1695-4403-9bf7-c782499bc9a8"},"vehicle_type_id":"4","last_reported":1686962344,"current_range_meters":25200,"station_id":"ce4bgk12rcd13ifvqbi0","pricing_plan_id":"free"},{"bike_id":"c4eb1444-4374-44e9-8519-ddec8722d0c7","system_id":"levelo_inurba_marseille","lat":43.304274,"lon":5.388873,"is_reserved":false,"is_disabled":false,"rental_uris":{"android":"levelo://app?vid=c4eb1444-4374-44e9-8519-ddec8722d0c7","ios":"levelo://app?vid=c4eb1444-4374-44e9-8519-ddec8722d0c7"},"vehicle_type_id":"4","last_reported":1686962344,"current_range_meters":24000,"station_id":"ce4bgk12rcd13ifvqbi0","pricing_plan_id":"free"},{"bike_id":"fdd13fde-0c1b-4c6c-a3f8-d32356ef5805","system_id":"levelo_inurba_marseille","lat":43.304274,"lon":5.388873,"is_reserved":false,"is_disabled":false,"rental_uris":{"android":"levelo://app?vid=fdd13fde-0c1b-4c6c-a3f8-d32356ef5805","ios":"levelo://app?vid=fdd13fde-0c1b-4c6c-a3f8-d32356ef5805"},"vehicle_type_id":"4","last_reported":1686962344,"current_range_meters":21600,"station_id":"ce4bgk12rcd13ifvqbi0","pricing_plan_id":"free"},{"bike_id":"250c8a96-8498-4211-b8f3-1b00a8d1fbaf","system_id":"levelo_inurba_marseille","lat":43.296477,"lon":5.37768,"is_reserved":false,"is_disabled":false,"rental_uris":{"android":"levelo://app?vid=250c8a96-8498-4211-b8f3-1b00a8d1fbaf","ios":"levelo://app?vid=250c8a96-8498-4211-b8f3-1b00a8d1fbaf"},"vehicle_type_id":"4","last_reported":1686962344,"current_range_meters":18400,"station_id":"","pricing_plan_id":"free"},{"bike_id":"8caab0b3-d55c-4b6f-aa9f-96a38b3bed44","system_id":"levelo_inurba_marseille","lat":43.304278,"lon":5.388868,"is_reserved":false,"is_disabled":false,"rental_uris":{"android":"levelo://app?vid=8caab0b3-d55c-4b6f-aa9f-96a38b3bed44","ios":"levelo://app?vid=8caab0b3-d55c-4b6f-aa9f-96a38b3bed44"},"vehicle_type_id":"4","last_reported":1686962344,"current_range_meters":5200,"station_id":"ce4bgk12rcd13ifvqbi0","pricing_plan_id":"free"},{"bike_id":"97edfe11-3de3-4abb-8e14-c5400a7169e8","system_id":"levelo_inurba_marseille","lat":43.304274,"lon":5.388873,"is_reserved":false,"is_disabled":false,"rental_uris":{"android":"levelo://app?vid=97edfe11-3de3-4abb-8e14-c5400a7169e8","ios":"levelo://app?vid=97edfe11-3de3-4abb-8e14-c5400a7169e8"},"vehicle_type_id":"4","last_reported":1686962344,"current_range_meters":12800,"station_id":"ce4bgk12rcd13ifvqbi0","pricing_plan_id":"free"},{"bike_id":"6367472c-2226-41d3-9f5f-652391208a3e","system_id":"levelo_inurba_marseille","lat":43.299717,"lon":5.384845,"is_reserved":false,"is_disabled":false,"rental_uris":{"android":"levelo://app?vid=6367472c-2226-41d3-9f5f-652391208a3e","ios":"levelo://app?vid=6367472c-2226-41d3-9f5f-652391208a3e"},"vehicle_type_id":"4","last_reported":1686962344,"current_range_meters":11200,"station_id":"ce4bgj92rcd13ifvqbd0","pricing_plan_id":"free"},{"bike_id":"5a2be942-eb74-4d02-b446-be02a784316f","system_id":"levelo_inurba_marseille","lat":43.32367,"lon":5.388836,"is_reserved":false,"is_disabled":false,"rental_uris":{"android":"levelo://app?vid=5a2be942-eb74-4d02-b446-be02a784316f","ios":"levelo://app?vid=5a2be942-eb74-4d02-b446-be02a784316f"},"vehicle_type_id":"4","last_reported":1686962344,"current_range_meters":31200,"station_id":"ce4bhqp2rcd13ifvqhog","pricing_plan_id":"free"},{"bike_id":"2c9ad911-25e0-4222-8751-d809dfadd582","system_id":"levelo_inurba_marseille","lat":43.32363,"lon":5.38879,"is_reserved":false,"is_disabled":false,"rental_uris":{"android":"levelo://app?vid=2c9ad911-25e0-4222-8751-d809dfadd582","ios":"levelo://app?vid=2c9ad911-25e0-4222-8751-d809dfadd582"},"vehicle_type_id":"4","last_reported":1686962344,"current_range_meters":28400,"station_id":"ce4bhqp2rcd13ifvqhog","pricing_plan_id":"free"},{"bike_id":"6563fc8f-37de-404e-be9b-a296b574b350","system_id":"levelo_inurba_marseille","lat":43.32367,"lon":5.388836,"is_reserved":false,"is_disabled":false,"rental_uris":{"android":"levelo://app?vid=6563fc8f-37de-404e-be9b-a296b574b350","ios":"levelo://app?vid=6563fc8f-37de-404e-be9b-a296b574b350"},"vehicle_type_id":"4","last_reported":1686962344,"current_range_meters":31200,"station_id":"ce4bhqp2rcd13ifvqhog","pricing_plan_id":"free"},{"bike_id":"a045c849-e5ad-4d56-be6d-1331c6ff64bc","system_id":"levelo_inurba_marseille","lat":43.32367,"lon":5.388836,"is_reserved":false,"is_disabled":false,"rental_uris":{"android":"levelo://app?vid=a045c849-e5ad-4d56-be6d-1331c6ff64bc","ios":"levelo://app?vid=a045c849-e5ad-4d56-be6d-1331c6ff64bc"},"vehicle_type_id":"4","last_reported":1686962344,"current_range_meters":31600,"station_id":"ce4bhqp2rcd13ifvqhog","pricing_plan_id":"free"},{"bike_id":"97f54d17-c97f-440f-89b4-ed27b9cb734f","system_id":"levelo_inurba_marseille","lat":43.32367,"lon":5.388836,"is_reserved":false,"is_disabled":false,"rental_uris":{"android":"levelo://app?vid=97f54d17-c97f-440f-89b4-ed27b9cb734f","ios":"levelo://app?vid=97f54d17-c97f-440f-89b4-ed27b9cb734f"},"vehicle_type_id":"4","last_reported":1686962344,"current_range_meters":31200,"station_id":"ce4bhqp2rcd13ifvqhog","pricing_plan_id":"free"},{"bike_id":"fe268e13-742c-4fe4-9737-283b7505cc45","system_id":"levelo_inurba_marseille","lat":43.323689,"lon":5.388832,"is_reserved":false,"is_disabled":false,"rental_uris":{"android":"levelo://app?vid=fe268e13-742c-4fe4-9737-283b7505cc45","ios":"levelo://app?vid=fe268e13-742c-4fe4-9737-283b7505cc45"},"vehicle_type_id":"4","last_reported":1686962344,"current_range_meters":31200,"station_id":"ce4bhqp2rcd13ifvqhog","pricing_plan_id":"free"},{"bike_id":"dd9b1657-99f6-46f0-bc40-16c4a72800ae","system_id":"levelo_inurba_marseille","lat":43.32367,"lon":5.388836,"is_reserved":false,"is_disabled":false,"rental_uris":{"android":"levelo://app?vid=dd9b1657-99f6-46f0-bc40-16c4a72800ae","ios":"levelo://app?vid=dd9b1657-99f6-46f0-bc40-16c4a72800ae"},"vehicle_type_id":"4","last_reported":1686962344,"current_range_meters":31200,"station_id":"ce4bhqp2rcd13ifvqhog","pricing_plan_id":"free"},{"bike_id":"19830262-b022-4ec0-a4f2-bb3c52867a0b","system_id":"levelo_inurba_marseille","lat":43.33029,"lon":5.37919,"is_reserved":false,"is_disabled":false,"rental_uris":{"android":"levelo://app?vid=19830262-b022-4ec0-a4f2-bb3c52867a0b","ios":"levelo://app?vid=19830262-b022-4ec0-a4f2-bb3c52867a0b"},"vehicle_type_id":"4","last_reported":1686962344,"current_range_meters":26000,"station_id":"","pricing_plan_id":"free"},{"bike_id":"fec50db1-170f-4091-92c3-332abb165fee","system_id":"levelo_inurba_marseille","lat":43.30108,"lon":5.39088,"is_reserved":false,"is_disabled":false,"rental_uris":{"android":"levelo://app?vid=fec50db1-170f-4091-92c3-332abb165fee","ios":"levelo://app?vid=fec50db1-170f-4091-92c3-332abb165fee"},"vehicle_type_id":"4","last_reported":1686962344,"current_range_meters":16800,"station_id":"ce4bh192rcd13ifvqdb0","pricing_plan_id":"free"},{"bike_id":"26a44ea3-bace-4aa0-8fb0-c1f9ee931b68","system_id":"levelo_inurba_marseille","lat":43.30085,"lon":5.390856,"is_reserved":false,"is_disabled":false,"rental_uris":{"android":"levelo://app?vid=26a44ea3-bace-4aa0-8fb0-c1f9ee931b68","ios":"levelo://app?vid=26a44ea3-bace-4aa0-8fb0-c1f9ee931b68"},"vehicle_type_id":"4","last_reported":1686962344,"current_range_meters":400,"station_id":"ce4bh192rcd13ifvqdb0","pricing_plan_id":"free"},{"bike_id":"edd27ecf-5e8a-44a0-82e6-021137b2b9de","system_id":"levelo_inurba_marseille","lat":43.29291,"lon":5.35678,"is_reserved":false,"is_disabled":false,"rental_uris":{"android":"levelo://app?vid=edd27ecf-5e8a-44a0-82e6-021137b2b9de","ios":"levelo://app?vid=edd27ecf-5e8a-44a0-82e6-021137b2b9de"},"vehicle_type_id":"4","last_reported":1686962344,"current_range_meters":3200,"station_id":"","pricing_plan_id":"free"},{"bike_id":"09bce4fd-1099-4f66-b29c-b2459d707213","system_id":"levelo_inurba_marseille","lat":43.298764,"lon":5.388973,"is_reserved":false,"is_disabled":false,"rental_uris":{"android":"levelo://app?vid=09bce4fd-1099-4f66-b29c-b2459d707213","ios":"levelo://app?vid=09bce4fd-1099-4f66-b29c-b2459d707213"},"vehicle_type_id":"4","last_reported":1686962344,"current_range_meters":22400,"station_id":"ce4bh392rcd13ifvqdl0","pricing_plan_id":"free"},{"bike_id":"e1b17844-9fc4-4bf7-87d6-7143fd7d65a2","system_id":"levelo_inurba_marseille","lat":43.313291,"lon":5.396838,"is_reserved":false,"is_disabled":false,"rental_uris":{"android":"levelo://app?vid=e1b17844-9fc4-4bf7-87d6-7143fd7d65a2","ios":"levelo://app?vid=e1b17844-9fc4-4bf7-87d6-7143fd7d65a2"},"vehicle_type_id":"4","last_reported":1686962344,"current_range_meters":24000,"station_id":"ce4bgvp2rcd13ifvqcu0","pricing_plan_id":"free"},{"bike_id":"2f624efe-ebb6-4599-ac0b-1b83543f2081","system_id":"levelo_inurba_marseille","lat":43.313291,"lon":5.396838,"is_reserved":false,"is_disabled":false,"rental_uris":{"android":"levelo://app?vid=2f624efe-ebb6-4599-ac0b-1b83543f2081","ios":"levelo://app?vid=2f624efe-ebb6-4599-ac0b-1b83543f2081"},"vehicle_type_id":"4","last_reported":1686962344,"current_range_meters":12400,"station_id":"ce4bgvp2rcd13ifvqcu0","pricing_plan_id":"free"},{"bike_id":"6e857488-9324-4dc3-a14e-a5f0c6ee2faf","system_id":"levelo_inurba_marseille","lat":43.309038,"lon":5.396546,"is_reserved":false,"is_disabled":false,"rental_uris":{"android":"levelo://app?vid=6e857488-9324-4dc3-a14e-a5f0c6ee2faf","ios":"levelo://app?vid=6e857488-9324-4dc3-a14e-a5f0c6ee2faf"},"vehicle_type_id":"4","last_reported":1686962344,"current_range_meters":16000,"station_id":"ce4bh012rcd13ifvqcv0","pricing_plan_id":"free"},{"bike_id":"86bde3e1-cbc9-48d7-84a3-371200cbc9fe","system_id":"levelo_inurba_marseille","lat":43.309038,"lon":5.396546,"is_reserved":false,"is_disabled":false,"rental_uris":{"android":"levelo://app?vid=86bde3e1-cbc9-48d7-84a3-371200cbc9fe","ios":"levelo://app?vid=86bde3e1-cbc9-48d7-84a3-371200cbc9fe"},"vehicle_type_id":"4","last_reported":1686962344,"current_range_meters":0,"station_id":"ce4bh012rcd13ifvqcv0","pricing_plan_id":"free"},{"bike_id":"eec9743f-fce6-4a6f-bb45-5a4a7d109958","system_id":"levelo_inurba_marseille","lat":43.309038,"lon":5.396546,"is_reserved":false,"is_disabled":false,"rental_uris":{"android":"levelo://app?vid=eec9743f-fce6-4a6f-bb45-5a4a7d109958","ios":"levelo://app?vid=eec9743f-fce6-4a6f-bb45-5a4a7d109958"},"vehicle_type_id":"4","last_reported":1686962344,"current_range_meters":4000,"station_id":"ce4bh012rcd13ifvqcv0","pricing_plan_id":"free"},{"bike_id":"06191352-0ed9-4282-9430-e44419e00ca8","system_id":"levelo_inurba_marseille","lat":43.313291,"lon":5.396838,"is_reserved":false,"is_disabled":false,"rental_uris":{"android":"levelo://app?vid=06191352-0ed9-4282-9430-e44419e00ca8","ios":"levelo://app?vid=06191352-0ed9-4282-9430-e44419e00ca8"},"vehicle_type_id":"4","last_reported":1686962344,"current_range_meters":20800,"station_id":"ce4bgvp2rcd13ifvqcu0","pricing_plan_id":"free"},{"bike_id":"4f12cb28-7d96-4140-babe-2776d43c284b","system_id":"levelo_inurba_marseille","lat":43.291994,"lon":5.357886,"is_reserved":false,"is_disabled":false,"rental_uris":{"android":"levelo://app?vid=4f12cb28-7d96-4140-babe-2776d43c284b","ios":"levelo://app?vid=4f12cb28-7d96-4140-babe-2776d43c284b"},"vehicle_type_id":"4","last_reported":1686962344,"current_range_meters":29600,"station_id":"ce4bhb12rcd13ifvqel0","pricing_plan_id":"free"},{"bike_id":"5a9f00bd-cd48-4368-9c6b-f11b48f8ee67","system_id":"levelo_inurba_marseille","lat":43.313291,"lon":5.396838,"is_reserved":false,"is_disabled":false,"rental_uris":{"android":"levelo://app?vid=5a9f00bd-cd48-4368-9c6b-f11b48f8ee67","ios":"levelo://app?vid=5a9f00bd-cd48-4368-9c6b-f11b48f8ee67"},"vehicle_type_id":"4","last_reported":1686962344,"current_range_meters":2800,"station_id":"ce4bgvp2rcd13ifvqcu0","pricing_plan_id":"free"},{"bike_id":"8f1cb3c9-4606-49db-9a2b-2e81242719a1","system_id":"levelo_inurba_marseille","lat":43.313291,"lon":5.396838,"is_reserved":false,"is_disabled":false,"rental_uris":{"android":"levelo://app?vid=8f1cb3c9-4606-49db-9a2b-2e81242719a1","ios":"levelo://app?vid=8f1cb3c9-4606-49db-9a2b-2e81242719a1"},"vehicle_type_id":"4","last_reported":1686962344,"current_range_meters":3200,"station_id":"ce4bgvp2rcd13ifvqcu0","pricing_plan_id":"free"},{"bike_id":"42c8e5d5-9b6e-4fa3-8a1f-9a52236a8737","system_id":"levelo_inurba_marseille","lat":43.313291,"lon":5.396838,"is_reserved":false,"is_disabled":false,"rental_uris":{"android":"levelo://app?vid=42c8e5d5-9b6e-4fa3-8a1f-9a52236a8737","ios":"levelo://app?vid=42c8e5d5-9b6e-4fa3-8a1f-9a52236a8737"},"vehicle_type_id":"4","last_reported":1686962344,"current_range_meters":21600,"station_id":"ce4bgvp2rcd13ifvqcu0","pricing_plan_id":"free"},{"bike_id":"a599d736-91d5-4137-981e-54cbfaa30792","system_id":"levelo_inurba_marseille","lat":43.309038,"lon":5.396546,"is_reserved":false,"is_disabled":false,"rental_uris":{"android":"levelo://app?vid=a599d736-91d5-4137-981e-54cbfaa30792","ios":"levelo://app?vid=a599d736-91d5-4137-981e-54cbfaa30792"},"vehicle_type_id":"4","last_reported":1686962344,"current_range_meters":0,"station_id":"ce4bh012rcd13ifvqcv0","pricing_plan_id":"free"},{"bike_id":"4fabf872-fe0e-48c5-9f1c-538adf12ec08","system_id":"levelo_inurba_marseille","lat":43.313291,"lon":5.396838,"is_reserved":false,"is_disabled":false,"rental_uris":{"android":"levelo://app?vid=4fabf872-fe0e-48c5-9f1c-538adf12ec08","ios":"levelo://app?vid=4fabf872-fe0e-48c5-9f1c-538adf12ec08"},"vehicle_type_id":"4","last_reported":1686962344,"current_range_meters":24400,"station_id":"ce4bgvp2rcd13ifvqcu0","pricing_plan_id":"free"},{"bike_id":"3dedf831-b5ed-4419-a1b0-de6e080c9e5b","system_id":"levelo_inurba_marseille","lat":43.29188,"lon":5.35801,"is_reserved":false,"is_disabled":false,"rental_uris":{"android":"levelo://app?vid=3dedf831-b5ed-4419-a1b0-de6e080c9e5b","ios":"levelo://app?vid=3dedf831-b5ed-4419-a1b0-de6e080c9e5b"},"vehicle_type_id":"4","last_reported":1686962344,"current_range_meters":3600,"station_id":"ce4bhb12rcd13ifvqel0","pricing_plan_id":"free"},{"bike_id":"58f172ad-c132-4377-8297-bd06c7f83a60","system_id":"levelo_inurba_marseille","lat":43.313291,"lon":5.396838,"is_reserved":false,"is_disabled":false,"rental_uris":{"android":"levelo://app?vid=58f172ad-c132-4377-8297-bd06c7f83a60","ios":"levelo://app?vid=58f172ad-c132-4377-8297-bd06c7f83a60"},"vehicle_type_id":"4","last_reported":1686962344,"current_range_meters":25200,"station_id":"ce4bgvp2rcd13ifvqcu0","pricing_plan_id":"free"},{"bike_id":"52c43ac0-779c-4e12-bfe5-955b04a61d0d","system_id":"levelo_inurba_marseille","lat":43.29189,"lon":5.3579,"is_reserved":false,"is_disabled":false,"rental_uris":{"android":"levelo://app?vid=52c43ac0-779c-4e12-bfe5-955b04a61d0d","ios":"levelo://app?vid=52c43ac0-779c-4e12-bfe5-955b04a61d0d"},"vehicle_type_id":"4","last_reported":1686962344,"current_range_meters":0,"station_id":"ce4bhb12rcd13ifvqel0","pricing_plan_id":"free"},{"bike_id":"a0cc9c33-6600-49fc-9a70-da6cacac930e","system_id":"levelo_inurba_marseille","lat":43.309038,"lon":5.396546,"is_reserved":false,"is_disabled":false,"rental_uris":{"android":"levelo://app?vid=a0cc9c33-6600-49fc-9a70-da6cacac930e","ios":"levelo://app?vid=a0cc9c33-6600-49fc-9a70-da6cacac930e"},"vehicle_type_id":"4","last_reported":1686962344,"current_range_meters":25200,"station_id":"ce4bh012rcd13ifvqcv0","pricing_plan_id":"free"},{"bike_id":"257a2873-18cc-4e64-b867-25f20b6965d2","system_id":"levelo_inurba_marseille","lat":43.29087,"lon":5.37176,"is_reserved":false,"is_disabled":false,"rental_uris":{"android":"levelo://app?vid=257a2873-18cc-4e64-b867-25f20b6965d2","ios":"levelo://app?vid=257a2873-18cc-4e64-b867-25f20b6965d2"},"vehicle_type_id":"4","last_reported":1686962344,"current_range_meters":30800,"station_id":"ce4bh5p2rcd13ifvqe4g","pricing_plan_id":"free"},{"bike_id":"fc1bb157-464c-4514-9aa4-ce5e38a31566","system_id":"levelo_inurba_marseille","lat":43.29069,"lon":5.37155,"is_reserved":false,"is_disabled":false,"rental_uris":{"android":"levelo://app?vid=fc1bb157-464c-4514-9aa4-ce5e38a31566","ios":"levelo://app?vid=fc1bb157-464c-4514-9aa4-ce5e38a31566"},"vehicle_type_id":"4","last_reported":1686962344,"current_range_meters":27200,"station_id":"ce4bh5p2rcd13ifvqe4g","pricing_plan_id":"free"},{"bike_id":"110ccf80-5b86-4ef4-9de8-e23236ec0200","system_id":"levelo_inurba_marseille","lat":43.290624,"lon":5.359245,"is_reserved":false,"is_disabled":false,"rental_uris":{"android":"levelo://app?vid=110ccf80-5b86-4ef4-9de8-e23236ec0200","ios":"levelo://app?vid=110ccf80-5b86-4ef4-9de8-e23236ec0200"},"vehicle_type_id":"4","last_reported":1686962344,"current_range_meters":29200,"station_id":"ce4bha92rcd13ifvqeg0","pricing_plan_id":"free"},{"bike_id":"6b3a774e-efd2-4259-aefd-1dfb87859a51","system_id":"levelo_inurba_marseille","lat":43.289184,"lon":5.366408,"is_reserved":false,"is_disabled":false,"rental_uris":{"android":"levelo://app?vid=6b3a774e-efd2-4259-aefd-1dfb87859a51","ios":"levelo://app?vid=6b3a774e-efd2-4259-aefd-1dfb87859a51"},"vehicle_type_id":"4","last_reported":1686962344,"current_range_meters":14000,"station_id":"ce4bhap2rcd13ifvqek0","pricing_plan_id":"free"},{"bike_id":"986c4642-8287-4b09-9bfd-4bfa6d258d01","system_id":"levelo_inurba_marseille","lat":43.289184,"lon":5.366408,"is_reserved":false,"is_disabled":false,"rental_uris":{"android":"levelo://app?vid=986c4642-8287-4b09-9bfd-4bfa6d258d01","ios":"levelo://app?vid=986c4642-8287-4b09-9bfd-4bfa6d258d01"},"vehicle_type_id":"4","last_reported":1686962344,"current_range_meters":26400,"station_id":"ce4bhap2rcd13ifvqek0","pricing_plan_id":"free"},{"bike_id":"a32a3eae-0013-490c-97b4-9310124d1bff","system_id":"levelo_inurba_marseille","lat":43.289184,"lon":5.366408,"is_reserved":false,"is_disabled":false,"rental_uris":{"android":"levelo://app?vid=a32a3eae-0013-490c-97b4-9310124d1bff","ios":"levelo://app?vid=a32a3eae-0013-490c-97b4-9310124d1bff"},"vehicle_type_id":"4","last_reported":1686962344,"current_range_meters":30400,"station_id":"ce4bhap2rcd13ifvqek0","pricing_plan_id":"free"},{"bike_id":"38eb09af-7166-42b9-865e-84246929498f","system_id":"levelo_inurba_marseille","lat":43.29267,"lon":5.38456,"is_reserved":false,"is_disabled":false,"rental_uris":{"android":"levelo://app?vid=38eb09af-7166-42b9-865e-84246929498f","ios":"levelo://app?vid=38eb09af-7166-42b9-865e-84246929498f"},"vehicle_type_id":"4","last_reported":1686962344,"current_range_meters":31200,"station_id":"ce4bh692rcd13ifvqea0","pricing_plan_id":"free"},{"bike_id":"efd9ad73-20e4-48a8-9273-d79e81729f94","system_id":"levelo_inurba_marseille","lat":43.3304,"lon":5.3891,"is_reserved":false,"is_disabled":false,"rental_uris":{"android":"levelo://app?vid=efd9ad73-20e4-48a8-9273-d79e81729f94","ios":"levelo://app?vid=efd9ad73-20e4-48a8-9273-d79e81729f94"},"vehicle_type_id":"4","last_reported":1686962344,"current_range_meters":31200,"station_id":"ce4bhr92rcd13ifvqhrg","pricing_plan_id":"free"},{"bike_id":"4faf2fe0-7f46-4f91-895e-d65be93b4bcb","system_id":"levelo_inurba_marseille","lat":43.330442,"lon":5.389148,"is_reserved":false,"is_disabled":false,"rental_uris":{"android":"levelo://app?vid=4faf2fe0-7f46-4f91-895e-d65be93b4bcb","ios":"levelo://app?vid=4faf2fe0-7f46-4f91-895e-d65be93b4bcb"},"vehicle_type_id":"4","last_reported":1686962344,"current_range_meters":6000,"station_id":"ce4bhr92rcd13ifvqhrg","pricing_plan_id":"free"},{"bike_id":"6e20a92e-f2bc-4249-8d69-20676a6cfc32","system_id":"levelo_inurba_marseille","lat":43.290104,"lon":5.356111,"is_reserved":false,"is_disabled":false,"rental_uris":{"android":"levelo://app?vid=6e20a92e-f2bc-4249-8d69-20676a6cfc32","ios":"levelo://app?vid=6e20a92e-f2bc-4249-8d69-20676a6cfc32"},"vehicle_type_id":"4","last_reported":1686962344,"current_range_meters":29600,"station_id":"ce4bhb92rcd13ifvqen0","pricing_plan_id":"free"},{"bike_id":"33efefb8-a7c6-41ca-b7ff-92539cefc65c","system_id":"levelo_inurba_marseille","lat":43.33048,"lon":5.3892,"is_reserved":false,"is_disabled":false,"rental_uris":{"android":"levelo://app?vid=33efefb8-a7c6-41ca-b7ff-92539cefc65c","ios":"levelo://app?vid=33efefb8-a7c6-41ca-b7ff-92539cefc65c"},"vehicle_type_id":"4","last_reported":1686962344,"current_range_meters":31200,"station_id":"ce4bhr92rcd13ifvqhrg","pricing_plan_id":"free"},{"bike_id":"0ff762b1-3183-4e06-aa69-bf2680042bea","system_id":"levelo_inurba_marseille","lat":43.290995,"lon":5.381361,"is_reserved":false,"is_disabled":false,"rental_uris":{"android":"levelo://app?vid=0ff762b1-3183-4e06-aa69-bf2680042bea","ios":"levelo://app?vid=0ff762b1-3183-4e06-aa69-bf2680042bea"},"vehicle_type_id":"4","last_reported":1686962344,"current_range_meters":22800,"station_id":"ce4bh512rcd13ifvqe2g","pricing_plan_id":"free"},{"bike_id":"3db011a4-bbea-4e71-b680-5cb67989a226","system_id":"levelo_inurba_marseille","lat":43.297815,"lon":5.393548,"is_reserved":false,"is_disabled":false,"rental_uris":{"android":"levelo://app?vid=3db011a4-bbea-4e71-b680-5cb67989a226","ios":"levelo://app?vid=3db011a4-bbea-4e71-b680-5cb67989a226"},"vehicle_type_id":"4","last_reported":1686962344,"current_range_meters":3200,"station_id":"chh1huq6cuj3fo74tm60","pricing_plan_id":"free"},{"bike_id":"f21fbf3f-09bf-4b0f-8f0f-051f5197ed7a","system_id":"levelo_inurba_marseille","lat":43.297815,"lon":5.393548,"is_reserved":false,"is_disabled":false,"rental_uris":{"android":"levelo://app?vid=f21fbf3f-09bf-4b0f-8f0f-051f5197ed7a","ios":"levelo://app?vid=f21fbf3f-09bf-4b0f-8f0f-051f5197ed7a"},"vehicle_type_id":"4","last_reported":1686962344,"current_range_meters":1200,"station_id":"chh1huq6cuj3fo74tm60","pricing_plan_id":"free"},{"bike_id":"a8d9d549-b4af-41a2-b973-b0ccd0e842b5","system_id":"levelo_inurba_marseille","lat":43.297815,"lon":5.393548,"is_reserved":false,"is_disabled":false,"rental_uris":{"android":"levelo://app?vid=a8d9d549-b4af-41a2-b973-b0ccd0e842b5","ios":"levelo://app?vid=a8d9d549-b4af-41a2-b973-b0ccd0e842b5"},"vehicle_type_id":"4","last_reported":1686962344,"current_range_meters":0,"station_id":"chh1huq6cuj3fo74tm60","pricing_plan_id":"free"},{"bike_id":"0d082a69-8fa4-4410-ac63-0248f5356e8f","system_id":"levelo_inurba_marseille","lat":43.295169,"lon":5.390426,"is_reserved":false,"is_disabled":false,"rental_uris":{"android":"levelo://app?vid=0d082a69-8fa4-4410-ac63-0248f5356e8f","ios":"levelo://app?vid=0d082a69-8fa4-4410-ac63-0248f5356e8f"},"vehicle_type_id":"4","last_reported":1686962344,"current_range_meters":25600,"station_id":"ce4bh3p2rcd13ifvqdp0","pricing_plan_id":"free"},{"bike_id":"5c0408ca-9b2b-42a9-8f58-8fdfe3803d69","system_id":"levelo_inurba_marseille","lat":43.295169,"lon":5.390426,"is_reserved":false,"is_disabled":false,"rental_uris":{"android":"levelo://app?vid=5c0408ca-9b2b-42a9-8f58-8fdfe3803d69","ios":"levelo://app?vid=5c0408ca-9b2b-42a9-8f58-8fdfe3803d69"},"vehicle_type_id":"4","last_reported":1686962344,"current_range_meters":13200,"station_id":"ce4bh3p2rcd13ifvqdp0","pricing_plan_id":"free"},{"bike_id":"a3c3cf62-7bf0-45a9-875c-5b09bb3ae097","system_id":"levelo_inurba_marseille","lat":43.28856,"lon":5.358371,"is_reserved":false,"is_disabled":false,"rental_uris":{"android":"levelo://app?vid=a3c3cf62-7bf0-45a9-875c-5b09bb3ae097","ios":"levelo://app?vid=a3c3cf62-7bf0-45a9-875c-5b09bb3ae097"},"vehicle_type_id":"4","last_reported":1686962344,"current_range_meters":29600,"station_id":"ce4bhb12rcd13ifvqem0","pricing_plan_id":"free"},{"bike_id":"c2e3aa44-936e-48e2-81bc-1e3836295453","system_id":"levelo_inurba_marseille","lat":43.28856,"lon":5.358371,"is_reserved":false,"is_disabled":false,"rental_uris":{"android":"levelo://app?vid=c2e3aa44-936e-48e2-81bc-1e3836295453","ios":"levelo://app?vid=c2e3aa44-936e-48e2-81bc-1e3836295453"},"vehicle_type_id":"4","last_reported":1686962344,"current_range_meters":12000,"station_id":"ce4bhb12rcd13ifvqem0","pricing_plan_id":"free"},{"bike_id":"b1b2f804-de2e-4b5d-ad73-dfb4beca7f59","system_id":"levelo_inurba_marseille","lat":43.28846,"lon":5.35851,"is_reserved":false,"is_disabled":false,"rental_uris":{"android":"levelo://app?vid=b1b2f804-de2e-4b5d-ad73-dfb4beca7f59","ios":"levelo://app?vid=b1b2f804-de2e-4b5d-ad73-dfb4beca7f59"},"vehicle_type_id":"4","last_reported":1686962344,"current_range_meters":13200,"station_id":"ce4bhb12rcd13ifvqem0","pricing_plan_id":"free"},{"bike_id":"d3704486-4b87-40a4-886f-056ca3a9b43f","system_id":"levelo_inurba_marseille","lat":43.28856,"lon":5.358371,"is_reserved":false,"is_disabled":false,"rental_uris":{"android":"levelo://app?vid=d3704486-4b87-40a4-886f-056ca3a9b43f","ios":"levelo://app?vid=d3704486-4b87-40a4-886f-056ca3a9b43f"},"vehicle_type_id":"4","last_reported":1686962344,"current_range_meters":31200,"station_id":"ce4bhb12rcd13ifvqem0","pricing_plan_id":"free"},{"bike_id":"c0fb8083-e02d-4dec-b1b9-fa095e6c5b75","system_id":"levelo_inurba_marseille","lat":43.337396,"lon":5.374526,"is_reserved":false,"is_disabled":false,"rental_uris":{"android":"levelo://app?vid=c0fb8083-e02d-4dec-b1b9-fa095e6c5b75","ios":"levelo://app?vid=c0fb8083-e02d-4dec-b1b9-fa095e6c5b75"},"vehicle_type_id":"4","last_reported":1686962344,"current_range_meters":0,"station_id":"ce4bhp92rcd13ifvqhag","pricing_plan_id":"free"},{"bike_id":"44beca7c-d7ed-45cc-a3dc-4b9651da780a","system_id":"levelo_inurba_marseille","lat":43.309371,"lon":5.401449,"is_reserved":false,"is_disabled":false,"rental_uris":{"android":"levelo://app?vid=44beca7c-d7ed-45cc-a3dc-4b9651da780a","ios":"levelo://app?vid=44beca7c-d7ed-45cc-a3dc-4b9651da780a"},"vehicle_type_id":"4","last_reported":1686962344,"current_range_meters":23600,"station_id":"ce4bgvp2rcd13ifvqct0","pricing_plan_id":"free"},{"bike_id":"f9dfebcb-aa9a-4a0d-8fd8-6b494c353fcc","system_id":"levelo_inurba_marseille","lat":43.30936,"lon":5.40141,"is_reserved":false,"is_disabled":false,"rental_uris":{"android":"levelo://app?vid=f9dfebcb-aa9a-4a0d-8fd8-6b494c353fcc","ios":"levelo://app?vid=f9dfebcb-aa9a-4a0d-8fd8-6b494c353fcc"},"vehicle_type_id":"4","last_reported":1686962344,"current_range_meters":4400,"station_id":"ce4bgvp2rcd13ifvqct0","pricing_plan_id":"free"},{"bike_id":"db42e44a-2775-4c62-83dc-a3c8c71b6bb3","system_id":"levelo_inurba_marseille","lat":43.309371,"lon":5.401449,"is_reserved":false,"is_disabled":false,"rental_uris":{"android":"levelo://app?vid=db42e44a-2775-4c62-83dc-a3c8c71b6bb3","ios":"levelo://app?vid=db42e44a-2775-4c62-83dc-a3c8c71b6bb3"},"vehicle_type_id":"4","last_reported":1686962344,"current_range_meters":800,"station_id":"ce4bgvp2rcd13ifvqct0","pricing_plan_id":"free"},{"bike_id":"f82cf2aa-4e66-4662-a087-aef04279b5af","system_id":"levelo_inurba_marseille","lat":43.316517,"lon":5.404375,"is_reserved":false,"is_disabled":false,"rental_uris":{"android":"levelo://app?vid=f82cf2aa-4e66-4662-a087-aef04279b5af","ios":"levelo://app?vid=f82cf2aa-4e66-4662-a087-aef04279b5af"},"vehicle_type_id":"4","last_reported":1686962344,"current_range_meters":2800,"station_id":"ce4bh012rcd13ifvqd00","pricing_plan_id":"free"},{"bike_id":"619f5c8e-4ed6-4ac9-b1ea-febf4585366a","system_id":"levelo_inurba_marseille","lat":43.309371,"lon":5.401449,"is_reserved":false,"is_disabled":false,"rental_uris":{"android":"levelo://app?vid=619f5c8e-4ed6-4ac9-b1ea-febf4585366a","ios":"levelo://app?vid=619f5c8e-4ed6-4ac9-b1ea-febf4585366a"},"vehicle_type_id":"4","last_reported":1686962344,"current_range_meters":17600,"station_id":"ce4bgvp2rcd13ifvqct0","pricing_plan_id":"free"},{"bike_id":"d5e6bd0f-c204-4df0-a839-e4ec2e2e56d8","system_id":"levelo_inurba_marseille","lat":43.3093,"lon":5.40142,"is_reserved":false,"is_disabled":false,"rental_uris":{"android":"levelo://app?vid=d5e6bd0f-c204-4df0-a839-e4ec2e2e56d8","ios":"levelo://app?vid=d5e6bd0f-c204-4df0-a839-e4ec2e2e56d8"},"vehicle_type_id":"4","last_reported":1686962344,"current_range_meters":23600,"station_id":"ce4bgvp2rcd13ifvqct0","pricing_plan_id":"free"},{"bike_id":"603cc049-0ef3-47d4-a8ba-245e25b339f3","system_id":"levelo_inurba_marseille","lat":43.30937,"lon":5.40144,"is_reserved":false,"is_disabled":false,"rental_uris":{"android":"levelo://app?vid=603cc049-0ef3-47d4-a8ba-245e25b339f3","ios":"levelo://app?vid=603cc049-0ef3-47d4-a8ba-245e25b339f3"},"vehicle_type_id":"4","last_reported":1686962344,"current_range_meters":4800,"station_id":"ce4bgvp2rcd13ifvqct0","pricing_plan_id":"free"},{"bike_id":"a3914528-27ba-4acc-bec1-258d2b2744ea","system_id":"levelo_inurba_marseille","lat":43.309371,"lon":5.401449,"is_reserved":false,"is_disabled":false,"rental_uris":{"android":"levelo://app?vid=a3914528-27ba-4acc-bec1-258d2b2744ea","ios":"levelo://app?vid=a3914528-27ba-4acc-bec1-258d2b2744ea"},"vehicle_type_id":"4","last_reported":1686962344,"current_range_meters":8800,"station_id":"ce4bgvp2rcd13ifvqct0","pricing_plan_id":"free"},{"bike_id":"1e403eff-b1ed-4803-9c1c-6784f940039f","system_id":"levelo_inurba_marseille","lat":43.309371,"lon":5.401449,"is_reserved":false,"is_disabled":false,"rental_uris":{"android":"levelo://app?vid=1e403eff-b1ed-4803-9c1c-6784f940039f","ios":"levelo://app?vid=1e403eff-b1ed-4803-9c1c-6784f940039f"},"vehicle_type_id":"4","last_reported":1686962344,"current_range_meters":22800,"station_id":"ce4bgvp2rcd13ifvqct0","pricing_plan_id":"free"},{"bike_id":"510d5f0b-f939-4a6f-b6eb-ae75dcc3e76d","system_id":"levelo_inurba_marseille","lat":43.30642,"lon":5.401031,"is_reserved":false,"is_disabled":false,"rental_uris":{"android":"levelo://app?vid=510d5f0b-f939-4a6f-b6eb-ae75dcc3e76d","ios":"levelo://app?vid=510d5f0b-f939-4a6f-b6eb-ae75dcc3e76d"},"vehicle_type_id":"4","last_reported":1686962344,"current_range_meters":5600,"station_id":"ce4bh112rcd13ifvqda0","pricing_plan_id":"free"},{"bike_id":"89b4a9bc-3a7f-430d-bb2d-d1c3a82d3598","system_id":"levelo_inurba_marseille","lat":43.30642,"lon":5.401031,"is_reserved":false,"is_disabled":false,"rental_uris":{"android":"levelo://app?vid=89b4a9bc-3a7f-430d-bb2d-d1c3a82d3598","ios":"levelo://app?vid=89b4a9bc-3a7f-430d-bb2d-d1c3a82d3598"},"vehicle_type_id":"4","last_reported":1686962344,"current_range_meters":21200,"station_id":"ce4bh112rcd13ifvqda0","pricing_plan_id":"free"},{"bike_id":"e4774801-57d9-4a26-a1c4-13cd7d65bdf4","system_id":"levelo_inurba_marseille","lat":43.30642,"lon":5.401031,"is_reserved":false,"is_disabled":false,"rental_uris":{"android":"levelo://app?vid=e4774801-57d9-4a26-a1c4-13cd7d65bdf4","ios":"levelo://app?vid=e4774801-57d9-4a26-a1c4-13cd7d65bdf4"},"vehicle_type_id":"4","last_reported":1686962344,"current_range_meters":24000,"station_id":"ce4bh112rcd13ifvqda0","pricing_plan_id":"free"},{"bike_id":"80d21622-e966-4954-958d-9a116055f97f","system_id":"levelo_inurba_marseille","lat":43.301117,"lon":5.398795,"is_reserved":false,"is_disabled":false,"rental_uris":{"android":"levelo://app?vid=80d21622-e966-4954-958d-9a116055f97f","ios":"levelo://app?vid=80d21622-e966-4954-958d-9a116055f97f"},"vehicle_type_id":"4","last_reported":1686962344,"current_range_meters":20800,"station_id":"ce4bh0h2rcd13ifvqd40","pricing_plan_id":"free"},{"bike_id":"b235a4d5-9ae1-4716-9c53-667ea4c31b75","system_id":"levelo_inurba_marseille","lat":43.301117,"lon":5.398795,"is_reserved":false,"is_disabled":false,"rental_uris":{"android":"levelo://app?vid=b235a4d5-9ae1-4716-9c53-667ea4c31b75","ios":"levelo://app?vid=b235a4d5-9ae1-4716-9c53-667ea4c31b75"},"vehicle_type_id":"4","last_reported":1686962344,"current_range_meters":23600,"station_id":"ce4bh0h2rcd13ifvqd40","pricing_plan_id":"free"},{"bike_id":"0bf6e3cb-ded6-4c75-823d-5eee2a3cb3d9","system_id":"levelo_inurba_marseille","lat":43.301117,"lon":5.398795,"is_reserved":false,"is_disabled":false,"rental_uris":{"android":"levelo://app?vid=0bf6e3cb-ded6-4c75-823d-5eee2a3cb3d9","ios":"levelo://app?vid=0bf6e3cb-ded6-4c75-823d-5eee2a3cb3d9"},"vehicle_type_id":"4","last_reported":1686962344,"current_range_meters":14000,"station_id":"ce4bh0h2rcd13ifvqd40","pricing_plan_id":"free"},{"bike_id":"e5f0f0c6-611e-488d-8805-7a8d5d647a69","system_id":"levelo_inurba_marseille","lat":43.28712,"lon":5.37381,"is_reserved":false,"is_disabled":false,"rental_uris":{"android":"levelo://app?vid=e5f0f0c6-611e-488d-8805-7a8d5d647a69","ios":"levelo://app?vid=e5f0f0c6-611e-488d-8805-7a8d5d647a69"},"vehicle_type_id":"4","last_reported":1686962344,"current_range_meters":0,"station_id":"ce4bh3p2rcd13ifvqdq0","pricing_plan_id":"free"},{"bike_id":"1204d2b3-06d7-459e-b772-dd51f8bf0828","system_id":"levelo_inurba_marseille","lat":43.298681,"lon":5.397225,"is_reserved":false,"is_disabled":false,"rental_uris":{"android":"levelo://app?vid=1204d2b3-06d7-459e-b772-dd51f8bf0828","ios":"levelo://app?vid=1204d2b3-06d7-459e-b772-dd51f8bf0828"},"vehicle_type_id":"4","last_reported":1686962344,"current_range_meters":18400,"station_id":"ce4bh0h2rcd13ifvqd50","pricing_plan_id":"free"},{"bike_id":"5fbc48f7-9ba1-416f-92d5-3d3ba3c78d44","system_id":"levelo_inurba_marseille","lat":43.28707,"lon":5.37381,"is_reserved":false,"is_disabled":false,"rental_uris":{"android":"levelo://app?vid=5fbc48f7-9ba1-416f-92d5-3d3ba3c78d44","ios":"levelo://app?vid=5fbc48f7-9ba1-416f-92d5-3d3ba3c78d44"},"vehicle_type_id":"4","last_reported":1686962344,"current_range_meters":27200,"station_id":"ce4bh3p2rcd13ifvqdq0","pricing_plan_id":"free"},{"bike_id":"e2c1afe0-3934-4f00-862a-2cd55687130c","system_id":"levelo_inurba_marseille","lat":43.298681,"lon":5.397225,"is_reserved":false,"is_disabled":false,"rental_uris":{"android":"levelo://app?vid=e2c1afe0-3934-4f00-862a-2cd55687130c","ios":"levelo://app?vid=e2c1afe0-3934-4f00-862a-2cd55687130c"},"vehicle_type_id":"4","last_reported":1686962344,"current_range_meters":11600,"station_id":"ce4bh0h2rcd13ifvqd50","pricing_plan_id":"free"},{"bike_id":"24fdee23-3960-4f97-b366-c82ca33cc7c8","system_id":"levelo_inurba_marseille","lat":43.298681,"lon":5.397225,"is_reserved":false,"is_disabled":false,"rental_uris":{"android":"levelo://app?vid=24fdee23-3960-4f97-b366-c82ca33cc7c8","ios":"levelo://app?vid=24fdee23-3960-4f97-b366-c82ca33cc7c8"},"vehicle_type_id":"4","last_reported":1686962344,"current_range_meters":16800,"station_id":"ce4bh0h2rcd13ifvqd50","pricing_plan_id":"free"},{"bike_id":"1ff12555-aaf8-438f-ad49-59a195ea6052","system_id":"levelo_inurba_marseille","lat":43.298681,"lon":5.397225,"is_reserved":false,"is_disabled":false,"rental_uris":{"android":"levelo://app?vid=1ff12555-aaf8-438f-ad49-59a195ea6052","ios":"levelo://app?vid=1ff12555-aaf8-438f-ad49-59a195ea6052"},"vehicle_type_id":"4","last_reported":1686962344,"current_range_meters":28400,"station_id":"ce4bh0h2rcd13ifvqd50","pricing_plan_id":"free"},{"bike_id":"e9936b49-c45e-4348-afc1-35ed30a834b3","system_id":"levelo_inurba_marseille","lat":43.298681,"lon":5.397225,"is_reserved":false,"is_disabled":false,"rental_uris":{"android":"levelo://app?vid=e9936b49-c45e-4348-afc1-35ed30a834b3","ios":"levelo://app?vid=e9936b49-c45e-4348-afc1-35ed30a834b3"},"vehicle_type_id":"4","last_reported":1686962344,"current_range_meters":7600,"station_id":"ce4bh0h2rcd13ifvqd50","pricing_plan_id":"free"},{"bike_id":"5911fa21-e053-4a3b-991b-97c46b46c2e0","system_id":"levelo_inurba_marseille","lat":43.298681,"lon":5.397225,"is_reserved":false,"is_disabled":false,"rental_uris":{"android":"levelo://app?vid=5911fa21-e053-4a3b-991b-97c46b46c2e0","ios":"levelo://app?vid=5911fa21-e053-4a3b-991b-97c46b46c2e0"},"vehicle_type_id":"4","last_reported":1686962344,"current_range_meters":12800,"station_id":"ce4bh0h2rcd13ifvqd50","pricing_plan_id":"free"},{"bike_id":"4330bf84-df4e-4ebe-a6e8-96c9b269a8c5","system_id":"levelo_inurba_marseille","lat":43.286961,"lon":5.373785,"is_reserved":false,"is_disabled":false,"rental_uris":{"android":"levelo://app?vid=4330bf84-df4e-4ebe-a6e8-96c9b269a8c5","ios":"levelo://app?vid=4330bf84-df4e-4ebe-a6e8-96c9b269a8c5"},"vehicle_type_id":"4","last_reported":1686962344,"current_range_meters":0,"station_id":"ce4bh3p2rcd13ifvqdq0","pricing_plan_id":"free"},{"bike_id":"c2740052-9914-4c4b-a92e-1f4e5d935397","system_id":"levelo_inurba_marseille","lat":43.290345,"lon":5.38646,"is_reserved":false,"is_disabled":false,"rental_uris":{"android":"levelo://app?vid=c2740052-9914-4c4b-a92e-1f4e5d935397","ios":"levelo://app?vid=c2740052-9914-4c4b-a92e-1f4e5d935397"},"vehicle_type_id":"4","last_reported":1686962344,"current_range_meters":24800,"station_id":"ce4bh4p2rcd13ifvqe0g","pricing_plan_id":"free"},{"bike_id":"128d8370-1a1a-40aa-ac67-f17c20d8c1be","system_id":"levelo_inurba_marseille","lat":43.302759,"lon":5.400793,"is_reserved":false,"is_disabled":false,"rental_uris":{"android":"levelo://app?vid=128d8370-1a1a-40aa-ac67-f17c20d8c1be","ios":"levelo://app?vid=128d8370-1a1a-40aa-ac67-f17c20d8c1be"},"vehicle_type_id":"4","last_reported":1686962344,"current_range_meters":3200,"station_id":"ce4bgvh2rcd13ifvqcs0","pricing_plan_id":"free"},{"bike_id":"e4564b14-2edc-4d42-b034-2a9b9ed4c193","system_id":"levelo_inurba_marseille","lat":43.290345,"lon":5.38646,"is_reserved":false,"is_disabled":false,"rental_uris":{"android":"levelo://app?vid=e4564b14-2edc-4d42-b034-2a9b9ed4c193","ios":"levelo://app?vid=e4564b14-2edc-4d42-b034-2a9b9ed4c193"},"vehicle_type_id":"4","last_reported":1686962344,"current_range_meters":28400,"station_id":"ce4bh4p2rcd13ifvqe0g","pricing_plan_id":"free"},{"bike_id":"497f3d48-ff51-4c45-877d-59fc710f7e10","system_id":"levelo_inurba_marseille","lat":43.302759,"lon":5.400793,"is_reserved":false,"is_disabled":false,"rental_uris":{"android":"levelo://app?vid=497f3d48-ff51-4c45-877d-59fc710f7e10","ios":"levelo://app?vid=497f3d48-ff51-4c45-877d-59fc710f7e10"},"vehicle_type_id":"4","last_reported":1686962344,"current_range_meters":11600,"station_id":"ce4bgvh2rcd13ifvqcs0","pricing_plan_id":"free"},{"bike_id":"788f9d84-6916-4786-99c9-24b10741232c","system_id":"levelo_inurba_marseille","lat":43.302759,"lon":5.400793,"is_reserved":false,"is_disabled":false,"rental_uris":{"android":"levelo://app?vid=788f9d84-6916-4786-99c9-24b10741232c","ios":"levelo://app?vid=788f9d84-6916-4786-99c9-24b10741232c"},"vehicle_type_id":"4","last_reported":1686962344,"current_range_meters":4400,"station_id":"ce4bgvh2rcd13ifvqcs0","pricing_plan_id":"free"},{"bike_id":"e4fa9283-4cbe-4364-9a94-3d3f2e329a22","system_id":"levelo_inurba_marseille","lat":43.302759,"lon":5.400793,"is_reserved":false,"is_disabled":false,"rental_uris":{"android":"levelo://app?vid=e4fa9283-4cbe-4364-9a94-3d3f2e329a22","ios":"levelo://app?vid=e4fa9283-4cbe-4364-9a94-3d3f2e329a22"},"vehicle_type_id":"4","last_reported":1686962344,"current_range_meters":30000,"station_id":"ce4bgvh2rcd13ifvqcs0","pricing_plan_id":"free"},{"bike_id":"dd31f17c-cec0-4f1c-aa53-88a23c639fac","system_id":"levelo_inurba_marseille","lat":43.290336,"lon":5.386425,"is_reserved":false,"is_disabled":false,"rental_uris":{"android":"levelo://app?vid=dd31f17c-cec0-4f1c-aa53-88a23c639fac","ios":"levelo://app?vid=dd31f17c-cec0-4f1c-aa53-88a23c639fac"},"vehicle_type_id":"4","last_reported":1686962344,"current_range_meters":25600,"station_id":"ce4bh4p2rcd13ifvqe0g","pricing_plan_id":"free"},{"bike_id":"a20e3139-8ffe-451e-9f8a-224494e4badb","system_id":"levelo_inurba_marseille","lat":43.302759,"lon":5.400793,"is_reserved":false,"is_disabled":false,"rental_uris":{"android":"levelo://app?vid=a20e3139-8ffe-451e-9f8a-224494e4badb","ios":"levelo://app?vid=a20e3139-8ffe-451e-9f8a-224494e4badb"},"vehicle_type_id":"4","last_reported":1686962344,"current_range_meters":6000,"station_id":"ce4bgvh2rcd13ifvqcs0","pricing_plan_id":"free"},{"bike_id":"7d5831b3-6ce2-4ffd-b2a0-2cafcf8b06e1","system_id":"levelo_inurba_marseille","lat":43.286039,"lon":5.370681,"is_reserved":false,"is_disabled":false,"rental_uris":{"android":"levelo://app?vid=7d5831b3-6ce2-4ffd-b2a0-2cafcf8b06e1","ios":"levelo://app?vid=7d5831b3-6ce2-4ffd-b2a0-2cafcf8b06e1"},"vehicle_type_id":"4","last_reported":1686962344,"current_range_meters":16000,"station_id":"ce4bht12rcd13ifvqi60","pricing_plan_id":"free"},{"bike_id":"89fb7ac8-867a-4f55-a61a-7fa33825dae0","system_id":"levelo_inurba_marseille","lat":43.287184,"lon":5.37937,"is_reserved":false,"is_disabled":false,"rental_uris":{"android":"levelo://app?vid=89fb7ac8-867a-4f55-a61a-7fa33825dae0","ios":"levelo://app?vid=89fb7ac8-867a-4f55-a61a-7fa33825dae0"},"vehicle_type_id":"4","last_reported":1686962344,"current_range_meters":14400,"station_id":"ce4bh9p2rcd13ifvqec0","pricing_plan_id":"free"},{"bike_id":"4bbeb4a9-2f22-465b-841a-888e5f8a001d","system_id":"levelo_inurba_marseille","lat":43.287185,"lon":5.379373,"is_reserved":false,"is_disabled":false,"rental_uris":{"android":"levelo://app?vid=4bbeb4a9-2f22-465b-841a-888e5f8a001d","ios":"levelo://app?vid=4bbeb4a9-2f22-465b-841a-888e5f8a001d"},"vehicle_type_id":"4","last_reported":1686962344,"current_range_meters":29200,"station_id":"ce4bh9p2rcd13ifvqec0","pricing_plan_id":"free"},{"bike_id":"16547967-d444-4d2d-9f95-651fe276e68c","system_id":"levelo_inurba_marseille","lat":43.316517,"lon":5.404375,"is_reserved":false,"is_disabled":false,"rental_uris":{"android":"levelo://app?vid=16547967-d444-4d2d-9f95-651fe276e68c","ios":"levelo://app?vid=16547967-d444-4d2d-9f95-651fe276e68c"},"vehicle_type_id":"4","last_reported":1686962344,"current_range_meters":18000,"station_id":"ce4bh012rcd13ifvqd00","pricing_plan_id":"free"},{"bike_id":"6f3779ae-0808-427e-81cd-5762c6217343","system_id":"levelo_inurba_marseille","lat":43.31646,"lon":5.40433,"is_reserved":false,"is_disabled":false,"rental_uris":{"android":"levelo://app?vid=6f3779ae-0808-427e-81cd-5762c6217343","ios":"levelo://app?vid=6f3779ae-0808-427e-81cd-5762c6217343"},"vehicle_type_id":"4","last_reported":1686962344,"current_range_meters":9600,"station_id":"ce4bh012rcd13ifvqd00","pricing_plan_id":"free"},{"bike_id":"d43dc855-7531-4724-a556-e72b91069e6b","system_id":"levelo_inurba_marseille","lat":43.316517,"lon":5.404375,"is_reserved":false,"is_disabled":false,"rental_uris":{"android":"levelo://app?vid=d43dc855-7531-4724-a556-e72b91069e6b","ios":"levelo://app?vid=d43dc855-7531-4724-a556-e72b91069e6b"},"vehicle_type_id":"4","last_reported":1686962344,"current_range_meters":1600,"station_id":"ce4bh012rcd13ifvqd00","pricing_plan_id":"free"},{"bike_id":"04da78a7-5333-4e36-8dbf-3af997e5bd97","system_id":"levelo_inurba_marseille","lat":43.291994,"lon":5.392907,"is_reserved":false,"is_disabled":false,"rental_uris":{"android":"levelo://app?vid=04da78a7-5333-4e36-8dbf-3af997e5bd97","ios":"levelo://app?vid=04da78a7-5333-4e36-8dbf-3af997e5bd97"},"vehicle_type_id":"4","last_reported":1686962344,"current_range_meters":9200,"station_id":"ce4bh192rcd13ifvqdd0","pricing_plan_id":"free"},{"bike_id":"be14fe5e-4021-42ee-baee-615ec7da75b8","system_id":"levelo_inurba_marseille","lat":43.291994,"lon":5.392907,"is_reserved":false,"is_disabled":false,"rental_uris":{"android":"levelo://app?vid=be14fe5e-4021-42ee-baee-615ec7da75b8","ios":"levelo://app?vid=be14fe5e-4021-42ee-baee-615ec7da75b8"},"vehicle_type_id":"4","last_reported":1686962344,"current_range_meters":25200,"station_id":"ce4bh192rcd13ifvqdd0","pricing_plan_id":"free"},{"bike_id":"1a3a44c9-56be-4999-a584-63deb47e61ed","system_id":"levelo_inurba_marseille","lat":43.291994,"lon":5.392907,"is_reserved":false,"is_disabled":false,"rental_uris":{"android":"levelo://app?vid=1a3a44c9-56be-4999-a584-63deb47e61ed","ios":"levelo://app?vid=1a3a44c9-56be-4999-a584-63deb47e61ed"},"vehicle_type_id":"4","last_reported":1686962344,"current_range_meters":30400,"station_id":"ce4bh192rcd13ifvqdd0","pricing_plan_id":"free"},{"bike_id":"4f1c03f3-d6c0-4b41-b759-30579377c597","system_id":"levelo_inurba_marseille","lat":43.291994,"lon":5.392907,"is_reserved":false,"is_disabled":false,"rental_uris":{"android":"levelo://app?vid=4f1c03f3-d6c0-4b41-b759-30579377c597","ios":"levelo://app?vid=4f1c03f3-d6c0-4b41-b759-30579377c597"},"vehicle_type_id":"4","last_reported":1686962344,"current_range_meters":28800,"station_id":"ce4bh192rcd13ifvqdd0","pricing_plan_id":"free"},{"bike_id":"543fe385-8656-49c6-b475-b2d5872d8ad3","system_id":"levelo_inurba_marseille","lat":43.291994,"lon":5.392907,"is_reserved":false,"is_disabled":false,"rental_uris":{"android":"levelo://app?vid=543fe385-8656-49c6-b475-b2d5872d8ad3","ios":"levelo://app?vid=543fe385-8656-49c6-b475-b2d5872d8ad3"},"vehicle_type_id":"4","last_reported":1686962344,"current_range_meters":27200,"station_id":"ce4bh192rcd13ifvqdd0","pricing_plan_id":"free"},{"bike_id":"ab7e49e9-6eb3-4bb0-8522-d110410e007b","system_id":"levelo_inurba_marseille","lat":43.284534,"lon":5.358662,"is_reserved":false,"is_disabled":false,"rental_uris":{"android":"levelo://app?vid=ab7e49e9-6eb3-4bb0-8522-d110410e007b","ios":"levelo://app?vid=ab7e49e9-6eb3-4bb0-8522-d110410e007b"},"vehicle_type_id":"4","last_reported":1686962344,"current_range_meters":24400,"station_id":"ce4bhah2rcd13ifvqei0","pricing_plan_id":"free"},{"bike_id":"39ac9b8d-a11e-4a1b-a8a0-53a7822c824d","system_id":"levelo_inurba_marseille","lat":43.28468,"lon":5.35878,"is_reserved":false,"is_disabled":false,"rental_uris":{"android":"levelo://app?vid=39ac9b8d-a11e-4a1b-a8a0-53a7822c824d","ios":"levelo://app?vid=39ac9b8d-a11e-4a1b-a8a0-53a7822c824d"},"vehicle_type_id":"4","last_reported":1686962344,"current_range_meters":12800,"station_id":"ce4bhah2rcd13ifvqei0","pricing_plan_id":"free"},{"bike_id":"0baf26d4-fbaa-4cd5-bb59-e10981efd559","system_id":"levelo_inurba_marseille","lat":43.28466,"lon":5.35886,"is_reserved":false,"is_disabled":false,"rental_uris":{"android":"levelo://app?vid=0baf26d4-fbaa-4cd5-bb59-e10981efd559","ios":"levelo://app?vid=0baf26d4-fbaa-4cd5-bb59-e10981efd559"},"vehicle_type_id":"4","last_reported":1686962344,"current_range_meters":24400,"station_id":"ce4bhah2rcd13ifvqei0","pricing_plan_id":"free"},{"bike_id":"c32e53b1-a838-46c0-b2b8-d5d97739eebc","system_id":"levelo_inurba_marseille","lat":43.284534,"lon":5.358662,"is_reserved":false,"is_disabled":false,"rental_uris":{"android":"levelo://app?vid=c32e53b1-a838-46c0-b2b8-d5d97739eebc","ios":"levelo://app?vid=c32e53b1-a838-46c0-b2b8-d5d97739eebc"},"vehicle_type_id":"4","last_reported":1686962344,"current_range_meters":4800,"station_id":"ce4bhah2rcd13ifvqei0","pricing_plan_id":"free"},{"bike_id":"48c19f76-005f-4bcf-af56-4f2ac0ea9251","system_id":"levelo_inurba_marseille","lat":43.284534,"lon":5.358662,"is_reserved":false,"is_disabled":false,"rental_uris":{"android":"levelo://app?vid=48c19f76-005f-4bcf-af56-4f2ac0ea9251","ios":"levelo://app?vid=48c19f76-005f-4bcf-af56-4f2ac0ea9251"},"vehicle_type_id":"4","last_reported":1686962344,"current_range_meters":18400,"station_id":"ce4bhah2rcd13ifvqei0","pricing_plan_id":"free"},{"bike_id":"866c0150-e936-4c3a-9f0d-516e80fa09f5","system_id":"levelo_inurba_marseille","lat":43.284534,"lon":5.358662,"is_reserved":false,"is_disabled":false,"rental_uris":{"android":"levelo://app?vid=866c0150-e936-4c3a-9f0d-516e80fa09f5","ios":"levelo://app?vid=866c0150-e936-4c3a-9f0d-516e80fa09f5"},"vehicle_type_id":"4","last_reported":1686962344,"current_range_meters":6800,"station_id":"ce4bhah2rcd13ifvqei0","pricing_plan_id":"free"},{"bike_id":"c3a18d89-2ef0-4138-9c87-47d0408464ae","system_id":"levelo_inurba_marseille","lat":43.284534,"lon":5.358662,"is_reserved":false,"is_disabled":false,"rental_uris":{"android":"levelo://app?vid=c3a18d89-2ef0-4138-9c87-47d0408464ae","ios":"levelo://app?vid=c3a18d89-2ef0-4138-9c87-47d0408464ae"},"vehicle_type_id":"4","last_reported":1686962344,"current_range_meters":6400,"station_id":"ce4bhah2rcd13ifvqei0","pricing_plan_id":"free"},{"bike_id":"b2484b48-3261-4490-b636-899464e9f915","system_id":"levelo_inurba_marseille","lat":43.284534,"lon":5.358662,"is_reserved":false,"is_disabled":false,"rental_uris":{"android":"levelo://app?vid=b2484b48-3261-4490-b636-899464e9f915","ios":"levelo://app?vid=b2484b48-3261-4490-b636-899464e9f915"},"vehicle_type_id":"4","last_reported":1686962344,"current_range_meters":6400,"station_id":"ce4bhah2rcd13ifvqei0","pricing_plan_id":"free"},{"bike_id":"9d01eaf2-8ad7-4ff9-bb0c-e054c77e3f43","system_id":"levelo_inurba_marseille","lat":43.28456,"lon":5.35884,"is_reserved":false,"is_disabled":false,"rental_uris":{"android":"levelo://app?vid=9d01eaf2-8ad7-4ff9-bb0c-e054c77e3f43","ios":"levelo://app?vid=9d01eaf2-8ad7-4ff9-bb0c-e054c77e3f43"},"vehicle_type_id":"4","last_reported":1686962344,"current_range_meters":14400,"station_id":"ce4bhah2rcd13ifvqei0","pricing_plan_id":"free"},{"bike_id":"bdbcc293-e1ee-418b-bdef-d38355425a06","system_id":"levelo_inurba_marseille","lat":43.28457,"lon":5.35877,"is_reserved":false,"is_disabled":false,"rental_uris":{"android":"levelo://app?vid=bdbcc293-e1ee-418b-bdef-d38355425a06","ios":"levelo://app?vid=bdbcc293-e1ee-418b-bdef-d38355425a06"},"vehicle_type_id":"4","last_reported":1686962344,"current_range_meters":28400,"station_id":"ce4bhah2rcd13ifvqei0","pricing_plan_id":"free"},{"bike_id":"3f35dd4c-bc9d-4530-893d-5e79411bf6a5","system_id":"levelo_inurba_marseille","lat":43.284534,"lon":5.358662,"is_reserved":false,"is_disabled":false,"rental_uris":{"android":"levelo://app?vid=3f35dd4c-bc9d-4530-893d-5e79411bf6a5","ios":"levelo://app?vid=3f35dd4c-bc9d-4530-893d-5e79411bf6a5"},"vehicle_type_id":"4","last_reported":1686962344,"current_range_meters":9200,"station_id":"ce4bhah2rcd13ifvqei0","pricing_plan_id":"free"},{"bike_id":"9413549c-b262-4258-a290-9edf8fab920e","system_id":"levelo_inurba_marseille","lat":43.286595,"lon":5.386795,"is_reserved":false,"is_disabled":false,"rental_uris":{"android":"levelo://app?vid=9413549c-b262-4258-a290-9edf8fab920e","ios":"levelo://app?vid=9413549c-b262-4258-a290-9edf8fab920e"},"vehicle_type_id":"4","last_reported":1686962344,"current_range_meters":19600,"station_id":"ce4bh492rcd13ifvqdug","pricing_plan_id":"free"},{"bike_id":"17e59664-ab77-451e-be61-4178bf9da760","system_id":"levelo_inurba_marseille","lat":43.283998,"lon":5.375062,"is_reserved":false,"is_disabled":false,"rental_uris":{"android":"levelo://app?vid=17e59664-ab77-451e-be61-4178bf9da760","ios":"levelo://app?vid=17e59664-ab77-451e-be61-4178bf9da760"},"vehicle_type_id":"4","last_reported":1686962344,"current_range_meters":400,"station_id":"ce4bh412rcd13ifvqds0","pricing_plan_id":"free"},{"bike_id":"765c4bcd-93af-4e60-8c42-438c624a3962","system_id":"levelo_inurba_marseille","lat":43.295713,"lon":5.399639,"is_reserved":false,"is_disabled":false,"rental_uris":{"android":"levelo://app?vid=765c4bcd-93af-4e60-8c42-438c624a3962","ios":"levelo://app?vid=765c4bcd-93af-4e60-8c42-438c624a3962"},"vehicle_type_id":"4","last_reported":1686962344,"current_range_meters":24400,"station_id":"ce4bh312rcd13ifvqdj0","pricing_plan_id":"free"},{"bike_id":"0f4e2b1c-0dc8-4c04-9b9b-0cb455f3b9fc","system_id":"levelo_inurba_marseille","lat":43.286595,"lon":5.386795,"is_reserved":false,"is_disabled":false,"rental_uris":{"android":"levelo://app?vid=0f4e2b1c-0dc8-4c04-9b9b-0cb455f3b9fc","ios":"levelo://app?vid=0f4e2b1c-0dc8-4c04-9b9b-0cb455f3b9fc"},"vehicle_type_id":"4","last_reported":1686962344,"current_range_meters":7200,"station_id":"ce4bh492rcd13ifvqdug","pricing_plan_id":"free"},{"bike_id":"2c0c1a75-e39e-452b-bcb9-29320a610162","system_id":"levelo_inurba_marseille","lat":43.28667,"lon":5.38673,"is_reserved":false,"is_disabled":false,"rental_uris":{"android":"levelo://app?vid=2c0c1a75-e39e-452b-bcb9-29320a610162","ios":"levelo://app?vid=2c0c1a75-e39e-452b-bcb9-29320a610162"},"vehicle_type_id":"4","last_reported":1686962344,"current_range_meters":9600,"station_id":"ce4bh492rcd13ifvqdug","pricing_plan_id":"free"},{"bike_id":"7b0f454d-174c-458c-8c17-e27436cb6d60","system_id":"levelo_inurba_marseille","lat":43.323464,"lon":5.406297,"is_reserved":false,"is_disabled":false,"rental_uris":{"android":"levelo://app?vid=7b0f454d-174c-458c-8c17-e27436cb6d60","ios":"levelo://app?vid=7b0f454d-174c-458c-8c17-e27436cb6d60"},"vehicle_type_id":"4","last_reported":1686962344,"current_range_meters":14800,"station_id":"ce4bhq92rcd13ifvqhjg","pricing_plan_id":"free"},{"bike_id":"16e5fedd-6e86-436a-a0a2-72c7cd60a6ea","system_id":"levelo_inurba_marseille","lat":43.32344,"lon":5.40621,"is_reserved":false,"is_disabled":false,"rental_uris":{"android":"levelo://app?vid=16e5fedd-6e86-436a-a0a2-72c7cd60a6ea","ios":"levelo://app?vid=16e5fedd-6e86-436a-a0a2-72c7cd60a6ea"},"vehicle_type_id":"4","last_reported":1686962344,"current_range_meters":31200,"station_id":"ce4bhq92rcd13ifvqhjg","pricing_plan_id":"free"},{"bike_id":"a03398e6-e628-4d29-b948-0f84c3a914ff","system_id":"levelo_inurba_marseille","lat":43.28861,"lon":5.39326,"is_reserved":false,"is_disabled":false,"rental_uris":{"android":"levelo://app?vid=a03398e6-e628-4d29-b948-0f84c3a914ff","ios":"levelo://app?vid=a03398e6-e628-4d29-b948-0f84c3a914ff"},"vehicle_type_id":"4","last_reported":1686962344,"current_range_meters":31200,"station_id":"ce4bh2p2rcd13ifvqdi0","pricing_plan_id":"free"},{"bike_id":"85bf4018-e40e-46c7-b305-b46d1e6f713d","system_id":"levelo_inurba_marseille","lat":43.28857,"lon":5.39321,"is_reserved":false,"is_disabled":false,"rental_uris":{"android":"levelo://app?vid=85bf4018-e40e-46c7-b305-b46d1e6f713d","ios":"levelo://app?vid=85bf4018-e40e-46c7-b305-b46d1e6f713d"},"vehicle_type_id":"4","last_reported":1686962344,"current_range_meters":31200,"station_id":"ce4bh2p2rcd13ifvqdi0","pricing_plan_id":"free"},{"bike_id":"00b4d942-d645-4a17-a320-9c02b5ecca68","system_id":"levelo_inurba_marseille","lat":43.288501,"lon":5.393087,"is_reserved":false,"is_disabled":false,"rental_uris":{"android":"levelo://app?vid=00b4d942-d645-4a17-a320-9c02b5ecca68","ios":"levelo://app?vid=00b4d942-d645-4a17-a320-9c02b5ecca68"},"vehicle_type_id":"4","last_reported":1686962344,"current_range_meters":27600,"station_id":"ce4bh2p2rcd13ifvqdi0","pricing_plan_id":"free"},{"bike_id":"de46fbc1-eb82-408b-800c-fc69de6aae0f","system_id":"levelo_inurba_marseille","lat":43.283498,"lon":5.380948,"is_reserved":false,"is_disabled":false,"rental_uris":{"android":"levelo://app?vid=de46fbc1-eb82-408b-800c-fc69de6aae0f","ios":"levelo://app?vid=de46fbc1-eb82-408b-800c-fc69de6aae0f"},"vehicle_type_id":"4","last_reported":1686962344,"current_range_meters":30800,"station_id":"ce4bh412rcd13ifvqdr0","pricing_plan_id":"free"},{"bike_id":"cc53eb3b-a9c0-4dc2-8f01-11fa3b981ac6","system_id":"levelo_inurba_marseille","lat":43.284217,"lon":5.349697,"is_reserved":false,"is_disabled":false,"rental_uris":{"android":"levelo://app?vid=cc53eb3b-a9c0-4dc2-8f01-11fa3b981ac6","ios":"levelo://app?vid=cc53eb3b-a9c0-4dc2-8f01-11fa3b981ac6"},"vehicle_type_id":"4","last_reported":1686962344,"current_range_meters":2400,"station_id":"ce4bhbh2rcd13ifvqepg","pricing_plan_id":"free"},{"bike_id":"752245f1-02d2-479b-8716-3f7036a24be8","system_id":"levelo_inurba_marseille","lat":43.292724,"lon":5.401131,"is_reserved":false,"is_disabled":false,"rental_uris":{"android":"levelo://app?vid=752245f1-02d2-479b-8716-3f7036a24be8","ios":"levelo://app?vid=752245f1-02d2-479b-8716-3f7036a24be8"},"vehicle_type_id":"4","last_reported":1686962344,"current_range_meters":30800,"station_id":"ce4bh312rcd13ifvqdk0","pricing_plan_id":"free"},{"bike_id":"a88794f9-146a-42b4-b94d-ecae3b203c8b","system_id":"levelo_inurba_marseille","lat":43.292724,"lon":5.401131,"is_reserved":false,"is_disabled":false,"rental_uris":{"android":"levelo://app?vid=a88794f9-146a-42b4-b94d-ecae3b203c8b","ios":"levelo://app?vid=a88794f9-146a-42b4-b94d-ecae3b203c8b"},"vehicle_type_id":"4","last_reported":1686962344,"current_range_meters":30400,"station_id":"ce4bh312rcd13ifvqdk0","pricing_plan_id":"free"},{"bike_id":"e2c3a0aa-7f22-492a-a04d-15e355466059","system_id":"levelo_inurba_marseille","lat":43.32879,"lon":5.40534,"is_reserved":false,"is_disabled":false,"rental_uris":{"android":"levelo://app?vid=e2c3a0aa-7f22-492a-a04d-15e355466059","ios":"levelo://app?vid=e2c3a0aa-7f22-492a-a04d-15e355466059"},"vehicle_type_id":"4","last_reported":1686962344,"current_range_meters":10800,"station_id":"","pricing_plan_id":"free"},{"bike_id":"ca8ceb97-dbb7-4081-8cef-603fae9eee29","system_id":"levelo_inurba_marseille","lat":43.283502,"lon":5.386471,"is_reserved":false,"is_disabled":false,"rental_uris":{"android":"levelo://app?vid=ca8ceb97-dbb7-4081-8cef-603fae9eee29","ios":"levelo://app?vid=ca8ceb97-dbb7-4081-8cef-603fae9eee29"},"vehicle_type_id":"4","last_reported":1686962344,"current_range_meters":7200,"station_id":"ce4bh492rcd13ifvqdvg","pricing_plan_id":"free"},{"bike_id":"38f0a69c-853e-4a73-9590-6389617dcd59","system_id":"levelo_inurba_marseille","lat":43.283502,"lon":5.386471,"is_reserved":false,"is_disabled":false,"rental_uris":{"android":"levelo://app?vid=38f0a69c-853e-4a73-9590-6389617dcd59","ios":"levelo://app?vid=38f0a69c-853e-4a73-9590-6389617dcd59"},"vehicle_type_id":"4","last_reported":1686962344,"current_range_meters":4800,"station_id":"ce4bh492rcd13ifvqdvg","pricing_plan_id":"free"},{"bike_id":"68cf37d2-958f-48d4-9d61-d9123de339f2","system_id":"levelo_inurba_marseille","lat":43.282673,"lon":5.350504,"is_reserved":false,"is_disabled":false,"rental_uris":{"android":"levelo://app?vid=68cf37d2-958f-48d4-9d61-d9123de339f2","ios":"levelo://app?vid=68cf37d2-958f-48d4-9d61-d9123de339f2"},"vehicle_type_id":"4","last_reported":1686962344,"current_range_meters":31200,"station_id":"ce4bhbp2rcd13ifvqerg","pricing_plan_id":"free"},{"bike_id":"227f7b31-ccd3-446b-b9c3-f751cd58a80c","system_id":"levelo_inurba_marseille","lat":43.282754,"lon":5.350519,"is_reserved":false,"is_disabled":false,"rental_uris":{"android":"levelo://app?vid=227f7b31-ccd3-446b-b9c3-f751cd58a80c","ios":"levelo://app?vid=227f7b31-ccd3-446b-b9c3-f751cd58a80c"},"vehicle_type_id":"4","last_reported":1686962344,"current_range_meters":28000,"station_id":"ce4bhbp2rcd13ifvqerg","pricing_plan_id":"free"},{"bike_id":"33827fcd-bb2c-4b99-8d29-551fcf05d9df","system_id":"levelo_inurba_marseille","lat":43.28039,"lon":5.369297,"is_reserved":false,"is_disabled":false,"rental_uris":{"android":"levelo://app?vid=33827fcd-bb2c-4b99-8d29-551fcf05d9df","ios":"levelo://app?vid=33827fcd-bb2c-4b99-8d29-551fcf05d9df"},"vehicle_type_id":"4","last_reported":1686962344,"current_range_meters":25200,"station_id":"ce4bha12rcd13ifvqef0","pricing_plan_id":"free"},{"bike_id":"6fb11eaa-11cd-44f1-9a11-787563a923e6","system_id":"levelo_inurba_marseille","lat":43.28039,"lon":5.369297,"is_reserved":false,"is_disabled":false,"rental_uris":{"android":"levelo://app?vid=6fb11eaa-11cd-44f1-9a11-787563a923e6","ios":"levelo://app?vid=6fb11eaa-11cd-44f1-9a11-787563a923e6"},"vehicle_type_id":"4","last_reported":1686962344,"current_range_meters":15200,"station_id":"ce4bha12rcd13ifvqef0","pricing_plan_id":"free"},{"bike_id":"e0b772a3-df8e-456c-8866-06c89db6964d","system_id":"levelo_inurba_marseille","lat":43.28039,"lon":5.369297,"is_reserved":false,"is_disabled":false,"rental_uris":{"android":"levelo://app?vid=e0b772a3-df8e-456c-8866-06c89db6964d","ios":"levelo://app?vid=e0b772a3-df8e-456c-8866-06c89db6964d"},"vehicle_type_id":"4","last_reported":1686962344,"current_range_meters":31200,"station_id":"ce4bha12rcd13ifvqef0","pricing_plan_id":"free"},{"bike_id":"26d7e407-2bca-42ad-bf86-635844680d92","system_id":"levelo_inurba_marseille","lat":43.28039,"lon":5.369297,"is_reserved":false,"is_disabled":false,"rental_uris":{"android":"levelo://app?vid=26d7e407-2bca-42ad-bf86-635844680d92","ios":"levelo://app?vid=26d7e407-2bca-42ad-bf86-635844680d92"},"vehicle_type_id":"4","last_reported":1686962344,"current_range_meters":27600,"station_id":"ce4bha12rcd13ifvqef0","pricing_plan_id":"free"},{"bike_id":"bb60fc38-ab24-4bdc-b4f6-eb6ebb93f0a0","system_id":"levelo_inurba_marseille","lat":43.283502,"lon":5.386471,"is_reserved":false,"is_disabled":false,"rental_uris":{"android":"levelo://app?vid=bb60fc38-ab24-4bdc-b4f6-eb6ebb93f0a0","ios":"levelo://app?vid=bb60fc38-ab24-4bdc-b4f6-eb6ebb93f0a0"},"vehicle_type_id":"4","last_reported":1686962344,"current_range_meters":29600,"station_id":"ce4bh492rcd13ifvqdvg","pricing_plan_id":"free"},{"bike_id":"a72b5ab7-8952-43d1-a38d-7bd711075ba2","system_id":"levelo_inurba_marseille","lat":43.296263,"lon":5.40601,"is_reserved":false,"is_disabled":false,"rental_uris":{"android":"levelo://app?vid=a72b5ab7-8952-43d1-a38d-7bd711075ba2","ios":"levelo://app?vid=a72b5ab7-8952-43d1-a38d-7bd711075ba2"},"vehicle_type_id":"4","last_reported":1686962344,"current_range_meters":30400,"station_id":"ce4bh0h2rcd13ifvqd60","pricing_plan_id":"free"},{"bike_id":"d06b6fc2-bc0b-4221-89cc-5184a9c9a3a7","system_id":"levelo_inurba_marseille","lat":43.296263,"lon":5.40601,"is_reserved":false,"is_disabled":false,"rental_uris":{"android":"levelo://app?vid=d06b6fc2-bc0b-4221-89cc-5184a9c9a3a7","ios":"levelo://app?vid=d06b6fc2-bc0b-4221-89cc-5184a9c9a3a7"},"vehicle_type_id":"4","last_reported":1686962344,"current_range_meters":26400,"station_id":"ce4bh0h2rcd13ifvqd60","pricing_plan_id":"free"},{"bike_id":"c2482891-6dc8-420d-9dcc-51e7d174a7a3","system_id":"levelo_inurba_marseille","lat":43.296263,"lon":5.40601,"is_reserved":false,"is_disabled":false,"rental_uris":{"android":"levelo://app?vid=c2482891-6dc8-420d-9dcc-51e7d174a7a3","ios":"levelo://app?vid=c2482891-6dc8-420d-9dcc-51e7d174a7a3"},"vehicle_type_id":"4","last_reported":1686962344,"current_range_meters":14000,"station_id":"ce4bh0h2rcd13ifvqd60","pricing_plan_id":"free"},{"bike_id":"e9af1486-53b6-4c85-9cf9-adb50066a793","system_id":"levelo_inurba_marseille","lat":43.296263,"lon":5.40601,"is_reserved":false,"is_disabled":false,"rental_uris":{"android":"levelo://app?vid=e9af1486-53b6-4c85-9cf9-adb50066a793","ios":"levelo://app?vid=e9af1486-53b6-4c85-9cf9-adb50066a793"},"vehicle_type_id":"4","last_reported":1686962344,"current_range_meters":6400,"station_id":"ce4bh0h2rcd13ifvqd60","pricing_plan_id":"free"},{"bike_id":"79120af0-a0ba-4b69-858d-b9426be4d0db","system_id":"levelo_inurba_marseille","lat":43.28438,"lon":5.39188,"is_reserved":false,"is_disabled":false,"rental_uris":{"android":"levelo://app?vid=79120af0-a0ba-4b69-858d-b9426be4d0db","ios":"levelo://app?vid=79120af0-a0ba-4b69-858d-b9426be4d0db"},"vehicle_type_id":"4","last_reported":1686962344,"current_range_meters":26800,"station_id":"ce4bhoh2rcd13ifvqh5g","pricing_plan_id":"free"},{"bike_id":"acda8024-7b93-403b-ae6b-b8263f84357c","system_id":"levelo_inurba_marseille","lat":43.2844,"lon":5.39214,"is_reserved":false,"is_disabled":false,"rental_uris":{"android":"levelo://app?vid=acda8024-7b93-403b-ae6b-b8263f84357c","ios":"levelo://app?vid=acda8024-7b93-403b-ae6b-b8263f84357c"},"vehicle_type_id":"4","last_reported":1686962344,"current_range_meters":19200,"station_id":"ce4bhoh2rcd13ifvqh5g","pricing_plan_id":"free"},{"bike_id":"d8fa76e8-69ea-4286-bd3a-0135edfb363e","system_id":"levelo_inurba_marseille","lat":43.326605,"lon":5.409903,"is_reserved":false,"is_disabled":false,"rental_uris":{"android":"levelo://app?vid=d8fa76e8-69ea-4286-bd3a-0135edfb363e","ios":"levelo://app?vid=d8fa76e8-69ea-4286-bd3a-0135edfb363e"},"vehicle_type_id":"4","last_reported":1686962344,"current_range_meters":23600,"station_id":"ce4bhpp2rcd13ifvqhgg","pricing_plan_id":"free"},{"bike_id":"14256047-28fe-4d03-ac88-006a911bc772","system_id":"levelo_inurba_marseille","lat":43.326605,"lon":5.409903,"is_reserved":false,"is_disabled":false,"rental_uris":{"android":"levelo://app?vid=14256047-28fe-4d03-ac88-006a911bc772","ios":"levelo://app?vid=14256047-28fe-4d03-ac88-006a911bc772"},"vehicle_type_id":"4","last_reported":1686962344,"current_range_meters":17600,"station_id":"ce4bhpp2rcd13ifvqhgg","pricing_plan_id":"free"},{"bike_id":"7b98889d-dff9-45a4-b1d6-61e6722fd02c","system_id":"levelo_inurba_marseille","lat":43.32664,"lon":5.40993,"is_reserved":false,"is_disabled":false,"rental_uris":{"android":"levelo://app?vid=7b98889d-dff9-45a4-b1d6-61e6722fd02c","ios":"levelo://app?vid=7b98889d-dff9-45a4-b1d6-61e6722fd02c"},"vehicle_type_id":"4","last_reported":1686962344,"current_range_meters":18800,"station_id":"ce4bhpp2rcd13ifvqhgg","pricing_plan_id":"free"},{"bike_id":"2b08bc9e-96db-4847-ba5e-962bd6c864df","system_id":"levelo_inurba_marseille","lat":43.304188,"lon":5.412904,"is_reserved":false,"is_disabled":false,"rental_uris":{"android":"levelo://app?vid=2b08bc9e-96db-4847-ba5e-962bd6c864df","ios":"levelo://app?vid=2b08bc9e-96db-4847-ba5e-962bd6c864df"},"vehicle_type_id":"4","last_reported":1686962344,"current_range_meters":2800,"station_id":"ce4bhop2rcd13ifvqh8g","pricing_plan_id":"free"},{"bike_id":"718fa9c0-ec27-4121-95ff-271fc779d0f2","system_id":"levelo_inurba_marseille","lat":43.304188,"lon":5.412904,"is_reserved":false,"is_disabled":false,"rental_uris":{"android":"levelo://app?vid=718fa9c0-ec27-4121-95ff-271fc779d0f2","ios":"levelo://app?vid=718fa9c0-ec27-4121-95ff-271fc779d0f2"},"vehicle_type_id":"4","last_reported":1686962344,"current_range_meters":17200,"station_id":"ce4bhop2rcd13ifvqh8g","pricing_plan_id":"free"},{"bike_id":"5a8b8605-c58c-4f64-861a-86afe4b0a9bf","system_id":"levelo_inurba_marseille","lat":43.304188,"lon":5.412904,"is_reserved":false,"is_disabled":false,"rental_uris":{"android":"levelo://app?vid=5a8b8605-c58c-4f64-861a-86afe4b0a9bf","ios":"levelo://app?vid=5a8b8605-c58c-4f64-861a-86afe4b0a9bf"},"vehicle_type_id":"4","last_reported":1686962344,"current_range_meters":13200,"station_id":"ce4bhop2rcd13ifvqh8g","pricing_plan_id":"free"},{"bike_id":"5bde09a0-1d2b-4233-bc5a-9dbd09fa1fe8","system_id":"levelo_inurba_marseille","lat":43.304188,"lon":5.412904,"is_reserved":false,"is_disabled":false,"rental_uris":{"android":"levelo://app?vid=5bde09a0-1d2b-4233-bc5a-9dbd09fa1fe8","ios":"levelo://app?vid=5bde09a0-1d2b-4233-bc5a-9dbd09fa1fe8"},"vehicle_type_id":"4","last_reported":1686962344,"current_range_meters":28000,"station_id":"ce4bhop2rcd13ifvqh8g","pricing_plan_id":"free"},{"bike_id":"b5974d0e-6cf2-4910-903d-2adfa411156c","system_id":"levelo_inurba_marseille","lat":43.287154,"lon":5.399979,"is_reserved":false,"is_disabled":false,"rental_uris":{"android":"levelo://app?vid=b5974d0e-6cf2-4910-903d-2adfa411156c","ios":"levelo://app?vid=b5974d0e-6cf2-4910-903d-2adfa411156c"},"vehicle_type_id":"4","last_reported":1686962344,"current_range_meters":19600,"station_id":"ce4bho92rcd13ifvqh3g","pricing_plan_id":"free"},{"bike_id":"88bd456d-8c9a-46eb-a280-be49cdd02bd6","system_id":"levelo_inurba_marseille","lat":43.287154,"lon":5.399979,"is_reserved":false,"is_disabled":false,"rental_uris":{"android":"levelo://app?vid=88bd456d-8c9a-46eb-a280-be49cdd02bd6","ios":"levelo://app?vid=88bd456d-8c9a-46eb-a280-be49cdd02bd6"},"vehicle_type_id":"4","last_reported":1686962344,"current_range_meters":22400,"station_id":"ce4bho92rcd13ifvqh3g","pricing_plan_id":"free"},{"bike_id":"46310828-f50b-47ff-b7ed-88a399207bd3","system_id":"levelo_inurba_marseille","lat":43.28721,"lon":5.39997,"is_reserved":false,"is_disabled":false,"rental_uris":{"android":"levelo://app?vid=46310828-f50b-47ff-b7ed-88a399207bd3","ios":"levelo://app?vid=46310828-f50b-47ff-b7ed-88a399207bd3"},"vehicle_type_id":"4","last_reported":1686962344,"current_range_meters":31200,"station_id":"ce4bho92rcd13ifvqh3g","pricing_plan_id":"free"},{"bike_id":"074e9e20-a229-4cfa-9108-2e7815f15e4a","system_id":"levelo_inurba_marseille","lat":43.28723,"lon":5.4,"is_reserved":false,"is_disabled":false,"rental_uris":{"android":"levelo://app?vid=074e9e20-a229-4cfa-9108-2e7815f15e4a","ios":"levelo://app?vid=074e9e20-a229-4cfa-9108-2e7815f15e4a"},"vehicle_type_id":"4","last_reported":1686962344,"current_range_meters":31200,"station_id":"ce4bho92rcd13ifvqh3g","pricing_plan_id":"free"},{"bike_id":"4904a921-3a40-4dad-ba7e-953b6c29060d","system_id":"levelo_inurba_marseille","lat":43.287154,"lon":5.399979,"is_reserved":false,"is_disabled":false,"rental_uris":{"android":"levelo://app?vid=4904a921-3a40-4dad-ba7e-953b6c29060d","ios":"levelo://app?vid=4904a921-3a40-4dad-ba7e-953b6c29060d"},"vehicle_type_id":"4","last_reported":1686962344,"current_range_meters":24800,"station_id":"ce4bho92rcd13ifvqh3g","pricing_plan_id":"free"},{"bike_id":"a541f1e9-ae14-4606-910b-c135d5b27ea6","system_id":"levelo_inurba_marseille","lat":43.287154,"lon":5.399979,"is_reserved":false,"is_disabled":false,"rental_uris":{"android":"levelo://app?vid=a541f1e9-ae14-4606-910b-c135d5b27ea6","ios":"levelo://app?vid=a541f1e9-ae14-4606-910b-c135d5b27ea6"},"vehicle_type_id":"4","last_reported":1686962344,"current_range_meters":16400,"station_id":"ce4bho92rcd13ifvqh3g","pricing_plan_id":"free"},{"bike_id":"abba509f-e19d-4daa-8f93-db976c2c6a99","system_id":"levelo_inurba_marseille","lat":43.287154,"lon":5.399979,"is_reserved":false,"is_disabled":false,"rental_uris":{"android":"levelo://app?vid=abba509f-e19d-4daa-8f93-db976c2c6a99","ios":"levelo://app?vid=abba509f-e19d-4daa-8f93-db976c2c6a99"},"vehicle_type_id":"4","last_reported":1686962344,"current_range_meters":26400,"station_id":"ce4bho92rcd13ifvqh3g","pricing_plan_id":"free"},{"bike_id":"4ad437f4-88c6-4ef6-9d95-58a9ae3cc825","system_id":"levelo_inurba_marseille","lat":43.287154,"lon":5.399979,"is_reserved":false,"is_disabled":false,"rental_uris":{"android":"levelo://app?vid=4ad437f4-88c6-4ef6-9d95-58a9ae3cc825","ios":"levelo://app?vid=4ad437f4-88c6-4ef6-9d95-58a9ae3cc825"},"vehicle_type_id":"4","last_reported":1686962344,"current_range_meters":29200,"station_id":"ce4bho92rcd13ifvqh3g","pricing_plan_id":"free"},{"bike_id":"dc99df88-cecb-4e91-833b-f56f6ba5b4af","system_id":"levelo_inurba_marseille","lat":43.28713,"lon":5.4,"is_reserved":false,"is_disabled":false,"rental_uris":{"android":"levelo://app?vid=dc99df88-cecb-4e91-833b-f56f6ba5b4af","ios":"levelo://app?vid=dc99df88-cecb-4e91-833b-f56f6ba5b4af"},"vehicle_type_id":"4","last_reported":1686962344,"current_range_meters":30400,"station_id":"ce4bho92rcd13ifvqh3g","pricing_plan_id":"free"},{"bike_id":"b69ceded-2e2a-41a5-b2c2-71b537d1ee63","system_id":"levelo_inurba_marseille","lat":43.287154,"lon":5.399979,"is_reserved":false,"is_disabled":false,"rental_uris":{"android":"levelo://app?vid=b69ceded-2e2a-41a5-b2c2-71b537d1ee63","ios":"levelo://app?vid=b69ceded-2e2a-41a5-b2c2-71b537d1ee63"},"vehicle_type_id":"4","last_reported":1686962344,"current_range_meters":28800,"station_id":"ce4bho92rcd13ifvqh3g","pricing_plan_id":"free"},{"bike_id":"469f93e3-603b-44dd-85fb-4b2f6596b0a8","system_id":"levelo_inurba_marseille","lat":43.287154,"lon":5.399979,"is_reserved":false,"is_disabled":false,"rental_uris":{"android":"levelo://app?vid=469f93e3-603b-44dd-85fb-4b2f6596b0a8","ios":"levelo://app?vid=469f93e3-603b-44dd-85fb-4b2f6596b0a8"},"vehicle_type_id":"4","last_reported":1686962344,"current_range_meters":8800,"station_id":"ce4bho92rcd13ifvqh3g","pricing_plan_id":"free"},{"bike_id":"1efd2a75-998d-417c-8914-0cd253cc0a40","system_id":"levelo_inurba_marseille","lat":43.287154,"lon":5.399979,"is_reserved":false,"is_disabled":false,"rental_uris":{"android":"levelo://app?vid=1efd2a75-998d-417c-8914-0cd253cc0a40","ios":"levelo://app?vid=1efd2a75-998d-417c-8914-0cd253cc0a40"},"vehicle_type_id":"4","last_reported":1686962344,"current_range_meters":6000,"station_id":"ce4bho92rcd13ifvqh3g","pricing_plan_id":"free"},{"bike_id":"777b1aab-17be-4e66-ac7d-fb55e82d6740","system_id":"levelo_inurba_marseille","lat":43.287154,"lon":5.399979,"is_reserved":false,"is_disabled":false,"rental_uris":{"android":"levelo://app?vid=777b1aab-17be-4e66-ac7d-fb55e82d6740","ios":"levelo://app?vid=777b1aab-17be-4e66-ac7d-fb55e82d6740"},"vehicle_type_id":"4","last_reported":1686962344,"current_range_meters":28000,"station_id":"ce4bho92rcd13ifvqh3g","pricing_plan_id":"free"},{"bike_id":"d305af69-18d8-4261-95ef-de0fa3180984","system_id":"levelo_inurba_marseille","lat":43.287154,"lon":5.399979,"is_reserved":false,"is_disabled":false,"rental_uris":{"android":"levelo://app?vid=d305af69-18d8-4261-95ef-de0fa3180984","ios":"levelo://app?vid=d305af69-18d8-4261-95ef-de0fa3180984"},"vehicle_type_id":"4","last_reported":1686962344,"current_range_meters":19200,"station_id":"ce4bho92rcd13ifvqh3g","pricing_plan_id":"free"},{"bike_id":"94a6938d-6c55-47e0-b275-57752179dfe0","system_id":"levelo_inurba_marseille","lat":43.287154,"lon":5.399979,"is_reserved":false,"is_disabled":false,"rental_uris":{"android":"levelo://app?vid=94a6938d-6c55-47e0-b275-57752179dfe0","ios":"levelo://app?vid=94a6938d-6c55-47e0-b275-57752179dfe0"},"vehicle_type_id":"4","last_reported":1686962344,"current_range_meters":31200,"station_id":"ce4bho92rcd13ifvqh3g","pricing_plan_id":"free"},{"bike_id":"db773176-2f71-4bd2-a2ec-ded82768db91","system_id":"levelo_inurba_marseille","lat":43.279742,"lon":5.38744,"is_reserved":false,"is_disabled":false,"rental_uris":{"android":"levelo://app?vid=db773176-2f71-4bd2-a2ec-ded82768db91","ios":"levelo://app?vid=db773176-2f71-4bd2-a2ec-ded82768db91"},"vehicle_type_id":"4","last_reported":1686962344,"current_range_meters":29600,"station_id":"ce4bhg12rcd13ifvqf80","pricing_plan_id":"free"},{"bike_id":"89ddf1d4-f805-4f77-8f27-83f3335c4695","system_id":"levelo_inurba_marseille","lat":43.279742,"lon":5.38744,"is_reserved":false,"is_disabled":false,"rental_uris":{"android":"levelo://app?vid=89ddf1d4-f805-4f77-8f27-83f3335c4695","ios":"levelo://app?vid=89ddf1d4-f805-4f77-8f27-83f3335c4695"},"vehicle_type_id":"4","last_reported":1686962344,"current_range_meters":7200,"station_id":"ce4bhg12rcd13ifvqf80","pricing_plan_id":"free"},{"bike_id":"a8cb54f1-7284-4af8-82ab-5c895cf72731","system_id":"levelo_inurba_marseille","lat":43.320045,"lon":5.415048,"is_reserved":false,"is_disabled":false,"rental_uris":{"android":"levelo://app?vid=a8cb54f1-7284-4af8-82ab-5c895cf72731","ios":"levelo://app?vid=a8cb54f1-7284-4af8-82ab-5c895cf72731"},"vehicle_type_id":"4","last_reported":1686962344,"current_range_meters":18000,"station_id":"ce4bhq92rcd13ifvqhkg","pricing_plan_id":"free"},{"bike_id":"6527f2b7-bd0f-47a0-922a-683cc88731bf","system_id":"levelo_inurba_marseille","lat":43.29261,"lon":5.40903,"is_reserved":false,"is_disabled":false,"rental_uris":{"android":"levelo://app?vid=6527f2b7-bd0f-47a0-922a-683cc88731bf","ios":"levelo://app?vid=6527f2b7-bd0f-47a0-922a-683cc88731bf"},"vehicle_type_id":"4","last_reported":1686962344,"current_range_meters":21600,"station_id":"ce4bh192rcd13ifvqdc0","pricing_plan_id":"free"},{"bike_id":"012842c1-2224-4a07-b4eb-9e428162b3cb","system_id":"levelo_inurba_marseille","lat":43.292567,"lon":5.409041,"is_reserved":false,"is_disabled":false,"rental_uris":{"android":"levelo://app?vid=012842c1-2224-4a07-b4eb-9e428162b3cb","ios":"levelo://app?vid=012842c1-2224-4a07-b4eb-9e428162b3cb"},"vehicle_type_id":"4","last_reported":1686962344,"current_range_meters":2800,"station_id":"ce4bh192rcd13ifvqdc0","pricing_plan_id":"free"},{"bike_id":"af99ebb1-46b5-4596-aafa-af9d455214f2","system_id":"levelo_inurba_marseille","lat":43.29261,"lon":5.40908,"is_reserved":false,"is_disabled":false,"rental_uris":{"android":"levelo://app?vid=af99ebb1-46b5-4596-aafa-af9d455214f2","ios":"levelo://app?vid=af99ebb1-46b5-4596-aafa-af9d455214f2"},"vehicle_type_id":"4","last_reported":1686962344,"current_range_meters":22400,"station_id":"ce4bh192rcd13ifvqdc0","pricing_plan_id":"free"},{"bike_id":"9dee6c95-7140-443e-9f54-85d991d85f8f","system_id":"levelo_inurba_marseille","lat":43.292568,"lon":5.409046,"is_reserved":false,"is_disabled":false,"rental_uris":{"android":"levelo://app?vid=9dee6c95-7140-443e-9f54-85d991d85f8f","ios":"levelo://app?vid=9dee6c95-7140-443e-9f54-85d991d85f8f"},"vehicle_type_id":"4","last_reported":1686962344,"current_range_meters":28000,"station_id":"ce4bh192rcd13ifvqdc0","pricing_plan_id":"free"},{"bike_id":"cb52e57b-1657-4982-a83c-1b757f25b01d","system_id":"levelo_inurba_marseille","lat":43.292568,"lon":5.40906,"is_reserved":false,"is_disabled":false,"rental_uris":{"android":"levelo://app?vid=cb52e57b-1657-4982-a83c-1b757f25b01d","ios":"levelo://app?vid=cb52e57b-1657-4982-a83c-1b757f25b01d"},"vehicle_type_id":"4","last_reported":1686962344,"current_range_meters":28800,"station_id":"ce4bh192rcd13ifvqdc0","pricing_plan_id":"free"},