{"last_updated":1768738887,"ttl":60,"version":"2.2","data":{"bikes":[{"bike_id":"e6872936-d756-4b20-b25b-25e2aeef4bd8","system_id":"levelo_inurba_marseille","lat":43.23197,"lon":5.35551,"is_reserved":false,"is_disabled":false,"rental_uris":{"android":"levelo://app?vid=e6872936-d756-4b20-b25b-25e2aeef4bd8","ios":"levelo://app?vid=e6872936-d756-4b20-b25b-25e2aeef4bd8"},"vehicle_type_id":"4","last_reported":1768738887,"current_range_meters":2800,"station_id":"ce4bhu92rcd13ifvqi70","pricing_plan_id":"cebpf4jnsgd1na2vs0mg"},{"bike_id":"0ba89784-7552-4609-a7c8-23314d71723e","system_id":"levelo_inurba_marseille","lat":43.30537,"lon":5.36557,"is_reserved":false,"is_disabled":false,"rental_uris":{"android":"levelo://app?vid=0ba89784-7552-4609-a7c8-23314d71723e","ios":"levelo://app?vid=0ba89784-7552-4609-a7c8-23314d71723e"},"vehicle_type_id":"4","last_reported":1768738887,"current_range_meters":2800,"station_id":"ce4bgs12rcd13ifvqcag","pricing_plan_id":"cebpf4jnsgd1na2vs0mg"},{"bike_id":"3132fa67-c262-4e29-827f-15946b0155b7","system_id":"levelo_inurba_marseille","lat":43.31371,"lon":5.38501,"is_reserved":false,"is_disabled":false,"rental_uris":{"android":"levelo://app?vid=3132fa67-c262-4e29-827f-15946b0155b7","ios":"levelo://app?vid=3132fa67-c262-4e29-827f-15946b0155b7"},"vehicle_type_id":"4","last_reported":1768738887,"current_range_meters":2800,"station_id":"ce4bgt92rcd13ifvqcf0","pricing_plan_id":"cebpf4jnsgd1na2vs0mg"},{"bike_id":"2c4b1f11-b410-4a3d-a8e3-83ab665a60a1","system_id":"levelo_inurba_marseille","lat":43.30394,"lon":5.36619,"is_reserved":false,"is_disabled":false,"rental_uris":{"android":"levelo://app?vid=2c4b1f11-b410-4a3d-a8e3-83ab665a60a1","ios":"levelo://app?vid=2c4b1f11-b410-4a3d-a8e3-83ab665a60a1"},"vehicle_type_id":"4","last_reported":1768738887,"current_range_meters":2800,"station_id":"","pricing_plan_id":"cebpf4jnsgd1na2vs0mg"},{"bike_id":"82b87168-267f-432c-a609-70f7b40ac901","system_id":"levelo_inurba_marseille","lat":43.27726,"lon":5.40776,"is_reserved":false,"is_disabled":false,"rental_uris":{"android":"levelo://app?vid=82b87168-267f-432c-a609-70f7b40ac901","ios":"levelo://app?vid=82b87168-267f-432c-a609-70f7b40ac901"},"vehicle_type_id":"4","last_reported":1768738887,"current_range_meters":2800,"station_id":"","pricing_plan_id":"cebpf4jnsgd1na2vs0mg"},{"bike_id":"832fc7ba-37d1-4045-b425-86cd5904f1da","system_id":"levelo_inurba_marseille","lat":43.29254,"lon":5.38445,"is_reserved":false,"is_disabled":false,"rental_uris":{"android":"levelo://app?vid=832fc7ba-37d1-4045-b425-86cd5904f1da","ios":"levelo://app?vid=832fc7ba-37d1-4045-b425-86cd5904f1da"},"vehicle_type_id":"4","last_reported":1768738887,"current_range_meters":2800,"station_id":"ce4bh692rcd13ifvqea0","pricing_plan_id":"cebpf4jnsgd1na2vs0mg"},{"bike_id":"93d19107-8e5b-47dc-b8af-6eee1dce6f1e","system_id":"levelo_inurba_marseille","lat":43.26552,"lon":5.3729,"is_reserved":false,"is_disabled":false,"rental_uris":{"android":"levelo://app?vid=93d19107-8e5b-47dc-b8af-6eee1dce6f1e","ios":"levelo://app?vid=93d19107-8e5b-47dc-b8af-6eee1dce6f1e"},"vehicle_type_id":"4","last_reported":1768738887,"current_range_meters":2800,"station_id":"ce4bhg12rcd13ifvqf70","pricing_plan_id":"cebpf4jnsgd1na2vs0mg"},{"bike_id":"252a01eb-733e-461c-bfde-ad296dc94be6","system_id":"levelo_inurba_marseille","lat":43.30622,"lon":5.3759,"is_reserved":false,"is_disabled":false,"rental_uris":{"android":"levelo://app?vid=252a01eb-733e-461c-bfde-ad296dc94be6","ios":"levelo://app?vid=252a01eb-733e-461c-bfde-ad296dc94be6"},"vehicle_type_id":"4","last_reported":1768738887,"current_range_meters":2800,"station_id":"","pricing_plan_id":"cebpf4jnsgd1na2vs0mg"},{"bike_id":"b61188c0-9590-46e5-be62-ff02194516dc","system_id":"levelo_inurba_marseille","lat":43.32485,"lon":5.38326,"is_reserved":false,"is_disabled":false,"rental_uris":{"android":"levelo://app?vid=b61188c0-9590-46e5-be62-ff02194516dc","ios":"levelo://app?vid=b61188c0-9590-46e5-be62-ff02194516dc"},"vehicle_type_id":"4","last_reported":1768738887,"current_range_meters":2800,"station_id":"st_d4asgbiv49dc73anf9m0","pricing_plan_id":"cebpf4jnsgd1na2vs0mg"},{"bike_id":"c9b3f5f8-fbcf-481b-8f1e-5dafe85e3908","system_id":"levelo_inurba_marseille","lat":43.31186,"lon":5.38724,"is_reserved":false,"is_disabled":false,"rental_uris":{"android":"levelo://app?vid=c9b3f5f8-fbcf-481b-8f1e-5dafe85e3908","ios":"levelo://app?vid=c9b3f5f8-fbcf-481b-8f1e-5dafe85e3908"},"vehicle_type_id":"4","last_reported":1768738887,"current_range_meters":3200,"station_id":"ce4bgv12rcd13ifvqcp0","pricing_plan_id":"cebpf4jnsgd1na2vs0mg"},{"bike_id":"46806932-3cfa-4ebe-af4a-3467d6c21a46","system_id":"levelo_inurba_marseille","lat":43.278139,"lon":5.407207,"is_reserved":false,"is_disabled":false,"rental_uris":{"android":"levelo://app?vid=46806932-3cfa-4ebe-af4a-3467d6c21a46","ios":"levelo://app?vid=46806932-3cfa-4ebe-af4a-3467d6c21a46"},"vehicle_type_id":"4","last_reported":1768738887,"current_range_meters":3200,"station_id":"ce4bhnh2rcd13ifvqgtg","pricing_plan_id":"cebpf4jnsgd1na2vs0mg"},{"bike_id":"acaa042e-c501-42e4-aaa9-5e42ce2c0a67","system_id":"levelo_inurba_marseille","lat":43.28093,"lon":5.38848,"is_reserved":false,"is_disabled":false,"rental_uris":{"android":"levelo://app?vid=acaa042e-c501-42e4-aaa9-5e42ce2c0a67","ios":"levelo://app?vid=acaa042e-c501-42e4-aaa9-5e42ce2c0a67"},"vehicle_type_id":"4","last_reported":1768738887,"current_range_meters":3200,"station_id":"","pricing_plan_id":"cebpf4jnsgd1na2vs0mg"},{"bike_id":"2675671c-3881-46f8-8b37-e9cc96a4dbb9","system_id":"levelo_inurba_marseille","lat":43.29812,"lon":5.37595,"is_reserved":false,"is_disabled":false,"rental_uris":{"android":"levelo://app?vid=2675671c-3881-46f8-8b37-e9cc96a4dbb9","ios":"levelo://app?vid=2675671c-3881-46f8-8b37-e9cc96a4dbb9"},"vehicle_type_id":"4","last_reported":1768738887,"current_range_meters":3200,"station_id":"","pricing_plan_id":"cebpf4jnsgd1na2vs0mg"},{"bike_id":"d5778c52-9b1b-4880-8db3-b9215fd6ea68","system_id":"levelo_inurba_marseille","lat":43.2904,"lon":5.39981,"is_reserved":false,"is_disabled":false,"rental_uris":{"android":"levelo://app?vid=d5778c52-9b1b-4880-8db3-b9215fd6ea68","ios":"levelo://app?vid=d5778c52-9b1b-4880-8db3-b9215fd6ea68"},"vehicle_type_id":"4","last_reported":1768738887,"current_range_meters":3200,"station_id":"ce4bh392rcd13ifvqdm0","pricing_plan_id":"cebpf4jnsgd1na2vs0mg"},{"bike_id":"e91e3903-60f1-4c5a-bc80-d327c473e2e7","system_id":"levelo_inurba_marseille","lat":43.25497,"lon":5.37652,"is_reserved":false,"is_disabled":false,"rental_uris":{"android":"levelo://app?vid=e91e3903-60f1-4c5a-bc80-d327c473e2e7","ios":"levelo://app?vid=e91e3903-60f1-4c5a-bc80-d327c473e2e7"},"vehicle_type_id":"4","last_reported":1768738887,"current_range_meters":3200,"station_id":"ce4bhh12rcd13ifvqff0","pricing_plan_id":"cebpf4jnsgd1na2vs0mg"},{"bike_id":"b15f60fa-4b9a-40de-b626-bc1e6287e8d8","system_id":"levelo_inurba_marseille","lat":43.25718,"lon":5.411158,"is_reserved":false,"is_disabled":false,"rental_uris":{"android":"levelo://app?vid=b15f60fa-4b9a-40de-b626-bc1e6287e8d8","ios":"levelo://app?vid=b15f60fa-4b9a-40de-b626-bc1e6287e8d8"},"vehicle_type_id":"4","last_reported":1768738887,"current_range_meters":3200,"station_id":"ce4bhkp2rcd13ifvqgd0","pricing_plan_id":"cebpf4jnsgd1na2vs0mg"},{"bike_id":"f3d775a3-f599-439d-bd34-f2266ddda566","system_id":"levelo_inurba_marseille","lat":43.32382,"lon":5.36748,"is_reserved":false,"is_disabled":false,"rental_uris":{"android":"levelo://app?vid=f3d775a3-f599-439d-bd34-f2266ddda566","ios":"levelo://app?vid=f3d775a3-f599-439d-bd34-f2266ddda566"},"vehicle_type_id":"4","last_reported":1768738887,"current_range_meters":3200,"station_id":"ce4bhsh2rcd13ifvqi2g","pricing_plan_id":"cebpf4jnsgd1na2vs0mg"},{"bike_id":"763d5379-7bf1-4867-9d13-c1561dbe521b","system_id":"levelo_inurba_marseille","lat":43.24475,"lon":5.42537,"is_reserved":false,"is_disabled":false,"rental_uris":{"android":"levelo://app?vid=763d5379-7bf1-4867-9d13-c1561dbe521b","ios":"levelo://app?vid=763d5379-7bf1-4867-9d13-c1561dbe521b"},"vehicle_type_id":"4","last_reported":1768738887,"current_range_meters":3600,"station_id":"st_d4a3vfp97mjs738cd8kg","pricing_plan_id":"cebpf4jnsgd1na2vs0mg"},{"bike_id":"ab96d693-0de6-43f1-85b1-d62380e9052b","system_id":"levelo_inurba_marseille","lat":43.27988,"lon":5.39974,"is_reserved":false,"is_disabled":false,"rental_uris":{"android":"levelo://app?vid=ab96d693-0de6-43f1-85b1-d62380e9052b","ios":"levelo://app?vid=ab96d693-0de6-43f1-85b1-d62380e9052b"},"vehicle_type_id":"4","last_reported":1768738887,"current_range_meters":3600,"station_id":"ce4bho92rcd13ifvqh4g","pricing_plan_id":"cebpf4jnsgd1na2vs0mg"},{"bike_id":"40d3dc88-0f80-474c-b9b5-fa3b55d5a0df","system_id":"levelo_inurba_marseille","lat":43.28527,"lon":5.44091,"is_reserved":false,"is_disabled":false,"rental_uris":{"android":"levelo://app?vid=40d3dc88-0f80-474c-b9b5-fa3b55d5a0df","ios":"levelo://app?vid=40d3dc88-0f80-474c-b9b5-fa3b55d5a0df"},"vehicle_type_id":"4","last_reported":1768738887,"current_range_meters":3600,"station_id":"st_d3j3df2ikq2c7380ej80","pricing_plan_id":"cebpf4jnsgd1na2vs0mg"},{"bike_id":"e173fd74-1063-4c98-8110-b453fda37511","system_id":"levelo_inurba_marseille","lat":43.29257,"lon":5.40904,"is_reserved":false,"is_disabled":false,"rental_uris":{"android":"levelo://app?vid=e173fd74-1063-4c98-8110-b453fda37511","ios":"levelo://app?vid=e173fd74-1063-4c98-8110-b453fda37511"},"vehicle_type_id":"4","last_reported":1768738887,"current_range_meters":3600,"station_id":"ce4bh192rcd13ifvqdc0","pricing_plan_id":"cebpf4jnsgd1na2vs0mg"},{"bike_id":"7176f1ca-8b5e-490b-a2c6-30442fad6105","system_id":"levelo_inurba_marseille","lat":43.2855,"lon":5.44096,"is_reserved":false,"is_disabled":false,"rental_uris":{"android":"levelo://app?vid=7176f1ca-8b5e-490b-a2c6-30442fad6105","ios":"levelo://app?vid=7176f1ca-8b5e-490b-a2c6-30442fad6105"},"vehicle_type_id":"4","last_reported":1768738887,"current_range_meters":3600,"station_id":"st_d3j3df2ikq2c7380ej80","pricing_plan_id":"cebpf4jnsgd1na2vs0mg"},{"bike_id":"f0a83361-5351-404b-ab85-c3162bb75598","system_id":"levelo_inurba_marseille","lat":43.23194,"lon":5.35547,"is_reserved":false,"is_disabled":false,"rental_uris":{"android":"levelo://app?vid=f0a83361-5351-404b-ab85-c3162bb75598","ios":"levelo://app?vid=f0a83361-5351-404b-ab85-c3162bb75598"},"vehicle_type_id":"4","last_reported":1768738887,"current_range_meters":3600,"station_id":"ce4bhu92rcd13ifvqi70","pricing_plan_id":"cebpf4jnsgd1na2vs0mg"},{"bike_id":"4d42f05d-84d6-404c-8761-3fc5b097569c","system_id":"levelo_inurba_marseille","lat":43.30439,"lon":5.39749,"is_reserved":false,"is_disabled":false,"rental_uris":{"android":"levelo://app?vid=4d42f05d-84d6-404c-8761-3fc5b097569c","ios":"levelo://app?vid=4d42f05d-84d6-404c-8761-3fc5b097569c"},"vehicle_type_id":"4","last_reported":1768738887,"current_range_meters":3600,"station_id":"ce4bh092rcd13ifvqd20","pricing_plan_id":"cebpf4jnsgd1na2vs0mg"},{"bike_id":"f27d777b-6544-4f21-a823-e930164ef3bc","system_id":"levelo_inurba_marseille","lat":43.30947,"lon":5.40164,"is_reserved":false,"is_disabled":false,"rental_uris":{"android":"levelo://app?vid=f27d777b-6544-4f21-a823-e930164ef3bc","ios":"levelo://app?vid=f27d777b-6544-4f21-a823-e930164ef3bc"},"vehicle_type_id":"4","last_reported":1768738887,"current_range_meters":3600,"station_id":"ce4bgvp2rcd13ifvqct0","pricing_plan_id":"cebpf4jnsgd1na2vs0mg"},{"bike_id":"dfa72997-bdba-48f4-a1d1-63ff5130518c","system_id":"levelo_inurba_marseille","lat":43.32189,"lon":5.36762,"is_reserved":false,"is_disabled":false,"rental_uris":{"android":"levelo://app?vid=dfa72997-bdba-48f4-a1d1-63ff5130518c","ios":"levelo://app?vid=dfa72997-bdba-48f4-a1d1-63ff5130518c"},"vehicle_type_id":"4","last_reported":1768738887,"current_range_meters":4000,"station_id":"ce4bhrh2rcd13ifvqhug","pricing_plan_id":"cebpf4jnsgd1na2vs0mg"},{"bike_id":"0105de79-43a8-4de9-af65-6d3d110a6400","system_id":"levelo_inurba_marseille","lat":43.24169,"lon":5.3976,"is_reserved":false,"is_disabled":false,"rental_uris":{"android":"levelo://app?vid=0105de79-43a8-4de9-af65-6d3d110a6400","ios":"levelo://app?vid=0105de79-43a8-4de9-af65-6d3d110a6400"},"vehicle_type_id":"4","last_reported":1768738887,"current_range_meters":4000,"station_id":"ce4bhn12rcd13ifvqgpg","pricing_plan_id":"cebpf4jnsgd1na2vs0mg"},{"bike_id":"34b897d5-c8af-4e64-8e43-6ed1762d5785","system_id":"levelo_inurba_marseille","lat":43.30081,"lon":5.39091,"is_reserved":false,"is_disabled":false,"rental_uris":{"android":"levelo://app?vid=34b897d5-c8af-4e64-8e43-6ed1762d5785","ios":"levelo://app?vid=34b897d5-c8af-4e64-8e43-6ed1762d5785"},"vehicle_type_id":"4","last_reported":1768738887,"current_range_meters":4000,"station_id":"ce4bh192rcd13ifvqdb0","pricing_plan_id":"cebpf4jnsgd1na2vs0mg"},{"bike_id":"937d90e0-a5db-43d2-9364-92db8adcffb4","system_id":"levelo_inurba_marseille","lat":43.25331,"lon":5.42178,"is_reserved":false,"is_disabled":false,"rental_uris":{"android":"levelo://app?vid=937d90e0-a5db-43d2-9364-92db8adcffb4","ios":"levelo://app?vid=937d90e0-a5db-43d2-9364-92db8adcffb4"},"vehicle_type_id":"4","last_reported":1768738887,"current_range_meters":4000,"station_id":"st_d2m65c5bi1j21697t3ng","pricing_plan_id":"cebpf4jnsgd1na2vs0mg"},{"bike_id":"d3f1b0a6-185c-4fa2-9ef4-12f8e80b3e6a","system_id":"levelo_inurba_marseille","lat":43.29006,"lon":5.35598,"is_reserved":false,"is_disabled":false,"rental_uris":{"android":"levelo://app?vid=d3f1b0a6-185c-4fa2-9ef4-12f8e80b3e6a","ios":"levelo://app?vid=d3f1b0a6-185c-4fa2-9ef4-12f8e80b3e6a"},"vehicle_type_id":"4","last_reported":1768738887,"current_range_meters":4000,"station_id":"ce4bhb92rcd13ifvqen0","pricing_plan_id":"cebpf4jnsgd1na2vs0mg"},{"bike_id":"25425e15-43fe-4c3e-ae39-849597531f73","system_id":"levelo_inurba_marseille","lat":43.295616,"lon":5.406576,"is_reserved":false,"is_disabled":false,"rental_uris":{"android":"levelo://app?vid=25425e15-43fe-4c3e-ae39-849597531f73","ios":"levelo://app?vid=25425e15-43fe-4c3e-ae39-849597531f73"},"vehicle_type_id":"4","last_reported":1768738887,"current_range_meters":4000,"station_id":"","pricing_plan_id":"cebpf4jnsgd1na2vs0mg"},{"bike_id":"87350e61-368a-4de9-a080-78764da5bd65","system_id":"levelo_inurba_marseille","lat":43.28465,"lon":5.484,"is_reserved":false,"is_disabled":false,"rental_uris":{"android":"levelo://app?vid=87350e61-368a-4de9-a080-78764da5bd65","ios":"levelo://app?vid=87350e61-368a-4de9-a080-78764da5bd65"},"vehicle_type_id":"4","last_reported":1768738887,"current_range_meters":4000,"station_id":"","pricing_plan_id":"cebpf4jnsgd1na2vs0mg"},{"bike_id":"2e59ab37-51b4-434c-9efd-dbfcceedd362","system_id":"levelo_inurba_marseille","lat":43.323531,"lon":5.36752,"is_reserved":false,"is_disabled":false,"rental_uris":{"android":"levelo://app?vid=2e59ab37-51b4-434c-9efd-dbfcceedd362","ios":"levelo://app?vid=2e59ab37-51b4-434c-9efd-dbfcceedd362"},"vehicle_type_id":"4","last_reported":1768738887,"current_range_meters":4400,"station_id":"ce4bhsh2rcd13ifvqi2g","pricing_plan_id":"cebpf4jnsgd1na2vs0mg"},{"bike_id":"df2c3b78-16a5-4f93-9cf1-cc4e6cc92ceb","system_id":"levelo_inurba_marseille","lat":43.30376,"lon":5.42488,"is_reserved":false,"is_disabled":false,"rental_uris":{"android":"levelo://app?vid=df2c3b78-16a5-4f93-9cf1-cc4e6cc92ceb","ios":"levelo://app?vid=df2c3b78-16a5-4f93-9cf1-cc4e6cc92ceb"},"vehicle_type_id":"4","last_reported":1768738887,"current_range_meters":4400,"station_id":"ce4bhoh2rcd13ifvqh6g","pricing_plan_id":"cebpf4jnsgd1na2vs0mg"},{"bike_id":"bb07dfed-85dc-4af8-8fd2-5ea8c9b12b59","system_id":"levelo_inurba_marseille","lat":43.25572,"lon":5.38253,"is_reserved":false,"is_disabled":false,"rental_uris":{"android":"levelo://app?vid=bb07dfed-85dc-4af8-8fd2-5ea8c9b12b59","ios":"levelo://app?vid=bb07dfed-85dc-4af8-8fd2-5ea8c9b12b59"},"vehicle_type_id":"4","last_reported":1768738887,"current_range_meters":4400,"station_id":"ce4bhih2rcd13ifvqfs0","pricing_plan_id":"cebpf4jnsgd1na2vs0mg"},{"bike_id":"2f5ec094-b658-4ea0-99f8-72bd425b4794","system_id":"levelo_inurba_marseille","lat":43.26547,"lon":5.37302,"is_reserved":false,"is_disabled":false,"rental_uris":{"android":"levelo://app?vid=2f5ec094-b658-4ea0-99f8-72bd425b4794","ios":"levelo://app?vid=2f5ec094-b658-4ea0-99f8-72bd425b4794"},"vehicle_type_id":"4","last_reported":1768738887,"current_range_meters":4400,"station_id":"ce4bhg12rcd13ifvqf70","pricing_plan_id":"cebpf4jnsgd1na2vs0mg"},{"bike_id":"36210777-fc61-46fb-9fff-dbb7888395c3","system_id":"levelo_inurba_marseille","lat":43.29736,"lon":5.3819,"is_reserved":false,"is_disabled":false,"rental_uris":{"android":"levelo://app?vid=36210777-fc61-46fb-9fff-dbb7888395c3","ios":"levelo://app?vid=36210777-fc61-46fb-9fff-dbb7888395c3"},"vehicle_type_id":"4","last_reported":1768738887,"current_range_meters":4400,"station_id":"","pricing_plan_id":"cebpf4jnsgd1na2vs0mg"},{"bike_id":"de890674-a00b-4313-ae9c-0f8495e4953e","system_id":"levelo_inurba_marseille","lat":43.282755,"lon":5.350588,"is_reserved":false,"is_disabled":false,"rental_uris":{"android":"levelo://app?vid=de890674-a00b-4313-ae9c-0f8495e4953e","ios":"levelo://app?vid=de890674-a00b-4313-ae9c-0f8495e4953e"},"vehicle_type_id":"4","last_reported":1768738887,"current_range_meters":4400,"station_id":"ce4bhbp2rcd13ifvqerg","pricing_plan_id":"cebpf4jnsgd1na2vs0mg"},{"bike_id":"dc2a51a7-64f4-4158-b84a-2791d926c053","system_id":"levelo_inurba_marseille","lat":43.31302,"lon":5.38185,"is_reserved":false,"is_disabled":false,"rental_uris":{"android":"levelo://app?vid=dc2a51a7-64f4-4158-b84a-2791d926c053","ios":"levelo://app?vid=dc2a51a7-64f4-4158-b84a-2791d926c053"},"vehicle_type_id":"4","last_reported":1768738887,"current_range_meters":4400,"station_id":"","pricing_plan_id":"cebpf4jnsgd1na2vs0mg"},{"bike_id":"eacc92f4-9f5a-4634-b7ee-66e8ca464cb9","system_id":"levelo_inurba_marseille","lat":43.30917,"lon":5.36881,"is_reserved":false,"is_disabled":false,"rental_uris":{"android":"levelo://app?vid=eacc92f4-9f5a-4634-b7ee-66e8ca464cb9","ios":"levelo://app?vid=eacc92f4-9f5a-4634-b7ee-66e8ca464cb9"},"vehicle_type_id":"4","last_reported":1768738887,"current_range_meters":4800,"station_id":"ce4bgn92rcd13ifvqbvg","pricing_plan_id":"cebpf4jnsgd1na2vs0mg"},{"bike_id":"d6859bb2-20a6-4536-9cb7-70c1337cc344","system_id":"levelo_inurba_marseille","lat":43.31686,"lon":5.40469,"is_reserved":false,"is_disabled":false,"rental_uris":{"android":"levelo://app?vid=d6859bb2-20a6-4536-9cb7-70c1337cc344","ios":"levelo://app?vid=d6859bb2-20a6-4536-9cb7-70c1337cc344"},"vehicle_type_id":"4","last_reported":1768738887,"current_range_meters":4800,"station_id":"ce4bh012rcd13ifvqd00","pricing_plan_id":"cebpf4jnsgd1na2vs0mg"},{"bike_id":"9f9ee95b-a709-468f-875a-8cf12fad1678","system_id":"levelo_inurba_marseille","lat":43.30133,"lon":5.37431,"is_reserved":false,"is_disabled":false,"rental_uris":{"android":"levelo://app?vid=9f9ee95b-a709-468f-875a-8cf12fad1678","ios":"levelo://app?vid=9f9ee95b-a709-468f-875a-8cf12fad1678"},"vehicle_type_id":"4","last_reported":1768738887,"current_range_meters":4800,"station_id":"ce4bgs92rcd13ifvqcc0","pricing_plan_id":"cebpf4jnsgd1na2vs0mg"},{"bike_id":"dbba0a0b-4a48-431c-b93f-cc7a9adf711d","system_id":"levelo_inurba_marseille","lat":43.297884,"lon":5.381213,"is_reserved":false,"is_disabled":true,"rental_uris":{"android":"levelo://app?vid=dbba0a0b-4a48-431c-b93f-cc7a9adf711d","ios":"levelo://app?vid=dbba0a0b-4a48-431c-b93f-cc7a9adf711d"},"vehicle_type_id":"4","last_reported":1768738887,"current_range_meters":4800,"station_id":"ce4bgip2rcd13ifvqbb0","pricing_plan_id":"cebpf4jnsgd1na2vs0mg"},{"bike_id":"878dde24-bede-4e19-ae02-67a59c493306","system_id":"levelo_inurba_marseille","lat":43.27943,"lon":5.41061,"is_reserved":false,"is_disabled":false,"rental_uris":{"android":"levelo://app?vid=878dde24-bede-4e19-ae02-67a59c493306","ios":"levelo://app?vid=878dde24-bede-4e19-ae02-67a59c493306"},"vehicle_type_id":"4","last_reported":1768738887,"current_range_meters":4800,"station_id":"ce4bhnp2rcd13ifvqh0g","pricing_plan_id":"cebpf4jnsgd1na2vs0mg"},{"bike_id":"fe8a4485-76a0-4479-82d1-99e908a91a43","system_id":"levelo_inurba_marseille","lat":43.304135,"lon":5.39744,"is_reserved":false,"is_disabled":false,"rental_uris":{"android":"levelo://app?vid=fe8a4485-76a0-4479-82d1-99e908a91a43","ios":"levelo://app?vid=fe8a4485-76a0-4479-82d1-99e908a91a43"},"vehicle_type_id":"4","last_reported":1768738887,"current_range_meters":4800,"station_id":"ce4bh092rcd13ifvqd20","pricing_plan_id":"cebpf4jnsgd1na2vs0mg"},{"bike_id":"791cb4d0-546f-4f96-b131-34cd64d89ad7","system_id":"levelo_inurba_marseille","lat":43.281518,"lon":5.426508,"is_reserved":false,"is_disabled":false,"rental_uris":{"android":"levelo://app?vid=791cb4d0-546f-4f96-b131-34cd64d89ad7","ios":"levelo://app?vid=791cb4d0-546f-4f96-b131-34cd64d89ad7"},"vehicle_type_id":"4","last_reported":1768738887,"current_range_meters":4800,"station_id":"ce4bhnh2rcd13ifvqgug","pricing_plan_id":"cebpf4jnsgd1na2vs0mg"},{"bike_id":"d16700cb-ba4c-4823-80e9-8e58db3e2e5c","system_id":"levelo_inurba_marseille","lat":43.25936,"lon":5.40897,"is_reserved":false,"is_disabled":false,"rental_uris":{"android":"levelo://app?vid=d16700cb-ba4c-4823-80e9-8e58db3e2e5c","ios":"levelo://app?vid=d16700cb-ba4c-4823-80e9-8e58db3e2e5c"},"vehicle_type_id":"4","last_reported":1768738887,"current_range_meters":4800,"station_id":"ce4bhm92rcd13ifvqglg","pricing_plan_id":"cebpf4jnsgd1na2vs0mg"},{"bike_id":"7e56f2aa-c907-404a-a5a6-866d9725ac4e","system_id":"levelo_inurba_marseille","lat":43.264965,"lon":5.395441,"is_reserved":false,"is_disabled":false,"rental_uris":{"android":"levelo://app?vid=7e56f2aa-c907-404a-a5a6-866d9725ac4e","ios":"levelo://app?vid=7e56f2aa-c907-404a-a5a6-866d9725ac4e"},"vehicle_type_id":"4","last_reported":1768738887,"current_range_meters":4800,"station_id":"ce4bhi12rcd13ifvqfq0","pricing_plan_id":"cebpf4jnsgd1na2vs0mg"},{"bike_id":"ff2d3e5a-0e52-4f3a-ad99-d57d4a209ef1","system_id":"levelo_inurba_marseille","lat":43.30147,"lon":5.374279,"is_reserved":false,"is_disabled":false,"rental_uris":{"android":"levelo://app?vid=ff2d3e5a-0e52-4f3a-ad99-d57d4a209ef1","ios":"levelo://app?vid=ff2d3e5a-0e52-4f3a-ad99-d57d4a209ef1"},"vehicle_type_id":"4","last_reported":1768738887,"current_range_meters":5600,"station_id":"ce4bgs92rcd13ifvqcc0","pricing_plan_id":"cebpf4jnsgd1na2vs0mg"},{"bike_id":"d657cf9a-89e3-455b-b3a0-0b088f505c04","system_id":"levelo_inurba_marseille","lat":43.29272,"lon":5.38431,"is_reserved":false,"is_disabled":true,"rental_uris":{"android":"levelo://app?vid=d657cf9a-89e3-455b-b3a0-0b088f505c04","ios":"levelo://app?vid=d657cf9a-89e3-455b-b3a0-0b088f505c04"},"vehicle_type_id":"4","last_reported":1768738887,"current_range_meters":5600,"station_id":"ce4bh692rcd13ifvqea0","pricing_plan_id":"cebpf4jnsgd1na2vs0mg"},{"bike_id":"9e22bfa9-2a50-4ed5-b9b2-cd25f6476383","system_id":"levelo_inurba_marseille","lat":43.23192,"lon":5.39976,"is_reserved":false,"is_disabled":false,"rental_uris":{"android":"levelo://app?vid=9e22bfa9-2a50-4ed5-b9b2-cd25f6476383","ios":"levelo://app?vid=9e22bfa9-2a50-4ed5-b9b2-cd25f6476383"},"vehicle_type_id":"4","last_reported":1768738887,"current_range_meters":5600,"station_id":"ce4bhn12rcd13ifvqgqg","pricing_plan_id":"cebpf4jnsgd1na2vs0mg"},{"bike_id":"34c66c70-d3e2-4b84-b84c-2f238c05e82f","system_id":"levelo_inurba_marseille","lat":43.32354,"lon":5.36768,"is_reserved":false,"is_disabled":false,"rental_uris":{"android":"levelo://app?vid=34c66c70-d3e2-4b84-b84c-2f238c05e82f","ios":"levelo://app?vid=34c66c70-d3e2-4b84-b84c-2f238c05e82f"},"vehicle_type_id":"4","last_reported":1768738887,"current_range_meters":5600,"station_id":"ce4bhsh2rcd13ifvqi2g","pricing_plan_id":"cebpf4jnsgd1na2vs0mg"},{"bike_id":"49ecf593-a1c9-4420-b6f0-bea038ba7420","system_id":"levelo_inurba_marseille","lat":43.31299,"lon":5.37921,"is_reserved":false,"is_disabled":false,"rental_uris":{"android":"levelo://app?vid=49ecf593-a1c9-4420-b6f0-bea038ba7420","ios":"levelo://app?vid=49ecf593-a1c9-4420-b6f0-bea038ba7420"},"vehicle_type_id":"4","last_reported":1768738887,"current_range_meters":5600,"station_id":"","pricing_plan_id":"cebpf4jnsgd1na2vs0mg"},{"bike_id":"0d8dc757-f120-4048-b26d-4456de3cb9d2","system_id":"levelo_inurba_marseille","lat":43.25576,"lon":5.38239,"is_reserved":false,"is_disabled":false,"rental_uris":{"android":"levelo://app?vid=0d8dc757-f120-4048-b26d-4456de3cb9d2","ios":"levelo://app?vid=0d8dc757-f120-4048-b26d-4456de3cb9d2"},"vehicle_type_id":"4","last_reported":1768738887,"current_range_meters":5600,"station_id":"ce4bhih2rcd13ifvqfs0","pricing_plan_id":"cebpf4jnsgd1na2vs0mg"},{"bike_id":"ae2ada0f-2a33-43e3-9de1-cb58095a1999","system_id":"levelo_inurba_marseille","lat":43.30881,"lon":5.39613,"is_reserved":false,"is_disabled":false,"rental_uris":{"android":"levelo://app?vid=ae2ada0f-2a33-43e3-9de1-cb58095a1999","ios":"levelo://app?vid=ae2ada0f-2a33-43e3-9de1-cb58095a1999"},"vehicle_type_id":"4","last_reported":1768738887,"current_range_meters":5600,"station_id":"ce4bh012rcd13ifvqcv0","pricing_plan_id":"cebpf4jnsgd1na2vs0mg"},{"bike_id":"0d9df94c-688c-40a3-b5b1-a647ba685ef0","system_id":"levelo_inurba_marseille","lat":43.2721,"lon":5.39186,"is_reserved":false,"is_disabled":false,"rental_uris":{"android":"levelo://app?vid=0d9df94c-688c-40a3-b5b1-a647ba685ef0","ios":"levelo://app?vid=0d9df94c-688c-40a3-b5b1-a647ba685ef0"},"vehicle_type_id":"4","last_reported":1768738887,"current_range_meters":5600,"station_id":"ce4bhhp2rcd13ifvqfm0","pricing_plan_id":"cebpf4jnsgd1na2vs0mg"},{"bike_id":"48c4b8a8-37b9-48c0-bbda-161cb1795787","system_id":"levelo_inurba_marseille","lat":43.2721,"lon":5.39183,"is_reserved":false,"is_disabled":false,"rental_uris":{"android":"levelo://app?vid=48c4b8a8-37b9-48c0-bbda-161cb1795787","ios":"levelo://app?vid=48c4b8a8-37b9-48c0-bbda-161cb1795787"},"vehicle_type_id":"4","last_reported":1768738887,"current_range_meters":5600,"station_id":"ce4bhhp2rcd13ifvqfm0","pricing_plan_id":"cebpf4jnsgd1na2vs0mg"},{"bike_id":"aedd631f-bbfa-40e3-8be0-4b1d882c129d","system_id":"levelo_inurba_marseille","lat":43.25131,"lon":5.40327,"is_reserved":false,"is_disabled":false,"rental_uris":{"android":"levelo://app?vid=aedd631f-bbfa-40e3-8be0-4b1d882c129d","ios":"levelo://app?vid=aedd631f-bbfa-40e3-8be0-4b1d882c129d"},"vehicle_type_id":"4","last_reported":1768738887,"current_range_meters":6000,"station_id":"ce4bhlh2rcd13ifvqgig","pricing_plan_id":"cebpf4jnsgd1na2vs0mg"},{"bike_id":"3320b44f-28ee-4e99-ab1b-4906eed292fe","system_id":"levelo_inurba_marseille","lat":43.314897,"lon":5.37309,"is_reserved":false,"is_disabled":false,"rental_uris":{"android":"levelo://app?vid=3320b44f-28ee-4e99-ab1b-4906eed292fe","ios":"levelo://app?vid=3320b44f-28ee-4e99-ab1b-4906eed292fe"},"vehicle_type_id":"4","last_reported":1768738887,"current_range_meters":6000,"station_id":"ce4bgt12rcd13ifvqcd0","pricing_plan_id":"cebpf4jnsgd1na2vs0mg"},{"bike_id":"632c49af-b0f7-4ef5-8faa-80577c4d9e02","system_id":"levelo_inurba_marseille","lat":43.310732,"lon":5.383556,"is_reserved":false,"is_disabled":false,"rental_uris":{"android":"levelo://app?vid=632c49af-b0f7-4ef5-8faa-80577c4d9e02","ios":"levelo://app?vid=632c49af-b0f7-4ef5-8faa-80577c4d9e02"},"vehicle_type_id":"4","last_reported":1768738887,"current_range_meters":6000,"station_id":"ce4bgv92rcd13ifvqcr0","pricing_plan_id":"cebpf4jnsgd1na2vs0mg"},{"bike_id":"923a293c-cb5e-4620-acad-ddc8186290d8","system_id":"levelo_inurba_marseille","lat":43.24641,"lon":5.38903,"is_reserved":false,"is_disabled":false,"rental_uris":{"android":"levelo://app?vid=923a293c-cb5e-4620-acad-ddc8186290d8","ios":"levelo://app?vid=923a293c-cb5e-4620-acad-ddc8186290d8"},"vehicle_type_id":"4","last_reported":1768738887,"current_range_meters":6000,"station_id":"ce4bhg12rcd13ifvqf60","pricing_plan_id":"cebpf4jnsgd1na2vs0mg"},{"bike_id":"1c7752d6-3957-41a3-b756-451c1e115cff","system_id":"levelo_inurba_marseille","lat":43.2654,"lon":5.3904,"is_reserved":false,"is_disabled":false,"rental_uris":{"android":"levelo://app?vid=1c7752d6-3957-41a3-b756-451c1e115cff","ios":"levelo://app?vid=1c7752d6-3957-41a3-b756-451c1e115cff"},"vehicle_type_id":"4","last_reported":1768738887,"current_range_meters":6000,"station_id":"ce4bhe12rcd13ifvqf30","pricing_plan_id":"cebpf4jnsgd1na2vs0mg"},{"bike_id":"3de79ba5-6bdb-408d-95bd-3f4b9c83991c","system_id":"levelo_inurba_marseille","lat":43.29525,"lon":5.37907,"is_reserved":false,"is_disabled":false,"rental_uris":{"android":"levelo://app?vid=3de79ba5-6bdb-408d-95bd-3f4b9c83991c","ios":"levelo://app?vid=3de79ba5-6bdb-408d-95bd-3f4b9c83991c"},"vehicle_type_id":"4","last_reported":1768738887,"current_range_meters":6000,"station_id":"","pricing_plan_id":"cebpf4jnsgd1na2vs0mg"},{"bike_id":"ddef4d4f-5883-4484-bc03-0df24418699a","system_id":"levelo_inurba_marseille","lat":43.21754,"lon":5.34609,"is_reserved":false,"is_disabled":false,"rental_uris":{"android":"levelo://app?vid=ddef4d4f-5883-4484-bc03-0df24418699a","ios":"levelo://app?vid=ddef4d4f-5883-4484-bc03-0df24418699a"},"vehicle_type_id":"4","last_reported":1768738887,"current_range_meters":6000,"station_id":"st_cvj6r9ubvosntc0bgbag","pricing_plan_id":"cebpf4jnsgd1na2vs0mg"},{"bike_id":"463320f5-e892-41ba-802c-8be01b12e869","system_id":"levelo_inurba_marseille","lat":43.229277,"lon":5.353811,"is_reserved":false,"is_disabled":false,"rental_uris":{"android":"levelo://app?vid=463320f5-e892-41ba-802c-8be01b12e869","ios":"levelo://app?vid=463320f5-e892-41ba-802c-8be01b12e869"},"vehicle_type_id":"4","last_reported":1768738887,"current_range_meters":6000,"station_id":"cpo3532slgdg3j2ikp40","pricing_plan_id":"cebpf4jnsgd1na2vs0mg"},{"bike_id":"772223ce-24bf-4e7e-9860-3e6b11fe1be5","system_id":"levelo_inurba_marseille","lat":43.24953,"lon":5.40492,"is_reserved":false,"is_disabled":false,"rental_uris":{"android":"levelo://app?vid=772223ce-24bf-4e7e-9860-3e6b11fe1be5","ios":"levelo://app?vid=772223ce-24bf-4e7e-9860-3e6b11fe1be5"},"vehicle_type_id":"4","last_reported":1768738887,"current_range_meters":6000,"station_id":"st_d2ngiaodas8pm72gd1h0","pricing_plan_id":"cebpf4jnsgd1na2vs0mg"},{"bike_id":"0cdf86fa-1d6f-4140-aa62-b930ff22d688","system_id":"levelo_inurba_marseille","lat":43.253328,"lon":5.421751,"is_reserved":false,"is_disabled":false,"rental_uris":{"android":"levelo://app?vid=0cdf86fa-1d6f-4140-aa62-b930ff22d688","ios":"levelo://app?vid=0cdf86fa-1d6f-4140-aa62-b930ff22d688"},"vehicle_type_id":"4","last_reported":1768738887,"current_range_meters":6400,"station_id":"","pricing_plan_id":"cebpf4jnsgd1na2vs0mg"},{"bike_id":"e5388bf4-1263-4b30-a64f-2bce8e41e8c1","system_id":"levelo_inurba_marseille","lat":43.27205,"lon":5.39187,"is_reserved":false,"is_disabled":false,"rental_uris":{"android":"levelo://app?vid=e5388bf4-1263-4b30-a64f-2bce8e41e8c1","ios":"levelo://app?vid=e5388bf4-1263-4b30-a64f-2bce8e41e8c1"},"vehicle_type_id":"4","last_reported":1768738887,"current_range_meters":6400,"station_id":"ce4bhhp2rcd13ifvqfm0","pricing_plan_id":"cebpf4jnsgd1na2vs0mg"},{"bike_id":"1ec247ef-5ae2-4481-a8f1-83d49de262d8","system_id":"levelo_inurba_marseille","lat":43.255809,"lon":5.38246,"is_reserved":false,"is_disabled":false,"rental_uris":{"android":"levelo://app?vid=1ec247ef-5ae2-4481-a8f1-83d49de262d8","ios":"levelo://app?vid=1ec247ef-5ae2-4481-a8f1-83d49de262d8"},"vehicle_type_id":"4","last_reported":1768738887,"current_range_meters":6400,"station_id":"ce4bhih2rcd13ifvqfs0","pricing_plan_id":"cebpf4jnsgd1na2vs0mg"},{"bike_id":"3edcb619-e140-4ca7-af08-f551c6a288f3","system_id":"levelo_inurba_marseille","lat":43.28481,"lon":5.48402,"is_reserved":false,"is_disabled":false,"rental_uris":{"android":"levelo://app?vid=3edcb619-e140-4ca7-af08-f551c6a288f3","ios":"levelo://app?vid=3edcb619-e140-4ca7-af08-f551c6a288f3"},"vehicle_type_id":"4","last_reported":1768738887,"current_range_meters":6400,"station_id":"","pricing_plan_id":"cebpf4jnsgd1na2vs0mg"},{"bike_id":"6116392c-6b86-47a5-bcc7-c95cae236d34","system_id":"levelo_inurba_marseille","lat":43.27827,"lon":5.40741,"is_reserved":false,"is_disabled":false,"rental_uris":{"android":"levelo://app?vid=6116392c-6b86-47a5-bcc7-c95cae236d34","ios":"levelo://app?vid=6116392c-6b86-47a5-bcc7-c95cae236d34"},"vehicle_type_id":"4","last_reported":1768738887,"current_range_meters":6400,"station_id":"ce4bhnh2rcd13ifvqgtg","pricing_plan_id":"cebpf4jnsgd1na2vs0mg"},{"bike_id":"cccdb1be-5776-4650-8d82-01bf129afac7","system_id":"levelo_inurba_marseille","lat":43.29191,"lon":5.39319,"is_reserved":false,"is_disabled":true,"rental_uris":{"android":"levelo://app?vid=cccdb1be-5776-4650-8d82-01bf129afac7","ios":"levelo://app?vid=cccdb1be-5776-4650-8d82-01bf129afac7"},"vehicle_type_id":"4","last_reported":1768738887,"current_range_meters":6400,"station_id":"ce4bh192rcd13ifvqdd0","pricing_plan_id":"cebpf4jnsgd1na2vs0mg"},{"bike_id":"e7214ada-a28a-4f98-a0df-b615cdc95b49","system_id":"levelo_inurba_marseille","lat":43.24678,"lon":5.38156,"is_reserved":false,"is_disabled":false,"rental_uris":{"android":"levelo://app?vid=e7214ada-a28a-4f98-a0df-b615cdc95b49","ios":"levelo://app?vid=e7214ada-a28a-4f98-a0df-b615cdc95b49"},"vehicle_type_id":"4","last_reported":1768738887,"current_range_meters":6400,"station_id":"ce4bhih2rcd13ifvqfr0","pricing_plan_id":"cebpf4jnsgd1na2vs0mg"},{"bike_id":"9271202c-ac33-4e20-a909-7ef90d7a11c4","system_id":"levelo_inurba_marseille","lat":43.3062,"lon":5.37612,"is_reserved":false,"is_disabled":false,"rental_uris":{"android":"levelo://app?vid=9271202c-ac33-4e20-a909-7ef90d7a11c4","ios":"levelo://app?vid=9271202c-ac33-4e20-a909-7ef90d7a11c4"},"vehicle_type_id":"4","last_reported":1768738887,"current_range_meters":6400,"station_id":"","pricing_plan_id":"cebpf4jnsgd1na2vs0mg"},{"bike_id":"168fb7c0-bb3d-4dc2-b81c-95a7d644950b","system_id":"levelo_inurba_marseille","lat":43.28103,"lon":5.42647,"is_reserved":false,"is_disabled":false,"rental_uris":{"android":"levelo://app?vid=168fb7c0-bb3d-4dc2-b81c-95a7d644950b","ios":"levelo://app?vid=168fb7c0-bb3d-4dc2-b81c-95a7d644950b"},"vehicle_type_id":"4","last_reported":1768738887,"current_range_meters":6400,"station_id":"","pricing_plan_id":"cebpf4jnsgd1na2vs0mg"},{"bike_id":"bb74209e-c6a8-44ea-96c7-046161e5ebb1","system_id":"levelo_inurba_marseille","lat":43.229266,"lon":5.353742,"is_reserved":false,"is_disabled":false,"rental_uris":{"android":"levelo://app?vid=bb74209e-c6a8-44ea-96c7-046161e5ebb1","ios":"levelo://app?vid=bb74209e-c6a8-44ea-96c7-046161e5ebb1"},"vehicle_type_id":"4","last_reported":1768738887,"current_range_meters":6400,"station_id":"cpo3532slgdg3j2ikp40","pricing_plan_id":"cebpf4jnsgd1na2vs0mg"},{"bike_id":"1261f0f4-3c5c-4cb5-803c-04f5532f3e7d","system_id":"levelo_inurba_marseille","lat":43.24806,"lon":5.37451,"is_reserved":false,"is_disabled":false,"rental_uris":{"android":"levelo://app?vid=1261f0f4-3c5c-4cb5-803c-04f5532f3e7d","ios":"levelo://app?vid=1261f0f4-3c5c-4cb5-803c-04f5532f3e7d"},"vehicle_type_id":"4","last_reported":1768738887,"current_range_meters":6400,"station_id":"ce4bhgh2rcd13ifvqfb0","pricing_plan_id":"cebpf4jnsgd1na2vs0mg"},{"bike_id":"d6618e16-298b-459f-8763-b9bd216e1a8c","system_id":"levelo_inurba_marseille","lat":43.29012,"lon":5.35612,"is_reserved":false,"is_disabled":false,"rental_uris":{"android":"levelo://app?vid=d6618e16-298b-459f-8763-b9bd216e1a8c","ios":"levelo://app?vid=d6618e16-298b-459f-8763-b9bd216e1a8c"},"vehicle_type_id":"4","last_reported":1768738887,"current_range_meters":6800,"station_id":"ce4bhb92rcd13ifvqen0","pricing_plan_id":"cebpf4jnsgd1na2vs0mg"},{"bike_id":"45bb7221-e7aa-41a9-b651-ce7642ffb4d6","system_id":"levelo_inurba_marseille","lat":43.27822,"lon":5.40729,"is_reserved":false,"is_disabled":false,"rental_uris":{"android":"levelo://app?vid=45bb7221-e7aa-41a9-b651-ce7642ffb4d6","ios":"levelo://app?vid=45bb7221-e7aa-41a9-b651-ce7642ffb4d6"},"vehicle_type_id":"4","last_reported":1768738887,"current_range_meters":6800,"station_id":"ce4bhnh2rcd13ifvqgtg","pricing_plan_id":"cebpf4jnsgd1na2vs0mg"},{"bike_id":"7eded3b1-4745-4b4d-b80d-d88da3addd51","system_id":"levelo_inurba_marseille","lat":43.27594,"lon":5.36101,"is_reserved":false,"is_disabled":false,"rental_uris":{"android":"levelo://app?vid=7eded3b1-4745-4b4d-b80d-d88da3addd51","ios":"levelo://app?vid=7eded3b1-4745-4b4d-b80d-d88da3addd51"},"vehicle_type_id":"4","last_reported":1768738887,"current_range_meters":6800,"station_id":"ce4bgj92rcd13ifvqbe0","pricing_plan_id":"cebpf4jnsgd1na2vs0mg"},{"bike_id":"5e957bb0-b205-462f-b5e5-df60c0ace1a5","system_id":"levelo_inurba_marseille","lat":43.23811,"lon":5.36631,"is_reserved":false,"is_disabled":false,"rental_uris":{"android":"levelo://app?vid=5e957bb0-b205-462f-b5e5-df60c0ace1a5","ios":"levelo://app?vid=5e957bb0-b205-462f-b5e5-df60c0ace1a5"},"vehicle_type_id":"4","last_reported":1768738887,"current_range_meters":6800,"station_id":"st_d3nk18o9ro0c73en2l3g","pricing_plan_id":"cebpf4jnsgd1na2vs0mg"},{"bike_id":"9a96c7ff-aee0-42fe-87ea-dad07da0d7ef","system_id":"levelo_inurba_marseille","lat":43.26527,"lon":5.39542,"is_reserved":false,"is_disabled":false,"rental_uris":{"android":"levelo://app?vid=9a96c7ff-aee0-42fe-87ea-dad07da0d7ef","ios":"levelo://app?vid=9a96c7ff-aee0-42fe-87ea-dad07da0d7ef"},"vehicle_type_id":"4","last_reported":1768738887,"current_range_meters":6800,"station_id":"ce4bhi12rcd13ifvqfq0","pricing_plan_id":"cebpf4jnsgd1na2vs0mg"},{"bike_id":"bf443dfe-f19a-49ca-ab0a-ace202cd3776","system_id":"levelo_inurba_marseille","lat":43.301384,"lon":5.374265,"is_reserved":false,"is_disabled":false,"rental_uris":{"android":"levelo://app?vid=bf443dfe-f19a-49ca-ab0a-ace202cd3776","ios":"levelo://app?vid=bf443dfe-f19a-49ca-ab0a-ace202cd3776"},"vehicle_type_id":"4","last_reported":1768738887,"current_range_meters":6800,"station_id":"ce4bgs92rcd13ifvqcc0","pricing_plan_id":"cebpf4jnsgd1na2vs0mg"},{"bike_id":"f559ecaa-810f-4111-8b9b-3003d9733761","system_id":"levelo_inurba_marseille","lat":43.30156,"lon":5.38089,"is_reserved":false,"is_disabled":false,"rental_uris":{"android":"levelo://app?vid=f559ecaa-810f-4111-8b9b-3003d9733761","ios":"levelo://app?vid=f559ecaa-810f-4111-8b9b-3003d9733761"},"vehicle_type_id":"4","last_reported":1768738887,"current_range_meters":6800,"station_id":"ce4bgjp2rcd13ifvqbh0","pricing_plan_id":"cebpf4jnsgd1na2vs0mg"},{"bike_id":"127e547c-4cfb-4834-91d5-867c0485e117","system_id":"levelo_inurba_marseille","lat":43.278139,"lon":5.407091,"is_reserved":false,"is_disabled":false,"rental_uris":{"android":"levelo://app?vid=127e547c-4cfb-4834-91d5-867c0485e117","ios":"levelo://app?vid=127e547c-4cfb-4834-91d5-867c0485e117"},"vehicle_type_id":"4","last_reported":1768738887,"current_range_meters":6800,"station_id":"ce4bhnh2rcd13ifvqgtg","pricing_plan_id":"cebpf4jnsgd1na2vs0mg"},{"bike_id":"b0b088ff-b95f-42e3-86ac-a0daa04b2d1d","system_id":"levelo_inurba_marseille","lat":43.243772,"lon":5.370759,"is_reserved":false,"is_disabled":false,"rental_uris":{"android":"levelo://app?vid=b0b088ff-b95f-42e3-86ac-a0daa04b2d1d","ios":"levelo://app?vid=b0b088ff-b95f-42e3-86ac-a0daa04b2d1d"},"vehicle_type_id":"4","last_reported":1768738887,"current_range_meters":6800,"station_id":"","pricing_plan_id":"cebpf4jnsgd1na2vs0mg"},{"bike_id":"d75d6a8b-66aa-4deb-820e-ef260a5410b0","system_id":"levelo_inurba_marseille","lat":43.231654,"lon":5.39993,"is_reserved":false,"is_disabled":false,"rental_uris":{"android":"levelo://app?vid=d75d6a8b-66aa-4deb-820e-ef260a5410b0","ios":"levelo://app?vid=d75d6a8b-66aa-4deb-820e-ef260a5410b0"},"vehicle_type_id":"4","last_reported":1768738887,"current_range_meters":6800,"station_id":"ce4bhn12rcd13ifvqgqg","pricing_plan_id":"cebpf4jnsgd1na2vs0mg"},{"bike_id":"e1fa302b-8b8b-453a-9a34-31f309c0291a","system_id":"levelo_inurba_marseille","lat":43.28459,"lon":5.35902,"is_reserved":false,"is_disabled":false,"rental_uris":{"android":"levelo://app?vid=e1fa302b-8b8b-453a-9a34-31f309c0291a","ios":"levelo://app?vid=e1fa302b-8b8b-453a-9a34-31f309c0291a"},"vehicle_type_id":"4","last_reported":1768738887,"current_range_meters":6800,"station_id":"ce4bhah2rcd13ifvqei0","pricing_plan_id":"cebpf4jnsgd1na2vs0mg"},{"bike_id":"bcb6fd23-eb51-4278-a994-eb47185edae8","system_id":"levelo_inurba_marseille","lat":43.29621,"lon":5.37865,"is_reserved":false,"is_disabled":false,"rental_uris":{"android":"levelo://app?vid=bcb6fd23-eb51-4278-a994-eb47185edae8","ios":"levelo://app?vid=bcb6fd23-eb51-4278-a994-eb47185edae8"},"vehicle_type_id":"4","last_reported":1768738887,"current_range_meters":6800,"station_id":"","pricing_plan_id":"cebpf4jnsgd1na2vs0mg"},{"bike_id":"8de8b54d-ad44-4bfe-b86e-f06e0a2ec0cd","system_id":"levelo_inurba_marseille","lat":43.315887,"lon":5.379215,"is_reserved":false,"is_disabled":false,"rental_uris":{"android":"levelo://app?vid=8de8b54d-ad44-4bfe-b86e-f06e0a2ec0cd","ios":"levelo://app?vid=8de8b54d-ad44-4bfe-b86e-f06e0a2ec0cd"},"vehicle_type_id":"4","last_reported":1768738887,"current_range_meters":6800,"station_id":"","pricing_plan_id":"cebpf4jnsgd1na2vs0mg"},{"bike_id":"4160c95a-911c-47a2-8c82-0f403b2f4a3a","system_id":"levelo_inurba_marseille","lat":43.284245,"lon":5.349842,"is_reserved":false,"is_disabled":false,"rental_uris":{"android":"levelo://app?vid=4160c95a-911c-47a2-8c82-0f403b2f4a3a","ios":"levelo://app?vid=4160c95a-911c-47a2-8c82-0f403b2f4a3a"},"vehicle_type_id":"4","last_reported":1768738887,"current_range_meters":6800,"station_id":"ce4bhbh2rcd13ifvqepg","pricing_plan_id":"cebpf4jnsgd1na2vs0mg"},{"bike_id":"86a72b00-2bcd-490d-9cb1-515e8f72de07","system_id":"levelo_inurba_marseille","lat":43.253486,"lon":5.421638,"is_reserved":false,"is_disabled":false,"rental_uris":{"android":"levelo://app?vid=86a72b00-2bcd-490d-9cb1-515e8f72de07","ios":"levelo://app?vid=86a72b00-2bcd-490d-9cb1-515e8f72de07"},"vehicle_type_id":"4","last_reported":1768738887,"current_range_meters":6800,"station_id":"st_d2m65c5bi1j21697t3ng","pricing_plan_id":"cebpf4jnsgd1na2vs0mg"},{"bike_id":"d0b29b07-5102-4e6f-97b9-23723e4c0614","system_id":"levelo_inurba_marseille","lat":43.28482,"lon":5.48394,"is_reserved":false,"is_disabled":false,"rental_uris":{"android":"levelo://app?vid=d0b29b07-5102-4e6f-97b9-23723e4c0614","ios":"levelo://app?vid=d0b29b07-5102-4e6f-97b9-23723e4c0614"},"vehicle_type_id":"4","last_reported":1768738887,"current_range_meters":6800,"station_id":"","pricing_plan_id":"cebpf4jnsgd1na2vs0mg"},{"bike_id":"bd6b7033-d838-49d2-9f9e-c7224fde7095","system_id":"levelo_inurba_marseille","lat":43.2467,"lon":5.38148,"is_reserved":false,"is_disabled":false,"rental_uris":{"android":"levelo://app?vid=bd6b7033-d838-49d2-9f9e-c7224fde7095","ios":"levelo://app?vid=bd6b7033-d838-49d2-9f9e-c7224fde7095"},"vehicle_type_id":"4","last_reported":1768738887,"current_range_meters":6800,"station_id":"ce4bhih2rcd13ifvqfr0","pricing_plan_id":"cebpf4jnsgd1na2vs0mg"},{"bike_id":"562feb0e-e7fa-4040-9a58-524311c899ba","system_id":"levelo_inurba_marseille","lat":43.29192,"lon":5.35828,"is_reserved":false,"is_disabled":true,"rental_uris":{"android":"levelo://app?vid=562feb0e-e7fa-4040-9a58-524311c899ba","ios":"levelo://app?vid=562feb0e-e7fa-4040-9a58-524311c899ba"},"vehicle_type_id":"4","last_reported":1768738887,"current_range_meters":7200,"station_id":"ce4bhb12rcd13ifvqel0","pricing_plan_id":"cebpf4jnsgd1na2vs0mg"},{"bike_id":"73c7a783-2390-4143-8418-3e834504ca8a","system_id":"levelo_inurba_marseille","lat":43.29027,"lon":5.4,"is_reserved":false,"is_disabled":false,"rental_uris":{"android":"levelo://app?vid=73c7a783-2390-4143-8418-3e834504ca8a","ios":"levelo://app?vid=73c7a783-2390-4143-8418-3e834504ca8a"},"vehicle_type_id":"4","last_reported":1768738887,"current_range_meters":7200,"station_id":"ce4bh392rcd13ifvqdm0","pricing_plan_id":"cebpf4jnsgd1na2vs0mg"},{"bike_id":"767eff67-48e3-4244-b425-866fa6739ce0","system_id":"levelo_inurba_marseille","lat":43.23172,"lon":5.39992,"is_reserved":false,"is_disabled":false,"rental_uris":{"android":"levelo://app?vid=767eff67-48e3-4244-b425-866fa6739ce0","ios":"levelo://app?vid=767eff67-48e3-4244-b425-866fa6739ce0"},"vehicle_type_id":"4","last_reported":1768738887,"current_range_meters":7200,"station_id":"ce4bhn12rcd13ifvqgqg","pricing_plan_id":"cebpf4jnsgd1na2vs0mg"},{"bike_id":"2fa7b407-6340-4fb7-b9f7-523ee592e1a0","system_id":"levelo_inurba_marseille","lat":43.25575,"lon":5.38237,"is_reserved":false,"is_disabled":false,"rental_uris":{"android":"levelo://app?vid=2fa7b407-6340-4fb7-b9f7-523ee592e1a0","ios":"levelo://app?vid=2fa7b407-6340-4fb7-b9f7-523ee592e1a0"},"vehicle_type_id":"4","last_reported":1768738887,"current_range_meters":7200,"station_id":"ce4bhih2rcd13ifvqfs0","pricing_plan_id":"cebpf4jnsgd1na2vs0mg"},{"bike_id":"d311ffc7-6d26-41ec-96e5-fc35ec52cdc7","system_id":"levelo_inurba_marseille","lat":43.32339,"lon":5.36704,"is_reserved":false,"is_disabled":false,"rental_uris":{"android":"levelo://app?vid=d311ffc7-6d26-41ec-96e5-fc35ec52cdc7","ios":"levelo://app?vid=d311ffc7-6d26-41ec-96e5-fc35ec52cdc7"},"vehicle_type_id":"4","last_reported":1768738887,"current_range_meters":7200,"station_id":"","pricing_plan_id":"cebpf4jnsgd1na2vs0mg"},{"bike_id":"132d2f49-bf2d-4fdc-8224-9766c2457bfd","system_id":"levelo_inurba_marseille","lat":43.26042,"lon":5.39399,"is_reserved":false,"is_disabled":false,"rental_uris":{"android":"levelo://app?vid=132d2f49-bf2d-4fdc-8224-9766c2457bfd","ios":"levelo://app?vid=132d2f49-bf2d-4fdc-8224-9766c2457bfd"},"vehicle_type_id":"4","last_reported":1768738887,"current_range_meters":7200,"station_id":"ce4bhh92rcd13ifvqfj0","pricing_plan_id":"cebpf4jnsgd1na2vs0mg"},{"bike_id":"b28a97c3-16e4-4be8-8147-34db1e170408","system_id":"levelo_inurba_marseille","lat":43.281464,"lon":5.42647,"is_reserved":false,"is_disabled":false,"rental_uris":{"android":"levelo://app?vid=b28a97c3-16e4-4be8-8147-34db1e170408","ios":"levelo://app?vid=b28a97c3-16e4-4be8-8147-34db1e170408"},"vehicle_type_id":"4","last_reported":1768738887,"current_range_meters":7200,"station_id":"ce4bhnh2rcd13ifvqgug","pricing_plan_id":"cebpf4jnsgd1na2vs0mg"},{"bike_id":"07bb76d4-422a-4c87-90ad-e08ace96a760","system_id":"levelo_inurba_marseille","lat":43.2441,"lon":5.4008,"is_reserved":false,"is_disabled":false,"rental_uris":{"android":"levelo://app?vid=07bb76d4-422a-4c87-90ad-e08ace96a760","ios":"levelo://app?vid=07bb76d4-422a-4c87-90ad-e08ace96a760"},"vehicle_type_id":"4","last_reported":1768738887,"current_range_meters":7200,"station_id":"","pricing_plan_id":"cebpf4jnsgd1na2vs0mg"},{"bike_id":"724da048-f937-4446-a0b2-3f881c76c59a","system_id":"levelo_inurba_marseille","lat":43.2815,"lon":5.42641,"is_reserved":false,"is_disabled":false,"rental_uris":{"android":"levelo://app?vid=724da048-f937-4446-a0b2-3f881c76c59a","ios":"levelo://app?vid=724da048-f937-4446-a0b2-3f881c76c59a"},"vehicle_type_id":"4","last_reported":1768738887,"current_range_meters":7200,"station_id":"ce4bhnh2rcd13ifvqgug","pricing_plan_id":"cebpf4jnsgd1na2vs0mg"},{"bike_id":"848b23ea-2c41-462c-8a29-ee9c18139e8c","system_id":"levelo_inurba_marseille","lat":43.3122,"lon":5.368568,"is_reserved":false,"is_disabled":false,"rental_uris":{"android":"levelo://app?vid=848b23ea-2c41-462c-8a29-ee9c18139e8c","ios":"levelo://app?vid=848b23ea-2c41-462c-8a29-ee9c18139e8c"},"vehicle_type_id":"4","last_reported":1768738887,"current_range_meters":7200,"station_id":"ce4bgl92rcd13ifvqbq0","pricing_plan_id":"cebpf4jnsgd1na2vs0mg"},{"bike_id":"894a0977-5656-4a03-aa3f-1587f7cf7530","system_id":"levelo_inurba_marseille","lat":43.32534,"lon":5.41126,"is_reserved":false,"is_disabled":false,"rental_uris":{"android":"levelo://app?vid=894a0977-5656-4a03-aa3f-1587f7cf7530","ios":"levelo://app?vid=894a0977-5656-4a03-aa3f-1587f7cf7530"},"vehicle_type_id":"4","last_reported":1768738887,"current_range_meters":7200,"station_id":"","pricing_plan_id":"cebpf4jnsgd1na2vs0mg"},{"bike_id":"4524d095-6fd1-404d-ba9c-5bec365b4323","system_id":"levelo_inurba_marseille","lat":43.28868,"lon":5.42527,"is_reserved":false,"is_disabled":false,"rental_uris":{"android":"levelo://app?vid=4524d095-6fd1-404d-ba9c-5bec365b4323","ios":"levelo://app?vid=4524d095-6fd1-404d-ba9c-5bec365b4323"},"vehicle_type_id":"4","last_reported":1768738887,"current_range_meters":7200,"station_id":"st_d3b462108ojc7389ooeg","pricing_plan_id":"cebpf4jnsgd1na2vs0mg"},{"bike_id":"2b38c1fe-7b40-40b3-a3f9-5013de1a9ac2","system_id":"levelo_inurba_marseille","lat":43.26214,"lon":5.3745,"is_reserved":false,"is_disabled":false,"rental_uris":{"android":"levelo://app?vid=2b38c1fe-7b40-40b3-a3f9-5013de1a9ac2","ios":"levelo://app?vid=2b38c1fe-7b40-40b3-a3f9-5013de1a9ac2"},"vehicle_type_id":"4","last_reported":1768738887,"current_range_meters":8000,"station_id":"ce4bhgp2rcd13ifvqfc0","pricing_plan_id":"cebpf4jnsgd1na2vs0mg"},{"bike_id":"36e8ac5e-ee8e-418c-9bba-4c9b45539a7d","system_id":"levelo_inurba_marseille","lat":43.293644,"lon":5.378473,"is_reserved":false,"is_disabled":false,"rental_uris":{"android":"levelo://app?vid=36e8ac5e-ee8e-418c-9bba-4c9b45539a7d","ios":"levelo://app?vid=36e8ac5e-ee8e-418c-9bba-4c9b45539a7d"},"vehicle_type_id":"4","last_reported":1768738887,"current_range_meters":8000,"station_id":"ce4bgjh2rcd13ifvqbf0","pricing_plan_id":"cebpf4jnsgd1na2vs0mg"},{"bike_id":"c55653aa-3b40-49b8-ab2e-4981db381d01","system_id":"levelo_inurba_marseille","lat":43.279819,"lon":5.416606,"is_reserved":false,"is_disabled":false,"rental_uris":{"android":"levelo://app?vid=c55653aa-3b40-49b8-ab2e-4981db381d01","ios":"levelo://app?vid=c55653aa-3b40-49b8-ab2e-4981db381d01"},"vehicle_type_id":"4","last_reported":1768738887,"current_range_meters":8000,"station_id":"ce4bho12rcd13ifvqh1g","pricing_plan_id":"cebpf4jnsgd1na2vs0mg"},{"bike_id":"15783ada-2900-4389-8e59-9733596d6397","system_id":"levelo_inurba_marseille","lat":43.28473,"lon":5.35885,"is_reserved":false,"is_disabled":false,"rental_uris":{"android":"levelo://app?vid=15783ada-2900-4389-8e59-9733596d6397","ios":"levelo://app?vid=15783ada-2900-4389-8e59-9733596d6397"},"vehicle_type_id":"4","last_reported":1768738887,"current_range_meters":8000,"station_id":"ce4bhah2rcd13ifvqei0","pricing_plan_id":"cebpf4jnsgd1na2vs0mg"},{"bike_id":"6c301bf0-7eab-460b-832f-b35b9d28584f","system_id":"levelo_inurba_marseille","lat":43.27171,"lon":5.41002,"is_reserved":false,"is_disabled":false,"rental_uris":{"android":"levelo://app?vid=6c301bf0-7eab-460b-832f-b35b9d28584f","ios":"levelo://app?vid=6c301bf0-7eab-460b-832f-b35b9d28584f"},"vehicle_type_id":"4","last_reported":1768738887,"current_range_meters":8000,"station_id":"ce4bhl12rcd13ifvqgf0","pricing_plan_id":"cebpf4jnsgd1na2vs0mg"},{"bike_id":"24160edd-d39f-4289-876a-e9144f93a2c6","system_id":"levelo_inurba_marseille","lat":43.32361,"lon":5.36717,"is_reserved":false,"is_disabled":false,"rental_uris":{"android":"levelo://app?vid=24160edd-d39f-4289-876a-e9144f93a2c6","ios":"levelo://app?vid=24160edd-d39f-4289-876a-e9144f93a2c6"},"vehicle_type_id":"4","last_reported":1768738887,"current_range_meters":8000,"station_id":"ce4bhsh2rcd13ifvqi2g","pricing_plan_id":"cebpf4jnsgd1na2vs0mg"},{"bike_id":"624b55bb-4d49-4da2-97ee-cc0f0e7da638","system_id":"levelo_inurba_marseille","lat":43.25102,"lon":5.3953,"is_reserved":false,"is_disabled":false,"rental_uris":{"android":"levelo://app?vid=624b55bb-4d49-4da2-97ee-cc0f0e7da638","ios":"levelo://app?vid=624b55bb-4d49-4da2-97ee-cc0f0e7da638"},"vehicle_type_id":"4","last_reported":1768738887,"current_range_meters":8000,"station_id":"ce4bhm12rcd13ifvqgkg","pricing_plan_id":"cebpf4jnsgd1na2vs0mg"},{"bike_id":"f9650e24-8048-44b3-9275-13d881c210a3","system_id":"levelo_inurba_marseille","lat":43.30272,"lon":5.377,"is_reserved":false,"is_disabled":false,"rental_uris":{"android":"levelo://app?vid=f9650e24-8048-44b3-9275-13d881c210a3","ios":"levelo://app?vid=f9650e24-8048-44b3-9275-13d881c210a3"},"vehicle_type_id":"4","last_reported":1768738887,"current_range_meters":8000,"station_id":"ce4bguh2rcd13ifvqcj0","pricing_plan_id":"cebpf4jnsgd1na2vs0mg"},{"bike_id":"02bf7a4c-8844-41f4-9ad9-8ab41f7538c4","system_id":"levelo_inurba_marseille","lat":43.30959,"lon":5.39043,"is_reserved":false,"is_disabled":true,"rental_uris":{"android":"levelo://app?vid=02bf7a4c-8844-41f4-9ad9-8ab41f7538c4","ios":"levelo://app?vid=02bf7a4c-8844-41f4-9ad9-8ab41f7538c4"},"vehicle_type_id":"4","last_reported":1768738887,"current_range_meters":8000,"station_id":"ce4bgup2rcd13ifvqco0","pricing_plan_id":"cebpf4jnsgd1na2vs0mg"},{"bike_id":"c6b7d41c-17d5-4d4d-98f7-04f5d62108df","system_id":"levelo_inurba_marseille","lat":43.225563,"lon":5.416261,"is_reserved":false,"is_disabled":true,"rental_uris":{"android":"levelo://app?vid=c6b7d41c-17d5-4d4d-98f7-04f5d62108df","ios":"levelo://app?vid=c6b7d41c-17d5-4d4d-98f7-04f5d62108df"},"vehicle_type_id":"4","last_reported":1768738887,"current_range_meters":8000,"station_id":"st_d2o4gvlbi1j2169b742g","pricing_plan_id":"cebpf4jnsgd1na2vs0mg"},{"bike_id":"0097fcec-3ef8-4a54-a633-d601d851c5c2","system_id":"levelo_inurba_marseille","lat":43.2495,"lon":5.40488,"is_reserved":false,"is_disabled":false,"rental_uris":{"android":"levelo://app?vid=0097fcec-3ef8-4a54-a633-d601d851c5c2","ios":"levelo://app?vid=0097fcec-3ef8-4a54-a633-d601d851c5c2"},"vehicle_type_id":"4","last_reported":1768738887,"current_range_meters":8000,"station_id":"st_d2ngiaodas8pm72gd1h0","pricing_plan_id":"cebpf4jnsgd1na2vs0mg"},{"bike_id":"4a28a0a5-92a3-4f41-871e-f75bf8fb68f3","system_id":"levelo_inurba_marseille","lat":43.30396,"lon":5.40976,"is_reserved":false,"is_disabled":false,"rental_uris":{"android":"levelo://app?vid=4a28a0a5-92a3-4f41-871e-f75bf8fb68f3","ios":"levelo://app?vid=4a28a0a5-92a3-4f41-871e-f75bf8fb68f3"},"vehicle_type_id":"4","last_reported":1768738887,"current_range_meters":8000,"station_id":"","pricing_plan_id":"cebpf4jnsgd1na2vs0mg"},{"bike_id":"a45dd6a0-af1d-4f5e-806f-5585f139de9a","system_id":"levelo_inurba_marseille","lat":43.28866,"lon":5.42521,"is_reserved":false,"is_disabled":false,"rental_uris":{"android":"levelo://app?vid=a45dd6a0-af1d-4f5e-806f-5585f139de9a","ios":"levelo://app?vid=a45dd6a0-af1d-4f5e-806f-5585f139de9a"},"vehicle_type_id":"4","last_reported":1768738887,"current_range_meters":8000,"station_id":"st_d3b462108ojc7389ooeg","pricing_plan_id":"cebpf4jnsgd1na2vs0mg"},{"bike_id":"aa648442-ea0f-4284-b119-78b9aeb4ca5c","system_id":"levelo_inurba_marseille","lat":43.30536,"lon":5.36699,"is_reserved":false,"is_disabled":false,"rental_uris":{"android":"levelo://app?vid=aa648442-ea0f-4284-b119-78b9aeb4ca5c","ios":"levelo://app?vid=aa648442-ea0f-4284-b119-78b9aeb4ca5c"},"vehicle_type_id":"4","last_reported":1768738887,"current_range_meters":8400,"station_id":"ce4bgrp2rcd13ifvqc9g","pricing_plan_id":"cebpf4jnsgd1na2vs0mg"},{"bike_id":"c978491e-4f9a-40e3-8365-8371dd595780","system_id":"levelo_inurba_marseille","lat":43.29558,"lon":5.37515,"is_reserved":false,"is_disabled":false,"rental_uris":{"android":"levelo://app?vid=c978491e-4f9a-40e3-8365-8371dd595780","ios":"levelo://app?vid=c978491e-4f9a-40e3-8365-8371dd595780"},"vehicle_type_id":"4","last_reported":1768738887,"current_range_meters":8400,"station_id":"ce4bgh92rcd13ifvqb50","pricing_plan_id":"cebpf4jnsgd1na2vs0mg"},{"bike_id":"53e3bdc2-3350-4597-b889-679f95ce65f7","system_id":"levelo_inurba_marseille","lat":43.284725,"lon":5.384184,"is_reserved":false,"is_disabled":false,"rental_uris":{"android":"levelo://app?vid=53e3bdc2-3350-4597-b889-679f95ce65f7","ios":"levelo://app?vid=53e3bdc2-3350-4597-b889-679f95ce65f7"},"vehicle_type_id":"4","last_reported":1768738887,"current_range_meters":8400,"station_id":"","pricing_plan_id":"cebpf4jnsgd1na2vs0mg"},{"bike_id":"ff839314-dbe7-407b-b40a-0a369c1d2176","system_id":"levelo_inurba_marseille","lat":43.29243,"lon":5.38456,"is_reserved":false,"is_disabled":false,"rental_uris":{"android":"levelo://app?vid=ff839314-dbe7-407b-b40a-0a369c1d2176","ios":"levelo://app?vid=ff839314-dbe7-407b-b40a-0a369c1d2176"},"vehicle_type_id":"4","last_reported":1768738887,"current_range_meters":8400,"station_id":"ce4bh692rcd13ifvqea0","pricing_plan_id":"cebpf4jnsgd1na2vs0mg"},{"bike_id":"02ab98c5-1cd1-4d33-a034-5f5e1f65b38a","system_id":"levelo_inurba_marseille","lat":43.28492,"lon":5.48396,"is_reserved":false,"is_disabled":false,"rental_uris":{"android":"levelo://app?vid=02ab98c5-1cd1-4d33-a034-5f5e1f65b38a","ios":"levelo://app?vid=02ab98c5-1cd1-4d33-a034-5f5e1f65b38a"},"vehicle_type_id":"4","last_reported":1768738887,"current_range_meters":8400,"station_id":"","pricing_plan_id":"cebpf4jnsgd1na2vs0mg"},{"bike_id":"0ce0627c-d1fb-49bc-bdc9-83f5e5c81260","system_id":"levelo_inurba_marseille","lat":43.29632,"lon":5.40601,"is_reserved":false,"is_disabled":false,"rental_uris":{"android":"levelo://app?vid=0ce0627c-d1fb-49bc-bdc9-83f5e5c81260","ios":"levelo://app?vid=0ce0627c-d1fb-49bc-bdc9-83f5e5c81260"},"vehicle_type_id":"4","last_reported":1768738887,"current_range_meters":8400,"station_id":"ce4bh0h2rcd13ifvqd60","pricing_plan_id":"cebpf4jnsgd1na2vs0mg"},{"bike_id":"ab74dafd-bdde-4806-9312-7ac8c28f3c12","system_id":"levelo_inurba_marseille","lat":43.288596,"lon":5.425177,"is_reserved":false,"is_disabled":false,"rental_uris":{"android":"levelo://app?vid=ab74dafd-bdde-4806-9312-7ac8c28f3c12","ios":"levelo://app?vid=ab74dafd-bdde-4806-9312-7ac8c28f3c12"},"vehicle_type_id":"4","last_reported":1768738887,"current_range_meters":8400,"station_id":"st_d3b462108ojc7389ooeg","pricing_plan_id":"cebpf4jnsgd1na2vs0mg"},{"bike_id":"41d3f52b-e694-437f-a834-c894806c481f","system_id":"levelo_inurba_marseille","lat":43.301361,"lon":5.398684,"is_reserved":false,"is_disabled":false,"rental_uris":{"android":"levelo://app?vid=41d3f52b-e694-437f-a834-c894806c481f","ios":"levelo://app?vid=41d3f52b-e694-437f-a834-c894806c481f"},"vehicle_type_id":"4","last_reported":1768738887,"current_range_meters":8400,"station_id":"ce4bh0h2rcd13ifvqd40","pricing_plan_id":"cebpf4jnsgd1na2vs0mg"},{"bike_id":"25892a9b-4cb5-4caf-b7e9-8f0885e7f825","system_id":"levelo_inurba_marseille","lat":43.25499,"lon":5.37653,"is_reserved":false,"is_disabled":false,"rental_uris":{"android":"levelo://app?vid=25892a9b-4cb5-4caf-b7e9-8f0885e7f825","ios":"levelo://app?vid=25892a9b-4cb5-4caf-b7e9-8f0885e7f825"},"vehicle_type_id":"4","last_reported":1768738887,"current_range_meters":8400,"station_id":"ce4bhh12rcd13ifvqff0","pricing_plan_id":"cebpf4jnsgd1na2vs0mg"},{"bike_id":"f6adf0c1-f5b5-44a2-95f0-fade2e340101","system_id":"levelo_inurba_marseille","lat":43.27832,"lon":5.40739,"is_reserved":false,"is_disabled":false,"rental_uris":{"android":"levelo://app?vid=f6adf0c1-f5b5-44a2-95f0-fade2e340101","ios":"levelo://app?vid=f6adf0c1-f5b5-44a2-95f0-fade2e340101"},"vehicle_type_id":"4","last_reported":1768738887,"current_range_meters":8400,"station_id":"ce4bhnh2rcd13ifvqgtg","pricing_plan_id":"cebpf4jnsgd1na2vs0mg"},{"bike_id":"e4673345-b12b-41a6-851b-d8e241ebb64e","system_id":"levelo_inurba_marseille","lat":43.2495,"lon":5.40488,"is_reserved":false,"is_disabled":false,"rental_uris":{"android":"levelo://app?vid=e4673345-b12b-41a6-851b-d8e241ebb64e","ios":"levelo://app?vid=e4673345-b12b-41a6-851b-d8e241ebb64e"},"vehicle_type_id":"4","last_reported":1768738887,"current_range_meters":8400,"station_id":"st_d2ngiaodas8pm72gd1h0","pricing_plan_id":"cebpf4jnsgd1na2vs0mg"},{"bike_id":"188ddf0c-9342-4a01-adec-cfd17e6030b0","system_id":"levelo_inurba_marseille","lat":43.23786,"lon":5.36632,"is_reserved":false,"is_disabled":false,"rental_uris":{"android":"levelo://app?vid=188ddf0c-9342-4a01-adec-cfd17e6030b0","ios":"levelo://app?vid=188ddf0c-9342-4a01-adec-cfd17e6030b0"},"vehicle_type_id":"4","last_reported":1768738887,"current_range_meters":8800,"station_id":"st_d3nk18o9ro0c73en2l3g","pricing_plan_id":"cebpf4jnsgd1na2vs0mg"},{"bike_id":"07bfd20b-f57f-4def-b2f0-1e693474cbde","system_id":"levelo_inurba_marseille","lat":43.25487,"lon":5.37639,"is_reserved":false,"is_disabled":false,"rental_uris":{"android":"levelo://app?vid=07bfd20b-f57f-4def-b2f0-1e693474cbde","ios":"levelo://app?vid=07bfd20b-f57f-4def-b2f0-1e693474cbde"},"vehicle_type_id":"4","last_reported":1768738887,"current_range_meters":8800,"station_id":"ce4bhh12rcd13ifvqff0","pricing_plan_id":"cebpf4jnsgd1na2vs0mg"},{"bike_id":"9f8f809b-c4ff-4523-afb7-24b38c89dd22","system_id":"levelo_inurba_marseille","lat":43.31477,"lon":5.37283,"is_reserved":false,"is_disabled":false,"rental_uris":{"android":"levelo://app?vid=9f8f809b-c4ff-4523-afb7-24b38c89dd22","ios":"levelo://app?vid=9f8f809b-c4ff-4523-afb7-24b38c89dd22"},"vehicle_type_id":"4","last_reported":1768738887,"current_range_meters":8800,"station_id":"ce4bgt12rcd13ifvqcd0","pricing_plan_id":"cebpf4jnsgd1na2vs0mg"},{"bike_id":"d135c9ef-044b-4d56-8af4-7795f4e97dae","system_id":"levelo_inurba_marseille","lat":43.30955,"lon":5.39045,"is_reserved":false,"is_disabled":false,"rental_uris":{"android":"levelo://app?vid=d135c9ef-044b-4d56-8af4-7795f4e97dae","ios":"levelo://app?vid=d135c9ef-044b-4d56-8af4-7795f4e97dae"},"vehicle_type_id":"4","last_reported":1768738887,"current_range_meters":8800,"station_id":"ce4bgup2rcd13ifvqco0","pricing_plan_id":"cebpf4jnsgd1na2vs0mg"},{"bike_id":"5bab7825-5c50-4c8f-baf3-891acf636d42","system_id":"levelo_inurba_marseille","lat":43.23189,"lon":5.39979,"is_reserved":false,"is_disabled":false,"rental_uris":{"android":"levelo://app?vid=5bab7825-5c50-4c8f-baf3-891acf636d42","ios":"levelo://app?vid=5bab7825-5c50-4c8f-baf3-891acf636d42"},"vehicle_type_id":"4","last_reported":1768738887,"current_range_meters":8800,"station_id":"ce4bhn12rcd13ifvqgqg","pricing_plan_id":"cebpf4jnsgd1na2vs0mg"},{"bike_id":"5037036f-188b-4c9c-9f7e-772a64c012d7","system_id":"levelo_inurba_marseille","lat":43.24165,"lon":5.39737,"is_reserved":false,"is_disabled":false,"rental_uris":{"android":"levelo://app?vid=5037036f-188b-4c9c-9f7e-772a64c012d7","ios":"levelo://app?vid=5037036f-188b-4c9c-9f7e-772a64c012d7"},"vehicle_type_id":"4","last_reported":1768738887,"current_range_meters":8800,"station_id":"ce4bhn12rcd13ifvqgpg","pricing_plan_id":"cebpf4jnsgd1na2vs0mg"},{"bike_id":"825dbe6a-05ff-42c5-b686-988034ec5c97","system_id":"levelo_inurba_marseille","lat":43.27943,"lon":5.41045,"is_reserved":false,"is_disabled":true,"rental_uris":{"android":"levelo://app?vid=825dbe6a-05ff-42c5-b686-988034ec5c97","ios":"levelo://app?vid=825dbe6a-05ff-42c5-b686-988034ec5c97"},"vehicle_type_id":"4","last_reported":1768738887,"current_range_meters":8800,"station_id":"ce4bhnp2rcd13ifvqh0g","pricing_plan_id":"cebpf4jnsgd1na2vs0mg"},{"bike_id":"2e4ee5e8-6d91-467b-8480-688c2671b88d","system_id":"levelo_inurba_marseille","lat":43.2783,"lon":5.40736,"is_reserved":false,"is_disabled":false,"rental_uris":{"android":"levelo://app?vid=2e4ee5e8-6d91-467b-8480-688c2671b88d","ios":"levelo://app?vid=2e4ee5e8-6d91-467b-8480-688c2671b88d"},"vehicle_type_id":"4","last_reported":1768738887,"current_range_meters":8800,"station_id":"ce4bhnh2rcd13ifvqgtg","pricing_plan_id":"cebpf4jnsgd1na2vs0mg"},{"bike_id":"87f35a5d-485c-42c0-a0d6-d17c180ada41","system_id":"levelo_inurba_marseille","lat":43.24172,"lon":5.36398,"is_reserved":false,"is_disabled":false,"rental_uris":{"android":"levelo://app?vid=87f35a5d-485c-42c0-a0d6-d17c180ada41","ios":"levelo://app?vid=87f35a5d-485c-42c0-a0d6-d17c180ada41"},"vehicle_type_id":"4","last_reported":1768738887,"current_range_meters":8800,"station_id":"cpo36qri1sfpv3e86is0","pricing_plan_id":"cebpf4jnsgd1na2vs0mg"},{"bike_id":"3e1b0ae8-bc2e-47bc-9eec-b1e55fd276e4","system_id":"levelo_inurba_marseille","lat":43.28478,"lon":5.48395,"is_reserved":false,"is_disabled":false,"rental_uris":{"android":"levelo://app?vid=3e1b0ae8-bc2e-47bc-9eec-b1e55fd276e4","ios":"levelo://app?vid=3e1b0ae8-bc2e-47bc-9eec-b1e55fd276e4"},"vehicle_type_id":"4","last_reported":1768738887,"current_range_meters":8800,"station_id":"st_d3svhcjqgbts73a3dn0g","pricing_plan_id":"cebpf4jnsgd1na2vs0mg"},{"bike_id":"52d76d5a-c8fd-4dbd-b507-0ab60f5b55ae","system_id":"levelo_inurba_marseille","lat":43.2554,"lon":5.43261,"is_reserved":false,"is_disabled":false,"rental_uris":{"android":"levelo://app?vid=52d76d5a-c8fd-4dbd-b507-0ab60f5b55ae","ios":"levelo://app?vid=52d76d5a-c8fd-4dbd-b507-0ab60f5b55ae"},"vehicle_type_id":"4","last_reported":1768738887,"current_range_meters":8800,"station_id":"","pricing_plan_id":"cebpf4jnsgd1na2vs0mg"},{"bike_id":"997bd131-bc4b-4ed3-be50-234bd23db618","system_id":"levelo_inurba_marseille","lat":43.23782,"lon":5.36631,"is_reserved":false,"is_disabled":false,"rental_uris":{"android":"levelo://app?vid=997bd131-bc4b-4ed3-be50-234bd23db618","ios":"levelo://app?vid=997bd131-bc4b-4ed3-be50-234bd23db618"},"vehicle_type_id":"4","last_reported":1768738887,"current_range_meters":8800,"station_id":"st_d3nk18o9ro0c73en2l3g","pricing_plan_id":"cebpf4jnsgd1na2vs0mg"},{"bike_id":"b650bd26-1c03-4218-b6a8-3ab8e73cd1ab","system_id":"levelo_inurba_marseille","lat":43.26212,"lon":5.37446,"is_reserved":false,"is_disabled":false,"rental_uris":{"android":"levelo://app?vid=b650bd26-1c03-4218-b6a8-3ab8e73cd1ab","ios":"levelo://app?vid=b650bd26-1c03-4218-b6a8-3ab8e73cd1ab"},"vehicle_type_id":"4","last_reported":1768738887,"current_range_meters":8800,"station_id":"ce4bhgp2rcd13ifvqfc0","pricing_plan_id":"cebpf4jnsgd1na2vs0mg"},{"bike_id":"7694ecf5-4074-4a2e-9e22-83167db58ba4","system_id":"levelo_inurba_marseille","lat":43.31107,"lon":5.37782,"is_reserved":false,"is_disabled":false,"rental_uris":{"android":"levelo://app?vid=7694ecf5-4074-4a2e-9e22-83167db58ba4","ios":"levelo://app?vid=7694ecf5-4074-4a2e-9e22-83167db58ba4"},"vehicle_type_id":"4","last_reported":1768738887,"current_range_meters":8800,"station_id":"ce4bgt92rcd13ifvqcg0","pricing_plan_id":"cebpf4jnsgd1na2vs0mg"},{"bike_id":"da3c4aca-37e7-4c63-a18e-04f09b3ed01f","system_id":"levelo_inurba_marseille","lat":43.27948,"lon":5.41059,"is_reserved":false,"is_disabled":false,"rental_uris":{"android":"levelo://app?vid=da3c4aca-37e7-4c63-a18e-04f09b3ed01f","ios":"levelo://app?vid=da3c4aca-37e7-4c63-a18e-04f09b3ed01f"},"vehicle_type_id":"4","last_reported":1768738887,"current_range_meters":8800,"station_id":"","pricing_plan_id":"cebpf4jnsgd1na2vs0mg"},{"bike_id":"7007b3fe-b69a-4760-8ecb-3b3439d1132e","system_id":"levelo_inurba_marseille","lat":43.265675,"lon":5.390078,"is_reserved":false,"is_disabled":false,"rental_uris":{"android":"levelo://app?vid=7007b3fe-b69a-4760-8ecb-3b3439d1132e","ios":"levelo://app?vid=7007b3fe-b69a-4760-8ecb-3b3439d1132e"},"vehicle_type_id":"4","last_reported":1768738887,"current_range_meters":8800,"station_id":"ce4bhe12rcd13ifvqf30","pricing_plan_id":"cebpf4jnsgd1na2vs0mg"},{"bike_id":"ffbe9b93-d297-498d-b2a3-07ab4ea9a5fd","system_id":"levelo_inurba_marseille","lat":43.31181,"lon":5.38719,"is_reserved":false,"is_disabled":false,"rental_uris":{"android":"levelo://app?vid=ffbe9b93-d297-498d-b2a3-07ab4ea9a5fd","ios":"levelo://app?vid=ffbe9b93-d297-498d-b2a3-07ab4ea9a5fd"},"vehicle_type_id":"4","last_reported":1768738887,"current_range_meters":8800,"station_id":"ce4bgv12rcd13ifvqcp0","pricing_plan_id":"cebpf4jnsgd1na2vs0mg"},{"bike_id":"9f75246e-7652-4c10-9d95-1878eec806ec","system_id":"levelo_inurba_marseille","lat":43.25576,"lon":5.3824,"is_reserved":false,"is_disabled":false,"rental_uris":{"android":"levelo://app?vid=9f75246e-7652-4c10-9d95-1878eec806ec","ios":"levelo://app?vid=9f75246e-7652-4c10-9d95-1878eec806ec"},"vehicle_type_id":"4","last_reported":1768738887,"current_range_meters":8800,"station_id":"ce4bhih2rcd13ifvqfs0","pricing_plan_id":"cebpf4jnsgd1na2vs0mg"},{"bike_id":"d61d55f2-38b3-47bf-8db3-dd8829f32d8f","system_id":"levelo_inurba_marseille","lat":43.285247,"lon":5.441017,"is_reserved":false,"is_disabled":false,"rental_uris":{"android":"levelo://app?vid=d61d55f2-38b3-47bf-8db3-dd8829f32d8f","ios":"levelo://app?vid=d61d55f2-38b3-47bf-8db3-dd8829f32d8f"},"vehicle_type_id":"4","last_reported":1768738887,"current_range_meters":8800,"station_id":"st_d3j3df2ikq2c7380ej80","pricing_plan_id":"cebpf4jnsgd1na2vs0mg"},{"bike_id":"e9c8cf4b-ef98-456b-84d3-fe8ebdb0e3d4","system_id":"levelo_inurba_marseille","lat":43.31358,"lon":5.38503,"is_reserved":false,"is_disabled":false,"rental_uris":{"android":"levelo://app?vid=e9c8cf4b-ef98-456b-84d3-fe8ebdb0e3d4","ios":"levelo://app?vid=e9c8cf4b-ef98-456b-84d3-fe8ebdb0e3d4"},"vehicle_type_id":"4","last_reported":1768738887,"current_range_meters":9200,"station_id":"ce4bgt92rcd13ifvqcf0","pricing_plan_id":"cebpf4jnsgd1na2vs0mg"},{"bike_id":"f3593c5d-778d-4c82-8dd3-04e29f0fa7e0","system_id":"levelo_inurba_marseille","lat":43.30798,"lon":5.38162,"is_reserved":false,"is_disabled":false,"rental_uris":{"android":"levelo://app?vid=f3593c5d-778d-4c82-8dd3-04e29f0fa7e0","ios":"levelo://app?vid=f3593c5d-778d-4c82-8dd3-04e29f0fa7e0"},"vehicle_type_id":"4","last_reported":1768738887,"current_range_meters":9200,"station_id":"ce4bgt12rcd13ifvqce0","pricing_plan_id":"cebpf4jnsgd1na2vs0mg"},{"bike_id":"e67e42fe-b68e-4d43-9d57-582dc6eaf5d9","system_id":"levelo_inurba_marseille","lat":43.25576,"lon":5.38251,"is_reserved":false,"is_disabled":false,"rental_uris":{"android":"levelo://app?vid=e67e42fe-b68e-4d43-9d57-582dc6eaf5d9","ios":"levelo://app?vid=e67e42fe-b68e-4d43-9d57-582dc6eaf5d9"},"vehicle_type_id":"4","last_reported":1768738887,"current_range_meters":9200,"station_id":"ce4bhih2rcd13ifvqfs0","pricing_plan_id":"cebpf4jnsgd1na2vs0mg"},{"bike_id":"34d67b7e-f34f-411c-91a6-5b1263b023cd","system_id":"levelo_inurba_marseille","lat":43.31212,"lon":5.36881,"is_reserved":false,"is_disabled":false,"rental_uris":{"android":"levelo://app?vid=34d67b7e-f34f-411c-91a6-5b1263b023cd","ios":"levelo://app?vid=34d67b7e-f34f-411c-91a6-5b1263b023cd"},"vehicle_type_id":"4","last_reported":1768738887,"current_range_meters":9200,"station_id":"ce4bgl92rcd13ifvqbq0","pricing_plan_id":"cebpf4jnsgd1na2vs0mg"},{"bike_id":"ca310899-3b5f-4d76-8134-99befad3e112","system_id":"levelo_inurba_marseille","lat":43.23195,"lon":5.35556,"is_reserved":false,"is_disabled":false,"rental_uris":{"android":"levelo://app?vid=ca310899-3b5f-4d76-8134-99befad3e112","ios":"levelo://app?vid=ca310899-3b5f-4d76-8134-99befad3e112"},"vehicle_type_id":"4","last_reported":1768738887,"current_range_meters":9200,"station_id":"ce4bhu92rcd13ifvqi70","pricing_plan_id":"cebpf4jnsgd1na2vs0mg"},{"bike_id":"1f3c7c92-9b14-48ec-a5c9-372619c575ee","system_id":"levelo_inurba_marseille","lat":43.28444,"lon":5.3921,"is_reserved":false,"is_disabled":false,"rental_uris":{"android":"levelo://app?vid=1f3c7c92-9b14-48ec-a5c9-372619c575ee","ios":"levelo://app?vid=1f3c7c92-9b14-48ec-a5c9-372619c575ee"},"vehicle_type_id":"4","last_reported":1768738887,"current_range_meters":9200,"station_id":"ce4bhoh2rcd13ifvqh5g","pricing_plan_id":"cebpf4jnsgd1na2vs0mg"},{"bike_id":"6fd23585-5c21-4fc9-aee6-085311ab23dc","system_id":"levelo_inurba_marseille","lat":43.310835,"lon":5.424279,"is_reserved":false,"is_disabled":false,"rental_uris":{"android":"levelo://app?vid=6fd23585-5c21-4fc9-aee6-085311ab23dc","ios":"levelo://app?vid=6fd23585-5c21-4fc9-aee6-085311ab23dc"},"vehicle_type_id":"4","last_reported":1768738887,"current_range_meters":9200,"station_id":"ce4bhp92rcd13ifvqhag","pricing_plan_id":"cebpf4jnsgd1na2vs0mg"},{"bike_id":"0b92577a-b24a-4d46-a12b-291a143cf2ad","system_id":"levelo_inurba_marseille","lat":43.30156,"lon":5.38093,"is_reserved":false,"is_disabled":false,"rental_uris":{"android":"levelo://app?vid=0b92577a-b24a-4d46-a12b-291a143cf2ad","ios":"levelo://app?vid=0b92577a-b24a-4d46-a12b-291a143cf2ad"},"vehicle_type_id":"4","last_reported":1768738887,"current_range_meters":9200,"station_id":"ce4bgjp2rcd13ifvqbh0","pricing_plan_id":"cebpf4jnsgd1na2vs0mg"},{"bike_id":"6e51ce3f-e666-454c-9b3c-d528f5b8f635","system_id":"levelo_inurba_marseille","lat":43.28,"lon":5.40021,"is_reserved":false,"is_disabled":false,"rental_uris":{"android":"levelo://app?vid=6e51ce3f-e666-454c-9b3c-d528f5b8f635","ios":"levelo://app?vid=6e51ce3f-e666-454c-9b3c-d528f5b8f635"},"vehicle_type_id":"4","last_reported":1768738887,"current_range_meters":9200,"station_id":"ce4bho92rcd13ifvqh4g","pricing_plan_id":"cebpf4jnsgd1na2vs0mg"},{"bike_id":"405bacf0-7d07-4ec7-aad7-72e1c5147c0f","system_id":"levelo_inurba_marseille","lat":43.30857,"lon":5.37323,"is_reserved":false,"is_disabled":false,"rental_uris":{"android":"levelo://app?vid=405bacf0-7d07-4ec7-aad7-72e1c5147c0f","ios":"levelo://app?vid=405bacf0-7d07-4ec7-aad7-72e1c5147c0f"},"vehicle_type_id":"4","last_reported":1768738887,"current_range_meters":9200,"station_id":"","pricing_plan_id":"cebpf4jnsgd1na2vs0mg"},{"bike_id":"6fb838a4-f039-4f2c-b614-85808a4fdbec","system_id":"levelo_inurba_marseille","lat":43.29983,"lon":5.38477,"is_reserved":false,"is_disabled":false,"rental_uris":{"android":"levelo://app?vid=6fb838a4-f039-4f2c-b614-85808a4fdbec","ios":"levelo://app?vid=6fb838a4-f039-4f2c-b614-85808a4fdbec"},"vehicle_type_id":"4","last_reported":1768738887,"current_range_meters":9200,"station_id":"ce4bgj92rcd13ifvqbd0","pricing_plan_id":"cebpf4jnsgd1na2vs0mg"},{"bike_id":"85ed53d9-2b9b-4cfd-ae63-41618797ad59","system_id":"levelo_inurba_marseille","lat":43.27993,"lon":5.4003,"is_reserved":false,"is_disabled":false,"rental_uris":{"android":"levelo://app?vid=85ed53d9-2b9b-4cfd-ae63-41618797ad59","ios":"levelo://app?vid=85ed53d9-2b9b-4cfd-ae63-41618797ad59"},"vehicle_type_id":"4","last_reported":1768738887,"current_range_meters":9200,"station_id":"ce4bho92rcd13ifvqh4g","pricing_plan_id":"cebpf4jnsgd1na2vs0mg"},{"bike_id":"5ad9ec98-e8ba-457d-af0c-1e4ba39da5cb","system_id":"levelo_inurba_marseille","lat":43.29523,"lon":5.38549,"is_reserved":false,"is_disabled":false,"rental_uris":{"android":"levelo://app?vid=5ad9ec98-e8ba-457d-af0c-1e4ba39da5cb","ios":"levelo://app?vid=5ad9ec98-e8ba-457d-af0c-1e4ba39da5cb"},"vehicle_type_id":"4","last_reported":1768738887,"current_range_meters":9200,"station_id":"ce4bgih2rcd13ifvqba0","pricing_plan_id":"cebpf4jnsgd1na2vs0mg"},{"bike_id":"d7a7bee1-7e52-448b-8db4-293e5d040752","system_id":"levelo_inurba_marseille","lat":43.30599,"lon":5.372,"is_reserved":false,"is_disabled":false,"rental_uris":{"android":"levelo://app?vid=d7a7bee1-7e52-448b-8db4-293e5d040752","ios":"levelo://app?vid=d7a7bee1-7e52-448b-8db4-293e5d040752"},"vehicle_type_id":"4","last_reported":1768738887,"current_range_meters":9200,"station_id":"ce4bgqh2rcd13ifvqc4g","pricing_plan_id":"cebpf4jnsgd1na2vs0mg"},{"bike_id":"9ea71dd4-557a-49eb-872d-de0717506d64","system_id":"levelo_inurba_marseille","lat":43.23195,"lon":5.35551,"is_reserved":false,"is_disabled":false,"rental_uris":{"android":"levelo://app?vid=9ea71dd4-557a-49eb-872d-de0717506d64","ios":"levelo://app?vid=9ea71dd4-557a-49eb-872d-de0717506d64"},"vehicle_type_id":"4","last_reported":1768738887,"current_range_meters":9200,"station_id":"ce4bhu92rcd13ifvqi70","pricing_plan_id":"cebpf4jnsgd1na2vs0mg"},{"bike_id":"99eb7f6e-7d47-4fe7-a5ad-44af0b5818fb","system_id":"levelo_inurba_marseille","lat":43.24086,"lon":5.39729,"is_reserved":false,"is_disabled":false,"rental_uris":{"android":"levelo://app?vid=99eb7f6e-7d47-4fe7-a5ad-44af0b5818fb","ios":"levelo://app?vid=99eb7f6e-7d47-4fe7-a5ad-44af0b5818fb"},"vehicle_type_id":"4","last_reported":1768738887,"current_range_meters":9200,"station_id":"","pricing_plan_id":"cebpf4jnsgd1na2vs0mg"},{"bike_id":"ec84f853-3c1e-432f-84f1-c7932f803205","system_id":"levelo_inurba_marseille","lat":43.24473,"lon":5.42533,"is_reserved":false,"is_disabled":false,"rental_uris":{"android":"levelo://app?vid=ec84f853-3c1e-432f-84f1-c7932f803205","ios":"levelo://app?vid=ec84f853-3c1e-432f-84f1-c7932f803205"},"vehicle_type_id":"4","last_reported":1768738887,"current_range_meters":9200,"station_id":"st_d4a3vfp97mjs738cd8kg","pricing_plan_id":"cebpf4jnsgd1na2vs0mg"},{"bike_id":"80dd23a5-0dde-4636-a849-634c5c6760f9","system_id":"levelo_inurba_marseille","lat":43.2411,"lon":5.37868,"is_reserved":false,"is_disabled":false,"rental_uris":{"android":"levelo://app?vid=80dd23a5-0dde-4636-a849-634c5c6760f9","ios":"levelo://app?vid=80dd23a5-0dde-4636-a849-634c5c6760f9"},"vehicle_type_id":"4","last_reported":1768738887,"current_range_meters":9200,"station_id":"","pricing_plan_id":"cebpf4jnsgd1na2vs0mg"},{"bike_id":"addd09a5-2b93-4a35-8f42-e6b3857520e9","system_id":"levelo_inurba_marseille","lat":43.30153,"lon":5.38105,"is_reserved":false,"is_disabled":false,"rental_uris":{"android":"levelo://app?vid=addd09a5-2b93-4a35-8f42-e6b3857520e9","ios":"levelo://app?vid=addd09a5-2b93-4a35-8f42-e6b3857520e9"},"vehicle_type_id":"4","last_reported":1768738887,"current_range_meters":9200,"station_id":"ce4bgjp2rcd13ifvqbh0","pricing_plan_id":"cebpf4jnsgd1na2vs0mg"},{"bike_id":"a54d5df4-8e04-455c-aff5-6470c2bee2e4","system_id":"levelo_inurba_marseille","lat":43.27999,"lon":5.38478,"is_reserved":false,"is_disabled":false,"rental_uris":{"android":"levelo://app?vid=a54d5df4-8e04-455c-aff5-6470c2bee2e4","ios":"levelo://app?vid=a54d5df4-8e04-455c-aff5-6470c2bee2e4"},"vehicle_type_id":"4","last_reported":1768738887,"current_range_meters":9600,"station_id":"","pricing_plan_id":"cebpf4jnsgd1na2vs0mg"},{"bike_id":"09105b5f-3c1b-4262-b05c-2ed28916e5be","system_id":"levelo_inurba_marseille","lat":43.2534,"lon":5.42166,"is_reserved":false,"is_disabled":false,"rental_uris":{"android":"levelo://app?vid=09105b5f-3c1b-4262-b05c-2ed28916e5be","ios":"levelo://app?vid=09105b5f-3c1b-4262-b05c-2ed28916e5be"},"vehicle_type_id":"4","last_reported":1768738887,"current_range_meters":9600,"station_id":"st_d2m65c5bi1j21697t3ng","pricing_plan_id":"cebpf4jnsgd1na2vs0mg"},{"bike_id":"e0b3d136-4efd-4410-be5e-53b3cc12c4c3","system_id":"levelo_inurba_marseille","lat":43.26053,"lon":5.38643,"is_reserved":false,"is_disabled":false,"rental_uris":{"android":"levelo://app?vid=e0b3d136-4efd-4410-be5e-53b3cc12c4c3","ios":"levelo://app?vid=e0b3d136-4efd-4410-be5e-53b3cc12c4c3"},"vehicle_type_id":"4","last_reported":1768738887,"current_range_meters":9600,"station_id":"","pricing_plan_id":"cebpf4jnsgd1na2vs0mg"},{"bike_id":"c682988a-6f5a-4947-99b2-99a014c303fa","system_id":"levelo_inurba_marseille","lat":43.29889,"lon":5.38905,"is_reserved":false,"is_disabled":false,"rental_uris":{"android":"levelo://app?vid=c682988a-6f5a-4947-99b2-99a014c303fa","ios":"levelo://app?vid=c682988a-6f5a-4947-99b2-99a014c303fa"},"vehicle_type_id":"4","last_reported":1768738887,"current_range_meters":9600,"station_id":"ce4bh392rcd13ifvqdl0","pricing_plan_id":"cebpf4jnsgd1na2vs0mg"},{"bike_id":"3ee89ee4-ee3e-45fc-b142-d8ed7626aa99","system_id":"levelo_inurba_marseille","lat":43.28622,"lon":5.35103,"is_reserved":false,"is_disabled":false,"rental_uris":{"android":"levelo://app?vid=3ee89ee4-ee3e-45fc-b142-d8ed7626aa99","ios":"levelo://app?vid=3ee89ee4-ee3e-45fc-b142-d8ed7626aa99"},"vehicle_type_id":"4","last_reported":1768738887,"current_range_meters":9600,"station_id":"ce4bhch2rcd13ifvqeug","pricing_plan_id":"cebpf4jnsgd1na2vs0mg"},{"bike_id":"2692c150-a0c0-40f2-90c3-6786678aa239","system_id":"levelo_inurba_marseille","lat":43.31099,"lon":5.42439,"is_reserved":false,"is_disabled":false,"rental_uris":{"android":"levelo://app?vid=2692c150-a0c0-40f2-90c3-6786678aa239","ios":"levelo://app?vid=2692c150-a0c0-40f2-90c3-6786678aa239"},"vehicle_type_id":"4","last_reported":1768738887,"current_range_meters":9600,"station_id":"ce4bhp92rcd13ifvqhag","pricing_plan_id":"cebpf4jnsgd1na2vs0mg"},{"bike_id":"502976bc-a9bf-446d-890f-6b192d487131","system_id":"levelo_inurba_marseille","lat":43.26578,"lon":5.39074,"is_reserved":false,"is_disabled":false,"rental_uris":{"android":"levelo://app?vid=502976bc-a9bf-446d-890f-6b192d487131","ios":"levelo://app?vid=502976bc-a9bf-446d-890f-6b192d487131"},"vehicle_type_id":"4","last_reported":1768738887,"current_range_meters":9600,"station_id":"","pricing_plan_id":"cebpf4jnsgd1na2vs0mg"},{"bike_id":"5cccdad3-57e0-40c4-bb97-5effe42d761a","system_id":"levelo_inurba_marseille","lat":43.24811,"lon":5.37466,"is_reserved":false,"is_disabled":false,"rental_uris":{"android":"levelo://app?vid=5cccdad3-57e0-40c4-bb97-5effe42d761a","ios":"levelo://app?vid=5cccdad3-57e0-40c4-bb97-5effe42d761a"},"vehicle_type_id":"4","last_reported":1768738887,"current_range_meters":9600,"station_id":"ce4bhgh2rcd13ifvqfb0","pricing_plan_id":"cebpf4jnsgd1na2vs0mg"},{"bike_id":"f6dee482-e963-4223-be46-6a1a82c523df","system_id":"levelo_inurba_marseille","lat":43.24176,"lon":5.39709,"is_reserved":false,"is_disabled":false,"rental_uris":{"android":"levelo://app?vid=f6dee482-e963-4223-be46-6a1a82c523df","ios":"levelo://app?vid=f6dee482-e963-4223-be46-6a1a82c523df"},"vehicle_type_id":"4","last_reported":1768738887,"current_range_meters":9600,"station_id":"ce4bhn12rcd13ifvqgpg","pricing_plan_id":"cebpf4jnsgd1na2vs0mg"},{"bike_id":"9e956125-d135-4c5b-a672-b787c5ecd852","system_id":"levelo_inurba_marseille","lat":43.2418,"lon":5.39723,"is_reserved":false,"is_disabled":false,"rental_uris":{"android":"levelo://app?vid=9e956125-d135-4c5b-a672-b787c5ecd852","ios":"levelo://app?vid=9e956125-d135-4c5b-a672-b787c5ecd852"},"vehicle_type_id":"4","last_reported":1768738887,"current_range_meters":9600,"station_id":"ce4bhn12rcd13ifvqgpg","pricing_plan_id":"cebpf4jnsgd1na2vs0mg"},{"bike_id":"84d602b3-8943-4780-bcf1-164d29a27b66","system_id":"levelo_inurba_marseille","lat":43.28477,"lon":5.483978,"is_reserved":false,"is_disabled":false,"rental_uris":{"android":"levelo://app?vid=84d602b3-8943-4780-bcf1-164d29a27b66","ios":"levelo://app?vid=84d602b3-8943-4780-bcf1-164d29a27b66"},"vehicle_type_id":"4","last_reported":1768738887,"current_range_meters":9600,"station_id":"","pricing_plan_id":"cebpf4jnsgd1na2vs0mg"},{"bike_id":"80b40564-d8ca-4fba-94c7-74b7e6e95b0e","system_id":"levelo_inurba_marseille","lat":43.305411,"lon":5.365407,"is_reserved":false,"is_disabled":false,"rental_uris":{"android":"levelo://app?vid=80b40564-d8ca-4fba-94c7-74b7e6e95b0e","ios":"levelo://app?vid=80b40564-d8ca-4fba-94c7-74b7e6e95b0e"},"vehicle_type_id":"4","last_reported":1768738887,"current_range_meters":9600,"station_id":"ce4bgs12rcd13ifvqcag","pricing_plan_id":"cebpf4jnsgd1na2vs0mg"},{"bike_id":"1d845d40-bee8-4284-affc-9030247b1e56","system_id":"levelo_inurba_marseille","lat":43.22939,"lon":5.35416,"is_reserved":false,"is_disabled":false,"rental_uris":{"android":"levelo://app?vid=1d845d40-bee8-4284-affc-9030247b1e56","ios":"levelo://app?vid=1d845d40-bee8-4284-affc-9030247b1e56"},"vehicle_type_id":"4","last_reported":1768738887,"current_range_meters":9600,"station_id":"cpo3532slgdg3j2ikp40","pricing_plan_id":"cebpf4jnsgd1na2vs0mg"},{"bike_id":"d6ab83d9-f0e3-4bdf-a1c4-652a184696f5","system_id":"levelo_inurba_marseille","lat":43.2294,"lon":5.35389,"is_reserved":false,"is_disabled":false,"rental_uris":{"android":"levelo://app?vid=d6ab83d9-f0e3-4bdf-a1c4-652a184696f5","ios":"levelo://app?vid=d6ab83d9-f0e3-4bdf-a1c4-652a184696f5"},"vehicle_type_id":"4","last_reported":1768738887,"current_range_meters":9600,"station_id":"cpo3532slgdg3j2ikp40","pricing_plan_id":"cebpf4jnsgd1na2vs0mg"},{"bike_id":"ef88c352-189d-4372-beb9-7002182fbb2b","system_id":"levelo_inurba_marseille","lat":43.27983,"lon":5.39996,"is_reserved":false,"is_disabled":false,"rental_uris":{"android":"levelo://app?vid=ef88c352-189d-4372-beb9-7002182fbb2b","ios":"levelo://app?vid=ef88c352-189d-4372-beb9-7002182fbb2b"},"vehicle_type_id":"4","last_reported":1768738887,"current_range_meters":9600,"station_id":"ce4bho92rcd13ifvqh4g","pricing_plan_id":"cebpf4jnsgd1na2vs0mg"},{"bike_id":"1532d42e-38ab-4af0-9974-bda480cde4fa","system_id":"levelo_inurba_marseille","lat":43.27064,"lon":5.38305,"is_reserved":false,"is_disabled":false,"rental_uris":{"android":"levelo://app?vid=1532d42e-38ab-4af0-9974-bda480cde4fa","ios":"levelo://app?vid=1532d42e-38ab-4af0-9974-bda480cde4fa"},"vehicle_type_id":"4","last_reported":1768738887,"current_range_meters":9600,"station_id":"st_d3n2fo6cfp8s73cte1j0","pricing_plan_id":"cebpf4jnsgd1na2vs0mg"},{"bike_id":"c169b96a-f205-4703-b55c-8ccb3458c212","system_id":"levelo_inurba_marseille","lat":43.31692,"lon":5.40497,"is_reserved":false,"is_disabled":false,"rental_uris":{"android":"levelo://app?vid=c169b96a-f205-4703-b55c-8ccb3458c212","ios":"levelo://app?vid=c169b96a-f205-4703-b55c-8ccb3458c212"},"vehicle_type_id":"4","last_reported":1768738887,"current_range_meters":9600,"station_id":"ce4bh012rcd13ifvqd00","pricing_plan_id":"cebpf4jnsgd1na2vs0mg"},{"bike_id":"3019b242-daef-4adc-9001-a765b1be88a4","system_id":"levelo_inurba_marseille","lat":43.28534,"lon":5.4413,"is_reserved":false,"is_disabled":false,"rental_uris":{"android":"levelo://app?vid=3019b242-daef-4adc-9001-a765b1be88a4","ios":"levelo://app?vid=3019b242-daef-4adc-9001-a765b1be88a4"},"vehicle_type_id":"4","last_reported":1768738887,"current_range_meters":9600,"station_id":"st_d3j3df2ikq2c7380ej80","pricing_plan_id":"cebpf4jnsgd1na2vs0mg"},{"bike_id":"544bcdbb-4ade-4e28-8d58-bd0ce6c900eb","system_id":"levelo_inurba_marseille","lat":43.2533,"lon":5.42176,"is_reserved":false,"is_disabled":false,"rental_uris":{"android":"levelo://app?vid=544bcdbb-4ade-4e28-8d58-bd0ce6c900eb","ios":"levelo://app?vid=544bcdbb-4ade-4e28-8d58-bd0ce6c900eb"},"vehicle_type_id":"4","last_reported":1768738887,"current_range_meters":9600,"station_id":"st_d2m65c5bi1j21697t3ng","pricing_plan_id":"cebpf4jnsgd1na2vs0mg"},{"bike_id":"e3ab7fbc-a543-4ce6-8bfb-a545434b1568","system_id":"levelo_inurba_marseille","lat":43.28849,"lon":5.42534,"is_reserved":false,"is_disabled":false,"rental_uris":{"android":"levelo://app?vid=e3ab7fbc-a543-4ce6-8bfb-a545434b1568","ios":"levelo://app?vid=e3ab7fbc-a543-4ce6-8bfb-a545434b1568"},"vehicle_type_id":"4","last_reported":1768738887,"current_range_meters":10000,"station_id":"st_d3b462108ojc7389ooeg","pricing_plan_id":"cebpf4jnsgd1na2vs0mg"},{"bike_id":"bc5446ee-938b-4f89-b75e-21ffe1627550","system_id":"levelo_inurba_marseille","lat":43.27306,"lon":5.39124,"is_reserved":false,"is_disabled":false,"rental_uris":{"android":"levelo://app?vid=bc5446ee-938b-4f89-b75e-21ffe1627550","ios":"levelo://app?vid=bc5446ee-938b-4f89-b75e-21ffe1627550"},"vehicle_type_id":"4","last_reported":1768738887,"current_range_meters":10000,"station_id":"ce4bhgp2rcd13ifvqfe0","pricing_plan_id":"cebpf4jnsgd1na2vs0mg"},{"bike_id":"ec1861e3-cf5e-47e7-9bee-92fe639b30f4","system_id":"levelo_inurba_marseille","lat":43.24549,"lon":5.39535,"is_reserved":false,"is_disabled":false,"rental_uris":{"android":"levelo://app?vid=ec1861e3-cf5e-47e7-9bee-92fe639b30f4","ios":"levelo://app?vid=ec1861e3-cf5e-47e7-9bee-92fe639b30f4"},"vehicle_type_id":"4","last_reported":1768738887,"current_range_meters":10000,"station_id":"ce4bhlp2rcd13ifvqgjg","pricing_plan_id":"cebpf4jnsgd1na2vs0mg"},{"bike_id":"016900bc-5ac6-4330-ab84-4d755560128b","system_id":"levelo_inurba_marseille","lat":43.279571,"lon":5.399478,"is_reserved":false,"is_disabled":false,"rental_uris":{"android":"levelo://app?vid=016900bc-5ac6-4330-ab84-4d755560128b","ios":"levelo://app?vid=016900bc-5ac6-4330-ab84-4d755560128b"},"vehicle_type_id":"4","last_reported":1768738887,"current_range_meters":10000,"station_id":"","pricing_plan_id":"cebpf4jnsgd1na2vs0mg"},{"bike_id":"456fa838-bde1-41a1-bacb-725c5d31c7ed","system_id":"levelo_inurba_marseille","lat":43.27395,"lon":5.36279,"is_reserved":false,"is_disabled":false,"rental_uris":{"android":"levelo://app?vid=456fa838-bde1-41a1-bacb-725c5d31c7ed","ios":"levelo://app?vid=456fa838-bde1-41a1-bacb-725c5d31c7ed"},"vehicle_type_id":"4","last_reported":1768738887,"current_range_meters":10000,"station_id":"ce4bhbh2rcd13ifvqeo0","pricing_plan_id":"cebpf4jnsgd1na2vs0mg"},{"bike_id":"ba07251e-69c5-4418-ace3-7cd844e33077","system_id":"levelo_inurba_marseille","lat":43.27814,"lon":5.40725,"is_reserved":false,"is_disabled":false,"rental_uris":{"android":"levelo://app?vid=ba07251e-69c5-4418-ace3-7cd844e33077","ios":"levelo://app?vid=ba07251e-69c5-4418-ace3-7cd844e33077"},"vehicle_type_id":"4","last_reported":1768738887,"current_range_meters":10000,"station_id":"ce4bhnh2rcd13ifvqgtg","pricing_plan_id":"cebpf4jnsgd1na2vs0mg"},{"bike_id":"a701194d-0cc5-497a-93ea-f1faca1626fe","system_id":"levelo_inurba_marseille","lat":43.2656,"lon":5.40332,"is_reserved":false,"is_disabled":false,"rental_uris":{"android":"levelo://app?vid=a701194d-0cc5-497a-93ea-f1faca1626fe","ios":"levelo://app?vid=a701194d-0cc5-497a-93ea-f1faca1626fe"},"vehicle_type_id":"4","last_reported":1768738887,"current_range_meters":10000,"station_id":"ce4bhmp2rcd13ifvqgng","pricing_plan_id":"cebpf4jnsgd1na2vs0mg"},{"bike_id":"d6a5286c-a8f1-4c48-bd44-cb6cde170fbe","system_id":"levelo_inurba_marseille","lat":43.30097,"lon":5.39084,"is_reserved":false,"is_disabled":true,"rental_uris":{"android":"levelo://app?vid=d6a5286c-a8f1-4c48-bd44-cb6cde170fbe","ios":"levelo://app?vid=d6a5286c-a8f1-4c48-bd44-cb6cde170fbe"},"vehicle_type_id":"4","last_reported":1768738887,"current_range_meters":10000,"station_id":"ce4bh192rcd13ifvqdb0","pricing_plan_id":"cebpf4jnsgd1na2vs0mg"},{"bike_id":"f70a59b4-29fe-4c71-a82c-c9b428830b98","system_id":"levelo_inurba_marseille","lat":43.24079,"lon":5.37763,"is_reserved":false,"is_disabled":false,"rental_uris":{"android":"levelo://app?vid=f70a59b4-29fe-4c71-a82c-c9b428830b98","ios":"levelo://app?vid=f70a59b4-29fe-4c71-a82c-c9b428830b98"},"vehicle_type_id":"4","last_reported":1768738887,"current_range_meters":10000,"station_id":"ce4bhnp2rcd13ifvqgvg","pricing_plan_id":"cebpf4jnsgd1na2vs0mg"},{"bike_id":"76bd8662-78d2-416e-bd1f-dbf6b13bf763","system_id":"levelo_inurba_marseille","lat":43.269371,"lon":5.40258,"is_reserved":false,"is_disabled":false,"rental_uris":{"android":"levelo://app?vid=76bd8662-78d2-416e-bd1f-dbf6b13bf763","ios":"levelo://app?vid=76bd8662-78d2-416e-bd1f-dbf6b13bf763"},"vehicle_type_id":"4","last_reported":1768738887,"current_range_meters":10000,"station_id":"cjm6bp8fraef2m0cb0m0","pricing_plan_id":"cebpf4jnsgd1na2vs0mg"},{"bike_id":"0fd21be0-2047-4c19-93b0-3d78a043614b","system_id":"levelo_inurba_marseille","lat":43.23794,"lon":5.36623,"is_reserved":false,"is_disabled":false,"rental_uris":{"android":"levelo://app?vid=0fd21be0-2047-4c19-93b0-3d78a043614b","ios":"levelo://app?vid=0fd21be0-2047-4c19-93b0-3d78a043614b"},"vehicle_type_id":"4","last_reported":1768738887,"current_range_meters":10000,"station_id":"st_d3nk18o9ro0c73en2l3g","pricing_plan_id":"cebpf4jnsgd1na2vs0mg"},{"bike_id":"40ec9b3e-8a68-4f21-9a1a-c3df8cc32599","system_id":"levelo_inurba_marseille","lat":43.240745,"lon":5.377737,"is_reserved":false,"is_disabled":false,"rental_uris":{"android":"levelo://app?vid=40ec9b3e-8a68-4f21-9a1a-c3df8cc32599","ios":"levelo://app?vid=40ec9b3e-8a68-4f21-9a1a-c3df8cc32599"},"vehicle_type_id":"4","last_reported":1768738887,"current_range_meters":10000,"station_id":"ce4bhnp2rcd13ifvqgvg","pricing_plan_id":"cebpf4jnsgd1na2vs0mg"},{"bike_id":"44d80ca6-dac0-4000-97a2-ac8fa224bc0e","system_id":"levelo_inurba_marseille","lat":43.28755,"lon":5.37162,"is_reserved":false,"is_disabled":false,"rental_uris":{"android":"levelo://app?vid=44d80ca6-dac0-4000-97a2-ac8fa224bc0e","ios":"levelo://app?vid=44d80ca6-dac0-4000-97a2-ac8fa224bc0e"},"vehicle_type_id":"4","last_reported":1768738887,"current_range_meters":10000,"station_id":"","pricing_plan_id":"cebpf4jnsgd1na2vs0mg"},{"bike_id":"2090a1bd-4d02-4c60-92de-1961961aca62","system_id":"levelo_inurba_marseille","lat":43.286685,"lon":5.38657,"is_reserved":false,"is_disabled":true,"rental_uris":{"android":"levelo://app?vid=2090a1bd-4d02-4c60-92de-1961961aca62","ios":"levelo://app?vid=2090a1bd-4d02-4c60-92de-1961961aca62"},"vehicle_type_id":"4","last_reported":1768738887,"current_range_meters":10000,"station_id":"ce4bh492rcd13ifvqdug","pricing_plan_id":"cebpf4jnsgd1na2vs0mg"},{"bike_id":"03256455-2cf8-4003-8cb2-14438e50ba23","system_id":"levelo_inurba_marseille","lat":43.307306,"lon":5.424563,"is_reserved":false,"is_disabled":false,"rental_uris":{"android":"levelo://app?vid=03256455-2cf8-4003-8cb2-14438e50ba23","ios":"levelo://app?vid=03256455-2cf8-4003-8cb2-14438e50ba23"},"vehicle_type_id":"4","last_reported":1768738887,"current_range_meters":10000,"station_id":"st_cvj6ca6bvosntc0bfgr0","pricing_plan_id":"cebpf4jnsgd1na2vs0mg"},{"bike_id":"d3b8517c-8fa3-4f75-bcbd-3a36294bc5e7","system_id":"levelo_inurba_marseille","lat":43.26353,"lon":5.4011,"is_reserved":false,"is_disabled":false,"rental_uris":{"android":"levelo://app?vid=d3b8517c-8fa3-4f75-bcbd-3a36294bc5e7","ios":"levelo://app?vid=d3b8517c-8fa3-4f75-bcbd-3a36294bc5e7"},"vehicle_type_id":"4","last_reported":1768738887,"current_range_meters":10000,"station_id":"","pricing_plan_id":"cebpf4jnsgd1na2vs0mg"},{"bike_id":"30037f19-64d9-41b8-a2cc-8c4e3d08358f","system_id":"levelo_inurba_marseille","lat":43.30151,"lon":5.38097,"is_reserved":false,"is_disabled":false,"rental_uris":{"android":"levelo://app?vid=30037f19-64d9-41b8-a2cc-8c4e3d08358f","ios":"levelo://app?vid=30037f19-64d9-41b8-a2cc-8c4e3d08358f"},"vehicle_type_id":"4","last_reported":1768738887,"current_range_meters":10800,"station_id":"ce4bgjp2rcd13ifvqbh0","pricing_plan_id":"cebpf4jnsgd1na2vs0mg"},{"bike_id":"cc2e8713-1733-4ff4-b476-ecb46b9d7a1b","system_id":"levelo_inurba_marseille","lat":43.28014,"lon":5.41653,"is_reserved":false,"is_disabled":false,"rental_uris":{"android":"levelo://app?vid=cc2e8713-1733-4ff4-b476-ecb46b9d7a1b","ios":"levelo://app?vid=cc2e8713-1733-4ff4-b476-ecb46b9d7a1b"},"vehicle_type_id":"4","last_reported":1768738887,"current_range_meters":10800,"station_id":"ce4bho12rcd13ifvqh1g","pricing_plan_id":"cebpf4jnsgd1na2vs0mg"},{"bike_id":"a9cdf974-4322-4744-b774-7480af4d3eeb","system_id":"levelo_inurba_marseille","lat":43.27996,"lon":5.41665,"is_reserved":false,"is_disabled":false,"rental_uris":{"android":"levelo://app?vid=a9cdf974-4322-4744-b774-7480af4d3eeb","ios":"levelo://app?vid=a9cdf974-4322-4744-b774-7480af4d3eeb"},"vehicle_type_id":"4","last_reported":1768738887,"current_range_meters":10800,"station_id":"ce4bho12rcd13ifvqh1g","pricing_plan_id":"cebpf4jnsgd1na2vs0mg"},{"bike_id":"0975f492-1758-4813-958c-364296bfbee6","system_id":"levelo_inurba_marseille","lat":43.26069,"lon":5.393956,"is_reserved":false,"is_disabled":false,"rental_uris":{"android":"levelo://app?vid=0975f492-1758-4813-958c-364296bfbee6","ios":"levelo://app?vid=0975f492-1758-4813-958c-364296bfbee6"},"vehicle_type_id":"4","last_reported":1768738887,"current_range_meters":10800,"station_id":"ce4bhh92rcd13ifvqfj0","pricing_plan_id":"cebpf4jnsgd1na2vs0mg"},{"bike_id":"1606f888-b4dc-4200-b20c-005f9a7c7417","system_id":"levelo_inurba_marseille","lat":43.229314,"lon":5.353772,"is_reserved":false,"is_disabled":false,"rental_uris":{"android":"levelo://app?vid=1606f888-b4dc-4200-b20c-005f9a7c7417","ios":"levelo://app?vid=1606f888-b4dc-4200-b20c-005f9a7c7417"},"vehicle_type_id":"4","last_reported":1768738887,"current_range_meters":10800,"station_id":"cpo3532slgdg3j2ikp40","pricing_plan_id":"cebpf4jnsgd1na2vs0mg"},{"bike_id":"a793b43a-2f1a-44e5-b8fd-5c578f863f85","system_id":"levelo_inurba_marseille","lat":43.31742,"lon":5.39008,"is_reserved":false,"is_disabled":false,"rental_uris":{"android":"levelo://app?vid=a793b43a-2f1a-44e5-b8fd-5c578f863f85","ios":"levelo://app?vid=a793b43a-2f1a-44e5-b8fd-5c578f863f85"},"vehicle_type_id":"4","last_reported":1768738887,"current_range_meters":10800,"station_id":"ce4bhqp2rcd13ifvqhng","pricing_plan_id":"cebpf4jnsgd1na2vs0mg"},{"bike_id":"6cf01478-fde2-46e6-bdc7-d20cd609786f","system_id":"levelo_inurba_marseille","lat":43.28485,"lon":5.38536,"is_reserved":false,"is_disabled":false,"rental_uris":{"android":"levelo://app?vid=6cf01478-fde2-46e6-bdc7-d20cd609786f","ios":"levelo://app?vid=6cf01478-fde2-46e6-bdc7-d20cd609786f"},"vehicle_type_id":"4","last_reported":1768738887,"current_range_meters":10800,"station_id":"ce4bh8p2rcd13ifvqeb0","pricing_plan_id":"cebpf4jnsgd1na2vs0mg"},{"bike_id":"86c3f0b8-2cd4-4a60-9cca-42812eafe40e","system_id":"levelo_inurba_marseille","lat":43.281655,"lon":5.426594,"is_reserved":false,"is_disabled":false,"rental_uris":{"android":"levelo://app?vid=86c3f0b8-2cd4-4a60-9cca-42812eafe40e","ios":"levelo://app?vid=86c3f0b8-2cd4-4a60-9cca-42812eafe40e"},"vehicle_type_id":"4","last_reported":1768738887,"current_range_meters":10800,"station_id":"ce4bhnh2rcd13ifvqgug","pricing_plan_id":"cebpf4jnsgd1na2vs0mg"},{"bike_id":"7dbbcfab-8796-4f78-b67c-fb95c692bb9a","system_id":"levelo_inurba_marseille","lat":43.252,"lon":5.40074,"is_reserved":false,"is_disabled":false,"rental_uris":{"android":"levelo://app?vid=7dbbcfab-8796-4f78-b67c-fb95c692bb9a","ios":"levelo://app?vid=7dbbcfab-8796-4f78-b67c-fb95c692bb9a"},"vehicle_type_id":"4","last_reported":1768738887,"current_range_meters":10800,"station_id":"","pricing_plan_id":"cebpf4jnsgd1na2vs0mg"},{"bike_id":"72f7f75d-047d-4152-a3c3-257d92c09a65","system_id":"levelo_inurba_marseille","lat":43.31998,"lon":5.381313,"is_reserved":false,"is_disabled":false,"rental_uris":{"android":"levelo://app?vid=72f7f75d-047d-4152-a3c3-257d92c09a65","ios":"levelo://app?vid=72f7f75d-047d-4152-a3c3-257d92c09a65"},"vehicle_type_id":"4","last_reported":1768738887,"current_range_meters":10800,"station_id":"ce4bhr12rcd13ifvqhpg","pricing_plan_id":"cebpf4jnsgd1na2vs0mg"},{"bike_id":"1bae9140-ff17-4e53-90ce-59eb9d8c1a5d","system_id":"levelo_inurba_marseille","lat":43.28006,"lon":5.41666,"is_reserved":false,"is_disabled":false,"rental_uris":{"android":"levelo://app?vid=1bae9140-ff17-4e53-90ce-59eb9d8c1a5d","ios":"levelo://app?vid=1bae9140-ff17-4e53-90ce-59eb9d8c1a5d"},"vehicle_type_id":"4","last_reported":1768738887,"current_range_meters":10800,"station_id":"ce4bho12rcd13ifvqh1g","pricing_plan_id":"cebpf4jnsgd1na2vs0mg"},{"bike_id":"335a8731-875e-404c-9011-f15c2acf8de6","system_id":"levelo_inurba_marseille","lat":43.2621,"lon":5.41549,"is_reserved":false,"is_disabled":false,"rental_uris":{"android":"levelo://app?vid=335a8731-875e-404c-9011-f15c2acf8de6","ios":"levelo://app?vid=335a8731-875e-404c-9011-f15c2acf8de6"},"vehicle_type_id":"4","last_reported":1768738887,"current_range_meters":10800,"station_id":"","pricing_plan_id":"cebpf4jnsgd1na2vs0mg"},{"bike_id":"188c635f-31eb-4e45-b29f-e748801ba7a3","system_id":"levelo_inurba_marseille","lat":43.28484,"lon":5.48401,"is_reserved":false,"is_disabled":false,"rental_uris":{"android":"levelo://app?vid=188c635f-31eb-4e45-b29f-e748801ba7a3","ios":"levelo://app?vid=188c635f-31eb-4e45-b29f-e748801ba7a3"},"vehicle_type_id":"4","last_reported":1768738887,"current_range_meters":10800,"station_id":"st_d3svhcjqgbts73a3dn0g","pricing_plan_id":"cebpf4jnsgd1na2vs0mg"},{"bike_id":"1837b76f-55b2-4942-aef4-b0d299ab4019","system_id":"levelo_inurba_marseille","lat":43.2522,"lon":5.38037,"is_reserved":false,"is_disabled":false,"rental_uris":{"android":"levelo://app?vid=1837b76f-55b2-4942-aef4-b0d299ab4019","ios":"levelo://app?vid=1837b76f-55b2-4942-aef4-b0d299ab4019"},"vehicle_type_id":"4","last_reported":1768738887,"current_range_meters":10800,"station_id":"","pricing_plan_id":"cebpf4jnsgd1na2vs0mg"},{"bike_id":"13c7565e-579a-4d8c-8e4a-79f4880e8378","system_id":"levelo_inurba_marseille","lat":43.253435,"lon":5.37987,"is_reserved":false,"is_disabled":false,"rental_uris":{"android":"levelo://app?vid=13c7565e-579a-4d8c-8e4a-79f4880e8378","ios":"levelo://app?vid=13c7565e-579a-4d8c-8e4a-79f4880e8378"},"vehicle_type_id":"4","last_reported":1768738887,"current_range_meters":10800,"station_id":"","pricing_plan_id":"cebpf4jnsgd1na2vs0mg"},{"bike_id":"2bd13a17-5463-4cbb-9ac7-432f73b6f3a0","system_id":"levelo_inurba_marseille","lat":43.28705,"lon":5.39987,"is_reserved":false,"is_disabled":false,"rental_uris":{"android":"levelo://app?vid=2bd13a17-5463-4cbb-9ac7-432f73b6f3a0","ios":"levelo://app?vid=2bd13a17-5463-4cbb-9ac7-432f73b6f3a0"},"vehicle_type_id":"4","last_reported":1768738887,"current_range_meters":10800,"station_id":"ce4bho92rcd13ifvqh3g","pricing_plan_id":"cebpf4jnsgd1na2vs0mg"},{"bike_id":"d3636923-d529-4805-a8bd-d6d3ddc3aec2","system_id":"levelo_inurba_marseille","lat":43.2902,"lon":5.39973,"is_reserved":false,"is_disabled":true,"rental_uris":{"android":"levelo://app?vid=d3636923-d529-4805-a8bd-d6d3ddc3aec2","ios":"levelo://app?vid=d3636923-d529-4805-a8bd-d6d3ddc3aec2"},"vehicle_type_id":"4","last_reported":1768738887,"current_range_meters":10800,"station_id":"ce4bh392rcd13ifvqdm0","pricing_plan_id":"cebpf4jnsgd1na2vs0mg"},