{"last_updated":1712419659,"ttl":30,"version":"2.2","data":{"bikes":[{"bike_id":"4fc3dc89-2c84-438e-b181-2e2945827a84","system_id":"levelo_inurba_marseille","lat":43.292005,"lon":5.357875,"is_reserved":false,"is_disabled":false,"rental_uris":{"android":"levelo://app?vid=4fc3dc89-2c84-438e-b181-2e2945827a84","ios":"levelo://app?vid=4fc3dc89-2c84-438e-b181-2e2945827a84"},"vehicle_type_id":"4","last_reported":1712419659,"current_range_meters":1600,"station_id":"ce4bhb12rcd13ifvqel0","pricing_plan_id":"cebpf4jnsgd1na2vs0mg"},{"bike_id":"1b5698ac-89dd-4b1f-ae01-550782a39766","system_id":"levelo_inurba_marseille","lat":43.31329,"lon":5.37045,"is_reserved":false,"is_disabled":false,"rental_uris":{"android":"levelo://app?vid=1b5698ac-89dd-4b1f-ae01-550782a39766","ios":"levelo://app?vid=1b5698ac-89dd-4b1f-ae01-550782a39766"},"vehicle_type_id":"4","last_reported":1712419659,"current_range_meters":0,"station_id":"","pricing_plan_id":"cebpf4jnsgd1na2vs0mg"},{"bike_id":"73dd865e-5ad7-4e9d-84f8-357f54aac706","system_id":"levelo_inurba_marseille","lat":43.309076,"lon":5.368465,"is_reserved":false,"is_disabled":false,"rental_uris":{"android":"levelo://app?vid=73dd865e-5ad7-4e9d-84f8-357f54aac706","ios":"levelo://app?vid=73dd865e-5ad7-4e9d-84f8-357f54aac706"},"vehicle_type_id":"4","last_reported":1712419659,"current_range_meters":2000,"station_id":"ce4bgn92rcd13ifvqbvg","pricing_plan_id":"cebpf4jnsgd1na2vs0mg"},{"bike_id":"3293f49b-30ef-490a-9323-af3c40fcd58a","system_id":"levelo_inurba_marseille","lat":43.31496,"lon":5.37305,"is_reserved":false,"is_disabled":false,"rental_uris":{"android":"levelo://app?vid=3293f49b-30ef-490a-9323-af3c40fcd58a","ios":"levelo://app?vid=3293f49b-30ef-490a-9323-af3c40fcd58a"},"vehicle_type_id":"4","last_reported":1712419659,"current_range_meters":0,"station_id":"ce4bgt12rcd13ifvqcd0","pricing_plan_id":"cebpf4jnsgd1na2vs0mg"},{"bike_id":"90c22045-7437-4f74-9916-dc81a8b8d163","system_id":"levelo_inurba_marseille","lat":43.311131,"lon":5.377651,"is_reserved":false,"is_disabled":false,"rental_uris":{"android":"levelo://app?vid=90c22045-7437-4f74-9916-dc81a8b8d163","ios":"levelo://app?vid=90c22045-7437-4f74-9916-dc81a8b8d163"},"vehicle_type_id":"4","last_reported":1712419659,"current_range_meters":5200,"station_id":"ce4bgt92rcd13ifvqcg0","pricing_plan_id":"cebpf4jnsgd1na2vs0mg"},{"bike_id":"75e8ee40-32ea-4a87-9d8f-71c1baff8bad","system_id":"levelo_inurba_marseille","lat":43.309034,"lon":5.371783,"is_reserved":false,"is_disabled":false,"rental_uris":{"android":"levelo://app?vid=75e8ee40-32ea-4a87-9d8f-71c1baff8bad","ios":"levelo://app?vid=75e8ee40-32ea-4a87-9d8f-71c1baff8bad"},"vehicle_type_id":"4","last_reported":1712419659,"current_range_meters":24400,"station_id":"ce4bguh2rcd13ifvqckg","pricing_plan_id":"cebpf4jnsgd1na2vs0mg"},{"bike_id":"91bf8eba-8ad4-4532-a483-e7ce03e87b9f","system_id":"levelo_inurba_marseille","lat":43.324771,"lon":5.36557,"is_reserved":false,"is_disabled":false,"rental_uris":{"android":"levelo://app?vid=91bf8eba-8ad4-4532-a483-e7ce03e87b9f","ios":"levelo://app?vid=91bf8eba-8ad4-4532-a483-e7ce03e87b9f"},"vehicle_type_id":"4","last_reported":1712419659,"current_range_meters":16000,"station_id":"ce4bhs12rcd13ifvqhvg","pricing_plan_id":"cebpf4jnsgd1na2vs0mg"},{"bike_id":"3cab3d56-9bb4-4d64-b8f4-fa041e25b7dd","system_id":"levelo_inurba_marseille","lat":43.311131,"lon":5.377651,"is_reserved":false,"is_disabled":false,"rental_uris":{"android":"levelo://app?vid=3cab3d56-9bb4-4d64-b8f4-fa041e25b7dd","ios":"levelo://app?vid=3cab3d56-9bb4-4d64-b8f4-fa041e25b7dd"},"vehicle_type_id":"4","last_reported":1712419659,"current_range_meters":0,"station_id":"ce4bgt92rcd13ifvqcg0","pricing_plan_id":"cebpf4jnsgd1na2vs0mg"},{"bike_id":"f8e156de-98d9-4bb6-9b4d-c69f56a1e37a","system_id":"levelo_inurba_marseille","lat":43.307945,"lon":5.376487,"is_reserved":false,"is_disabled":false,"rental_uris":{"android":"levelo://app?vid=f8e156de-98d9-4bb6-9b4d-c69f56a1e37a","ios":"levelo://app?vid=f8e156de-98d9-4bb6-9b4d-c69f56a1e37a"},"vehicle_type_id":"4","last_reported":1712419659,"current_range_meters":14000,"station_id":"ce4bgv92rcd13ifvqcq0","pricing_plan_id":"cebpf4jnsgd1na2vs0mg"},{"bike_id":"bbfed310-f5ca-41c8-bf3a-f83cd6959697","system_id":"levelo_inurba_marseille","lat":43.313254,"lon":5.37881,"is_reserved":false,"is_disabled":false,"rental_uris":{"android":"levelo://app?vid=bbfed310-f5ca-41c8-bf3a-f83cd6959697","ios":"levelo://app?vid=bbfed310-f5ca-41c8-bf3a-f83cd6959697"},"vehicle_type_id":"4","last_reported":1712419659,"current_range_meters":800,"station_id":"","pricing_plan_id":"cebpf4jnsgd1na2vs0mg"},{"bike_id":"d809e1f9-8ad3-4a18-b2bb-e4e518a3a07c","system_id":"levelo_inurba_marseille","lat":43.317413,"lon":5.377609,"is_reserved":false,"is_disabled":false,"rental_uris":{"android":"levelo://app?vid=d809e1f9-8ad3-4a18-b2bb-e4e518a3a07c","ios":"levelo://app?vid=d809e1f9-8ad3-4a18-b2bb-e4e518a3a07c"},"vehicle_type_id":"4","last_reported":1712419659,"current_range_meters":24000,"station_id":"ce4bgth2rcd13ifvqch0","pricing_plan_id":"cebpf4jnsgd1na2vs0mg"},{"bike_id":"5912f5d9-4f0e-43c2-b10f-e9897e9f940d","system_id":"levelo_inurba_marseille","lat":43.315233,"lon":5.38034,"is_reserved":false,"is_disabled":false,"rental_uris":{"android":"levelo://app?vid=5912f5d9-4f0e-43c2-b10f-e9897e9f940d","ios":"levelo://app?vid=5912f5d9-4f0e-43c2-b10f-e9897e9f940d"},"vehicle_type_id":"4","last_reported":1712419659,"current_range_meters":2000,"station_id":"ce4bhsp2rcd13ifvqi50","pricing_plan_id":"cebpf4jnsgd1na2vs0mg"},{"bike_id":"856b6686-27cd-4dd5-8174-069c7a5e61ae","system_id":"levelo_inurba_marseille","lat":43.315289,"lon":5.380349,"is_reserved":false,"is_disabled":false,"rental_uris":{"android":"levelo://app?vid=856b6686-27cd-4dd5-8174-069c7a5e61ae","ios":"levelo://app?vid=856b6686-27cd-4dd5-8174-069c7a5e61ae"},"vehicle_type_id":"4","last_reported":1712419659,"current_range_meters":4400,"station_id":"ce4bhsp2rcd13ifvqi50","pricing_plan_id":"cebpf4jnsgd1na2vs0mg"},{"bike_id":"19ec4b99-1f68-4184-bd1f-6e7c76900fb2","system_id":"levelo_inurba_marseille","lat":43.301939,"lon":5.366286,"is_reserved":false,"is_disabled":false,"rental_uris":{"android":"levelo://app?vid=19ec4b99-1f68-4184-bd1f-6e7c76900fb2","ios":"levelo://app?vid=19ec4b99-1f68-4184-bd1f-6e7c76900fb2"},"vehicle_type_id":"4","last_reported":1712419659,"current_range_meters":14400,"station_id":"ce4bgrh2rcd13ifvqc8g","pricing_plan_id":"cebpf4jnsgd1na2vs0mg"},{"bike_id":"0e597d8d-7e7b-4e85-8ab9-1ed967fad68e","system_id":"levelo_inurba_marseille","lat":43.308012,"lon":5.381511,"is_reserved":false,"is_disabled":false,"rental_uris":{"android":"levelo://app?vid=0e597d8d-7e7b-4e85-8ab9-1ed967fad68e","ios":"levelo://app?vid=0e597d8d-7e7b-4e85-8ab9-1ed967fad68e"},"vehicle_type_id":"4","last_reported":1712419659,"current_range_meters":0,"station_id":"ce4bgt12rcd13ifvqce0","pricing_plan_id":"cebpf4jnsgd1na2vs0mg"},{"bike_id":"f9e6bdac-3ec1-4c58-a8c1-9520f95d0fd8","system_id":"levelo_inurba_marseille","lat":43.308012,"lon":5.381511,"is_reserved":false,"is_disabled":false,"rental_uris":{"android":"levelo://app?vid=f9e6bdac-3ec1-4c58-a8c1-9520f95d0fd8","ios":"levelo://app?vid=f9e6bdac-3ec1-4c58-a8c1-9520f95d0fd8"},"vehicle_type_id":"4","last_reported":1712419659,"current_range_meters":0,"station_id":"ce4bgt12rcd13ifvqce0","pricing_plan_id":"cebpf4jnsgd1na2vs0mg"},{"bike_id":"8bdca134-5869-4950-b49f-b4e9f7147dc8","system_id":"levelo_inurba_marseille","lat":43.30452,"lon":5.37904,"is_reserved":false,"is_disabled":false,"rental_uris":{"android":"levelo://app?vid=8bdca134-5869-4950-b49f-b4e9f7147dc8","ios":"levelo://app?vid=8bdca134-5869-4950-b49f-b4e9f7147dc8"},"vehicle_type_id":"4","last_reported":1712419659,"current_range_meters":26400,"station_id":"ce4bgup2rcd13ifvqcn0","pricing_plan_id":"cebpf4jnsgd1na2vs0mg"},{"bike_id":"32b7a2d7-d304-4b5c-b97b-d6f9fda4565f","system_id":"levelo_inurba_marseille","lat":43.324771,"lon":5.36557,"is_reserved":false,"is_disabled":false,"rental_uris":{"android":"levelo://app?vid=32b7a2d7-d304-4b5c-b97b-d6f9fda4565f","ios":"levelo://app?vid=32b7a2d7-d304-4b5c-b97b-d6f9fda4565f"},"vehicle_type_id":"4","last_reported":1712419659,"current_range_meters":1600,"station_id":"ce4bhs12rcd13ifvqhvg","pricing_plan_id":"cebpf4jnsgd1na2vs0mg"},{"bike_id":"58368bc2-10fd-4305-b0ed-cd480db19672","system_id":"levelo_inurba_marseille","lat":43.31071,"lon":5.38347,"is_reserved":false,"is_disabled":false,"rental_uris":{"android":"levelo://app?vid=58368bc2-10fd-4305-b0ed-cd480db19672","ios":"levelo://app?vid=58368bc2-10fd-4305-b0ed-cd480db19672"},"vehicle_type_id":"4","last_reported":1712419659,"current_range_meters":0,"station_id":"ce4bgv92rcd13ifvqcr0","pricing_plan_id":"cebpf4jnsgd1na2vs0mg"},{"bike_id":"d185ffc8-4e29-41f3-8975-0b746a255ff3","system_id":"levelo_inurba_marseille","lat":43.310804,"lon":5.38359,"is_reserved":false,"is_disabled":false,"rental_uris":{"android":"levelo://app?vid=d185ffc8-4e29-41f3-8975-0b746a255ff3","ios":"levelo://app?vid=d185ffc8-4e29-41f3-8975-0b746a255ff3"},"vehicle_type_id":"4","last_reported":1712419659,"current_range_meters":6000,"station_id":"ce4bgv92rcd13ifvqcr0","pricing_plan_id":"cebpf4jnsgd1na2vs0mg"},{"bike_id":"ab414b76-195f-4ffc-a457-3e40b91b345b","system_id":"levelo_inurba_marseille","lat":43.319954,"lon":5.381507,"is_reserved":false,"is_disabled":false,"rental_uris":{"android":"levelo://app?vid=ab414b76-195f-4ffc-a457-3e40b91b345b","ios":"levelo://app?vid=ab414b76-195f-4ffc-a457-3e40b91b345b"},"vehicle_type_id":"4","last_reported":1712419659,"current_range_meters":3600,"station_id":"ce4bhr12rcd13ifvqhpg","pricing_plan_id":"cebpf4jnsgd1na2vs0mg"},{"bike_id":"d3b8de65-85f8-46e2-a1fb-106263156db0","system_id":"levelo_inurba_marseille","lat":43.32,"lon":5.3815,"is_reserved":false,"is_disabled":false,"rental_uris":{"android":"levelo://app?vid=d3b8de65-85f8-46e2-a1fb-106263156db0","ios":"levelo://app?vid=d3b8de65-85f8-46e2-a1fb-106263156db0"},"vehicle_type_id":"4","last_reported":1712419659,"current_range_meters":30000,"station_id":"ce4bhr12rcd13ifvqhpg","pricing_plan_id":"cebpf4jnsgd1na2vs0mg"},{"bike_id":"e3e17167-b7d0-4053-81b1-923db457dcf2","system_id":"levelo_inurba_marseille","lat":43.319963,"lon":5.381543,"is_reserved":false,"is_disabled":false,"rental_uris":{"android":"levelo://app?vid=e3e17167-b7d0-4053-81b1-923db457dcf2","ios":"levelo://app?vid=e3e17167-b7d0-4053-81b1-923db457dcf2"},"vehicle_type_id":"4","last_reported":1712419659,"current_range_meters":25600,"station_id":"ce4bhr12rcd13ifvqhpg","pricing_plan_id":"cebpf4jnsgd1na2vs0mg"},{"bike_id":"f9006666-2764-4164-92c8-46151790e400","system_id":"levelo_inurba_marseille","lat":43.313571,"lon":5.384829,"is_reserved":false,"is_disabled":false,"rental_uris":{"android":"levelo://app?vid=f9006666-2764-4164-92c8-46151790e400","ios":"levelo://app?vid=f9006666-2764-4164-92c8-46151790e400"},"vehicle_type_id":"4","last_reported":1712419659,"current_range_meters":9600,"station_id":"ce4bgt92rcd13ifvqcf0","pricing_plan_id":"cebpf4jnsgd1na2vs0mg"},{"bike_id":"d1f69f93-ac61-4de9-8c64-2164b77729b2","system_id":"levelo_inurba_marseille","lat":43.300747,"lon":5.375064,"is_reserved":false,"is_disabled":false,"rental_uris":{"android":"levelo://app?vid=d1f69f93-ac61-4de9-8c64-2164b77729b2","ios":"levelo://app?vid=d1f69f93-ac61-4de9-8c64-2164b77729b2"},"vehicle_type_id":"4","last_reported":1712419659,"current_range_meters":0,"station_id":"ce4bgs92rcd13ifvqcc0","pricing_plan_id":"cebpf4jnsgd1na2vs0mg"},{"bike_id":"c9410bc6-6244-4b36-8f86-6d1e0f8225b3","system_id":"levelo_inurba_marseille","lat":43.301939,"lon":5.366286,"is_reserved":false,"is_disabled":false,"rental_uris":{"android":"levelo://app?vid=c9410bc6-6244-4b36-8f86-6d1e0f8225b3","ios":"levelo://app?vid=c9410bc6-6244-4b36-8f86-6d1e0f8225b3"},"vehicle_type_id":"4","last_reported":1712419659,"current_range_meters":12400,"station_id":"ce4bgrh2rcd13ifvqc8g","pricing_plan_id":"cebpf4jnsgd1na2vs0mg"},{"bike_id":"3605d364-e793-46cc-a410-5ca0cf2d717e","system_id":"levelo_inurba_marseille","lat":43.299222,"lon":5.365554,"is_reserved":false,"is_disabled":false,"rental_uris":{"android":"levelo://app?vid=3605d364-e793-46cc-a410-5ca0cf2d717e","ios":"levelo://app?vid=3605d364-e793-46cc-a410-5ca0cf2d717e"},"vehicle_type_id":"4","last_reported":1712419659,"current_range_meters":0,"station_id":"ce4bgm92rcd13ifvqbr0","pricing_plan_id":"cebpf4jnsgd1na2vs0mg"},{"bike_id":"2d15870b-0aee-40b1-9dbc-3b32edd81bdd","system_id":"levelo_inurba_marseille","lat":43.299724,"lon":5.371829,"is_reserved":false,"is_disabled":false,"rental_uris":{"android":"levelo://app?vid=2d15870b-0aee-40b1-9dbc-3b32edd81bdd","ios":"levelo://app?vid=2d15870b-0aee-40b1-9dbc-3b32edd81bdd"},"vehicle_type_id":"4","last_reported":1712419659,"current_range_meters":0,"station_id":"ce4bgr92rcd13ifvqc7g","pricing_plan_id":"cebpf4jnsgd1na2vs0mg"},{"bike_id":"dcb91b62-71be-454a-9c61-35d7a6ad20c8","system_id":"levelo_inurba_marseille","lat":43.299222,"lon":5.365554,"is_reserved":false,"is_disabled":false,"rental_uris":{"android":"levelo://app?vid=dcb91b62-71be-454a-9c61-35d7a6ad20c8","ios":"levelo://app?vid=dcb91b62-71be-454a-9c61-35d7a6ad20c8"},"vehicle_type_id":"4","last_reported":1712419659,"current_range_meters":29200,"station_id":"ce4bgm92rcd13ifvqbr0","pricing_plan_id":"cebpf4jnsgd1na2vs0mg"},{"bike_id":"43b9aa72-5ca8-4c7f-9b92-9d1e9212c73b","system_id":"levelo_inurba_marseille","lat":43.30032,"lon":5.37452,"is_reserved":false,"is_disabled":false,"rental_uris":{"android":"levelo://app?vid=43b9aa72-5ca8-4c7f-9b92-9d1e9212c73b","ios":"levelo://app?vid=43b9aa72-5ca8-4c7f-9b92-9d1e9212c73b"},"vehicle_type_id":"4","last_reported":1712419659,"current_range_meters":16800,"station_id":"","pricing_plan_id":"cebpf4jnsgd1na2vs0mg"},{"bike_id":"42509129-1c2f-4c61-99ae-d25a493f13e1","system_id":"levelo_inurba_marseille","lat":43.29847,"lon":5.36285,"is_reserved":false,"is_disabled":false,"rental_uris":{"android":"levelo://app?vid=42509129-1c2f-4c61-99ae-d25a493f13e1","ios":"levelo://app?vid=42509129-1c2f-4c61-99ae-d25a493f13e1"},"vehicle_type_id":"4","last_reported":1712419659,"current_range_meters":0,"station_id":"ce4bgpp2rcd13ifvqc3g","pricing_plan_id":"cebpf4jnsgd1na2vs0mg"},{"bike_id":"6b076d0b-ca4f-4c3c-b559-44f8bc31050e","system_id":"levelo_inurba_marseille","lat":43.29847,"lon":5.36284,"is_reserved":false,"is_disabled":false,"rental_uris":{"android":"levelo://app?vid=6b076d0b-ca4f-4c3c-b559-44f8bc31050e","ios":"levelo://app?vid=6b076d0b-ca4f-4c3c-b559-44f8bc31050e"},"vehicle_type_id":"4","last_reported":1712419659,"current_range_meters":24000,"station_id":"ce4bgpp2rcd13ifvqc3g","pricing_plan_id":"cebpf4jnsgd1na2vs0mg"},{"bike_id":"44b5aea0-cf8d-4f59-8977-bcfbc112e032","system_id":"levelo_inurba_marseille","lat":43.298453,"lon":5.362874,"is_reserved":false,"is_disabled":false,"rental_uris":{"android":"levelo://app?vid=44b5aea0-cf8d-4f59-8977-bcfbc112e032","ios":"levelo://app?vid=44b5aea0-cf8d-4f59-8977-bcfbc112e032"},"vehicle_type_id":"4","last_reported":1712419659,"current_range_meters":0,"station_id":"ce4bgpp2rcd13ifvqc3g","pricing_plan_id":"cebpf4jnsgd1na2vs0mg"},{"bike_id":"3d80ba23-3ac1-4098-8a3e-518969cd9e5a","system_id":"levelo_inurba_marseille","lat":43.305364,"lon":5.384119,"is_reserved":false,"is_disabled":false,"rental_uris":{"android":"levelo://app?vid=3d80ba23-3ac1-4098-8a3e-518969cd9e5a","ios":"levelo://app?vid=3d80ba23-3ac1-4098-8a3e-518969cd9e5a"},"vehicle_type_id":"4","last_reported":1712419659,"current_range_meters":4400,"station_id":"ce4bgg92rcd13ifvqb30","pricing_plan_id":"cebpf4jnsgd1na2vs0mg"},{"bike_id":"0ef74bf8-5fd4-4279-abdd-471b76da3675","system_id":"levelo_inurba_marseille","lat":43.305364,"lon":5.384119,"is_reserved":false,"is_disabled":false,"rental_uris":{"android":"levelo://app?vid=0ef74bf8-5fd4-4279-abdd-471b76da3675","ios":"levelo://app?vid=0ef74bf8-5fd4-4279-abdd-471b76da3675"},"vehicle_type_id":"4","last_reported":1712419659,"current_range_meters":7600,"station_id":"ce4bgg92rcd13ifvqb30","pricing_plan_id":"cebpf4jnsgd1na2vs0mg"},{"bike_id":"f3ac9a40-e178-49a0-b689-1c001b879b2c","system_id":"levelo_inurba_marseille","lat":43.299093,"lon":5.37457,"is_reserved":false,"is_disabled":false,"rental_uris":{"android":"levelo://app?vid=f3ac9a40-e178-49a0-b689-1c001b879b2c","ios":"levelo://app?vid=f3ac9a40-e178-49a0-b689-1c001b879b2c"},"vehicle_type_id":"4","last_reported":1712419659,"current_range_meters":0,"station_id":"ce4bgjh2rcd13ifvqbg0","pricing_plan_id":"cebpf4jnsgd1na2vs0mg"},{"bike_id":"c8e317df-263d-4957-9111-5c3693385ffb","system_id":"levelo_inurba_marseille","lat":43.298306,"lon":5.362347,"is_reserved":false,"is_disabled":false,"rental_uris":{"android":"levelo://app?vid=c8e317df-263d-4957-9111-5c3693385ffb","ios":"levelo://app?vid=c8e317df-263d-4957-9111-5c3693385ffb"},"vehicle_type_id":"4","last_reported":1712419659,"current_range_meters":0,"station_id":"ce4bgpp2rcd13ifvqc3g","pricing_plan_id":"cebpf4jnsgd1na2vs0mg"},{"bike_id":"6941bd2f-2cc3-4b77-8d42-e35dbf20caee","system_id":"levelo_inurba_marseille","lat":43.32292,"lon":5.38257,"is_reserved":false,"is_disabled":false,"rental_uris":{"android":"levelo://app?vid=6941bd2f-2cc3-4b77-8d42-e35dbf20caee","ios":"levelo://app?vid=6941bd2f-2cc3-4b77-8d42-e35dbf20caee"},"vehicle_type_id":"4","last_reported":1712419659,"current_range_meters":7200,"station_id":"ce4bhr12rcd13ifvqhqg","pricing_plan_id":"cebpf4jnsgd1na2vs0mg"},{"bike_id":"8a79ea18-017d-4ca6-aa64-850fe1797991","system_id":"levelo_inurba_marseille","lat":43.322872,"lon":5.382756,"is_reserved":false,"is_disabled":false,"rental_uris":{"android":"levelo://app?vid=8a79ea18-017d-4ca6-aa64-850fe1797991","ios":"levelo://app?vid=8a79ea18-017d-4ca6-aa64-850fe1797991"},"vehicle_type_id":"4","last_reported":1712419659,"current_range_meters":10000,"station_id":"ce4bhr12rcd13ifvqhqg","pricing_plan_id":"cebpf4jnsgd1na2vs0mg"},{"bike_id":"bb405e14-2785-4e3e-806f-7482dc39e2e0","system_id":"levelo_inurba_marseille","lat":43.322872,"lon":5.382756,"is_reserved":false,"is_disabled":false,"rental_uris":{"android":"levelo://app?vid=bb405e14-2785-4e3e-806f-7482dc39e2e0","ios":"levelo://app?vid=bb405e14-2785-4e3e-806f-7482dc39e2e0"},"vehicle_type_id":"4","last_reported":1712419659,"current_range_meters":20000,"station_id":"ce4bhr12rcd13ifvqhqg","pricing_plan_id":"cebpf4jnsgd1na2vs0mg"},{"bike_id":"18651e73-a960-43da-bdae-371146c35a92","system_id":"levelo_inurba_marseille","lat":43.322872,"lon":5.382756,"is_reserved":false,"is_disabled":false,"rental_uris":{"android":"levelo://app?vid=18651e73-a960-43da-bdae-371146c35a92","ios":"levelo://app?vid=18651e73-a960-43da-bdae-371146c35a92"},"vehicle_type_id":"4","last_reported":1712419659,"current_range_meters":31200,"station_id":"ce4bhr12rcd13ifvqhqg","pricing_plan_id":"cebpf4jnsgd1na2vs0mg"},{"bike_id":"79a09dc1-a136-4553-b035-ca9b20a658e5","system_id":"levelo_inurba_marseille","lat":43.30181,"lon":5.3818,"is_reserved":false,"is_disabled":false,"rental_uris":{"android":"levelo://app?vid=79a09dc1-a136-4553-b035-ca9b20a658e5","ios":"levelo://app?vid=79a09dc1-a136-4553-b035-ca9b20a658e5"},"vehicle_type_id":"4","last_reported":1712419659,"current_range_meters":12000,"station_id":"","pricing_plan_id":"cebpf4jnsgd1na2vs0mg"},{"bike_id":"b3ff509d-62d6-49d8-a2bf-87edb5b9b2a6","system_id":"levelo_inurba_marseille","lat":43.297163,"lon":5.365866,"is_reserved":false,"is_disabled":false,"rental_uris":{"android":"levelo://app?vid=b3ff509d-62d6-49d8-a2bf-87edb5b9b2a6","ios":"levelo://app?vid=b3ff509d-62d6-49d8-a2bf-87edb5b9b2a6"},"vehicle_type_id":"4","last_reported":1712419659,"current_range_meters":9600,"station_id":"ce4bgn12rcd13ifvqbt0","pricing_plan_id":"cebpf4jnsgd1na2vs0mg"},{"bike_id":"3346ce77-3348-4b33-8169-31e208961f72","system_id":"levelo_inurba_marseille","lat":43.297163,"lon":5.365866,"is_reserved":false,"is_disabled":false,"rental_uris":{"android":"levelo://app?vid=3346ce77-3348-4b33-8169-31e208961f72","ios":"levelo://app?vid=3346ce77-3348-4b33-8169-31e208961f72"},"vehicle_type_id":"4","last_reported":1712419659,"current_range_meters":0,"station_id":"ce4bgn12rcd13ifvqbt0","pricing_plan_id":"cebpf4jnsgd1na2vs0mg"},{"bike_id":"cfe2c3d9-0eaa-4867-aa78-5c3e3deb9d3d","system_id":"levelo_inurba_marseille","lat":43.286595,"lon":5.386795,"is_reserved":false,"is_disabled":false,"rental_uris":{"android":"levelo://app?vid=cfe2c3d9-0eaa-4867-aa78-5c3e3deb9d3d","ios":"levelo://app?vid=cfe2c3d9-0eaa-4867-aa78-5c3e3deb9d3d"},"vehicle_type_id":"4","last_reported":1712419659,"current_range_meters":0,"station_id":"ce4bh492rcd13ifvqdug","pricing_plan_id":"cebpf4jnsgd1na2vs0mg"},{"bike_id":"28ae475e-9ed6-48c2-96bc-4a4cc1d8fc3a","system_id":"levelo_inurba_marseille","lat":43.297163,"lon":5.365866,"is_reserved":false,"is_disabled":false,"rental_uris":{"android":"levelo://app?vid=28ae475e-9ed6-48c2-96bc-4a4cc1d8fc3a","ios":"levelo://app?vid=28ae475e-9ed6-48c2-96bc-4a4cc1d8fc3a"},"vehicle_type_id":"4","last_reported":1712419659,"current_range_meters":0,"station_id":"ce4bgn12rcd13ifvqbt0","pricing_plan_id":"cebpf4jnsgd1na2vs0mg"},{"bike_id":"c07dd285-335b-4cd1-adb3-573a3a11a1a5","system_id":"levelo_inurba_marseille","lat":43.29573,"lon":5.367355,"is_reserved":false,"is_disabled":false,"rental_uris":{"android":"levelo://app?vid=c07dd285-335b-4cd1-adb3-573a3a11a1a5","ios":"levelo://app?vid=c07dd285-335b-4cd1-adb3-573a3a11a1a5"},"vehicle_type_id":"4","last_reported":1712419659,"current_range_meters":25600,"station_id":"ce4bgph2rcd13ifvqc2g","pricing_plan_id":"cebpf4jnsgd1na2vs0mg"},{"bike_id":"2d8fac36-b828-4404-b286-a787cee636c5","system_id":"levelo_inurba_marseille","lat":43.29573,"lon":5.367355,"is_reserved":false,"is_disabled":false,"rental_uris":{"android":"levelo://app?vid=2d8fac36-b828-4404-b286-a787cee636c5","ios":"levelo://app?vid=2d8fac36-b828-4404-b286-a787cee636c5"},"vehicle_type_id":"4","last_reported":1712419659,"current_range_meters":4400,"station_id":"ce4bgph2rcd13ifvqc2g","pricing_plan_id":"cebpf4jnsgd1na2vs0mg"},{"bike_id":"cced8773-67ba-40e1-84f8-3453ab6a9305","system_id":"levelo_inurba_marseille","lat":43.299028,"lon":5.381509,"is_reserved":false,"is_disabled":false,"rental_uris":{"android":"levelo://app?vid=cced8773-67ba-40e1-84f8-3453ab6a9305","ios":"levelo://app?vid=cced8773-67ba-40e1-84f8-3453ab6a9305"},"vehicle_type_id":"4","last_reported":1712419659,"current_range_meters":2800,"station_id":"ce4bgj12rcd13ifvqbc0","pricing_plan_id":"cebpf4jnsgd1na2vs0mg"},{"bike_id":"314f86f6-08ad-4358-b5ab-d210fd3c6209","system_id":"levelo_inurba_marseille","lat":43.317557,"lon":5.390173,"is_reserved":false,"is_disabled":false,"rental_uris":{"android":"levelo://app?vid=314f86f6-08ad-4358-b5ab-d210fd3c6209","ios":"levelo://app?vid=314f86f6-08ad-4358-b5ab-d210fd3c6209"},"vehicle_type_id":"4","last_reported":1712419659,"current_range_meters":15200,"station_id":"ce4bhqp2rcd13ifvqhng","pricing_plan_id":"cebpf4jnsgd1na2vs0mg"},{"bike_id":"76685d3b-669a-4308-8494-4c6527d3dbf7","system_id":"levelo_inurba_marseille","lat":43.317557,"lon":5.390173,"is_reserved":false,"is_disabled":false,"rental_uris":{"android":"levelo://app?vid=76685d3b-669a-4308-8494-4c6527d3dbf7","ios":"levelo://app?vid=76685d3b-669a-4308-8494-4c6527d3dbf7"},"vehicle_type_id":"4","last_reported":1712419659,"current_range_meters":19600,"station_id":"ce4bhqp2rcd13ifvqhng","pricing_plan_id":"cebpf4jnsgd1na2vs0mg"},{"bike_id":"83939b3a-fe9e-4126-a4b5-3ea863a43967","system_id":"levelo_inurba_marseille","lat":43.317557,"lon":5.390173,"is_reserved":false,"is_disabled":false,"rental_uris":{"android":"levelo://app?vid=83939b3a-fe9e-4126-a4b5-3ea863a43967","ios":"levelo://app?vid=83939b3a-fe9e-4126-a4b5-3ea863a43967"},"vehicle_type_id":"4","last_reported":1712419659,"current_range_meters":4800,"station_id":"ce4bhqp2rcd13ifvqhng","pricing_plan_id":"cebpf4jnsgd1na2vs0mg"},{"bike_id":"13c6a6c0-b974-4f5d-b57c-ac46116af423","system_id":"levelo_inurba_marseille","lat":43.298037,"lon":5.381066,"is_reserved":false,"is_disabled":false,"rental_uris":{"android":"levelo://app?vid=13c6a6c0-b974-4f5d-b57c-ac46116af423","ios":"levelo://app?vid=13c6a6c0-b974-4f5d-b57c-ac46116af423"},"vehicle_type_id":"4","last_reported":1712419659,"current_range_meters":19200,"station_id":"ce4bgip2rcd13ifvqbb0","pricing_plan_id":"cebpf4jnsgd1na2vs0mg"},{"bike_id":"d4450cf2-5670-4c6f-897b-cb03318b4f34","system_id":"levelo_inurba_marseille","lat":43.273609,"lon":5.362708,"is_reserved":false,"is_disabled":false,"rental_uris":{"android":"levelo://app?vid=d4450cf2-5670-4c6f-897b-cb03318b4f34","ios":"levelo://app?vid=d4450cf2-5670-4c6f-897b-cb03318b4f34"},"vehicle_type_id":"4","last_reported":1712419659,"current_range_meters":12400,"station_id":"ce4bhbh2rcd13ifvqeo0","pricing_plan_id":"cebpf4jnsgd1na2vs0mg"},{"bike_id":"96c18a9e-3a29-4868-973b-8d300640a8d4","system_id":"levelo_inurba_marseille","lat":43.280784,"lon":5.396622,"is_reserved":false,"is_disabled":false,"rental_uris":{"android":"levelo://app?vid=96c18a9e-3a29-4868-973b-8d300640a8d4","ios":"levelo://app?vid=96c18a9e-3a29-4868-973b-8d300640a8d4"},"vehicle_type_id":"4","last_reported":1712419659,"current_range_meters":8800,"station_id":"ce4bho12rcd13ifvqh2g","pricing_plan_id":"cebpf4jnsgd1na2vs0mg"},{"bike_id":"58c47841-faf2-4778-9e35-e955985c6cc4","system_id":"levelo_inurba_marseille","lat":43.3044,"lon":5.38883,"is_reserved":false,"is_disabled":false,"rental_uris":{"android":"levelo://app?vid=58c47841-faf2-4778-9e35-e955985c6cc4","ios":"levelo://app?vid=58c47841-faf2-4778-9e35-e955985c6cc4"},"vehicle_type_id":"4","last_reported":1712419659,"current_range_meters":6000,"station_id":"ce4bgk12rcd13ifvqbi0","pricing_plan_id":"cebpf4jnsgd1na2vs0mg"},{"bike_id":"e8063270-2f46-44be-94fb-e57a89c2e120","system_id":"levelo_inurba_marseille","lat":43.295769,"lon":5.375172,"is_reserved":false,"is_disabled":false,"rental_uris":{"android":"levelo://app?vid=e8063270-2f46-44be-94fb-e57a89c2e120","ios":"levelo://app?vid=e8063270-2f46-44be-94fb-e57a89c2e120"},"vehicle_type_id":"4","last_reported":1712419659,"current_range_meters":20000,"station_id":"ce4bgh92rcd13ifvqb50","pricing_plan_id":"cebpf4jnsgd1na2vs0mg"},{"bike_id":"e1745618-c11d-414c-a0e7-f99b17039214","system_id":"levelo_inurba_marseille","lat":43.30423,"lon":5.3888,"is_reserved":false,"is_disabled":false,"rental_uris":{"android":"levelo://app?vid=e1745618-c11d-414c-a0e7-f99b17039214","ios":"levelo://app?vid=e1745618-c11d-414c-a0e7-f99b17039214"},"vehicle_type_id":"4","last_reported":1712419659,"current_range_meters":4000,"station_id":"ce4bgk12rcd13ifvqbi0","pricing_plan_id":"cebpf4jnsgd1na2vs0mg"},{"bike_id":"668ea7a9-1a68-4c7e-9065-3a7fde30f0ad","system_id":"levelo_inurba_marseille","lat":43.296263,"lon":5.377094,"is_reserved":false,"is_disabled":false,"rental_uris":{"android":"levelo://app?vid=668ea7a9-1a68-4c7e-9065-3a7fde30f0ad","ios":"levelo://app?vid=668ea7a9-1a68-4c7e-9065-3a7fde30f0ad"},"vehicle_type_id":"4","last_reported":1712419659,"current_range_meters":14800,"station_id":"ce4bgi92rcd13ifvqb90","pricing_plan_id":"cebpf4jnsgd1na2vs0mg"},{"bike_id":"2a3cd860-9416-4538-a21e-17b6b5895f49","system_id":"levelo_inurba_marseille","lat":43.30425,"lon":5.38887,"is_reserved":false,"is_disabled":false,"rental_uris":{"android":"levelo://app?vid=2a3cd860-9416-4538-a21e-17b6b5895f49","ios":"levelo://app?vid=2a3cd860-9416-4538-a21e-17b6b5895f49"},"vehicle_type_id":"4","last_reported":1712419659,"current_range_meters":5600,"station_id":"ce4bgk12rcd13ifvqbi0","pricing_plan_id":"cebpf4jnsgd1na2vs0mg"},{"bike_id":"31e25134-a16c-4367-9d7e-7284689a52ba","system_id":"levelo_inurba_marseille","lat":43.295656,"lon":5.375106,"is_reserved":false,"is_disabled":false,"rental_uris":{"android":"levelo://app?vid=31e25134-a16c-4367-9d7e-7284689a52ba","ios":"levelo://app?vid=31e25134-a16c-4367-9d7e-7284689a52ba"},"vehicle_type_id":"4","last_reported":1712419659,"current_range_meters":4000,"station_id":"ce4bgh92rcd13ifvqb50","pricing_plan_id":"cebpf4jnsgd1na2vs0mg"},{"bike_id":"9f86c627-729a-4ad4-9be8-ebce59c44e61","system_id":"levelo_inurba_marseille","lat":43.295748,"lon":5.37522,"is_reserved":false,"is_disabled":false,"rental_uris":{"android":"levelo://app?vid=9f86c627-729a-4ad4-9be8-ebce59c44e61","ios":"levelo://app?vid=9f86c627-729a-4ad4-9be8-ebce59c44e61"},"vehicle_type_id":"4","last_reported":1712419659,"current_range_meters":4400,"station_id":"ce4bgh92rcd13ifvqb50","pricing_plan_id":"cebpf4jnsgd1na2vs0mg"},{"bike_id":"e4fd265c-f628-4ebb-91ef-3f79ae1261cf","system_id":"levelo_inurba_marseille","lat":43.290327,"lon":5.375711,"is_reserved":false,"is_disabled":false,"rental_uris":{"android":"levelo://app?vid=e4fd265c-f628-4ebb-91ef-3f79ae1261cf","ios":"levelo://app?vid=e4fd265c-f628-4ebb-91ef-3f79ae1261cf"},"vehicle_type_id":"4","last_reported":1712419659,"current_range_meters":1200,"station_id":"ce4bh692rcd13ifvqe90","pricing_plan_id":"cebpf4jnsgd1na2vs0mg"},{"bike_id":"65f8b248-204c-483b-81fa-3e47bdb78e8f","system_id":"levelo_inurba_marseille","lat":43.30422,"lon":5.389,"is_reserved":false,"is_disabled":false,"rental_uris":{"android":"levelo://app?vid=65f8b248-204c-483b-81fa-3e47bdb78e8f","ios":"levelo://app?vid=65f8b248-204c-483b-81fa-3e47bdb78e8f"},"vehicle_type_id":"4","last_reported":1712419659,"current_range_meters":9600,"station_id":"ce4bgk12rcd13ifvqbi0","pricing_plan_id":"cebpf4jnsgd1na2vs0mg"},{"bike_id":"5b7c062e-5e7b-41aa-9a58-a00daff95f37","system_id":"levelo_inurba_marseille","lat":43.290103,"lon":5.356114,"is_reserved":false,"is_disabled":false,"rental_uris":{"android":"levelo://app?vid=5b7c062e-5e7b-41aa-9a58-a00daff95f37","ios":"levelo://app?vid=5b7c062e-5e7b-41aa-9a58-a00daff95f37"},"vehicle_type_id":"4","last_reported":1712419659,"current_range_meters":0,"station_id":"ce4bhb92rcd13ifvqen0","pricing_plan_id":"cebpf4jnsgd1na2vs0mg"},{"bike_id":"e683e92e-f3ac-42bc-be3c-ff298b780af2","system_id":"levelo_inurba_marseille","lat":43.298681,"lon":5.397225,"is_reserved":false,"is_disabled":false,"rental_uris":{"android":"levelo://app?vid=e683e92e-f3ac-42bc-be3c-ff298b780af2","ios":"levelo://app?vid=e683e92e-f3ac-42bc-be3c-ff298b780af2"},"vehicle_type_id":"4","last_reported":1712419659,"current_range_meters":22800,"station_id":"ce4bh0h2rcd13ifvqd50","pricing_plan_id":"cebpf4jnsgd1na2vs0mg"},{"bike_id":"5343380a-48a7-4b84-aa10-26ab7dc33219","system_id":"levelo_inurba_marseille","lat":43.295279,"lon":5.375048,"is_reserved":false,"is_disabled":false,"rental_uris":{"android":"levelo://app?vid=5343380a-48a7-4b84-aa10-26ab7dc33219","ios":"levelo://app?vid=5343380a-48a7-4b84-aa10-26ab7dc33219"},"vehicle_type_id":"4","last_reported":1712419659,"current_range_meters":15200,"station_id":"ce4bgkp2rcd13ifvqbmg","pricing_plan_id":"cebpf4jnsgd1na2vs0mg"},{"bike_id":"8dd00052-3ed9-45ec-831d-1f8de8c37f0d","system_id":"levelo_inurba_marseille","lat":43.29971,"lon":5.384858,"is_reserved":false,"is_disabled":false,"rental_uris":{"android":"levelo://app?vid=8dd00052-3ed9-45ec-831d-1f8de8c37f0d","ios":"levelo://app?vid=8dd00052-3ed9-45ec-831d-1f8de8c37f0d"},"vehicle_type_id":"4","last_reported":1712419659,"current_range_meters":0,"station_id":"ce4bgj92rcd13ifvqbd0","pricing_plan_id":"cebpf4jnsgd1na2vs0mg"},{"bike_id":"5aaa776a-6ad2-4b78-87c8-50e89dc73558","system_id":"levelo_inurba_marseille","lat":43.299676,"lon":5.384819,"is_reserved":false,"is_disabled":false,"rental_uris":{"android":"levelo://app?vid=5aaa776a-6ad2-4b78-87c8-50e89dc73558","ios":"levelo://app?vid=5aaa776a-6ad2-4b78-87c8-50e89dc73558"},"vehicle_type_id":"4","last_reported":1712419659,"current_range_meters":19200,"station_id":"ce4bgj92rcd13ifvqbd0","pricing_plan_id":"cebpf4jnsgd1na2vs0mg"},{"bike_id":"356f09ec-c529-468f-a3ea-9d9b0716fdbc","system_id":"levelo_inurba_marseille","lat":43.299825,"lon":5.385036,"is_reserved":false,"is_disabled":false,"rental_uris":{"android":"levelo://app?vid=356f09ec-c529-468f-a3ea-9d9b0716fdbc","ios":"levelo://app?vid=356f09ec-c529-468f-a3ea-9d9b0716fdbc"},"vehicle_type_id":"4","last_reported":1712419659,"current_range_meters":0,"station_id":"ce4bgj92rcd13ifvqbd0","pricing_plan_id":"cebpf4jnsgd1na2vs0mg"},{"bike_id":"701429c3-6aec-4dd9-9dd4-75524e4ff103","system_id":"levelo_inurba_marseille","lat":43.299726,"lon":5.384912,"is_reserved":false,"is_disabled":false,"rental_uris":{"android":"levelo://app?vid=701429c3-6aec-4dd9-9dd4-75524e4ff103","ios":"levelo://app?vid=701429c3-6aec-4dd9-9dd4-75524e4ff103"},"vehicle_type_id":"4","last_reported":1712419659,"current_range_meters":0,"station_id":"ce4bgj92rcd13ifvqbd0","pricing_plan_id":"cebpf4jnsgd1na2vs0mg"},{"bike_id":"255d8b2a-d007-4bab-9f1f-135ca02df2b1","system_id":"levelo_inurba_marseille","lat":43.295279,"lon":5.375048,"is_reserved":false,"is_disabled":false,"rental_uris":{"android":"levelo://app?vid=255d8b2a-d007-4bab-9f1f-135ca02df2b1","ios":"levelo://app?vid=255d8b2a-d007-4bab-9f1f-135ca02df2b1"},"vehicle_type_id":"4","last_reported":1712419659,"current_range_meters":12800,"station_id":"ce4bgkp2rcd13ifvqbmg","pricing_plan_id":"cebpf4jnsgd1na2vs0mg"},{"bike_id":"35b0cd91-bf84-45da-898e-c8b577cdc790","system_id":"levelo_inurba_marseille","lat":43.29968,"lon":5.38496,"is_reserved":false,"is_disabled":false,"rental_uris":{"android":"levelo://app?vid=35b0cd91-bf84-45da-898e-c8b577cdc790","ios":"levelo://app?vid=35b0cd91-bf84-45da-898e-c8b577cdc790"},"vehicle_type_id":"4","last_reported":1712419659,"current_range_meters":14000,"station_id":"ce4bgj92rcd13ifvqbd0","pricing_plan_id":"cebpf4jnsgd1na2vs0mg"},{"bike_id":"a4b619a2-926d-4321-9a21-444b07a359a2","system_id":"levelo_inurba_marseille","lat":43.305989,"lon":5.37225,"is_reserved":false,"is_disabled":false,"rental_uris":{"android":"levelo://app?vid=a4b619a2-926d-4321-9a21-444b07a359a2","ios":"levelo://app?vid=a4b619a2-926d-4321-9a21-444b07a359a2"},"vehicle_type_id":"4","last_reported":1712419659,"current_range_meters":400,"station_id":"ce4bgqh2rcd13ifvqc4g","pricing_plan_id":"cebpf4jnsgd1na2vs0mg"},{"bike_id":"194eb567-3f14-4495-b8db-163f6474eb2c","system_id":"levelo_inurba_marseille","lat":43.297163,"lon":5.365866,"is_reserved":false,"is_disabled":false,"rental_uris":{"android":"levelo://app?vid=194eb567-3f14-4495-b8db-163f6474eb2c","ios":"levelo://app?vid=194eb567-3f14-4495-b8db-163f6474eb2c"},"vehicle_type_id":"4","last_reported":1712419659,"current_range_meters":14000,"station_id":"ce4bgn12rcd13ifvqbt0","pricing_plan_id":"cebpf4jnsgd1na2vs0mg"},{"bike_id":"9fa1bbe9-fd90-46f0-b05f-86bdf7aeb6d7","system_id":"levelo_inurba_marseille","lat":43.304274,"lon":5.388873,"is_reserved":false,"is_disabled":false,"rental_uris":{"android":"levelo://app?vid=9fa1bbe9-fd90-46f0-b05f-86bdf7aeb6d7","ios":"levelo://app?vid=9fa1bbe9-fd90-46f0-b05f-86bdf7aeb6d7"},"vehicle_type_id":"4","last_reported":1712419659,"current_range_meters":6800,"station_id":"ce4bgk12rcd13ifvqbi0","pricing_plan_id":"cebpf4jnsgd1na2vs0mg"},{"bike_id":"5f8c350f-fb80-4ecd-93fb-be96ab0fc3f7","system_id":"levelo_inurba_marseille","lat":43.299717,"lon":5.384845,"is_reserved":false,"is_disabled":false,"rental_uris":{"android":"levelo://app?vid=5f8c350f-fb80-4ecd-93fb-be96ab0fc3f7","ios":"levelo://app?vid=5f8c350f-fb80-4ecd-93fb-be96ab0fc3f7"},"vehicle_type_id":"4","last_reported":1712419659,"current_range_meters":15600,"station_id":"ce4bgj92rcd13ifvqbd0","pricing_plan_id":"cebpf4jnsgd1na2vs0mg"},{"bike_id":"6533cd8d-41a9-49e2-a712-fafa4ccf67b1","system_id":"levelo_inurba_marseille","lat":43.295279,"lon":5.375048,"is_reserved":false,"is_disabled":false,"rental_uris":{"android":"levelo://app?vid=6533cd8d-41a9-49e2-a712-fafa4ccf67b1","ios":"levelo://app?vid=6533cd8d-41a9-49e2-a712-fafa4ccf67b1"},"vehicle_type_id":"4","last_reported":1712419659,"current_range_meters":16000,"station_id":"ce4bgkp2rcd13ifvqbmg","pricing_plan_id":"cebpf4jnsgd1na2vs0mg"},{"bike_id":"6b9b3acb-f73e-4084-95a9-45ec131d3c86","system_id":"levelo_inurba_marseille","lat":43.29963,"lon":5.38499,"is_reserved":false,"is_disabled":false,"rental_uris":{"android":"levelo://app?vid=6b9b3acb-f73e-4084-95a9-45ec131d3c86","ios":"levelo://app?vid=6b9b3acb-f73e-4084-95a9-45ec131d3c86"},"vehicle_type_id":"4","last_reported":1712419659,"current_range_meters":8800,"station_id":"ce4bgj92rcd13ifvqbd0","pricing_plan_id":"cebpf4jnsgd1na2vs0mg"},{"bike_id":"73309fe4-47da-47ac-ad0c-d23643ad3497","system_id":"levelo_inurba_marseille","lat":43.29963,"lon":5.385,"is_reserved":false,"is_disabled":false,"rental_uris":{"android":"levelo://app?vid=73309fe4-47da-47ac-ad0c-d23643ad3497","ios":"levelo://app?vid=73309fe4-47da-47ac-ad0c-d23643ad3497"},"vehicle_type_id":"4","last_reported":1712419659,"current_range_meters":6400,"station_id":"ce4bgj92rcd13ifvqbd0","pricing_plan_id":"cebpf4jnsgd1na2vs0mg"},{"bike_id":"2f7b189f-23a9-48cc-9afa-5f287ef950f3","system_id":"levelo_inurba_marseille","lat":43.299576,"lon":5.385018,"is_reserved":false,"is_disabled":false,"rental_uris":{"android":"levelo://app?vid=2f7b189f-23a9-48cc-9afa-5f287ef950f3","ios":"levelo://app?vid=2f7b189f-23a9-48cc-9afa-5f287ef950f3"},"vehicle_type_id":"4","last_reported":1712419659,"current_range_meters":8800,"station_id":"ce4bgj92rcd13ifvqbd0","pricing_plan_id":"cebpf4jnsgd1na2vs0mg"},{"bike_id":"7167c4b5-8dfa-4ccc-9c08-261dd2b38dd6","system_id":"levelo_inurba_marseille","lat":43.299271,"lon":5.384882,"is_reserved":false,"is_disabled":false,"rental_uris":{"android":"levelo://app?vid=7167c4b5-8dfa-4ccc-9c08-261dd2b38dd6","ios":"levelo://app?vid=7167c4b5-8dfa-4ccc-9c08-261dd2b38dd6"},"vehicle_type_id":"4","last_reported":1712419659,"current_range_meters":17600,"station_id":"ce4bgj92rcd13ifvqbd0","pricing_plan_id":"cebpf4jnsgd1na2vs0mg"},{"bike_id":"9c8a8999-6dfa-4a49-8d01-05086e4a31cb","system_id":"levelo_inurba_marseille","lat":43.299717,"lon":5.384845,"is_reserved":false,"is_disabled":false,"rental_uris":{"android":"levelo://app?vid=9c8a8999-6dfa-4a49-8d01-05086e4a31cb","ios":"levelo://app?vid=9c8a8999-6dfa-4a49-8d01-05086e4a31cb"},"vehicle_type_id":"4","last_reported":1712419659,"current_range_meters":400,"station_id":"ce4bgj92rcd13ifvqbd0","pricing_plan_id":"cebpf4jnsgd1na2vs0mg"},{"bike_id":"bb0d0103-4728-4fb1-9125-0dd9fe9cc5e8","system_id":"levelo_inurba_marseille","lat":43.32367,"lon":5.388836,"is_reserved":false,"is_disabled":false,"rental_uris":{"android":"levelo://app?vid=bb0d0103-4728-4fb1-9125-0dd9fe9cc5e8","ios":"levelo://app?vid=bb0d0103-4728-4fb1-9125-0dd9fe9cc5e8"},"vehicle_type_id":"4","last_reported":1712419659,"current_range_meters":22400,"station_id":"ce4bhqp2rcd13ifvqhog","pricing_plan_id":"cebpf4jnsgd1na2vs0mg"},{"bike_id":"572145d4-ea1f-476c-9fd4-117c0421ba9a","system_id":"levelo_inurba_marseille","lat":43.29601,"lon":5.381084,"is_reserved":false,"is_disabled":false,"rental_uris":{"android":"levelo://app?vid=572145d4-ea1f-476c-9fd4-117c0421ba9a","ios":"levelo://app?vid=572145d4-ea1f-476c-9fd4-117c0421ba9a"},"vehicle_type_id":"4","last_reported":1712419659,"current_range_meters":5600,"station_id":"ce4bgl12rcd13ifvqbo0","pricing_plan_id":"cebpf4jnsgd1na2vs0mg"},{"bike_id":"c77da255-075a-47d5-87f0-f66f1abf3603","system_id":"levelo_inurba_marseille","lat":43.29591,"lon":5.38105,"is_reserved":false,"is_disabled":false,"rental_uris":{"android":"levelo://app?vid=c77da255-075a-47d5-87f0-f66f1abf3603","ios":"levelo://app?vid=c77da255-075a-47d5-87f0-f66f1abf3603"},"vehicle_type_id":"4","last_reported":1712419659,"current_range_meters":0,"station_id":"ce4bgl12rcd13ifvqbo0","pricing_plan_id":"cebpf4jnsgd1na2vs0mg"},{"bike_id":"6a1ec133-c49a-4a7c-931d-0e17c7e35b43","system_id":"levelo_inurba_marseille","lat":43.294345,"lon":5.377028,"is_reserved":false,"is_disabled":false,"rental_uris":{"android":"levelo://app?vid=6a1ec133-c49a-4a7c-931d-0e17c7e35b43","ios":"levelo://app?vid=6a1ec133-c49a-4a7c-931d-0e17c7e35b43"},"vehicle_type_id":"4","last_reported":1712419659,"current_range_meters":9600,"station_id":"","pricing_plan_id":"cebpf4jnsgd1na2vs0mg"},{"bike_id":"11a22fbb-531f-4ac3-9845-8be03a935f88","system_id":"levelo_inurba_marseille","lat":43.293259,"lon":5.371586,"is_reserved":false,"is_disabled":false,"rental_uris":{"android":"levelo://app?vid=11a22fbb-531f-4ac3-9845-8be03a935f88","ios":"levelo://app?vid=11a22fbb-531f-4ac3-9845-8be03a935f88"},"vehicle_type_id":"4","last_reported":1712419659,"current_range_meters":400,"station_id":"ce4bgh92rcd13ifvqb40","pricing_plan_id":"cebpf4jnsgd1na2vs0mg"},{"bike_id":"0e42d6ff-6519-4e95-8870-aa8311973716","system_id":"levelo_inurba_marseille","lat":43.293259,"lon":5.371586,"is_reserved":false,"is_disabled":false,"rental_uris":{"android":"levelo://app?vid=0e42d6ff-6519-4e95-8870-aa8311973716","ios":"levelo://app?vid=0e42d6ff-6519-4e95-8870-aa8311973716"},"vehicle_type_id":"4","last_reported":1712419659,"current_range_meters":0,"station_id":"ce4bgh92rcd13ifvqb40","pricing_plan_id":"cebpf4jnsgd1na2vs0mg"},{"bike_id":"b00d488f-2658-41b7-9546-a161a5e7a0c1","system_id":"levelo_inurba_marseille","lat":43.29306,"lon":5.37178,"is_reserved":false,"is_disabled":false,"rental_uris":{"android":"levelo://app?vid=b00d488f-2658-41b7-9546-a161a5e7a0c1","ios":"levelo://app?vid=b00d488f-2658-41b7-9546-a161a5e7a0c1"},"vehicle_type_id":"4","last_reported":1712419659,"current_range_meters":0,"station_id":"ce4bgh92rcd13ifvqb40","pricing_plan_id":"cebpf4jnsgd1na2vs0mg"},{"bike_id":"fed1cd03-4071-40ec-a361-588a89729b5a","system_id":"levelo_inurba_marseille","lat":43.29305,"lon":5.37178,"is_reserved":false,"is_disabled":false,"rental_uris":{"android":"levelo://app?vid=fed1cd03-4071-40ec-a361-588a89729b5a","ios":"levelo://app?vid=fed1cd03-4071-40ec-a361-588a89729b5a"},"vehicle_type_id":"4","last_reported":1712419659,"current_range_meters":800,"station_id":"ce4bgh92rcd13ifvqb40","pricing_plan_id":"cebpf4jnsgd1na2vs0mg"},{"bike_id":"3131b988-a3af-4645-a73a-8b6ee95f5832","system_id":"levelo_inurba_marseille","lat":43.29276,"lon":5.36839,"is_reserved":false,"is_disabled":false,"rental_uris":{"android":"levelo://app?vid=3131b988-a3af-4645-a73a-8b6ee95f5832","ios":"levelo://app?vid=3131b988-a3af-4645-a73a-8b6ee95f5832"},"vehicle_type_id":"4","last_reported":1712419659,"current_range_meters":0,"station_id":"ce4bhbp2rcd13ifvqesg","pricing_plan_id":"cebpf4jnsgd1na2vs0mg"},{"bike_id":"ccf72095-efc1-4d7f-a219-f28e4b8d4037","system_id":"levelo_inurba_marseille","lat":43.292749,"lon":5.368402,"is_reserved":false,"is_disabled":false,"rental_uris":{"android":"levelo://app?vid=ccf72095-efc1-4d7f-a219-f28e4b8d4037","ios":"levelo://app?vid=ccf72095-efc1-4d7f-a219-f28e4b8d4037"},"vehicle_type_id":"4","last_reported":1712419659,"current_range_meters":14800,"station_id":"ce4bhbp2rcd13ifvqesg","pricing_plan_id":"cebpf4jnsgd1na2vs0mg"},{"bike_id":"9f2e2d44-39fd-4b29-8ef1-33ff15bebed6","system_id":"levelo_inurba_marseille","lat":43.292709,"lon":5.368459,"is_reserved":false,"is_disabled":false,"rental_uris":{"android":"levelo://app?vid=9f2e2d44-39fd-4b29-8ef1-33ff15bebed6","ios":"levelo://app?vid=9f2e2d44-39fd-4b29-8ef1-33ff15bebed6"},"vehicle_type_id":"4","last_reported":1712419659,"current_range_meters":0,"station_id":"ce4bgh92rcd13ifvqb40","pricing_plan_id":"cebpf4jnsgd1na2vs0mg"},{"bike_id":"8701ee73-82b1-4b8e-a718-caabf34fcfa5","system_id":"levelo_inurba_marseille","lat":43.29271,"lon":5.36857,"is_reserved":false,"is_disabled":false,"rental_uris":{"android":"levelo://app?vid=8701ee73-82b1-4b8e-a718-caabf34fcfa5","ios":"levelo://app?vid=8701ee73-82b1-4b8e-a718-caabf34fcfa5"},"vehicle_type_id":"4","last_reported":1712419659,"current_range_meters":0,"station_id":"ce4bgh92rcd13ifvqb40","pricing_plan_id":"cebpf4jnsgd1na2vs0mg"},{"bike_id":"afafd4c2-e30b-4f2a-b658-9202f0e79de6","system_id":"levelo_inurba_marseille","lat":43.29299,"lon":5.37188,"is_reserved":false,"is_disabled":false,"rental_uris":{"android":"levelo://app?vid=afafd4c2-e30b-4f2a-b658-9202f0e79de6","ios":"levelo://app?vid=afafd4c2-e30b-4f2a-b658-9202f0e79de6"},"vehicle_type_id":"4","last_reported":1712419659,"current_range_meters":0,"station_id":"ce4bgh92rcd13ifvqb40","pricing_plan_id":"cebpf4jnsgd1na2vs0mg"},{"bike_id":"920c4f3c-a3ea-4e97-b8d4-83d8f8d236d7","system_id":"levelo_inurba_marseille","lat":43.30007,"lon":5.388625,"is_reserved":false,"is_disabled":false,"rental_uris":{"android":"levelo://app?vid=920c4f3c-a3ea-4e97-b8d4-83d8f8d236d7","ios":"levelo://app?vid=920c4f3c-a3ea-4e97-b8d4-83d8f8d236d7"},"vehicle_type_id":"4","last_reported":1712419659,"current_range_meters":21600,"station_id":"","pricing_plan_id":"cebpf4jnsgd1na2vs0mg"},{"bike_id":"f7b72e3c-e478-443b-9108-3db96948862b","system_id":"levelo_inurba_marseille","lat":43.293009,"lon":5.374584,"is_reserved":false,"is_disabled":false,"rental_uris":{"android":"levelo://app?vid=f7b72e3c-e478-443b-9108-3db96948862b","ios":"levelo://app?vid=f7b72e3c-e478-443b-9108-3db96948862b"},"vehicle_type_id":"4","last_reported":1712419659,"current_range_meters":0,"station_id":"ce4bgi12rcd13ifvqb70","pricing_plan_id":"cebpf4jnsgd1na2vs0mg"},{"bike_id":"7991b26f-08e1-4179-a718-ba0c52332cf8","system_id":"levelo_inurba_marseille","lat":43.292369,"lon":5.368419,"is_reserved":false,"is_disabled":false,"rental_uris":{"android":"levelo://app?vid=7991b26f-08e1-4179-a718-ba0c52332cf8","ios":"levelo://app?vid=7991b26f-08e1-4179-a718-ba0c52332cf8"},"vehicle_type_id":"4","last_reported":1712419659,"current_range_meters":6800,"station_id":"ce4bhbp2rcd13ifvqesg","pricing_plan_id":"cebpf4jnsgd1na2vs0mg"},{"bike_id":"9a57c783-a36b-471f-bb2f-073b6cfd3f3e","system_id":"levelo_inurba_marseille","lat":43.293009,"lon":5.374584,"is_reserved":false,"is_disabled":false,"rental_uris":{"android":"levelo://app?vid=9a57c783-a36b-471f-bb2f-073b6cfd3f3e","ios":"levelo://app?vid=9a57c783-a36b-471f-bb2f-073b6cfd3f3e"},"vehicle_type_id":"4","last_reported":1712419659,"current_range_meters":0,"station_id":"ce4bgi12rcd13ifvqb70","pricing_plan_id":"cebpf4jnsgd1na2vs0mg"},{"bike_id":"b913fa51-b4e5-410b-b5c8-b162875372d6","system_id":"levelo_inurba_marseille","lat":43.305994,"lon":5.393687,"is_reserved":false,"is_disabled":false,"rental_uris":{"android":"levelo://app?vid=b913fa51-b4e5-410b-b5c8-b162875372d6","ios":"levelo://app?vid=b913fa51-b4e5-410b-b5c8-b162875372d6"},"vehicle_type_id":"4","last_reported":1712419659,"current_range_meters":0,"station_id":"ce4bh0p2rcd13ifvqd80","pricing_plan_id":"cebpf4jnsgd1na2vs0mg"},{"bike_id":"477c9923-e755-4b63-be04-fb2fde58973e","system_id":"levelo_inurba_marseille","lat":43.305994,"lon":5.393687,"is_reserved":false,"is_disabled":false,"rental_uris":{"android":"levelo://app?vid=477c9923-e755-4b63-be04-fb2fde58973e","ios":"levelo://app?vid=477c9923-e755-4b63-be04-fb2fde58973e"},"vehicle_type_id":"4","last_reported":1712419659,"current_range_meters":10400,"station_id":"ce4bh0p2rcd13ifvqd80","pricing_plan_id":"cebpf4jnsgd1na2vs0mg"},{"bike_id":"de8089e7-88ba-4e8d-bea0-f816029a1db3","system_id":"levelo_inurba_marseille","lat":43.293789,"lon":5.378185,"is_reserved":false,"is_disabled":false,"rental_uris":{"android":"levelo://app?vid=de8089e7-88ba-4e8d-bea0-f816029a1db3","ios":"levelo://app?vid=de8089e7-88ba-4e8d-bea0-f816029a1db3"},"vehicle_type_id":"4","last_reported":1712419659,"current_range_meters":0,"station_id":"ce4bgjh2rcd13ifvqbf0","pricing_plan_id":"cebpf4jnsgd1na2vs0mg"},{"bike_id":"83669266-46ce-4708-a1b5-7bea96b808fe","system_id":"levelo_inurba_marseille","lat":43.303002,"lon":5.392142,"is_reserved":false,"is_disabled":false,"rental_uris":{"android":"levelo://app?vid=83669266-46ce-4708-a1b5-7bea96b808fe","ios":"levelo://app?vid=83669266-46ce-4708-a1b5-7bea96b808fe"},"vehicle_type_id":"4","last_reported":1712419659,"current_range_meters":3600,"station_id":"ce4bgkh2rcd13ifvqbk0","pricing_plan_id":"cebpf4jnsgd1na2vs0mg"},{"bike_id":"9dc3e3ab-7cf2-41c3-9590-a37b5c20434c","system_id":"levelo_inurba_marseille","lat":43.303002,"lon":5.392142,"is_reserved":false,"is_disabled":false,"rental_uris":{"android":"levelo://app?vid=9dc3e3ab-7cf2-41c3-9590-a37b5c20434c","ios":"levelo://app?vid=9dc3e3ab-7cf2-41c3-9590-a37b5c20434c"},"vehicle_type_id":"4","last_reported":1712419659,"current_range_meters":4800,"station_id":"ce4bgkh2rcd13ifvqbk0","pricing_plan_id":"cebpf4jnsgd1na2vs0mg"},{"bike_id":"2ec8a053-7ce2-45ee-a23e-d4cb1e578284","system_id":"levelo_inurba_marseille","lat":43.303002,"lon":5.392142,"is_reserved":false,"is_disabled":false,"rental_uris":{"android":"levelo://app?vid=2ec8a053-7ce2-45ee-a23e-d4cb1e578284","ios":"levelo://app?vid=2ec8a053-7ce2-45ee-a23e-d4cb1e578284"},"vehicle_type_id":"4","last_reported":1712419659,"current_range_meters":1600,"station_id":"ce4bgkh2rcd13ifvqbk0","pricing_plan_id":"cebpf4jnsgd1na2vs0mg"},{"bike_id":"8dd145f1-3a29-4b5e-a243-3d5e3a5920e1","system_id":"levelo_inurba_marseille","lat":43.303002,"lon":5.392142,"is_reserved":false,"is_disabled":false,"rental_uris":{"android":"levelo://app?vid=8dd145f1-3a29-4b5e-a243-3d5e3a5920e1","ios":"levelo://app?vid=8dd145f1-3a29-4b5e-a243-3d5e3a5920e1"},"vehicle_type_id":"4","last_reported":1712419659,"current_range_meters":5600,"station_id":"ce4bgkh2rcd13ifvqbk0","pricing_plan_id":"cebpf4jnsgd1na2vs0mg"},{"bike_id":"c25aa352-b17a-4fd2-a581-29013c90d710","system_id":"levelo_inurba_marseille","lat":43.303002,"lon":5.392142,"is_reserved":false,"is_disabled":false,"rental_uris":{"android":"levelo://app?vid=c25aa352-b17a-4fd2-a581-29013c90d710","ios":"levelo://app?vid=c25aa352-b17a-4fd2-a581-29013c90d710"},"vehicle_type_id":"4","last_reported":1712419659,"current_range_meters":18800,"station_id":"ce4bgkh2rcd13ifvqbk0","pricing_plan_id":"cebpf4jnsgd1na2vs0mg"},{"bike_id":"52b3ce14-8486-482d-adb6-e91d47a7b200","system_id":"levelo_inurba_marseille","lat":43.303002,"lon":5.392142,"is_reserved":false,"is_disabled":false,"rental_uris":{"android":"levelo://app?vid=52b3ce14-8486-482d-adb6-e91d47a7b200","ios":"levelo://app?vid=52b3ce14-8486-482d-adb6-e91d47a7b200"},"vehicle_type_id":"4","last_reported":1712419659,"current_range_meters":5600,"station_id":"ce4bgkh2rcd13ifvqbk0","pricing_plan_id":"cebpf4jnsgd1na2vs0mg"},{"bike_id":"7f8f29c4-2702-40f6-abc4-b0a3c58ad19b","system_id":"levelo_inurba_marseille","lat":43.303002,"lon":5.392142,"is_reserved":false,"is_disabled":false,"rental_uris":{"android":"levelo://app?vid=7f8f29c4-2702-40f6-abc4-b0a3c58ad19b","ios":"levelo://app?vid=7f8f29c4-2702-40f6-abc4-b0a3c58ad19b"},"vehicle_type_id":"4","last_reported":1712419659,"current_range_meters":800,"station_id":"ce4bgkh2rcd13ifvqbk0","pricing_plan_id":"cebpf4jnsgd1na2vs0mg"},{"bike_id":"bd234f3e-5508-4292-9a08-47746fbf9f7a","system_id":"levelo_inurba_marseille","lat":43.303186,"lon":5.392295,"is_reserved":false,"is_disabled":false,"rental_uris":{"android":"levelo://app?vid=bd234f3e-5508-4292-9a08-47746fbf9f7a","ios":"levelo://app?vid=bd234f3e-5508-4292-9a08-47746fbf9f7a"},"vehicle_type_id":"4","last_reported":1712419659,"current_range_meters":0,"station_id":"ce4bgkh2rcd13ifvqbk0","pricing_plan_id":"cebpf4jnsgd1na2vs0mg"},{"bike_id":"dce85315-a9d4-4837-8634-bb8c9e0f8220","system_id":"levelo_inurba_marseille","lat":43.303002,"lon":5.392142,"is_reserved":false,"is_disabled":false,"rental_uris":{"android":"levelo://app?vid=dce85315-a9d4-4837-8634-bb8c9e0f8220","ios":"levelo://app?vid=dce85315-a9d4-4837-8634-bb8c9e0f8220"},"vehicle_type_id":"4","last_reported":1712419659,"current_range_meters":0,"station_id":"ce4bgkh2rcd13ifvqbk0","pricing_plan_id":"cebpf4jnsgd1na2vs0mg"},{"bike_id":"91ce6fea-4748-4e9f-af22-2c72282f941f","system_id":"levelo_inurba_marseille","lat":43.300852,"lon":5.390859,"is_reserved":false,"is_disabled":false,"rental_uris":{"android":"levelo://app?vid=91ce6fea-4748-4e9f-af22-2c72282f941f","ios":"levelo://app?vid=91ce6fea-4748-4e9f-af22-2c72282f941f"},"vehicle_type_id":"4","last_reported":1712419659,"current_range_meters":16400,"station_id":"ce4bh192rcd13ifvqdb0","pricing_plan_id":"cebpf4jnsgd1na2vs0mg"},{"bike_id":"e4ccbba8-20d5-40d7-a04e-22a018dfba1a","system_id":"levelo_inurba_marseille","lat":43.300852,"lon":5.390859,"is_reserved":false,"is_disabled":false,"rental_uris":{"android":"levelo://app?vid=e4ccbba8-20d5-40d7-a04e-22a018dfba1a","ios":"levelo://app?vid=e4ccbba8-20d5-40d7-a04e-22a018dfba1a"},"vehicle_type_id":"4","last_reported":1712419659,"current_range_meters":7600,"station_id":"ce4bh192rcd13ifvqdb0","pricing_plan_id":"cebpf4jnsgd1na2vs0mg"},{"bike_id":"bb89da9c-59b2-4f4e-aa06-1c47e26ac8b4","system_id":"levelo_inurba_marseille","lat":43.29229,"lon":5.360637,"is_reserved":false,"is_disabled":false,"rental_uris":{"android":"levelo://app?vid=bb89da9c-59b2-4f4e-aa06-1c47e26ac8b4","ios":"levelo://app?vid=bb89da9c-59b2-4f4e-aa06-1c47e26ac8b4"},"vehicle_type_id":"4","last_reported":1712419659,"current_range_meters":0,"station_id":"ce4bhbh2rcd13ifvqeqg","pricing_plan_id":"cebpf4jnsgd1na2vs0mg"},{"bike_id":"e0b1cb91-ce06-4a85-89b3-00238f3a3c40","system_id":"levelo_inurba_marseille","lat":43.309076,"lon":5.368465,"is_reserved":false,"is_disabled":false,"rental_uris":{"android":"levelo://app?vid=e0b1cb91-ce06-4a85-89b3-00238f3a3c40","ios":"levelo://app?vid=e0b1cb91-ce06-4a85-89b3-00238f3a3c40"},"vehicle_type_id":"4","last_reported":1712419659,"current_range_meters":0,"station_id":"ce4bgn92rcd13ifvqbvg","pricing_plan_id":"cebpf4jnsgd1na2vs0mg"},{"bike_id":"1bc9d51c-72ee-473c-b94c-a99cc118a0df","system_id":"levelo_inurba_marseille","lat":43.300852,"lon":5.390859,"is_reserved":false,"is_disabled":false,"rental_uris":{"android":"levelo://app?vid=1bc9d51c-72ee-473c-b94c-a99cc118a0df","ios":"levelo://app?vid=1bc9d51c-72ee-473c-b94c-a99cc118a0df"},"vehicle_type_id":"4","last_reported":1712419659,"current_range_meters":0,"station_id":"ce4bh192rcd13ifvqdb0","pricing_plan_id":"cebpf4jnsgd1na2vs0mg"},{"bike_id":"94d3bafc-b6d1-4d47-b173-58a9b49acfa4","system_id":"levelo_inurba_marseille","lat":43.30085,"lon":5.390856,"is_reserved":false,"is_disabled":false,"rental_uris":{"android":"levelo://app?vid=94d3bafc-b6d1-4d47-b173-58a9b49acfa4","ios":"levelo://app?vid=94d3bafc-b6d1-4d47-b173-58a9b49acfa4"},"vehicle_type_id":"4","last_reported":1712419659,"current_range_meters":21600,"station_id":"ce4bh192rcd13ifvqdb0","pricing_plan_id":"cebpf4jnsgd1na2vs0mg"},{"bike_id":"efb63773-4fd0-4831-8370-b1bbeae71755","system_id":"levelo_inurba_marseille","lat":43.30085,"lon":5.390856,"is_reserved":false,"is_disabled":false,"rental_uris":{"android":"levelo://app?vid=efb63773-4fd0-4831-8370-b1bbeae71755","ios":"levelo://app?vid=efb63773-4fd0-4831-8370-b1bbeae71755"},"vehicle_type_id":"4","last_reported":1712419659,"current_range_meters":1600,"station_id":"ce4bh192rcd13ifvqdb0","pricing_plan_id":"cebpf4jnsgd1na2vs0mg"},{"bike_id":"a1d3f0c6-4ebf-437d-a950-6e3f918f7839","system_id":"levelo_inurba_marseille","lat":43.29211,"lon":5.36043,"is_reserved":false,"is_disabled":false,"rental_uris":{"android":"levelo://app?vid=a1d3f0c6-4ebf-437d-a950-6e3f918f7839","ios":"levelo://app?vid=a1d3f0c6-4ebf-437d-a950-6e3f918f7839"},"vehicle_type_id":"4","last_reported":1712419659,"current_range_meters":0,"station_id":"ce4bhbh2rcd13ifvqeqg","pricing_plan_id":"cebpf4jnsgd1na2vs0mg"},{"bike_id":"e1c1a461-97c2-42db-9592-e7ccbe5a8f00","system_id":"levelo_inurba_marseille","lat":43.298764,"lon":5.388973,"is_reserved":false,"is_disabled":false,"rental_uris":{"android":"levelo://app?vid=e1c1a461-97c2-42db-9592-e7ccbe5a8f00","ios":"levelo://app?vid=e1c1a461-97c2-42db-9592-e7ccbe5a8f00"},"vehicle_type_id":"4","last_reported":1712419659,"current_range_meters":10000,"station_id":"ce4bh392rcd13ifvqdl0","pricing_plan_id":"cebpf4jnsgd1na2vs0mg"},{"bike_id":"b8510878-b096-42e7-a952-578c62eeb32d","system_id":"levelo_inurba_marseille","lat":43.298764,"lon":5.388973,"is_reserved":false,"is_disabled":false,"rental_uris":{"android":"levelo://app?vid=b8510878-b096-42e7-a952-578c62eeb32d","ios":"levelo://app?vid=b8510878-b096-42e7-a952-578c62eeb32d"},"vehicle_type_id":"4","last_reported":1712419659,"current_range_meters":0,"station_id":"ce4bh392rcd13ifvqdl0","pricing_plan_id":"cebpf4jnsgd1na2vs0mg"},{"bike_id":"62588f4a-c565-4e41-9285-c2ac760d2d87","system_id":"levelo_inurba_marseille","lat":43.29529,"lon":5.385581,"is_reserved":false,"is_disabled":false,"rental_uris":{"android":"levelo://app?vid=62588f4a-c565-4e41-9285-c2ac760d2d87","ios":"levelo://app?vid=62588f4a-c565-4e41-9285-c2ac760d2d87"},"vehicle_type_id":"4","last_reported":1712419659,"current_range_meters":6000,"station_id":"ce4bgih2rcd13ifvqba0","pricing_plan_id":"cebpf4jnsgd1na2vs0mg"},{"bike_id":"60a48ca1-dd81-4f32-8d16-eb9b50225a38","system_id":"levelo_inurba_marseille","lat":43.292005,"lon":5.357875,"is_reserved":false,"is_disabled":false,"rental_uris":{"android":"levelo://app?vid=60a48ca1-dd81-4f32-8d16-eb9b50225a38","ios":"levelo://app?vid=60a48ca1-dd81-4f32-8d16-eb9b50225a38"},"vehicle_type_id":"4","last_reported":1712419659,"current_range_meters":20400,"station_id":"ce4bhb12rcd13ifvqel0","pricing_plan_id":"cebpf4jnsgd1na2vs0mg"},{"bike_id":"5018e976-03f8-4102-8e7a-f1d1d26e3260","system_id":"levelo_inurba_marseille","lat":43.292005,"lon":5.357875,"is_reserved":false,"is_disabled":false,"rental_uris":{"android":"levelo://app?vid=5018e976-03f8-4102-8e7a-f1d1d26e3260","ios":"levelo://app?vid=5018e976-03f8-4102-8e7a-f1d1d26e3260"},"vehicle_type_id":"4","last_reported":1712419659,"current_range_meters":1600,"station_id":"ce4bhb12rcd13ifvqel0","pricing_plan_id":"cebpf4jnsgd1na2vs0mg"},{"bike_id":"6b3d2531-bcd9-4862-b0a2-846c0c39c2bb","system_id":"levelo_inurba_marseille","lat":43.31332,"lon":5.3969,"is_reserved":false,"is_disabled":false,"rental_uris":{"android":"levelo://app?vid=6b3d2531-bcd9-4862-b0a2-846c0c39c2bb","ios":"levelo://app?vid=6b3d2531-bcd9-4862-b0a2-846c0c39c2bb"},"vehicle_type_id":"4","last_reported":1712419659,"current_range_meters":0,"station_id":"ce4bgvp2rcd13ifvqcu0","pricing_plan_id":"cebpf4jnsgd1na2vs0mg"},{"bike_id":"7faa289a-26e2-4387-a8db-e46337982647","system_id":"levelo_inurba_marseille","lat":43.29188,"lon":5.35797,"is_reserved":false,"is_disabled":false,"rental_uris":{"android":"levelo://app?vid=7faa289a-26e2-4387-a8db-e46337982647","ios":"levelo://app?vid=7faa289a-26e2-4387-a8db-e46337982647"},"vehicle_type_id":"4","last_reported":1712419659,"current_range_meters":0,"station_id":"ce4bhb12rcd13ifvqel0","pricing_plan_id":"cebpf4jnsgd1na2vs0mg"},{"bike_id":"c0985460-0c91-4e66-a6d5-b89f01f8ae64","system_id":"levelo_inurba_marseille","lat":43.309047,"lon":5.396551,"is_reserved":false,"is_disabled":false,"rental_uris":{"android":"levelo://app?vid=c0985460-0c91-4e66-a6d5-b89f01f8ae64","ios":"levelo://app?vid=c0985460-0c91-4e66-a6d5-b89f01f8ae64"},"vehicle_type_id":"4","last_reported":1712419659,"current_range_meters":5600,"station_id":"ce4bh012rcd13ifvqcv0","pricing_plan_id":"cebpf4jnsgd1na2vs0mg"},{"bike_id":"2c6963c5-5b68-4c75-b432-66c85b808329","system_id":"levelo_inurba_marseille","lat":43.309038,"lon":5.396546,"is_reserved":false,"is_disabled":false,"rental_uris":{"android":"levelo://app?vid=2c6963c5-5b68-4c75-b432-66c85b808329","ios":"levelo://app?vid=2c6963c5-5b68-4c75-b432-66c85b808329"},"vehicle_type_id":"4","last_reported":1712419659,"current_range_meters":13600,"station_id":"ce4bh012rcd13ifvqcv0","pricing_plan_id":"cebpf4jnsgd1na2vs0mg"},{"bike_id":"ca01e377-1db9-4cb4-b000-59b60b7cd638","system_id":"levelo_inurba_marseille","lat":43.313291,"lon":5.396838,"is_reserved":false,"is_disabled":false,"rental_uris":{"android":"levelo://app?vid=ca01e377-1db9-4cb4-b000-59b60b7cd638","ios":"levelo://app?vid=ca01e377-1db9-4cb4-b000-59b60b7cd638"},"vehicle_type_id":"4","last_reported":1712419659,"current_range_meters":5600,"station_id":"ce4bgvp2rcd13ifvqcu0","pricing_plan_id":"cebpf4jnsgd1na2vs0mg"},{"bike_id":"548cc011-661e-4dae-b457-98393ea1e33f","system_id":"levelo_inurba_marseille","lat":43.30858,"lon":5.39648,"is_reserved":false,"is_disabled":false,"rental_uris":{"android":"levelo://app?vid=548cc011-661e-4dae-b457-98393ea1e33f","ios":"levelo://app?vid=548cc011-661e-4dae-b457-98393ea1e33f"},"vehicle_type_id":"4","last_reported":1712419659,"current_range_meters":0,"station_id":"","pricing_plan_id":"cebpf4jnsgd1na2vs0mg"},{"bike_id":"df974e15-ffb3-41b7-9980-9b026a709b08","system_id":"levelo_inurba_marseille","lat":43.309038,"lon":5.396546,"is_reserved":false,"is_disabled":false,"rental_uris":{"android":"levelo://app?vid=df974e15-ffb3-41b7-9980-9b026a709b08","ios":"levelo://app?vid=df974e15-ffb3-41b7-9980-9b026a709b08"},"vehicle_type_id":"4","last_reported":1712419659,"current_range_meters":7600,"station_id":"ce4bh012rcd13ifvqcv0","pricing_plan_id":"cebpf4jnsgd1na2vs0mg"},{"bike_id":"ae10f3c3-13e7-42dc-94bc-fbae89ed45b4","system_id":"levelo_inurba_marseille","lat":43.29529,"lon":5.385581,"is_reserved":false,"is_disabled":false,"rental_uris":{"android":"levelo://app?vid=ae10f3c3-13e7-42dc-94bc-fbae89ed45b4","ios":"levelo://app?vid=ae10f3c3-13e7-42dc-94bc-fbae89ed45b4"},"vehicle_type_id":"4","last_reported":1712419659,"current_range_meters":0,"station_id":"ce4bgih2rcd13ifvqba0","pricing_plan_id":"cebpf4jnsgd1na2vs0mg"},{"bike_id":"f3edbc25-44f0-420c-ada6-0a8a78ec809a","system_id":"levelo_inurba_marseille","lat":43.29529,"lon":5.385581,"is_reserved":false,"is_disabled":false,"rental_uris":{"android":"levelo://app?vid=f3edbc25-44f0-420c-ada6-0a8a78ec809a","ios":"levelo://app?vid=f3edbc25-44f0-420c-ada6-0a8a78ec809a"},"vehicle_type_id":"4","last_reported":1712419659,"current_range_meters":0,"station_id":"ce4bgih2rcd13ifvqba0","pricing_plan_id":"cebpf4jnsgd1na2vs0mg"},{"bike_id":"554b3585-43b0-4ba2-8009-8bcb1c7acaec","system_id":"levelo_inurba_marseille","lat":43.29529,"lon":5.385581,"is_reserved":false,"is_disabled":false,"rental_uris":{"android":"levelo://app?vid=554b3585-43b0-4ba2-8009-8bcb1c7acaec","ios":"levelo://app?vid=554b3585-43b0-4ba2-8009-8bcb1c7acaec"},"vehicle_type_id":"4","last_reported":1712419659,"current_range_meters":3200,"station_id":"ce4bgih2rcd13ifvqba0","pricing_plan_id":"cebpf4jnsgd1na2vs0mg"},{"bike_id":"4a1c1751-245b-44a4-acec-837a34870ccb","system_id":"levelo_inurba_marseille","lat":43.29529,"lon":5.385581,"is_reserved":false,"is_disabled":false,"rental_uris":{"android":"levelo://app?vid=4a1c1751-245b-44a4-acec-837a34870ccb","ios":"levelo://app?vid=4a1c1751-245b-44a4-acec-837a34870ccb"},"vehicle_type_id":"4","last_reported":1712419659,"current_range_meters":0,"station_id":"ce4bgih2rcd13ifvqba0","pricing_plan_id":"cebpf4jnsgd1na2vs0mg"},{"bike_id":"b3ca5a6b-c352-4db0-beed-2f2d91600c75","system_id":"levelo_inurba_marseille","lat":43.29529,"lon":5.385581,"is_reserved":false,"is_disabled":false,"rental_uris":{"android":"levelo://app?vid=b3ca5a6b-c352-4db0-beed-2f2d91600c75","ios":"levelo://app?vid=b3ca5a6b-c352-4db0-beed-2f2d91600c75"},"vehicle_type_id":"4","last_reported":1712419659,"current_range_meters":0,"station_id":"ce4bgih2rcd13ifvqba0","pricing_plan_id":"cebpf4jnsgd1na2vs0mg"},{"bike_id":"d79ba9e0-c3e8-4c8a-b564-e252019903b5","system_id":"levelo_inurba_marseille","lat":43.291036,"lon":5.359158,"is_reserved":false,"is_disabled":false,"rental_uris":{"android":"levelo://app?vid=d79ba9e0-c3e8-4c8a-b564-e252019903b5","ios":"levelo://app?vid=d79ba9e0-c3e8-4c8a-b564-e252019903b5"},"vehicle_type_id":"4","last_reported":1712419659,"current_range_meters":0,"station_id":"ce4bha92rcd13ifvqeg0","pricing_plan_id":"cebpf4jnsgd1na2vs0mg"},{"bike_id":"a305acdd-16ab-4da5-b0b7-6409723b5345","system_id":"levelo_inurba_marseille","lat":43.290779,"lon":5.371482,"is_reserved":false,"is_disabled":false,"rental_uris":{"android":"levelo://app?vid=a305acdd-16ab-4da5-b0b7-6409723b5345","ios":"levelo://app?vid=a305acdd-16ab-4da5-b0b7-6409723b5345"},"vehicle_type_id":"4","last_reported":1712419659,"current_range_meters":2800,"station_id":"ce4bh5p2rcd13ifvqe4g","pricing_plan_id":"cebpf4jnsgd1na2vs0mg"},{"bike_id":"0fffe828-299c-48fc-8a76-2e226f6964af","system_id":"levelo_inurba_marseille","lat":43.290336,"lon":5.386425,"is_reserved":false,"is_disabled":false,"rental_uris":{"android":"levelo://app?vid=0fffe828-299c-48fc-8a76-2e226f6964af","ios":"levelo://app?vid=0fffe828-299c-48fc-8a76-2e226f6964af"},"vehicle_type_id":"4","last_reported":1712419659,"current_range_meters":24800,"station_id":"ce4bh4p2rcd13ifvqe0g","pricing_plan_id":"cebpf4jnsgd1na2vs0mg"},{"bike_id":"0fee7212-1917-4f13-a0d2-727818e19fc3","system_id":"levelo_inurba_marseille","lat":43.302008,"lon":5.394694,"is_reserved":false,"is_disabled":false,"rental_uris":{"android":"levelo://app?vid=0fee7212-1917-4f13-a0d2-727818e19fc3","ios":"levelo://app?vid=0fee7212-1917-4f13-a0d2-727818e19fc3"},"vehicle_type_id":"4","last_reported":1712419659,"current_range_meters":7200,"station_id":"ce4bh0p2rcd13ifvqd70","pricing_plan_id":"cebpf4jnsgd1na2vs0mg"},{"bike_id":"e477e237-9d54-431c-bf0c-b5cfb72ce204","system_id":"levelo_inurba_marseille","lat":43.30202,"lon":5.39464,"is_reserved":false,"is_disabled":false,"rental_uris":{"android":"levelo://app?vid=e477e237-9d54-431c-bf0c-b5cfb72ce204","ios":"levelo://app?vid=e477e237-9d54-431c-bf0c-b5cfb72ce204"},"vehicle_type_id":"4","last_reported":1712419659,"current_range_meters":0,"station_id":"ce4bh0p2rcd13ifvqd70","pricing_plan_id":"cebpf4jnsgd1na2vs0mg"},{"bike_id":"799a614f-8c2c-492e-b052-f18cb105d4c7","system_id":"levelo_inurba_marseille","lat":43.290631,"lon":5.359244,"is_reserved":false,"is_disabled":false,"rental_uris":{"android":"levelo://app?vid=799a614f-8c2c-492e-b052-f18cb105d4c7","ios":"levelo://app?vid=799a614f-8c2c-492e-b052-f18cb105d4c7"},"vehicle_type_id":"4","last_reported":1712419659,"current_range_meters":5200,"station_id":"ce4bha92rcd13ifvqeg0","pricing_plan_id":"cebpf4jnsgd1na2vs0mg"},{"bike_id":"86b563da-5e5b-4bc3-90d6-9e661df4cf1b","system_id":"levelo_inurba_marseille","lat":43.289184,"lon":5.366408,"is_reserved":false,"is_disabled":false,"rental_uris":{"android":"levelo://app?vid=86b563da-5e5b-4bc3-90d6-9e661df4cf1b","ios":"levelo://app?vid=86b563da-5e5b-4bc3-90d6-9e661df4cf1b"},"vehicle_type_id":"4","last_reported":1712419659,"current_range_meters":0,"station_id":"ce4bhap2rcd13ifvqek0","pricing_plan_id":"cebpf4jnsgd1na2vs0mg"},{"bike_id":"29c54aa3-7a69-49c0-8b79-cc1c5cb9041a","system_id":"levelo_inurba_marseille","lat":43.29424,"lon":5.38629,"is_reserved":false,"is_disabled":false,"rental_uris":{"android":"levelo://app?vid=29c54aa3-7a69-49c0-8b79-cc1c5cb9041a","ios":"levelo://app?vid=29c54aa3-7a69-49c0-8b79-cc1c5cb9041a"},"vehicle_type_id":"4","last_reported":1712419659,"current_range_meters":2000,"station_id":"ce4bh2h2rcd13ifvqdh0","pricing_plan_id":"cebpf4jnsgd1na2vs0mg"},{"bike_id":"7ba13818-5b0f-4eec-b503-3404efd5ed1b","system_id":"levelo_inurba_marseille","lat":43.294153,"lon":5.386305,"is_reserved":false,"is_disabled":false,"rental_uris":{"android":"levelo://app?vid=7ba13818-5b0f-4eec-b503-3404efd5ed1b","ios":"levelo://app?vid=7ba13818-5b0f-4eec-b503-3404efd5ed1b"},"vehicle_type_id":"4","last_reported":1712419659,"current_range_meters":0,"station_id":"ce4bh2h2rcd13ifvqdh0","pricing_plan_id":"cebpf4jnsgd1na2vs0mg"},{"bike_id":"14195be5-1dd9-4cfc-b775-72f03b0bd8d6","system_id":"levelo_inurba_marseille","lat":43.28943,"lon":5.36634,"is_reserved":false,"is_disabled":false,"rental_uris":{"android":"levelo://app?vid=14195be5-1dd9-4cfc-b775-72f03b0bd8d6","ios":"levelo://app?vid=14195be5-1dd9-4cfc-b775-72f03b0bd8d6"},"vehicle_type_id":"4","last_reported":1712419659,"current_range_meters":0,"station_id":"ce4bhap2rcd13ifvqek0","pricing_plan_id":"cebpf4jnsgd1na2vs0mg"},{"bike_id":"c85f401e-89c1-48e5-88a8-49f3232bdc5f","system_id":"levelo_inurba_marseille","lat":43.29416,"lon":5.38628,"is_reserved":false,"is_disabled":false,"rental_uris":{"android":"levelo://app?vid=c85f401e-89c1-48e5-88a8-49f3232bdc5f","ios":"levelo://app?vid=c85f401e-89c1-48e5-88a8-49f3232bdc5f"},"vehicle_type_id":"4","last_reported":1712419659,"current_range_meters":0,"station_id":"ce4bh2h2rcd13ifvqdh0","pricing_plan_id":"cebpf4jnsgd1na2vs0mg"},{"bike_id":"1d4ecd5d-8b8d-491b-b4c0-827f5e022a91","system_id":"levelo_inurba_marseille","lat":43.289184,"lon":5.366408,"is_reserved":false,"is_disabled":false,"rental_uris":{"android":"levelo://app?vid=1d4ecd5d-8b8d-491b-b4c0-827f5e022a91","ios":"levelo://app?vid=1d4ecd5d-8b8d-491b-b4c0-827f5e022a91"},"vehicle_type_id":"4","last_reported":1712419659,"current_range_meters":8800,"station_id":"ce4bhap2rcd13ifvqek0","pricing_plan_id":"cebpf4jnsgd1na2vs0mg"},{"bike_id":"e236908f-d568-467d-a179-2a1662e731bf","system_id":"levelo_inurba_marseille","lat":43.289184,"lon":5.366408,"is_reserved":false,"is_disabled":false,"rental_uris":{"android":"levelo://app?vid=e236908f-d568-467d-a179-2a1662e731bf","ios":"levelo://app?vid=e236908f-d568-467d-a179-2a1662e731bf"},"vehicle_type_id":"4","last_reported":1712419659,"current_range_meters":0,"station_id":"ce4bhap2rcd13ifvqek0","pricing_plan_id":"cebpf4jnsgd1na2vs0mg"},{"bike_id":"fd200de4-b06a-4666-93b5-97c69059a740","system_id":"levelo_inurba_marseille","lat":43.289184,"lon":5.366408,"is_reserved":false,"is_disabled":false,"rental_uris":{"android":"levelo://app?vid=fd200de4-b06a-4666-93b5-97c69059a740","ios":"levelo://app?vid=fd200de4-b06a-4666-93b5-97c69059a740"},"vehicle_type_id":"4","last_reported":1712419659,"current_range_meters":11200,"station_id":"ce4bhap2rcd13ifvqek0","pricing_plan_id":"cebpf4jnsgd1na2vs0mg"},{"bike_id":"ab9d6d8b-402e-4a3d-b65a-bbf6122dac0e","system_id":"levelo_inurba_marseille","lat":43.289184,"lon":5.366408,"is_reserved":false,"is_disabled":false,"rental_uris":{"android":"levelo://app?vid=ab9d6d8b-402e-4a3d-b65a-bbf6122dac0e","ios":"levelo://app?vid=ab9d6d8b-402e-4a3d-b65a-bbf6122dac0e"},"vehicle_type_id":"4","last_reported":1712419659,"current_range_meters":6000,"station_id":"ce4bhap2rcd13ifvqek0","pricing_plan_id":"cebpf4jnsgd1na2vs0mg"},{"bike_id":"55ff9946-a03a-49c7-9072-0187c9a8be75","system_id":"levelo_inurba_marseille","lat":43.289184,"lon":5.366408,"is_reserved":false,"is_disabled":false,"rental_uris":{"android":"levelo://app?vid=55ff9946-a03a-49c7-9072-0187c9a8be75","ios":"levelo://app?vid=55ff9946-a03a-49c7-9072-0187c9a8be75"},"vehicle_type_id":"4","last_reported":1712419659,"current_range_meters":5600,"station_id":"ce4bhap2rcd13ifvqek0","pricing_plan_id":"cebpf4jnsgd1na2vs0mg"},{"bike_id":"7031f9e2-025c-400a-a5dd-4d6ceeca124a","system_id":"levelo_inurba_marseille","lat":43.290327,"lon":5.375711,"is_reserved":false,"is_disabled":false,"rental_uris":{"android":"levelo://app?vid=7031f9e2-025c-400a-a5dd-4d6ceeca124a","ios":"levelo://app?vid=7031f9e2-025c-400a-a5dd-4d6ceeca124a"},"vehicle_type_id":"4","last_reported":1712419659,"current_range_meters":3600,"station_id":"ce4bh692rcd13ifvqe90","pricing_plan_id":"cebpf4jnsgd1na2vs0mg"},{"bike_id":"c29a479a-dea5-44bf-bda4-7bb6f015e03a","system_id":"levelo_inurba_marseille","lat":43.292644,"lon":5.384257,"is_reserved":false,"is_disabled":false,"rental_uris":{"android":"levelo://app?vid=c29a479a-dea5-44bf-bda4-7bb6f015e03a","ios":"levelo://app?vid=c29a479a-dea5-44bf-bda4-7bb6f015e03a"},"vehicle_type_id":"4","last_reported":1712419659,"current_range_meters":800,"station_id":"ce4bh692rcd13ifvqea0","pricing_plan_id":"cebpf4jnsgd1na2vs0mg"},{"bike_id":"71c0bc88-8b3a-498c-a5e0-b2b5d22bbc86","system_id":"levelo_inurba_marseille","lat":43.304274,"lon":5.397513,"is_reserved":false,"is_disabled":false,"rental_uris":{"android":"levelo://app?vid=71c0bc88-8b3a-498c-a5e0-b2b5d22bbc86","ios":"levelo://app?vid=71c0bc88-8b3a-498c-a5e0-b2b5d22bbc86"},"vehicle_type_id":"4","last_reported":1712419659,"current_range_meters":2400,"station_id":"ce4bh092rcd13ifvqd20","pricing_plan_id":"cebpf4jnsgd1na2vs0mg"},{"bike_id":"50bf1d0d-6087-4482-8f3c-658ebc4d8440","system_id":"levelo_inurba_marseille","lat":43.30298,"lon":5.3969,"is_reserved":false,"is_disabled":false,"rental_uris":{"android":"levelo://app?vid=50bf1d0d-6087-4482-8f3c-658ebc4d8440","ios":"levelo://app?vid=50bf1d0d-6087-4482-8f3c-658ebc4d8440"},"vehicle_type_id":"4","last_reported":1712419659,"current_range_meters":1200,"station_id":"ce4bh092rcd13ifvqd30","pricing_plan_id":"cebpf4jnsgd1na2vs0mg"},{"bike_id":"50fcbce1-2f44-47fd-8780-45824b0e2232","system_id":"levelo_inurba_marseille","lat":43.290101,"lon":5.356224,"is_reserved":false,"is_disabled":false,"rental_uris":{"android":"levelo://app?vid=50fcbce1-2f44-47fd-8780-45824b0e2232","ios":"levelo://app?vid=50fcbce1-2f44-47fd-8780-45824b0e2232"},"vehicle_type_id":"4","last_reported":1712419659,"current_range_meters":0,"station_id":"ce4bhb92rcd13ifvqen0","pricing_plan_id":"cebpf4jnsgd1na2vs0mg"},{"bike_id":"3591e1b7-7c5e-44ec-b984-c2b2aaa91e95","system_id":"levelo_inurba_marseille","lat":43.290104,"lon":5.356111,"is_reserved":false,"is_disabled":false,"rental_uris":{"android":"levelo://app?vid=3591e1b7-7c5e-44ec-b984-c2b2aaa91e95","ios":"levelo://app?vid=3591e1b7-7c5e-44ec-b984-c2b2aaa91e95"},"vehicle_type_id":"4","last_reported":1712419659,"current_range_meters":30000,"station_id":"ce4bhb92rcd13ifvqen0","pricing_plan_id":"cebpf4jnsgd1na2vs0mg"},{"bike_id":"a8acf5d5-efcb-4253-911a-a6e786310962","system_id":"levelo_inurba_marseille","lat":43.29006,"lon":5.35619,"is_reserved":false,"is_disabled":false,"rental_uris":{"android":"levelo://app?vid=a8acf5d5-efcb-4253-911a-a6e786310962","ios":"levelo://app?vid=a8acf5d5-efcb-4253-911a-a6e786310962"},"vehicle_type_id":"4","last_reported":1712419659,"current_range_meters":0,"station_id":"ce4bhb92rcd13ifvqen0","pricing_plan_id":"cebpf4jnsgd1na2vs0mg"},{"bike_id":"63b410ff-40db-4d82-b7f5-d7d1789b7515","system_id":"levelo_inurba_marseille","lat":43.29004,"lon":5.35606,"is_reserved":false,"is_disabled":false,"rental_uris":{"android":"levelo://app?vid=63b410ff-40db-4d82-b7f5-d7d1789b7515","ios":"levelo://app?vid=63b410ff-40db-4d82-b7f5-d7d1789b7515"},"vehicle_type_id":"4","last_reported":1712419659,"current_range_meters":30800,"station_id":"ce4bhb92rcd13ifvqen0","pricing_plan_id":"cebpf4jnsgd1na2vs0mg"},{"bike_id":"5049ed79-f09f-456a-b418-7ae9725caa6c","system_id":"levelo_inurba_marseille","lat":43.290103,"lon":5.356114,"is_reserved":false,"is_disabled":false,"rental_uris":{"android":"levelo://app?vid=5049ed79-f09f-456a-b418-7ae9725caa6c","ios":"levelo://app?vid=5049ed79-f09f-456a-b418-7ae9725caa6c"},"vehicle_type_id":"4","last_reported":1712419659,"current_range_meters":0,"station_id":"ce4bhb92rcd13ifvqen0","pricing_plan_id":"cebpf4jnsgd1na2vs0mg"},{"bike_id":"0e313fa0-8f8b-4a12-92bc-8b842eb7a9e3","system_id":"levelo_inurba_marseille","lat":43.290924,"lon":5.381294,"is_reserved":false,"is_disabled":false,"rental_uris":{"android":"levelo://app?vid=0e313fa0-8f8b-4a12-92bc-8b842eb7a9e3","ios":"levelo://app?vid=0e313fa0-8f8b-4a12-92bc-8b842eb7a9e3"},"vehicle_type_id":"4","last_reported":1712419659,"current_range_meters":10000,"station_id":"","pricing_plan_id":"cebpf4jnsgd1na2vs0mg"},{"bike_id":"fe3a94f9-ec62-431d-a836-8d00096b8dcc","system_id":"levelo_inurba_marseille","lat":43.295169,"lon":5.390426,"is_reserved":false,"is_disabled":false,"rental_uris":{"android":"levelo://app?vid=fe3a94f9-ec62-431d-a836-8d00096b8dcc","ios":"levelo://app?vid=fe3a94f9-ec62-431d-a836-8d00096b8dcc"},"vehicle_type_id":"4","last_reported":1712419659,"current_range_meters":27200,"station_id":"ce4bh3p2rcd13ifvqdp0","pricing_plan_id":"cebpf4jnsgd1na2vs0mg"},{"bike_id":"b2a452a9-d64d-4366-876a-d3b5ce6ddfce","system_id":"levelo_inurba_marseille","lat":43.28979,"lon":5.37838,"is_reserved":false,"is_disabled":false,"rental_uris":{"android":"levelo://app?vid=b2a452a9-d64d-4366-876a-d3b5ce6ddfce","ios":"levelo://app?vid=b2a452a9-d64d-4366-876a-d3b5ce6ddfce"},"vehicle_type_id":"4","last_reported":1712419659,"current_range_meters":18800,"station_id":"ce4bh9p2rcd13ifvqed0","pricing_plan_id":"cebpf4jnsgd1na2vs0mg"},{"bike_id":"06cf1197-6cc0-4637-bb8c-911f0a48f08a","system_id":"levelo_inurba_marseille","lat":43.291289,"lon":5.383015,"is_reserved":false,"is_disabled":false,"rental_uris":{"android":"levelo://app?vid=06cf1197-6cc0-4637-bb8c-911f0a48f08a","ios":"levelo://app?vid=06cf1197-6cc0-4637-bb8c-911f0a48f08a"},"vehicle_type_id":"4","last_reported":1712419659,"current_range_meters":0,"station_id":"","pricing_plan_id":"cebpf4jnsgd1na2vs0mg"},{"bike_id":"03420a97-229e-48e8-9a95-3ffc9a63ae9f","system_id":"levelo_inurba_marseille","lat":43.33025,"lon":5.39041,"is_reserved":false,"is_disabled":false,"rental_uris":{"android":"levelo://app?vid=03420a97-229e-48e8-9a95-3ffc9a63ae9f","ios":"levelo://app?vid=03420a97-229e-48e8-9a95-3ffc9a63ae9f"},"vehicle_type_id":"4","last_reported":1712419659,"current_range_meters":0,"station_id":"ce4bhr92rcd13ifvqhrg","pricing_plan_id":"cebpf4jnsgd1na2vs0mg"},{"bike_id":"a6d35766-e0a9-48f8-93fa-e416dc84cf89","system_id":"levelo_inurba_marseille","lat":43.330442,"lon":5.389148,"is_reserved":false,"is_disabled":false,"rental_uris":{"android":"levelo://app?vid=a6d35766-e0a9-48f8-93fa-e416dc84cf89","ios":"levelo://app?vid=a6d35766-e0a9-48f8-93fa-e416dc84cf89"},"vehicle_type_id":"4","last_reported":1712419659,"current_range_meters":4000,"station_id":"ce4bhr92rcd13ifvqhrg","pricing_plan_id":"cebpf4jnsgd1na2vs0mg"},{"bike_id":"1dce9aa1-5232-4b74-8ce2-5f74a5bbde23","system_id":"levelo_inurba_marseille","lat":43.33113,"lon":5.38923,"is_reserved":false,"is_disabled":false,"rental_uris":{"android":"levelo://app?vid=1dce9aa1-5232-4b74-8ce2-5f74a5bbde23","ios":"levelo://app?vid=1dce9aa1-5232-4b74-8ce2-5f74a5bbde23"},"vehicle_type_id":"4","last_reported":1712419659,"current_range_meters":16400,"station_id":"","pricing_plan_id":"cebpf4jnsgd1na2vs0mg"},{"bike_id":"29a0d463-0b5a-4dee-856d-01c0581c56b4","system_id":"levelo_inurba_marseille","lat":43.33023,"lon":5.39056,"is_reserved":false,"is_disabled":false,"rental_uris":{"android":"levelo://app?vid=29a0d463-0b5a-4dee-856d-01c0581c56b4","ios":"levelo://app?vid=29a0d463-0b5a-4dee-856d-01c0581c56b4"},"vehicle_type_id":"4","last_reported":1712419659,"current_range_meters":2400,"station_id":"ce4bhr92rcd13ifvqhrg","pricing_plan_id":"cebpf4jnsgd1na2vs0mg"},{"bike_id":"a4562303-bdfb-49d9-adb1-808e639e20de","system_id":"levelo_inurba_marseille","lat":43.295169,"lon":5.390426,"is_reserved":false,"is_disabled":false,"rental_uris":{"android":"levelo://app?vid=a4562303-bdfb-49d9-adb1-808e639e20de","ios":"levelo://app?vid=a4562303-bdfb-49d9-adb1-808e639e20de"},"vehicle_type_id":"4","last_reported":1712419659,"current_range_meters":11200,"station_id":"ce4bh3p2rcd13ifvqdp0","pricing_plan_id":"cebpf4jnsgd1na2vs0mg"},{"bike_id":"248b049c-b651-4949-865e-c7ad9aafffed","system_id":"levelo_inurba_marseille","lat":43.312609,"lon":5.401662,"is_reserved":false,"is_disabled":false,"rental_uris":{"android":"levelo://app?vid=248b049c-b651-4949-865e-c7ad9aafffed","ios":"levelo://app?vid=248b049c-b651-4949-865e-c7ad9aafffed"},"vehicle_type_id":"4","last_reported":1712419659,"current_range_meters":0,"station_id":"ce4bh092rcd13ifvqd30","pricing_plan_id":"cebpf4jnsgd1na2vs0mg"},{"bike_id":"66877725-1c1d-46fa-95f4-c96e28bf38a8","system_id":"levelo_inurba_marseille","lat":43.30932,"lon":5.40147,"is_reserved":false,"is_disabled":false,"rental_uris":{"android":"levelo://app?vid=66877725-1c1d-46fa-95f4-c96e28bf38a8","ios":"levelo://app?vid=66877725-1c1d-46fa-95f4-c96e28bf38a8"},"vehicle_type_id":"4","last_reported":1712419659,"current_range_meters":0,"station_id":"ce4bgvp2rcd13ifvqct0","pricing_plan_id":"cebpf4jnsgd1na2vs0mg"},{"bike_id":"979ae432-9ff5-4588-908b-a7c2ac444746","system_id":"levelo_inurba_marseille","lat":43.3375,"lon":5.37452,"is_reserved":false,"is_disabled":false,"rental_uris":{"android":"levelo://app?vid=979ae432-9ff5-4588-908b-a7c2ac444746","ios":"levelo://app?vid=979ae432-9ff5-4588-908b-a7c2ac444746"},"vehicle_type_id":"4","last_reported":1712419659,"current_range_meters":30400,"station_id":"","pricing_plan_id":"cebpf4jnsgd1na2vs0mg"},{"bike_id":"65c2c59d-b0cb-4752-b0c3-cea24f02e0db","system_id":"levelo_inurba_marseille","lat":43.309371,"lon":5.401449,"is_reserved":false,"is_disabled":false,"rental_uris":{"android":"levelo://app?vid=65c2c59d-b0cb-4752-b0c3-cea24f02e0db","ios":"levelo://app?vid=65c2c59d-b0cb-4752-b0c3-cea24f02e0db"},"vehicle_type_id":"4","last_reported":1712419659,"current_range_meters":4800,"station_id":"ce4bgvp2rcd13ifvqct0","pricing_plan_id":"cebpf4jnsgd1na2vs0mg"},{"bike_id":"ae65c638-d446-44a9-9311-acd3e4d74b1f","system_id":"levelo_inurba_marseille","lat":43.294314,"lon":5.397498,"is_reserved":false,"is_disabled":false,"rental_uris":{"android":"levelo://app?vid=ae65c638-d446-44a9-9311-acd3e4d74b1f","ios":"levelo://app?vid=ae65c638-d446-44a9-9311-acd3e4d74b1f"},"vehicle_type_id":"4","last_reported":1712419659,"current_range_meters":14000,"station_id":"ce4bh3h2rcd13ifvqdo0","pricing_plan_id":"cebpf4jnsgd1na2vs0mg"},{"bike_id":"d845692e-1409-4c8a-b6fc-663e54844cf9","system_id":"levelo_inurba_marseille","lat":43.309371,"lon":5.401449,"is_reserved":false,"is_disabled":false,"rental_uris":{"android":"levelo://app?vid=d845692e-1409-4c8a-b6fc-663e54844cf9","ios":"levelo://app?vid=d845692e-1409-4c8a-b6fc-663e54844cf9"},"vehicle_type_id":"4","last_reported":1712419659,"current_range_meters":2400,"station_id":"ce4bgvp2rcd13ifvqct0","pricing_plan_id":"cebpf4jnsgd1na2vs0mg"},{"bike_id":"3daa9aa1-f72b-4224-acc8-3be16a8f6e69","system_id":"levelo_inurba_marseille","lat":43.301393,"lon":5.398547,"is_reserved":false,"is_disabled":false,"rental_uris":{"android":"levelo://app?vid=3daa9aa1-f72b-4224-acc8-3be16a8f6e69","ios":"levelo://app?vid=3daa9aa1-f72b-4224-acc8-3be16a8f6e69"},"vehicle_type_id":"4","last_reported":1712419659,"current_range_meters":10800,"station_id":"ce4bh0h2rcd13ifvqd40","pricing_plan_id":"cebpf4jnsgd1na2vs0mg"},{"bike_id":"12d3427d-8609-4011-be6d-478bad4167d6","system_id":"levelo_inurba_marseille","lat":43.3013,"lon":5.39878,"is_reserved":false,"is_disabled":false,"rental_uris":{"android":"levelo://app?vid=12d3427d-8609-4011-be6d-478bad4167d6","ios":"levelo://app?vid=12d3427d-8609-4011-be6d-478bad4167d6"},"vehicle_type_id":"4","last_reported":1712419659,"current_range_meters":0,"station_id":"ce4bh0h2rcd13ifvqd40","pricing_plan_id":"cebpf4jnsgd1na2vs0mg"},{"bike_id":"d7a62939-a945-4603-a499-0753cbc450aa","system_id":"levelo_inurba_marseille","lat":43.286961,"lon":5.373785,"is_reserved":false,"is_disabled":false,"rental_uris":{"android":"levelo://app?vid=d7a62939-a945-4603-a499-0753cbc450aa","ios":"levelo://app?vid=d7a62939-a945-4603-a499-0753cbc450aa"},"vehicle_type_id":"4","last_reported":1712419659,"current_range_meters":10000,"station_id":"ce4bh3p2rcd13ifvqdq0","pricing_plan_id":"cebpf4jnsgd1na2vs0mg"},{"bike_id":"e825007d-76f9-46ed-ad10-10fa65d0678a","system_id":"levelo_inurba_marseille","lat":43.298681,"lon":5.397225,"is_reserved":false,"is_disabled":false,"rental_uris":{"android":"levelo://app?vid=e825007d-76f9-46ed-ad10-10fa65d0678a","ios":"levelo://app?vid=e825007d-76f9-46ed-ad10-10fa65d0678a"},"vehicle_type_id":"4","last_reported":1712419659,"current_range_meters":0,"station_id":"ce4bh0h2rcd13ifvqd50","pricing_plan_id":"cebpf4jnsgd1na2vs0mg"},{"bike_id":"040caf10-6a37-4ea9-8711-45c33310ec6b","system_id":"levelo_inurba_marseille","lat":43.298681,"lon":5.397225,"is_reserved":false,"is_disabled":false,"rental_uris":{"android":"levelo://app?vid=040caf10-6a37-4ea9-8711-45c33310ec6b","ios":"levelo://app?vid=040caf10-6a37-4ea9-8711-45c33310ec6b"},"vehicle_type_id":"4","last_reported":1712419659,"current_range_meters":23200,"station_id":"ce4bh0h2rcd13ifvqd50","pricing_plan_id":"cebpf4jnsgd1na2vs0mg"},{"bike_id":"0d50c1da-4e90-4873-aa6f-71a555451efd","system_id":"levelo_inurba_marseille","lat":43.295196,"lon":5.39397,"is_reserved":false,"is_disabled":false,"rental_uris":{"android":"levelo://app?vid=0d50c1da-4e90-4873-aa6f-71a555451efd","ios":"levelo://app?vid=0d50c1da-4e90-4873-aa6f-71a555451efd"},"vehicle_type_id":"4","last_reported":1712419659,"current_range_meters":9600,"station_id":"ce4bh292rcd13ifvqdf0","pricing_plan_id":"cebpf4jnsgd1na2vs0mg"},{"bike_id":"3e839062-f532-46b9-9441-51a08be39301","system_id":"levelo_inurba_marseille","lat":43.298681,"lon":5.397225,"is_reserved":false,"is_disabled":false,"rental_uris":{"android":"levelo://app?vid=3e839062-f532-46b9-9441-51a08be39301","ios":"levelo://app?vid=3e839062-f532-46b9-9441-51a08be39301"},"vehicle_type_id":"4","last_reported":1712419659,"current_range_meters":800,"station_id":"ce4bh0h2rcd13ifvqd50","pricing_plan_id":"cebpf4jnsgd1na2vs0mg"},{"bike_id":"ef436ecb-5652-4407-8d29-64298b52874a","system_id":"levelo_inurba_marseille","lat":43.286591,"lon":5.363346,"is_reserved":false,"is_disabled":false,"rental_uris":{"android":"levelo://app?vid=ef436ecb-5652-4407-8d29-64298b52874a","ios":"levelo://app?vid=ef436ecb-5652-4407-8d29-64298b52874a"},"vehicle_type_id":"4","last_reported":1712419659,"current_range_meters":21600,"station_id":"ce4bhah2rcd13ifvqej0","pricing_plan_id":"cebpf4jnsgd1na2vs0mg"},{"bike_id":"ded4a659-f4c1-4872-92c1-99968d0bdefc","system_id":"levelo_inurba_marseille","lat":43.295196,"lon":5.39397,"is_reserved":false,"is_disabled":false,"rental_uris":{"android":"levelo://app?vid=ded4a659-f4c1-4872-92c1-99968d0bdefc","ios":"levelo://app?vid=ded4a659-f4c1-4872-92c1-99968d0bdefc"},"vehicle_type_id":"4","last_reported":1712419659,"current_range_meters":18800,"station_id":"ce4bh292rcd13ifvqdf0","pricing_plan_id":"cebpf4jnsgd1na2vs0mg"},{"bike_id":"e54d32bf-0ccf-4caa-8b10-b88990af0105","system_id":"levelo_inurba_marseille","lat":43.29507,"lon":5.39398,"is_reserved":false,"is_disabled":false,"rental_uris":{"android":"levelo://app?vid=e54d32bf-0ccf-4caa-8b10-b88990af0105","ios":"levelo://app?vid=e54d32bf-0ccf-4caa-8b10-b88990af0105"},"vehicle_type_id":"4","last_reported":1712419659,"current_range_meters":1600,"station_id":"ce4bh292rcd13ifvqdf0","pricing_plan_id":"cebpf4jnsgd1na2vs0mg"},{"bike_id":"41956f0e-0b5f-43d0-94ac-fe60a1134018","system_id":"levelo_inurba_marseille","lat":43.298681,"lon":5.397225,"is_reserved":false,"is_disabled":false,"rental_uris":{"android":"levelo://app?vid=41956f0e-0b5f-43d0-94ac-fe60a1134018","ios":"levelo://app?vid=41956f0e-0b5f-43d0-94ac-fe60a1134018"},"vehicle_type_id":"4","last_reported":1712419659,"current_range_meters":21200,"station_id":"ce4bh0h2rcd13ifvqd50","pricing_plan_id":"cebpf4jnsgd1na2vs0mg"},{"bike_id":"3a2931cb-5cd2-4bd1-b91d-d18dcb17603f","system_id":"levelo_inurba_marseille","lat":43.302759,"lon":5.400793,"is_reserved":false,"is_disabled":false,"rental_uris":{"android":"levelo://app?vid=3a2931cb-5cd2-4bd1-b91d-d18dcb17603f","ios":"levelo://app?vid=3a2931cb-5cd2-4bd1-b91d-d18dcb17603f"},"vehicle_type_id":"4","last_reported":1712419659,"current_range_meters":25200,"station_id":"ce4bgvh2rcd13ifvqcs0","pricing_plan_id":"cebpf4jnsgd1na2vs0mg"},{"bike_id":"ac7de553-b135-433c-a313-0105536134b8","system_id":"levelo_inurba_marseille","lat":43.290336,"lon":5.386425,"is_reserved":false,"is_disabled":false,"rental_uris":{"android":"levelo://app?vid=ac7de553-b135-433c-a313-0105536134b8","ios":"levelo://app?vid=ac7de553-b135-433c-a313-0105536134b8"},"vehicle_type_id":"4","last_reported":1712419659,"current_range_meters":10000,"station_id":"ce4bh4p2rcd13ifvqe0g","pricing_plan_id":"cebpf4jnsgd1na2vs0mg"},{"bike_id":"fdb6b080-bdae-495a-ac06-9a47ce65c480","system_id":"levelo_inurba_marseille","lat":43.28925,"lon":5.38406,"is_reserved":false,"is_disabled":false,"rental_uris":{"android":"levelo://app?vid=fdb6b080-bdae-495a-ac06-9a47ce65c480","ios":"levelo://app?vid=fdb6b080-bdae-495a-ac06-9a47ce65c480"},"vehicle_type_id":"4","last_reported":1712419659,"current_range_meters":8400,"station_id":"ce4bh612rcd13ifvqe6g","pricing_plan_id":"cebpf4jnsgd1na2vs0mg"},{"bike_id":"5756c558-eb4d-46da-898e-d3424f2827f0","system_id":"levelo_inurba_marseille","lat":43.28924,"lon":5.38407,"is_reserved":false,"is_disabled":false,"rental_uris":{"android":"levelo://app?vid=5756c558-eb4d-46da-898e-d3424f2827f0","ios":"levelo://app?vid=5756c558-eb4d-46da-898e-d3424f2827f0"},"vehicle_type_id":"4","last_reported":1712419659,"current_range_meters":0,"station_id":"ce4bh612rcd13ifvqe6g","pricing_plan_id":"cebpf4jnsgd1na2vs0mg"},{"bike_id":"526ebe7a-074a-477d-a8b4-f097973c5134","system_id":"levelo_inurba_marseille","lat":43.289307,"lon":5.38406,"is_reserved":false,"is_disabled":false,"rental_uris":{"android":"levelo://app?vid=526ebe7a-074a-477d-a8b4-f097973c5134","ios":"levelo://app?vid=526ebe7a-074a-477d-a8b4-f097973c5134"},"vehicle_type_id":"4","last_reported":1712419659,"current_range_meters":0,"station_id":"ce4bh612rcd13ifvqe6g","pricing_plan_id":"cebpf4jnsgd1na2vs0mg"},{"bike_id":"3551b508-2009-4220-aa61-c238b1dd4c15","system_id":"levelo_inurba_marseille","lat":43.290336,"lon":5.386425,"is_reserved":false,"is_disabled":false,"rental_uris":{"android":"levelo://app?vid=3551b508-2009-4220-aa61-c238b1dd4c15","ios":"levelo://app?vid=3551b508-2009-4220-aa61-c238b1dd4c15"},"vehicle_type_id":"4","last_reported":1712419659,"current_range_meters":0,"station_id":"ce4bh4p2rcd13ifvqe0g","pricing_plan_id":"cebpf4jnsgd1na2vs0mg"},{"bike_id":"40545f37-74ab-417d-b7b7-e601a752d177","system_id":"levelo_inurba_marseille","lat":43.289307,"lon":5.38406,"is_reserved":false,"is_disabled":false,"rental_uris":{"android":"levelo://app?vid=40545f37-74ab-417d-b7b7-e601a752d177","ios":"levelo://app?vid=40545f37-74ab-417d-b7b7-e601a752d177"},"vehicle_type_id":"4","last_reported":1712419659,"current_range_meters":7600,"station_id":"ce4bh612rcd13ifvqe6g","pricing_plan_id":"cebpf4jnsgd1na2vs0mg"},{"bike_id":"dbd98ab6-e4c9-40d4-a1f7-da4f78537ad6","system_id":"levelo_inurba_marseille","lat":43.290336,"lon":5.386425,"is_reserved":false,"is_disabled":false,"rental_uris":{"android":"levelo://app?vid=dbd98ab6-e4c9-40d4-a1f7-da4f78537ad6","ios":"levelo://app?vid=dbd98ab6-e4c9-40d4-a1f7-da4f78537ad6"},"vehicle_type_id":"4","last_reported":1712419659,"current_range_meters":0,"station_id":"ce4bh4p2rcd13ifvqe0g","pricing_plan_id":"cebpf4jnsgd1na2vs0mg"},{"bike_id":"dc1a9d95-4381-4cba-b7db-a11f1c16bdde","system_id":"levelo_inurba_marseille","lat":43.286039,"lon":5.370681,"is_reserved":false,"is_disabled":false,"rental_uris":{"android":"levelo://app?vid=dc1a9d95-4381-4cba-b7db-a11f1c16bdde","ios":"levelo://app?vid=dc1a9d95-4381-4cba-b7db-a11f1c16bdde"},"vehicle_type_id":"4","last_reported":1712419659,"current_range_meters":4800,"station_id":"ce4bht12rcd13ifvqi60","pricing_plan_id":"cebpf4jnsgd1na2vs0mg"},{"bike_id":"07605bbc-64c7-419d-9af3-369bdf194e5c","system_id":"levelo_inurba_marseille","lat":43.287399,"lon":5.354719,"is_reserved":false,"is_disabled":false,"rental_uris":{"android":"levelo://app?vid=07605bbc-64c7-419d-9af3-369bdf194e5c","ios":"levelo://app?vid=07605bbc-64c7-419d-9af3-369bdf194e5c"},"vehicle_type_id":"4","last_reported":1712419659,"current_range_meters":16800,"station_id":"ce4bhah2rcd13ifvqei0","pricing_plan_id":"cebpf4jnsgd1na2vs0mg"},{"bike_id":"697edc14-57b5-4a56-a0b5-6bdebdcfc879","system_id":"levelo_inurba_marseille","lat":43.287184,"lon":5.37937,"is_reserved":false,"is_disabled":false,"rental_uris":{"android":"levelo://app?vid=697edc14-57b5-4a56-a0b5-6bdebdcfc879","ios":"levelo://app?vid=697edc14-57b5-4a56-a0b5-6bdebdcfc879"},"vehicle_type_id":"4","last_reported":1712419659,"current_range_meters":1200,"station_id":"ce4bh9p2rcd13ifvqec0","pricing_plan_id":"cebpf4jnsgd1na2vs0mg"},{"bike_id":"eebfe794-428a-4729-b6f8-7662995a1446","system_id":"levelo_inurba_marseille","lat":43.287168,"lon":5.379275,"is_reserved":false,"is_disabled":false,"rental_uris":{"android":"levelo://app?vid=eebfe794-428a-4729-b6f8-7662995a1446","ios":"levelo://app?vid=eebfe794-428a-4729-b6f8-7662995a1446"},"vehicle_type_id":"4","last_reported":1712419659,"current_range_meters":26800,"station_id":"ce4bh9p2rcd13ifvqec0","pricing_plan_id":"cebpf4jnsgd1na2vs0mg"},{"bike_id":"36b12fed-2191-4412-94be-4f3ae1c84ed3","system_id":"levelo_inurba_marseille","lat":43.284764,"lon":5.374526,"is_reserved":false,"is_disabled":false,"rental_uris":{"android":"levelo://app?vid=36b12fed-2191-4412-94be-4f3ae1c84ed3","ios":"levelo://app?vid=36b12fed-2191-4412-94be-4f3ae1c84ed3"},"vehicle_type_id":"4","last_reported":1712419659,"current_range_meters":6000,"station_id":"ce4bh412rcd13ifvqds0","pricing_plan_id":"cebpf4jnsgd1na2vs0mg"},{"bike_id":"857d4505-1740-41b4-bc53-76636f55274b","system_id":"levelo_inurba_marseille","lat":43.284538,"lon":5.358657,"is_reserved":false,"is_disabled":false,"rental_uris":{"android":"levelo://app?vid=857d4505-1740-41b4-bc53-76636f55274b","ios":"levelo://app?vid=857d4505-1740-41b4-bc53-76636f55274b"},"vehicle_type_id":"4","last_reported":1712419659,"current_range_meters":16000,"station_id":"ce4bhah2rcd13ifvqei0","pricing_plan_id":"cebpf4jnsgd1na2vs0mg"},{"bike_id":"7b499c58-ccd2-4d89-ab1d-c0d227ac475b","system_id":"levelo_inurba_marseille","lat":43.284534,"lon":5.358662,"is_reserved":false,"is_disabled":false,"rental_uris":{"android":"levelo://app?vid=7b499c58-ccd2-4d89-ab1d-c0d227ac475b","ios":"levelo://app?vid=7b499c58-ccd2-4d89-ab1d-c0d227ac475b"},"vehicle_type_id":"4","last_reported":1712419659,"current_range_meters":0,"station_id":"ce4bhah2rcd13ifvqei0","pricing_plan_id":"cebpf4jnsgd1na2vs0mg"},{"bike_id":"0187a914-71ce-4c1b-af60-044de02eafe4","system_id":"levelo_inurba_marseille","lat":43.284534,"lon":5.358662,"is_reserved":false,"is_disabled":false,"rental_uris":{"android":"levelo://app?vid=0187a914-71ce-4c1b-af60-044de02eafe4","ios":"levelo://app?vid=0187a914-71ce-4c1b-af60-044de02eafe4"},"vehicle_type_id":"4","last_reported":1712419659,"current_range_meters":30000,"station_id":"ce4bhah2rcd13ifvqei0","pricing_plan_id":"cebpf4jnsgd1na2vs0mg"},{"bike_id":"d146310d-916e-46a2-ad7b-80bc9ae05dd9","system_id":"levelo_inurba_marseille","lat":43.284534,"lon":5.358662,"is_reserved":false,"is_disabled":false,"rental_uris":{"android":"levelo://app?vid=d146310d-916e-46a2-ad7b-80bc9ae05dd9","ios":"levelo://app?vid=d146310d-916e-46a2-ad7b-80bc9ae05dd9"},"vehicle_type_id":"4","last_reported":1712419659,"current_range_meters":1200,"station_id":"ce4bhah2rcd13ifvqei0","pricing_plan_id":"cebpf4jnsgd1na2vs0mg"},{"bike_id":"9795d1d7-f7f1-4a82-aa02-d7c97a706674","system_id":"levelo_inurba_marseille","lat":43.284534,"lon":5.358662,"is_reserved":false,"is_disabled":false,"rental_uris":{"android":"levelo://app?vid=9795d1d7-f7f1-4a82-aa02-d7c97a706674","ios":"levelo://app?vid=9795d1d7-f7f1-4a82-aa02-d7c97a706674"},"vehicle_type_id":"4","last_reported":1712419659,"current_range_meters":6400,"station_id":"ce4bhah2rcd13ifvqei0","pricing_plan_id":"cebpf4jnsgd1na2vs0mg"},{"bike_id":"991f3c81-649b-469c-92cb-db0a80738acf","system_id":"levelo_inurba_marseille","lat":43.284538,"lon":5.358657,"is_reserved":false,"is_disabled":false,"rental_uris":{"android":"levelo://app?vid=991f3c81-649b-469c-92cb-db0a80738acf","ios":"levelo://app?vid=991f3c81-649b-469c-92cb-db0a80738acf"},"vehicle_type_id":"4","last_reported":1712419659,"current_range_meters":800,"station_id":"ce4bhah2rcd13ifvqei0","pricing_plan_id":"cebpf4jnsgd1na2vs0mg"},{"bike_id":"341f92a0-9b1c-4bb2-9f35-1251d12f73e3","system_id":"levelo_inurba_marseille","lat":43.284538,"lon":5.358657,"is_reserved":false,"is_disabled":false,"rental_uris":{"android":"levelo://app?vid=341f92a0-9b1c-4bb2-9f35-1251d12f73e3","ios":"levelo://app?vid=341f92a0-9b1c-4bb2-9f35-1251d12f73e3"},"vehicle_type_id":"4","last_reported":1712419659,"current_range_meters":27200,"station_id":"ce4bhah2rcd13ifvqei0","pricing_plan_id":"cebpf4jnsgd1na2vs0mg"},{"bike_id":"720ed66d-0bbb-4527-8515-4304376d01a0","system_id":"levelo_inurba_marseille","lat":43.284538,"lon":5.358657,"is_reserved":false,"is_disabled":false,"rental_uris":{"android":"levelo://app?vid=720ed66d-0bbb-4527-8515-4304376d01a0","ios":"levelo://app?vid=720ed66d-0bbb-4527-8515-4304376d01a0"},"vehicle_type_id":"4","last_reported":1712419659,"current_range_meters":2000,"station_id":"ce4bhah2rcd13ifvqei0","pricing_plan_id":"cebpf4jnsgd1na2vs0mg"},{"bike_id":"47e4f1eb-cd1c-4881-b823-a72949d39316","system_id":"levelo_inurba_marseille","lat":43.28455,"lon":5.35897,"is_reserved":false,"is_disabled":false,"rental_uris":{"android":"levelo://app?vid=47e4f1eb-cd1c-4881-b823-a72949d39316","ios":"levelo://app?vid=47e4f1eb-cd1c-4881-b823-a72949d39316"},"vehicle_type_id":"4","last_reported":1712419659,"current_range_meters":0,"station_id":"ce4bhah2rcd13ifvqei0","pricing_plan_id":"cebpf4jnsgd1na2vs0mg"},{"bike_id":"d007bc41-f5e7-4e9a-852f-be344f63031a","system_id":"levelo_inurba_marseille","lat":43.28619,"lon":5.35104,"is_reserved":false,"is_disabled":false,"rental_uris":{"android":"levelo://app?vid=d007bc41-f5e7-4e9a-852f-be344f63031a","ios":"levelo://app?vid=d007bc41-f5e7-4e9a-852f-be344f63031a"},"vehicle_type_id":"4","last_reported":1712419659,"current_range_meters":12400,"station_id":"ce4bhch2rcd13ifvqeug","pricing_plan_id":"cebpf4jnsgd1na2vs0mg"},{"bike_id":"65b31bbc-25f7-485f-948c-a6717019b963","system_id":"levelo_inurba_marseille","lat":43.285856,"lon":5.350771,"is_reserved":false,"is_disabled":false,"rental_uris":{"android":"levelo://app?vid=65b31bbc-25f7-485f-948c-a6717019b963","ios":"levelo://app?vid=65b31bbc-25f7-485f-948c-a6717019b963"},"vehicle_type_id":"4","last_reported":1712419659,"current_range_meters":0,"station_id":"ce4bhch2rcd13ifvqeug","pricing_plan_id":"cebpf4jnsgd1na2vs0mg"},{"bike_id":"f11a5995-1775-40cf-bab8-7f1739fa5d49","system_id":"levelo_inurba_marseille","lat":43.28614,"lon":5.35098,"is_reserved":false,"is_disabled":false,"rental_uris":{"android":"levelo://app?vid=f11a5995-1775-40cf-bab8-7f1739fa5d49","ios":"levelo://app?vid=f11a5995-1775-40cf-bab8-7f1739fa5d49"},"vehicle_type_id":"4","last_reported":1712419659,"current_range_meters":0,"station_id":"ce4bhch2rcd13ifvqeug","pricing_plan_id":"cebpf4jnsgd1na2vs0mg"},{"bike_id":"0637529b-5397-4f7a-af3b-4e8acb3222a2","system_id":"levelo_inurba_marseille","lat":43.28613,"lon":5.35101,"is_reserved":false,"is_disabled":false,"rental_uris":{"android":"levelo://app?vid=0637529b-5397-4f7a-af3b-4e8acb3222a2","ios":"levelo://app?vid=0637529b-5397-4f7a-af3b-4e8acb3222a2"},"vehicle_type_id":"4","last_reported":1712419659,"current_range_meters":0,"station_id":"ce4bhch2rcd13ifvqeug","pricing_plan_id":"cebpf4jnsgd1na2vs0mg"},{"bike_id":"14e1cd77-822b-4310-b276-b11708351b6d","system_id":"levelo_inurba_marseille","lat":43.285856,"lon":5.350771,"is_reserved":false,"is_disabled":false,"rental_uris":{"android":"levelo://app?vid=14e1cd77-822b-4310-b276-b11708351b6d","ios":"levelo://app?vid=14e1cd77-822b-4310-b276-b11708351b6d"},"vehicle_type_id":"4","last_reported":1712419659,"current_range_meters":13600,"station_id":"ce4bhch2rcd13ifvqeug","pricing_plan_id":"cebpf4jnsgd1na2vs0mg"},{"bike_id":"e3913e22-dbc6-48a4-b075-dcd48c37276d","system_id":"levelo_inurba_marseille","lat":43.285848,"lon":5.350787,"is_reserved":false,"is_disabled":false,"rental_uris":{"android":"levelo://app?vid=e3913e22-dbc6-48a4-b075-dcd48c37276d","ios":"levelo://app?vid=e3913e22-dbc6-48a4-b075-dcd48c37276d"},"vehicle_type_id":"4","last_reported":1712419659,"current_range_meters":0,"station_id":"ce4bhch2rcd13ifvqeug","pricing_plan_id":"cebpf4jnsgd1na2vs0mg"},{"bike_id":"b514cd9e-04a9-4160-8b1f-de034de5167a","system_id":"levelo_inurba_marseille","lat":43.283998,"lon":5.375062,"is_reserved":false,"is_disabled":false,"rental_uris":{"android":"levelo://app?vid=b514cd9e-04a9-4160-8b1f-de034de5167a","ios":"levelo://app?vid=b514cd9e-04a9-4160-8b1f-de034de5167a"},"vehicle_type_id":"4","last_reported":1712419659,"current_range_meters":0,"station_id":"ce4bh412rcd13ifvqds0","pricing_plan_id":"cebpf4jnsgd1na2vs0mg"},{"bike_id":"3a07f65d-ae39-41d3-8b6e-9bd3ab65c7a2","system_id":"levelo_inurba_marseille","lat":43.283998,"lon":5.375062,"is_reserved":false,"is_disabled":false,"rental_uris":{"android":"levelo://app?vid=3a07f65d-ae39-41d3-8b6e-9bd3ab65c7a2","ios":"levelo://app?vid=3a07f65d-ae39-41d3-8b6e-9bd3ab65c7a2"},"vehicle_type_id":"4","last_reported":1712419659,"current_range_meters":11600,"station_id":"ce4bh412rcd13ifvqds0","pricing_plan_id":"cebpf4jnsgd1na2vs0mg"},{"bike_id":"5728f6dd-7666-4278-ae80-87f250999e44","system_id":"levelo_inurba_marseille","lat":43.283998,"lon":5.375062,"is_reserved":false,"is_disabled":false,"rental_uris":{"android":"levelo://app?vid=5728f6dd-7666-4278-ae80-87f250999e44","ios":"levelo://app?vid=5728f6dd-7666-4278-ae80-87f250999e44"},"vehicle_type_id":"4","last_reported":1712419659,"current_range_meters":0,"station_id":"ce4bh412rcd13ifvqds0","pricing_plan_id":"cebpf4jnsgd1na2vs0mg"},