{"last_updated":1743451919,"ttl":60,"version":"2.2","data":{"bikes":[{"bike_id":"d7ac5543-d619-4b2b-937a-83d5a03a8644","system_id":"levelo_inurba_marseille","lat":43.2926,"lon":5.40907,"is_reserved":false,"is_disabled":false,"rental_uris":{"android":"levelo://app?vid=d7ac5543-d619-4b2b-937a-83d5a03a8644","ios":"levelo://app?vid=d7ac5543-d619-4b2b-937a-83d5a03a8644"},"vehicle_type_id":"4","last_reported":1743451919,"current_range_meters":2800,"station_id":"ce4bh192rcd13ifvqdc0","pricing_plan_id":"cebpf4jnsgd1na2vs0mg"},{"bike_id":"d0ed36b4-3c5a-4da6-8fb4-955c321dd03a","system_id":"levelo_inurba_marseille","lat":43.27545,"lon":5.41004,"is_reserved":false,"is_disabled":false,"rental_uris":{"android":"levelo://app?vid=d0ed36b4-3c5a-4da6-8fb4-955c321dd03a","ios":"levelo://app?vid=d0ed36b4-3c5a-4da6-8fb4-955c321dd03a"},"vehicle_type_id":"4","last_reported":1743451919,"current_range_meters":2800,"station_id":"","pricing_plan_id":"cebpf4jnsgd1na2vs0mg"},{"bike_id":"42bc7b23-0e2f-4d72-b583-40bcdabb28c7","system_id":"levelo_inurba_marseille","lat":43.29543,"lon":5.3738,"is_reserved":false,"is_disabled":true,"rental_uris":{"android":"levelo://app?vid=42bc7b23-0e2f-4d72-b583-40bcdabb28c7","ios":"levelo://app?vid=42bc7b23-0e2f-4d72-b583-40bcdabb28c7"},"vehicle_type_id":"4","last_reported":1743451919,"current_range_meters":2800,"station_id":"","pricing_plan_id":"cebpf4jnsgd1na2vs0mg"},{"bike_id":"005dc9a6-0d49-4f4f-9c97-68fa42936b4e","system_id":"levelo_inurba_marseille","lat":43.25102,"lon":5.40329,"is_reserved":false,"is_disabled":false,"rental_uris":{"android":"levelo://app?vid=005dc9a6-0d49-4f4f-9c97-68fa42936b4e","ios":"levelo://app?vid=005dc9a6-0d49-4f4f-9c97-68fa42936b4e"},"vehicle_type_id":"4","last_reported":1743451919,"current_range_meters":2800,"station_id":"ce4bhlh2rcd13ifvqgig","pricing_plan_id":"cebpf4jnsgd1na2vs0mg"},{"bike_id":"bcead3f1-2898-48f6-b07c-b20a32f7bedc","system_id":"levelo_inurba_marseille","lat":43.309612,"lon":5.390227,"is_reserved":false,"is_disabled":false,"rental_uris":{"android":"levelo://app?vid=bcead3f1-2898-48f6-b07c-b20a32f7bedc","ios":"levelo://app?vid=bcead3f1-2898-48f6-b07c-b20a32f7bedc"},"vehicle_type_id":"4","last_reported":1743451919,"current_range_meters":4400,"station_id":"ce4bgup2rcd13ifvqco0","pricing_plan_id":"cebpf4jnsgd1na2vs0mg"},{"bike_id":"a76c6e3c-8e9f-4c5d-8b35-56113571ae05","system_id":"levelo_inurba_marseille","lat":43.28408,"lon":5.34996,"is_reserved":false,"is_disabled":false,"rental_uris":{"android":"levelo://app?vid=a76c6e3c-8e9f-4c5d-8b35-56113571ae05","ios":"levelo://app?vid=a76c6e3c-8e9f-4c5d-8b35-56113571ae05"},"vehicle_type_id":"4","last_reported":1743451919,"current_range_meters":3200,"station_id":"ce4bhbh2rcd13ifvqepg","pricing_plan_id":"cebpf4jnsgd1na2vs0mg"},{"bike_id":"2de1050b-8808-4018-94c2-5f9d98630754","system_id":"levelo_inurba_marseille","lat":43.30637,"lon":5.4009,"is_reserved":false,"is_disabled":false,"rental_uris":{"android":"levelo://app?vid=2de1050b-8808-4018-94c2-5f9d98630754","ios":"levelo://app?vid=2de1050b-8808-4018-94c2-5f9d98630754"},"vehicle_type_id":"4","last_reported":1743451919,"current_range_meters":3200,"station_id":"ce4bh112rcd13ifvqda0","pricing_plan_id":"cebpf4jnsgd1na2vs0mg"},{"bike_id":"b49cf67b-6dfd-4c36-b8d5-6653b8acc44e","system_id":"levelo_inurba_marseille","lat":43.313634,"lon":5.367105,"is_reserved":false,"is_disabled":false,"rental_uris":{"android":"levelo://app?vid=b49cf67b-6dfd-4c36-b8d5-6653b8acc44e","ios":"levelo://app?vid=b49cf67b-6dfd-4c36-b8d5-6653b8acc44e"},"vehicle_type_id":"4","last_reported":1743451919,"current_range_meters":3200,"station_id":"chh1huq6cuj3fo74tm60","pricing_plan_id":"cebpf4jnsgd1na2vs0mg"},{"bike_id":"a80dcce0-e492-45dd-8904-aeea8372c8ac","system_id":"levelo_inurba_marseille","lat":43.2603,"lon":5.3755,"is_reserved":false,"is_disabled":false,"rental_uris":{"android":"levelo://app?vid=a80dcce0-e492-45dd-8904-aeea8372c8ac","ios":"levelo://app?vid=a80dcce0-e492-45dd-8904-aeea8372c8ac"},"vehicle_type_id":"4","last_reported":1743451919,"current_range_meters":3200,"station_id":"ce4bhgh2rcd13ifvqfa0","pricing_plan_id":"cebpf4jnsgd1na2vs0mg"},{"bike_id":"439ca09a-78aa-49c9-88b0-123bb4316250","system_id":"levelo_inurba_marseille","lat":43.29266,"lon":5.38426,"is_reserved":false,"is_disabled":false,"rental_uris":{"android":"levelo://app?vid=439ca09a-78aa-49c9-88b0-123bb4316250","ios":"levelo://app?vid=439ca09a-78aa-49c9-88b0-123bb4316250"},"vehicle_type_id":"4","last_reported":1743451919,"current_range_meters":3200,"station_id":"ce4bh692rcd13ifvqea0","pricing_plan_id":"cebpf4jnsgd1na2vs0mg"},{"bike_id":"384b53be-0dd1-4ff6-96b3-76e22c52ec3c","system_id":"levelo_inurba_marseille","lat":43.27683,"lon":5.41847,"is_reserved":false,"is_disabled":false,"rental_uris":{"android":"levelo://app?vid=384b53be-0dd1-4ff6-96b3-76e22c52ec3c","ios":"levelo://app?vid=384b53be-0dd1-4ff6-96b3-76e22c52ec3c"},"vehicle_type_id":"4","last_reported":1743451919,"current_range_meters":3200,"station_id":"","pricing_plan_id":"cebpf4jnsgd1na2vs0mg"},{"bike_id":"dfd98939-7a16-4181-8e8d-9eb9709e6c98","system_id":"levelo_inurba_marseille","lat":43.29268,"lon":5.37619,"is_reserved":false,"is_disabled":false,"rental_uris":{"android":"levelo://app?vid=dfd98939-7a16-4181-8e8d-9eb9709e6c98","ios":"levelo://app?vid=dfd98939-7a16-4181-8e8d-9eb9709e6c98"},"vehicle_type_id":"4","last_reported":1743451919,"current_range_meters":3600,"station_id":"ce4bgi12rcd13ifvqb80","pricing_plan_id":"cebpf4jnsgd1na2vs0mg"},{"bike_id":"61645067-a38f-4742-b730-27dbae27f086","system_id":"levelo_inurba_marseille","lat":43.25001,"lon":5.38927,"is_reserved":false,"is_disabled":false,"rental_uris":{"android":"levelo://app?vid=61645067-a38f-4742-b730-27dbae27f086","ios":"levelo://app?vid=61645067-a38f-4742-b730-27dbae27f086"},"vehicle_type_id":"4","last_reported":1743451919,"current_range_meters":3600,"station_id":"ce4bhgp2rcd13ifvqfd0","pricing_plan_id":"cebpf4jnsgd1na2vs0mg"},{"bike_id":"ff29c2af-5c92-4c96-9a89-6210cc2f7265","system_id":"levelo_inurba_marseille","lat":43.29185,"lon":5.35803,"is_reserved":false,"is_disabled":false,"rental_uris":{"android":"levelo://app?vid=ff29c2af-5c92-4c96-9a89-6210cc2f7265","ios":"levelo://app?vid=ff29c2af-5c92-4c96-9a89-6210cc2f7265"},"vehicle_type_id":"4","last_reported":1743451919,"current_range_meters":3600,"station_id":"ce4bhb12rcd13ifvqel0","pricing_plan_id":"cebpf4jnsgd1na2vs0mg"},{"bike_id":"d1fe6621-df32-451d-968b-2d2da0170696","system_id":"levelo_inurba_marseille","lat":43.282671,"lon":5.350694,"is_reserved":false,"is_disabled":false,"rental_uris":{"android":"levelo://app?vid=d1fe6621-df32-451d-968b-2d2da0170696","ios":"levelo://app?vid=d1fe6621-df32-451d-968b-2d2da0170696"},"vehicle_type_id":"4","last_reported":1743451919,"current_range_meters":3600,"station_id":"ce4bhbp2rcd13ifvqerg","pricing_plan_id":"cebpf4jnsgd1na2vs0mg"},{"bike_id":"d350192e-f54a-42db-8563-994762e7c32a","system_id":"levelo_inurba_marseille","lat":43.29528,"lon":5.37511,"is_reserved":false,"is_disabled":false,"rental_uris":{"android":"levelo://app?vid=d350192e-f54a-42db-8563-994762e7c32a","ios":"levelo://app?vid=d350192e-f54a-42db-8563-994762e7c32a"},"vehicle_type_id":"4","last_reported":1743451919,"current_range_meters":3600,"station_id":"ce4bgkp2rcd13ifvqbmg","pricing_plan_id":"cebpf4jnsgd1na2vs0mg"},{"bike_id":"6b0fcd7f-5874-46fd-b9e4-39146475ff69","system_id":"levelo_inurba_marseille","lat":43.29022,"lon":5.38638,"is_reserved":false,"is_disabled":false,"rental_uris":{"android":"levelo://app?vid=6b0fcd7f-5874-46fd-b9e4-39146475ff69","ios":"levelo://app?vid=6b0fcd7f-5874-46fd-b9e4-39146475ff69"},"vehicle_type_id":"4","last_reported":1743451919,"current_range_meters":4000,"station_id":"ce4bh4p2rcd13ifvqe0g","pricing_plan_id":"cebpf4jnsgd1na2vs0mg"},{"bike_id":"cfe2afb0-42d2-458e-9245-1302d3ee5c2f","system_id":"levelo_inurba_marseille","lat":43.31757,"lon":5.39014,"is_reserved":false,"is_disabled":false,"rental_uris":{"android":"levelo://app?vid=cfe2afb0-42d2-458e-9245-1302d3ee5c2f","ios":"levelo://app?vid=cfe2afb0-42d2-458e-9245-1302d3ee5c2f"},"vehicle_type_id":"4","last_reported":1743451919,"current_range_meters":4000,"station_id":"ce4bhqp2rcd13ifvqhng","pricing_plan_id":"cebpf4jnsgd1na2vs0mg"},{"bike_id":"3b8b5fcf-ba11-4a94-a416-2c8fbad336ed","system_id":"levelo_inurba_marseille","lat":43.299,"lon":5.38911,"is_reserved":false,"is_disabled":false,"rental_uris":{"android":"levelo://app?vid=3b8b5fcf-ba11-4a94-a416-2c8fbad336ed","ios":"levelo://app?vid=3b8b5fcf-ba11-4a94-a416-2c8fbad336ed"},"vehicle_type_id":"4","last_reported":1743451919,"current_range_meters":4000,"station_id":"ce4bh392rcd13ifvqdl0","pricing_plan_id":"cebpf4jnsgd1na2vs0mg"},{"bike_id":"d18560b4-f408-4d7a-9702-c71e23cf5416","system_id":"levelo_inurba_marseille","lat":43.27935,"lon":5.41036,"is_reserved":false,"is_disabled":false,"rental_uris":{"android":"levelo://app?vid=d18560b4-f408-4d7a-9702-c71e23cf5416","ios":"levelo://app?vid=d18560b4-f408-4d7a-9702-c71e23cf5416"},"vehicle_type_id":"4","last_reported":1743451919,"current_range_meters":4000,"station_id":"ce4bhnp2rcd13ifvqh0g","pricing_plan_id":"cebpf4jnsgd1na2vs0mg"},{"bike_id":"35a0bc23-3944-454c-8e5d-730541c8b664","system_id":"levelo_inurba_marseille","lat":43.26199,"lon":5.37459,"is_reserved":false,"is_disabled":true,"rental_uris":{"android":"levelo://app?vid=35a0bc23-3944-454c-8e5d-730541c8b664","ios":"levelo://app?vid=35a0bc23-3944-454c-8e5d-730541c8b664"},"vehicle_type_id":"4","last_reported":1743451919,"current_range_meters":4000,"station_id":"ce4bhgp2rcd13ifvqfc0","pricing_plan_id":"cebpf4jnsgd1na2vs0mg"},{"bike_id":"0ce29fe3-4a0d-4ccf-858a-3574f2c7d9b8","system_id":"levelo_inurba_marseille","lat":43.28939,"lon":5.39633,"is_reserved":false,"is_disabled":false,"rental_uris":{"android":"levelo://app?vid=0ce29fe3-4a0d-4ccf-858a-3574f2c7d9b8","ios":"levelo://app?vid=0ce29fe3-4a0d-4ccf-858a-3574f2c7d9b8"},"vehicle_type_id":"4","last_reported":1743451919,"current_range_meters":4000,"station_id":"ce4bh3h2rcd13ifvqdn0","pricing_plan_id":"cebpf4jnsgd1na2vs0mg"},{"bike_id":"76d4ed16-8625-4a14-a5f1-d28ac2574c13","system_id":"levelo_inurba_marseille","lat":43.24539,"lon":5.39531,"is_reserved":false,"is_disabled":false,"rental_uris":{"android":"levelo://app?vid=76d4ed16-8625-4a14-a5f1-d28ac2574c13","ios":"levelo://app?vid=76d4ed16-8625-4a14-a5f1-d28ac2574c13"},"vehicle_type_id":"4","last_reported":1743451919,"current_range_meters":4400,"station_id":"ce4bhlp2rcd13ifvqgjg","pricing_plan_id":"cebpf4jnsgd1na2vs0mg"},{"bike_id":"2f5e2af1-338f-4448-ae16-13afa5dc47f0","system_id":"levelo_inurba_marseille","lat":43.30782,"lon":5.37638,"is_reserved":false,"is_disabled":false,"rental_uris":{"android":"levelo://app?vid=2f5e2af1-338f-4448-ae16-13afa5dc47f0","ios":"levelo://app?vid=2f5e2af1-338f-4448-ae16-13afa5dc47f0"},"vehicle_type_id":"4","last_reported":1743451919,"current_range_meters":4400,"station_id":"ce4bgv92rcd13ifvqcq0","pricing_plan_id":"cebpf4jnsgd1na2vs0mg"},{"bike_id":"767c1f4f-8207-4475-94ab-d8f86cdc815d","system_id":"levelo_inurba_marseille","lat":43.29269,"lon":5.40125,"is_reserved":false,"is_disabled":false,"rental_uris":{"android":"levelo://app?vid=767c1f4f-8207-4475-94ab-d8f86cdc815d","ios":"levelo://app?vid=767c1f4f-8207-4475-94ab-d8f86cdc815d"},"vehicle_type_id":"4","last_reported":1743451919,"current_range_meters":6000,"station_id":"ce4bh312rcd13ifvqdk0","pricing_plan_id":"cebpf4jnsgd1na2vs0mg"},{"bike_id":"aac1ae5a-6b4d-4d75-b699-2198c8ead3a4","system_id":"levelo_inurba_marseille","lat":43.312888,"lon":5.401815,"is_reserved":false,"is_disabled":false,"rental_uris":{"android":"levelo://app?vid=aac1ae5a-6b4d-4d75-b699-2198c8ead3a4","ios":"levelo://app?vid=aac1ae5a-6b4d-4d75-b699-2198c8ead3a4"},"vehicle_type_id":"4","last_reported":1743451919,"current_range_meters":4400,"station_id":"ce4bh092rcd13ifvqd30","pricing_plan_id":"cebpf4jnsgd1na2vs0mg"},{"bike_id":"c8773754-83af-4af0-a909-23dd3af40fc3","system_id":"levelo_inurba_marseille","lat":43.2784,"lon":5.40692,"is_reserved":false,"is_disabled":false,"rental_uris":{"android":"levelo://app?vid=c8773754-83af-4af0-a909-23dd3af40fc3","ios":"levelo://app?vid=c8773754-83af-4af0-a909-23dd3af40fc3"},"vehicle_type_id":"4","last_reported":1743451919,"current_range_meters":4400,"station_id":"ce4bhnh2rcd13ifvqgtg","pricing_plan_id":"cebpf4jnsgd1na2vs0mg"},{"bike_id":"1115aca5-6e9e-4faf-b9a7-ceadf7eb4ba5","system_id":"levelo_inurba_marseille","lat":43.28724,"lon":5.37945,"is_reserved":false,"is_disabled":false,"rental_uris":{"android":"levelo://app?vid=1115aca5-6e9e-4faf-b9a7-ceadf7eb4ba5","ios":"levelo://app?vid=1115aca5-6e9e-4faf-b9a7-ceadf7eb4ba5"},"vehicle_type_id":"4","last_reported":1743451919,"current_range_meters":4800,"station_id":"ce4bh9p2rcd13ifvqec0","pricing_plan_id":"cebpf4jnsgd1na2vs0mg"},{"bike_id":"2b53eabe-5692-4552-9ef8-9ef139cce88a","system_id":"levelo_inurba_marseille","lat":43.31271,"lon":5.40168,"is_reserved":false,"is_disabled":false,"rental_uris":{"android":"levelo://app?vid=2b53eabe-5692-4552-9ef8-9ef139cce88a","ios":"levelo://app?vid=2b53eabe-5692-4552-9ef8-9ef139cce88a"},"vehicle_type_id":"4","last_reported":1743451919,"current_range_meters":4800,"station_id":"ce4bh092rcd13ifvqd30","pricing_plan_id":"cebpf4jnsgd1na2vs0mg"},{"bike_id":"a38ba8ba-3bed-4c88-9957-2c802ee7027f","system_id":"levelo_inurba_marseille","lat":43.26226,"lon":5.4044,"is_reserved":false,"is_disabled":false,"rental_uris":{"android":"levelo://app?vid=a38ba8ba-3bed-4c88-9957-2c802ee7027f","ios":"levelo://app?vid=a38ba8ba-3bed-4c88-9957-2c802ee7027f"},"vehicle_type_id":"4","last_reported":1743451919,"current_range_meters":4800,"station_id":"ce4bhmh2rcd13ifvqgmg","pricing_plan_id":"cebpf4jnsgd1na2vs0mg"},{"bike_id":"1d1d72ac-04a5-44b0-b246-d78f04e6e732","system_id":"levelo_inurba_marseille","lat":43.298749,"lon":5.397307,"is_reserved":false,"is_disabled":false,"rental_uris":{"android":"levelo://app?vid=1d1d72ac-04a5-44b0-b246-d78f04e6e732","ios":"levelo://app?vid=1d1d72ac-04a5-44b0-b246-d78f04e6e732"},"vehicle_type_id":"4","last_reported":1743451919,"current_range_meters":4800,"station_id":"ce4bhop2rcd13ifvqh8g","pricing_plan_id":"cebpf4jnsgd1na2vs0mg"},{"bike_id":"e3d4a315-99ca-45d0-93cf-09a9f607fb7e","system_id":"levelo_inurba_marseille","lat":43.30644,"lon":5.40078,"is_reserved":false,"is_disabled":false,"rental_uris":{"android":"levelo://app?vid=e3d4a315-99ca-45d0-93cf-09a9f607fb7e","ios":"levelo://app?vid=e3d4a315-99ca-45d0-93cf-09a9f607fb7e"},"vehicle_type_id":"4","last_reported":1743451919,"current_range_meters":4800,"station_id":"ce4bh112rcd13ifvqda0","pricing_plan_id":"cebpf4jnsgd1na2vs0mg"},{"bike_id":"82d8e203-da64-466b-9b1d-e9f0a9bfebfe","system_id":"levelo_inurba_marseille","lat":43.32534,"lon":5.41448,"is_reserved":false,"is_disabled":true,"rental_uris":{"android":"levelo://app?vid=82d8e203-da64-466b-9b1d-e9f0a9bfebfe","ios":"levelo://app?vid=82d8e203-da64-466b-9b1d-e9f0a9bfebfe"},"vehicle_type_id":"4","last_reported":1743451919,"current_range_meters":5600,"station_id":"ce4bhq12rcd13ifvqhhg","pricing_plan_id":"cebpf4jnsgd1na2vs0mg"},{"bike_id":"ebe7cc12-6178-48b1-a2d4-599dbe696c3b","system_id":"levelo_inurba_marseille","lat":43.25865,"lon":5.399,"is_reserved":false,"is_disabled":false,"rental_uris":{"android":"levelo://app?vid=ebe7cc12-6178-48b1-a2d4-599dbe696c3b","ios":"levelo://app?vid=ebe7cc12-6178-48b1-a2d4-599dbe696c3b"},"vehicle_type_id":"4","last_reported":1743451919,"current_range_meters":6400,"station_id":"ce4bhl92rcd13ifvqghg","pricing_plan_id":"cebpf4jnsgd1na2vs0mg"},{"bike_id":"75d56f98-6c75-4a8c-a312-88f4710b478a","system_id":"levelo_inurba_marseille","lat":43.2928,"lon":5.37625,"is_reserved":false,"is_disabled":true,"rental_uris":{"android":"levelo://app?vid=75d56f98-6c75-4a8c-a312-88f4710b478a","ios":"levelo://app?vid=75d56f98-6c75-4a8c-a312-88f4710b478a"},"vehicle_type_id":"4","last_reported":1743451919,"current_range_meters":5600,"station_id":"ce4bgi12rcd13ifvqb80","pricing_plan_id":"cebpf4jnsgd1na2vs0mg"},{"bike_id":"d1379a4b-7d1c-4a20-9b6a-00a7778584be","system_id":"levelo_inurba_marseille","lat":43.26072,"lon":5.39388,"is_reserved":false,"is_disabled":false,"rental_uris":{"android":"levelo://app?vid=d1379a4b-7d1c-4a20-9b6a-00a7778584be","ios":"levelo://app?vid=d1379a4b-7d1c-4a20-9b6a-00a7778584be"},"vehicle_type_id":"4","last_reported":1743451919,"current_range_meters":5600,"station_id":"ce4bhh92rcd13ifvqfj0","pricing_plan_id":"cebpf4jnsgd1na2vs0mg"},{"bike_id":"c4500860-8491-4315-a913-174de2c1f9f0","system_id":"levelo_inurba_marseille","lat":43.28484,"lon":5.38436,"is_reserved":false,"is_disabled":false,"rental_uris":{"android":"levelo://app?vid=c4500860-8491-4315-a913-174de2c1f9f0","ios":"levelo://app?vid=c4500860-8491-4315-a913-174de2c1f9f0"},"vehicle_type_id":"4","last_reported":1743451919,"current_range_meters":5600,"station_id":"ce4bh512rcd13ifvqe3g","pricing_plan_id":"cebpf4jnsgd1na2vs0mg"},{"bike_id":"2bafc56b-0e15-4043-b911-d3821023f86d","system_id":"levelo_inurba_marseille","lat":43.28151,"lon":5.42637,"is_reserved":false,"is_disabled":false,"rental_uris":{"android":"levelo://app?vid=2bafc56b-0e15-4043-b911-d3821023f86d","ios":"levelo://app?vid=2bafc56b-0e15-4043-b911-d3821023f86d"},"vehicle_type_id":"4","last_reported":1743451919,"current_range_meters":5600,"station_id":"ce4bhnh2rcd13ifvqgug","pricing_plan_id":"cebpf4jnsgd1na2vs0mg"},{"bike_id":"76ae8fd5-da87-4a46-9c5a-129e0eb9e5d2","system_id":"levelo_inurba_marseille","lat":43.29866,"lon":5.38905,"is_reserved":false,"is_disabled":false,"rental_uris":{"android":"levelo://app?vid=76ae8fd5-da87-4a46-9c5a-129e0eb9e5d2","ios":"levelo://app?vid=76ae8fd5-da87-4a46-9c5a-129e0eb9e5d2"},"vehicle_type_id":"4","last_reported":1743451919,"current_range_meters":2800,"station_id":"ce4bh392rcd13ifvqdl0","pricing_plan_id":"cebpf4jnsgd1na2vs0mg"},{"bike_id":"0909e6e7-119a-43a8-b285-33eb860b8051","system_id":"levelo_inurba_marseille","lat":43.30244,"lon":5.40066,"is_reserved":false,"is_disabled":false,"rental_uris":{"android":"levelo://app?vid=0909e6e7-119a-43a8-b285-33eb860b8051","ios":"levelo://app?vid=0909e6e7-119a-43a8-b285-33eb860b8051"},"vehicle_type_id":"4","last_reported":1743451919,"current_range_meters":6000,"station_id":"ce4bgvh2rcd13ifvqcs0","pricing_plan_id":"cebpf4jnsgd1na2vs0mg"},{"bike_id":"bcd7660a-05bf-4a2b-83b6-05245b0b18f8","system_id":"levelo_inurba_marseille","lat":43.28446,"lon":5.39209,"is_reserved":false,"is_disabled":false,"rental_uris":{"android":"levelo://app?vid=bcd7660a-05bf-4a2b-83b6-05245b0b18f8","ios":"levelo://app?vid=bcd7660a-05bf-4a2b-83b6-05245b0b18f8"},"vehicle_type_id":"4","last_reported":1743451919,"current_range_meters":6000,"station_id":"ce4bhoh2rcd13ifvqh5g","pricing_plan_id":"cebpf4jnsgd1na2vs0mg"},{"bike_id":"cbd09a99-2de5-419e-ba79-b7b06f7b27e4","system_id":"levelo_inurba_marseille","lat":43.30636,"lon":5.40087,"is_reserved":false,"is_disabled":false,"rental_uris":{"android":"levelo://app?vid=cbd09a99-2de5-419e-ba79-b7b06f7b27e4","ios":"levelo://app?vid=cbd09a99-2de5-419e-ba79-b7b06f7b27e4"},"vehicle_type_id":"4","last_reported":1743451919,"current_range_meters":6400,"station_id":"ce4bh112rcd13ifvqda0","pricing_plan_id":"cebpf4jnsgd1na2vs0mg"},{"bike_id":"74f7eb96-293c-4e69-9762-8579f859cecd","system_id":"levelo_inurba_marseille","lat":43.27501,"lon":5.42455,"is_reserved":false,"is_disabled":false,"rental_uris":{"android":"levelo://app?vid=74f7eb96-293c-4e69-9762-8579f859cecd","ios":"levelo://app?vid=74f7eb96-293c-4e69-9762-8579f859cecd"},"vehicle_type_id":"4","last_reported":1743451919,"current_range_meters":6400,"station_id":"ce4bhn92rcd13ifvqgrg","pricing_plan_id":"cebpf4jnsgd1na2vs0mg"},{"bike_id":"30648811-66be-4992-89ee-3ef07295c9dd","system_id":"levelo_inurba_marseille","lat":43.29534,"lon":5.38538,"is_reserved":false,"is_disabled":false,"rental_uris":{"android":"levelo://app?vid=30648811-66be-4992-89ee-3ef07295c9dd","ios":"levelo://app?vid=30648811-66be-4992-89ee-3ef07295c9dd"},"vehicle_type_id":"4","last_reported":1743451919,"current_range_meters":6400,"station_id":"ce4bgih2rcd13ifvqba0","pricing_plan_id":"cebpf4jnsgd1na2vs0mg"},{"bike_id":"74cfbb16-a793-43c4-bf10-121c863c7238","system_id":"levelo_inurba_marseille","lat":43.29704,"lon":5.36616,"is_reserved":false,"is_disabled":false,"rental_uris":{"android":"levelo://app?vid=74cfbb16-a793-43c4-bf10-121c863c7238","ios":"levelo://app?vid=74cfbb16-a793-43c4-bf10-121c863c7238"},"vehicle_type_id":"4","last_reported":1743451919,"current_range_meters":6400,"station_id":"ce4bgn12rcd13ifvqbt0","pricing_plan_id":"cebpf4jnsgd1na2vs0mg"},{"bike_id":"aca0b16f-b8c7-4211-8f8e-a779668b706f","system_id":"levelo_inurba_marseille","lat":43.28411,"lon":5.37509,"is_reserved":false,"is_disabled":false,"rental_uris":{"android":"levelo://app?vid=aca0b16f-b8c7-4211-8f8e-a779668b706f","ios":"levelo://app?vid=aca0b16f-b8c7-4211-8f8e-a779668b706f"},"vehicle_type_id":"4","last_reported":1743451919,"current_range_meters":6400,"station_id":"ce4bh412rcd13ifvqds0","pricing_plan_id":"cebpf4jnsgd1na2vs0mg"},{"bike_id":"e23bb2fc-f1f9-4f20-a1d3-52be4266d7e2","system_id":"levelo_inurba_marseille","lat":43.29419,"lon":5.38617,"is_reserved":false,"is_disabled":false,"rental_uris":{"android":"levelo://app?vid=e23bb2fc-f1f9-4f20-a1d3-52be4266d7e2","ios":"levelo://app?vid=e23bb2fc-f1f9-4f20-a1d3-52be4266d7e2"},"vehicle_type_id":"4","last_reported":1743451919,"current_range_meters":6400,"station_id":"ce4bh2h2rcd13ifvqdh0","pricing_plan_id":"cebpf4jnsgd1na2vs0mg"},{"bike_id":"85fad29d-07fa-4834-92ea-a24165516ebf","system_id":"levelo_inurba_marseille","lat":43.23073,"lon":5.35483,"is_reserved":false,"is_disabled":false,"rental_uris":{"android":"levelo://app?vid=85fad29d-07fa-4834-92ea-a24165516ebf","ios":"levelo://app?vid=85fad29d-07fa-4834-92ea-a24165516ebf"},"vehicle_type_id":"4","last_reported":1743451919,"current_range_meters":6400,"station_id":"cpo3342slgdg3j2ifvpg","pricing_plan_id":"cebpf4jnsgd1na2vs0mg"},{"bike_id":"22cdc40d-189c-487e-af1b-7619d9d52c4e","system_id":"levelo_inurba_marseille","lat":43.29626,"lon":5.406,"is_reserved":false,"is_disabled":false,"rental_uris":{"android":"levelo://app?vid=22cdc40d-189c-487e-af1b-7619d9d52c4e","ios":"levelo://app?vid=22cdc40d-189c-487e-af1b-7619d9d52c4e"},"vehicle_type_id":"4","last_reported":1743451919,"current_range_meters":6400,"station_id":"ce4bh0h2rcd13ifvqd60","pricing_plan_id":"cebpf4jnsgd1na2vs0mg"},{"bike_id":"fa868129-2f9e-4924-8ec8-3b1bc2aa10dc","system_id":"levelo_inurba_marseille","lat":43.32992,"lon":5.43852,"is_reserved":false,"is_disabled":false,"rental_uris":{"android":"levelo://app?vid=fa868129-2f9e-4924-8ec8-3b1bc2aa10dc","ios":"levelo://app?vid=fa868129-2f9e-4924-8ec8-3b1bc2aa10dc"},"vehicle_type_id":"4","last_reported":1743451919,"current_range_meters":6400,"station_id":"","pricing_plan_id":"cebpf4jnsgd1na2vs0mg"},{"bike_id":"92bdcd66-6f9d-4b3a-9040-8893180dd457","system_id":"levelo_inurba_marseille","lat":43.29525,"lon":5.38536,"is_reserved":false,"is_disabled":false,"rental_uris":{"android":"levelo://app?vid=92bdcd66-6f9d-4b3a-9040-8893180dd457","ios":"levelo://app?vid=92bdcd66-6f9d-4b3a-9040-8893180dd457"},"vehicle_type_id":"4","last_reported":1743451919,"current_range_meters":6400,"station_id":"ce4bgih2rcd13ifvqba0","pricing_plan_id":"cebpf4jnsgd1na2vs0mg"},{"bike_id":"96e784e2-dca0-4bf1-b666-4e137934ce3b","system_id":"levelo_inurba_marseille","lat":43.2843,"lon":5.35004,"is_reserved":false,"is_disabled":false,"rental_uris":{"android":"levelo://app?vid=96e784e2-dca0-4bf1-b666-4e137934ce3b","ios":"levelo://app?vid=96e784e2-dca0-4bf1-b666-4e137934ce3b"},"vehicle_type_id":"4","last_reported":1743451919,"current_range_meters":6400,"station_id":"ce4bhbh2rcd13ifvqepg","pricing_plan_id":"cebpf4jnsgd1na2vs0mg"},{"bike_id":"04de5b41-79cf-4c38-a131-868cfdfc11f9","system_id":"levelo_inurba_marseille","lat":43.30253,"lon":5.400632,"is_reserved":false,"is_disabled":false,"rental_uris":{"android":"levelo://app?vid=04de5b41-79cf-4c38-a131-868cfdfc11f9","ios":"levelo://app?vid=04de5b41-79cf-4c38-a131-868cfdfc11f9"},"vehicle_type_id":"4","last_reported":1743451919,"current_range_meters":6400,"station_id":"ce4bh112rcd13ifvqda0","pricing_plan_id":"cebpf4jnsgd1na2vs0mg"},{"bike_id":"708264e6-8ff8-41df-b471-32f4234fc1c9","system_id":"levelo_inurba_marseille","lat":43.28696,"lon":5.37388,"is_reserved":false,"is_disabled":false,"rental_uris":{"android":"levelo://app?vid=708264e6-8ff8-41df-b471-32f4234fc1c9","ios":"levelo://app?vid=708264e6-8ff8-41df-b471-32f4234fc1c9"},"vehicle_type_id":"4","last_reported":1743451919,"current_range_meters":6400,"station_id":"ce4bh3p2rcd13ifvqdq0","pricing_plan_id":"cebpf4jnsgd1na2vs0mg"},{"bike_id":"33c55660-0541-469b-a476-383fff04337f","system_id":"levelo_inurba_marseille","lat":43.22931,"lon":5.35378,"is_reserved":false,"is_disabled":false,"rental_uris":{"android":"levelo://app?vid=33c55660-0541-469b-a476-383fff04337f","ios":"levelo://app?vid=33c55660-0541-469b-a476-383fff04337f"},"vehicle_type_id":"4","last_reported":1743451919,"current_range_meters":6400,"station_id":"cpo3532slgdg3j2ikp40","pricing_plan_id":"cebpf4jnsgd1na2vs0mg"},{"bike_id":"21791e2f-185e-4410-87b6-2e2167f88d3a","system_id":"levelo_inurba_marseille","lat":43.31329,"lon":5.39699,"is_reserved":false,"is_disabled":false,"rental_uris":{"android":"levelo://app?vid=21791e2f-185e-4410-87b6-2e2167f88d3a","ios":"levelo://app?vid=21791e2f-185e-4410-87b6-2e2167f88d3a"},"vehicle_type_id":"4","last_reported":1743451919,"current_range_meters":6800,"station_id":"ce4bgvp2rcd13ifvqcu0","pricing_plan_id":"cebpf4jnsgd1na2vs0mg"},{"bike_id":"2d3ddf82-fb7a-4286-b25a-457905416bb5","system_id":"levelo_inurba_marseille","lat":43.27825,"lon":5.39202,"is_reserved":false,"is_disabled":false,"rental_uris":{"android":"levelo://app?vid=2d3ddf82-fb7a-4286-b25a-457905416bb5","ios":"levelo://app?vid=2d3ddf82-fb7a-4286-b25a-457905416bb5"},"vehicle_type_id":"4","last_reported":1743451919,"current_range_meters":6800,"station_id":"ce4bhjp2rcd13ifvqga0","pricing_plan_id":"cebpf4jnsgd1na2vs0mg"},{"bike_id":"248029c6-2454-473a-9b69-0f66c750cc08","system_id":"levelo_inurba_marseille","lat":43.2508,"lon":5.39525,"is_reserved":false,"is_disabled":false,"rental_uris":{"android":"levelo://app?vid=248029c6-2454-473a-9b69-0f66c750cc08","ios":"levelo://app?vid=248029c6-2454-473a-9b69-0f66c750cc08"},"vehicle_type_id":"4","last_reported":1743451919,"current_range_meters":6800,"station_id":"ce4bhm12rcd13ifvqgkg","pricing_plan_id":"cebpf4jnsgd1na2vs0mg"},{"bike_id":"1da808a6-36fb-434e-b2cb-2df77d77936e","system_id":"levelo_inurba_marseille","lat":43.27386,"lon":5.36258,"is_reserved":false,"is_disabled":false,"rental_uris":{"android":"levelo://app?vid=1da808a6-36fb-434e-b2cb-2df77d77936e","ios":"levelo://app?vid=1da808a6-36fb-434e-b2cb-2df77d77936e"},"vehicle_type_id":"4","last_reported":1743451919,"current_range_meters":6800,"station_id":"ce4bhbh2rcd13ifvqeo0","pricing_plan_id":"cebpf4jnsgd1na2vs0mg"},{"bike_id":"7bf19f0f-ccb7-4e2d-8151-5b3b43d672b1","system_id":"levelo_inurba_marseille","lat":43.26035,"lon":5.41758,"is_reserved":false,"is_disabled":false,"rental_uris":{"android":"levelo://app?vid=7bf19f0f-ccb7-4e2d-8151-5b3b43d672b1","ios":"levelo://app?vid=7bf19f0f-ccb7-4e2d-8151-5b3b43d672b1"},"vehicle_type_id":"4","last_reported":1743451919,"current_range_meters":6800,"station_id":"","pricing_plan_id":"cebpf4jnsgd1na2vs0mg"},{"bike_id":"99d055d7-9012-4bd5-ad15-1482d25b2f4d","system_id":"levelo_inurba_marseille","lat":43.30237,"lon":5.40053,"is_reserved":false,"is_disabled":false,"rental_uris":{"android":"levelo://app?vid=99d055d7-9012-4bd5-ad15-1482d25b2f4d","ios":"levelo://app?vid=99d055d7-9012-4bd5-ad15-1482d25b2f4d"},"vehicle_type_id":"4","last_reported":1743451919,"current_range_meters":6800,"station_id":"ce4bgvh2rcd13ifvqcs0","pricing_plan_id":"cebpf4jnsgd1na2vs0mg"},{"bike_id":"aba38133-cf74-4a48-8d93-293c77f9ac46","system_id":"levelo_inurba_marseille","lat":43.30935,"lon":5.40146,"is_reserved":false,"is_disabled":false,"rental_uris":{"android":"levelo://app?vid=aba38133-cf74-4a48-8d93-293c77f9ac46","ios":"levelo://app?vid=aba38133-cf74-4a48-8d93-293c77f9ac46"},"vehicle_type_id":"4","last_reported":1743451919,"current_range_meters":6800,"station_id":"ce4bgvp2rcd13ifvqct0","pricing_plan_id":"cebpf4jnsgd1na2vs0mg"},{"bike_id":"59b3e666-7fa2-48e6-bfd8-15740fad04fc","system_id":"levelo_inurba_marseille","lat":43.30955,"lon":5.39023,"is_reserved":false,"is_disabled":false,"rental_uris":{"android":"levelo://app?vid=59b3e666-7fa2-48e6-bfd8-15740fad04fc","ios":"levelo://app?vid=59b3e666-7fa2-48e6-bfd8-15740fad04fc"},"vehicle_type_id":"4","last_reported":1743451919,"current_range_meters":7200,"station_id":"ce4bgup2rcd13ifvqco0","pricing_plan_id":"cebpf4jnsgd1na2vs0mg"},{"bike_id":"f6cf043a-cfa4-41e3-a4af-c9bc3bea52ca","system_id":"levelo_inurba_marseille","lat":43.25109,"lon":5.40326,"is_reserved":false,"is_disabled":false,"rental_uris":{"android":"levelo://app?vid=f6cf043a-cfa4-41e3-a4af-c9bc3bea52ca","ios":"levelo://app?vid=f6cf043a-cfa4-41e3-a4af-c9bc3bea52ca"},"vehicle_type_id":"4","last_reported":1743451919,"current_range_meters":7200,"station_id":"ce4bhlh2rcd13ifvqgig","pricing_plan_id":"cebpf4jnsgd1na2vs0mg"},{"bike_id":"00d61976-17e0-440b-8586-301c5d1b91c1","system_id":"levelo_inurba_marseille","lat":43.29254,"lon":5.38416,"is_reserved":false,"is_disabled":true,"rental_uris":{"android":"levelo://app?vid=00d61976-17e0-440b-8586-301c5d1b91c1","ios":"levelo://app?vid=00d61976-17e0-440b-8586-301c5d1b91c1"},"vehicle_type_id":"4","last_reported":1743451919,"current_range_meters":7200,"station_id":"ce4bh692rcd13ifvqea0","pricing_plan_id":"cebpf4jnsgd1na2vs0mg"},{"bike_id":"a26dca06-eab3-4af0-be0a-b3479bd6f5cc","system_id":"levelo_inurba_marseille","lat":43.29418,"lon":5.38624,"is_reserved":false,"is_disabled":false,"rental_uris":{"android":"levelo://app?vid=a26dca06-eab3-4af0-be0a-b3479bd6f5cc","ios":"levelo://app?vid=a26dca06-eab3-4af0-be0a-b3479bd6f5cc"},"vehicle_type_id":"4","last_reported":1743451919,"current_range_meters":7200,"station_id":"ce4bh2h2rcd13ifvqdh0","pricing_plan_id":"cebpf4jnsgd1na2vs0mg"},{"bike_id":"3878f4ca-5e0d-4430-b11e-5e97246a53d5","system_id":"levelo_inurba_marseille","lat":43.30319,"lon":5.40436,"is_reserved":false,"is_disabled":false,"rental_uris":{"android":"levelo://app?vid=3878f4ca-5e0d-4430-b11e-5e97246a53d5","ios":"levelo://app?vid=3878f4ca-5e0d-4430-b11e-5e97246a53d5"},"vehicle_type_id":"4","last_reported":1743451919,"current_range_meters":7200,"station_id":"ce4bh012rcd13ifvqd10","pricing_plan_id":"cebpf4jnsgd1na2vs0mg"},{"bike_id":"598cad46-e16c-47a4-826d-5e384e904585","system_id":"levelo_inurba_marseille","lat":43.29932,"lon":5.36558,"is_reserved":false,"is_disabled":false,"rental_uris":{"android":"levelo://app?vid=598cad46-e16c-47a4-826d-5e384e904585","ios":"levelo://app?vid=598cad46-e16c-47a4-826d-5e384e904585"},"vehicle_type_id":"4","last_reported":1743451919,"current_range_meters":7200,"station_id":"ce4bgm92rcd13ifvqbr0","pricing_plan_id":"cebpf4jnsgd1na2vs0mg"},{"bike_id":"6165c5e1-15f4-4779-ba2f-91df8ba3f8c0","system_id":"levelo_inurba_marseille","lat":43.28912,"lon":5.4298,"is_reserved":false,"is_disabled":false,"rental_uris":{"android":"levelo://app?vid=6165c5e1-15f4-4779-ba2f-91df8ba3f8c0","ios":"levelo://app?vid=6165c5e1-15f4-4779-ba2f-91df8ba3f8c0"},"vehicle_type_id":"4","last_reported":1743451919,"current_range_meters":7200,"station_id":"","pricing_plan_id":"cebpf4jnsgd1na2vs0mg"},{"bike_id":"3e6f399e-ea99-4bee-bf19-68240615b5e1","system_id":"levelo_inurba_marseille","lat":43.28999,"lon":5.38616,"is_reserved":false,"is_disabled":true,"rental_uris":{"android":"levelo://app?vid=3e6f399e-ea99-4bee-bf19-68240615b5e1","ios":"levelo://app?vid=3e6f399e-ea99-4bee-bf19-68240615b5e1"},"vehicle_type_id":"4","last_reported":1743451919,"current_range_meters":7200,"station_id":"ce4bh4p2rcd13ifvqe0g","pricing_plan_id":"cebpf4jnsgd1na2vs0mg"},{"bike_id":"9e1b255e-faa3-49d5-b2a1-e0319504eaf7","system_id":"levelo_inurba_marseille","lat":43.30414,"lon":5.39769,"is_reserved":false,"is_disabled":false,"rental_uris":{"android":"levelo://app?vid=9e1b255e-faa3-49d5-b2a1-e0319504eaf7","ios":"levelo://app?vid=9e1b255e-faa3-49d5-b2a1-e0319504eaf7"},"vehicle_type_id":"4","last_reported":1743451919,"current_range_meters":4800,"station_id":"ce4bh092rcd13ifvqd20","pricing_plan_id":"cebpf4jnsgd1na2vs0mg"},{"bike_id":"a04aca5b-0988-449d-a9cf-43ccbda2f34b","system_id":"levelo_inurba_marseille","lat":43.31993,"lon":5.3814,"is_reserved":false,"is_disabled":false,"rental_uris":{"android":"levelo://app?vid=a04aca5b-0988-449d-a9cf-43ccbda2f34b","ios":"levelo://app?vid=a04aca5b-0988-449d-a9cf-43ccbda2f34b"},"vehicle_type_id":"4","last_reported":1743451919,"current_range_meters":7200,"station_id":"ce4bhr12rcd13ifvqhpg","pricing_plan_id":"cebpf4jnsgd1na2vs0mg"},{"bike_id":"27b37e08-22ae-4043-9a13-a7f5dbc7b6a4","system_id":"levelo_inurba_marseille","lat":43.28716,"lon":5.37952,"is_reserved":false,"is_disabled":false,"rental_uris":{"android":"levelo://app?vid=27b37e08-22ae-4043-9a13-a7f5dbc7b6a4","ios":"levelo://app?vid=27b37e08-22ae-4043-9a13-a7f5dbc7b6a4"},"vehicle_type_id":"4","last_reported":1743451919,"current_range_meters":7200,"station_id":"ce4bh9p2rcd13ifvqec0","pricing_plan_id":"cebpf4jnsgd1na2vs0mg"},{"bike_id":"a680c4ce-6fb9-47cf-b42b-91e2ac17548f","system_id":"levelo_inurba_marseille","lat":43.28446,"lon":5.39204,"is_reserved":false,"is_disabled":false,"rental_uris":{"android":"levelo://app?vid=a680c4ce-6fb9-47cf-b42b-91e2ac17548f","ios":"levelo://app?vid=a680c4ce-6fb9-47cf-b42b-91e2ac17548f"},"vehicle_type_id":"4","last_reported":1743451919,"current_range_meters":7200,"station_id":"ce4bhoh2rcd13ifvqh5g","pricing_plan_id":"cebpf4jnsgd1na2vs0mg"},{"bike_id":"9a2af466-2aa8-49f7-bfd5-fc815a2aa07c","system_id":"levelo_inurba_marseille","lat":43.30645,"lon":5.40095,"is_reserved":false,"is_disabled":true,"rental_uris":{"android":"levelo://app?vid=9a2af466-2aa8-49f7-bfd5-fc815a2aa07c","ios":"levelo://app?vid=9a2af466-2aa8-49f7-bfd5-fc815a2aa07c"},"vehicle_type_id":"4","last_reported":1743451919,"current_range_meters":7200,"station_id":"ce4bh112rcd13ifvqda0","pricing_plan_id":"cebpf4jnsgd1na2vs0mg"},{"bike_id":"fa329e7e-344b-4645-975b-ab0ccdf5c840","system_id":"levelo_inurba_marseille","lat":43.26031,"lon":5.37548,"is_reserved":false,"is_disabled":false,"rental_uris":{"android":"levelo://app?vid=fa329e7e-344b-4645-975b-ab0ccdf5c840","ios":"levelo://app?vid=fa329e7e-344b-4645-975b-ab0ccdf5c840"},"vehicle_type_id":"4","last_reported":1743451919,"current_range_meters":7200,"station_id":"ce4bhgh2rcd13ifvqfa0","pricing_plan_id":"cebpf4jnsgd1na2vs0mg"},{"bike_id":"eb2cf3c0-31cf-4194-b222-00299873048c","system_id":"levelo_inurba_marseille","lat":43.28477,"lon":5.38563,"is_reserved":false,"is_disabled":false,"rental_uris":{"android":"levelo://app?vid=eb2cf3c0-31cf-4194-b222-00299873048c","ios":"levelo://app?vid=eb2cf3c0-31cf-4194-b222-00299873048c"},"vehicle_type_id":"4","last_reported":1743451919,"current_range_meters":8000,"station_id":"ce4bh8p2rcd13ifvqeb0","pricing_plan_id":"cebpf4jnsgd1na2vs0mg"},{"bike_id":"407b633a-987e-4722-b77a-993eaa06a6b7","system_id":"levelo_inurba_marseille","lat":43.31589,"lon":5.38823,"is_reserved":false,"is_disabled":false,"rental_uris":{"android":"levelo://app?vid=407b633a-987e-4722-b77a-993eaa06a6b7","ios":"levelo://app?vid=407b633a-987e-4722-b77a-993eaa06a6b7"},"vehicle_type_id":"4","last_reported":1743451919,"current_range_meters":8000,"station_id":"","pricing_plan_id":"cebpf4jnsgd1na2vs0mg"},{"bike_id":"ab879076-8c05-42e8-8f20-332515dd85e1","system_id":"levelo_inurba_marseille","lat":43.312775,"lon":5.401746,"is_reserved":false,"is_disabled":false,"rental_uris":{"android":"levelo://app?vid=ab879076-8c05-42e8-8f20-332515dd85e1","ios":"levelo://app?vid=ab879076-8c05-42e8-8f20-332515dd85e1"},"vehicle_type_id":"4","last_reported":1743451919,"current_range_meters":8000,"station_id":"ce4bh092rcd13ifvqd30","pricing_plan_id":"cebpf4jnsgd1na2vs0mg"},{"bike_id":"a9673e9c-8162-441a-9601-2a6201427fc6","system_id":"levelo_inurba_marseille","lat":43.298585,"lon":5.397417,"is_reserved":false,"is_disabled":false,"rental_uris":{"android":"levelo://app?vid=a9673e9c-8162-441a-9601-2a6201427fc6","ios":"levelo://app?vid=a9673e9c-8162-441a-9601-2a6201427fc6"},"vehicle_type_id":"4","last_reported":1743451919,"current_range_meters":8000,"station_id":"ce4bh0h2rcd13ifvqd50","pricing_plan_id":"cebpf4jnsgd1na2vs0mg"},{"bike_id":"33c19c14-62e7-4fdc-b6f1-09aab3a11c09","system_id":"levelo_inurba_marseille","lat":43.31336,"lon":5.36719,"is_reserved":false,"is_disabled":false,"rental_uris":{"android":"levelo://app?vid=33c19c14-62e7-4fdc-b6f1-09aab3a11c09","ios":"levelo://app?vid=33c19c14-62e7-4fdc-b6f1-09aab3a11c09"},"vehicle_type_id":"4","last_reported":1743451919,"current_range_meters":8000,"station_id":"ce4bgr92rcd13ifvqc6g","pricing_plan_id":"cebpf4jnsgd1na2vs0mg"},{"bike_id":"d78f4182-89a3-4c8c-8d77-5ef713c7dd04","system_id":"levelo_inurba_marseille","lat":43.30865,"lon":5.37786,"is_reserved":false,"is_disabled":false,"rental_uris":{"android":"levelo://app?vid=d78f4182-89a3-4c8c-8d77-5ef713c7dd04","ios":"levelo://app?vid=d78f4182-89a3-4c8c-8d77-5ef713c7dd04"},"vehicle_type_id":"4","last_reported":1743451919,"current_range_meters":8000,"station_id":"","pricing_plan_id":"cebpf4jnsgd1na2vs0mg"},{"bike_id":"6d7cb827-2780-4433-b7e2-2a9549866f9a","system_id":"levelo_inurba_marseille","lat":43.257,"lon":5.41142,"is_reserved":false,"is_disabled":false,"rental_uris":{"android":"levelo://app?vid=6d7cb827-2780-4433-b7e2-2a9549866f9a","ios":"levelo://app?vid=6d7cb827-2780-4433-b7e2-2a9549866f9a"},"vehicle_type_id":"4","last_reported":1743451919,"current_range_meters":8000,"station_id":"ce4bhkp2rcd13ifvqgd0","pricing_plan_id":"cebpf4jnsgd1na2vs0mg"},{"bike_id":"970d4a28-2e4b-453e-912d-59e6f284b811","system_id":"levelo_inurba_marseille","lat":43.32377,"lon":5.38894,"is_reserved":false,"is_disabled":true,"rental_uris":{"android":"levelo://app?vid=970d4a28-2e4b-453e-912d-59e6f284b811","ios":"levelo://app?vid=970d4a28-2e4b-453e-912d-59e6f284b811"},"vehicle_type_id":"4","last_reported":1743451919,"current_range_meters":8400,"station_id":"ce4bhqp2rcd13ifvqhog","pricing_plan_id":"cebpf4jnsgd1na2vs0mg"},{"bike_id":"6b7f2b11-03ac-4a0c-9fb1-71dc0bbdd506","system_id":"levelo_inurba_marseille","lat":43.31992,"lon":5.38149,"is_reserved":false,"is_disabled":false,"rental_uris":{"android":"levelo://app?vid=6b7f2b11-03ac-4a0c-9fb1-71dc0bbdd506","ios":"levelo://app?vid=6b7f2b11-03ac-4a0c-9fb1-71dc0bbdd506"},"vehicle_type_id":"4","last_reported":1743451919,"current_range_meters":8400,"station_id":"ce4bhr12rcd13ifvqhpg","pricing_plan_id":"cebpf4jnsgd1na2vs0mg"},{"bike_id":"e781b02d-fd16-4e02-896f-35d26e823b14","system_id":"levelo_inurba_marseille","lat":43.3116,"lon":5.38725,"is_reserved":false,"is_disabled":false,"rental_uris":{"android":"levelo://app?vid=e781b02d-fd16-4e02-896f-35d26e823b14","ios":"levelo://app?vid=e781b02d-fd16-4e02-896f-35d26e823b14"},"vehicle_type_id":"4","last_reported":1743451919,"current_range_meters":8400,"station_id":"ce4bgv12rcd13ifvqcp0","pricing_plan_id":"cebpf4jnsgd1na2vs0mg"},{"bike_id":"b9ca3591-a608-4431-a5f0-feb172ee9f0e","system_id":"levelo_inurba_marseille","lat":43.309216,"lon":5.396436,"is_reserved":false,"is_disabled":false,"rental_uris":{"android":"levelo://app?vid=b9ca3591-a608-4431-a5f0-feb172ee9f0e","ios":"levelo://app?vid=b9ca3591-a608-4431-a5f0-feb172ee9f0e"},"vehicle_type_id":"4","last_reported":1743451919,"current_range_meters":8400,"station_id":"","pricing_plan_id":"cebpf4jnsgd1na2vs0mg"},{"bike_id":"44db82ce-b275-4e27-87d3-c219b4b05dc8","system_id":"levelo_inurba_marseille","lat":43.32153,"lon":5.36752,"is_reserved":false,"is_disabled":false,"rental_uris":{"android":"levelo://app?vid=44db82ce-b275-4e27-87d3-c219b4b05dc8","ios":"levelo://app?vid=44db82ce-b275-4e27-87d3-c219b4b05dc8"},"vehicle_type_id":"4","last_reported":1743451919,"current_range_meters":8400,"station_id":"","pricing_plan_id":"cebpf4jnsgd1na2vs0mg"},{"bike_id":"f50dd1be-9ee4-480d-920f-0721f0997798","system_id":"levelo_inurba_marseille","lat":43.23197,"lon":5.39972,"is_reserved":false,"is_disabled":false,"rental_uris":{"android":"levelo://app?vid=f50dd1be-9ee4-480d-920f-0721f0997798","ios":"levelo://app?vid=f50dd1be-9ee4-480d-920f-0721f0997798"},"vehicle_type_id":"4","last_reported":1743451919,"current_range_meters":8400,"station_id":"ce4bhn12rcd13ifvqgqg","pricing_plan_id":"cebpf4jnsgd1na2vs0mg"},{"bike_id":"2bf31f9f-c5c0-434c-ab3b-b017d7dc966d","system_id":"levelo_inurba_marseille","lat":43.23046,"lon":5.35502,"is_reserved":false,"is_disabled":false,"rental_uris":{"android":"levelo://app?vid=2bf31f9f-c5c0-434c-ab3b-b017d7dc966d","ios":"levelo://app?vid=2bf31f9f-c5c0-434c-ab3b-b017d7dc966d"},"vehicle_type_id":"4","last_reported":1743451919,"current_range_meters":8400,"station_id":"cpo3342slgdg3j2ifvpg","pricing_plan_id":"cebpf4jnsgd1na2vs0mg"},{"bike_id":"ab3717f3-b435-42f8-98d9-8703f94c52c3","system_id":"levelo_inurba_marseille","lat":43.28402,"lon":5.37521,"is_reserved":false,"is_disabled":false,"rental_uris":{"android":"levelo://app?vid=ab3717f3-b435-42f8-98d9-8703f94c52c3","ios":"levelo://app?vid=ab3717f3-b435-42f8-98d9-8703f94c52c3"},"vehicle_type_id":"4","last_reported":1743451919,"current_range_meters":8400,"station_id":"ce4bh412rcd13ifvqds0","pricing_plan_id":"cebpf4jnsgd1na2vs0mg"},{"bike_id":"cf1f2c03-f850-4d1b-a61f-a8f68ffbe580","system_id":"levelo_inurba_marseille","lat":43.28104,"lon":5.37831,"is_reserved":false,"is_disabled":false,"rental_uris":{"android":"levelo://app?vid=cf1f2c03-f850-4d1b-a61f-a8f68ffbe580","ios":"levelo://app?vid=cf1f2c03-f850-4d1b-a61f-a8f68ffbe580"},"vehicle_type_id":"4","last_reported":1743451919,"current_range_meters":8400,"station_id":"ce4bha12rcd13ifvqee0","pricing_plan_id":"cebpf4jnsgd1na2vs0mg"},{"bike_id":"12514587-c98e-4063-aac8-25cd351ba7fd","system_id":"levelo_inurba_marseille","lat":43.30256,"lon":5.400787,"is_reserved":false,"is_disabled":false,"rental_uris":{"android":"levelo://app?vid=12514587-c98e-4063-aac8-25cd351ba7fd","ios":"levelo://app?vid=12514587-c98e-4063-aac8-25cd351ba7fd"},"vehicle_type_id":"4","last_reported":1743451919,"current_range_meters":8400,"station_id":"ce4bgvh2rcd13ifvqcs0","pricing_plan_id":"cebpf4jnsgd1na2vs0mg"},{"bike_id":"98e9e043-0694-4ee2-86f8-2f735dfd7edb","system_id":"levelo_inurba_marseille","lat":43.29096,"lon":5.38146,"is_reserved":false,"is_disabled":false,"rental_uris":{"android":"levelo://app?vid=98e9e043-0694-4ee2-86f8-2f735dfd7edb","ios":"levelo://app?vid=98e9e043-0694-4ee2-86f8-2f735dfd7edb"},"vehicle_type_id":"4","last_reported":1743451919,"current_range_meters":8400,"station_id":"ce4bh512rcd13ifvqe2g","pricing_plan_id":"cebpf4jnsgd1na2vs0mg"},{"bike_id":"42cb0f68-e46d-4c3b-b402-2d5194f6aaea","system_id":"levelo_inurba_marseille","lat":43.30302,"lon":5.36884,"is_reserved":false,"is_disabled":false,"rental_uris":{"android":"levelo://app?vid=42cb0f68-e46d-4c3b-b402-2d5194f6aaea","ios":"levelo://app?vid=42cb0f68-e46d-4c3b-b402-2d5194f6aaea"},"vehicle_type_id":"4","last_reported":1743451919,"current_range_meters":8400,"station_id":"ce4bgqh2rcd13ifvqc5g","pricing_plan_id":"cebpf4jnsgd1na2vs0mg"},{"bike_id":"121010d1-d0ea-475b-97a6-f9054736109c","system_id":"levelo_inurba_marseille","lat":43.23183,"lon":5.39981,"is_reserved":false,"is_disabled":false,"rental_uris":{"android":"levelo://app?vid=121010d1-d0ea-475b-97a6-f9054736109c","ios":"levelo://app?vid=121010d1-d0ea-475b-97a6-f9054736109c"},"vehicle_type_id":"4","last_reported":1743451919,"current_range_meters":8800,"station_id":"ce4bhn12rcd13ifvqgqg","pricing_plan_id":"cebpf4jnsgd1na2vs0mg"},{"bike_id":"49810080-90c1-49b4-921f-dc96b27343ff","system_id":"levelo_inurba_marseille","lat":43.26113,"lon":5.41471,"is_reserved":false,"is_disabled":false,"rental_uris":{"android":"levelo://app?vid=49810080-90c1-49b4-921f-dc96b27343ff","ios":"levelo://app?vid=49810080-90c1-49b4-921f-dc96b27343ff"},"vehicle_type_id":"4","last_reported":1743451919,"current_range_meters":8800,"station_id":"","pricing_plan_id":"cebpf4jnsgd1na2vs0mg"},{"bike_id":"20f5d5b6-da1b-4ad8-8de5-42887a69d068","system_id":"levelo_inurba_marseille","lat":43.29006,"lon":5.35615,"is_reserved":false,"is_disabled":true,"rental_uris":{"android":"levelo://app?vid=20f5d5b6-da1b-4ad8-8de5-42887a69d068","ios":"levelo://app?vid=20f5d5b6-da1b-4ad8-8de5-42887a69d068"},"vehicle_type_id":"4","last_reported":1743451919,"current_range_meters":8800,"station_id":"ce4bhb92rcd13ifvqen0","pricing_plan_id":"cebpf4jnsgd1na2vs0mg"},{"bike_id":"0c308ff7-9027-4d5a-9468-e5b6ff32487c","system_id":"levelo_inurba_marseille","lat":43.29092,"lon":5.38133,"is_reserved":false,"is_disabled":false,"rental_uris":{"android":"levelo://app?vid=0c308ff7-9027-4d5a-9468-e5b6ff32487c","ios":"levelo://app?vid=0c308ff7-9027-4d5a-9468-e5b6ff32487c"},"vehicle_type_id":"4","last_reported":1743451919,"current_range_meters":8800,"station_id":"ce4bh512rcd13ifvqe2g","pricing_plan_id":"cebpf4jnsgd1na2vs0mg"},{"bike_id":"6794ae83-daba-4611-956d-2c9dffa4f52f","system_id":"levelo_inurba_marseille","lat":43.30294,"lon":5.39202,"is_reserved":false,"is_disabled":false,"rental_uris":{"android":"levelo://app?vid=6794ae83-daba-4611-956d-2c9dffa4f52f","ios":"levelo://app?vid=6794ae83-daba-4611-956d-2c9dffa4f52f"},"vehicle_type_id":"4","last_reported":1743451919,"current_range_meters":8800,"station_id":"ce4bgkh2rcd13ifvqbk0","pricing_plan_id":"cebpf4jnsgd1na2vs0mg"},{"bike_id":"ba9895d7-228c-4468-b2a3-7e61f625cb0b","system_id":"levelo_inurba_marseille","lat":43.31725,"lon":5.42395,"is_reserved":false,"is_disabled":false,"rental_uris":{"android":"levelo://app?vid=ba9895d7-228c-4468-b2a3-7e61f625cb0b","ios":"levelo://app?vid=ba9895d7-228c-4468-b2a3-7e61f625cb0b"},"vehicle_type_id":"4","last_reported":1743451919,"current_range_meters":8800,"station_id":"ce4bhp92rcd13ifvqhbg","pricing_plan_id":"cebpf4jnsgd1na2vs0mg"},{"bike_id":"c38cccd4-7aa8-45e2-b7ef-b935585b49f9","system_id":"levelo_inurba_marseille","lat":43.30894,"lon":5.37199,"is_reserved":false,"is_disabled":false,"rental_uris":{"android":"levelo://app?vid=c38cccd4-7aa8-45e2-b7ef-b935585b49f9","ios":"levelo://app?vid=c38cccd4-7aa8-45e2-b7ef-b935585b49f9"},"vehicle_type_id":"4","last_reported":1743451919,"current_range_meters":8800,"station_id":"ce4bguh2rcd13ifvqckg","pricing_plan_id":"cebpf4jnsgd1na2vs0mg"},{"bike_id":"81dd399d-4106-41b7-ba18-371b943d676e","system_id":"levelo_inurba_marseille","lat":43.25135,"lon":5.40295,"is_reserved":false,"is_disabled":false,"rental_uris":{"android":"levelo://app?vid=81dd399d-4106-41b7-ba18-371b943d676e","ios":"levelo://app?vid=81dd399d-4106-41b7-ba18-371b943d676e"},"vehicle_type_id":"4","last_reported":1743451919,"current_range_meters":8800,"station_id":"ce4bhlh2rcd13ifvqgig","pricing_plan_id":"cebpf4jnsgd1na2vs0mg"},{"bike_id":"672d4500-3325-45a5-9b08-ac625495a4fb","system_id":"levelo_inurba_marseille","lat":43.28347,"lon":5.38099,"is_reserved":false,"is_disabled":true,"rental_uris":{"android":"levelo://app?vid=672d4500-3325-45a5-9b08-ac625495a4fb","ios":"levelo://app?vid=672d4500-3325-45a5-9b08-ac625495a4fb"},"vehicle_type_id":"4","last_reported":1743451919,"current_range_meters":8800,"station_id":"ce4bh412rcd13ifvqdr0","pricing_plan_id":"cebpf4jnsgd1na2vs0mg"},{"bike_id":"d2f2ddd5-8dd4-436f-ba30-fd70dfe59da3","system_id":"levelo_inurba_marseille","lat":43.32103,"lon":5.36764,"is_reserved":false,"is_disabled":false,"rental_uris":{"android":"levelo://app?vid=d2f2ddd5-8dd4-436f-ba30-fd70dfe59da3","ios":"levelo://app?vid=d2f2ddd5-8dd4-436f-ba30-fd70dfe59da3"},"vehicle_type_id":"4","last_reported":1743451919,"current_range_meters":9200,"station_id":"ce4bhrh2rcd13ifvqhug","pricing_plan_id":"cebpf4jnsgd1na2vs0mg"},{"bike_id":"b42d6901-bca6-436c-b3b0-94aec0afc9b4","system_id":"levelo_inurba_marseille","lat":43.28942,"lon":5.36631,"is_reserved":false,"is_disabled":false,"rental_uris":{"android":"levelo://app?vid=b42d6901-bca6-436c-b3b0-94aec0afc9b4","ios":"levelo://app?vid=b42d6901-bca6-436c-b3b0-94aec0afc9b4"},"vehicle_type_id":"4","last_reported":1743451919,"current_range_meters":9200,"station_id":"ce4bhap2rcd13ifvqek0","pricing_plan_id":"cebpf4jnsgd1na2vs0mg"},{"bike_id":"05cce8b5-e04d-46f0-83d1-107eef27d8ef","system_id":"levelo_inurba_marseille","lat":43.32299,"lon":5.38267,"is_reserved":false,"is_disabled":false,"rental_uris":{"android":"levelo://app?vid=05cce8b5-e04d-46f0-83d1-107eef27d8ef","ios":"levelo://app?vid=05cce8b5-e04d-46f0-83d1-107eef27d8ef"},"vehicle_type_id":"4","last_reported":1743451919,"current_range_meters":9200,"station_id":"ce4bhr12rcd13ifvqhqg","pricing_plan_id":"cebpf4jnsgd1na2vs0mg"},{"bike_id":"23a2997f-acca-44d1-a72c-cccdd94a796c","system_id":"levelo_inurba_marseille","lat":43.30929,"lon":5.4016,"is_reserved":false,"is_disabled":true,"rental_uris":{"android":"levelo://app?vid=23a2997f-acca-44d1-a72c-cccdd94a796c","ios":"levelo://app?vid=23a2997f-acca-44d1-a72c-cccdd94a796c"},"vehicle_type_id":"4","last_reported":1743451919,"current_range_meters":9200,"station_id":"ce4bgvp2rcd13ifvqct0","pricing_plan_id":"cebpf4jnsgd1na2vs0mg"},{"bike_id":"5203ccbe-ce3c-4351-a8e9-f9ee5ad38a9c","system_id":"levelo_inurba_marseille","lat":43.23179,"lon":5.39981,"is_reserved":false,"is_disabled":false,"rental_uris":{"android":"levelo://app?vid=5203ccbe-ce3c-4351-a8e9-f9ee5ad38a9c","ios":"levelo://app?vid=5203ccbe-ce3c-4351-a8e9-f9ee5ad38a9c"},"vehicle_type_id":"4","last_reported":1743451919,"current_range_meters":9200,"station_id":"ce4bhn12rcd13ifvqgqg","pricing_plan_id":"cebpf4jnsgd1na2vs0mg"},{"bike_id":"09500f20-ee1d-4932-abbf-188a230c5b27","system_id":"levelo_inurba_marseille","lat":43.25112,"lon":5.40319,"is_reserved":false,"is_disabled":false,"rental_uris":{"android":"levelo://app?vid=09500f20-ee1d-4932-abbf-188a230c5b27","ios":"levelo://app?vid=09500f20-ee1d-4932-abbf-188a230c5b27"},"vehicle_type_id":"4","last_reported":1743451919,"current_range_meters":9200,"station_id":"ce4bhlh2rcd13ifvqgig","pricing_plan_id":"cebpf4jnsgd1na2vs0mg"},{"bike_id":"df6a4731-d3bc-4c2e-be5a-67b5103fb46b","system_id":"levelo_inurba_marseille","lat":43.30894,"lon":5.37182,"is_reserved":false,"is_disabled":false,"rental_uris":{"android":"levelo://app?vid=df6a4731-d3bc-4c2e-be5a-67b5103fb46b","ios":"levelo://app?vid=df6a4731-d3bc-4c2e-be5a-67b5103fb46b"},"vehicle_type_id":"4","last_reported":1743451919,"current_range_meters":9200,"station_id":"ce4bguh2rcd13ifvqckg","pricing_plan_id":"cebpf4jnsgd1na2vs0mg"},{"bike_id":"499613bd-c4ce-4daa-9850-a428bc51c903","system_id":"levelo_inurba_marseille","lat":43.300298,"lon":5.380794,"is_reserved":false,"is_disabled":false,"rental_uris":{"android":"levelo://app?vid=499613bd-c4ce-4daa-9850-a428bc51c903","ios":"levelo://app?vid=499613bd-c4ce-4daa-9850-a428bc51c903"},"vehicle_type_id":"4","last_reported":1743451919,"current_range_meters":9200,"station_id":"ce4bgjp2rcd13ifvqbh0","pricing_plan_id":"cebpf4jnsgd1na2vs0mg"},{"bike_id":"0f8f638f-6c59-4dfb-ab4f-882d40e453aa","system_id":"levelo_inurba_marseille","lat":43.29273,"lon":5.42779,"is_reserved":false,"is_disabled":false,"rental_uris":{"android":"levelo://app?vid=0f8f638f-6c59-4dfb-ab4f-882d40e453aa","ios":"levelo://app?vid=0f8f638f-6c59-4dfb-ab4f-882d40e453aa"},"vehicle_type_id":"4","last_reported":1743451919,"current_range_meters":9200,"station_id":"","pricing_plan_id":"cebpf4jnsgd1na2vs0mg"},{"bike_id":"75eb16ac-b755-478d-bfb5-2e22abc751f6","system_id":"levelo_inurba_marseille","lat":43.29615,"lon":5.37175,"is_reserved":false,"is_disabled":true,"rental_uris":{"android":"levelo://app?vid=75eb16ac-b755-478d-bfb5-2e22abc751f6","ios":"levelo://app?vid=75eb16ac-b755-478d-bfb5-2e22abc751f6"},"vehicle_type_id":"4","last_reported":1743451919,"current_range_meters":9200,"station_id":"ce4bgnh2rcd13ifvqc0g","pricing_plan_id":"cebpf4jnsgd1na2vs0mg"},{"bike_id":"5aec9c6d-5a51-41a0-a4bf-50707d0bd2f1","system_id":"levelo_inurba_marseille","lat":43.28979,"lon":5.38375,"is_reserved":false,"is_disabled":false,"rental_uris":{"android":"levelo://app?vid=5aec9c6d-5a51-41a0-a4bf-50707d0bd2f1","ios":"levelo://app?vid=5aec9c6d-5a51-41a0-a4bf-50707d0bd2f1"},"vehicle_type_id":"4","last_reported":1743451919,"current_range_meters":9200,"station_id":"ce4bh612rcd13ifvqe6g","pricing_plan_id":"cebpf4jnsgd1na2vs0mg"},{"bike_id":"623b28e0-0b18-416d-9590-ff6fb7e6b46f","system_id":"levelo_inurba_marseille","lat":43.292149,"lon":5.376889,"is_reserved":false,"is_disabled":false,"rental_uris":{"android":"levelo://app?vid=623b28e0-0b18-416d-9590-ff6fb7e6b46f","ios":"levelo://app?vid=623b28e0-0b18-416d-9590-ff6fb7e6b46f"},"vehicle_type_id":"4","last_reported":1743451919,"current_range_meters":9200,"station_id":"ce4bgi12rcd13ifvqb80","pricing_plan_id":"cebpf4jnsgd1na2vs0mg"},{"bike_id":"dee49899-d634-4423-80e1-eff4aaafd325","system_id":"levelo_inurba_marseille","lat":43.2707,"lon":5.42279,"is_reserved":false,"is_disabled":false,"rental_uris":{"android":"levelo://app?vid=dee49899-d634-4423-80e1-eff4aaafd325","ios":"levelo://app?vid=dee49899-d634-4423-80e1-eff4aaafd325"},"vehicle_type_id":"4","last_reported":1743451919,"current_range_meters":9200,"station_id":"ce4bhk92rcd13ifvqgb0","pricing_plan_id":"cebpf4jnsgd1na2vs0mg"},{"bike_id":"b78e6632-ee1c-4653-858b-6f3b10aefef2","system_id":"levelo_inurba_marseille","lat":43.30128,"lon":5.39886,"is_reserved":false,"is_disabled":true,"rental_uris":{"android":"levelo://app?vid=b78e6632-ee1c-4653-858b-6f3b10aefef2","ios":"levelo://app?vid=b78e6632-ee1c-4653-858b-6f3b10aefef2"},"vehicle_type_id":"4","last_reported":1743451919,"current_range_meters":9600,"station_id":"ce4bh0h2rcd13ifvqd40","pricing_plan_id":"cebpf4jnsgd1na2vs0mg"},{"bike_id":"2726bfdb-4638-4364-9f4e-00c2e4c7a44d","system_id":"levelo_inurba_marseille","lat":43.32128,"lon":5.36753,"is_reserved":false,"is_disabled":false,"rental_uris":{"android":"levelo://app?vid=2726bfdb-4638-4364-9f4e-00c2e4c7a44d","ios":"levelo://app?vid=2726bfdb-4638-4364-9f4e-00c2e4c7a44d"},"vehicle_type_id":"4","last_reported":1743451919,"current_range_meters":9600,"station_id":"ce4bhrh2rcd13ifvqhug","pricing_plan_id":"cebpf4jnsgd1na2vs0mg"},{"bike_id":"e1892c40-ae37-45d4-bf2c-99665a9e5e63","system_id":"levelo_inurba_marseille","lat":43.22935,"lon":5.35383,"is_reserved":false,"is_disabled":false,"rental_uris":{"android":"levelo://app?vid=e1892c40-ae37-45d4-bf2c-99665a9e5e63","ios":"levelo://app?vid=e1892c40-ae37-45d4-bf2c-99665a9e5e63"},"vehicle_type_id":"4","last_reported":1743451919,"current_range_meters":9600,"station_id":"cpo3532slgdg3j2ikp40","pricing_plan_id":"cebpf4jnsgd1na2vs0mg"},{"bike_id":"dc2ebcaf-070a-47ba-9fbc-c5c2215094b3","system_id":"levelo_inurba_marseille","lat":43.289343,"lon":5.366442,"is_reserved":false,"is_disabled":false,"rental_uris":{"android":"levelo://app?vid=dc2ebcaf-070a-47ba-9fbc-c5c2215094b3","ios":"levelo://app?vid=dc2ebcaf-070a-47ba-9fbc-c5c2215094b3"},"vehicle_type_id":"4","last_reported":1743451919,"current_range_meters":9600,"station_id":"ce4bh9p2rcd13ifvqec0","pricing_plan_id":"cebpf4jnsgd1na2vs0mg"},{"bike_id":"53455174-dd40-4291-b684-2c9bcaec009e","system_id":"levelo_inurba_marseille","lat":43.280034,"lon":5.416677,"is_reserved":false,"is_disabled":false,"rental_uris":{"android":"levelo://app?vid=53455174-dd40-4291-b684-2c9bcaec009e","ios":"levelo://app?vid=53455174-dd40-4291-b684-2c9bcaec009e"},"vehicle_type_id":"4","last_reported":1743451919,"current_range_meters":9600,"station_id":"ce4bho12rcd13ifvqh1g","pricing_plan_id":"cebpf4jnsgd1na2vs0mg"},{"bike_id":"aa220af0-6661-47a5-9388-b3584f78f70a","system_id":"levelo_inurba_marseille","lat":43.32329,"lon":5.40622,"is_reserved":false,"is_disabled":false,"rental_uris":{"android":"levelo://app?vid=aa220af0-6661-47a5-9388-b3584f78f70a","ios":"levelo://app?vid=aa220af0-6661-47a5-9388-b3584f78f70a"},"vehicle_type_id":"4","last_reported":1743451919,"current_range_meters":10000,"station_id":"ce4bhq92rcd13ifvqhjg","pricing_plan_id":"cebpf4jnsgd1na2vs0mg"},{"bike_id":"119e44bc-bee2-455d-8183-8ae152e0223b","system_id":"levelo_inurba_marseille","lat":43.30929,"lon":5.40148,"is_reserved":false,"is_disabled":false,"rental_uris":{"android":"levelo://app?vid=119e44bc-bee2-455d-8183-8ae152e0223b","ios":"levelo://app?vid=119e44bc-bee2-455d-8183-8ae152e0223b"},"vehicle_type_id":"4","last_reported":1743451919,"current_range_meters":10000,"station_id":"ce4bgvp2rcd13ifvqct0","pricing_plan_id":"cebpf4jnsgd1na2vs0mg"},{"bike_id":"668c01cb-7bea-48c9-8f15-6bcc0c19c832","system_id":"levelo_inurba_marseille","lat":43.26212,"lon":5.37925,"is_reserved":false,"is_disabled":true,"rental_uris":{"android":"levelo://app?vid=668c01cb-7bea-48c9-8f15-6bcc0c19c832","ios":"levelo://app?vid=668c01cb-7bea-48c9-8f15-6bcc0c19c832"},"vehicle_type_id":"4","last_reported":1743451919,"current_range_meters":10000,"station_id":"ce4bhjp2rcd13ifvqg90","pricing_plan_id":"cebpf4jnsgd1na2vs0mg"},{"bike_id":"0e5cf204-cc2e-4385-8d19-42195cfe1d22","system_id":"levelo_inurba_marseille","lat":43.30661,"lon":5.40067,"is_reserved":false,"is_disabled":false,"rental_uris":{"android":"levelo://app?vid=0e5cf204-cc2e-4385-8d19-42195cfe1d22","ios":"levelo://app?vid=0e5cf204-cc2e-4385-8d19-42195cfe1d22"},"vehicle_type_id":"4","last_reported":1743451919,"current_range_meters":10000,"station_id":"ce4bh112rcd13ifvqda0","pricing_plan_id":"cebpf4jnsgd1na2vs0mg"},{"bike_id":"397156ba-a229-438d-859c-42be5a8ad922","system_id":"levelo_inurba_marseille","lat":43.24659,"lon":5.38177,"is_reserved":false,"is_disabled":false,"rental_uris":{"android":"levelo://app?vid=397156ba-a229-438d-859c-42be5a8ad922","ios":"levelo://app?vid=397156ba-a229-438d-859c-42be5a8ad922"},"vehicle_type_id":"4","last_reported":1743451919,"current_range_meters":10000,"station_id":"ce4bhih2rcd13ifvqfr0","pricing_plan_id":"cebpf4jnsgd1na2vs0mg"},{"bike_id":"722b18b3-c8a7-4fa7-88f6-bead613f090f","system_id":"levelo_inurba_marseille","lat":43.32299,"lon":5.38275,"is_reserved":false,"is_disabled":false,"rental_uris":{"android":"levelo://app?vid=722b18b3-c8a7-4fa7-88f6-bead613f090f","ios":"levelo://app?vid=722b18b3-c8a7-4fa7-88f6-bead613f090f"},"vehicle_type_id":"4","last_reported":1743451919,"current_range_meters":10000,"station_id":"ce4bhr12rcd13ifvqhqg","pricing_plan_id":"cebpf4jnsgd1na2vs0mg"},{"bike_id":"2354230b-99fa-41b3-ba1d-5f0baaa8079f","system_id":"levelo_inurba_marseille","lat":43.316859,"lon":5.404724,"is_reserved":false,"is_disabled":false,"rental_uris":{"android":"levelo://app?vid=2354230b-99fa-41b3-ba1d-5f0baaa8079f","ios":"levelo://app?vid=2354230b-99fa-41b3-ba1d-5f0baaa8079f"},"vehicle_type_id":"4","last_reported":1743451919,"current_range_meters":10000,"station_id":"ce4bh012rcd13ifvqd00","pricing_plan_id":"cebpf4jnsgd1na2vs0mg"},{"bike_id":"70b1412a-5466-45ee-b0f6-f4bf77f2d89c","system_id":"levelo_inurba_marseille","lat":43.319935,"lon":5.381515,"is_reserved":false,"is_disabled":false,"rental_uris":{"android":"levelo://app?vid=70b1412a-5466-45ee-b0f6-f4bf77f2d89c","ios":"levelo://app?vid=70b1412a-5466-45ee-b0f6-f4bf77f2d89c"},"vehicle_type_id":"4","last_reported":1743451919,"current_range_meters":10000,"station_id":"ce4bhr12rcd13ifvqhpg","pricing_plan_id":"cebpf4jnsgd1na2vs0mg"},{"bike_id":"fe1bccc7-3458-42e9-a74c-85dbbae754c6","system_id":"levelo_inurba_marseille","lat":43.27175,"lon":5.40998,"is_reserved":false,"is_disabled":false,"rental_uris":{"android":"levelo://app?vid=fe1bccc7-3458-42e9-a74c-85dbbae754c6","ios":"levelo://app?vid=fe1bccc7-3458-42e9-a74c-85dbbae754c6"},"vehicle_type_id":"4","last_reported":1743451919,"current_range_meters":10000,"station_id":"ce4bhl12rcd13ifvqgf0","pricing_plan_id":"cebpf4jnsgd1na2vs0mg"},{"bike_id":"c8993f9a-32c4-4de7-aa8f-d307097df90a","system_id":"levelo_inurba_marseille","lat":43.3026,"lon":5.40041,"is_reserved":false,"is_disabled":false,"rental_uris":{"android":"levelo://app?vid=c8993f9a-32c4-4de7-aa8f-d307097df90a","ios":"levelo://app?vid=c8993f9a-32c4-4de7-aa8f-d307097df90a"},"vehicle_type_id":"4","last_reported":1743451919,"current_range_meters":10000,"station_id":"ce4bgvh2rcd13ifvqcs0","pricing_plan_id":"cebpf4jnsgd1na2vs0mg"},{"bike_id":"60f3c81c-d1a3-4b58-98c9-504f8a0ffc50","system_id":"levelo_inurba_marseille","lat":43.2978,"lon":5.39351,"is_reserved":false,"is_disabled":false,"rental_uris":{"android":"levelo://app?vid=60f3c81c-d1a3-4b58-98c9-504f8a0ffc50","ios":"levelo://app?vid=60f3c81c-d1a3-4b58-98c9-504f8a0ffc50"},"vehicle_type_id":"4","last_reported":1743451919,"current_range_meters":10000,"station_id":"chh1huq6cuj3fo74tm60","pricing_plan_id":"cebpf4jnsgd1na2vs0mg"},{"bike_id":"241d62a7-84d0-4eb8-ab17-fd67306a391c","system_id":"levelo_inurba_marseille","lat":43.30945,"lon":5.39033,"is_reserved":false,"is_disabled":false,"rental_uris":{"android":"levelo://app?vid=241d62a7-84d0-4eb8-ab17-fd67306a391c","ios":"levelo://app?vid=241d62a7-84d0-4eb8-ab17-fd67306a391c"},"vehicle_type_id":"4","last_reported":1743451919,"current_range_meters":8400,"station_id":"ce4bgup2rcd13ifvqco0","pricing_plan_id":"cebpf4jnsgd1na2vs0mg"},{"bike_id":"3eb82948-f003-4f17-8d20-1a8714e2fd0b","system_id":"levelo_inurba_marseille","lat":43.30946,"lon":5.39028,"is_reserved":false,"is_disabled":false,"rental_uris":{"android":"levelo://app?vid=3eb82948-f003-4f17-8d20-1a8714e2fd0b","ios":"levelo://app?vid=3eb82948-f003-4f17-8d20-1a8714e2fd0b"},"vehicle_type_id":"4","last_reported":1743451919,"current_range_meters":10800,"station_id":"ce4bgup2rcd13ifvqco0","pricing_plan_id":"cebpf4jnsgd1na2vs0mg"},{"bike_id":"2e457e3d-fe13-42b1-b80f-5d6c116678d1","system_id":"levelo_inurba_marseille","lat":43.25089,"lon":5.39505,"is_reserved":false,"is_disabled":false,"rental_uris":{"android":"levelo://app?vid=2e457e3d-fe13-42b1-b80f-5d6c116678d1","ios":"levelo://app?vid=2e457e3d-fe13-42b1-b80f-5d6c116678d1"},"vehicle_type_id":"4","last_reported":1743451919,"current_range_meters":10800,"station_id":"ce4bhm12rcd13ifvqgkg","pricing_plan_id":"cebpf4jnsgd1na2vs0mg"},{"bike_id":"f7249966-2e0f-4bcd-abc8-0c337d0533fb","system_id":"levelo_inurba_marseille","lat":43.29027,"lon":5.38653,"is_reserved":false,"is_disabled":false,"rental_uris":{"android":"levelo://app?vid=f7249966-2e0f-4bcd-abc8-0c337d0533fb","ios":"levelo://app?vid=f7249966-2e0f-4bcd-abc8-0c337d0533fb"},"vehicle_type_id":"4","last_reported":1743451919,"current_range_meters":10800,"station_id":"ce4bh4p2rcd13ifvqe0g","pricing_plan_id":"cebpf4jnsgd1na2vs0mg"},{"bike_id":"32786654-e0a5-4ead-8bb5-f56016b6a3a0","system_id":"levelo_inurba_marseille","lat":43.26084,"lon":5.39382,"is_reserved":false,"is_disabled":false,"rental_uris":{"android":"levelo://app?vid=32786654-e0a5-4ead-8bb5-f56016b6a3a0","ios":"levelo://app?vid=32786654-e0a5-4ead-8bb5-f56016b6a3a0"},"vehicle_type_id":"4","last_reported":1743451919,"current_range_meters":10800,"station_id":"ce4bhh92rcd13ifvqfj0","pricing_plan_id":"cebpf4jnsgd1na2vs0mg"},{"bike_id":"e664c24c-d524-431a-88e3-2336a75dbc15","system_id":"levelo_inurba_marseille","lat":43.29103,"lon":5.38168,"is_reserved":false,"is_disabled":false,"rental_uris":{"android":"levelo://app?vid=e664c24c-d524-431a-88e3-2336a75dbc15","ios":"levelo://app?vid=e664c24c-d524-431a-88e3-2336a75dbc15"},"vehicle_type_id":"4","last_reported":1743451919,"current_range_meters":10800,"station_id":"ce4bh512rcd13ifvqe2g","pricing_plan_id":"cebpf4jnsgd1na2vs0mg"},{"bike_id":"1ac130bb-bb0a-4e1d-9bf1-ffce4c31cec6","system_id":"levelo_inurba_marseille","lat":43.30783,"lon":5.37657,"is_reserved":false,"is_disabled":false,"rental_uris":{"android":"levelo://app?vid=1ac130bb-bb0a-4e1d-9bf1-ffce4c31cec6","ios":"levelo://app?vid=1ac130bb-bb0a-4e1d-9bf1-ffce4c31cec6"},"vehicle_type_id":"4","last_reported":1743451919,"current_range_meters":10800,"station_id":"ce4bgv92rcd13ifvqcq0","pricing_plan_id":"cebpf4jnsgd1na2vs0mg"},{"bike_id":"1aeacb1e-a7a1-429c-99cb-0404ca56da8b","system_id":"levelo_inurba_marseille","lat":43.29433,"lon":5.38597,"is_reserved":false,"is_disabled":false,"rental_uris":{"android":"levelo://app?vid=1aeacb1e-a7a1-429c-99cb-0404ca56da8b","ios":"levelo://app?vid=1aeacb1e-a7a1-429c-99cb-0404ca56da8b"},"vehicle_type_id":"4","last_reported":1743451919,"current_range_meters":10800,"station_id":"ce4bh2h2rcd13ifvqdh0","pricing_plan_id":"cebpf4jnsgd1na2vs0mg"},{"bike_id":"278a572e-c3f1-410c-a7c4-1fe23200e33e","system_id":"levelo_inurba_marseille","lat":43.30245,"lon":5.40052,"is_reserved":false,"is_disabled":false,"rental_uris":{"android":"levelo://app?vid=278a572e-c3f1-410c-a7c4-1fe23200e33e","ios":"levelo://app?vid=278a572e-c3f1-410c-a7c4-1fe23200e33e"},"vehicle_type_id":"4","last_reported":1743451919,"current_range_meters":10800,"station_id":"ce4bgvh2rcd13ifvqcs0","pricing_plan_id":"cebpf4jnsgd1na2vs0mg"},{"bike_id":"36f3afbe-4fe3-4c26-b324-a8a33ee89142","system_id":"levelo_inurba_marseille","lat":43.28031,"lon":5.36947,"is_reserved":false,"is_disabled":false,"rental_uris":{"android":"levelo://app?vid=36f3afbe-4fe3-4c26-b324-a8a33ee89142","ios":"levelo://app?vid=36f3afbe-4fe3-4c26-b324-a8a33ee89142"},"vehicle_type_id":"4","last_reported":1743451919,"current_range_meters":11200,"station_id":"ce4bha12rcd13ifvqef0","pricing_plan_id":"cebpf4jnsgd1na2vs0mg"},{"bike_id":"e05eadd8-8b4e-4e63-87fd-b6c49a0a374a","system_id":"levelo_inurba_marseille","lat":43.30637,"lon":5.40076,"is_reserved":false,"is_disabled":false,"rental_uris":{"android":"levelo://app?vid=e05eadd8-8b4e-4e63-87fd-b6c49a0a374a","ios":"levelo://app?vid=e05eadd8-8b4e-4e63-87fd-b6c49a0a374a"},"vehicle_type_id":"4","last_reported":1743451919,"current_range_meters":11200,"station_id":"ce4bh112rcd13ifvqda0","pricing_plan_id":"cebpf4jnsgd1na2vs0mg"},{"bike_id":"a4fc165d-f97c-46ac-924a-bd691a2aa50e","system_id":"levelo_inurba_marseille","lat":43.31367,"lon":5.3671,"is_reserved":false,"is_disabled":false,"rental_uris":{"android":"levelo://app?vid=a4fc165d-f97c-46ac-924a-bd691a2aa50e","ios":"levelo://app?vid=a4fc165d-f97c-46ac-924a-bd691a2aa50e"},"vehicle_type_id":"4","last_reported":1743451919,"current_range_meters":11200,"station_id":"ce4bgr92rcd13ifvqc6g","pricing_plan_id":"cebpf4jnsgd1na2vs0mg"},{"bike_id":"43f8654a-8747-45e9-856c-919f120f6896","system_id":"levelo_inurba_marseille","lat":43.29269,"lon":5.38434,"is_reserved":false,"is_disabled":false,"rental_uris":{"android":"levelo://app?vid=43f8654a-8747-45e9-856c-919f120f6896","ios":"levelo://app?vid=43f8654a-8747-45e9-856c-919f120f6896"},"vehicle_type_id":"4","last_reported":1743451919,"current_range_meters":11200,"station_id":"ce4bh692rcd13ifvqea0","pricing_plan_id":"cebpf4jnsgd1na2vs0mg"},{"bike_id":"60c2db6c-a579-4a7e-9283-d36804f103fc","system_id":"levelo_inurba_marseille","lat":43.29863,"lon":5.39747,"is_reserved":false,"is_disabled":false,"rental_uris":{"android":"levelo://app?vid=60c2db6c-a579-4a7e-9283-d36804f103fc","ios":"levelo://app?vid=60c2db6c-a579-4a7e-9283-d36804f103fc"},"vehicle_type_id":"4","last_reported":1743451919,"current_range_meters":11200,"station_id":"ce4bh0h2rcd13ifvqd50","pricing_plan_id":"cebpf4jnsgd1na2vs0mg"},{"bike_id":"bc2731c5-d1f1-4f43-bf16-ed3324b6f121","system_id":"levelo_inurba_marseille","lat":43.27951,"lon":5.41063,"is_reserved":false,"is_disabled":true,"rental_uris":{"android":"levelo://app?vid=bc2731c5-d1f1-4f43-bf16-ed3324b6f121","ios":"levelo://app?vid=bc2731c5-d1f1-4f43-bf16-ed3324b6f121"},"vehicle_type_id":"4","last_reported":1743451919,"current_range_meters":11200,"station_id":"ce4bhnp2rcd13ifvqh0g","pricing_plan_id":"cebpf4jnsgd1na2vs0mg"},{"bike_id":"568ee668-fca5-4c71-b0d9-1ce2e49d32f6","system_id":"levelo_inurba_marseille","lat":43.28717,"lon":5.37948,"is_reserved":false,"is_disabled":false,"rental_uris":{"android":"levelo://app?vid=568ee668-fca5-4c71-b0d9-1ce2e49d32f6","ios":"levelo://app?vid=568ee668-fca5-4c71-b0d9-1ce2e49d32f6"},"vehicle_type_id":"4","last_reported":1743451919,"current_range_meters":11200,"station_id":"ce4bh9p2rcd13ifvqec0","pricing_plan_id":"cebpf4jnsgd1na2vs0mg"},{"bike_id":"92965aee-9710-4f32-a1eb-71f668b078b0","system_id":"levelo_inurba_marseille","lat":43.28071,"lon":5.39622,"is_reserved":false,"is_disabled":false,"rental_uris":{"android":"levelo://app?vid=92965aee-9710-4f32-a1eb-71f668b078b0","ios":"levelo://app?vid=92965aee-9710-4f32-a1eb-71f668b078b0"},"vehicle_type_id":"4","last_reported":1743451919,"current_range_meters":11200,"station_id":"ce4bho12rcd13ifvqh2g","pricing_plan_id":"cebpf4jnsgd1na2vs0mg"},{"bike_id":"097f47f8-45bd-40bc-8a4f-18bc6c6ce11a","system_id":"levelo_inurba_marseille","lat":43.28265,"lon":5.35069,"is_reserved":false,"is_disabled":false,"rental_uris":{"android":"levelo://app?vid=097f47f8-45bd-40bc-8a4f-18bc6c6ce11a","ios":"levelo://app?vid=097f47f8-45bd-40bc-8a4f-18bc6c6ce11a"},"vehicle_type_id":"4","last_reported":1743451919,"current_range_meters":11200,"station_id":"ce4bhbp2rcd13ifvqerg","pricing_plan_id":"cebpf4jnsgd1na2vs0mg"},{"bike_id":"f5012774-0cf5-4a32-a42e-5cf45f48a9aa","system_id":"levelo_inurba_marseille","lat":43.28922,"lon":5.39629,"is_reserved":false,"is_disabled":false,"rental_uris":{"android":"levelo://app?vid=f5012774-0cf5-4a32-a42e-5cf45f48a9aa","ios":"levelo://app?vid=f5012774-0cf5-4a32-a42e-5cf45f48a9aa"},"vehicle_type_id":"4","last_reported":1743451919,"current_range_meters":11600,"station_id":"ce4bh3h2rcd13ifvqdn0","pricing_plan_id":"cebpf4jnsgd1na2vs0mg"},{"bike_id":"5e8b440b-b094-4019-ac54-063bf794cc3b","system_id":"levelo_inurba_marseille","lat":43.28177,"lon":5.42681,"is_reserved":false,"is_disabled":false,"rental_uris":{"android":"levelo://app?vid=5e8b440b-b094-4019-ac54-063bf794cc3b","ios":"levelo://app?vid=5e8b440b-b094-4019-ac54-063bf794cc3b"},"vehicle_type_id":"4","last_reported":1743451919,"current_range_meters":11600,"station_id":"ce4bhnh2rcd13ifvqgug","pricing_plan_id":"cebpf4jnsgd1na2vs0mg"},{"bike_id":"5e3e154d-81f7-454f-823c-b78370a0c23d","system_id":"levelo_inurba_marseille","lat":43.28859,"lon":5.39325,"is_reserved":false,"is_disabled":false,"rental_uris":{"android":"levelo://app?vid=5e3e154d-81f7-454f-823c-b78370a0c23d","ios":"levelo://app?vid=5e3e154d-81f7-454f-823c-b78370a0c23d"},"vehicle_type_id":"4","last_reported":1743451919,"current_range_meters":12000,"station_id":"ce4bh2p2rcd13ifvqdi0","pricing_plan_id":"cebpf4jnsgd1na2vs0mg"},{"bike_id":"958d94fd-9584-40d4-a32e-066bf879bb32","system_id":"levelo_inurba_marseille","lat":43.31339,"lon":5.36729,"is_reserved":false,"is_disabled":false,"rental_uris":{"android":"levelo://app?vid=958d94fd-9584-40d4-a32e-066bf879bb32","ios":"levelo://app?vid=958d94fd-9584-40d4-a32e-066bf879bb32"},"vehicle_type_id":"4","last_reported":1743451919,"current_range_meters":11600,"station_id":"ce4bgr92rcd13ifvqc6g","pricing_plan_id":"cebpf4jnsgd1na2vs0mg"},{"bike_id":"f8b69d9c-e3b8-43b5-9add-cc545da586bb","system_id":"levelo_inurba_marseille","lat":43.27369,"lon":5.36265,"is_reserved":false,"is_disabled":false,"rental_uris":{"android":"levelo://app?vid=f8b69d9c-e3b8-43b5-9add-cc545da586bb","ios":"levelo://app?vid=f8b69d9c-e3b8-43b5-9add-cc545da586bb"},"vehicle_type_id":"4","last_reported":1743451919,"current_range_meters":8800,"station_id":"ce4bhbh2rcd13ifvqeo0","pricing_plan_id":"cebpf4jnsgd1na2vs0mg"},{"bike_id":"8c8d3d0e-ed82-4216-8b97-0a440989315a","system_id":"levelo_inurba_marseille","lat":43.25116,"lon":5.40309,"is_reserved":false,"is_disabled":false,"rental_uris":{"android":"levelo://app?vid=8c8d3d0e-ed82-4216-8b97-0a440989315a","ios":"levelo://app?vid=8c8d3d0e-ed82-4216-8b97-0a440989315a"},"vehicle_type_id":"4","last_reported":1743451919,"current_range_meters":11600,"station_id":"ce4bhlh2rcd13ifvqgig","pricing_plan_id":"cebpf4jnsgd1na2vs0mg"},{"bike_id":"7a894edd-a4a4-40de-8b70-ca9fb3d5e3fd","system_id":"levelo_inurba_marseille","lat":43.310861,"lon":5.424411,"is_reserved":false,"is_disabled":false,"rental_uris":{"android":"levelo://app?vid=7a894edd-a4a4-40de-8b70-ca9fb3d5e3fd","ios":"levelo://app?vid=7a894edd-a4a4-40de-8b70-ca9fb3d5e3fd"},"vehicle_type_id":"4","last_reported":1743451919,"current_range_meters":12000,"station_id":"ce4bhp92rcd13ifvqhag","pricing_plan_id":"cebpf4jnsgd1na2vs0mg"},{"bike_id":"dee82740-6726-45e5-bfb7-ef177bf0cce4","system_id":"levelo_inurba_marseille","lat":43.30906,"lon":5.36863,"is_reserved":false,"is_disabled":false,"rental_uris":{"android":"levelo://app?vid=dee82740-6726-45e5-bfb7-ef177bf0cce4","ios":"levelo://app?vid=dee82740-6726-45e5-bfb7-ef177bf0cce4"},"vehicle_type_id":"4","last_reported":1743451919,"current_range_meters":12000,"station_id":"ce4bgn92rcd13ifvqbvg","pricing_plan_id":"cebpf4jnsgd1na2vs0mg"},{"bike_id":"a52886ef-e99c-46a0-bac7-a6dde5da8cba","system_id":"levelo_inurba_marseille","lat":43.308861,"lon":5.371942,"is_reserved":false,"is_disabled":false,"rental_uris":{"android":"levelo://app?vid=a52886ef-e99c-46a0-bac7-a6dde5da8cba","ios":"levelo://app?vid=a52886ef-e99c-46a0-bac7-a6dde5da8cba"},"vehicle_type_id":"4","last_reported":1743451919,"current_range_meters":12000,"station_id":"ce4bguh2rcd13ifvqckg","pricing_plan_id":"cebpf4jnsgd1na2vs0mg"},{"bike_id":"423a1286-677b-4207-b068-1c03de793d79","system_id":"levelo_inurba_marseille","lat":43.28695,"lon":5.37404,"is_reserved":false,"is_disabled":false,"rental_uris":{"android":"levelo://app?vid=423a1286-677b-4207-b068-1c03de793d79","ios":"levelo://app?vid=423a1286-677b-4207-b068-1c03de793d79"},"vehicle_type_id":"4","last_reported":1743451919,"current_range_meters":12000,"station_id":"ce4bh3p2rcd13ifvqdq0","pricing_plan_id":"cebpf4jnsgd1na2vs0mg"},{"bike_id":"3d86ad96-3521-40eb-981c-8a33e7f58498","system_id":"levelo_inurba_marseille","lat":43.30008,"lon":5.37348,"is_reserved":false,"is_disabled":false,"rental_uris":{"android":"levelo://app?vid=3d86ad96-3521-40eb-981c-8a33e7f58498","ios":"levelo://app?vid=3d86ad96-3521-40eb-981c-8a33e7f58498"},"vehicle_type_id":"4","last_reported":1743451919,"current_range_meters":12000,"station_id":"","pricing_plan_id":"cebpf4jnsgd1na2vs0mg"},{"bike_id":"d1a7cd08-0116-4033-8855-1232a71d00d2","system_id":"levelo_inurba_marseille","lat":43.30783,"lon":5.37646,"is_reserved":false,"is_disabled":false,"rental_uris":{"android":"levelo://app?vid=d1a7cd08-0116-4033-8855-1232a71d00d2","ios":"levelo://app?vid=d1a7cd08-0116-4033-8855-1232a71d00d2"},"vehicle_type_id":"4","last_reported":1743451919,"current_range_meters":12000,"station_id":"ce4bgv92rcd13ifvqcq0","pricing_plan_id":"cebpf4jnsgd1na2vs0mg"},{"bike_id":"31392a66-2b0d-4eed-a153-78f8e926b3e5","system_id":"levelo_inurba_marseille","lat":43.3247,"lon":5.37575,"is_reserved":false,"is_disabled":false,"rental_uris":{"android":"levelo://app?vid=31392a66-2b0d-4eed-a153-78f8e926b3e5","ios":"levelo://app?vid=31392a66-2b0d-4eed-a153-78f8e926b3e5"},"vehicle_type_id":"4","last_reported":1743451919,"current_range_meters":12000,"station_id":"","pricing_plan_id":"cebpf4jnsgd1na2vs0mg"},{"bike_id":"8559af5b-cbdf-442a-bec0-04f5cd1928f7","system_id":"levelo_inurba_marseille","lat":43.31226,"lon":5.36881,"is_reserved":false,"is_disabled":false,"rental_uris":{"android":"levelo://app?vid=8559af5b-cbdf-442a-bec0-04f5cd1928f7","ios":"levelo://app?vid=8559af5b-cbdf-442a-bec0-04f5cd1928f7"},"vehicle_type_id":"4","last_reported":1743451919,"current_range_meters":12000,"station_id":"ce4bgl92rcd13ifvqbq0","pricing_plan_id":"cebpf4jnsgd1na2vs0mg"},{"bike_id":"f323934a-96cc-4379-903c-d9ca647e3a28","system_id":"levelo_inurba_marseille","lat":43.29511,"lon":5.39414,"is_reserved":false,"is_disabled":false,"rental_uris":{"android":"levelo://app?vid=f323934a-96cc-4379-903c-d9ca647e3a28","ios":"levelo://app?vid=f323934a-96cc-4379-903c-d9ca647e3a28"},"vehicle_type_id":"4","last_reported":1743451919,"current_range_meters":12000,"station_id":"ce4bh292rcd13ifvqdf0","pricing_plan_id":"cebpf4jnsgd1na2vs0mg"},{"bike_id":"c9bd637b-43ac-4a64-968e-26036745ac7f","system_id":"levelo_inurba_marseille","lat":43.29789,"lon":5.39352,"is_reserved":false,"is_disabled":false,"rental_uris":{"android":"levelo://app?vid=c9bd637b-43ac-4a64-968e-26036745ac7f","ios":"levelo://app?vid=c9bd637b-43ac-4a64-968e-26036745ac7f"},"vehicle_type_id":"4","last_reported":1743451919,"current_range_meters":12000,"station_id":"chh1huq6cuj3fo74tm60","pricing_plan_id":"cebpf4jnsgd1na2vs0mg"},{"bike_id":"87304c8a-53f6-45f9-98cc-415e4d7a95a5","system_id":"levelo_inurba_marseille","lat":43.23177,"lon":5.39984,"is_reserved":false,"is_disabled":false,"rental_uris":{"android":"levelo://app?vid=87304c8a-53f6-45f9-98cc-415e4d7a95a5","ios":"levelo://app?vid=87304c8a-53f6-45f9-98cc-415e4d7a95a5"},"vehicle_type_id":"4","last_reported":1743451919,"current_range_meters":12000,"station_id":"ce4bhn12rcd13ifvqgqg","pricing_plan_id":"cebpf4jnsgd1na2vs0mg"},{"bike_id":"b9d5c53b-f86b-4cc3-b5c0-6bf109218aad","system_id":"levelo_inurba_marseille","lat":43.2919,"lon":5.3933,"is_reserved":false,"is_disabled":false,"rental_uris":{"android":"levelo://app?vid=b9d5c53b-f86b-4cc3-b5c0-6bf109218aad","ios":"levelo://app?vid=b9d5c53b-f86b-4cc3-b5c0-6bf109218aad"},"vehicle_type_id":"4","last_reported":1743451919,"current_range_meters":12400,"station_id":"ce4bh192rcd13ifvqdd0","pricing_plan_id":"cebpf4jnsgd1na2vs0mg"},{"bike_id":"cc9f2f22-428d-43f4-88fa-84d844928722","system_id":"levelo_inurba_marseille","lat":43.284592,"lon":5.374732,"is_reserved":false,"is_disabled":false,"rental_uris":{"android":"levelo://app?vid=cc9f2f22-428d-43f4-88fa-84d844928722","ios":"levelo://app?vid=cc9f2f22-428d-43f4-88fa-84d844928722"},"vehicle_type_id":"4","last_reported":1743451919,"current_range_meters":12400,"station_id":"","pricing_plan_id":"cebpf4jnsgd1na2vs0mg"},{"bike_id":"f8aceccd-55ff-4545-a122-e24603e2c7f6","system_id":"levelo_inurba_marseille","lat":43.27896,"lon":5.38013,"is_reserved":false,"is_disabled":false,"rental_uris":{"android":"levelo://app?vid=f8aceccd-55ff-4545-a122-e24603e2c7f6","ios":"levelo://app?vid=f8aceccd-55ff-4545-a122-e24603e2c7f6"},"vehicle_type_id":"4","last_reported":1743451919,"current_range_meters":12400,"station_id":"ce4bhf92rcd13ifvqf50","pricing_plan_id":"cebpf4jnsgd1na2vs0mg"},{"bike_id":"f32b7e19-3a41-42de-9074-6e93da166b0e","system_id":"levelo_inurba_marseille","lat":43.29879,"lon":5.38919,"is_reserved":false,"is_disabled":false,"rental_uris":{"android":"levelo://app?vid=f32b7e19-3a41-42de-9074-6e93da166b0e","ios":"levelo://app?vid=f32b7e19-3a41-42de-9074-6e93da166b0e"},"vehicle_type_id":"4","last_reported":1743451919,"current_range_meters":12000,"station_id":"ce4bh392rcd13ifvqdl0","pricing_plan_id":"cebpf4jnsgd1na2vs0mg"},{"bike_id":"99d86cd7-48d6-44e2-aeb6-7e4526af1ce0","system_id":"levelo_inurba_marseille","lat":43.24673,"lon":5.38161,"is_reserved":false,"is_disabled":false,"rental_uris":{"android":"levelo://app?vid=99d86cd7-48d6-44e2-aeb6-7e4526af1ce0","ios":"levelo://app?vid=99d86cd7-48d6-44e2-aeb6-7e4526af1ce0"},"vehicle_type_id":"4","last_reported":1743451919,"current_range_meters":12400,"station_id":"ce4bhih2rcd13ifvqfr0","pricing_plan_id":"cebpf4jnsgd1na2vs0mg"},{"bike_id":"e8a75bd9-f259-49f6-979a-26dd47f7e629","system_id":"levelo_inurba_marseille","lat":43.30135,"lon":5.39878,"is_reserved":false,"is_disabled":false,"rental_uris":{"android":"levelo://app?vid=e8a75bd9-f259-49f6-979a-26dd47f7e629","ios":"levelo://app?vid=e8a75bd9-f259-49f6-979a-26dd47f7e629"},"vehicle_type_id":"4","last_reported":1743451919,"current_range_meters":12400,"station_id":"ce4bh0h2rcd13ifvqd40","pricing_plan_id":"cebpf4jnsgd1na2vs0mg"},{"bike_id":"53398961-df4a-4c3b-8572-3d66cb6a9d46","system_id":"levelo_inurba_marseille","lat":43.30786,"lon":5.37649,"is_reserved":false,"is_disabled":false,"rental_uris":{"android":"levelo://app?vid=53398961-df4a-4c3b-8572-3d66cb6a9d46","ios":"levelo://app?vid=53398961-df4a-4c3b-8572-3d66cb6a9d46"},"vehicle_type_id":"4","last_reported":1743451919,"current_range_meters":12400,"station_id":"ce4bgv92rcd13ifvqcq0","pricing_plan_id":"cebpf4jnsgd1na2vs0mg"},{"bike_id":"acc02442-d462-45b8-bfb5-9a1d025b3959","system_id":"levelo_inurba_marseille","lat":43.30132,"lon":5.39868,"is_reserved":false,"is_disabled":false,"rental_uris":{"android":"levelo://app?vid=acc02442-d462-45b8-bfb5-9a1d025b3959","ios":"levelo://app?vid=acc02442-d462-45b8-bfb5-9a1d025b3959"},"vehicle_type_id":"4","last_reported":1743451919,"current_range_meters":12400,"station_id":"ce4bh0h2rcd13ifvqd40","pricing_plan_id":"cebpf4jnsgd1na2vs0mg"},{"bike_id":"c53e0b04-ccee-433f-b384-1e1a990e1413","system_id":"levelo_inurba_marseille","lat":43.29018,"lon":5.38137,"is_reserved":false,"is_disabled":false,"rental_uris":{"android":"levelo://app?vid=c53e0b04-ccee-433f-b384-1e1a990e1413","ios":"levelo://app?vid=c53e0b04-ccee-433f-b384-1e1a990e1413"},"vehicle_type_id":"4","last_reported":1743451919,"current_range_meters":12400,"station_id":"ce4bh4p2rcd13ifvqe1g","pricing_plan_id":"cebpf4jnsgd1na2vs0mg"},{"bike_id":"12eccf5a-213f-4708-989b-4439c0f24574","system_id":"levelo_inurba_marseille","lat":43.30549,"lon":5.36707,"is_reserved":false,"is_disabled":false,"rental_uris":{"android":"levelo://app?vid=12eccf5a-213f-4708-989b-4439c0f24574","ios":"levelo://app?vid=12eccf5a-213f-4708-989b-4439c0f24574"},"vehicle_type_id":"4","last_reported":1743451919,"current_range_meters":12400,"station_id":"ce4bgrp2rcd13ifvqc9g","pricing_plan_id":"cebpf4jnsgd1na2vs0mg"},{"bike_id":"40aed710-cfb8-4377-80d5-76d84e3c7f65","system_id":"levelo_inurba_marseille","lat":43.27974,"lon":5.38728,"is_reserved":false,"is_disabled":false,"rental_uris":{"android":"levelo://app?vid=40aed710-cfb8-4377-80d5-76d84e3c7f65","ios":"levelo://app?vid=40aed710-cfb8-4377-80d5-76d84e3c7f65"},"vehicle_type_id":"4","last_reported":1743451919,"current_range_meters":12400,"station_id":"ce4bhg12rcd13ifvqf80","pricing_plan_id":"cebpf4jnsgd1na2vs0mg"},{"bike_id":"be174c3f-3ec9-4950-85b1-ab236bb38f60","system_id":"levelo_inurba_marseille","lat":43.27558,"lon":5.38438,"is_reserved":false,"is_disabled":false,"rental_uris":{"android":"levelo://app?vid=be174c3f-3ec9-4950-85b1-ab236bb38f60","ios":"levelo://app?vid=be174c3f-3ec9-4950-85b1-ab236bb38f60"},"vehicle_type_id":"4","last_reported":1743451919,"current_range_meters":12800,"station_id":"ce4bhh92rcd13ifvqfi0","pricing_plan_id":"cebpf4jnsgd1na2vs0mg"},{"bike_id":"f6571233-39a3-4868-910d-68083aeff8a8","system_id":"levelo_inurba_marseille","lat":43.30911,"lon":5.36849,"is_reserved":false,"is_disabled":false,"rental_uris":{"android":"levelo://app?vid=f6571233-39a3-4868-910d-68083aeff8a8","ios":"levelo://app?vid=f6571233-39a3-4868-910d-68083aeff8a8"},"vehicle_type_id":"4","last_reported":1743451919,"current_range_meters":12800,"station_id":"ce4bgn92rcd13ifvqbvg","pricing_plan_id":"cebpf4jnsgd1na2vs0mg"},{"bike_id":"281591db-90b3-4721-b1fe-ac6c6c7e611c","system_id":"levelo_inurba_marseille","lat":43.29285,"lon":5.4012,"is_reserved":false,"is_disabled":false,"rental_uris":{"android":"levelo://app?vid=281591db-90b3-4721-b1fe-ac6c6c7e611c","ios":"levelo://app?vid=281591db-90b3-4721-b1fe-ac6c6c7e611c"},"vehicle_type_id":"4","last_reported":1743451919,"current_range_meters":12800,"station_id":"ce4bh312rcd13ifvqdk0","pricing_plan_id":"cebpf4jnsgd1na2vs0mg"},{"bike_id":"91f3f5e3-dbfa-4ecd-9132-5743c5704977","system_id":"levelo_inurba_marseille","lat":43.27913,"lon":5.39583,"is_reserved":false,"is_disabled":false,"rental_uris":{"android":"levelo://app?vid=91f3f5e3-dbfa-4ecd-9132-5743c5704977","ios":"levelo://app?vid=91f3f5e3-dbfa-4ecd-9132-5743c5704977"},"vehicle_type_id":"4","last_reported":1743451919,"current_range_meters":12800,"station_id":"ce4bhf92rcd13ifvqf40","pricing_plan_id":"cebpf4jnsgd1na2vs0mg"},{"bike_id":"0363706b-1464-4794-bd84-9b60f5d266ad","system_id":"levelo_inurba_marseille","lat":43.24388,"lon":5.37061,"is_reserved":false,"is_disabled":false,"rental_uris":{"android":"levelo://app?vid=0363706b-1464-4794-bd84-9b60f5d266ad","ios":"levelo://app?vid=0363706b-1464-4794-bd84-9b60f5d266ad"},"vehicle_type_id":"4","last_reported":1743451919,"current_range_meters":12800,"station_id":"ce4bhhh2rcd13ifvqfk0","pricing_plan_id":"cebpf4jnsgd1na2vs0mg"},{"bike_id":"3808b535-b342-4b09-97d9-6a2a6014eb92","system_id":"levelo_inurba_marseille","lat":43.29193,"lon":5.39333,"is_reserved":false,"is_disabled":false,"rental_uris":{"android":"levelo://app?vid=3808b535-b342-4b09-97d9-6a2a6014eb92","ios":"levelo://app?vid=3808b535-b342-4b09-97d9-6a2a6014eb92"},"vehicle_type_id":"4","last_reported":1743451919,"current_range_meters":12800,"station_id":"ce4bh192rcd13ifvqdd0","pricing_plan_id":"cebpf4jnsgd1na2vs0mg"},{"bike_id":"4d2f5fe4-3b25-4e13-a779-6112f195a428","system_id":"levelo_inurba_marseille","lat":43.27898,"lon":5.38006,"is_reserved":false,"is_disabled":false,"rental_uris":{"android":"levelo://app?vid=4d2f5fe4-3b25-4e13-a779-6112f195a428","ios":"levelo://app?vid=4d2f5fe4-3b25-4e13-a779-6112f195a428"},"vehicle_type_id":"4","last_reported":1743451919,"current_range_meters":13600,"station_id":"ce4bhf92rcd13ifvqf50","pricing_plan_id":"cebpf4jnsgd1na2vs0mg"},{"bike_id":"550d33ab-087f-463a-9121-7a7312237d19","system_id":"levelo_inurba_marseille","lat":43.28692,"lon":5.37405,"is_reserved":false,"is_disabled":false,"rental_uris":{"android":"levelo://app?vid=550d33ab-087f-463a-9121-7a7312237d19","ios":"levelo://app?vid=550d33ab-087f-463a-9121-7a7312237d19"},"vehicle_type_id":"4","last_reported":1743451919,"current_range_meters":13600,"station_id":"ce4bh3p2rcd13ifvqdq0","pricing_plan_id":"cebpf4jnsgd1na2vs0mg"},{"bike_id":"45f564c6-3896-4062-be88-6ce309c5a08c","system_id":"levelo_inurba_marseille","lat":43.31269,"lon":5.40182,"is_reserved":false,"is_disabled":false,"rental_uris":{"android":"levelo://app?vid=45f564c6-3896-4062-be88-6ce309c5a08c","ios":"levelo://app?vid=45f564c6-3896-4062-be88-6ce309c5a08c"},"vehicle_type_id":"4","last_reported":1743451919,"current_range_meters":13600,"station_id":"ce4bh092rcd13ifvqd30","pricing_plan_id":"cebpf4jnsgd1na2vs0mg"},{"bike_id":"9b249475-210b-48f8-9763-52ad6f4d780a","system_id":"levelo_inurba_marseille","lat":43.29629,"lon":5.37769,"is_reserved":false,"is_disabled":false,"rental_uris":{"android":"levelo://app?vid=9b249475-210b-48f8-9763-52ad6f4d780a","ios":"levelo://app?vid=9b249475-210b-48f8-9763-52ad6f4d780a"},"vehicle_type_id":"4","last_reported":1743451919,"current_range_meters":13600,"station_id":"ce4bgi92rcd13ifvqb90","pricing_plan_id":"cebpf4jnsgd1na2vs0mg"},{"bike_id":"3313a9d9-efd7-40c0-93be-ca6354b79529","system_id":"levelo_inurba_marseille","lat":43.28671,"lon":5.36352,"is_reserved":false,"is_disabled":false,"rental_uris":{"android":"levelo://app?vid=3313a9d9-efd7-40c0-93be-ca6354b79529","ios":"levelo://app?vid=3313a9d9-efd7-40c0-93be-ca6354b79529"},"vehicle_type_id":"4","last_reported":1743451919,"current_range_meters":13600,"station_id":"ce4bhah2rcd13ifvqej0","pricing_plan_id":"cebpf4jnsgd1na2vs0mg"},{"bike_id":"2ba8960a-099c-4795-86fc-59cfbb9ab507","system_id":"levelo_inurba_marseille","lat":43.30884,"lon":5.37199,"is_reserved":false,"is_disabled":false,"rental_uris":{"android":"levelo://app?vid=2ba8960a-099c-4795-86fc-59cfbb9ab507","ios":"levelo://app?vid=2ba8960a-099c-4795-86fc-59cfbb9ab507"},"vehicle_type_id":"4","last_reported":1743451919,"current_range_meters":13600,"station_id":"ce4bguh2rcd13ifvqckg","pricing_plan_id":"cebpf4jnsgd1na2vs0mg"},{"bike_id":"c4309e96-2b99-44ab-8879-0256a8334749","system_id":"levelo_inurba_marseille","lat":43.3021,"lon":5.39472,"is_reserved":false,"is_disabled":false,"rental_uris":{"android":"levelo://app?vid=c4309e96-2b99-44ab-8879-0256a8334749","ios":"levelo://app?vid=c4309e96-2b99-44ab-8879-0256a8334749"},"vehicle_type_id":"4","last_reported":1743451919,"current_range_meters":13600,"station_id":"ce4bh0p2rcd13ifvqd70","pricing_plan_id":"cebpf4jnsgd1na2vs0mg"},{"bike_id":"4d1ef574-507a-4fec-a6d9-b5b49b8c445e","system_id":"levelo_inurba_marseille","lat":43.2927,"lon":5.36843,"is_reserved":false,"is_disabled":true,"rental_uris":{"android":"levelo://app?vid=4d1ef574-507a-4fec-a6d9-b5b49b8c445e","ios":"levelo://app?vid=4d1ef574-507a-4fec-a6d9-b5b49b8c445e"},"vehicle_type_id":"4","last_reported":1743451919,"current_range_meters":14000,"station_id":"ce4bhbp2rcd13ifvqesg","pricing_plan_id":"cebpf4jnsgd1na2vs0mg"},{"bike_id":"77c9a1a5-f9ac-487d-ada6-6ea13bdb89ff","system_id":"levelo_inurba_marseille","lat":43.28721,"lon":5.36089,"is_reserved":false,"is_disabled":false,"rental_uris":{"android":"levelo://app?vid=77c9a1a5-f9ac-487d-ada6-6ea13bdb89ff","ios":"levelo://app?vid=77c9a1a5-f9ac-487d-ada6-6ea13bdb89ff"},"vehicle_type_id":"4","last_reported":1743451919,"current_range_meters":14000,"station_id":"cki0cbj6b192h4jlfktg","pricing_plan_id":"cebpf4jnsgd1na2vs0mg"},{"bike_id":"1bf7d99d-3eed-478d-8e7a-6aba633e08bc","system_id":"levelo_inurba_marseille","lat":43.26802,"lon":5.40271,"is_reserved":false,"is_disabled":false,"rental_uris":{"android":"levelo://app?vid=1bf7d99d-3eed-478d-8e7a-6aba633e08bc","ios":"levelo://app?vid=1bf7d99d-3eed-478d-8e7a-6aba633e08bc"},"vehicle_type_id":"4","last_reported":1743451919,"current_range_meters":14000,"station_id":"ce501612rcd8frsf0b60","pricing_plan_id":"cebpf4jnsgd1na2vs0mg"},{"bike_id":"fc609f72-9d5a-4e92-acf6-5af49d87b821","system_id":"levelo_inurba_marseille","lat":43.27996,"lon":5.40025,"is_reserved":false,"is_disabled":false,"rental_uris":{"android":"levelo://app?vid=fc609f72-9d5a-4e92-acf6-5af49d87b821","ios":"levelo://app?vid=fc609f72-9d5a-4e92-acf6-5af49d87b821"},"vehicle_type_id":"4","last_reported":1743451919,"current_range_meters":14000,"station_id":"ce4bho92rcd13ifvqh4g","pricing_plan_id":"cebpf4jnsgd1na2vs0mg"},{"bike_id":"acff3acf-0d2c-4368-822a-382bdfc738f0","system_id":"levelo_inurba_marseille","lat":43.299127,"lon":5.381437,"is_reserved":false,"is_disabled":false,"rental_uris":{"android":"levelo://app?vid=acff3acf-0d2c-4368-822a-382bdfc738f0","ios":"levelo://app?vid=acff3acf-0d2c-4368-822a-382bdfc738f0"},"vehicle_type_id":"4","last_reported":1743451919,"current_range_meters":14000,"station_id":"ce4bgj12rcd13ifvqbc0","pricing_plan_id":"cebpf4jnsgd1na2vs0mg"},{"bike_id":"2c567be4-626d-4614-8796-6c92d09d2fa1","system_id":"levelo_inurba_marseille","lat":43.28914,"lon":5.37099,"is_reserved":false,"is_disabled":false,"rental_uris":{"android":"levelo://app?vid=2c567be4-626d-4614-8796-6c92d09d2fa1","ios":"levelo://app?vid=2c567be4-626d-4614-8796-6c92d09d2fa1"},"vehicle_type_id":"4","last_reported":1743451919,"current_range_meters":14400,"station_id":"","pricing_plan_id":"cebpf4jnsgd1na2vs0mg"},{"bike_id":"64ea5635-a4de-4249-bcdf-cb8d12a751b8","system_id":"levelo_inurba_marseille","lat":43.29198,"lon":5.39324,"is_reserved":false,"is_disabled":false,"rental_uris":{"android":"levelo://app?vid=64ea5635-a4de-4249-bcdf-cb8d12a751b8","ios":"levelo://app?vid=64ea5635-a4de-4249-bcdf-cb8d12a751b8"},"vehicle_type_id":"4","last_reported":1743451919,"current_range_meters":14400,"station_id":"ce4bh192rcd13ifvqdd0","pricing_plan_id":"cebpf4jnsgd1na2vs0mg"},{"bike_id":"19788dd2-c382-40d7-b181-509f4b4d313c","system_id":"levelo_inurba_marseille","lat":43.27942,"lon":5.41039,"is_reserved":false,"is_disabled":false,"rental_uris":{"android":"levelo://app?vid=19788dd2-c382-40d7-b181-509f4b4d313c","ios":"levelo://app?vid=19788dd2-c382-40d7-b181-509f4b4d313c"},"vehicle_type_id":"4","last_reported":1743451919,"current_range_meters":14400,"station_id":"ce4bhnp2rcd13ifvqh0g","pricing_plan_id":"cebpf4jnsgd1na2vs0mg"},{"bike_id":"6f6bceb3-06a9-44d0-afc9-1dc055d19c19","system_id":"levelo_inurba_marseille","lat":43.25714,"lon":5.41118,"is_reserved":false,"is_disabled":false,"rental_uris":{"android":"levelo://app?vid=6f6bceb3-06a9-44d0-afc9-1dc055d19c19","ios":"levelo://app?vid=6f6bceb3-06a9-44d0-afc9-1dc055d19c19"},"vehicle_type_id":"4","last_reported":1743451919,"current_range_meters":14400,"station_id":"ce4bhkp2rcd13ifvqgd0","pricing_plan_id":"cebpf4jnsgd1na2vs0mg"},{"bike_id":"ac38269a-3560-46fc-890f-598451d5f253","system_id":"levelo_inurba_marseille","lat":43.29524,"lon":5.39041,"is_reserved":false,"is_disabled":false,"rental_uris":{"android":"levelo://app?vid=ac38269a-3560-46fc-890f-598451d5f253","ios":"levelo://app?vid=ac38269a-3560-46fc-890f-598451d5f253"},"vehicle_type_id":"4","last_reported":1743451919,"current_range_meters":14400,"station_id":"ce4bh3p2rcd13ifvqdp0","pricing_plan_id":"cebpf4jnsgd1na2vs0mg"},{"bike_id":"28e6a159-c88c-4315-9183-0195aa12b4a5","system_id":"levelo_inurba_marseille","lat":43.28708,"lon":5.3793,"is_reserved":false,"is_disabled":false,"rental_uris":{"android":"levelo://app?vid=28e6a159-c88c-4315-9183-0195aa12b4a5","ios":"levelo://app?vid=28e6a159-c88c-4315-9183-0195aa12b4a5"},"vehicle_type_id":"4","last_reported":1743451919,"current_range_meters":14400,"station_id":"ce4bh9p2rcd13ifvqec0","pricing_plan_id":"cebpf4jnsgd1na2vs0mg"},{"bike_id":"79e45e94-bc16-4150-8326-5c63dbfebde6","system_id":"levelo_inurba_marseille","lat":43.29011,"lon":5.38131,"is_reserved":false,"is_disabled":false,"rental_uris":{"android":"levelo://app?vid=79e45e94-bc16-4150-8326-5c63dbfebde6","ios":"levelo://app?vid=79e45e94-bc16-4150-8326-5c63dbfebde6"},"vehicle_type_id":"4","last_reported":1743451919,"current_range_meters":14400,"station_id":"ce4bh4p2rcd13ifvqe1g","pricing_plan_id":"cebpf4jnsgd1na2vs0mg"},{"bike_id":"113ede65-b1f6-4626-b25b-286b34c111c2","system_id":"levelo_inurba_marseille","lat":43.28942,"lon":5.36632,"is_reserved":false,"is_disabled":true,"rental_uris":{"android":"levelo://app?vid=113ede65-b1f6-4626-b25b-286b34c111c2","ios":"levelo://app?vid=113ede65-b1f6-4626-b25b-286b34c111c2"},"vehicle_type_id":"4","last_reported":1743451919,"current_range_meters":14400,"station_id":"ce4bhap2rcd13ifvqek0","pricing_plan_id":"cebpf4jnsgd1na2vs0mg"},{"bike_id":"4b8e5d31-3809-462d-88d7-526ab452e4a6","system_id":"levelo_inurba_marseille","lat":43.28459,"lon":5.3588,"is_reserved":false,"is_disabled":false,"rental_uris":{"android":"levelo://app?vid=4b8e5d31-3809-462d-88d7-526ab452e4a6","ios":"levelo://app?vid=4b8e5d31-3809-462d-88d7-526ab452e4a6"},"vehicle_type_id":"4","last_reported":1743451919,"current_range_meters":14400,"station_id":"ce4bhah2rcd13ifvqei0","pricing_plan_id":"cebpf4jnsgd1na2vs0mg"},{"bike_id":"d84a2cdd-b60b-4de0-b83a-55bceeb07ac8","system_id":"levelo_inurba_marseille","lat":43.29032,"lon":5.39965,"is_reserved":false,"is_disabled":false,"rental_uris":{"android":"levelo://app?vid=d84a2cdd-b60b-4de0-b83a-55bceeb07ac8","ios":"levelo://app?vid=d84a2cdd-b60b-4de0-b83a-55bceeb07ac8"},"vehicle_type_id":"4","last_reported":1743451919,"current_range_meters":14800,"station_id":"ce4bh392rcd13ifvqdm0","pricing_plan_id":"cebpf4jnsgd1na2vs0mg"},{"bike_id":"14c6f955-5601-4536-bf1a-199a9389832d","system_id":"levelo_inurba_marseille","lat":43.28456,"lon":5.35886,"is_reserved":false,"is_disabled":false,"rental_uris":{"android":"levelo://app?vid=14c6f955-5601-4536-bf1a-199a9389832d","ios":"levelo://app?vid=14c6f955-5601-4536-bf1a-199a9389832d"},"vehicle_type_id":"4","last_reported":1743451919,"current_range_meters":14800,"station_id":"ce4bhah2rcd13ifvqei0","pricing_plan_id":"cebpf4jnsgd1na2vs0mg"},{"bike_id":"2656b273-b569-4857-bf2f-29ee5837744c","system_id":"levelo_inurba_marseille","lat":43.2963,"lon":5.40604,"is_reserved":false,"is_disabled":false,"rental_uris":{"android":"levelo://app?vid=2656b273-b569-4857-bf2f-29ee5837744c","ios":"levelo://app?vid=2656b273-b569-4857-bf2f-29ee5837744c"},"vehicle_type_id":"4","last_reported":1743451919,"current_range_meters":14800,"station_id":"ce4bh0h2rcd13ifvqd60","pricing_plan_id":"cebpf4jnsgd1na2vs0mg"},{"bike_id":"c7f99555-9bb9-46de-b35d-237f01680bb5","system_id":"levelo_inurba_marseille","lat":43.31768,"lon":5.38991,"is_reserved":false,"is_disabled":false,"rental_uris":{"android":"levelo://app?vid=c7f99555-9bb9-46de-b35d-237f01680bb5","ios":"levelo://app?vid=c7f99555-9bb9-46de-b35d-237f01680bb5"},"vehicle_type_id":"4","last_reported":1743451919,"current_range_meters":14800,"station_id":"ce4bhqp2rcd13ifvqhng","pricing_plan_id":"cebpf4jnsgd1na2vs0mg"},{"bike_id":"9d8b51bf-fd65-426c-9799-839498b24ee9","system_id":"levelo_inurba_marseille","lat":43.30667,"lon":5.36625,"is_reserved":false,"is_disabled":true,"rental_uris":{"android":"levelo://app?vid=9d8b51bf-fd65-426c-9799-839498b24ee9","ios":"levelo://app?vid=9d8b51bf-fd65-426c-9799-839498b24ee9"},"vehicle_type_id":"4","last_reported":1743451919,"current_range_meters":14800,"station_id":"","pricing_plan_id":"cebpf4jnsgd1na2vs0mg"},{"bike_id":"1b4c1539-82ac-4b6d-8452-7cbabe24450d","system_id":"levelo_inurba_marseille","lat":43.283813,"lon":5.386503,"is_reserved":false,"is_disabled":false,"rental_uris":{"android":"levelo://app?vid=1b4c1539-82ac-4b6d-8452-7cbabe24450d","ios":"levelo://app?vid=1b4c1539-82ac-4b6d-8452-7cbabe24450d"},"vehicle_type_id":"4","last_reported":1743451919,"current_range_meters":14800,"station_id":"ce4bh492rcd13ifvqdvg","pricing_plan_id":"cebpf4jnsgd1na2vs0mg"},{"bike_id":"e47bc61d-df2d-41b3-b26b-dd94e6e5e301","system_id":"levelo_inurba_marseille","lat":43.26245,"lon":5.42133,"is_reserved":false,"is_disabled":false,"rental_uris":{"android":"levelo://app?vid=e47bc61d-df2d-41b3-b26b-dd94e6e5e301","ios":"levelo://app?vid=e47bc61d-df2d-41b3-b26b-dd94e6e5e301"},"vehicle_type_id":"4","last_reported":1743451919,"current_range_meters":14800,"station_id":"","pricing_plan_id":"cebpf4jnsgd1na2vs0mg"},{"bike_id":"f7a8a594-75b3-4e65-bcfd-42bd32d2ebfd","system_id":"levelo_inurba_marseille","lat":43.29266,"lon":5.3844,"is_reserved":false,"is_disabled":false,"rental_uris":{"android":"levelo://app?vid=f7a8a594-75b3-4e65-bcfd-42bd32d2ebfd","ios":"levelo://app?vid=f7a8a594-75b3-4e65-bcfd-42bd32d2ebfd"},"vehicle_type_id":"4","last_reported":1743451919,"current_range_meters":14800,"station_id":"ce4bh692rcd13ifvqea0","pricing_plan_id":"cebpf4jnsgd1na2vs0mg"},{"bike_id":"ceea6e4e-d8a1-40c7-af90-15852f1ca2f6","system_id":"levelo_inurba_marseille","lat":43.29272,"lon":5.40113,"is_reserved":false,"is_disabled":false,"rental_uris":{"android":"levelo://app?vid=ceea6e4e-d8a1-40c7-af90-15852f1ca2f6","ios":"levelo://app?vid=ceea6e4e-d8a1-40c7-af90-15852f1ca2f6"},"vehicle_type_id":"4","last_reported":1743451919,"current_range_meters":15200,"station_id":"ce4bh312rcd13ifvqdk0","pricing_plan_id":"cebpf4jnsgd1na2vs0mg"},{"bike_id":"e66fc28d-55a8-47d9-b012-54b7f0c2aca2","system_id":"levelo_inurba_marseille","lat":43.281032,"lon":5.378326,"is_reserved":false,"is_disabled":false,"rental_uris":{"android":"levelo://app?vid=e66fc28d-55a8-47d9-b012-54b7f0c2aca2","ios":"levelo://app?vid=e66fc28d-55a8-47d9-b012-54b7f0c2aca2"},"vehicle_type_id":"4","last_reported":1743451919,"current_range_meters":15200,"station_id":"ce4bha12rcd13ifvqee0","pricing_plan_id":"cebpf4jnsgd1na2vs0mg"},{"bike_id":"06357cc9-b5a2-4479-a20a-541038310ad8","system_id":"levelo_inurba_marseille","lat":43.268101,"lon":5.402725,"is_reserved":false,"is_disabled":true,"rental_uris":{"android":"levelo://app?vid=06357cc9-b5a2-4479-a20a-541038310ad8","ios":"levelo://app?vid=06357cc9-b5a2-4479-a20a-541038310ad8"},"vehicle_type_id":"4","last_reported":1743451919,"current_range_meters":15200,"station_id":"ce501612rcd8frsf0b60","pricing_plan_id":"cebpf4jnsgd1na2vs0mg"},{"bike_id":"1b63ccb2-1298-4d96-b7f3-6ad6cace00e9","system_id":"levelo_inurba_marseille","lat":43.26121,"lon":5.40096,"is_reserved":false,"is_disabled":false,"rental_uris":{"android":"levelo://app?vid=1b63ccb2-1298-4d96-b7f3-6ad6cace00e9","ios":"levelo://app?vid=1b63ccb2-1298-4d96-b7f3-6ad6cace00e9"},"vehicle_type_id":"4","last_reported":1743451919,"current_range_meters":15200,"station_id":"","pricing_plan_id":"cebpf4jnsgd1na2vs0mg"},{"bike_id":"08b0071e-1463-4449-89b6-94f7cf804781","system_id":"levelo_inurba_marseille","lat":43.31281,"lon":5.36813,"is_reserved":false,"is_disabled":true,"rental_uris":{"android":"levelo://app?vid=08b0071e-1463-4449-89b6-94f7cf804781","ios":"levelo://app?vid=08b0071e-1463-4449-89b6-94f7cf804781"},"vehicle_type_id":"4","last_reported":1743451919,"current_range_meters":15200,"station_id":"ce4bgl92rcd13ifvqbq0","pricing_plan_id":"cebpf4jnsgd1na2vs0mg"},{"bike_id":"27773214-4312-4127-aa54-e74cba3d6d07","system_id":"levelo_inurba_marseille","lat":43.27814,"lon":5.40698,"is_reserved":false,"is_disabled":false,"rental_uris":{"android":"levelo://app?vid=27773214-4312-4127-aa54-e74cba3d6d07","ios":"levelo://app?vid=27773214-4312-4127-aa54-e74cba3d6d07"},