{"last_updated":1741086509,"ttl":60,"version":"2.2","data":{"bikes":[{"bike_id":"bfce2054-a862-409d-a83b-e6c8fa0ed741","system_id":"levelo_inurba_marseille","lat":43.33599,"lon":5.41057,"is_reserved":false,"is_disabled":false,"rental_uris":{"android":"levelo://app?vid=bfce2054-a862-409d-a83b-e6c8fa0ed741","ios":"levelo://app?vid=bfce2054-a862-409d-a83b-e6c8fa0ed741"},"vehicle_type_id":"4","last_reported":1741086509,"current_range_meters":2800,"station_id":"ce4bhqh2rcd13ifvqhmg","pricing_plan_id":"cebpf4jnsgd1na2vs0mg"},{"bike_id":"e0fb5c09-7dc1-4691-8d53-d87b4a1a8ed8","system_id":"levelo_inurba_marseille","lat":43.29608,"lon":5.38109,"is_reserved":false,"is_disabled":false,"rental_uris":{"android":"levelo://app?vid=e0fb5c09-7dc1-4691-8d53-d87b4a1a8ed8","ios":"levelo://app?vid=e0fb5c09-7dc1-4691-8d53-d87b4a1a8ed8"},"vehicle_type_id":"4","last_reported":1741086509,"current_range_meters":2800,"station_id":"ce4bgl12rcd13ifvqbo0","pricing_plan_id":"cebpf4jnsgd1na2vs0mg"},{"bike_id":"374334c0-7003-4b97-b93d-38fde15f1100","system_id":"levelo_inurba_marseille","lat":43.29254,"lon":5.40909,"is_reserved":false,"is_disabled":false,"rental_uris":{"android":"levelo://app?vid=374334c0-7003-4b97-b93d-38fde15f1100","ios":"levelo://app?vid=374334c0-7003-4b97-b93d-38fde15f1100"},"vehicle_type_id":"4","last_reported":1741086509,"current_range_meters":3200,"station_id":"ce4bh192rcd13ifvqdc0","pricing_plan_id":"cebpf4jnsgd1na2vs0mg"},{"bike_id":"e7bf9aa4-ebab-4733-bd2d-62b9efb9b294","system_id":"levelo_inurba_marseille","lat":43.27502,"lon":5.42447,"is_reserved":false,"is_disabled":true,"rental_uris":{"android":"levelo://app?vid=e7bf9aa4-ebab-4733-bd2d-62b9efb9b294","ios":"levelo://app?vid=e7bf9aa4-ebab-4733-bd2d-62b9efb9b294"},"vehicle_type_id":"4","last_reported":1741086509,"current_range_meters":3200,"station_id":"ce4bhn92rcd13ifvqgrg","pricing_plan_id":"cebpf4jnsgd1na2vs0mg"},{"bike_id":"959b0f4f-1354-49f8-8fd4-68f8d93f25e1","system_id":"levelo_inurba_marseille","lat":43.31269,"lon":5.36842,"is_reserved":false,"is_disabled":true,"rental_uris":{"android":"levelo://app?vid=959b0f4f-1354-49f8-8fd4-68f8d93f25e1","ios":"levelo://app?vid=959b0f4f-1354-49f8-8fd4-68f8d93f25e1"},"vehicle_type_id":"4","last_reported":1741086509,"current_range_meters":3200,"station_id":"ce4bgl92rcd13ifvqbq0","pricing_plan_id":"cebpf4jnsgd1na2vs0mg"},{"bike_id":"c7073da8-59ae-4d32-95bf-223d92e62bdf","system_id":"levelo_inurba_marseille","lat":43.31118,"lon":5.37751,"is_reserved":false,"is_disabled":false,"rental_uris":{"android":"levelo://app?vid=c7073da8-59ae-4d32-95bf-223d92e62bdf","ios":"levelo://app?vid=c7073da8-59ae-4d32-95bf-223d92e62bdf"},"vehicle_type_id":"4","last_reported":1741086509,"current_range_meters":3200,"station_id":"ce4bgt92rcd13ifvqcg0","pricing_plan_id":"cebpf4jnsgd1na2vs0mg"},{"bike_id":"aeefc274-10e6-42fd-b80e-c7c79e0d06a4","system_id":"levelo_inurba_marseille","lat":43.275648,"lon":5.384204,"is_reserved":false,"is_disabled":false,"rental_uris":{"android":"levelo://app?vid=aeefc274-10e6-42fd-b80e-c7c79e0d06a4","ios":"levelo://app?vid=aeefc274-10e6-42fd-b80e-c7c79e0d06a4"},"vehicle_type_id":"4","last_reported":1741086509,"current_range_meters":3600,"station_id":"ce4bhh92rcd13ifvqfi0","pricing_plan_id":"cebpf4jnsgd1na2vs0mg"},{"bike_id":"58b56926-57b2-42a1-a7fd-7d4226423a48","system_id":"levelo_inurba_marseille","lat":43.2991,"lon":5.37475,"is_reserved":false,"is_disabled":false,"rental_uris":{"android":"levelo://app?vid=58b56926-57b2-42a1-a7fd-7d4226423a48","ios":"levelo://app?vid=58b56926-57b2-42a1-a7fd-7d4226423a48"},"vehicle_type_id":"4","last_reported":1741086509,"current_range_meters":3600,"station_id":"ce4bgjh2rcd13ifvqbg0","pricing_plan_id":"cebpf4jnsgd1na2vs0mg"},{"bike_id":"ac6d60bc-4e8d-4f73-b409-b7a8b84179cb","system_id":"levelo_inurba_marseille","lat":43.304685,"lon":5.379199,"is_reserved":false,"is_disabled":false,"rental_uris":{"android":"levelo://app?vid=ac6d60bc-4e8d-4f73-b409-b7a8b84179cb","ios":"levelo://app?vid=ac6d60bc-4e8d-4f73-b409-b7a8b84179cb"},"vehicle_type_id":"4","last_reported":1741086509,"current_range_meters":4000,"station_id":"ce4bgup2rcd13ifvqcn0","pricing_plan_id":"cebpf4jnsgd1na2vs0mg"},{"bike_id":"3f6b49c4-30ef-4a6a-94f1-82b46b098bcc","system_id":"levelo_inurba_marseille","lat":43.24653,"lon":5.38894,"is_reserved":false,"is_disabled":false,"rental_uris":{"android":"levelo://app?vid=3f6b49c4-30ef-4a6a-94f1-82b46b098bcc","ios":"levelo://app?vid=3f6b49c4-30ef-4a6a-94f1-82b46b098bcc"},"vehicle_type_id":"4","last_reported":1741086509,"current_range_meters":3600,"station_id":"ce4bhg12rcd13ifvqf60","pricing_plan_id":"cebpf4jnsgd1na2vs0mg"},{"bike_id":"097f6daa-51ed-4407-bb2c-36c91474e0f9","system_id":"levelo_inurba_marseille","lat":43.27989,"lon":5.41661,"is_reserved":false,"is_disabled":false,"rental_uris":{"android":"levelo://app?vid=097f6daa-51ed-4407-bb2c-36c91474e0f9","ios":"levelo://app?vid=097f6daa-51ed-4407-bb2c-36c91474e0f9"},"vehicle_type_id":"4","last_reported":1741086509,"current_range_meters":3600,"station_id":"ce4bho12rcd13ifvqh1g","pricing_plan_id":"cebpf4jnsgd1na2vs0mg"},{"bike_id":"90d8c07e-fece-4742-a0a7-7cadb8a11e6e","system_id":"levelo_inurba_marseille","lat":43.31663,"lon":5.37774,"is_reserved":false,"is_disabled":false,"rental_uris":{"android":"levelo://app?vid=90d8c07e-fece-4742-a0a7-7cadb8a11e6e","ios":"levelo://app?vid=90d8c07e-fece-4742-a0a7-7cadb8a11e6e"},"vehicle_type_id":"4","last_reported":1741086509,"current_range_meters":4000,"station_id":"","pricing_plan_id":"cebpf4jnsgd1na2vs0mg"},{"bike_id":"39417ca2-2175-48b1-b974-d12a550664e9","system_id":"levelo_inurba_marseille","lat":43.26947,"lon":5.3864,"is_reserved":false,"is_disabled":false,"rental_uris":{"android":"levelo://app?vid=39417ca2-2175-48b1-b974-d12a550664e9","ios":"levelo://app?vid=39417ca2-2175-48b1-b974-d12a550664e9"},"vehicle_type_id":"4","last_reported":1741086509,"current_range_meters":4800,"station_id":"ce4bhh92rcd13ifvqfh0","pricing_plan_id":"cebpf4jnsgd1na2vs0mg"},{"bike_id":"73681137-6538-4684-87ec-aa9b29720d1e","system_id":"levelo_inurba_marseille","lat":43.2319,"lon":5.35546,"is_reserved":false,"is_disabled":true,"rental_uris":{"android":"levelo://app?vid=73681137-6538-4684-87ec-aa9b29720d1e","ios":"levelo://app?vid=73681137-6538-4684-87ec-aa9b29720d1e"},"vehicle_type_id":"4","last_reported":1741086509,"current_range_meters":4400,"station_id":"ce4bhu92rcd13ifvqi70","pricing_plan_id":"cebpf4jnsgd1na2vs0mg"},{"bike_id":"bfccdd7f-c701-4f37-a02f-926a25ddadee","system_id":"levelo_inurba_marseille","lat":43.31067,"lon":5.38352,"is_reserved":false,"is_disabled":false,"rental_uris":{"android":"levelo://app?vid=bfccdd7f-c701-4f37-a02f-926a25ddadee","ios":"levelo://app?vid=bfccdd7f-c701-4f37-a02f-926a25ddadee"},"vehicle_type_id":"4","last_reported":1741086509,"current_range_meters":4400,"station_id":"ce4bgv92rcd13ifvqcr0","pricing_plan_id":"cebpf4jnsgd1na2vs0mg"},{"bike_id":"339ea272-f25a-456c-877c-feadbff46552","system_id":"levelo_inurba_marseille","lat":43.27361,"lon":5.39374,"is_reserved":false,"is_disabled":false,"rental_uris":{"android":"levelo://app?vid=339ea272-f25a-456c-877c-feadbff46552","ios":"levelo://app?vid=339ea272-f25a-456c-877c-feadbff46552"},"vehicle_type_id":"4","last_reported":1741086509,"current_range_meters":4800,"station_id":"","pricing_plan_id":"cebpf4jnsgd1na2vs0mg"},{"bike_id":"9db49163-1bcf-4cb4-975b-b1e9ddf4e6d9","system_id":"levelo_inurba_marseille","lat":43.27168,"lon":5.40991,"is_reserved":false,"is_disabled":false,"rental_uris":{"android":"levelo://app?vid=9db49163-1bcf-4cb4-975b-b1e9ddf4e6d9","ios":"levelo://app?vid=9db49163-1bcf-4cb4-975b-b1e9ddf4e6d9"},"vehicle_type_id":"4","last_reported":1741086509,"current_range_meters":4800,"station_id":"ce4bhl12rcd13ifvqgf0","pricing_plan_id":"cebpf4jnsgd1na2vs0mg"},{"bike_id":"2d4e1c3e-7392-4616-b3cf-646345a17bd5","system_id":"levelo_inurba_marseille","lat":43.29546,"lon":5.42275,"is_reserved":false,"is_disabled":true,"rental_uris":{"android":"levelo://app?vid=2d4e1c3e-7392-4616-b3cf-646345a17bd5","ios":"levelo://app?vid=2d4e1c3e-7392-4616-b3cf-646345a17bd5"},"vehicle_type_id":"4","last_reported":1741086509,"current_range_meters":5600,"station_id":"ce4bhph2rcd13ifvqhdg","pricing_plan_id":"cebpf4jnsgd1na2vs0mg"},{"bike_id":"f381c9bd-14fa-41ab-b589-3ecebd6dfe48","system_id":"levelo_inurba_marseille","lat":43.32364,"lon":5.36744,"is_reserved":false,"is_disabled":false,"rental_uris":{"android":"levelo://app?vid=f381c9bd-14fa-41ab-b589-3ecebd6dfe48","ios":"levelo://app?vid=f381c9bd-14fa-41ab-b589-3ecebd6dfe48"},"vehicle_type_id":"4","last_reported":1741086509,"current_range_meters":5600,"station_id":"ce4bhsh2rcd13ifvqi2g","pricing_plan_id":"cebpf4jnsgd1na2vs0mg"},{"bike_id":"fe52b02e-ac89-4ae3-8c52-1af3b8eff27e","system_id":"levelo_inurba_marseille","lat":43.28,"lon":5.41658,"is_reserved":false,"is_disabled":false,"rental_uris":{"android":"levelo://app?vid=fe52b02e-ac89-4ae3-8c52-1af3b8eff27e","ios":"levelo://app?vid=fe52b02e-ac89-4ae3-8c52-1af3b8eff27e"},"vehicle_type_id":"4","last_reported":1741086509,"current_range_meters":6800,"station_id":"ce4bho12rcd13ifvqh1g","pricing_plan_id":"cebpf4jnsgd1na2vs0mg"},{"bike_id":"3366df32-7df0-45f8-ba42-8813539851d9","system_id":"levelo_inurba_marseille","lat":43.29787,"lon":5.38107,"is_reserved":false,"is_disabled":false,"rental_uris":{"android":"levelo://app?vid=3366df32-7df0-45f8-ba42-8813539851d9","ios":"levelo://app?vid=3366df32-7df0-45f8-ba42-8813539851d9"},"vehicle_type_id":"4","last_reported":1741086509,"current_range_meters":6000,"station_id":"","pricing_plan_id":"cebpf4jnsgd1na2vs0mg"},{"bike_id":"1a2f4edb-6c1d-436a-937d-69d75d14d2bd","system_id":"levelo_inurba_marseille","lat":43.24076,"lon":5.37758,"is_reserved":false,"is_disabled":false,"rental_uris":{"android":"levelo://app?vid=1a2f4edb-6c1d-436a-937d-69d75d14d2bd","ios":"levelo://app?vid=1a2f4edb-6c1d-436a-937d-69d75d14d2bd"},"vehicle_type_id":"4","last_reported":1741086509,"current_range_meters":6400,"station_id":"ce4bhnp2rcd13ifvqgvg","pricing_plan_id":"cebpf4jnsgd1na2vs0mg"},{"bike_id":"40323d2b-7fa4-44fa-8afd-3105efa74518","system_id":"levelo_inurba_marseille","lat":43.24176,"lon":5.39727,"is_reserved":false,"is_disabled":false,"rental_uris":{"android":"levelo://app?vid=40323d2b-7fa4-44fa-8afd-3105efa74518","ios":"levelo://app?vid=40323d2b-7fa4-44fa-8afd-3105efa74518"},"vehicle_type_id":"4","last_reported":1741086509,"current_range_meters":6400,"station_id":"ce4bhn12rcd13ifvqgpg","pricing_plan_id":"cebpf4jnsgd1na2vs0mg"},{"bike_id":"351a78a5-52e0-4fcc-968c-d2f55f5b2d81","system_id":"levelo_inurba_marseille","lat":43.25935,"lon":5.40895,"is_reserved":false,"is_disabled":false,"rental_uris":{"android":"levelo://app?vid=351a78a5-52e0-4fcc-968c-d2f55f5b2d81","ios":"levelo://app?vid=351a78a5-52e0-4fcc-968c-d2f55f5b2d81"},"vehicle_type_id":"4","last_reported":1741086509,"current_range_meters":6400,"station_id":"ce4bhm92rcd13ifvqglg","pricing_plan_id":"cebpf4jnsgd1na2vs0mg"},{"bike_id":"5b4b7822-deed-4de6-9746-cc5d7eef68c4","system_id":"levelo_inurba_marseille","lat":43.27813,"lon":5.40708,"is_reserved":false,"is_disabled":false,"rental_uris":{"android":"levelo://app?vid=5b4b7822-deed-4de6-9746-cc5d7eef68c4","ios":"levelo://app?vid=5b4b7822-deed-4de6-9746-cc5d7eef68c4"},"vehicle_type_id":"4","last_reported":1741086509,"current_range_meters":6400,"station_id":"ce4bhnh2rcd13ifvqgtg","pricing_plan_id":"cebpf4jnsgd1na2vs0mg"},{"bike_id":"65beb98a-5d3f-4499-a5ce-b8aeba6e46d0","system_id":"levelo_inurba_marseille","lat":43.30463,"lon":5.37908,"is_reserved":false,"is_disabled":false,"rental_uris":{"android":"levelo://app?vid=65beb98a-5d3f-4499-a5ce-b8aeba6e46d0","ios":"levelo://app?vid=65beb98a-5d3f-4499-a5ce-b8aeba6e46d0"},"vehicle_type_id":"4","last_reported":1741086509,"current_range_meters":6400,"station_id":"ce4bgup2rcd13ifvqcn0","pricing_plan_id":"cebpf4jnsgd1na2vs0mg"},{"bike_id":"94a6a35b-8412-4d9f-8508-3782f328eeff","system_id":"levelo_inurba_marseille","lat":43.27067,"lon":5.42277,"is_reserved":false,"is_disabled":false,"rental_uris":{"android":"levelo://app?vid=94a6a35b-8412-4d9f-8508-3782f328eeff","ios":"levelo://app?vid=94a6a35b-8412-4d9f-8508-3782f328eeff"},"vehicle_type_id":"4","last_reported":1741086509,"current_range_meters":6400,"station_id":"ce4bhk92rcd13ifvqgb0","pricing_plan_id":"cebpf4jnsgd1na2vs0mg"},{"bike_id":"04f94e51-a3fa-484a-889c-224ac7e5fccf","system_id":"levelo_inurba_marseille","lat":43.23174,"lon":5.40007,"is_reserved":false,"is_disabled":false,"rental_uris":{"android":"levelo://app?vid=04f94e51-a3fa-484a-889c-224ac7e5fccf","ios":"levelo://app?vid=04f94e51-a3fa-484a-889c-224ac7e5fccf"},"vehicle_type_id":"4","last_reported":1741086509,"current_range_meters":6400,"station_id":"ce4bhn12rcd13ifvqgqg","pricing_plan_id":"cebpf4jnsgd1na2vs0mg"},{"bike_id":"ebc3fc1a-7030-4882-a262-77082338911c","system_id":"levelo_inurba_marseille","lat":43.23953,"lon":5.36631,"is_reserved":false,"is_disabled":false,"rental_uris":{"android":"levelo://app?vid=ebc3fc1a-7030-4882-a262-77082338911c","ios":"levelo://app?vid=ebc3fc1a-7030-4882-a262-77082338911c"},"vehicle_type_id":"4","last_reported":1741086509,"current_range_meters":6400,"station_id":"ce4bhi12rcd13ifvqfp0","pricing_plan_id":"cebpf4jnsgd1na2vs0mg"},{"bike_id":"7bea709c-85af-4216-a8e5-19de784dd721","system_id":"levelo_inurba_marseille","lat":43.27819,"lon":5.40711,"is_reserved":false,"is_disabled":false,"rental_uris":{"android":"levelo://app?vid=7bea709c-85af-4216-a8e5-19de784dd721","ios":"levelo://app?vid=7bea709c-85af-4216-a8e5-19de784dd721"},"vehicle_type_id":"4","last_reported":1741086509,"current_range_meters":6800,"station_id":"ce4bhnh2rcd13ifvqgtg","pricing_plan_id":"cebpf4jnsgd1na2vs0mg"},{"bike_id":"90a47c55-7d0c-4b6b-94e5-81e21155469e","system_id":"levelo_inurba_marseille","lat":43.23144,"lon":5.43721,"is_reserved":false,"is_disabled":false,"rental_uris":{"android":"levelo://app?vid=90a47c55-7d0c-4b6b-94e5-81e21155469e","ios":"levelo://app?vid=90a47c55-7d0c-4b6b-94e5-81e21155469e"},"vehicle_type_id":"4","last_reported":1741086509,"current_range_meters":6800,"station_id":"ce4bhmp2rcd13ifvqgog","pricing_plan_id":"cebpf4jnsgd1na2vs0mg"},{"bike_id":"69539ccb-ca63-4555-bd43-968ddad5c3c6","system_id":"levelo_inurba_marseille","lat":43.2502,"lon":5.38944,"is_reserved":false,"is_disabled":false,"rental_uris":{"android":"levelo://app?vid=69539ccb-ca63-4555-bd43-968ddad5c3c6","ios":"levelo://app?vid=69539ccb-ca63-4555-bd43-968ddad5c3c6"},"vehicle_type_id":"4","last_reported":1741086509,"current_range_meters":6800,"station_id":"ce4bhgp2rcd13ifvqfd0","pricing_plan_id":"cebpf4jnsgd1na2vs0mg"},{"bike_id":"f5824151-45a8-40ad-a0e6-e80ea5e5887d","system_id":"levelo_inurba_marseille","lat":43.30549,"lon":5.36533,"is_reserved":false,"is_disabled":false,"rental_uris":{"android":"levelo://app?vid=f5824151-45a8-40ad-a0e6-e80ea5e5887d","ios":"levelo://app?vid=f5824151-45a8-40ad-a0e6-e80ea5e5887d"},"vehicle_type_id":"4","last_reported":1741086509,"current_range_meters":6800,"station_id":"ce4bgs12rcd13ifvqcag","pricing_plan_id":"cebpf4jnsgd1na2vs0mg"},{"bike_id":"1b59f1d9-4ef3-4a9d-8f51-24a7215244e4","system_id":"levelo_inurba_marseille","lat":43.276093,"lon":5.361173,"is_reserved":false,"is_disabled":false,"rental_uris":{"android":"levelo://app?vid=1b59f1d9-4ef3-4a9d-8f51-24a7215244e4","ios":"levelo://app?vid=1b59f1d9-4ef3-4a9d-8f51-24a7215244e4"},"vehicle_type_id":"4","last_reported":1741086509,"current_range_meters":7200,"station_id":"ce4bgj92rcd13ifvqbe0","pricing_plan_id":"cebpf4jnsgd1na2vs0mg"},{"bike_id":"2153cca3-a190-4982-9370-a46f24ffe4b0","system_id":"levelo_inurba_marseille","lat":43.27055,"lon":5.40264,"is_reserved":false,"is_disabled":false,"rental_uris":{"android":"levelo://app?vid=2153cca3-a190-4982-9370-a46f24ffe4b0","ios":"levelo://app?vid=2153cca3-a190-4982-9370-a46f24ffe4b0"},"vehicle_type_id":"4","last_reported":1741086509,"current_range_meters":7200,"station_id":"ce4bhk92rcd13ifvqgc0","pricing_plan_id":"cebpf4jnsgd1na2vs0mg"},{"bike_id":"785f65cf-1424-422b-aa1e-c33d7d9ad805","system_id":"levelo_inurba_marseille","lat":43.33613,"lon":5.41028,"is_reserved":false,"is_disabled":false,"rental_uris":{"android":"levelo://app?vid=785f65cf-1424-422b-aa1e-c33d7d9ad805","ios":"levelo://app?vid=785f65cf-1424-422b-aa1e-c33d7d9ad805"},"vehicle_type_id":"4","last_reported":1741086509,"current_range_meters":7200,"station_id":"ce4bhqh2rcd13ifvqhmg","pricing_plan_id":"cebpf4jnsgd1na2vs0mg"},{"bike_id":"5e5b8e30-f667-48dd-bc78-30c14fa39c76","system_id":"levelo_inurba_marseille","lat":43.30144,"lon":5.38781,"is_reserved":false,"is_disabled":false,"rental_uris":{"android":"levelo://app?vid=5e5b8e30-f667-48dd-bc78-30c14fa39c76","ios":"levelo://app?vid=5e5b8e30-f667-48dd-bc78-30c14fa39c76"},"vehicle_type_id":"4","last_reported":1741086509,"current_range_meters":5600,"station_id":"ce4bghh2rcd13ifvqb60","pricing_plan_id":"cebpf4jnsgd1na2vs0mg"},{"bike_id":"4e9114a6-9327-4619-b114-00e483817824","system_id":"levelo_inurba_marseille","lat":43.23953,"lon":5.36626,"is_reserved":false,"is_disabled":false,"rental_uris":{"android":"levelo://app?vid=4e9114a6-9327-4619-b114-00e483817824","ios":"levelo://app?vid=4e9114a6-9327-4619-b114-00e483817824"},"vehicle_type_id":"4","last_reported":1741086509,"current_range_meters":7200,"station_id":"ce4bhi12rcd13ifvqfp0","pricing_plan_id":"cebpf4jnsgd1na2vs0mg"},{"bike_id":"695aaaad-cdbd-4e20-83f0-9d55f9341e46","system_id":"levelo_inurba_marseille","lat":43.30551,"lon":5.36522,"is_reserved":false,"is_disabled":false,"rental_uris":{"android":"levelo://app?vid=695aaaad-cdbd-4e20-83f0-9d55f9341e46","ios":"levelo://app?vid=695aaaad-cdbd-4e20-83f0-9d55f9341e46"},"vehicle_type_id":"4","last_reported":1741086509,"current_range_meters":6800,"station_id":"ce4bgs12rcd13ifvqcag","pricing_plan_id":"cebpf4jnsgd1na2vs0mg"},{"bike_id":"f89a2d92-5710-46e0-803c-10b75e36ea5f","system_id":"levelo_inurba_marseille","lat":43.3189,"lon":5.40746,"is_reserved":false,"is_disabled":false,"rental_uris":{"android":"levelo://app?vid=f89a2d92-5710-46e0-803c-10b75e36ea5f","ios":"levelo://app?vid=f89a2d92-5710-46e0-803c-10b75e36ea5f"},"vehicle_type_id":"4","last_reported":1741086509,"current_range_meters":8000,"station_id":"ce4bhq12rcd13ifvqhig","pricing_plan_id":"cebpf4jnsgd1na2vs0mg"},{"bike_id":"488e5cae-f55d-49d4-91b1-eadd0e4d1689","system_id":"levelo_inurba_marseille","lat":43.27616,"lon":5.36106,"is_reserved":false,"is_disabled":false,"rental_uris":{"android":"levelo://app?vid=488e5cae-f55d-49d4-91b1-eadd0e4d1689","ios":"levelo://app?vid=488e5cae-f55d-49d4-91b1-eadd0e4d1689"},"vehicle_type_id":"4","last_reported":1741086509,"current_range_meters":8000,"station_id":"ce4bgj92rcd13ifvqbe0","pricing_plan_id":"cebpf4jnsgd1na2vs0mg"},{"bike_id":"75a3cad6-0a3c-46e8-88ae-4dbb4a7cefa2","system_id":"levelo_inurba_marseille","lat":43.23146,"lon":5.43713,"is_reserved":false,"is_disabled":false,"rental_uris":{"android":"levelo://app?vid=75a3cad6-0a3c-46e8-88ae-4dbb4a7cefa2","ios":"levelo://app?vid=75a3cad6-0a3c-46e8-88ae-4dbb4a7cefa2"},"vehicle_type_id":"4","last_reported":1741086509,"current_range_meters":8000,"station_id":"ce4bhmp2rcd13ifvqgog","pricing_plan_id":"cebpf4jnsgd1na2vs0mg"},{"bike_id":"ce8ef3d2-07e3-4512-8813-bcde53a01429","system_id":"levelo_inurba_marseille","lat":43.24187,"lon":5.3644,"is_reserved":false,"is_disabled":false,"rental_uris":{"android":"levelo://app?vid=ce8ef3d2-07e3-4512-8813-bcde53a01429","ios":"levelo://app?vid=ce8ef3d2-07e3-4512-8813-bcde53a01429"},"vehicle_type_id":"4","last_reported":1741086509,"current_range_meters":8000,"station_id":"cpo36qri1sfpv3e86is0","pricing_plan_id":"cebpf4jnsgd1na2vs0mg"},{"bike_id":"8853f3b9-20a3-4480-9c1d-81721e27d9f9","system_id":"levelo_inurba_marseille","lat":43.26078,"lon":5.39402,"is_reserved":false,"is_disabled":false,"rental_uris":{"android":"levelo://app?vid=8853f3b9-20a3-4480-9c1d-81721e27d9f9","ios":"levelo://app?vid=8853f3b9-20a3-4480-9c1d-81721e27d9f9"},"vehicle_type_id":"4","last_reported":1741086509,"current_range_meters":8000,"station_id":"ce4bhh92rcd13ifvqfj0","pricing_plan_id":"cebpf4jnsgd1na2vs0mg"},{"bike_id":"2718e268-74ea-4dae-9670-4dd113fa12c9","system_id":"levelo_inurba_marseille","lat":43.27054,"lon":5.40251,"is_reserved":false,"is_disabled":false,"rental_uris":{"android":"levelo://app?vid=2718e268-74ea-4dae-9670-4dd113fa12c9","ios":"levelo://app?vid=2718e268-74ea-4dae-9670-4dd113fa12c9"},"vehicle_type_id":"4","last_reported":1741086509,"current_range_meters":8000,"station_id":"ce4bhk92rcd13ifvqgc0","pricing_plan_id":"cebpf4jnsgd1na2vs0mg"},{"bike_id":"e599aac0-c825-4643-aeb1-c2d8b1ae00e8","system_id":"levelo_inurba_marseille","lat":43.24178,"lon":5.39737,"is_reserved":false,"is_disabled":false,"rental_uris":{"android":"levelo://app?vid=e599aac0-c825-4643-aeb1-c2d8b1ae00e8","ios":"levelo://app?vid=e599aac0-c825-4643-aeb1-c2d8b1ae00e8"},"vehicle_type_id":"4","last_reported":1741086509,"current_range_meters":8000,"station_id":"ce4bhn12rcd13ifvqgpg","pricing_plan_id":"cebpf4jnsgd1na2vs0mg"},{"bike_id":"3bb95a3d-e1e8-4f84-98b7-628620c4f64f","system_id":"levelo_inurba_marseille","lat":43.26035,"lon":5.41765,"is_reserved":false,"is_disabled":false,"rental_uris":{"android":"levelo://app?vid=3bb95a3d-e1e8-4f84-98b7-628620c4f64f","ios":"levelo://app?vid=3bb95a3d-e1e8-4f84-98b7-628620c4f64f"},"vehicle_type_id":"4","last_reported":1741086509,"current_range_meters":8000,"station_id":"","pricing_plan_id":"cebpf4jnsgd1na2vs0mg"},{"bike_id":"ef666e95-4cbd-43fb-9d0e-97d55d1b8305","system_id":"levelo_inurba_marseille","lat":43.292602,"lon":5.384469,"is_reserved":false,"is_disabled":false,"rental_uris":{"android":"levelo://app?vid=ef666e95-4cbd-43fb-9d0e-97d55d1b8305","ios":"levelo://app?vid=ef666e95-4cbd-43fb-9d0e-97d55d1b8305"},"vehicle_type_id":"4","last_reported":1741086509,"current_range_meters":8800,"station_id":"cki0cbj6b192h4jlfktg","pricing_plan_id":"cebpf4jnsgd1na2vs0mg"},{"bike_id":"d20d4ac0-3e72-4d7c-b740-440a0b15f885","system_id":"levelo_inurba_marseille","lat":43.24186,"lon":5.39725,"is_reserved":false,"is_disabled":false,"rental_uris":{"android":"levelo://app?vid=d20d4ac0-3e72-4d7c-b740-440a0b15f885","ios":"levelo://app?vid=d20d4ac0-3e72-4d7c-b740-440a0b15f885"},"vehicle_type_id":"4","last_reported":1741086509,"current_range_meters":8000,"station_id":"ce4bhn12rcd13ifvqgpg","pricing_plan_id":"cebpf4jnsgd1na2vs0mg"},{"bike_id":"8a7f7dec-8ac4-4ac7-9f33-b53621825235","system_id":"levelo_inurba_marseille","lat":43.27846,"lon":5.40745,"is_reserved":false,"is_disabled":false,"rental_uris":{"android":"levelo://app?vid=8a7f7dec-8ac4-4ac7-9f33-b53621825235","ios":"levelo://app?vid=8a7f7dec-8ac4-4ac7-9f33-b53621825235"},"vehicle_type_id":"4","last_reported":1741086509,"current_range_meters":8000,"station_id":"ce4bhnh2rcd13ifvqgtg","pricing_plan_id":"cebpf4jnsgd1na2vs0mg"},{"bike_id":"8dfd7383-0547-4fa3-9e5f-ee6518b6bd4b","system_id":"levelo_inurba_marseille","lat":43.25945,"lon":5.40912,"is_reserved":false,"is_disabled":false,"rental_uris":{"android":"levelo://app?vid=8dfd7383-0547-4fa3-9e5f-ee6518b6bd4b","ios":"levelo://app?vid=8dfd7383-0547-4fa3-9e5f-ee6518b6bd4b"},"vehicle_type_id":"4","last_reported":1741086509,"current_range_meters":8000,"station_id":"ce4bhm92rcd13ifvqglg","pricing_plan_id":"cebpf4jnsgd1na2vs0mg"},{"bike_id":"5f6058f8-17d6-41f9-bf21-73aab62a2071","system_id":"levelo_inurba_marseille","lat":43.2582,"lon":5.39431,"is_reserved":false,"is_disabled":false,"rental_uris":{"android":"levelo://app?vid=5f6058f8-17d6-41f9-bf21-73aab62a2071","ios":"levelo://app?vid=5f6058f8-17d6-41f9-bf21-73aab62a2071"},"vehicle_type_id":"4","last_reported":1741086509,"current_range_meters":8400,"station_id":"ce4bhip2rcd13ifvqft0","pricing_plan_id":"cebpf4jnsgd1na2vs0mg"},{"bike_id":"853e9f93-6f18-4242-b269-d87025e7bb93","system_id":"levelo_inurba_marseille","lat":43.30766,"lon":5.37067,"is_reserved":false,"is_disabled":false,"rental_uris":{"android":"levelo://app?vid=853e9f93-6f18-4242-b269-d87025e7bb93","ios":"levelo://app?vid=853e9f93-6f18-4242-b269-d87025e7bb93"},"vehicle_type_id":"4","last_reported":1741086509,"current_range_meters":8400,"station_id":"","pricing_plan_id":"cebpf4jnsgd1na2vs0mg"},{"bike_id":"ffd5fa35-92ec-4cc7-9a87-e8633ad3e1d2","system_id":"levelo_inurba_marseille","lat":43.27826,"lon":5.40726,"is_reserved":false,"is_disabled":false,"rental_uris":{"android":"levelo://app?vid=ffd5fa35-92ec-4cc7-9a87-e8633ad3e1d2","ios":"levelo://app?vid=ffd5fa35-92ec-4cc7-9a87-e8633ad3e1d2"},"vehicle_type_id":"4","last_reported":1741086509,"current_range_meters":8400,"station_id":"ce4bhnh2rcd13ifvqgtg","pricing_plan_id":"cebpf4jnsgd1na2vs0mg"},{"bike_id":"69cd3787-0277-4a5c-be2d-c41c86958702","system_id":"levelo_inurba_marseille","lat":43.24179,"lon":5.39741,"is_reserved":false,"is_disabled":false,"rental_uris":{"android":"levelo://app?vid=69cd3787-0277-4a5c-be2d-c41c86958702","ios":"levelo://app?vid=69cd3787-0277-4a5c-be2d-c41c86958702"},"vehicle_type_id":"4","last_reported":1741086509,"current_range_meters":8400,"station_id":"ce4bhn12rcd13ifvqgpg","pricing_plan_id":"cebpf4jnsgd1na2vs0mg"},{"bike_id":"346e7e1e-f5ad-4199-8951-d75428932c29","system_id":"levelo_inurba_marseille","lat":43.325,"lon":5.36573,"is_reserved":false,"is_disabled":false,"rental_uris":{"android":"levelo://app?vid=346e7e1e-f5ad-4199-8951-d75428932c29","ios":"levelo://app?vid=346e7e1e-f5ad-4199-8951-d75428932c29"},"vehicle_type_id":"4","last_reported":1741086509,"current_range_meters":8400,"station_id":"ce4bhs12rcd13ifvqhvg","pricing_plan_id":"cebpf4jnsgd1na2vs0mg"},{"bike_id":"32039365-9da2-4297-ba07-b74f03c3001e","system_id":"levelo_inurba_marseille","lat":43.31282,"lon":5.36691,"is_reserved":false,"is_disabled":false,"rental_uris":{"android":"levelo://app?vid=32039365-9da2-4297-ba07-b74f03c3001e","ios":"levelo://app?vid=32039365-9da2-4297-ba07-b74f03c3001e"},"vehicle_type_id":"4","last_reported":1741086509,"current_range_meters":8400,"station_id":"","pricing_plan_id":"cebpf4jnsgd1na2vs0mg"},{"bike_id":"6061a373-2501-450f-ae0e-48b80429b9e9","system_id":"levelo_inurba_marseille","lat":43.27844,"lon":5.4067,"is_reserved":false,"is_disabled":false,"rental_uris":{"android":"levelo://app?vid=6061a373-2501-450f-ae0e-48b80429b9e9","ios":"levelo://app?vid=6061a373-2501-450f-ae0e-48b80429b9e9"},"vehicle_type_id":"4","last_reported":1741086509,"current_range_meters":8400,"station_id":"","pricing_plan_id":"cebpf4jnsgd1na2vs0mg"},{"bike_id":"2c2f9e56-3ae9-4cdc-ab26-00084f6dff63","system_id":"levelo_inurba_marseille","lat":43.23163,"lon":5.43714,"is_reserved":false,"is_disabled":false,"rental_uris":{"android":"levelo://app?vid=2c2f9e56-3ae9-4cdc-ab26-00084f6dff63","ios":"levelo://app?vid=2c2f9e56-3ae9-4cdc-ab26-00084f6dff63"},"vehicle_type_id":"4","last_reported":1741086509,"current_range_meters":8400,"station_id":"ce4bhmp2rcd13ifvqgog","pricing_plan_id":"cebpf4jnsgd1na2vs0mg"},{"bike_id":"7755452b-7b16-48cd-8bba-f929203bfc12","system_id":"levelo_inurba_marseille","lat":43.24809,"lon":5.37458,"is_reserved":false,"is_disabled":false,"rental_uris":{"android":"levelo://app?vid=7755452b-7b16-48cd-8bba-f929203bfc12","ios":"levelo://app?vid=7755452b-7b16-48cd-8bba-f929203bfc12"},"vehicle_type_id":"4","last_reported":1741086509,"current_range_meters":8400,"station_id":"ce4bhgh2rcd13ifvqfb0","pricing_plan_id":"cebpf4jnsgd1na2vs0mg"},{"bike_id":"50406370-e046-4f92-b604-c2e7a97516f5","system_id":"levelo_inurba_marseille","lat":43.30272,"lon":5.37707,"is_reserved":false,"is_disabled":false,"rental_uris":{"android":"levelo://app?vid=50406370-e046-4f92-b604-c2e7a97516f5","ios":"levelo://app?vid=50406370-e046-4f92-b604-c2e7a97516f5"},"vehicle_type_id":"4","last_reported":1741086509,"current_range_meters":7200,"station_id":"ce4bguh2rcd13ifvqcj0","pricing_plan_id":"cebpf4jnsgd1na2vs0mg"},{"bike_id":"d65670b6-fadb-4776-92a4-00f2428ddaa0","system_id":"levelo_inurba_marseille","lat":43.32562,"lon":5.41438,"is_reserved":false,"is_disabled":false,"rental_uris":{"android":"levelo://app?vid=d65670b6-fadb-4776-92a4-00f2428ddaa0","ios":"levelo://app?vid=d65670b6-fadb-4776-92a4-00f2428ddaa0"},"vehicle_type_id":"4","last_reported":1741086509,"current_range_meters":8800,"station_id":"ce4bhq12rcd13ifvqhhg","pricing_plan_id":"cebpf4jnsgd1na2vs0mg"},{"bike_id":"9845a878-6164-47e8-b202-d1bb1d0f47bc","system_id":"levelo_inurba_marseille","lat":43.30981,"lon":5.39041,"is_reserved":false,"is_disabled":true,"rental_uris":{"android":"levelo://app?vid=9845a878-6164-47e8-b202-d1bb1d0f47bc","ios":"levelo://app?vid=9845a878-6164-47e8-b202-d1bb1d0f47bc"},"vehicle_type_id":"4","last_reported":1741086509,"current_range_meters":8800,"station_id":"ce4bgup2rcd13ifvqco0","pricing_plan_id":"cebpf4jnsgd1na2vs0mg"},{"bike_id":"3649b8cb-8e93-4e9a-a0ab-ac7973d61dc5","system_id":"levelo_inurba_marseille","lat":43.29008,"lon":5.35608,"is_reserved":false,"is_disabled":false,"rental_uris":{"android":"levelo://app?vid=3649b8cb-8e93-4e9a-a0ab-ac7973d61dc5","ios":"levelo://app?vid=3649b8cb-8e93-4e9a-a0ab-ac7973d61dc5"},"vehicle_type_id":"4","last_reported":1741086509,"current_range_meters":8400,"station_id":"ce4bhb92rcd13ifvqen0","pricing_plan_id":"cebpf4jnsgd1na2vs0mg"},{"bike_id":"caedf473-9313-4874-87c8-230b4a1efdb8","system_id":"levelo_inurba_marseille","lat":43.32499,"lon":5.36564,"is_reserved":false,"is_disabled":false,"rental_uris":{"android":"levelo://app?vid=caedf473-9313-4874-87c8-230b4a1efdb8","ios":"levelo://app?vid=caedf473-9313-4874-87c8-230b4a1efdb8"},"vehicle_type_id":"4","last_reported":1741086509,"current_range_meters":8800,"station_id":"ce4bhs12rcd13ifvqhvg","pricing_plan_id":"cebpf4jnsgd1na2vs0mg"},{"bike_id":"64953142-7637-42b4-b0d1-c449e63f1db7","system_id":"levelo_inurba_marseille","lat":43.29647,"lon":5.35993,"is_reserved":false,"is_disabled":false,"rental_uris":{"android":"levelo://app?vid=64953142-7637-42b4-b0d1-c449e63f1db7","ios":"levelo://app?vid=64953142-7637-42b4-b0d1-c449e63f1db7"},"vehicle_type_id":"4","last_reported":1741086509,"current_range_meters":8800,"station_id":"","pricing_plan_id":"cebpf4jnsgd1na2vs0mg"},{"bike_id":"ac8ac687-e653-42aa-8411-0abcf7c52b23","system_id":"levelo_inurba_marseille","lat":43.27066,"lon":5.42288,"is_reserved":false,"is_disabled":false,"rental_uris":{"android":"levelo://app?vid=ac8ac687-e653-42aa-8411-0abcf7c52b23","ios":"levelo://app?vid=ac8ac687-e653-42aa-8411-0abcf7c52b23"},"vehicle_type_id":"4","last_reported":1741086509,"current_range_meters":8800,"station_id":"ce4bhk92rcd13ifvqgb0","pricing_plan_id":"cebpf4jnsgd1na2vs0mg"},{"bike_id":"1e8cb000-7a45-4750-aa60-2080c9b2fe73","system_id":"levelo_inurba_marseille","lat":43.267975,"lon":5.393968,"is_reserved":false,"is_disabled":false,"rental_uris":{"android":"levelo://app?vid=1e8cb000-7a45-4750-aa60-2080c9b2fe73","ios":"levelo://app?vid=1e8cb000-7a45-4750-aa60-2080c9b2fe73"},"vehicle_type_id":"4","last_reported":1741086509,"current_range_meters":6400,"station_id":"ce4bha92rcd13ifvqeh0","pricing_plan_id":"cebpf4jnsgd1na2vs0mg"},{"bike_id":"dbac78cc-ed14-47e5-8264-5c7c37c35b12","system_id":"levelo_inurba_marseille","lat":43.28143,"lon":5.42643,"is_reserved":false,"is_disabled":false,"rental_uris":{"android":"levelo://app?vid=dbac78cc-ed14-47e5-8264-5c7c37c35b12","ios":"levelo://app?vid=dbac78cc-ed14-47e5-8264-5c7c37c35b12"},"vehicle_type_id":"4","last_reported":1741086509,"current_range_meters":9200,"station_id":"ce4bhnh2rcd13ifvqgug","pricing_plan_id":"cebpf4jnsgd1na2vs0mg"},{"bike_id":"0b818497-4d97-451b-b637-cef3d02b5c9d","system_id":"levelo_inurba_marseille","lat":43.31727,"lon":5.43689,"is_reserved":false,"is_disabled":true,"rental_uris":{"android":"levelo://app?vid=0b818497-4d97-451b-b637-cef3d02b5c9d","ios":"levelo://app?vid=0b818497-4d97-451b-b637-cef3d02b5c9d"},"vehicle_type_id":"4","last_reported":1741086509,"current_range_meters":9200,"station_id":"ce4bhp92rcd13ifvqhcg","pricing_plan_id":"cebpf4jnsgd1na2vs0mg"},{"bike_id":"41ed89d3-77cd-4311-8513-748a0ca63c4f","system_id":"levelo_inurba_marseille","lat":43.21257,"lon":5.35327,"is_reserved":false,"is_disabled":false,"rental_uris":{"android":"levelo://app?vid=41ed89d3-77cd-4311-8513-748a0ca63c4f","ios":"levelo://app?vid=41ed89d3-77cd-4311-8513-748a0ca63c4f"},"vehicle_type_id":"4","last_reported":1741086509,"current_range_meters":9200,"station_id":"","pricing_plan_id":"cebpf4jnsgd1na2vs0mg"},{"bike_id":"02984c24-f543-4d24-8c9e-3afa9d92984f","system_id":"levelo_inurba_marseille","lat":43.25573,"lon":5.38231,"is_reserved":false,"is_disabled":false,"rental_uris":{"android":"levelo://app?vid=02984c24-f543-4d24-8c9e-3afa9d92984f","ios":"levelo://app?vid=02984c24-f543-4d24-8c9e-3afa9d92984f"},"vehicle_type_id":"4","last_reported":1741086509,"current_range_meters":9200,"station_id":"ce4bhih2rcd13ifvqfs0","pricing_plan_id":"cebpf4jnsgd1na2vs0mg"},{"bike_id":"b7c7fbe5-74d4-42ab-95bd-b1c1045fe811","system_id":"levelo_inurba_marseille","lat":43.23155,"lon":5.43707,"is_reserved":false,"is_disabled":false,"rental_uris":{"android":"levelo://app?vid=b7c7fbe5-74d4-42ab-95bd-b1c1045fe811","ios":"levelo://app?vid=b7c7fbe5-74d4-42ab-95bd-b1c1045fe811"},"vehicle_type_id":"4","last_reported":1741086509,"current_range_meters":9200,"station_id":"ce4bhmp2rcd13ifvqgog","pricing_plan_id":"cebpf4jnsgd1na2vs0mg"},{"bike_id":"90faf189-6eb2-4a59-acd4-942b5b28a4af","system_id":"levelo_inurba_marseille","lat":43.29562,"lon":5.39961,"is_reserved":false,"is_disabled":false,"rental_uris":{"android":"levelo://app?vid=90faf189-6eb2-4a59-acd4-942b5b28a4af","ios":"levelo://app?vid=90faf189-6eb2-4a59-acd4-942b5b28a4af"},"vehicle_type_id":"4","last_reported":1741086509,"current_range_meters":9600,"station_id":"ce4bh312rcd13ifvqdj0","pricing_plan_id":"cebpf4jnsgd1na2vs0mg"},{"bike_id":"9de42f25-f760-4086-9a08-2934eee1b520","system_id":"levelo_inurba_marseille","lat":43.21263,"lon":5.35326,"is_reserved":false,"is_disabled":false,"rental_uris":{"android":"levelo://app?vid=9de42f25-f760-4086-9a08-2934eee1b520","ios":"levelo://app?vid=9de42f25-f760-4086-9a08-2934eee1b520"},"vehicle_type_id":"4","last_reported":1741086509,"current_range_meters":9600,"station_id":"","pricing_plan_id":"cebpf4jnsgd1na2vs0mg"},{"bike_id":"f77f6f36-a3e8-4eac-9705-d385924f98db","system_id":"levelo_inurba_marseille","lat":43.29904,"lon":5.37465,"is_reserved":false,"is_disabled":false,"rental_uris":{"android":"levelo://app?vid=f77f6f36-a3e8-4eac-9705-d385924f98db","ios":"levelo://app?vid=f77f6f36-a3e8-4eac-9705-d385924f98db"},"vehicle_type_id":"4","last_reported":1741086509,"current_range_meters":9600,"station_id":"ce4bgjh2rcd13ifvqbg0","pricing_plan_id":"cebpf4jnsgd1na2vs0mg"},{"bike_id":"1054d884-ab44-4c78-ba5f-e5df4d1c581c","system_id":"levelo_inurba_marseille","lat":43.30553,"lon":5.36547,"is_reserved":false,"is_disabled":false,"rental_uris":{"android":"levelo://app?vid=1054d884-ab44-4c78-ba5f-e5df4d1c581c","ios":"levelo://app?vid=1054d884-ab44-4c78-ba5f-e5df4d1c581c"},"vehicle_type_id":"4","last_reported":1741086509,"current_range_meters":9200,"station_id":"ce4bgs12rcd13ifvqcag","pricing_plan_id":"cebpf4jnsgd1na2vs0mg"},{"bike_id":"b44a0b16-a812-4811-a04e-202adcd1188f","system_id":"levelo_inurba_marseille","lat":43.287,"lon":5.35183,"is_reserved":false,"is_disabled":false,"rental_uris":{"android":"levelo://app?vid=b44a0b16-a812-4811-a04e-202adcd1188f","ios":"levelo://app?vid=b44a0b16-a812-4811-a04e-202adcd1188f"},"vehicle_type_id":"4","last_reported":1741086509,"current_range_meters":9600,"station_id":"ce4bgi92rcd13ifvqb90","pricing_plan_id":"cebpf4jnsgd1na2vs0mg"},{"bike_id":"0124053e-4260-4b6f-bb1d-d9ff69be9812","system_id":"levelo_inurba_marseille","lat":43.23142,"lon":5.43715,"is_reserved":false,"is_disabled":false,"rental_uris":{"android":"levelo://app?vid=0124053e-4260-4b6f-bb1d-d9ff69be9812","ios":"levelo://app?vid=0124053e-4260-4b6f-bb1d-d9ff69be9812"},"vehicle_type_id":"4","last_reported":1741086509,"current_range_meters":9600,"station_id":"ce4bhmp2rcd13ifvqgog","pricing_plan_id":"cebpf4jnsgd1na2vs0mg"},{"bike_id":"d9209cce-b798-443c-8925-393059b1ad00","system_id":"levelo_inurba_marseille","lat":43.30526,"lon":5.3671,"is_reserved":false,"is_disabled":false,"rental_uris":{"android":"levelo://app?vid=d9209cce-b798-443c-8925-393059b1ad00","ios":"levelo://app?vid=d9209cce-b798-443c-8925-393059b1ad00"},"vehicle_type_id":"4","last_reported":1741086509,"current_range_meters":10000,"station_id":"ce4bgrp2rcd13ifvqc9g","pricing_plan_id":"cebpf4jnsgd1na2vs0mg"},{"bike_id":"1d82842c-b985-471d-a275-dbc4306f5eab","system_id":"levelo_inurba_marseille","lat":43.29903,"lon":5.38158,"is_reserved":false,"is_disabled":false,"rental_uris":{"android":"levelo://app?vid=1d82842c-b985-471d-a275-dbc4306f5eab","ios":"levelo://app?vid=1d82842c-b985-471d-a275-dbc4306f5eab"},"vehicle_type_id":"4","last_reported":1741086509,"current_range_meters":10000,"station_id":"ce4bgj12rcd13ifvqbc0","pricing_plan_id":"cebpf4jnsgd1na2vs0mg"},{"bike_id":"b2c17c63-898b-4bf8-bd07-f7d1f9c58cb9","system_id":"levelo_inurba_marseille","lat":43.336094,"lon":5.410354,"is_reserved":false,"is_disabled":false,"rental_uris":{"android":"levelo://app?vid=b2c17c63-898b-4bf8-bd07-f7d1f9c58cb9","ios":"levelo://app?vid=b2c17c63-898b-4bf8-bd07-f7d1f9c58cb9"},"vehicle_type_id":"4","last_reported":1741086509,"current_range_meters":10000,"station_id":"ce4bhqh2rcd13ifvqhmg","pricing_plan_id":"cebpf4jnsgd1na2vs0mg"},{"bike_id":"cb014a6b-6553-43cb-90ee-c6d22cf5883f","system_id":"levelo_inurba_marseille","lat":43.26068,"lon":5.39409,"is_reserved":false,"is_disabled":false,"rental_uris":{"android":"levelo://app?vid=cb014a6b-6553-43cb-90ee-c6d22cf5883f","ios":"levelo://app?vid=cb014a6b-6553-43cb-90ee-c6d22cf5883f"},"vehicle_type_id":"4","last_reported":1741086509,"current_range_meters":10000,"station_id":"ce4bhh92rcd13ifvqfj0","pricing_plan_id":"cebpf4jnsgd1na2vs0mg"},{"bike_id":"cd0eb321-3c19-4641-ad5e-251e67c9c2bb","system_id":"levelo_inurba_marseille","lat":43.30256,"lon":5.37745,"is_reserved":false,"is_disabled":false,"rental_uris":{"android":"levelo://app?vid=cd0eb321-3c19-4641-ad5e-251e67c9c2bb","ios":"levelo://app?vid=cd0eb321-3c19-4641-ad5e-251e67c9c2bb"},"vehicle_type_id":"4","last_reported":1741086509,"current_range_meters":9600,"station_id":"ce4bguh2rcd13ifvqcj0","pricing_plan_id":"cebpf4jnsgd1na2vs0mg"},{"bike_id":"e7ec1ac1-2323-47bd-a2b5-7cd3afb282cf","system_id":"levelo_inurba_marseille","lat":43.26578,"lon":5.37288,"is_reserved":false,"is_disabled":false,"rental_uris":{"android":"levelo://app?vid=e7ec1ac1-2323-47bd-a2b5-7cd3afb282cf","ios":"levelo://app?vid=e7ec1ac1-2323-47bd-a2b5-7cd3afb282cf"},"vehicle_type_id":"4","last_reported":1741086509,"current_range_meters":10800,"station_id":"ce4bhg12rcd13ifvqf70","pricing_plan_id":"cebpf4jnsgd1na2vs0mg"},{"bike_id":"a5193847-231c-4c8c-b335-8579028b0ddd","system_id":"levelo_inurba_marseille","lat":43.2784,"lon":5.40718,"is_reserved":false,"is_disabled":false,"rental_uris":{"android":"levelo://app?vid=a5193847-231c-4c8c-b335-8579028b0ddd","ios":"levelo://app?vid=a5193847-231c-4c8c-b335-8579028b0ddd"},"vehicle_type_id":"4","last_reported":1741086509,"current_range_meters":10800,"station_id":"ce4bhnh2rcd13ifvqgtg","pricing_plan_id":"cebpf4jnsgd1na2vs0mg"},{"bike_id":"7cea7b38-f7a0-4e92-8d25-24dec4d43a08","system_id":"levelo_inurba_marseille","lat":43.26676,"lon":5.38265,"is_reserved":false,"is_disabled":true,"rental_uris":{"android":"levelo://app?vid=7cea7b38-f7a0-4e92-8d25-24dec4d43a08","ios":"levelo://app?vid=7cea7b38-f7a0-4e92-8d25-24dec4d43a08"},"vehicle_type_id":"4","last_reported":1741086509,"current_range_meters":10800,"station_id":"ce4bhg92rcd13ifvqf90","pricing_plan_id":"cebpf4jnsgd1na2vs0mg"},{"bike_id":"962f2263-64da-4284-9fa1-a7a0879fd8e9","system_id":"levelo_inurba_marseille","lat":43.25958,"lon":5.40894,"is_reserved":false,"is_disabled":false,"rental_uris":{"android":"levelo://app?vid=962f2263-64da-4284-9fa1-a7a0879fd8e9","ios":"levelo://app?vid=962f2263-64da-4284-9fa1-a7a0879fd8e9"},"vehicle_type_id":"4","last_reported":1741086509,"current_range_meters":10800,"station_id":"ce4bhm92rcd13ifvqglg","pricing_plan_id":"cebpf4jnsgd1na2vs0mg"},{"bike_id":"788a26bd-083a-4789-a07f-b38c0b45d059","system_id":"levelo_inurba_marseille","lat":43.27204,"lon":5.39179,"is_reserved":false,"is_disabled":false,"rental_uris":{"android":"levelo://app?vid=788a26bd-083a-4789-a07f-b38c0b45d059","ios":"levelo://app?vid=788a26bd-083a-4789-a07f-b38c0b45d059"},"vehicle_type_id":"4","last_reported":1741086509,"current_range_meters":10000,"station_id":"ce4bhhp2rcd13ifvqfm0","pricing_plan_id":"cebpf4jnsgd1na2vs0mg"},{"bike_id":"dd08d469-0e07-4995-a332-b3086215ce48","system_id":"levelo_inurba_marseille","lat":43.309607,"lon":5.390396,"is_reserved":false,"is_disabled":true,"rental_uris":{"android":"levelo://app?vid=dd08d469-0e07-4995-a332-b3086215ce48","ios":"levelo://app?vid=dd08d469-0e07-4995-a332-b3086215ce48"},"vehicle_type_id":"4","last_reported":1741086509,"current_range_meters":10800,"station_id":"ce4bgup2rcd13ifvqco0","pricing_plan_id":"cebpf4jnsgd1na2vs0mg"},{"bike_id":"90322e6e-681a-4b8f-aa82-0890038f52d4","system_id":"levelo_inurba_marseille","lat":43.28848,"lon":5.39327,"is_reserved":false,"is_disabled":false,"rental_uris":{"android":"levelo://app?vid=90322e6e-681a-4b8f-aa82-0890038f52d4","ios":"levelo://app?vid=90322e6e-681a-4b8f-aa82-0890038f52d4"},"vehicle_type_id":"4","last_reported":1741086509,"current_range_meters":10800,"station_id":"ce4bh2p2rcd13ifvqdi0","pricing_plan_id":"cebpf4jnsgd1na2vs0mg"},{"bike_id":"d397688b-ab73-448f-92b9-a2a9588b40a4","system_id":"levelo_inurba_marseille","lat":43.24017,"lon":5.39708,"is_reserved":false,"is_disabled":false,"rental_uris":{"android":"levelo://app?vid=d397688b-ab73-448f-92b9-a2a9588b40a4","ios":"levelo://app?vid=d397688b-ab73-448f-92b9-a2a9588b40a4"},"vehicle_type_id":"4","last_reported":1741086509,"current_range_meters":10800,"station_id":"","pricing_plan_id":"cebpf4jnsgd1na2vs0mg"},{"bike_id":"34361887-fdf5-449f-9f03-1aece50c838f","system_id":"levelo_inurba_marseille","lat":43.27492,"lon":5.42453,"is_reserved":false,"is_disabled":false,"rental_uris":{"android":"levelo://app?vid=34361887-fdf5-449f-9f03-1aece50c838f","ios":"levelo://app?vid=34361887-fdf5-449f-9f03-1aece50c838f"},"vehicle_type_id":"4","last_reported":1741086509,"current_range_meters":11200,"station_id":"ce4bhn92rcd13ifvqgrg","pricing_plan_id":"cebpf4jnsgd1na2vs0mg"},{"bike_id":"9b968628-87b3-407c-818a-bf2730491bf3","system_id":"levelo_inurba_marseille","lat":43.31389,"lon":5.36759,"is_reserved":false,"is_disabled":false,"rental_uris":{"android":"levelo://app?vid=9b968628-87b3-407c-818a-bf2730491bf3","ios":"levelo://app?vid=9b968628-87b3-407c-818a-bf2730491bf3"},"vehicle_type_id":"4","last_reported":1741086509,"current_range_meters":11200,"station_id":"","pricing_plan_id":"cebpf4jnsgd1na2vs0mg"},{"bike_id":"f8875219-e7e2-4069-af1b-8ab32a8634f9","system_id":"levelo_inurba_marseille","lat":43.32744,"lon":5.39251,"is_reserved":false,"is_disabled":false,"rental_uris":{"android":"levelo://app?vid=f8875219-e7e2-4069-af1b-8ab32a8634f9","ios":"levelo://app?vid=f8875219-e7e2-4069-af1b-8ab32a8634f9"},"vehicle_type_id":"4","last_reported":1741086509,"current_range_meters":11200,"station_id":"","pricing_plan_id":"cebpf4jnsgd1na2vs0mg"},{"bike_id":"58564901-6ebd-44fb-b4a2-1f8345947b81","system_id":"levelo_inurba_marseille","lat":43.29913,"lon":5.3747,"is_reserved":false,"is_disabled":false,"rental_uris":{"android":"levelo://app?vid=58564901-6ebd-44fb-b4a2-1f8345947b81","ios":"levelo://app?vid=58564901-6ebd-44fb-b4a2-1f8345947b81"},"vehicle_type_id":"4","last_reported":1741086509,"current_range_meters":11200,"station_id":"ce4bgjh2rcd13ifvqbg0","pricing_plan_id":"cebpf4jnsgd1na2vs0mg"},{"bike_id":"44a7153b-0fd7-4509-836b-676bbf84fb06","system_id":"levelo_inurba_marseille","lat":43.23194,"lon":5.35574,"is_reserved":false,"is_disabled":false,"rental_uris":{"android":"levelo://app?vid=44a7153b-0fd7-4509-836b-676bbf84fb06","ios":"levelo://app?vid=44a7153b-0fd7-4509-836b-676bbf84fb06"},"vehicle_type_id":"4","last_reported":1741086509,"current_range_meters":11200,"station_id":"ce4bhu92rcd13ifvqi70","pricing_plan_id":"cebpf4jnsgd1na2vs0mg"},{"bike_id":"8d87db73-830b-4a1a-b357-2fa35f25b1f5","system_id":"levelo_inurba_marseille","lat":43.23162,"lon":5.43683,"is_reserved":false,"is_disabled":false,"rental_uris":{"android":"levelo://app?vid=8d87db73-830b-4a1a-b357-2fa35f25b1f5","ios":"levelo://app?vid=8d87db73-830b-4a1a-b357-2fa35f25b1f5"},"vehicle_type_id":"4","last_reported":1741086509,"current_range_meters":12000,"station_id":"ce4bhmp2rcd13ifvqgog","pricing_plan_id":"cebpf4jnsgd1na2vs0mg"},{"bike_id":"ee1d2ad1-36ca-49dd-a328-f2a9a9994ecb","system_id":"levelo_inurba_marseille","lat":43.31087,"lon":5.38139,"is_reserved":false,"is_disabled":false,"rental_uris":{"android":"levelo://app?vid=ee1d2ad1-36ca-49dd-a328-f2a9a9994ecb","ios":"levelo://app?vid=ee1d2ad1-36ca-49dd-a328-f2a9a9994ecb"},"vehicle_type_id":"4","last_reported":1741086509,"current_range_meters":11600,"station_id":"","pricing_plan_id":"cebpf4jnsgd1na2vs0mg"},{"bike_id":"ab481c0f-66e7-42e7-8405-2774b77fd164","system_id":"levelo_inurba_marseille","lat":43.2694,"lon":5.3865,"is_reserved":false,"is_disabled":false,"rental_uris":{"android":"levelo://app?vid=ab481c0f-66e7-42e7-8405-2774b77fd164","ios":"levelo://app?vid=ab481c0f-66e7-42e7-8405-2774b77fd164"},"vehicle_type_id":"4","last_reported":1741086509,"current_range_meters":11600,"station_id":"ce4bhh92rcd13ifvqfh0","pricing_plan_id":"cebpf4jnsgd1na2vs0mg"},{"bike_id":"26a88ac7-2408-425f-8602-072f2d050054","system_id":"levelo_inurba_marseille","lat":43.24802,"lon":5.37463,"is_reserved":false,"is_disabled":false,"rental_uris":{"android":"levelo://app?vid=26a88ac7-2408-425f-8602-072f2d050054","ios":"levelo://app?vid=26a88ac7-2408-425f-8602-072f2d050054"},"vehicle_type_id":"4","last_reported":1741086509,"current_range_meters":10800,"station_id":"ce4bhgh2rcd13ifvqfb0","pricing_plan_id":"cebpf4jnsgd1na2vs0mg"},{"bike_id":"8c939673-acee-4493-a59f-9cec13cec966","system_id":"levelo_inurba_marseille","lat":43.24101,"lon":5.3778,"is_reserved":false,"is_disabled":false,"rental_uris":{"android":"levelo://app?vid=8c939673-acee-4493-a59f-9cec13cec966","ios":"levelo://app?vid=8c939673-acee-4493-a59f-9cec13cec966"},"vehicle_type_id":"4","last_reported":1741086509,"current_range_meters":11600,"station_id":"ce4bhnp2rcd13ifvqgvg","pricing_plan_id":"cebpf4jnsgd1na2vs0mg"},{"bike_id":"495ee3de-b09b-4b41-a9e7-c29dbd353055","system_id":"levelo_inurba_marseille","lat":43.23959,"lon":5.36625,"is_reserved":false,"is_disabled":false,"rental_uris":{"android":"levelo://app?vid=495ee3de-b09b-4b41-a9e7-c29dbd353055","ios":"levelo://app?vid=495ee3de-b09b-4b41-a9e7-c29dbd353055"},"vehicle_type_id":"4","last_reported":1741086509,"current_range_meters":12000,"station_id":"ce4bhi12rcd13ifvqfp0","pricing_plan_id":"cebpf4jnsgd1na2vs0mg"},{"bike_id":"a2e9312b-d692-42a0-9823-fe0aab56075b","system_id":"levelo_inurba_marseille","lat":43.2316,"lon":5.43715,"is_reserved":false,"is_disabled":true,"rental_uris":{"android":"levelo://app?vid=a2e9312b-d692-42a0-9823-fe0aab56075b","ios":"levelo://app?vid=a2e9312b-d692-42a0-9823-fe0aab56075b"},"vehicle_type_id":"4","last_reported":1741086509,"current_range_meters":12000,"station_id":"ce4bhmp2rcd13ifvqgog","pricing_plan_id":"cebpf4jnsgd1na2vs0mg"},{"bike_id":"a9e4db3f-a424-4a70-bbb1-9ffa5bd94433","system_id":"levelo_inurba_marseille","lat":43.32388,"lon":5.38868,"is_reserved":false,"is_disabled":false,"rental_uris":{"android":"levelo://app?vid=a9e4db3f-a424-4a70-bbb1-9ffa5bd94433","ios":"levelo://app?vid=a9e4db3f-a424-4a70-bbb1-9ffa5bd94433"},"vehicle_type_id":"4","last_reported":1741086509,"current_range_meters":12000,"station_id":"ce4bhqp2rcd13ifvqhog","pricing_plan_id":"cebpf4jnsgd1na2vs0mg"},{"bike_id":"9158c83d-aae6-4f40-adf3-15d2d242233b","system_id":"levelo_inurba_marseille","lat":43.269012,"lon":5.40319,"is_reserved":false,"is_disabled":false,"rental_uris":{"android":"levelo://app?vid=9158c83d-aae6-4f40-adf3-15d2d242233b","ios":"levelo://app?vid=9158c83d-aae6-4f40-adf3-15d2d242233b"},"vehicle_type_id":"4","last_reported":1741086509,"current_range_meters":12000,"station_id":"ce4bhm92rcd13ifvqglg","pricing_plan_id":"cebpf4jnsgd1na2vs0mg"},{"bike_id":"e6470975-418a-4942-a544-9e10930159ce","system_id":"levelo_inurba_marseille","lat":43.24083,"lon":5.37754,"is_reserved":false,"is_disabled":false,"rental_uris":{"android":"levelo://app?vid=e6470975-418a-4942-a544-9e10930159ce","ios":"levelo://app?vid=e6470975-418a-4942-a544-9e10930159ce"},"vehicle_type_id":"4","last_reported":1741086509,"current_range_meters":12000,"station_id":"ce4bhnp2rcd13ifvqgvg","pricing_plan_id":"cebpf4jnsgd1na2vs0mg"},{"bike_id":"07e5ce00-e66b-4716-974f-1b923a08f04f","system_id":"levelo_inurba_marseille","lat":43.30973,"lon":5.39036,"is_reserved":false,"is_disabled":true,"rental_uris":{"android":"levelo://app?vid=07e5ce00-e66b-4716-974f-1b923a08f04f","ios":"levelo://app?vid=07e5ce00-e66b-4716-974f-1b923a08f04f"},"vehicle_type_id":"4","last_reported":1741086509,"current_range_meters":12400,"station_id":"ce4bgup2rcd13ifvqco0","pricing_plan_id":"cebpf4jnsgd1na2vs0mg"},{"bike_id":"fc890f05-5811-465b-af51-46eb46e95a90","system_id":"levelo_inurba_marseille","lat":43.25009,"lon":5.38926,"is_reserved":false,"is_disabled":false,"rental_uris":{"android":"levelo://app?vid=fc890f05-5811-465b-af51-46eb46e95a90","ios":"levelo://app?vid=fc890f05-5811-465b-af51-46eb46e95a90"},"vehicle_type_id":"4","last_reported":1741086509,"current_range_meters":12400,"station_id":"ce4bhgp2rcd13ifvqfd0","pricing_plan_id":"cebpf4jnsgd1na2vs0mg"},{"bike_id":"89fcd520-bc63-4b61-a818-c2a6407f2608","system_id":"levelo_inurba_marseille","lat":43.24176,"lon":5.3971,"is_reserved":false,"is_disabled":false,"rental_uris":{"android":"levelo://app?vid=89fcd520-bc63-4b61-a818-c2a6407f2608","ios":"levelo://app?vid=89fcd520-bc63-4b61-a818-c2a6407f2608"},"vehicle_type_id":"4","last_reported":1741086509,"current_range_meters":12400,"station_id":"ce4bhn12rcd13ifvqgpg","pricing_plan_id":"cebpf4jnsgd1na2vs0mg"},{"bike_id":"9e4f53fe-e434-44c9-a146-29f149bf6c3f","system_id":"levelo_inurba_marseille","lat":43.24176,"lon":5.39726,"is_reserved":false,"is_disabled":false,"rental_uris":{"android":"levelo://app?vid=9e4f53fe-e434-44c9-a146-29f149bf6c3f","ios":"levelo://app?vid=9e4f53fe-e434-44c9-a146-29f149bf6c3f"},"vehicle_type_id":"4","last_reported":1741086509,"current_range_meters":12400,"station_id":"ce4bhn12rcd13ifvqgpg","pricing_plan_id":"cebpf4jnsgd1na2vs0mg"},{"bike_id":"12504efb-f647-4ad7-bd5d-415c885c147d","system_id":"levelo_inurba_marseille","lat":43.3249,"lon":5.36576,"is_reserved":false,"is_disabled":false,"rental_uris":{"android":"levelo://app?vid=12504efb-f647-4ad7-bd5d-415c885c147d","ios":"levelo://app?vid=12504efb-f647-4ad7-bd5d-415c885c147d"},"vehicle_type_id":"4","last_reported":1741086509,"current_range_meters":12400,"station_id":"ce4bhs12rcd13ifvqhvg","pricing_plan_id":"cebpf4jnsgd1na2vs0mg"},{"bike_id":"3337f8d3-294f-4174-abe7-8175587d9446","system_id":"levelo_inurba_marseille","lat":43.27089,"lon":5.40265,"is_reserved":false,"is_disabled":false,"rental_uris":{"android":"levelo://app?vid=3337f8d3-294f-4174-abe7-8175587d9446","ios":"levelo://app?vid=3337f8d3-294f-4174-abe7-8175587d9446"},"vehicle_type_id":"4","last_reported":1741086509,"current_range_meters":12400,"station_id":"ce4bhk92rcd13ifvqgc0","pricing_plan_id":"cebpf4jnsgd1na2vs0mg"},{"bike_id":"7e5e6f3a-e138-46d0-8c6f-d0a7bd2a5609","system_id":"levelo_inurba_marseille","lat":43.2991,"lon":5.3813,"is_reserved":false,"is_disabled":false,"rental_uris":{"android":"levelo://app?vid=7e5e6f3a-e138-46d0-8c6f-d0a7bd2a5609","ios":"levelo://app?vid=7e5e6f3a-e138-46d0-8c6f-d0a7bd2a5609"},"vehicle_type_id":"4","last_reported":1741086509,"current_range_meters":12400,"station_id":"ce4bgj12rcd13ifvqbc0","pricing_plan_id":"cebpf4jnsgd1na2vs0mg"},{"bike_id":"d923c156-5769-420b-b365-a29082847768","system_id":"levelo_inurba_marseille","lat":43.26028,"lon":5.375468,"is_reserved":false,"is_disabled":false,"rental_uris":{"android":"levelo://app?vid=d923c156-5769-420b-b365-a29082847768","ios":"levelo://app?vid=d923c156-5769-420b-b365-a29082847768"},"vehicle_type_id":"4","last_reported":1741086509,"current_range_meters":12400,"station_id":"ce4bhh12rcd13ifvqff0","pricing_plan_id":"cebpf4jnsgd1na2vs0mg"},{"bike_id":"212be3cc-09ae-4063-9d09-83b8b6c708f5","system_id":"levelo_inurba_marseille","lat":43.270585,"lon":5.402623,"is_reserved":false,"is_disabled":false,"rental_uris":{"android":"levelo://app?vid=212be3cc-09ae-4063-9d09-83b8b6c708f5","ios":"levelo://app?vid=212be3cc-09ae-4063-9d09-83b8b6c708f5"},"vehicle_type_id":"4","last_reported":1741086509,"current_range_meters":12400,"station_id":"ce4bhk92rcd13ifvqgc0","pricing_plan_id":"cebpf4jnsgd1na2vs0mg"},{"bike_id":"118752b4-0bf1-4a25-b951-41c806c251ca","system_id":"levelo_inurba_marseille","lat":43.30322,"lon":5.36881,"is_reserved":false,"is_disabled":false,"rental_uris":{"android":"levelo://app?vid=118752b4-0bf1-4a25-b951-41c806c251ca","ios":"levelo://app?vid=118752b4-0bf1-4a25-b951-41c806c251ca"},"vehicle_type_id":"4","last_reported":1741086509,"current_range_meters":12400,"station_id":"ce4bgqh2rcd13ifvqc5g","pricing_plan_id":"cebpf4jnsgd1na2vs0mg"},{"bike_id":"38f37a23-5169-4d18-ab25-4dff16ba5bae","system_id":"levelo_inurba_marseille","lat":43.28602,"lon":5.37069,"is_reserved":false,"is_disabled":false,"rental_uris":{"android":"levelo://app?vid=38f37a23-5169-4d18-ab25-4dff16ba5bae","ios":"levelo://app?vid=38f37a23-5169-4d18-ab25-4dff16ba5bae"},"vehicle_type_id":"4","last_reported":1741086509,"current_range_meters":12800,"station_id":"ce4bht12rcd13ifvqi60","pricing_plan_id":"cebpf4jnsgd1na2vs0mg"},{"bike_id":"d7f8c4fd-6d0e-41d2-b232-ed2406c25451","system_id":"levelo_inurba_marseille","lat":43.27063,"lon":5.42277,"is_reserved":false,"is_disabled":false,"rental_uris":{"android":"levelo://app?vid=d7f8c4fd-6d0e-41d2-b232-ed2406c25451","ios":"levelo://app?vid=d7f8c4fd-6d0e-41d2-b232-ed2406c25451"},"vehicle_type_id":"4","last_reported":1741086509,"current_range_meters":12800,"station_id":"ce4bhk92rcd13ifvqgb0","pricing_plan_id":"cebpf4jnsgd1na2vs0mg"},{"bike_id":"18ffc8ee-572f-4f9f-aea0-f99d011c795b","system_id":"levelo_inurba_marseille","lat":43.27058,"lon":5.4026,"is_reserved":false,"is_disabled":false,"rental_uris":{"android":"levelo://app?vid=18ffc8ee-572f-4f9f-aea0-f99d011c795b","ios":"levelo://app?vid=18ffc8ee-572f-4f9f-aea0-f99d011c795b"},"vehicle_type_id":"4","last_reported":1741086509,"current_range_meters":12800,"station_id":"ce4bhk92rcd13ifvqgc0","pricing_plan_id":"cebpf4jnsgd1na2vs0mg"},{"bike_id":"a3532a1c-67eb-4df4-89db-1242ede86b44","system_id":"levelo_inurba_marseille","lat":43.29529,"lon":5.37489,"is_reserved":false,"is_disabled":false,"rental_uris":{"android":"levelo://app?vid=a3532a1c-67eb-4df4-89db-1242ede86b44","ios":"levelo://app?vid=a3532a1c-67eb-4df4-89db-1242ede86b44"},"vehicle_type_id":"4","last_reported":1741086509,"current_range_meters":12800,"station_id":"ce4bgkp2rcd13ifvqbmg","pricing_plan_id":"cebpf4jnsgd1na2vs0mg"},{"bike_id":"fef09e3e-7091-494b-aeed-7eaa59d5208f","system_id":"levelo_inurba_marseille","lat":43.27492,"lon":5.42456,"is_reserved":false,"is_disabled":false,"rental_uris":{"android":"levelo://app?vid=fef09e3e-7091-494b-aeed-7eaa59d5208f","ios":"levelo://app?vid=fef09e3e-7091-494b-aeed-7eaa59d5208f"},"vehicle_type_id":"4","last_reported":1741086509,"current_range_meters":12800,"station_id":"ce4bhn92rcd13ifvqgrg","pricing_plan_id":"cebpf4jnsgd1na2vs0mg"},{"bike_id":"5d57169e-b346-4d3e-b241-37904c6d263c","system_id":"levelo_inurba_marseille","lat":43.30132,"lon":5.37423,"is_reserved":false,"is_disabled":false,"rental_uris":{"android":"levelo://app?vid=5d57169e-b346-4d3e-b241-37904c6d263c","ios":"levelo://app?vid=5d57169e-b346-4d3e-b241-37904c6d263c"},"vehicle_type_id":"4","last_reported":1741086509,"current_range_meters":13600,"station_id":"ce4bgs92rcd13ifvqcc0","pricing_plan_id":"cebpf4jnsgd1na2vs0mg"},{"bike_id":"9ab0baf9-c2c7-4fa7-9b33-6ab5adc722c3","system_id":"levelo_inurba_marseille","lat":43.24806,"lon":5.37456,"is_reserved":false,"is_disabled":false,"rental_uris":{"android":"levelo://app?vid=9ab0baf9-c2c7-4fa7-9b33-6ab5adc722c3","ios":"levelo://app?vid=9ab0baf9-c2c7-4fa7-9b33-6ab5adc722c3"},"vehicle_type_id":"4","last_reported":1741086509,"current_range_meters":13600,"station_id":"ce4bhgh2rcd13ifvqfb0","pricing_plan_id":"cebpf4jnsgd1na2vs0mg"},{"bike_id":"b57b5a51-d238-45b4-9f5f-9637035425f6","system_id":"levelo_inurba_marseille","lat":43.32039,"lon":5.41535,"is_reserved":false,"is_disabled":false,"rental_uris":{"android":"levelo://app?vid=b57b5a51-d238-45b4-9f5f-9637035425f6","ios":"levelo://app?vid=b57b5a51-d238-45b4-9f5f-9637035425f6"},"vehicle_type_id":"4","last_reported":1741086509,"current_range_meters":11200,"station_id":"ce4bhq92rcd13ifvqhkg","pricing_plan_id":"cebpf4jnsgd1na2vs0mg"},{"bike_id":"5667b14c-6be9-470c-8489-6d07a2ac8ff0","system_id":"levelo_inurba_marseille","lat":43.29825,"lon":5.36238,"is_reserved":false,"is_disabled":true,"rental_uris":{"android":"levelo://app?vid=5667b14c-6be9-470c-8489-6d07a2ac8ff0","ios":"levelo://app?vid=5667b14c-6be9-470c-8489-6d07a2ac8ff0"},"vehicle_type_id":"4","last_reported":1741086509,"current_range_meters":12800,"station_id":"ce4bgpp2rcd13ifvqc3g","pricing_plan_id":"cebpf4jnsgd1na2vs0mg"},{"bike_id":"a6799ae4-fed2-4ee8-a527-ef2daaf1494f","system_id":"levelo_inurba_marseille","lat":43.26944,"lon":5.38646,"is_reserved":false,"is_disabled":false,"rental_uris":{"android":"levelo://app?vid=a6799ae4-fed2-4ee8-a527-ef2daaf1494f","ios":"levelo://app?vid=a6799ae4-fed2-4ee8-a527-ef2daaf1494f"},"vehicle_type_id":"4","last_reported":1741086509,"current_range_meters":13600,"station_id":"ce4bhh92rcd13ifvqfh0","pricing_plan_id":"cebpf4jnsgd1na2vs0mg"},{"bike_id":"dac14b8b-d836-4a69-8e1d-80e9686effb5","system_id":"levelo_inurba_marseille","lat":43.23165,"lon":5.43705,"is_reserved":false,"is_disabled":false,"rental_uris":{"android":"levelo://app?vid=dac14b8b-d836-4a69-8e1d-80e9686effb5","ios":"levelo://app?vid=dac14b8b-d836-4a69-8e1d-80e9686effb5"},"vehicle_type_id":"4","last_reported":1741086509,"current_range_meters":13600,"station_id":"ce4bhmp2rcd13ifvqgog","pricing_plan_id":"cebpf4jnsgd1na2vs0mg"},{"bike_id":"1a2dee85-9210-40df-8566-809be537b593","system_id":"levelo_inurba_marseille","lat":43.2623,"lon":5.4044,"is_reserved":false,"is_disabled":false,"rental_uris":{"android":"levelo://app?vid=1a2dee85-9210-40df-8566-809be537b593","ios":"levelo://app?vid=1a2dee85-9210-40df-8566-809be537b593"},"vehicle_type_id":"4","last_reported":1741086509,"current_range_meters":14000,"station_id":"ce4bhmh2rcd13ifvqgmg","pricing_plan_id":"cebpf4jnsgd1na2vs0mg"},{"bike_id":"b52df2aa-735d-4233-8e8d-797b84047bad","system_id":"levelo_inurba_marseille","lat":43.250202,"lon":5.403158,"is_reserved":false,"is_disabled":false,"rental_uris":{"android":"levelo://app?vid=b52df2aa-735d-4233-8e8d-797b84047bad","ios":"levelo://app?vid=b52df2aa-735d-4233-8e8d-797b84047bad"},"vehicle_type_id":"4","last_reported":1741086509,"current_range_meters":14000,"station_id":"ce4bhlh2rcd13ifvqgig","pricing_plan_id":"cebpf4jnsgd1na2vs0mg"},{"bike_id":"51f6f578-8898-487a-9da7-ff3d6d379d1b","system_id":"levelo_inurba_marseille","lat":43.3211,"lon":5.36776,"is_reserved":false,"is_disabled":false,"rental_uris":{"android":"levelo://app?vid=51f6f578-8898-487a-9da7-ff3d6d379d1b","ios":"levelo://app?vid=51f6f578-8898-487a-9da7-ff3d6d379d1b"},"vehicle_type_id":"4","last_reported":1741086509,"current_range_meters":14000,"station_id":"ce4bhrh2rcd13ifvqhug","pricing_plan_id":"cebpf4jnsgd1na2vs0mg"},{"bike_id":"2d142b80-952c-4952-a9cb-522451a02269","system_id":"levelo_inurba_marseille","lat":43.28842,"lon":5.39322,"is_reserved":false,"is_disabled":false,"rental_uris":{"android":"levelo://app?vid=2d142b80-952c-4952-a9cb-522451a02269","ios":"levelo://app?vid=2d142b80-952c-4952-a9cb-522451a02269"},"vehicle_type_id":"4","last_reported":1741086509,"current_range_meters":14400,"station_id":"ce4bh2p2rcd13ifvqdi0","pricing_plan_id":"cebpf4jnsgd1na2vs0mg"},{"bike_id":"2c5a92f4-a231-41f0-933a-ac5f26be730a","system_id":"levelo_inurba_marseille","lat":43.30131,"lon":5.37432,"is_reserved":false,"is_disabled":false,"rental_uris":{"android":"levelo://app?vid=2c5a92f4-a231-41f0-933a-ac5f26be730a","ios":"levelo://app?vid=2c5a92f4-a231-41f0-933a-ac5f26be730a"},"vehicle_type_id":"4","last_reported":1741086509,"current_range_meters":14400,"station_id":"ce4bgs92rcd13ifvqcc0","pricing_plan_id":"cebpf4jnsgd1na2vs0mg"},{"bike_id":"34bc5a02-82a3-4fda-ac2c-a7dd9a821b51","system_id":"levelo_inurba_marseille","lat":43.25492,"lon":5.37654,"is_reserved":false,"is_disabled":false,"rental_uris":{"android":"levelo://app?vid=34bc5a02-82a3-4fda-ac2c-a7dd9a821b51","ios":"levelo://app?vid=34bc5a02-82a3-4fda-ac2c-a7dd9a821b51"},"vehicle_type_id":"4","last_reported":1741086509,"current_range_meters":14000,"station_id":"ce4bhh12rcd13ifvqff0","pricing_plan_id":"cebpf4jnsgd1na2vs0mg"},{"bike_id":"74c11eba-ca18-466b-aae6-889a537365b5","system_id":"levelo_inurba_marseille","lat":43.24077,"lon":5.37755,"is_reserved":false,"is_disabled":false,"rental_uris":{"android":"levelo://app?vid=74c11eba-ca18-466b-aae6-889a537365b5","ios":"levelo://app?vid=74c11eba-ca18-466b-aae6-889a537365b5"},"vehicle_type_id":"4","last_reported":1741086509,"current_range_meters":14400,"station_id":"ce4bhnp2rcd13ifvqgvg","pricing_plan_id":"cebpf4jnsgd1na2vs0mg"},{"bike_id":"a2b9d686-216a-4f50-ae4b-e7710a444cd6","system_id":"levelo_inurba_marseille","lat":43.25003,"lon":5.38925,"is_reserved":false,"is_disabled":false,"rental_uris":{"android":"levelo://app?vid=a2b9d686-216a-4f50-ae4b-e7710a444cd6","ios":"levelo://app?vid=a2b9d686-216a-4f50-ae4b-e7710a444cd6"},"vehicle_type_id":"4","last_reported":1741086509,"current_range_meters":14400,"station_id":"ce4bhgp2rcd13ifvqfd0","pricing_plan_id":"cebpf4jnsgd1na2vs0mg"},{"bike_id":"c6762606-6123-4176-98c0-430a38ac0378","system_id":"levelo_inurba_marseille","lat":43.24731,"lon":5.41171,"is_reserved":false,"is_disabled":false,"rental_uris":{"android":"levelo://app?vid=c6762606-6123-4176-98c0-430a38ac0378","ios":"levelo://app?vid=c6762606-6123-4176-98c0-430a38ac0378"},"vehicle_type_id":"4","last_reported":1741086509,"current_range_meters":14400,"station_id":"","pricing_plan_id":"cebpf4jnsgd1na2vs0mg"},{"bike_id":"69f1d854-fe58-43e1-96c7-9bfe722dfe7e","system_id":"levelo_inurba_marseille","lat":43.32558,"lon":5.4144,"is_reserved":false,"is_disabled":false,"rental_uris":{"android":"levelo://app?vid=69f1d854-fe58-43e1-96c7-9bfe722dfe7e","ios":"levelo://app?vid=69f1d854-fe58-43e1-96c7-9bfe722dfe7e"},"vehicle_type_id":"4","last_reported":1741086509,"current_range_meters":14400,"station_id":"ce4bhq12rcd13ifvqhhg","pricing_plan_id":"cebpf4jnsgd1na2vs0mg"},{"bike_id":"72eb316f-b406-4368-b692-99c81bec4002","system_id":"levelo_inurba_marseille","lat":43.30415,"lon":5.4127,"is_reserved":false,"is_disabled":true,"rental_uris":{"android":"levelo://app?vid=72eb316f-b406-4368-b692-99c81bec4002","ios":"levelo://app?vid=72eb316f-b406-4368-b692-99c81bec4002"},"vehicle_type_id":"4","last_reported":1741086509,"current_range_meters":14800,"station_id":"ce4bhop2rcd13ifvqh8g","pricing_plan_id":"cebpf4jnsgd1na2vs0mg"},{"bike_id":"4d451353-31f7-4d46-a0c0-8b2b8e391f65","system_id":"levelo_inurba_marseille","lat":43.30146,"lon":5.380928,"is_reserved":false,"is_disabled":false,"rental_uris":{"android":"levelo://app?vid=4d451353-31f7-4d46-a0c0-8b2b8e391f65","ios":"levelo://app?vid=4d451353-31f7-4d46-a0c0-8b2b8e391f65"},"vehicle_type_id":"4","last_reported":1741086509,"current_range_meters":12800,"station_id":"ce4bgjp2rcd13ifvqbh0","pricing_plan_id":"cebpf4jnsgd1na2vs0mg"},{"bike_id":"2db321a3-a6e7-4b06-982c-e21ce5ca8fdf","system_id":"levelo_inurba_marseille","lat":43.24385,"lon":5.37065,"is_reserved":false,"is_disabled":false,"rental_uris":{"android":"levelo://app?vid=2db321a3-a6e7-4b06-982c-e21ce5ca8fdf","ios":"levelo://app?vid=2db321a3-a6e7-4b06-982c-e21ce5ca8fdf"},"vehicle_type_id":"4","last_reported":1741086509,"current_range_meters":12400,"station_id":"ce4bhhh2rcd13ifvqfk0","pricing_plan_id":"cebpf4jnsgd1na2vs0mg"},{"bike_id":"7f7e1c62-8591-4bd5-b418-84accf5550de","system_id":"levelo_inurba_marseille","lat":43.29822,"lon":5.40261,"is_reserved":false,"is_disabled":false,"rental_uris":{"android":"levelo://app?vid=7f7e1c62-8591-4bd5-b418-84accf5550de","ios":"levelo://app?vid=7f7e1c62-8591-4bd5-b418-84accf5550de"},"vehicle_type_id":"4","last_reported":1741086509,"current_range_meters":14800,"station_id":"","pricing_plan_id":"cebpf4jnsgd1na2vs0mg"},{"bike_id":"d31a3788-a465-4d70-acad-6e5df3d9e3fa","system_id":"levelo_inurba_marseille","lat":43.27879,"lon":5.35419,"is_reserved":false,"is_disabled":false,"rental_uris":{"android":"levelo://app?vid=d31a3788-a465-4d70-acad-6e5df3d9e3fa","ios":"levelo://app?vid=d31a3788-a465-4d70-acad-6e5df3d9e3fa"},"vehicle_type_id":"4","last_reported":1741086509,"current_range_meters":14800,"station_id":"ce4bhjp2rcd13ifvqg90","pricing_plan_id":"cebpf4jnsgd1na2vs0mg"},{"bike_id":"f8b34b05-3ce8-4023-b46a-493d367bd4f6","system_id":"levelo_inurba_marseille","lat":43.27175,"lon":5.40996,"is_reserved":false,"is_disabled":false,"rental_uris":{"android":"levelo://app?vid=f8b34b05-3ce8-4023-b46a-493d367bd4f6","ios":"levelo://app?vid=f8b34b05-3ce8-4023-b46a-493d367bd4f6"},"vehicle_type_id":"4","last_reported":1741086509,"current_range_meters":13600,"station_id":"ce4bhl12rcd13ifvqgf0","pricing_plan_id":"cebpf4jnsgd1na2vs0mg"},{"bike_id":"c028c6f7-84f3-430b-91ca-aee8e0e79653","system_id":"levelo_inurba_marseille","lat":43.30541,"lon":5.36708,"is_reserved":false,"is_disabled":false,"rental_uris":{"android":"levelo://app?vid=c028c6f7-84f3-430b-91ca-aee8e0e79653","ios":"levelo://app?vid=c028c6f7-84f3-430b-91ca-aee8e0e79653"},"vehicle_type_id":"4","last_reported":1741086509,"current_range_meters":14800,"station_id":"ce4bgrp2rcd13ifvqc9g","pricing_plan_id":"cebpf4jnsgd1na2vs0mg"},{"bike_id":"da707074-3e3d-4beb-941b-e41df111c172","system_id":"levelo_inurba_marseille","lat":43.30552,"lon":5.36692,"is_reserved":false,"is_disabled":false,"rental_uris":{"android":"levelo://app?vid=da707074-3e3d-4beb-941b-e41df111c172","ios":"levelo://app?vid=da707074-3e3d-4beb-941b-e41df111c172"},"vehicle_type_id":"4","last_reported":1741086509,"current_range_meters":15200,"station_id":"ce4bgrp2rcd13ifvqc9g","pricing_plan_id":"cebpf4jnsgd1na2vs0mg"},{"bike_id":"e5966238-316a-4303-af79-79081be59f8b","system_id":"levelo_inurba_marseille","lat":43.27819,"lon":5.40715,"is_reserved":false,"is_disabled":false,"rental_uris":{"android":"levelo://app?vid=e5966238-316a-4303-af79-79081be59f8b","ios":"levelo://app?vid=e5966238-316a-4303-af79-79081be59f8b"},"vehicle_type_id":"4","last_reported":1741086509,"current_range_meters":15200,"station_id":"ce4bhnh2rcd13ifvqgtg","pricing_plan_id":"cebpf4jnsgd1na2vs0mg"},{"bike_id":"81b5e9a6-4d3a-41bc-a414-3c89288fd7d6","system_id":"levelo_inurba_marseille","lat":43.29525,"lon":5.38558,"is_reserved":false,"is_disabled":true,"rental_uris":{"android":"levelo://app?vid=81b5e9a6-4d3a-41bc-a414-3c89288fd7d6","ios":"levelo://app?vid=81b5e9a6-4d3a-41bc-a414-3c89288fd7d6"},"vehicle_type_id":"4","last_reported":1741086509,"current_range_meters":15200,"station_id":"ce4bgih2rcd13ifvqba0","pricing_plan_id":"cebpf4jnsgd1na2vs0mg"},{"bike_id":"985d2fa7-01f5-44f0-8aae-9e1fc7712f86","system_id":"levelo_inurba_marseille","lat":43.29254,"lon":5.37589,"is_reserved":false,"is_disabled":false,"rental_uris":{"android":"levelo://app?vid=985d2fa7-01f5-44f0-8aae-9e1fc7712f86","ios":"levelo://app?vid=985d2fa7-01f5-44f0-8aae-9e1fc7712f86"},"vehicle_type_id":"4","last_reported":1741086509,"current_range_meters":15200,"station_id":"ce4bgi12rcd13ifvqb80","pricing_plan_id":"cebpf4jnsgd1na2vs0mg"},{"bike_id":"adb022c9-3a00-4e31-9ff2-83e6d951b6e5","system_id":"levelo_inurba_marseille","lat":43.29222,"lon":5.36061,"is_reserved":false,"is_disabled":false,"rental_uris":{"android":"levelo://app?vid=adb022c9-3a00-4e31-9ff2-83e6d951b6e5","ios":"levelo://app?vid=adb022c9-3a00-4e31-9ff2-83e6d951b6e5"},"vehicle_type_id":"4","last_reported":1741086509,"current_range_meters":15200,"station_id":"ce4bhbh2rcd13ifvqeqg","pricing_plan_id":"cebpf4jnsgd1na2vs0mg"},{"bike_id":"9704a6c3-e81f-455c-8b18-1e1612ed55ca","system_id":"levelo_inurba_marseille","lat":43.30915,"lon":5.36858,"is_reserved":false,"is_disabled":false,"rental_uris":{"android":"levelo://app?vid=9704a6c3-e81f-455c-8b18-1e1612ed55ca","ios":"levelo://app?vid=9704a6c3-e81f-455c-8b18-1e1612ed55ca"},"vehicle_type_id":"4","last_reported":1741086509,"current_range_meters":15200,"station_id":"ce4bgn92rcd13ifvqbvg","pricing_plan_id":"cebpf4jnsgd1na2vs0mg"},{"bike_id":"d7921d23-cfda-4431-bc98-37d6ccfbbacf","system_id":"levelo_inurba_marseille","lat":43.27611,"lon":5.36112,"is_reserved":false,"is_disabled":false,"rental_uris":{"android":"levelo://app?vid=d7921d23-cfda-4431-bc98-37d6ccfbbacf","ios":"levelo://app?vid=d7921d23-cfda-4431-bc98-37d6ccfbbacf"},"vehicle_type_id":"4","last_reported":1741086509,"current_range_meters":14800,"station_id":"ce4bgj92rcd13ifvqbe0","pricing_plan_id":"cebpf4jnsgd1na2vs0mg"},{"bike_id":"15d1809a-97c8-428d-a2c6-9d8c5a972121","system_id":"levelo_inurba_marseille","lat":43.23163,"lon":5.43701,"is_reserved":false,"is_disabled":false,"rental_uris":{"android":"levelo://app?vid=15d1809a-97c8-428d-a2c6-9d8c5a972121","ios":"levelo://app?vid=15d1809a-97c8-428d-a2c6-9d8c5a972121"},"vehicle_type_id":"4","last_reported":1741086509,"current_range_meters":15200,"station_id":"ce4bhmp2rcd13ifvqgog","pricing_plan_id":"cebpf4jnsgd1na2vs0mg"},{"bike_id":"88d28cca-016d-4c57-a524-5609ea844980","system_id":"levelo_inurba_marseille","lat":43.28149,"lon":5.37798,"is_reserved":false,"is_disabled":false,"rental_uris":{"android":"levelo://app?vid=88d28cca-016d-4c57-a524-5609ea844980","ios":"levelo://app?vid=88d28cca-016d-4c57-a524-5609ea844980"},"vehicle_type_id":"4","last_reported":1741086509,"current_range_meters":15200,"station_id":"","pricing_plan_id":"cebpf4jnsgd1na2vs0mg"},{"bike_id":"8c8abaad-7aae-4a77-a00b-eb961fba74a2","system_id":"levelo_inurba_marseille","lat":43.29257,"lon":5.40906,"is_reserved":false,"is_disabled":false,"rental_uris":{"android":"levelo://app?vid=8c8abaad-7aae-4a77-a00b-eb961fba74a2","ios":"levelo://app?vid=8c8abaad-7aae-4a77-a00b-eb961fba74a2"},"vehicle_type_id":"4","last_reported":1741086509,"current_range_meters":16000,"station_id":"ce4bh192rcd13ifvqdc0","pricing_plan_id":"cebpf4jnsgd1na2vs0mg"},{"bike_id":"f0ed9d3d-2625-4e6c-8dab-89c9a79ea5d0","system_id":"levelo_inurba_marseille","lat":43.30887,"lon":5.39617,"is_reserved":false,"is_disabled":false,"rental_uris":{"android":"levelo://app?vid=f0ed9d3d-2625-4e6c-8dab-89c9a79ea5d0","ios":"levelo://app?vid=f0ed9d3d-2625-4e6c-8dab-89c9a79ea5d0"},"vehicle_type_id":"4","last_reported":1741086509,"current_range_meters":16000,"station_id":"ce4bh012rcd13ifvqcv0","pricing_plan_id":"cebpf4jnsgd1na2vs0mg"},{"bike_id":"47ca7176-dcba-4b9e-8dbb-e2bb239319ab","system_id":"levelo_inurba_marseille","lat":43.31413,"lon":5.38589,"is_reserved":false,"is_disabled":false,"rental_uris":{"android":"levelo://app?vid=47ca7176-dcba-4b9e-8dbb-e2bb239319ab","ios":"levelo://app?vid=47ca7176-dcba-4b9e-8dbb-e2bb239319ab"},"vehicle_type_id":"4","last_reported":1741086509,"current_range_meters":16000,"station_id":"","pricing_plan_id":"cebpf4jnsgd1na2vs0mg"},{"bike_id":"428ddc3d-05a8-4b76-b027-89ba3c31dbda","system_id":"levelo_inurba_marseille","lat":43.2559,"lon":5.38233,"is_reserved":false,"is_disabled":false,"rental_uris":{"android":"levelo://app?vid=428ddc3d-05a8-4b76-b027-89ba3c31dbda","ios":"levelo://app?vid=428ddc3d-05a8-4b76-b027-89ba3c31dbda"},"vehicle_type_id":"4","last_reported":1741086509,"current_range_meters":16000,"station_id":"ce4bhih2rcd13ifvqfs0","pricing_plan_id":"cebpf4jnsgd1na2vs0mg"},{"bike_id":"8ef12c96-4a02-4ab6-af53-ca8fd7864c6a","system_id":"levelo_inurba_marseille","lat":43.30967,"lon":5.38991,"is_reserved":false,"is_disabled":false,"rental_uris":{"android":"levelo://app?vid=8ef12c96-4a02-4ab6-af53-ca8fd7864c6a","ios":"levelo://app?vid=8ef12c96-4a02-4ab6-af53-ca8fd7864c6a"},"vehicle_type_id":"4","last_reported":1741086509,"current_range_meters":16000,"station_id":"ce4bgup2rcd13ifvqco0","pricing_plan_id":"cebpf4jnsgd1na2vs0mg"},{"bike_id":"48a285ca-186e-4702-b73d-eff66aa5f54d","system_id":"levelo_inurba_marseille","lat":43.27052,"lon":5.40261,"is_reserved":false,"is_disabled":false,"rental_uris":{"android":"levelo://app?vid=48a285ca-186e-4702-b73d-eff66aa5f54d","ios":"levelo://app?vid=48a285ca-186e-4702-b73d-eff66aa5f54d"},"vehicle_type_id":"4","last_reported":1741086509,"current_range_meters":16000,"station_id":"ce4bhk92rcd13ifvqgc0","pricing_plan_id":"cebpf4jnsgd1na2vs0mg"},{"bike_id":"7cd5e07c-ad2a-4af8-99d9-77c41335ce79","system_id":"levelo_inurba_marseille","lat":43.24151,"lon":5.36427,"is_reserved":false,"is_disabled":false,"rental_uris":{"android":"levelo://app?vid=7cd5e07c-ad2a-4af8-99d9-77c41335ce79","ios":"levelo://app?vid=7cd5e07c-ad2a-4af8-99d9-77c41335ce79"},"vehicle_type_id":"4","last_reported":1741086509,"current_range_meters":16000,"station_id":"cpo36qri1sfpv3e86is0","pricing_plan_id":"cebpf4jnsgd1na2vs0mg"},{"bike_id":"d4781131-97f9-4c2b-9f21-cc40dcda1d9e","system_id":"levelo_inurba_marseille","lat":43.2408,"lon":5.37767,"is_reserved":false,"is_disabled":false,"rental_uris":{"android":"levelo://app?vid=d4781131-97f9-4c2b-9f21-cc40dcda1d9e","ios":"levelo://app?vid=d4781131-97f9-4c2b-9f21-cc40dcda1d9e"},"vehicle_type_id":"4","last_reported":1741086509,"current_range_meters":16000,"station_id":"ce4bhnp2rcd13ifvqgvg","pricing_plan_id":"cebpf4jnsgd1na2vs0mg"},{"bike_id":"e2561f86-c403-4b29-a057-bfc8bac05a51","system_id":"levelo_inurba_marseille","lat":43.30124,"lon":5.37436,"is_reserved":false,"is_disabled":false,"rental_uris":{"android":"levelo://app?vid=e2561f86-c403-4b29-a057-bfc8bac05a51","ios":"levelo://app?vid=e2561f86-c403-4b29-a057-bfc8bac05a51"},"vehicle_type_id":"4","last_reported":1741086509,"current_range_meters":16000,"station_id":"ce4bgs92rcd13ifvqcc0","pricing_plan_id":"cebpf4jnsgd1na2vs0mg"},{"bike_id":"420e0499-b9fb-44b5-ac2d-9623b69058e8","system_id":"levelo_inurba_marseille","lat":43.28155,"lon":5.42641,"is_reserved":false,"is_disabled":false,"rental_uris":{"android":"levelo://app?vid=420e0499-b9fb-44b5-ac2d-9623b69058e8","ios":"levelo://app?vid=420e0499-b9fb-44b5-ac2d-9623b69058e8"},"vehicle_type_id":"4","last_reported":1741086509,"current_range_meters":16000,"station_id":"ce4bhnh2rcd13ifvqgug","pricing_plan_id":"cebpf4jnsgd1na2vs0mg"},{"bike_id":"4a131a6e-20ed-4f37-9325-fb0815961b00","system_id":"levelo_inurba_marseille","lat":43.23143,"lon":5.43718,"is_reserved":false,"is_disabled":false,"rental_uris":{"android":"levelo://app?vid=4a131a6e-20ed-4f37-9325-fb0815961b00","ios":"levelo://app?vid=4a131a6e-20ed-4f37-9325-fb0815961b00"},"vehicle_type_id":"4","last_reported":1741086509,"current_range_meters":16400,"station_id":"ce4bhmp2rcd13ifvqgog","pricing_plan_id":"cebpf4jnsgd1na2vs0mg"},{"bike_id":"d571166c-77a4-4a91-b051-9cc34ad31336","system_id":"levelo_inurba_marseille","lat":43.30192,"lon":5.39339,"is_reserved":false,"is_disabled":false,"rental_uris":{"android":"levelo://app?vid=d571166c-77a4-4a91-b051-9cc34ad31336","ios":"levelo://app?vid=d571166c-77a4-4a91-b051-9cc34ad31336"},"vehicle_type_id":"4","last_reported":1741086509,"current_range_meters":16000,"station_id":"","pricing_plan_id":"cebpf4jnsgd1na2vs0mg"},{"bike_id":"516e3747-bfb9-471b-a526-f97449b9bc6e","system_id":"levelo_inurba_marseille","lat":43.32562,"lon":5.4146,"is_reserved":false,"is_disabled":false,"rental_uris":{"android":"levelo://app?vid=516e3747-bfb9-471b-a526-f97449b9bc6e","ios":"levelo://app?vid=516e3747-bfb9-471b-a526-f97449b9bc6e"},"vehicle_type_id":"4","last_reported":1741086509,"current_range_meters":16000,"station_id":"ce4bhq12rcd13ifvqhhg","pricing_plan_id":"cebpf4jnsgd1na2vs0mg"},{"bike_id":"803c0489-f1ba-4e46-ae70-685ff7070b07","system_id":"levelo_inurba_marseille","lat":43.305342,"lon":5.365337,"is_reserved":false,"is_disabled":false,"rental_uris":{"android":"levelo://app?vid=803c0489-f1ba-4e46-ae70-685ff7070b07","ios":"levelo://app?vid=803c0489-f1ba-4e46-ae70-685ff7070b07"},"vehicle_type_id":"4","last_reported":1741086509,"current_range_meters":16000,"station_id":"ce4bgs12rcd13ifvqcag","pricing_plan_id":"cebpf4jnsgd1na2vs0mg"},{"bike_id":"b1faada7-f5b3-4d24-8bbf-7cd8808d50e8","system_id":"levelo_inurba_marseille","lat":43.26779,"lon":5.39418,"is_reserved":false,"is_disabled":true,"rental_uris":{"android":"levelo://app?vid=b1faada7-f5b3-4d24-8bbf-7cd8808d50e8","ios":"levelo://app?vid=b1faada7-f5b3-4d24-8bbf-7cd8808d50e8"},"vehicle_type_id":"4","last_reported":1741086509,"current_range_meters":16400,"station_id":"ce4bhh12rcd13ifvqfg0","pricing_plan_id":"cebpf4jnsgd1na2vs0mg"},{"bike_id":"206e4439-efc0-4a3e-b983-1ff5b86d71fc","system_id":"levelo_inurba_marseille","lat":43.23146,"lon":5.43723,"is_reserved":false,"is_disabled":false,"rental_uris":{"android":"levelo://app?vid=206e4439-efc0-4a3e-b983-1ff5b86d71fc","ios":"levelo://app?vid=206e4439-efc0-4a3e-b983-1ff5b86d71fc"},"vehicle_type_id":"4","last_reported":1741086509,"current_range_meters":16400,"station_id":"ce4bhmp2rcd13ifvqgog","pricing_plan_id":"cebpf4jnsgd1na2vs0mg"},{"bike_id":"698426ac-3fe7-41dd-a88b-a5bb98aebc76","system_id":"levelo_inurba_marseille","lat":43.27814,"lon":5.40713,"is_reserved":false,"is_disabled":false,"rental_uris":{"android":"levelo://app?vid=698426ac-3fe7-41dd-a88b-a5bb98aebc76","ios":"levelo://app?vid=698426ac-3fe7-41dd-a88b-a5bb98aebc76"},"vehicle_type_id":"4","last_reported":1741086509,"current_range_meters":16400,"station_id":"ce4bhnh2rcd13ifvqgtg","pricing_plan_id":"cebpf4jnsgd1na2vs0mg"},{"bike_id":"03d5bd23-db2c-4a3d-9573-a1403447f741","system_id":"levelo_inurba_marseille","lat":43.27842,"lon":5.40733,"is_reserved":false,"is_disabled":false,"rental_uris":{"android":"levelo://app?vid=03d5bd23-db2c-4a3d-9573-a1403447f741","ios":"levelo://app?vid=03d5bd23-db2c-4a3d-9573-a1403447f741"},"vehicle_type_id":"4","last_reported":1741086509,"current_range_meters":16400,"station_id":"ce4bhnh2rcd13ifvqgtg","pricing_plan_id":"cebpf4jnsgd1na2vs0mg"},{"bike_id":"3cc0ecc7-b3c2-4367-af14-629b89eac3e2","system_id":"levelo_inurba_marseille","lat":43.32658,"lon":5.40989,"is_reserved":false,"is_disabled":true,"rental_uris":{"android":"levelo://app?vid=3cc0ecc7-b3c2-4367-af14-629b89eac3e2","ios":"levelo://app?vid=3cc0ecc7-b3c2-4367-af14-629b89eac3e2"},"vehicle_type_id":"4","last_reported":1741086509,"current_range_meters":16400,"station_id":"ce4bhpp2rcd13ifvqhgg","pricing_plan_id":"cebpf4jnsgd1na2vs0mg"},{"bike_id":"3118a718-8a5b-4936-ba40-2066d7436676","system_id":"levelo_inurba_marseille","lat":43.26739,"lon":5.39494,"is_reserved":false,"is_disabled":false,"rental_uris":{"android":"levelo://app?vid=3118a718-8a5b-4936-ba40-2066d7436676","ios":"levelo://app?vid=3118a718-8a5b-4936-ba40-2066d7436676"},"vehicle_type_id":"4","last_reported":1741086509,"current_range_meters":16400,"station_id":"ce4bhh12rcd13ifvqfg0","pricing_plan_id":"cebpf4jnsgd1na2vs0mg"},{"bike_id":"427950eb-abac-48c3-8dfa-8fbfa3302c18","system_id":"levelo_inurba_marseille","lat":43.286685,"lon":5.386849,"is_reserved":false,"is_disabled":false,"rental_uris":{"android":"levelo://app?vid=427950eb-abac-48c3-8dfa-8fbfa3302c18","ios":"levelo://app?vid=427950eb-abac-48c3-8dfa-8fbfa3302c18"},"vehicle_type_id":"4","last_reported":1741086509,"current_range_meters":16400,"station_id":"","pricing_plan_id":"cebpf4jnsgd1na2vs0mg"},{"bike_id":"e96e0c5f-d0e5-478b-b4aa-43a39d7ff26e","system_id":"levelo_inurba_marseille","lat":43.32354,"lon":5.36736,"is_reserved":false,"is_disabled":false,"rental_uris":{"android":"levelo://app?vid=e96e0c5f-d0e5-478b-b4aa-43a39d7ff26e","ios":"levelo://app?vid=e96e0c5f-d0e5-478b-b4aa-43a39d7ff26e"},"vehicle_type_id":"4","last_reported":1741086509,"current_range_meters":16400,"station_id":"ce4bhsh2rcd13ifvqi2g","pricing_plan_id":"cebpf4jnsgd1na2vs0mg"},{"bike_id":"9cdd69d0-3652-47e6-9261-afed75cd6bcc","system_id":"levelo_inurba_marseille","lat":43.23177,"lon":5.39988,"is_reserved":false,"is_disabled":false,"rental_uris":{"android":"levelo://app?vid=9cdd69d0-3652-47e6-9261-afed75cd6bcc","ios":"levelo://app?vid=9cdd69d0-3652-47e6-9261-afed75cd6bcc"},"vehicle_type_id":"4","last_reported":1741086509,"current_range_meters":16400,"station_id":"ce4bhn12rcd13ifvqgqg","pricing_plan_id":"cebpf4jnsgd1na2vs0mg"},{"bike_id":"d1dfb0b4-7760-400b-b437-85c24c17b5f7","system_id":"levelo_inurba_marseille","lat":43.23952,"lon":5.36639,"is_reserved":false,"is_disabled":false,"rental_uris":{"android":"levelo://app?vid=d1dfb0b4-7760-400b-b437-85c24c17b5f7","ios":"levelo://app?vid=d1dfb0b4-7760-400b-b437-85c24c17b5f7"},"vehicle_type_id":"4","last_reported":1741086509,"current_range_meters":16400,"station_id":"ce4bhi12rcd13ifvqfp0","pricing_plan_id":"cebpf4jnsgd1na2vs0mg"},{"bike_id":"ce59339a-c16e-4b32-b790-710009362834","system_id":"levelo_inurba_marseille","lat":43.2293,"lon":5.35373,"is_reserved":false,"is_disabled":false,"rental_uris":{"android":"levelo://app?vid=ce59339a-c16e-4b32-b790-710009362834","ios":"levelo://app?vid=ce59339a-c16e-4b32-b790-710009362834"},"vehicle_type_id":"4","last_reported":1741086509,"current_range_meters":16000,"station_id":"cpo3532slgdg3j2ikp40","pricing_plan_id":"cebpf4jnsgd1na2vs0mg"},{"bike_id":"4ead3cf7-030a-48ef-8e3f-f442056c69b3","system_id":"levelo_inurba_marseille","lat":43.3045,"lon":5.37928,"is_reserved":false,"is_disabled":false,"rental_uris":{"android":"levelo://app?vid=4ead3cf7-030a-48ef-8e3f-f442056c69b3","ios":"levelo://app?vid=4ead3cf7-030a-48ef-8e3f-f442056c69b3"},"vehicle_type_id":"4","last_reported":1741086509,"current_range_meters":16800,"station_id":"ce4bgup2rcd13ifvqcn0","pricing_plan_id":"cebpf4jnsgd1na2vs0mg"},{"bike_id":"56f807c6-3a2a-48f0-b6b7-8d1081332169","system_id":"levelo_inurba_marseille","lat":43.31401,"lon":5.36706,"is_reserved":false,"is_disabled":false,"rental_uris":{"android":"levelo://app?vid=56f807c6-3a2a-48f0-b6b7-8d1081332169","ios":"levelo://app?vid=56f807c6-3a2a-48f0-b6b7-8d1081332169"},"vehicle_type_id":"4","last_reported":1741086509,"current_range_meters":16800,"station_id":"","pricing_plan_id":"cebpf4jnsgd1na2vs0mg"},{"bike_id":"c883f4a2-ebfa-447f-8ad1-def206d7f37c","system_id":"levelo_inurba_marseille","lat":43.29001,"lon":5.35609,"is_reserved":false,"is_disabled":false,"rental_uris":{"android":"levelo://app?vid=c883f4a2-ebfa-447f-8ad1-def206d7f37c","ios":"levelo://app?vid=c883f4a2-ebfa-447f-8ad1-def206d7f37c"},"vehicle_type_id":"4","last_reported":1741086509,"current_range_meters":16000,"station_id":"ce4bhb92rcd13ifvqen0","pricing_plan_id":"cebpf4jnsgd1na2vs0mg"},{"bike_id":"28096b7f-96ae-4ea2-8ceb-2396385a6306","system_id":"levelo_inurba_marseille","lat":43.24654,"lon":5.38926,"is_reserved":false,"is_disabled":true,"rental_uris":{"android":"levelo://app?vid=28096b7f-96ae-4ea2-8ceb-2396385a6306","ios":"levelo://app?vid=28096b7f-96ae-4ea2-8ceb-2396385a6306"},"vehicle_type_id":"4","last_reported":1741086509,"current_range_meters":16800,"station_id":"ce4bhg12rcd13ifvqf60","pricing_plan_id":"cebpf4jnsgd1na2vs0mg"},{"bike_id":"12b24e2a-4be7-464b-9806-654fb18ccbfd","system_id":"levelo_inurba_marseille","lat":43.31169,"lon":5.38714,"is_reserved":false,"is_disabled":false,"rental_uris":{"android":"levelo://app?vid=12b24e2a-4be7-464b-9806-654fb18ccbfd","ios":"levelo://app?vid=12b24e2a-4be7-464b-9806-654fb18ccbfd"},"vehicle_type_id":"4","last_reported":1741086509,"current_range_meters":12400,"station_id":"ce4bgv12rcd13ifvqcp0","pricing_plan_id":"cebpf4jnsgd1na2vs0mg"},{"bike_id":"0486ce8c-9fb0-46de-ac92-e1a936ade9fb","system_id":"levelo_inurba_marseille","lat":43.3043,"lon":5.39753,"is_reserved":false,"is_disabled":false,"rental_uris":{"android":"levelo://app?vid=0486ce8c-9fb0-46de-ac92-e1a936ade9fb","ios":"levelo://app?vid=0486ce8c-9fb0-46de-ac92-e1a936ade9fb"},"vehicle_type_id":"4","last_reported":1741086509,"current_range_meters":16800,"station_id":"ce4bh092rcd13ifvqd20","pricing_plan_id":"cebpf4jnsgd1na2vs0mg"},{"bike_id":"9a6b1dcb-3594-4bb4-ab0b-6b30c24a905b","system_id":"levelo_inurba_marseille","lat":43.23158,"lon":5.43709,"is_reserved":false,"is_disabled":false,"rental_uris":{"android":"levelo://app?vid=9a6b1dcb-3594-4bb4-ab0b-6b30c24a905b","ios":"levelo://app?vid=9a6b1dcb-3594-4bb4-ab0b-6b30c24a905b"},"vehicle_type_id":"4","last_reported":1741086509,"current_range_meters":16800,"station_id":"ce4bhmp2rcd13ifvqgog","pricing_plan_id":"cebpf4jnsgd1na2vs0mg"},{"bike_id":"8b7b3e92-fc3d-4aa6-9b62-d67a99ca8207","system_id":"levelo_inurba_marseille","lat":43.27486,"lon":5.42406,"is_reserved":false,"is_disabled":false,"rental_uris":{"android":"levelo://app?vid=8b7b3e92-fc3d-4aa6-9b62-d67a99ca8207","ios":"levelo://app?vid=8b7b3e92-fc3d-4aa6-9b62-d67a99ca8207"},"vehicle_type_id":"4","last_reported":1741086509,"current_range_meters":16800,"station_id":"ce4bhn92rcd13ifvqgrg","pricing_plan_id":"cebpf4jnsgd1na2vs0mg"},{"bike_id":"7ad449bc-99c2-472f-b781-ad26766d1190","system_id":"levelo_inurba_marseille","lat":43.26081,"lon":5.39389,"is_reserved":false,"is_disabled":false,"rental_uris":{"android":"levelo://app?vid=7ad449bc-99c2-472f-b781-ad26766d1190","ios":"levelo://app?vid=7ad449bc-99c2-472f-b781-ad26766d1190"},"vehicle_type_id":"4","last_reported":1741086509,"current_range_meters":16800,"station_id":"ce4bhh92rcd13ifvqfj0","pricing_plan_id":"cebpf4jnsgd1na2vs0mg"},{"bike_id":"473831e8-158d-4493-b4a5-460bb983c029","system_id":"levelo_inurba_marseille","lat":43.29251,"lon":5.40908,"is_reserved":false,"is_disabled":false,"rental_uris":{"android":"levelo://app?vid=473831e8-158d-4493-b4a5-460bb983c029","ios":"levelo://app?vid=473831e8-158d-4493-b4a5-460bb983c029"},"vehicle_type_id":"4","last_reported":1741086509,"current_range_meters":16800,"station_id":"ce4bh192rcd13ifvqdc0","pricing_plan_id":"cebpf4jnsgd1na2vs0mg"},{"bike_id":"4d4e5c64-3576-46f5-a6ab-213eaa69e385","system_id":"levelo_inurba_marseille","lat":43.25819,"lon":5.39421,"is_reserved":false,"is_disabled":false,"rental_uris":{"android":"levelo://app?vid=4d4e5c64-3576-46f5-a6ab-213eaa69e385","ios":"levelo://app?vid=4d4e5c64-3576-46f5-a6ab-213eaa69e385"},"vehicle_type_id":"4","last_reported":1741086509,"current_range_meters":17200,"station_id":"ce4bhip2rcd13ifvqft0","pricing_plan_id":"cebpf4jnsgd1na2vs0mg"},{"bike_id":"a8207bee-615e-4c57-83d6-a457b5ec87a7","system_id":"levelo_inurba_marseille","lat":43.25939,"lon":5.40897,"is_reserved":false,"is_disabled":false,"rental_uris":{"android":"levelo://app?vid=a8207bee-615e-4c57-83d6-a457b5ec87a7","ios":"levelo://app?vid=a8207bee-615e-4c57-83d6-a457b5ec87a7"},"vehicle_type_id":"4","last_reported":1741086509,"current_range_meters":17200,"station_id":"ce4bhm92rcd13ifvqglg","pricing_plan_id":"cebpf4jnsgd1na2vs0mg"},{"bike_id":"bb53765b-55cd-43b6-85fd-347f3b6fa24c","system_id":"levelo_inurba_marseille","lat":43.337444,"lon":5.374475,"is_reserved":false,"is_disabled":true,"rental_uris":{"android":"levelo://app?vid=bb53765b-55cd-43b6-85fd-347f3b6fa24c","ios":"levelo://app?vid=bb53765b-55cd-43b6-85fd-347f3b6fa24c"},"vehicle_type_id":"4","last_reported":1741086509,"current_range_meters":17200,"station_id":"","pricing_plan_id":"cebpf4jnsgd1na2vs0mg"},{"bike_id":"40b437af-755f-4b5b-8911-90fb71eadb4a","system_id":"levelo_inurba_marseille","lat":43.3132,"lon":5.38521,"is_reserved":false,"is_disabled":false,"rental_uris":{"android":"levelo://app?vid=40b437af-755f-4b5b-8911-90fb71eadb4a","ios":"levelo://app?vid=40b437af-755f-4b5b-8911-90fb71eadb4a"},"vehicle_type_id":"4","last_reported":1741086509,"current_range_meters":17600,"station_id":"ce4bhap2rcd13ifvqek0","pricing_plan_id":"cebpf4jnsgd1na2vs0mg"},{"bike_id":"e09ee17a-ff33-4395-b49d-7a483c98a109","system_id":"levelo_inurba_marseille","lat":43.26067,"lon":5.39396,"is_reserved":false,"is_disabled":false,"rental_uris":{"android":"levelo://app?vid=e09ee17a-ff33-4395-b49d-7a483c98a109","ios":"levelo://app?vid=e09ee17a-ff33-4395-b49d-7a483c98a109"},"vehicle_type_id":"4","last_reported":1741086509,"current_range_meters":16400,"station_id":"ce4bhh92rcd13ifvqfj0","pricing_plan_id":"cebpf4jnsgd1na2vs0mg"},{"bike_id":"0887995a-7163-48cf-a17f-e3237da9ea00","system_id":"levelo_inurba_marseille","lat":43.23183,"lon":5.39985,"is_reserved":false,"is_disabled":false,"rental_uris":{"android":"levelo://app?vid=0887995a-7163-48cf-a17f-e3237da9ea00","ios":"levelo://app?vid=0887995a-7163-48cf-a17f-e3237da9ea00"},"vehicle_type_id":"4","last_reported":1741086509,"current_range_meters":17200,"station_id":"ce4bhn12rcd13ifvqgqg","pricing_plan_id":"cebpf4jnsgd1na2vs0mg"},{"bike_id":"90e13c30-d4f0-4591-88ab-bad2e8e65e6f","system_id":"levelo_inurba_marseille","lat":43.27495,"lon":5.42455,"is_reserved":false,"is_disabled":false,"rental_uris":{"android":"levelo://app?vid=90e13c30-d4f0-4591-88ab-bad2e8e65e6f","ios":"levelo://app?vid=90e13c30-d4f0-4591-88ab-bad2e8e65e6f"},"vehicle_type_id":"4","last_reported":1741086509,"current_range_meters":17600,"station_id":"ce4bhn92rcd13ifvqgrg","pricing_plan_id":"cebpf4jnsgd1na2vs0mg"},{"bike_id":"c5e03c3f-8ffe-4965-9649-6f4ed1bac55f","system_id":"levelo_inurba_marseille","lat":43.31238,"lon":5.36867,"is_reserved":false,"is_disabled":false,"rental_uris":{"android":"levelo://app?vid=c5e03c3f-8ffe-4965-9649-6f4ed1bac55f","ios":"levelo://app?vid=c5e03c3f-8ffe-4965-9649-6f4ed1bac55f"},"vehicle_type_id":"4","last_reported":1741086509,"current_range_meters":17600,"station_id":"ce4bgl92rcd13ifvqbq0","pricing_plan_id":"cebpf4jnsgd1na2vs0mg"},{"bike_id":"66c0fcb9-fcc3-4bd3-a427-88daa8853214","system_id":"levelo_inurba_marseille","lat":43.24075,"lon":5.37759,"is_reserved":false,"is_disabled":false,"rental_uris":{"android":"levelo://app?vid=66c0fcb9-fcc3-4bd3-a427-88daa8853214","ios":"levelo://app?vid=66c0fcb9-fcc3-4bd3-a427-88daa8853214"},"vehicle_type_id":"4","last_reported":1741086509,"current_range_meters":17200,"station_id":"ce4bhnp2rcd13ifvqgvg","pricing_plan_id":"cebpf4jnsgd1na2vs0mg"},{"bike_id":"59913f31-a035-4f89-97de-5554ff6a5b2e","system_id":"levelo_inurba_marseille","lat":43.26682,"lon":5.38265,"is_reserved":false,"is_disabled":false,"rental_uris":{"android":"levelo://app?vid=59913f31-a035-4f89-97de-5554ff6a5b2e","ios":"levelo://app?vid=59913f31-a035-4f89-97de-5554ff6a5b2e"},"vehicle_type_id":"4","last_reported":1741086509,"current_range_meters":17600,"station_id":"ce4bhg92rcd13ifvqf90","pricing_plan_id":"cebpf4jnsgd1na2vs0mg"},{"bike_id":"bdd24298-7134-4d6c-89d2-95c4299d5167","system_id":"levelo_inurba_marseille","lat":43.30278,"lon":5.37708,"is_reserved":false,"is_disabled":false,"rental_uris":{"android":"levelo://app?vid=bdd24298-7134-4d6c-89d2-95c4299d5167","ios":"levelo://app?vid=bdd24298-7134-4d6c-89d2-95c4299d5167"},"vehicle_type_id":"4","last_reported":1741086509,"current_range_meters":17600,"station_id":"ce4bguh2rcd13ifvqcj0","pricing_plan_id":"cebpf4jnsgd1na2vs0mg"},{"bike_id":"330426bc-0af9-4c3e-8e4c-6ec10833df11","system_id":"levelo_inurba_marseille","lat":43.299039,"lon":5.436591,"is_reserved":false,"is_disabled":false,"rental_uris":{"android":"levelo://app?vid=330426bc-0af9-4c3e-8e4c-6ec10833df11","ios":"levelo://app?vid=330426bc-0af9-4c3e-8e4c-6ec10833df11"},"vehicle_type_id":"4","last_reported":1741086509,"current_range_meters":17600,"station_id":"ce4bhpp2rcd13ifvqhfg","pricing_plan_id":"cebpf4jnsgd1na2vs0mg"},{"bike_id":"b172a1af-b71c-4a2c-8d00-490eb5f19552","system_id":"levelo_inurba_marseille","lat":43.27221,"lon":5.39191,"is_reserved":false,"is_disabled":false,"rental_uris":{"android":"levelo://app?vid=b172a1af-b71c-4a2c-8d00-490eb5f19552","ios":"levelo://app?vid=b172a1af-b71c-4a2c-8d00-490eb5f19552"},"vehicle_type_id":"4","last_reported":1741086509,"current_range_meters":17600,"station_id":"ce4bhhp2rcd13ifvqfm0","pricing_plan_id":"cebpf4jnsgd1na2vs0mg"},{"bike_id":"2e126455-8427-45bb-8708-f758251512f6","system_id":"levelo_inurba_marseille","lat":43.30185,"lon":5.37388,"is_reserved":false,"is_disabled":false,"rental_uris":{"android":"levelo://app?vid=2e126455-8427-45bb-8708-f758251512f6","ios":"levelo://app?vid=2e126455-8427-45bb-8708-f758251512f6"},"vehicle_type_id":"4","last_reported":1741086509,"current_range_meters":17600,"station_id":"ce4bgs92rcd13ifvqcc0","pricing_plan_id":"cebpf4jnsgd1na2vs0mg"},{"bike_id":"950b5697-6546-453e-b92a-9315dee48622","system_id":"levelo_inurba_marseille","lat":43.26776,"lon":5.39416,"is_reserved":false,"is_disabled":false,"rental_uris":{"android":"levelo://app?vid=950b5697-6546-453e-b92a-9315dee48622","ios":"levelo://app?vid=950b5697-6546-453e-b92a-9315dee48622"},"vehicle_type_id":"4","last_reported":1741086509,"current_range_meters":18000,"station_id":"ce4bhh12rcd13ifvqfg0","pricing_plan_id":"cebpf4jnsgd1na2vs0mg"},{"bike_id":"72dbfb2b-12ad-4deb-a3f1-60d57a712fce","system_id":"levelo_inurba_marseille","lat":43.27205,"lon":5.39171,"is_reserved":false,"is_disabled":false,"rental_uris":{"android":"levelo://app?vid=72dbfb2b-12ad-4deb-a3f1-60d57a712fce","ios":"levelo://app?vid=72dbfb2b-12ad-4deb-a3f1-60d57a712fce"},"vehicle_type_id":"4","last_reported":1741086509,"current_range_meters":18000,"station_id":"ce4bhhp2rcd13ifvqfm0","pricing_plan_id":"cebpf4jnsgd1na2vs0mg"},{"bike_id":"1e8a5e52-01ba-474b-9326-07fb2b181c00","system_id":"levelo_inurba_marseille","lat":43.27945,"lon":5.41041,"is_reserved":false,"is_disabled":false,"rental_uris":{"android":"levelo://app?vid=1e8a5e52-01ba-474b-9326-07fb2b181c00","ios":"levelo://app?vid=1e8a5e52-01ba-474b-9326-07fb2b181c00"},"vehicle_type_id":"4","last_reported":1741086509,"current_range_meters":18000,"station_id":"ce4bhnp2rcd13ifvqh0g","pricing_plan_id":"cebpf4jnsgd1na2vs0mg"},{"bike_id":"cb043aa5-b12e-4484-aef6-71f3828425d0","system_id":"levelo_inurba_marseille","lat":43.279365,"lon":5.410475,"is_reserved":false,"is_disabled":false,"rental_uris":{"android":"levelo://app?vid=cb043aa5-b12e-4484-aef6-71f3828425d0","ios":"levelo://app?vid=cb043aa5-b12e-4484-aef6-71f3828425d0"},"vehicle_type_id":"4","last_reported":1741086509,"current_range_meters":18000,"station_id":"ce4bhnp2rcd13ifvqh0g","pricing_plan_id":"cebpf4jnsgd1na2vs0mg"},{"bike_id":"4865057c-1476-42ee-8ad7-13722a65f5ce","system_id":"levelo_inurba_marseille","lat":43.30945,"lon":5.37257,"is_reserved":false,"is_disabled":false,"rental_uris":{"android":"levelo://app?vid=4865057c-1476-42ee-8ad7-13722a65f5ce","ios":"levelo://app?vid=4865057c-1476-42ee-8ad7-13722a65f5ce"},"vehicle_type_id":"4","last_reported":1741086509,"current_range_meters":22800,"station_id":"","pricing_plan_id":"cebpf4jnsgd1na2vs0mg"},{"bike_id":"c9eb2b4c-65cf-4acb-b353-be61d1ae9d0e","system_id":"levelo_inurba_marseille","lat":43.24649,"lon":5.38171,"is_reserved":false,"is_disabled":false,"rental_uris":{"android":"levelo://app?vid=c9eb2b4c-65cf-4acb-b353-be61d1ae9d0e","ios":"levelo://app?vid=c9eb2b4c-65cf-4acb-b353-be61d1ae9d0e"},"vehicle_type_id":"4","last_reported":1741086509,"current_range_meters":18800,"station_id":"ce4bhih2rcd13ifvqfr0","pricing_plan_id":"cebpf4jnsgd1na2vs0mg"},{"bike_id":"ee59b3a3-0f87-489f-91b5-15c91569f1b2","system_id":"levelo_inurba_marseille","lat":43.24177,"lon":5.3639,"is_reserved":false,"is_disabled":false,"rental_uris":{"android":"levelo://app?vid=ee59b3a3-0f87-489f-91b5-15c91569f1b2","ios":"levelo://app?vid=ee59b3a3-0f87-489f-91b5-15c91569f1b2"},"vehicle_type_id":"4","last_reported":1741086509,"current_range_meters":18800,"station_id":"cpo36qri1sfpv3e86is0","pricing_plan_id":"cebpf4jnsgd1na2vs0mg"},{"bike_id":"5f0e785c-3b0a-4772-82ca-ca82bc7c1c55","system_id":"levelo_inurba_marseille","lat":43.25102,"lon":5.40325,"is_reserved":false,"is_disabled":false,"rental_uris":{"android":"levelo://app?vid=5f0e785c-3b0a-4772-82ca-ca82bc7c1c55","ios":"levelo://app?vid=5f0e785c-3b0a-4772-82ca-ca82bc7c1c55"},"vehicle_type_id":"4","last_reported":1741086509,"current_range_meters":18000,"station_id":"ce4bhlh2rcd13ifvqgig","pricing_plan_id":"cebpf4jnsgd1na2vs0mg"},{"bike_id":"6d818697-4cb6-4240-b011-cdd0c799b755","system_id":"levelo_inurba_marseille","lat":43.2318,"lon":5.39986,"is_reserved":false,"is_disabled":false,"rental_uris":{"android":"levelo://app?vid=6d818697-4cb6-4240-b011-cdd0c799b755","ios":"levelo://app?vid=6d818697-4cb6-4240-b011-cdd0c799b755"},"vehicle_type_id":"4","last_reported":1741086509,"current_range_meters":18800,"station_id":"ce4bhn12rcd13ifvqgqg","pricing_plan_id":"cebpf4jnsgd1na2vs0mg"},{"bike_id":"7e54e7ff-38f2-44b2-b9d5-2b0043f50759","system_id":"levelo_inurba_marseille","lat":43.26693,"lon":5.38275,"is_reserved":false,"is_disabled":false,"rental_uris":{"android":"levelo://app?vid=7e54e7ff-38f2-44b2-b9d5-2b0043f50759","ios":"levelo://app?vid=7e54e7ff-38f2-44b2-b9d5-2b0043f50759"},"vehicle_type_id":"4","last_reported":1741086509,"current_range_meters":18800,"station_id":"ce4bhg92rcd13ifvqf90","pricing_plan_id":"cebpf4jnsgd1na2vs0mg"},{"bike_id":"a65938a1-8312-443d-8dc7-58a85c6ee2f5","system_id":"levelo_inurba_marseille","lat":43.284607,"lon":5.358785,"is_reserved":false,"is_disabled":false,"rental_uris":{"android":"levelo://app?vid=a65938a1-8312-443d-8dc7-58a85c6ee2f5","ios":"levelo://app?vid=a65938a1-8312-443d-8dc7-58a85c6ee2f5"},"vehicle_type_id":"4","last_reported":1741086509,"current_range_meters":18800,"station_id":"ce4bhah2rcd13ifvqei0","pricing_plan_id":"cebpf4jnsgd1na2vs0mg"},{"bike_id":"620b904d-8ec1-436e-a983-dcd10054ac33","system_id":"levelo_inurba_marseille","lat":43.26066,"lon":5.39378,"is_reserved":false,"is_disabled":false,"rental_uris":{"android":"levelo://app?vid=620b904d-8ec1-436e-a983-dcd10054ac33","ios":"levelo://app?vid=620b904d-8ec1-436e-a983-dcd10054ac33"},"vehicle_type_id":"4","last_reported":1741086509,"current_range_meters":18800,"station_id":"ce4bhh92rcd13ifvqfj0","pricing_plan_id":"cebpf4jnsgd1na2vs0mg"},{"bike_id":"61e5782e-fd13-41e9-aa42-171413087bc4","system_id":"levelo_inurba_marseille","lat":43.292421,"lon":5.360621,"is_reserved":false,"is_disabled":false,"rental_uris":{"android":"levelo://app?vid=61e5782e-fd13-41e9-aa42-171413087bc4","ios":"levelo://app?vid=61e5782e-fd13-41e9-aa42-171413087bc4"},"vehicle_type_id":"4","last_reported":1741086509,"current_range_meters":19200,"station_id":"ce4bhbh2rcd13ifvqeqg","pricing_plan_id":"cebpf4jnsgd1na2vs0mg"},{"bike_id":"8a30214a-2aaf-40bf-8db4-0cd8a21b844f","system_id":"levelo_inurba_marseille","lat":43.27054,"lon":5.40261,"is_reserved":false,"is_disabled":false,"rental_uris":{"android":"levelo://app?vid=8a30214a-2aaf-40bf-8db4-0cd8a21b844f","ios":"levelo://app?vid=8a30214a-2aaf-40bf-8db4-0cd8a21b844f"},"vehicle_type_id":"4","last_reported":1741086509,"current_range_meters":19200,"station_id":"ce4bhk92rcd13ifvqgc0","pricing_plan_id":"cebpf4jnsgd1na2vs0mg"},{"bike_id":"f6937094-0266-400d-8427-6843f1415f10","system_id":"levelo_inurba_marseille","lat":43.30429,"lon":5.38888,"is_reserved":false,"is_disabled":false,"rental_uris":{"android":"levelo://app?vid=f6937094-0266-400d-8427-6843f1415f10","ios":"levelo://app?vid=f6937094-0266-400d-8427-6843f1415f10"},"vehicle_type_id":"4","last_reported":1741086509,"current_range_meters":19200,"station_id":"ce4bgk12rcd13ifvqbi0","pricing_plan_id":"cebpf4jnsgd1na2vs0mg"},{"bike_id":"daf4fa4b-ec79-4dbd-838e-edbdfa7594a6","system_id":"levelo_inurba_marseille","lat":43.30876,"lon":5.39639,"is_reserved":false,"is_disabled":false,"rental_uris":{"android":"levelo://app?vid=daf4fa4b-ec79-4dbd-838e-edbdfa7594a6","ios":"levelo://app?vid=daf4fa4b-ec79-4dbd-838e-edbdfa7594a6"},"vehicle_type_id":"4","last_reported":1741086509,"current_range_meters":18800,"station_id":"ce4bh012rcd13ifvqcv0","pricing_plan_id":"cebpf4jnsgd1na2vs0mg"},{"bike_id":"699585bd-af7f-45af-945e-ceb77464b687","system_id":"levelo_inurba_marseille","lat":43.30556,"lon":5.36529,"is_reserved":false,"is_disabled":false,"rental_uris":{"android":"levelo://app?vid=699585bd-af7f-45af-945e-ceb77464b687","ios":"levelo://app?vid=699585bd-af7f-45af-945e-ceb77464b687"},