{"last_updated":1737465351,"ttl":60,"version":"2.2","data":{"bikes":[{"bike_id":"b74b855a-0a8e-44e1-aa63-99dc34613857","system_id":"levelo_inurba_marseille","lat":43.29898,"lon":5.43672,"is_reserved":false,"is_disabled":false,"rental_uris":{"android":"levelo://app?vid=b74b855a-0a8e-44e1-aa63-99dc34613857","ios":"levelo://app?vid=b74b855a-0a8e-44e1-aa63-99dc34613857"},"vehicle_type_id":"4","last_reported":1737465352,"current_range_meters":28800,"station_id":"ce4bhpp2rcd13ifvqhfg","pricing_plan_id":"cebpf4jnsgd1na2vs0mg"},{"bike_id":"689dda7a-7032-4dcd-8149-6c95173bb231","system_id":"levelo_inurba_marseille","lat":43.3055,"lon":5.36534,"is_reserved":false,"is_disabled":false,"rental_uris":{"android":"levelo://app?vid=689dda7a-7032-4dcd-8149-6c95173bb231","ios":"levelo://app?vid=689dda7a-7032-4dcd-8149-6c95173bb231"},"vehicle_type_id":"4","last_reported":1737465352,"current_range_meters":38400,"station_id":"ce4bgs12rcd13ifvqcag","pricing_plan_id":"cebpf4jnsgd1na2vs0mg"},{"bike_id":"09321f67-cf27-418c-af77-a7bb9615c767","system_id":"levelo_inurba_marseille","lat":43.29582,"lon":5.38098,"is_reserved":false,"is_disabled":false,"rental_uris":{"android":"levelo://app?vid=09321f67-cf27-418c-af77-a7bb9615c767","ios":"levelo://app?vid=09321f67-cf27-418c-af77-a7bb9615c767"},"vehicle_type_id":"4","last_reported":1737465352,"current_range_meters":38800,"station_id":"ce4bgl12rcd13ifvqbo0","pricing_plan_id":"cebpf4jnsgd1na2vs0mg"},{"bike_id":"af64160c-1ddf-442c-aba8-bfd72e2963c6","system_id":"levelo_inurba_marseille","lat":43.28461,"lon":5.35897,"is_reserved":false,"is_disabled":false,"rental_uris":{"android":"levelo://app?vid=af64160c-1ddf-442c-aba8-bfd72e2963c6","ios":"levelo://app?vid=af64160c-1ddf-442c-aba8-bfd72e2963c6"},"vehicle_type_id":"4","last_reported":1737465352,"current_range_meters":26000,"station_id":"ce4bhah2rcd13ifvqei0","pricing_plan_id":"cebpf4jnsgd1na2vs0mg"},{"bike_id":"7760d970-1182-495f-8d2c-90ea2db662e3","system_id":"levelo_inurba_marseille","lat":43.280435,"lon":5.36944,"is_reserved":false,"is_disabled":false,"rental_uris":{"android":"levelo://app?vid=7760d970-1182-495f-8d2c-90ea2db662e3","ios":"levelo://app?vid=7760d970-1182-495f-8d2c-90ea2db662e3"},"vehicle_type_id":"4","last_reported":1737465352,"current_range_meters":39200,"station_id":"ce4bha12rcd13ifvqef0","pricing_plan_id":"cebpf4jnsgd1na2vs0mg"},{"bike_id":"22f8418b-ddcd-4586-98d5-0a95892ef5b8","system_id":"levelo_inurba_marseille","lat":43.30143,"lon":5.37414,"is_reserved":false,"is_disabled":false,"rental_uris":{"android":"levelo://app?vid=22f8418b-ddcd-4586-98d5-0a95892ef5b8","ios":"levelo://app?vid=22f8418b-ddcd-4586-98d5-0a95892ef5b8"},"vehicle_type_id":"4","last_reported":1737465352,"current_range_meters":39200,"station_id":"ce4bgs92rcd13ifvqcc0","pricing_plan_id":"cebpf4jnsgd1na2vs0mg"},{"bike_id":"dbfc6bbb-0554-4b09-9ba3-6a0d99a97020","system_id":"levelo_inurba_marseille","lat":43.30542,"lon":5.38428,"is_reserved":false,"is_disabled":false,"rental_uris":{"android":"levelo://app?vid=dbfc6bbb-0554-4b09-9ba3-6a0d99a97020","ios":"levelo://app?vid=dbfc6bbb-0554-4b09-9ba3-6a0d99a97020"},"vehicle_type_id":"4","last_reported":1737465352,"current_range_meters":38800,"station_id":"ce4bgg92rcd13ifvqb30","pricing_plan_id":"cebpf4jnsgd1na2vs0mg"},{"bike_id":"3d677819-dca9-44f2-992b-473366abcd56","system_id":"levelo_inurba_marseille","lat":43.27494,"lon":5.42451,"is_reserved":false,"is_disabled":false,"rental_uris":{"android":"levelo://app?vid=3d677819-dca9-44f2-992b-473366abcd56","ios":"levelo://app?vid=3d677819-dca9-44f2-992b-473366abcd56"},"vehicle_type_id":"4","last_reported":1737465352,"current_range_meters":28000,"station_id":"ce4bhn92rcd13ifvqgrg","pricing_plan_id":"cebpf4jnsgd1na2vs0mg"},{"bike_id":"0efcb19d-a5d5-4cbb-a0ba-146fb16ac38e","system_id":"levelo_inurba_marseille","lat":43.30564,"lon":5.36539,"is_reserved":false,"is_disabled":false,"rental_uris":{"android":"levelo://app?vid=0efcb19d-a5d5-4cbb-a0ba-146fb16ac38e","ios":"levelo://app?vid=0efcb19d-a5d5-4cbb-a0ba-146fb16ac38e"},"vehicle_type_id":"4","last_reported":1737465352,"current_range_meters":38800,"station_id":"ce4bgs12rcd13ifvqcag","pricing_plan_id":"cebpf4jnsgd1na2vs0mg"},{"bike_id":"aecd92b5-249f-465a-af6d-c2738982b49a","system_id":"levelo_inurba_marseille","lat":43.30464,"lon":5.3791,"is_reserved":false,"is_disabled":false,"rental_uris":{"android":"levelo://app?vid=aecd92b5-249f-465a-af6d-c2738982b49a","ios":"levelo://app?vid=aecd92b5-249f-465a-af6d-c2738982b49a"},"vehicle_type_id":"4","last_reported":1737465352,"current_range_meters":3600,"station_id":"ce4bgup2rcd13ifvqcn0","pricing_plan_id":"cebpf4jnsgd1na2vs0mg"},{"bike_id":"de6c3ea9-ddfb-45b0-9a99-8c4f234f7bc2","system_id":"levelo_inurba_marseille","lat":43.2961,"lon":5.38103,"is_reserved":false,"is_disabled":false,"rental_uris":{"android":"levelo://app?vid=de6c3ea9-ddfb-45b0-9a99-8c4f234f7bc2","ios":"levelo://app?vid=de6c3ea9-ddfb-45b0-9a99-8c4f234f7bc2"},"vehicle_type_id":"4","last_reported":1737465352,"current_range_meters":35200,"station_id":"ce4bgl12rcd13ifvqbo0","pricing_plan_id":"cebpf4jnsgd1na2vs0mg"},{"bike_id":"73169cd6-f9a0-45a0-a1c3-b786228af92a","system_id":"levelo_inurba_marseille","lat":43.30472,"lon":5.379,"is_reserved":false,"is_disabled":false,"rental_uris":{"android":"levelo://app?vid=73169cd6-f9a0-45a0-a1c3-b786228af92a","ios":"levelo://app?vid=73169cd6-f9a0-45a0-a1c3-b786228af92a"},"vehicle_type_id":"4","last_reported":1737465352,"current_range_meters":36000,"station_id":"ce4bgup2rcd13ifvqcn0","pricing_plan_id":"cebpf4jnsgd1na2vs0mg"},{"bike_id":"48a4db89-2f72-4ee8-b0ea-b0bc6e5aab84","system_id":"levelo_inurba_marseille","lat":43.26072,"lon":5.39377,"is_reserved":false,"is_disabled":false,"rental_uris":{"android":"levelo://app?vid=48a4db89-2f72-4ee8-b0ea-b0bc6e5aab84","ios":"levelo://app?vid=48a4db89-2f72-4ee8-b0ea-b0bc6e5aab84"},"vehicle_type_id":"4","last_reported":1737465352,"current_range_meters":38800,"station_id":"ce4bhh92rcd13ifvqfj0","pricing_plan_id":"cebpf4jnsgd1na2vs0mg"},{"bike_id":"06cfd958-c471-4dfe-8613-29275f91d3d2","system_id":"levelo_inurba_marseille","lat":43.29058,"lon":5.37155,"is_reserved":false,"is_disabled":false,"rental_uris":{"android":"levelo://app?vid=06cfd958-c471-4dfe-8613-29275f91d3d2","ios":"levelo://app?vid=06cfd958-c471-4dfe-8613-29275f91d3d2"},"vehicle_type_id":"4","last_reported":1737465352,"current_range_meters":7200,"station_id":"ce4bh5p2rcd13ifvqe4g","pricing_plan_id":"cebpf4jnsgd1na2vs0mg"},{"bike_id":"f64eb19b-2c3f-4c54-84bb-9c571ae63866","system_id":"levelo_inurba_marseille","lat":43.25117,"lon":5.40329,"is_reserved":false,"is_disabled":false,"rental_uris":{"android":"levelo://app?vid=f64eb19b-2c3f-4c54-84bb-9c571ae63866","ios":"levelo://app?vid=f64eb19b-2c3f-4c54-84bb-9c571ae63866"},"vehicle_type_id":"4","last_reported":1737465352,"current_range_meters":37600,"station_id":"ce4bhlh2rcd13ifvqgig","pricing_plan_id":"cebpf4jnsgd1na2vs0mg"},{"bike_id":"54e47bbf-d358-4fc6-9623-23d2eb6b92a9","system_id":"levelo_inurba_marseille","lat":43.276747,"lon":5.388474,"is_reserved":false,"is_disabled":true,"rental_uris":{"android":"levelo://app?vid=54e47bbf-d358-4fc6-9623-23d2eb6b92a9","ios":"levelo://app?vid=54e47bbf-d358-4fc6-9623-23d2eb6b92a9"},"vehicle_type_id":"4","last_reported":1737465352,"current_range_meters":12400,"station_id":"","pricing_plan_id":"cebpf4jnsgd1na2vs0mg"},{"bike_id":"a2771881-b956-4a9a-9bc9-a89642d437c9","system_id":"levelo_inurba_marseille","lat":43.23204,"lon":5.35548,"is_reserved":false,"is_disabled":false,"rental_uris":{"android":"levelo://app?vid=a2771881-b956-4a9a-9bc9-a89642d437c9","ios":"levelo://app?vid=a2771881-b956-4a9a-9bc9-a89642d437c9"},"vehicle_type_id":"4","last_reported":1737465352,"current_range_meters":38800,"station_id":"ce4bhu92rcd13ifvqi70","pricing_plan_id":"cebpf4jnsgd1na2vs0mg"},{"bike_id":"38deec00-54a4-4647-b71a-a7db3d6a1353","system_id":"levelo_inurba_marseille","lat":43.32101,"lon":5.36792,"is_reserved":false,"is_disabled":false,"rental_uris":{"android":"levelo://app?vid=38deec00-54a4-4647-b71a-a7db3d6a1353","ios":"levelo://app?vid=38deec00-54a4-4647-b71a-a7db3d6a1353"},"vehicle_type_id":"4","last_reported":1737465352,"current_range_meters":12800,"station_id":"ce4bhrh2rcd13ifvqhug","pricing_plan_id":"cebpf4jnsgd1na2vs0mg"},{"bike_id":"0d78df30-723c-4495-9e80-871e3dcd593f","system_id":"levelo_inurba_marseille","lat":43.30139,"lon":5.37427,"is_reserved":false,"is_disabled":false,"rental_uris":{"android":"levelo://app?vid=0d78df30-723c-4495-9e80-871e3dcd593f","ios":"levelo://app?vid=0d78df30-723c-4495-9e80-871e3dcd593f"},"vehicle_type_id":"4","last_reported":1737465352,"current_range_meters":39200,"station_id":"ce4bgs92rcd13ifvqcc0","pricing_plan_id":"cebpf4jnsgd1na2vs0mg"},{"bike_id":"eafe0bcf-617f-4973-bdf9-44073c9c81a7","system_id":"levelo_inurba_marseille","lat":43.27494,"lon":5.42452,"is_reserved":false,"is_disabled":false,"rental_uris":{"android":"levelo://app?vid=eafe0bcf-617f-4973-bdf9-44073c9c81a7","ios":"levelo://app?vid=eafe0bcf-617f-4973-bdf9-44073c9c81a7"},"vehicle_type_id":"4","last_reported":1737465352,"current_range_meters":24000,"station_id":"ce4bhn92rcd13ifvqgrg","pricing_plan_id":"cebpf4jnsgd1na2vs0mg"},{"bike_id":"d29f90ef-576b-417e-82e9-944e6b255e68","system_id":"levelo_inurba_marseille","lat":43.30431,"lon":5.38908,"is_reserved":false,"is_disabled":true,"rental_uris":{"android":"levelo://app?vid=d29f90ef-576b-417e-82e9-944e6b255e68","ios":"levelo://app?vid=d29f90ef-576b-417e-82e9-944e6b255e68"},"vehicle_type_id":"4","last_reported":1737465352,"current_range_meters":2000,"station_id":"ce4bgk12rcd13ifvqbi0","pricing_plan_id":"cebpf4jnsgd1na2vs0mg"},{"bike_id":"d07b2279-a1f4-4e07-a311-73b4f7f2bf4b","system_id":"levelo_inurba_marseille","lat":43.2904,"lon":5.37565,"is_reserved":false,"is_disabled":false,"rental_uris":{"android":"levelo://app?vid=d07b2279-a1f4-4e07-a311-73b4f7f2bf4b","ios":"levelo://app?vid=d07b2279-a1f4-4e07-a311-73b4f7f2bf4b"},"vehicle_type_id":"4","last_reported":1737465352,"current_range_meters":33600,"station_id":"ce4bh692rcd13ifvqe90","pricing_plan_id":"cebpf4jnsgd1na2vs0mg"},{"bike_id":"1bee7fe9-84f7-4288-a78b-f8594eb507fc","system_id":"levelo_inurba_marseille","lat":43.2679,"lon":5.40273,"is_reserved":false,"is_disabled":true,"rental_uris":{"android":"levelo://app?vid=1bee7fe9-84f7-4288-a78b-f8594eb507fc","ios":"levelo://app?vid=1bee7fe9-84f7-4288-a78b-f8594eb507fc"},"vehicle_type_id":"4","last_reported":1737465352,"current_range_meters":38800,"station_id":"ce501612rcd8frsf0b60","pricing_plan_id":"cebpf4jnsgd1na2vs0mg"},{"bike_id":"f927862b-a9a0-4d1d-be64-143392c27d77","system_id":"levelo_inurba_marseille","lat":43.3123,"lon":5.36868,"is_reserved":false,"is_disabled":false,"rental_uris":{"android":"levelo://app?vid=f927862b-a9a0-4d1d-be64-143392c27d77","ios":"levelo://app?vid=f927862b-a9a0-4d1d-be64-143392c27d77"},"vehicle_type_id":"4","last_reported":1737465352,"current_range_meters":26800,"station_id":"ce4bgl92rcd13ifvqbq0","pricing_plan_id":"cebpf4jnsgd1na2vs0mg"},{"bike_id":"d6ca0b1d-04e3-47fb-b6b5-bea0b8a2188f","system_id":"levelo_inurba_marseille","lat":43.28735,"lon":5.37954,"is_reserved":false,"is_disabled":false,"rental_uris":{"android":"levelo://app?vid=d6ca0b1d-04e3-47fb-b6b5-bea0b8a2188f","ios":"levelo://app?vid=d6ca0b1d-04e3-47fb-b6b5-bea0b8a2188f"},"vehicle_type_id":"4","last_reported":1737465352,"current_range_meters":2800,"station_id":"ce4bh9p2rcd13ifvqec0","pricing_plan_id":"cebpf4jnsgd1na2vs0mg"},{"bike_id":"e87016fb-66e9-45c3-ae3b-d82280cf2ed7","system_id":"levelo_inurba_marseille","lat":43.3255,"lon":5.4144,"is_reserved":false,"is_disabled":false,"rental_uris":{"android":"levelo://app?vid=e87016fb-66e9-45c3-ae3b-d82280cf2ed7","ios":"levelo://app?vid=e87016fb-66e9-45c3-ae3b-d82280cf2ed7"},"vehicle_type_id":"4","last_reported":1737465352,"current_range_meters":26800,"station_id":"ce4bhq12rcd13ifvqhhg","pricing_plan_id":"cebpf4jnsgd1na2vs0mg"},{"bike_id":"ad3665cc-4757-4e98-9e3b-b3f13103b812","system_id":"levelo_inurba_marseille","lat":43.29612,"lon":5.37717,"is_reserved":false,"is_disabled":false,"rental_uris":{"android":"levelo://app?vid=ad3665cc-4757-4e98-9e3b-b3f13103b812","ios":"levelo://app?vid=ad3665cc-4757-4e98-9e3b-b3f13103b812"},"vehicle_type_id":"4","last_reported":1737465352,"current_range_meters":12000,"station_id":"ce4bgi92rcd13ifvqb90","pricing_plan_id":"cebpf4jnsgd1na2vs0mg"},{"bike_id":"ab7b1d7a-8ae0-4c4a-9611-7e663b41825a","system_id":"levelo_inurba_marseille","lat":43.32294,"lon":5.38292,"is_reserved":false,"is_disabled":false,"rental_uris":{"android":"levelo://app?vid=ab7b1d7a-8ae0-4c4a-9611-7e663b41825a","ios":"levelo://app?vid=ab7b1d7a-8ae0-4c4a-9611-7e663b41825a"},"vehicle_type_id":"4","last_reported":1737465352,"current_range_meters":39200,"station_id":"ce4bhr12rcd13ifvqhqg","pricing_plan_id":"cebpf4jnsgd1na2vs0mg"},{"bike_id":"d4a18e16-6eb1-455f-9f8d-52c212244e83","system_id":"levelo_inurba_marseille","lat":43.27816,"lon":5.40507,"is_reserved":false,"is_disabled":true,"rental_uris":{"android":"levelo://app?vid=d4a18e16-6eb1-455f-9f8d-52c212244e83","ios":"levelo://app?vid=d4a18e16-6eb1-455f-9f8d-52c212244e83"},"vehicle_type_id":"4","last_reported":1737465352,"current_range_meters":0,"station_id":"","pricing_plan_id":"cebpf4jnsgd1na2vs0mg"},{"bike_id":"9a46fc70-7cd3-48e2-808e-3b382fbb61cd","system_id":"levelo_inurba_marseille","lat":43.23146,"lon":5.4372,"is_reserved":false,"is_disabled":false,"rental_uris":{"android":"levelo://app?vid=9a46fc70-7cd3-48e2-808e-3b382fbb61cd","ios":"levelo://app?vid=9a46fc70-7cd3-48e2-808e-3b382fbb61cd"},"vehicle_type_id":"4","last_reported":1737465352,"current_range_meters":14400,"station_id":"ce4bhmp2rcd13ifvqgog","pricing_plan_id":"cebpf4jnsgd1na2vs0mg"},{"bike_id":"8ea597b6-dee5-4ccf-9323-d90cada93c41","system_id":"levelo_inurba_marseille","lat":43.29066,"lon":5.3717,"is_reserved":false,"is_disabled":false,"rental_uris":{"android":"levelo://app?vid=8ea597b6-dee5-4ccf-9323-d90cada93c41","ios":"levelo://app?vid=8ea597b6-dee5-4ccf-9323-d90cada93c41"},"vehicle_type_id":"4","last_reported":1737465352,"current_range_meters":22000,"station_id":"ce4bh5p2rcd13ifvqe4g","pricing_plan_id":"cebpf4jnsgd1na2vs0mg"},{"bike_id":"227d4ac6-e6e3-42e5-b7a5-8c29ce937191","system_id":"levelo_inurba_marseille","lat":43.27949,"lon":5.38652,"is_reserved":false,"is_disabled":false,"rental_uris":{"android":"levelo://app?vid=227d4ac6-e6e3-42e5-b7a5-8c29ce937191","ios":"levelo://app?vid=227d4ac6-e6e3-42e5-b7a5-8c29ce937191"},"vehicle_type_id":"4","last_reported":1737465352,"current_range_meters":29600,"station_id":"","pricing_plan_id":"cebpf4jnsgd1na2vs0mg"},{"bike_id":"d91be513-c350-4df2-80c9-9eac41eaf470","system_id":"levelo_inurba_marseille","lat":43.27979,"lon":5.38729,"is_reserved":false,"is_disabled":true,"rental_uris":{"android":"levelo://app?vid=d91be513-c350-4df2-80c9-9eac41eaf470","ios":"levelo://app?vid=d91be513-c350-4df2-80c9-9eac41eaf470"},"vehicle_type_id":"4","last_reported":1737465352,"current_range_meters":0,"station_id":"ce4bhg12rcd13ifvqf80","pricing_plan_id":"cebpf4jnsgd1na2vs0mg"},{"bike_id":"14baa681-a37d-48a5-bcc0-195cc39f5b40","system_id":"levelo_inurba_marseille","lat":43.29426,"lon":5.38642,"is_reserved":false,"is_disabled":false,"rental_uris":{"android":"levelo://app?vid=14baa681-a37d-48a5-bcc0-195cc39f5b40","ios":"levelo://app?vid=14baa681-a37d-48a5-bcc0-195cc39f5b40"},"vehicle_type_id":"4","last_reported":1737465352,"current_range_meters":18800,"station_id":"ce4bgj92rcd13ifvqbd0","pricing_plan_id":"cebpf4jnsgd1na2vs0mg"},{"bike_id":"2013d2d2-593d-4dd7-bc08-8296754af443","system_id":"levelo_inurba_marseille","lat":43.27504,"lon":5.42447,"is_reserved":false,"is_disabled":false,"rental_uris":{"android":"levelo://app?vid=2013d2d2-593d-4dd7-bc08-8296754af443","ios":"levelo://app?vid=2013d2d2-593d-4dd7-bc08-8296754af443"},"vehicle_type_id":"4","last_reported":1737465352,"current_range_meters":14000,"station_id":"ce4bhn92rcd13ifvqgrg","pricing_plan_id":"cebpf4jnsgd1na2vs0mg"},{"bike_id":"7713b736-42c7-418d-9664-842f15f64aef","system_id":"levelo_inurba_marseille","lat":43.30156,"lon":5.3809,"is_reserved":false,"is_disabled":false,"rental_uris":{"android":"levelo://app?vid=7713b736-42c7-418d-9664-842f15f64aef","ios":"levelo://app?vid=7713b736-42c7-418d-9664-842f15f64aef"},"vehicle_type_id":"4","last_reported":1737465352,"current_range_meters":38000,"station_id":"ce4bgjp2rcd13ifvqbh0","pricing_plan_id":"cebpf4jnsgd1na2vs0mg"},{"bike_id":"c35f2a56-0945-408c-ab7b-059d91aadb6e","system_id":"levelo_inurba_marseille","lat":43.25922,"lon":5.40894,"is_reserved":false,"is_disabled":false,"rental_uris":{"android":"levelo://app?vid=c35f2a56-0945-408c-ab7b-059d91aadb6e","ios":"levelo://app?vid=c35f2a56-0945-408c-ab7b-059d91aadb6e"},"vehicle_type_id":"4","last_reported":1737465352,"current_range_meters":22000,"station_id":"ce4bhm92rcd13ifvqglg","pricing_plan_id":"cebpf4jnsgd1na2vs0mg"},{"bike_id":"be58a590-3c72-4dc9-8170-555d268bc80e","system_id":"levelo_inurba_marseille","lat":43.28155,"lon":5.42647,"is_reserved":false,"is_disabled":false,"rental_uris":{"android":"levelo://app?vid=be58a590-3c72-4dc9-8170-555d268bc80e","ios":"levelo://app?vid=be58a590-3c72-4dc9-8170-555d268bc80e"},"vehicle_type_id":"4","last_reported":1737465352,"current_range_meters":35200,"station_id":"ce4bhnh2rcd13ifvqgug","pricing_plan_id":"cebpf4jnsgd1na2vs0mg"},{"bike_id":"53e56092-bf59-4d37-8073-3e35714bc05d","system_id":"levelo_inurba_marseille","lat":43.231502,"lon":5.43722,"is_reserved":false,"is_disabled":false,"rental_uris":{"android":"levelo://app?vid=53e56092-bf59-4d37-8073-3e35714bc05d","ios":"levelo://app?vid=53e56092-bf59-4d37-8073-3e35714bc05d"},"vehicle_type_id":"4","last_reported":1737465352,"current_range_meters":17600,"station_id":"ce4bhmp2rcd13ifvqgog","pricing_plan_id":"cebpf4jnsgd1na2vs0mg"},{"bike_id":"89e5d999-b64a-4894-b233-fbd2ca840386","system_id":"levelo_inurba_marseille","lat":43.30907,"lon":5.36852,"is_reserved":false,"is_disabled":false,"rental_uris":{"android":"levelo://app?vid=89e5d999-b64a-4894-b233-fbd2ca840386","ios":"levelo://app?vid=89e5d999-b64a-4894-b233-fbd2ca840386"},"vehicle_type_id":"4","last_reported":1737465352,"current_range_meters":33200,"station_id":"ce4bgn92rcd13ifvqbvg","pricing_plan_id":"cebpf4jnsgd1na2vs0mg"},{"bike_id":"20413ed9-a8c5-435b-b6a4-439304230694","system_id":"levelo_inurba_marseille","lat":43.31712,"lon":5.37743,"is_reserved":false,"is_disabled":false,"rental_uris":{"android":"levelo://app?vid=20413ed9-a8c5-435b-b6a4-439304230694","ios":"levelo://app?vid=20413ed9-a8c5-435b-b6a4-439304230694"},"vehicle_type_id":"4","last_reported":1737465352,"current_range_meters":28400,"station_id":"ce4bgth2rcd13ifvqch0","pricing_plan_id":"cebpf4jnsgd1na2vs0mg"},{"bike_id":"f0af8429-ac7c-4974-b8ef-9e94a78407d7","system_id":"levelo_inurba_marseille","lat":43.29195,"lon":5.39321,"is_reserved":false,"is_disabled":false,"rental_uris":{"android":"levelo://app?vid=f0af8429-ac7c-4974-b8ef-9e94a78407d7","ios":"levelo://app?vid=f0af8429-ac7c-4974-b8ef-9e94a78407d7"},"vehicle_type_id":"4","last_reported":1737465352,"current_range_meters":38000,"station_id":"ce4bh192rcd13ifvqdd0","pricing_plan_id":"cebpf4jnsgd1na2vs0mg"},{"bike_id":"7e4c7ea3-48f8-4aac-8b08-3e4fa595f4e5","system_id":"levelo_inurba_marseille","lat":43.28717,"lon":5.37387,"is_reserved":false,"is_disabled":false,"rental_uris":{"android":"levelo://app?vid=7e4c7ea3-48f8-4aac-8b08-3e4fa595f4e5","ios":"levelo://app?vid=7e4c7ea3-48f8-4aac-8b08-3e4fa595f4e5"},"vehicle_type_id":"4","last_reported":1737465352,"current_range_meters":16000,"station_id":"ce4bh3p2rcd13ifvqdq0","pricing_plan_id":"cebpf4jnsgd1na2vs0mg"},{"bike_id":"cc05f817-9180-4b1d-9894-9bc42431d63f","system_id":"levelo_inurba_marseille","lat":43.30144,"lon":5.37426,"is_reserved":false,"is_disabled":false,"rental_uris":{"android":"levelo://app?vid=cc05f817-9180-4b1d-9894-9bc42431d63f","ios":"levelo://app?vid=cc05f817-9180-4b1d-9894-9bc42431d63f"},"vehicle_type_id":"4","last_reported":1737465352,"current_range_meters":36800,"station_id":"ce4bgs92rcd13ifvqcc0","pricing_plan_id":"cebpf4jnsgd1na2vs0mg"},{"bike_id":"c6aec08a-95b2-468e-b6ba-3552b798296e","system_id":"levelo_inurba_marseille","lat":43.33611,"lon":5.41032,"is_reserved":false,"is_disabled":false,"rental_uris":{"android":"levelo://app?vid=c6aec08a-95b2-468e-b6ba-3552b798296e","ios":"levelo://app?vid=c6aec08a-95b2-468e-b6ba-3552b798296e"},"vehicle_type_id":"4","last_reported":1737465352,"current_range_meters":28400,"station_id":"ce4bhqh2rcd13ifvqhmg","pricing_plan_id":"cebpf4jnsgd1na2vs0mg"},{"bike_id":"be05d6b6-eb4a-4ece-b9fe-d78fc729ca35","system_id":"levelo_inurba_marseille","lat":43.28719,"lon":5.37939,"is_reserved":false,"is_disabled":false,"rental_uris":{"android":"levelo://app?vid=be05d6b6-eb4a-4ece-b9fe-d78fc729ca35","ios":"levelo://app?vid=be05d6b6-eb4a-4ece-b9fe-d78fc729ca35"},"vehicle_type_id":"4","last_reported":1737465352,"current_range_meters":36800,"station_id":"ce4bh9p2rcd13ifvqec0","pricing_plan_id":"cebpf4jnsgd1na2vs0mg"},{"bike_id":"57089681-4dfb-4ed4-9d3a-5124dafb4159","system_id":"levelo_inurba_marseille","lat":43.2706,"lon":5.42288,"is_reserved":false,"is_disabled":false,"rental_uris":{"android":"levelo://app?vid=57089681-4dfb-4ed4-9d3a-5124dafb4159","ios":"levelo://app?vid=57089681-4dfb-4ed4-9d3a-5124dafb4159"},"vehicle_type_id":"4","last_reported":1737465352,"current_range_meters":38800,"station_id":"ce4bhk92rcd13ifvqgb0","pricing_plan_id":"cebpf4jnsgd1na2vs0mg"},{"bike_id":"4a242ce2-1c32-4092-9fe4-bddd9349a0b2","system_id":"levelo_inurba_marseille","lat":43.309807,"lon":5.380498,"is_reserved":false,"is_disabled":false,"rental_uris":{"android":"levelo://app?vid=4a242ce2-1c32-4092-9fe4-bddd9349a0b2","ios":"levelo://app?vid=4a242ce2-1c32-4092-9fe4-bddd9349a0b2"},"vehicle_type_id":"4","last_reported":1737465352,"current_range_meters":27600,"station_id":"ce4bgt12rcd13ifvqce0","pricing_plan_id":"cebpf4jnsgd1na2vs0mg"},{"bike_id":"640c1925-7259-425a-b1ab-a7227ca6884a","system_id":"levelo_inurba_marseille","lat":43.31072,"lon":5.38353,"is_reserved":false,"is_disabled":false,"rental_uris":{"android":"levelo://app?vid=640c1925-7259-425a-b1ab-a7227ca6884a","ios":"levelo://app?vid=640c1925-7259-425a-b1ab-a7227ca6884a"},"vehicle_type_id":"4","last_reported":1737465352,"current_range_meters":17200,"station_id":"ce4bgv92rcd13ifvqcr0","pricing_plan_id":"cebpf4jnsgd1na2vs0mg"},{"bike_id":"580fd682-a63d-4470-bd40-a527c3d7e682","system_id":"levelo_inurba_marseille","lat":43.2501,"lon":5.38922,"is_reserved":false,"is_disabled":false,"rental_uris":{"android":"levelo://app?vid=580fd682-a63d-4470-bd40-a527c3d7e682","ios":"levelo://app?vid=580fd682-a63d-4470-bd40-a527c3d7e682"},"vehicle_type_id":"4","last_reported":1737465352,"current_range_meters":38800,"station_id":"ce4bhgp2rcd13ifvqfd0","pricing_plan_id":"cebpf4jnsgd1na2vs0mg"},{"bike_id":"bcd175e1-1fd1-4b01-ba8a-35156c99c1cc","system_id":"levelo_inurba_marseille","lat":43.31266,"lon":5.40166,"is_reserved":false,"is_disabled":false,"rental_uris":{"android":"levelo://app?vid=bcd175e1-1fd1-4b01-ba8a-35156c99c1cc","ios":"levelo://app?vid=bcd175e1-1fd1-4b01-ba8a-35156c99c1cc"},"vehicle_type_id":"4","last_reported":1737465352,"current_range_meters":4400,"station_id":"ce4bh092rcd13ifvqd30","pricing_plan_id":"cebpf4jnsgd1na2vs0mg"},{"bike_id":"3f7adcb8-552a-4309-bdb8-bd6e87e7c99b","system_id":"levelo_inurba_marseille","lat":43.27499,"lon":5.42451,"is_reserved":false,"is_disabled":false,"rental_uris":{"android":"levelo://app?vid=3f7adcb8-552a-4309-bdb8-bd6e87e7c99b","ios":"levelo://app?vid=3f7adcb8-552a-4309-bdb8-bd6e87e7c99b"},"vehicle_type_id":"4","last_reported":1737465352,"current_range_meters":6800,"station_id":"ce4bhn92rcd13ifvqgrg","pricing_plan_id":"cebpf4jnsgd1na2vs0mg"},{"bike_id":"b5aea792-2176-4d56-adc5-3f01746ffbe5","system_id":"levelo_inurba_marseille","lat":43.27207,"lon":5.39182,"is_reserved":false,"is_disabled":false,"rental_uris":{"android":"levelo://app?vid=b5aea792-2176-4d56-adc5-3f01746ffbe5","ios":"levelo://app?vid=b5aea792-2176-4d56-adc5-3f01746ffbe5"},"vehicle_type_id":"4","last_reported":1737465352,"current_range_meters":37600,"station_id":"ce4bhhp2rcd13ifvqfm0","pricing_plan_id":"cebpf4jnsgd1na2vs0mg"},{"bike_id":"ea24bff1-8ef0-42d3-9502-f00d1e534ce7","system_id":"levelo_inurba_marseille","lat":43.29898,"lon":5.4367,"is_reserved":false,"is_disabled":false,"rental_uris":{"android":"levelo://app?vid=ea24bff1-8ef0-42d3-9502-f00d1e534ce7","ios":"levelo://app?vid=ea24bff1-8ef0-42d3-9502-f00d1e534ce7"},"vehicle_type_id":"4","last_reported":1737465352,"current_range_meters":28800,"station_id":"ce4bhpp2rcd13ifvqhfg","pricing_plan_id":"cebpf4jnsgd1na2vs0mg"},{"bike_id":"89246613-701f-4c68-9d92-02bfec38ebf0","system_id":"levelo_inurba_marseille","lat":43.26814,"lon":5.40262,"is_reserved":false,"is_disabled":false,"rental_uris":{"android":"levelo://app?vid=89246613-701f-4c68-9d92-02bfec38ebf0","ios":"levelo://app?vid=89246613-701f-4c68-9d92-02bfec38ebf0"},"vehicle_type_id":"4","last_reported":1737465352,"current_range_meters":38800,"station_id":"ce501612rcd8frsf0b60","pricing_plan_id":"cebpf4jnsgd1na2vs0mg"},{"bike_id":"ea4936bb-a020-48d0-ad34-8742c0d8a98c","system_id":"levelo_inurba_marseille","lat":43.309,"lon":5.36859,"is_reserved":false,"is_disabled":false,"rental_uris":{"android":"levelo://app?vid=ea4936bb-a020-48d0-ad34-8742c0d8a98c","ios":"levelo://app?vid=ea4936bb-a020-48d0-ad34-8742c0d8a98c"},"vehicle_type_id":"4","last_reported":1737465352,"current_range_meters":30800,"station_id":"ce4bgn92rcd13ifvqbvg","pricing_plan_id":"cebpf4jnsgd1na2vs0mg"},{"bike_id":"31257c94-14b2-42e2-9664-77ef70ea51d9","system_id":"levelo_inurba_marseille","lat":43.32469,"lon":5.36576,"is_reserved":false,"is_disabled":false,"rental_uris":{"android":"levelo://app?vid=31257c94-14b2-42e2-9664-77ef70ea51d9","ios":"levelo://app?vid=31257c94-14b2-42e2-9664-77ef70ea51d9"},"vehicle_type_id":"4","last_reported":1737465352,"current_range_meters":38800,"station_id":"ce4bhs12rcd13ifvqhvg","pricing_plan_id":"cebpf4jnsgd1na2vs0mg"},{"bike_id":"b77fdbed-5f23-4ab3-83f2-b3cae75bce3f","system_id":"levelo_inurba_marseille","lat":43.28719,"lon":5.37935,"is_reserved":false,"is_disabled":false,"rental_uris":{"android":"levelo://app?vid=b77fdbed-5f23-4ab3-83f2-b3cae75bce3f","ios":"levelo://app?vid=b77fdbed-5f23-4ab3-83f2-b3cae75bce3f"},"vehicle_type_id":"4","last_reported":1737465352,"current_range_meters":38400,"station_id":"ce4bh9p2rcd13ifvqec0","pricing_plan_id":"cebpf4jnsgd1na2vs0mg"},{"bike_id":"f92792d1-0411-4612-bea8-abbe1f53205a","system_id":"levelo_inurba_marseille","lat":43.27497,"lon":5.42455,"is_reserved":false,"is_disabled":false,"rental_uris":{"android":"levelo://app?vid=f92792d1-0411-4612-bea8-abbe1f53205a","ios":"levelo://app?vid=f92792d1-0411-4612-bea8-abbe1f53205a"},"vehicle_type_id":"4","last_reported":1737465352,"current_range_meters":32000,"station_id":"ce4bhn92rcd13ifvqgrg","pricing_plan_id":"cebpf4jnsgd1na2vs0mg"},{"bike_id":"b6cc31be-151e-4d56-8839-e71a9cd45b18","system_id":"levelo_inurba_marseille","lat":43.23197,"lon":5.35571,"is_reserved":false,"is_disabled":false,"rental_uris":{"android":"levelo://app?vid=b6cc31be-151e-4d56-8839-e71a9cd45b18","ios":"levelo://app?vid=b6cc31be-151e-4d56-8839-e71a9cd45b18"},"vehicle_type_id":"4","last_reported":1737465352,"current_range_meters":36800,"station_id":"ce4bhu92rcd13ifvqi70","pricing_plan_id":"cebpf4jnsgd1na2vs0mg"},{"bike_id":"1a0a2514-1dbf-4be6-9e23-d2b90daf2f22","system_id":"levelo_inurba_marseille","lat":43.23149,"lon":5.43711,"is_reserved":false,"is_disabled":false,"rental_uris":{"android":"levelo://app?vid=1a0a2514-1dbf-4be6-9e23-d2b90daf2f22","ios":"levelo://app?vid=1a0a2514-1dbf-4be6-9e23-d2b90daf2f22"},"vehicle_type_id":"4","last_reported":1737465352,"current_range_meters":24800,"station_id":"ce4bhmp2rcd13ifvqgog","pricing_plan_id":"cebpf4jnsgd1na2vs0mg"},{"bike_id":"1e2d0724-4724-4845-bb8e-655813ce19e9","system_id":"levelo_inurba_marseille","lat":43.2911,"lon":5.38159,"is_reserved":false,"is_disabled":false,"rental_uris":{"android":"levelo://app?vid=1e2d0724-4724-4845-bb8e-655813ce19e9","ios":"levelo://app?vid=1e2d0724-4724-4845-bb8e-655813ce19e9"},"vehicle_type_id":"4","last_reported":1737465352,"current_range_meters":39200,"station_id":"ce4bh512rcd13ifvqe2g","pricing_plan_id":"cebpf4jnsgd1na2vs0mg"},{"bike_id":"503f4e76-2279-4cdf-a5a2-2531a91f3a3a","system_id":"levelo_inurba_marseille","lat":43.26539,"lon":5.373,"is_reserved":false,"is_disabled":false,"rental_uris":{"android":"levelo://app?vid=503f4e76-2279-4cdf-a5a2-2531a91f3a3a","ios":"levelo://app?vid=503f4e76-2279-4cdf-a5a2-2531a91f3a3a"},"vehicle_type_id":"4","last_reported":1737465352,"current_range_meters":36400,"station_id":"ce4bhg12rcd13ifvqf70","pricing_plan_id":"cebpf4jnsgd1na2vs0mg"},{"bike_id":"28ef1c1e-dd89-43e8-817b-9b489831397b","system_id":"levelo_inurba_marseille","lat":43.2711,"lon":5.39609,"is_reserved":false,"is_disabled":true,"rental_uris":{"android":"levelo://app?vid=28ef1c1e-dd89-43e8-817b-9b489831397b","ios":"levelo://app?vid=28ef1c1e-dd89-43e8-817b-9b489831397b"},"vehicle_type_id":"4","last_reported":1737465352,"current_range_meters":0,"station_id":"","pricing_plan_id":"cebpf4jnsgd1na2vs0mg"},{"bike_id":"bf04cb94-1bb7-4539-a87b-98c1f139ab50","system_id":"levelo_inurba_marseille","lat":43.29929,"lon":5.37486,"is_reserved":false,"is_disabled":false,"rental_uris":{"android":"levelo://app?vid=bf04cb94-1bb7-4539-a87b-98c1f139ab50","ios":"levelo://app?vid=bf04cb94-1bb7-4539-a87b-98c1f139ab50"},"vehicle_type_id":"4","last_reported":1737465352,"current_range_meters":24800,"station_id":"ce4bgjh2rcd13ifvqbg0","pricing_plan_id":"cebpf4jnsgd1na2vs0mg"},{"bike_id":"1b4aa5f8-de69-490f-8c7e-e43d60b5b29f","system_id":"levelo_inurba_marseille","lat":43.26798,"lon":5.39418,"is_reserved":false,"is_disabled":false,"rental_uris":{"android":"levelo://app?vid=1b4aa5f8-de69-490f-8c7e-e43d60b5b29f","ios":"levelo://app?vid=1b4aa5f8-de69-490f-8c7e-e43d60b5b29f"},"vehicle_type_id":"4","last_reported":1737465352,"current_range_meters":36800,"station_id":"ce4bhh12rcd13ifvqfg0","pricing_plan_id":"cebpf4jnsgd1na2vs0mg"},{"bike_id":"973357c8-dead-42ca-92e9-500225bc994c","system_id":"levelo_inurba_marseille","lat":43.33023,"lon":5.39068,"is_reserved":false,"is_disabled":false,"rental_uris":{"android":"levelo://app?vid=973357c8-dead-42ca-92e9-500225bc994c","ios":"levelo://app?vid=973357c8-dead-42ca-92e9-500225bc994c"},"vehicle_type_id":"4","last_reported":1737465352,"current_range_meters":38800,"station_id":"ce4bhr92rcd13ifvqhrg","pricing_plan_id":"cebpf4jnsgd1na2vs0mg"},{"bike_id":"fcd68c93-66be-468c-94e2-34110e104422","system_id":"levelo_inurba_marseille","lat":43.27497,"lon":5.42451,"is_reserved":false,"is_disabled":false,"rental_uris":{"android":"levelo://app?vid=fcd68c93-66be-468c-94e2-34110e104422","ios":"levelo://app?vid=fcd68c93-66be-468c-94e2-34110e104422"},"vehicle_type_id":"4","last_reported":1737465352,"current_range_meters":24000,"station_id":"ce4bhn92rcd13ifvqgrg","pricing_plan_id":"cebpf4jnsgd1na2vs0mg"},{"bike_id":"e1b86826-a513-4fa0-8111-6fab965861d5","system_id":"levelo_inurba_marseille","lat":43.31709,"lon":5.43712,"is_reserved":false,"is_disabled":false,"rental_uris":{"android":"levelo://app?vid=e1b86826-a513-4fa0-8111-6fab965861d5","ios":"levelo://app?vid=e1b86826-a513-4fa0-8111-6fab965861d5"},"vehicle_type_id":"4","last_reported":1737465352,"current_range_meters":16000,"station_id":"ce4bhp92rcd13ifvqhcg","pricing_plan_id":"cebpf4jnsgd1na2vs0mg"},{"bike_id":"584a2a6a-e927-4176-a83e-1ee67ef5c40a","system_id":"levelo_inurba_marseille","lat":43.30152,"lon":5.38081,"is_reserved":false,"is_disabled":false,"rental_uris":{"android":"levelo://app?vid=584a2a6a-e927-4176-a83e-1ee67ef5c40a","ios":"levelo://app?vid=584a2a6a-e927-4176-a83e-1ee67ef5c40a"},"vehicle_type_id":"4","last_reported":1737465352,"current_range_meters":24000,"station_id":"ce4bgjp2rcd13ifvqbh0","pricing_plan_id":"cebpf4jnsgd1na2vs0mg"},{"bike_id":"a054815b-b9b2-4ef9-8aa3-c5266a5cf7bb","system_id":"levelo_inurba_marseille","lat":43.30117,"lon":5.37395,"is_reserved":false,"is_disabled":false,"rental_uris":{"android":"levelo://app?vid=a054815b-b9b2-4ef9-8aa3-c5266a5cf7bb","ios":"levelo://app?vid=a054815b-b9b2-4ef9-8aa3-c5266a5cf7bb"},"vehicle_type_id":"4","last_reported":1737465352,"current_range_meters":38800,"station_id":"ce4bgs92rcd13ifvqcc0","pricing_plan_id":"cebpf4jnsgd1na2vs0mg"},{"bike_id":"ee3a02e7-0486-4c1e-b32e-8abdd1762a67","system_id":"levelo_inurba_marseille","lat":43.27377,"lon":5.36258,"is_reserved":false,"is_disabled":false,"rental_uris":{"android":"levelo://app?vid=ee3a02e7-0486-4c1e-b32e-8abdd1762a67","ios":"levelo://app?vid=ee3a02e7-0486-4c1e-b32e-8abdd1762a67"},"vehicle_type_id":"4","last_reported":1737465352,"current_range_meters":30800,"station_id":"","pricing_plan_id":"cebpf4jnsgd1na2vs0mg"},{"bike_id":"a9667386-5370-4b94-b202-eea81d19e9ae","system_id":"levelo_inurba_marseille","lat":43.30138,"lon":5.387875,"is_reserved":false,"is_disabled":false,"rental_uris":{"android":"levelo://app?vid=a9667386-5370-4b94-b202-eea81d19e9ae","ios":"levelo://app?vid=a9667386-5370-4b94-b202-eea81d19e9ae"},"vehicle_type_id":"4","last_reported":1737465352,"current_range_meters":30800,"station_id":"ce4bghh2rcd13ifvqb60","pricing_plan_id":"cebpf4jnsgd1na2vs0mg"},{"bike_id":"cc0764c1-dbf8-47f9-8777-d502421cbc0d","system_id":"levelo_inurba_marseille","lat":43.29418,"lon":5.38624,"is_reserved":false,"is_disabled":false,"rental_uris":{"android":"levelo://app?vid=cc0764c1-dbf8-47f9-8777-d502421cbc0d","ios":"levelo://app?vid=cc0764c1-dbf8-47f9-8777-d502421cbc0d"},"vehicle_type_id":"4","last_reported":1737465352,"current_range_meters":3600,"station_id":"ce4bh2h2rcd13ifvqdh0","pricing_plan_id":"cebpf4jnsgd1na2vs0mg"},{"bike_id":"6d170c43-ed25-40d3-b88a-cefadd58002d","system_id":"levelo_inurba_marseille","lat":43.33613,"lon":5.41047,"is_reserved":false,"is_disabled":false,"rental_uris":{"android":"levelo://app?vid=6d170c43-ed25-40d3-b88a-cefadd58002d","ios":"levelo://app?vid=6d170c43-ed25-40d3-b88a-cefadd58002d"},"vehicle_type_id":"4","last_reported":1737465352,"current_range_meters":24800,"station_id":"ce4bhqh2rcd13ifvqhmg","pricing_plan_id":"cebpf4jnsgd1na2vs0mg"},{"bike_id":"1bc4f972-1eb6-4a1e-8920-bbde83f7ed86","system_id":"levelo_inurba_marseille","lat":43.309,"lon":5.36866,"is_reserved":false,"is_disabled":false,"rental_uris":{"android":"levelo://app?vid=1bc4f972-1eb6-4a1e-8920-bbde83f7ed86","ios":"levelo://app?vid=1bc4f972-1eb6-4a1e-8920-bbde83f7ed86"},"vehicle_type_id":"4","last_reported":1737465352,"current_range_meters":38800,"station_id":"ce4bgn92rcd13ifvqbvg","pricing_plan_id":"cebpf4jnsgd1na2vs0mg"},{"bike_id":"1f5cb474-798b-4357-9d76-fbb42e648fb5","system_id":"levelo_inurba_marseille","lat":43.286174,"lon":5.351044,"is_reserved":false,"is_disabled":false,"rental_uris":{"android":"levelo://app?vid=1f5cb474-798b-4357-9d76-fbb42e648fb5","ios":"levelo://app?vid=1f5cb474-798b-4357-9d76-fbb42e648fb5"},"vehicle_type_id":"4","last_reported":1737465352,"current_range_meters":15200,"station_id":"ce4bhch2rcd13ifvqeug","pricing_plan_id":"cebpf4jnsgd1na2vs0mg"},{"bike_id":"3fc379d5-6593-4a76-a670-1a466cb28e5c","system_id":"levelo_inurba_marseille","lat":43.30332,"lon":5.40432,"is_reserved":false,"is_disabled":false,"rental_uris":{"android":"levelo://app?vid=3fc379d5-6593-4a76-a670-1a466cb28e5c","ios":"levelo://app?vid=3fc379d5-6593-4a76-a670-1a466cb28e5c"},"vehicle_type_id":"4","last_reported":1737465352,"current_range_meters":20000,"station_id":"ce4bh012rcd13ifvqd10","pricing_plan_id":"cebpf4jnsgd1na2vs0mg"},{"bike_id":"01d474fa-2688-401d-9257-07a06c86ad5d","system_id":"levelo_inurba_marseille","lat":43.23067,"lon":5.35493,"is_reserved":false,"is_disabled":false,"rental_uris":{"android":"levelo://app?vid=01d474fa-2688-401d-9257-07a06c86ad5d","ios":"levelo://app?vid=01d474fa-2688-401d-9257-07a06c86ad5d"},"vehicle_type_id":"4","last_reported":1737465352,"current_range_meters":28400,"station_id":"cpo3342slgdg3j2ifvpg","pricing_plan_id":"cebpf4jnsgd1na2vs0mg"},{"bike_id":"14d59d68-0961-486f-873c-aabbdb9ca44f","system_id":"levelo_inurba_marseille","lat":43.28274,"lon":5.35076,"is_reserved":false,"is_disabled":true,"rental_uris":{"android":"levelo://app?vid=14d59d68-0961-486f-873c-aabbdb9ca44f","ios":"levelo://app?vid=14d59d68-0961-486f-873c-aabbdb9ca44f"},"vehicle_type_id":"4","last_reported":1737465352,"current_range_meters":0,"station_id":"ce4bhbp2rcd13ifvqerg","pricing_plan_id":"cebpf4jnsgd1na2vs0mg"},{"bike_id":"dcae34db-4b8a-4d64-848c-0812678e31f1","system_id":"levelo_inurba_marseille","lat":43.27374,"lon":5.39113,"is_reserved":false,"is_disabled":false,"rental_uris":{"android":"levelo://app?vid=dcae34db-4b8a-4d64-848c-0812678e31f1","ios":"levelo://app?vid=dcae34db-4b8a-4d64-848c-0812678e31f1"},"vehicle_type_id":"4","last_reported":1737465352,"current_range_meters":22800,"station_id":"","pricing_plan_id":"cebpf4jnsgd1na2vs0mg"},{"bike_id":"11c7c02c-d0f3-4744-ae00-776b2f00515e","system_id":"levelo_inurba_marseille","lat":43.26806,"lon":5.40261,"is_reserved":false,"is_disabled":false,"rental_uris":{"android":"levelo://app?vid=11c7c02c-d0f3-4744-ae00-776b2f00515e","ios":"levelo://app?vid=11c7c02c-d0f3-4744-ae00-776b2f00515e"},"vehicle_type_id":"4","last_reported":1737465352,"current_range_meters":38800,"station_id":"ce501612rcd8frsf0b60","pricing_plan_id":"cebpf4jnsgd1na2vs0mg"},{"bike_id":"b1e7c0e3-f276-47c4-8832-08cec6a6eeae","system_id":"levelo_inurba_marseille","lat":43.30549,"lon":5.36718,"is_reserved":false,"is_disabled":false,"rental_uris":{"android":"levelo://app?vid=b1e7c0e3-f276-47c4-8832-08cec6a6eeae","ios":"levelo://app?vid=b1e7c0e3-f276-47c4-8832-08cec6a6eeae"},"vehicle_type_id":"4","last_reported":1737465352,"current_range_meters":38000,"station_id":"ce4bgrp2rcd13ifvqc9g","pricing_plan_id":"cebpf4jnsgd1na2vs0mg"},{"bike_id":"69c5f992-b640-46d6-bd55-6c4390105b36","system_id":"levelo_inurba_marseille","lat":43.29837,"lon":5.36269,"is_reserved":false,"is_disabled":false,"rental_uris":{"android":"levelo://app?vid=69c5f992-b640-46d6-bd55-6c4390105b36","ios":"levelo://app?vid=69c5f992-b640-46d6-bd55-6c4390105b36"},"vehicle_type_id":"4","last_reported":1737465352,"current_range_meters":24000,"station_id":"ce4bgpp2rcd13ifvqc3g","pricing_plan_id":"cebpf4jnsgd1na2vs0mg"},{"bike_id":"188a488e-e122-4c05-97a4-b179fcfd46e1","system_id":"levelo_inurba_marseille","lat":43.29809,"lon":5.3811,"is_reserved":false,"is_disabled":false,"rental_uris":{"android":"levelo://app?vid=188a488e-e122-4c05-97a4-b179fcfd46e1","ios":"levelo://app?vid=188a488e-e122-4c05-97a4-b179fcfd46e1"},"vehicle_type_id":"4","last_reported":1737465352,"current_range_meters":38400,"station_id":"ce4bgip2rcd13ifvqbb0","pricing_plan_id":"cebpf4jnsgd1na2vs0mg"},{"bike_id":"64b66824-f064-4903-8358-094ea3275fbf","system_id":"levelo_inurba_marseille","lat":43.30243,"lon":5.37721,"is_reserved":false,"is_disabled":false,"rental_uris":{"android":"levelo://app?vid=64b66824-f064-4903-8358-094ea3275fbf","ios":"levelo://app?vid=64b66824-f064-4903-8358-094ea3275fbf"},"vehicle_type_id":"4","last_reported":1737465352,"current_range_meters":38800,"station_id":"ce4bguh2rcd13ifvqcj0","pricing_plan_id":"cebpf4jnsgd1na2vs0mg"},{"bike_id":"1e18800a-d2e0-4756-9e2e-944ef60290aa","system_id":"levelo_inurba_marseille","lat":43.26565,"lon":5.39006,"is_reserved":false,"is_disabled":false,"rental_uris":{"android":"levelo://app?vid=1e18800a-d2e0-4756-9e2e-944ef60290aa","ios":"levelo://app?vid=1e18800a-d2e0-4756-9e2e-944ef60290aa"},"vehicle_type_id":"4","last_reported":1737465352,"current_range_meters":18000,"station_id":"ce4bhe12rcd13ifvqf30","pricing_plan_id":"cebpf4jnsgd1na2vs0mg"},{"bike_id":"1b1acf8d-54ac-4efe-96ff-66c901f3aba1","system_id":"levelo_inurba_marseille","lat":43.30544,"lon":5.36551,"is_reserved":false,"is_disabled":false,"rental_uris":{"android":"levelo://app?vid=1b1acf8d-54ac-4efe-96ff-66c901f3aba1","ios":"levelo://app?vid=1b1acf8d-54ac-4efe-96ff-66c901f3aba1"},"vehicle_type_id":"4","last_reported":1737465352,"current_range_meters":38800,"station_id":"ce4bgs12rcd13ifvqcag","pricing_plan_id":"cebpf4jnsgd1na2vs0mg"},{"bike_id":"aab3541e-a2ea-42e0-abbd-670b8c1873f5","system_id":"levelo_inurba_marseille","lat":43.24183,"lon":5.39731,"is_reserved":false,"is_disabled":false,"rental_uris":{"android":"levelo://app?vid=aab3541e-a2ea-42e0-abbd-670b8c1873f5","ios":"levelo://app?vid=aab3541e-a2ea-42e0-abbd-670b8c1873f5"},"vehicle_type_id":"4","last_reported":1737465352,"current_range_meters":19600,"station_id":"ce4bhn12rcd13ifvqgpg","pricing_plan_id":"cebpf4jnsgd1na2vs0mg"},{"bike_id":"8076bd92-0b86-4a50-9f27-950dd6b69f10","system_id":"levelo_inurba_marseille","lat":43.33603,"lon":5.41025,"is_reserved":false,"is_disabled":true,"rental_uris":{"android":"levelo://app?vid=8076bd92-0b86-4a50-9f27-950dd6b69f10","ios":"levelo://app?vid=8076bd92-0b86-4a50-9f27-950dd6b69f10"},"vehicle_type_id":"4","last_reported":1737465352,"current_range_meters":0,"station_id":"ce4bhqh2rcd13ifvqhmg","pricing_plan_id":"cebpf4jnsgd1na2vs0mg"},{"bike_id":"7e3448d7-e848-4498-ad6e-1e45efec6aab","system_id":"levelo_inurba_marseille","lat":43.30295,"lon":5.39209,"is_reserved":false,"is_disabled":false,"rental_uris":{"android":"levelo://app?vid=7e3448d7-e848-4498-ad6e-1e45efec6aab","ios":"levelo://app?vid=7e3448d7-e848-4498-ad6e-1e45efec6aab"},"vehicle_type_id":"4","last_reported":1737465352,"current_range_meters":37600,"station_id":"ce4bgkh2rcd13ifvqbk0","pricing_plan_id":"cebpf4jnsgd1na2vs0mg"},{"bike_id":"e442e212-d25a-4796-8b5e-3ed5f84b008e","system_id":"levelo_inurba_marseille","lat":43.298,"lon":5.38097,"is_reserved":false,"is_disabled":false,"rental_uris":{"android":"levelo://app?vid=e442e212-d25a-4796-8b5e-3ed5f84b008e","ios":"levelo://app?vid=e442e212-d25a-4796-8b5e-3ed5f84b008e"},"vehicle_type_id":"4","last_reported":1737465352,"current_range_meters":27600,"station_id":"ce4bgip2rcd13ifvqbb0","pricing_plan_id":"cebpf4jnsgd1na2vs0mg"},{"bike_id":"9ac7dbd1-20c8-4872-a68b-c41e9b2437a2","system_id":"levelo_inurba_marseille","lat":43.25823,"lon":5.39439,"is_reserved":false,"is_disabled":false,"rental_uris":{"android":"levelo://app?vid=9ac7dbd1-20c8-4872-a68b-c41e9b2437a2","ios":"levelo://app?vid=9ac7dbd1-20c8-4872-a68b-c41e9b2437a2"},"vehicle_type_id":"4","last_reported":1737465352,"current_range_meters":23200,"station_id":"ce4bhip2rcd13ifvqft0","pricing_plan_id":"cebpf4jnsgd1na2vs0mg"},{"bike_id":"cb33197b-e426-4634-8e46-bbf41a0bbbd8","system_id":"levelo_inurba_marseille","lat":43.31333,"lon":5.36718,"is_reserved":false,"is_disabled":false,"rental_uris":{"android":"levelo://app?vid=cb33197b-e426-4634-8e46-bbf41a0bbbd8","ios":"levelo://app?vid=cb33197b-e426-4634-8e46-bbf41a0bbbd8"},"vehicle_type_id":"4","last_reported":1737465352,"current_range_meters":38800,"station_id":"ce4bgr92rcd13ifvqc6g","pricing_plan_id":"cebpf4jnsgd1na2vs0mg"},{"bike_id":"a28f19b5-d5b3-4099-825a-f05b050fc798","system_id":"levelo_inurba_marseille","lat":43.26278,"lon":5.37433,"is_reserved":false,"is_disabled":false,"rental_uris":{"android":"levelo://app?vid=a28f19b5-d5b3-4099-825a-f05b050fc798","ios":"levelo://app?vid=a28f19b5-d5b3-4099-825a-f05b050fc798"},"vehicle_type_id":"4","last_reported":1737465352,"current_range_meters":22000,"station_id":"ce4bhah2rcd13ifvqei0","pricing_plan_id":"cebpf4jnsgd1na2vs0mg"},{"bike_id":"af6d5d8d-79e6-4aa3-b664-b8e2ded40f3b","system_id":"levelo_inurba_marseille","lat":43.28466,"lon":5.35893,"is_reserved":false,"is_disabled":false,"rental_uris":{"android":"levelo://app?vid=af6d5d8d-79e6-4aa3-b664-b8e2ded40f3b","ios":"levelo://app?vid=af6d5d8d-79e6-4aa3-b664-b8e2ded40f3b"},"vehicle_type_id":"4","last_reported":1737465352,"current_range_meters":12000,"station_id":"ce4bhah2rcd13ifvqei0","pricing_plan_id":"cebpf4jnsgd1na2vs0mg"},{"bike_id":"80bcc3e7-77de-44a5-8965-f19acb6d7452","system_id":"levelo_inurba_marseille","lat":43.33031,"lon":5.39035,"is_reserved":false,"is_disabled":false,"rental_uris":{"android":"levelo://app?vid=80bcc3e7-77de-44a5-8965-f19acb6d7452","ios":"levelo://app?vid=80bcc3e7-77de-44a5-8965-f19acb6d7452"},"vehicle_type_id":"4","last_reported":1737465352,"current_range_meters":38800,"station_id":"ce4bhr92rcd13ifvqhrg","pricing_plan_id":"cebpf4jnsgd1na2vs0mg"},{"bike_id":"9ca4de9a-cfca-4937-bf4d-f360d7c8f7f5","system_id":"levelo_inurba_marseille","lat":43.30571,"lon":5.36508,"is_reserved":false,"is_disabled":false,"rental_uris":{"android":"levelo://app?vid=9ca4de9a-cfca-4937-bf4d-f360d7c8f7f5","ios":"levelo://app?vid=9ca4de9a-cfca-4937-bf4d-f360d7c8f7f5"},"vehicle_type_id":"4","last_reported":1737465352,"current_range_meters":38000,"station_id":"ce4bgs12rcd13ifvqcag","pricing_plan_id":"cebpf4jnsgd1na2vs0mg"},{"bike_id":"bc3cb943-742e-40bf-bf7f-ac4cda7bd3c3","system_id":"levelo_inurba_marseille","lat":43.28931,"lon":5.36645,"is_reserved":false,"is_disabled":false,"rental_uris":{"android":"levelo://app?vid=bc3cb943-742e-40bf-bf7f-ac4cda7bd3c3","ios":"levelo://app?vid=bc3cb943-742e-40bf-bf7f-ac4cda7bd3c3"},"vehicle_type_id":"4","last_reported":1737465352,"current_range_meters":22800,"station_id":"ce4bhap2rcd13ifvqek0","pricing_plan_id":"cebpf4jnsgd1na2vs0mg"},{"bike_id":"4891786e-abb0-40fb-8f67-e8889ab2c468","system_id":"levelo_inurba_marseille","lat":43.297943,"lon":5.393312,"is_reserved":false,"is_disabled":false,"rental_uris":{"android":"levelo://app?vid=4891786e-abb0-40fb-8f67-e8889ab2c468","ios":"levelo://app?vid=4891786e-abb0-40fb-8f67-e8889ab2c468"},"vehicle_type_id":"4","last_reported":1737465352,"current_range_meters":8000,"station_id":"chh1huq6cuj3fo74tm60","pricing_plan_id":"cebpf4jnsgd1na2vs0mg"},{"bike_id":"38fedafe-549e-4d5b-8abc-34e39e4aebe4","system_id":"levelo_inurba_marseille","lat":43.3112,"lon":5.37772,"is_reserved":false,"is_disabled":false,"rental_uris":{"android":"levelo://app?vid=38fedafe-549e-4d5b-8abc-34e39e4aebe4","ios":"levelo://app?vid=38fedafe-549e-4d5b-8abc-34e39e4aebe4"},"vehicle_type_id":"4","last_reported":1737465352,"current_range_meters":8800,"station_id":"ce4bgt92rcd13ifvqcg0","pricing_plan_id":"cebpf4jnsgd1na2vs0mg"},{"bike_id":"82b9fcb3-21e7-403c-b9c6-7c15b2e435d8","system_id":"levelo_inurba_marseille","lat":43.28157,"lon":5.42644,"is_reserved":false,"is_disabled":false,"rental_uris":{"android":"levelo://app?vid=82b9fcb3-21e7-403c-b9c6-7c15b2e435d8","ios":"levelo://app?vid=82b9fcb3-21e7-403c-b9c6-7c15b2e435d8"},"vehicle_type_id":"4","last_reported":1737465352,"current_range_meters":16800,"station_id":"ce4bhnh2rcd13ifvqgug","pricing_plan_id":"cebpf4jnsgd1na2vs0mg"},{"bike_id":"ca5ebe5c-d696-4d10-94b0-99fa9093db2a","system_id":"levelo_inurba_marseille","lat":43.3249,"lon":5.36554,"is_reserved":false,"is_disabled":false,"rental_uris":{"android":"levelo://app?vid=ca5ebe5c-d696-4d10-94b0-99fa9093db2a","ios":"levelo://app?vid=ca5ebe5c-d696-4d10-94b0-99fa9093db2a"},"vehicle_type_id":"4","last_reported":1737465352,"current_range_meters":25200,"station_id":"ce4bhs12rcd13ifvqhvg","pricing_plan_id":"cebpf4jnsgd1na2vs0mg"},{"bike_id":"56957bef-2192-43b7-9424-f000022ec073","system_id":"levelo_inurba_marseille","lat":43.29502,"lon":5.37529,"is_reserved":false,"is_disabled":false,"rental_uris":{"android":"levelo://app?vid=56957bef-2192-43b7-9424-f000022ec073","ios":"levelo://app?vid=56957bef-2192-43b7-9424-f000022ec073"},"vehicle_type_id":"4","last_reported":1737465352,"current_range_meters":28400,"station_id":"ce4bgkp2rcd13ifvqbmg","pricing_plan_id":"cebpf4jnsgd1na2vs0mg"},{"bike_id":"7720609d-8a3a-432d-81e9-a3821c3af4e4","system_id":"levelo_inurba_marseille","lat":43.24075,"lon":5.37761,"is_reserved":false,"is_disabled":false,"rental_uris":{"android":"levelo://app?vid=7720609d-8a3a-432d-81e9-a3821c3af4e4","ios":"levelo://app?vid=7720609d-8a3a-432d-81e9-a3821c3af4e4"},"vehicle_type_id":"4","last_reported":1737465352,"current_range_meters":39200,"station_id":"ce4bhnp2rcd13ifvqgvg","pricing_plan_id":"cebpf4jnsgd1na2vs0mg"},{"bike_id":"b86a3e1d-3f83-41ea-bb2d-340a69ea0c88","system_id":"levelo_inurba_marseille","lat":43.31712,"lon":5.37743,"is_reserved":false,"is_disabled":false,"rental_uris":{"android":"levelo://app?vid=b86a3e1d-3f83-41ea-bb2d-340a69ea0c88","ios":"levelo://app?vid=b86a3e1d-3f83-41ea-bb2d-340a69ea0c88"},"vehicle_type_id":"4","last_reported":1737465352,"current_range_meters":24400,"station_id":"ce4bgth2rcd13ifvqch0","pricing_plan_id":"cebpf4jnsgd1na2vs0mg"},{"bike_id":"519b51a8-90c4-44c3-9c8b-ad9a743bab37","system_id":"levelo_inurba_marseille","lat":43.3054,"lon":5.38429,"is_reserved":false,"is_disabled":false,"rental_uris":{"android":"levelo://app?vid=519b51a8-90c4-44c3-9c8b-ad9a743bab37","ios":"levelo://app?vid=519b51a8-90c4-44c3-9c8b-ad9a743bab37"},"vehicle_type_id":"4","last_reported":1737465352,"current_range_meters":2800,"station_id":"ce4bgg92rcd13ifvqb30","pricing_plan_id":"cebpf4jnsgd1na2vs0mg"},{"bike_id":"378d9166-59a9-47ab-ad0b-6f11e8b99403","system_id":"levelo_inurba_marseille","lat":43.275,"lon":5.42454,"is_reserved":false,"is_disabled":false,"rental_uris":{"android":"levelo://app?vid=378d9166-59a9-47ab-ad0b-6f11e8b99403","ios":"levelo://app?vid=378d9166-59a9-47ab-ad0b-6f11e8b99403"},"vehicle_type_id":"4","last_reported":1737465352,"current_range_meters":14000,"station_id":"ce4bhn92rcd13ifvqgrg","pricing_plan_id":"cebpf4jnsgd1na2vs0mg"},{"bike_id":"d426d3c2-1fdc-4fcf-8549-cc19e8cd6473","system_id":"levelo_inurba_marseille","lat":43.2942,"lon":5.38635,"is_reserved":false,"is_disabled":false,"rental_uris":{"android":"levelo://app?vid=d426d3c2-1fdc-4fcf-8549-cc19e8cd6473","ios":"levelo://app?vid=d426d3c2-1fdc-4fcf-8549-cc19e8cd6473"},"vehicle_type_id":"4","last_reported":1737465352,"current_range_meters":24800,"station_id":"ce4bhoh2rcd13ifvqh5g","pricing_plan_id":"cebpf4jnsgd1na2vs0mg"},{"bike_id":"4e4f9b57-1691-469f-a660-7669a1017371","system_id":"levelo_inurba_marseille","lat":43.29294,"lon":5.37452,"is_reserved":false,"is_disabled":false,"rental_uris":{"android":"levelo://app?vid=4e4f9b57-1691-469f-a660-7669a1017371","ios":"levelo://app?vid=4e4f9b57-1691-469f-a660-7669a1017371"},"vehicle_type_id":"4","last_reported":1737465352,"current_range_meters":10000,"station_id":"ce4bgi12rcd13ifvqb70","pricing_plan_id":"cebpf4jnsgd1na2vs0mg"},{"bike_id":"49e863e7-823e-4e9b-9150-30a232f530d5","system_id":"levelo_inurba_marseille","lat":43.28459,"lon":5.35898,"is_reserved":false,"is_disabled":false,"rental_uris":{"android":"levelo://app?vid=49e863e7-823e-4e9b-9150-30a232f530d5","ios":"levelo://app?vid=49e863e7-823e-4e9b-9150-30a232f530d5"},"vehicle_type_id":"4","last_reported":1737465352,"current_range_meters":28400,"station_id":"ce4bhah2rcd13ifvqei0","pricing_plan_id":"cebpf4jnsgd1na2vs0mg"},{"bike_id":"8e37d5a1-5a26-42a5-8fbe-c99733a808dd","system_id":"levelo_inurba_marseille","lat":43.26068,"lon":5.39423,"is_reserved":false,"is_disabled":false,"rental_uris":{"android":"levelo://app?vid=8e37d5a1-5a26-42a5-8fbe-c99733a808dd","ios":"levelo://app?vid=8e37d5a1-5a26-42a5-8fbe-c99733a808dd"},"vehicle_type_id":"4","last_reported":1737465352,"current_range_meters":38800,"station_id":"ce4bhh92rcd13ifvqfj0","pricing_plan_id":"cebpf4jnsgd1na2vs0mg"},{"bike_id":"8f1bbc58-26e8-49fc-bb78-9690f6d99ccb","system_id":"levelo_inurba_marseille","lat":43.29096,"lon":5.38147,"is_reserved":false,"is_disabled":false,"rental_uris":{"android":"levelo://app?vid=8f1bbc58-26e8-49fc-bb78-9690f6d99ccb","ios":"levelo://app?vid=8f1bbc58-26e8-49fc-bb78-9690f6d99ccb"},"vehicle_type_id":"4","last_reported":1737465352,"current_range_meters":38800,"station_id":"ce4bh512rcd13ifvqe2g","pricing_plan_id":"cebpf4jnsgd1na2vs0mg"},{"bike_id":"22c3b3f3-6835-405e-9c28-a86f29f70685","system_id":"levelo_inurba_marseille","lat":43.25004,"lon":5.38936,"is_reserved":false,"is_disabled":false,"rental_uris":{"android":"levelo://app?vid=22c3b3f3-6835-405e-9c28-a86f29f70685","ios":"levelo://app?vid=22c3b3f3-6835-405e-9c28-a86f29f70685"},"vehicle_type_id":"4","last_reported":1737465352,"current_range_meters":22000,"station_id":"ce4bhgp2rcd13ifvqfd0","pricing_plan_id":"cebpf4jnsgd1na2vs0mg"},{"bike_id":"b61d20cd-c79c-4b41-8496-a3dca87a21d1","system_id":"levelo_inurba_marseille","lat":43.26489,"lon":5.39573,"is_reserved":false,"is_disabled":false,"rental_uris":{"android":"levelo://app?vid=b61d20cd-c79c-4b41-8496-a3dca87a21d1","ios":"levelo://app?vid=b61d20cd-c79c-4b41-8496-a3dca87a21d1"},"vehicle_type_id":"4","last_reported":1737465352,"current_range_meters":38000,"station_id":"ce4bhi12rcd13ifvqfq0","pricing_plan_id":"cebpf4jnsgd1na2vs0mg"},{"bike_id":"64dd059b-ecf7-48ee-8d07-a03165f684e7","system_id":"levelo_inurba_marseille","lat":43.29912,"lon":5.37468,"is_reserved":false,"is_disabled":false,"rental_uris":{"android":"levelo://app?vid=64dd059b-ecf7-48ee-8d07-a03165f684e7","ios":"levelo://app?vid=64dd059b-ecf7-48ee-8d07-a03165f684e7"},"vehicle_type_id":"4","last_reported":1737465352,"current_range_meters":39200,"station_id":"ce4bgjh2rcd13ifvqbg0","pricing_plan_id":"cebpf4jnsgd1na2vs0mg"},{"bike_id":"9504b7e0-2f20-49ea-814e-e380f0d8ec79","system_id":"levelo_inurba_marseille","lat":43.32103,"lon":5.3678,"is_reserved":false,"is_disabled":false,"rental_uris":{"android":"levelo://app?vid=9504b7e0-2f20-49ea-814e-e380f0d8ec79","ios":"levelo://app?vid=9504b7e0-2f20-49ea-814e-e380f0d8ec79"},"vehicle_type_id":"4","last_reported":1737465352,"current_range_meters":38000,"station_id":"ce4bhrh2rcd13ifvqhug","pricing_plan_id":"cebpf4jnsgd1na2vs0mg"},{"bike_id":"26cd6232-7439-487f-ad71-3c837845e907","system_id":"levelo_inurba_marseille","lat":43.26565,"lon":5.39007,"is_reserved":false,"is_disabled":false,"rental_uris":{"android":"levelo://app?vid=26cd6232-7439-487f-ad71-3c837845e907","ios":"levelo://app?vid=26cd6232-7439-487f-ad71-3c837845e907"},"vehicle_type_id":"4","last_reported":1737465352,"current_range_meters":36800,"station_id":"ce4bhe12rcd13ifvqf30","pricing_plan_id":"cebpf4jnsgd1na2vs0mg"},{"bike_id":"57fdbf3d-1599-4d8b-877d-fd8c510341a7","system_id":"levelo_inurba_marseille","lat":43.28344,"lon":5.38101,"is_reserved":false,"is_disabled":false,"rental_uris":{"android":"levelo://app?vid=57fdbf3d-1599-4d8b-877d-fd8c510341a7","ios":"levelo://app?vid=57fdbf3d-1599-4d8b-877d-fd8c510341a7"},"vehicle_type_id":"4","last_reported":1737465352,"current_range_meters":38400,"station_id":"ce4bh412rcd13ifvqdr0","pricing_plan_id":"cebpf4jnsgd1na2vs0mg"},{"bike_id":"2e391245-990a-489f-b7cc-387a1c7f1479","system_id":"levelo_inurba_marseille","lat":43.30534,"lon":5.36697,"is_reserved":false,"is_disabled":false,"rental_uris":{"android":"levelo://app?vid=2e391245-990a-489f-b7cc-387a1c7f1479","ios":"levelo://app?vid=2e391245-990a-489f-b7cc-387a1c7f1479"},"vehicle_type_id":"4","last_reported":1737465352,"current_range_meters":26000,"station_id":"ce4bgrp2rcd13ifvqc9g","pricing_plan_id":"cebpf4jnsgd1na2vs0mg"},{"bike_id":"431e364b-c929-4c04-9961-28a28552547b","system_id":"levelo_inurba_marseille","lat":43.28931,"lon":5.36636,"is_reserved":false,"is_disabled":false,"rental_uris":{"android":"levelo://app?vid=431e364b-c929-4c04-9961-28a28552547b","ios":"levelo://app?vid=431e364b-c929-4c04-9961-28a28552547b"},"vehicle_type_id":"4","last_reported":1737465352,"current_range_meters":29600,"station_id":"ce4bhap2rcd13ifvqek0","pricing_plan_id":"cebpf4jnsgd1na2vs0mg"},{"bike_id":"13eb1080-0165-43df-ba68-3da74a387126","system_id":"levelo_inurba_marseille","lat":43.31229,"lon":5.36866,"is_reserved":false,"is_disabled":false,"rental_uris":{"android":"levelo://app?vid=13eb1080-0165-43df-ba68-3da74a387126","ios":"levelo://app?vid=13eb1080-0165-43df-ba68-3da74a387126"},"vehicle_type_id":"4","last_reported":1737465352,"current_range_meters":38800,"station_id":"ce4bgl92rcd13ifvqbq0","pricing_plan_id":"cebpf4jnsgd1na2vs0mg"},{"bike_id":"6afeeefa-11c0-4f74-82c2-cb592a43a0b2","system_id":"levelo_inurba_marseille","lat":43.28152,"lon":5.42644,"is_reserved":false,"is_disabled":false,"rental_uris":{"android":"levelo://app?vid=6afeeefa-11c0-4f74-82c2-cb592a43a0b2","ios":"levelo://app?vid=6afeeefa-11c0-4f74-82c2-cb592a43a0b2"},"vehicle_type_id":"4","last_reported":1737465352,"current_range_meters":26000,"station_id":"ce4bhnh2rcd13ifvqgug","pricing_plan_id":"cebpf4jnsgd1na2vs0mg"},{"bike_id":"55e9e33f-65d7-4114-a3b6-94916cdab4b2","system_id":"levelo_inurba_marseille","lat":43.26517,"lon":5.39549,"is_reserved":false,"is_disabled":false,"rental_uris":{"android":"levelo://app?vid=55e9e33f-65d7-4114-a3b6-94916cdab4b2","ios":"levelo://app?vid=55e9e33f-65d7-4114-a3b6-94916cdab4b2"},"vehicle_type_id":"4","last_reported":1737465352,"current_range_meters":32800,"station_id":"ce4bhi12rcd13ifvqfq0","pricing_plan_id":"cebpf4jnsgd1na2vs0mg"},{"bike_id":"6fc6bbb7-6328-4049-bab7-e7f46823cfcd","system_id":"levelo_inurba_marseille","lat":43.26573,"lon":5.38999,"is_reserved":false,"is_disabled":false,"rental_uris":{"android":"levelo://app?vid=6fc6bbb7-6328-4049-bab7-e7f46823cfcd","ios":"levelo://app?vid=6fc6bbb7-6328-4049-bab7-e7f46823cfcd"},"vehicle_type_id":"4","last_reported":1737465352,"current_range_meters":30000,"station_id":"ce4bhe12rcd13ifvqf30","pricing_plan_id":"cebpf4jnsgd1na2vs0mg"},{"bike_id":"6e32a172-90e4-4d86-8f8a-689baae2f4e9","system_id":"levelo_inurba_marseille","lat":43.24399,"lon":5.37048,"is_reserved":false,"is_disabled":false,"rental_uris":{"android":"levelo://app?vid=6e32a172-90e4-4d86-8f8a-689baae2f4e9","ios":"levelo://app?vid=6e32a172-90e4-4d86-8f8a-689baae2f4e9"},"vehicle_type_id":"4","last_reported":1737465352,"current_range_meters":37600,"station_id":"ce4bhhh2rcd13ifvqfk0","pricing_plan_id":"cebpf4jnsgd1na2vs0mg"},{"bike_id":"7aa9710a-b7e3-4890-81ca-654444a2204c","system_id":"levelo_inurba_marseille","lat":43.25929,"lon":5.40859,"is_reserved":false,"is_disabled":false,"rental_uris":{"android":"levelo://app?vid=7aa9710a-b7e3-4890-81ca-654444a2204c","ios":"levelo://app?vid=7aa9710a-b7e3-4890-81ca-654444a2204c"},"vehicle_type_id":"4","last_reported":1737465352,"current_range_meters":16400,"station_id":"ce4bhm92rcd13ifvqglg","pricing_plan_id":"cebpf4jnsgd1na2vs0mg"},{"bike_id":"4d113132-9e5b-48d3-8efd-b8cd470f47f1","system_id":"levelo_inurba_marseille","lat":43.30141,"lon":5.3741,"is_reserved":false,"is_disabled":false,"rental_uris":{"android":"levelo://app?vid=4d113132-9e5b-48d3-8efd-b8cd470f47f1","ios":"levelo://app?vid=4d113132-9e5b-48d3-8efd-b8cd470f47f1"},"vehicle_type_id":"4","last_reported":1737465352,"current_range_meters":9200,"station_id":"ce4bgs92rcd13ifvqcc0","pricing_plan_id":"cebpf4jnsgd1na2vs0mg"},{"bike_id":"14bf62af-c950-435b-82dd-0bca67231add","system_id":"levelo_inurba_marseille","lat":43.25714,"lon":5.41134,"is_reserved":false,"is_disabled":false,"rental_uris":{"android":"levelo://app?vid=14bf62af-c950-435b-82dd-0bca67231add","ios":"levelo://app?vid=14bf62af-c950-435b-82dd-0bca67231add"},"vehicle_type_id":"4","last_reported":1737465352,"current_range_meters":38000,"station_id":"ce4bhkp2rcd13ifvqgd0","pricing_plan_id":"cebpf4jnsgd1na2vs0mg"},{"bike_id":"bd1aad8f-af1d-453a-adbb-9539bd875d5e","system_id":"levelo_inurba_marseille","lat":43.25717,"lon":5.41115,"is_reserved":false,"is_disabled":false,"rental_uris":{"android":"levelo://app?vid=bd1aad8f-af1d-453a-adbb-9539bd875d5e","ios":"levelo://app?vid=bd1aad8f-af1d-453a-adbb-9539bd875d5e"},"vehicle_type_id":"4","last_reported":1737465352,"current_range_meters":18800,"station_id":"ce4bhkp2rcd13ifvqgd0","pricing_plan_id":"cebpf4jnsgd1na2vs0mg"},{"bike_id":"bb2aa27c-d314-433f-a134-98756fdc47bc","system_id":"levelo_inurba_marseille","lat":43.31376,"lon":5.36729,"is_reserved":false,"is_disabled":false,"rental_uris":{"android":"levelo://app?vid=bb2aa27c-d314-433f-a134-98756fdc47bc","ios":"levelo://app?vid=bb2aa27c-d314-433f-a134-98756fdc47bc"},"vehicle_type_id":"4","last_reported":1737465352,"current_range_meters":39200,"station_id":"ce4bgr92rcd13ifvqc6g","pricing_plan_id":"cebpf4jnsgd1na2vs0mg"},{"bike_id":"4a851776-66ca-44c4-913e-4d800fe78d14","system_id":"levelo_inurba_marseille","lat":43.30471,"lon":5.37911,"is_reserved":false,"is_disabled":false,"rental_uris":{"android":"levelo://app?vid=4a851776-66ca-44c4-913e-4d800fe78d14","ios":"levelo://app?vid=4a851776-66ca-44c4-913e-4d800fe78d14"},"vehicle_type_id":"4","last_reported":1737465352,"current_range_meters":24000,"station_id":"ce4bgup2rcd13ifvqcn0","pricing_plan_id":"cebpf4jnsgd1na2vs0mg"},{"bike_id":"d8f91f1b-6284-49a9-9d2e-a3878fefadfb","system_id":"levelo_inurba_marseille","lat":43.28032,"lon":5.36947,"is_reserved":false,"is_disabled":false,"rental_uris":{"android":"levelo://app?vid=d8f91f1b-6284-49a9-9d2e-a3878fefadfb","ios":"levelo://app?vid=d8f91f1b-6284-49a9-9d2e-a3878fefadfb"},"vehicle_type_id":"4","last_reported":1737465352,"current_range_meters":36000,"station_id":"ce4bha12rcd13ifvqef0","pricing_plan_id":"cebpf4jnsgd1na2vs0mg"},{"bike_id":"9ebe096b-ae59-4a61-b50c-f5562de06583","system_id":"levelo_inurba_marseille","lat":43.31538,"lon":5.38015,"is_reserved":false,"is_disabled":false,"rental_uris":{"android":"levelo://app?vid=9ebe096b-ae59-4a61-b50c-f5562de06583","ios":"levelo://app?vid=9ebe096b-ae59-4a61-b50c-f5562de06583"},"vehicle_type_id":"4","last_reported":1737465352,"current_range_meters":9600,"station_id":"ce4bhsp2rcd13ifvqi50","pricing_plan_id":"cebpf4jnsgd1na2vs0mg"},{"bike_id":"7c4b9d70-e01e-49f4-bcc2-da404f462a85","system_id":"levelo_inurba_marseille","lat":43.29302,"lon":5.3722,"is_reserved":false,"is_disabled":false,"rental_uris":{"android":"levelo://app?vid=7c4b9d70-e01e-49f4-bcc2-da404f462a85","ios":"levelo://app?vid=7c4b9d70-e01e-49f4-bcc2-da404f462a85"},"vehicle_type_id":"4","last_reported":1737465352,"current_range_meters":39200,"station_id":"ce4bgh92rcd13ifvqb40","pricing_plan_id":"cebpf4jnsgd1na2vs0mg"},{"bike_id":"896c4120-b967-4f9c-a412-c51fc0f0aa79","system_id":"levelo_inurba_marseille","lat":43.32555,"lon":5.41432,"is_reserved":false,"is_disabled":false,"rental_uris":{"android":"levelo://app?vid=896c4120-b967-4f9c-a412-c51fc0f0aa79","ios":"levelo://app?vid=896c4120-b967-4f9c-a412-c51fc0f0aa79"},"vehicle_type_id":"4","last_reported":1737465352,"current_range_meters":25600,"station_id":"ce4bhq12rcd13ifvqhhg","pricing_plan_id":"cebpf4jnsgd1na2vs0mg"},{"bike_id":"1a3b29b3-17e8-4775-8d86-74e3b8c314ae","system_id":"levelo_inurba_marseille","lat":43.30553,"lon":5.36689,"is_reserved":false,"is_disabled":false,"rental_uris":{"android":"levelo://app?vid=1a3b29b3-17e8-4775-8d86-74e3b8c314ae","ios":"levelo://app?vid=1a3b29b3-17e8-4775-8d86-74e3b8c314ae"},"vehicle_type_id":"4","last_reported":1737465352,"current_range_meters":38800,"station_id":"ce4bgrp2rcd13ifvqc9g","pricing_plan_id":"cebpf4jnsgd1na2vs0mg"},{"bike_id":"ca74e526-580c-493e-b181-17fe0bc8eae8","system_id":"levelo_inurba_marseille","lat":43.25914,"lon":5.40906,"is_reserved":false,"is_disabled":false,"rental_uris":{"android":"levelo://app?vid=ca74e526-580c-493e-b181-17fe0bc8eae8","ios":"levelo://app?vid=ca74e526-580c-493e-b181-17fe0bc8eae8"},"vehicle_type_id":"4","last_reported":1737465352,"current_range_meters":38800,"station_id":"ce4bhm92rcd13ifvqglg","pricing_plan_id":"cebpf4jnsgd1na2vs0mg"},{"bike_id":"ce348ecb-e6da-4256-ae38-a3cca0ccf065","system_id":"levelo_inurba_marseille","lat":43.30537,"lon":5.36715,"is_reserved":false,"is_disabled":false,"rental_uris":{"android":"levelo://app?vid=ce348ecb-e6da-4256-ae38-a3cca0ccf065","ios":"levelo://app?vid=ce348ecb-e6da-4256-ae38-a3cca0ccf065"},"vehicle_type_id":"4","last_reported":1737465352,"current_range_meters":38800,"station_id":"ce4bgrp2rcd13ifvqc9g","pricing_plan_id":"cebpf4jnsgd1na2vs0mg"},{"bike_id":"6cb81402-af76-49ae-949f-f7a641143894","system_id":"levelo_inurba_marseille","lat":43.28616,"lon":5.35107,"is_reserved":false,"is_disabled":false,"rental_uris":{"android":"levelo://app?vid=6cb81402-af76-49ae-949f-f7a641143894","ios":"levelo://app?vid=6cb81402-af76-49ae-949f-f7a641143894"},"vehicle_type_id":"4","last_reported":1737465352,"current_range_meters":31200,"station_id":"ce4bhch2rcd13ifvqeug","pricing_plan_id":"cebpf4jnsgd1na2vs0mg"},{"bike_id":"f8081235-dcac-4260-8962-246aa1610ef9","system_id":"levelo_inurba_marseille","lat":43.28706,"lon":5.37932,"is_reserved":false,"is_disabled":false,"rental_uris":{"android":"levelo://app?vid=f8081235-dcac-4260-8962-246aa1610ef9","ios":"levelo://app?vid=f8081235-dcac-4260-8962-246aa1610ef9"},"vehicle_type_id":"4","last_reported":1737465352,"current_range_meters":21600,"station_id":"ce4bh9p2rcd13ifvqec0","pricing_plan_id":"cebpf4jnsgd1na2vs0mg"},{"bike_id":"26794a30-74b8-4da4-bf62-0aec2c99c20c","system_id":"levelo_inurba_marseille","lat":43.29934,"lon":5.3655,"is_reserved":false,"is_disabled":false,"rental_uris":{"android":"levelo://app?vid=26794a30-74b8-4da4-bf62-0aec2c99c20c","ios":"levelo://app?vid=26794a30-74b8-4da4-bf62-0aec2c99c20c"},"vehicle_type_id":"4","last_reported":1737465352,"current_range_meters":8400,"station_id":"ce4bgm92rcd13ifvqbr0","pricing_plan_id":"cebpf4jnsgd1na2vs0mg"},{"bike_id":"84a7d486-83f1-44a8-8bae-fd056d6abbcd","system_id":"levelo_inurba_marseille","lat":43.31274,"lon":5.4018,"is_reserved":false,"is_disabled":false,"rental_uris":{"android":"levelo://app?vid=84a7d486-83f1-44a8-8bae-fd056d6abbcd","ios":"levelo://app?vid=84a7d486-83f1-44a8-8bae-fd056d6abbcd"},"vehicle_type_id":"4","last_reported":1737465352,"current_range_meters":16800,"station_id":"ce4bh092rcd13ifvqd30","pricing_plan_id":"cebpf4jnsgd1na2vs0mg"},{"bike_id":"40e5a64d-65b5-4754-b8f6-3564af0d8c58","system_id":"levelo_inurba_marseille","lat":43.23142,"lon":5.4373,"is_reserved":false,"is_disabled":false,"rental_uris":{"android":"levelo://app?vid=40e5a64d-65b5-4754-b8f6-3564af0d8c58","ios":"levelo://app?vid=40e5a64d-65b5-4754-b8f6-3564af0d8c58"},"vehicle_type_id":"4","last_reported":1737465352,"current_range_meters":6000,"station_id":"ce4bhmp2rcd13ifvqgog","pricing_plan_id":"cebpf4jnsgd1na2vs0mg"},{"bike_id":"cf536bc6-bc1a-4165-a4ad-01a9dd1076de","system_id":"levelo_inurba_marseille","lat":43.28424,"lon":5.3498,"is_reserved":false,"is_disabled":false,"rental_uris":{"android":"levelo://app?vid=cf536bc6-bc1a-4165-a4ad-01a9dd1076de","ios":"levelo://app?vid=cf536bc6-bc1a-4165-a4ad-01a9dd1076de"},"vehicle_type_id":"4","last_reported":1737465352,"current_range_meters":8000,"station_id":"ce4bhbh2rcd13ifvqepg","pricing_plan_id":"cebpf4jnsgd1na2vs0mg"},{"bike_id":"23379a95-72b4-449c-abbd-5871cdaaa4bd","system_id":"levelo_inurba_marseille","lat":43.30532,"lon":5.3671,"is_reserved":false,"is_disabled":false,"rental_uris":{"android":"levelo://app?vid=23379a95-72b4-449c-abbd-5871cdaaa4bd","ios":"levelo://app?vid=23379a95-72b4-449c-abbd-5871cdaaa4bd"},"vehicle_type_id":"4","last_reported":1737465352,"current_range_meters":36800,"station_id":"ce4bgrp2rcd13ifvqc9g","pricing_plan_id":"cebpf4jnsgd1na2vs0mg"},{"bike_id":"3d38eefd-34ba-4fb9-bbf7-a0196a368e2a","system_id":"levelo_inurba_marseille","lat":43.29279,"lon":5.40127,"is_reserved":false,"is_disabled":false,"rental_uris":{"android":"levelo://app?vid=3d38eefd-34ba-4fb9-bbf7-a0196a368e2a","ios":"levelo://app?vid=3d38eefd-34ba-4fb9-bbf7-a0196a368e2a"},"vehicle_type_id":"4","last_reported":1737465352,"current_range_meters":6000,"station_id":"ce4bh312rcd13ifvqdk0","pricing_plan_id":"cebpf4jnsgd1na2vs0mg"},{"bike_id":"009e4e21-eaff-4df3-a6cd-96d6c5c81fda","system_id":"levelo_inurba_marseille","lat":43.30579,"lon":5.36532,"is_reserved":false,"is_disabled":false,"rental_uris":{"android":"levelo://app?vid=009e4e21-eaff-4df3-a6cd-96d6c5c81fda","ios":"levelo://app?vid=009e4e21-eaff-4df3-a6cd-96d6c5c81fda"},"vehicle_type_id":"4","last_reported":1737465352,"current_range_meters":24000,"station_id":"ce4bgs12rcd13ifvqcag","pricing_plan_id":"cebpf4jnsgd1na2vs0mg"},{"bike_id":"1bd304b0-b905-42a0-9d62-89a1d0e36a52","system_id":"levelo_inurba_marseille","lat":43.30144,"lon":5.37421,"is_reserved":false,"is_disabled":false,"rental_uris":{"android":"levelo://app?vid=1bd304b0-b905-42a0-9d62-89a1d0e36a52","ios":"levelo://app?vid=1bd304b0-b905-42a0-9d62-89a1d0e36a52"},"vehicle_type_id":"4","last_reported":1737465352,"current_range_meters":20000,"station_id":"ce4bgs92rcd13ifvqcc0","pricing_plan_id":"cebpf4jnsgd1na2vs0mg"},{"bike_id":"a478c8e4-70f7-4330-80af-a80f08fe66b3","system_id":"levelo_inurba_marseille","lat":43.25727,"lon":5.41109,"is_reserved":false,"is_disabled":false,"rental_uris":{"android":"levelo://app?vid=a478c8e4-70f7-4330-80af-a80f08fe66b3","ios":"levelo://app?vid=a478c8e4-70f7-4330-80af-a80f08fe66b3"},"vehicle_type_id":"4","last_reported":1737465352,"current_range_meters":23200,"station_id":"ce4bhkp2rcd13ifvqgd0","pricing_plan_id":"cebpf4jnsgd1na2vs0mg"},{"bike_id":"9ea35a92-1564-493c-991c-f92a347b776b","system_id":"levelo_inurba_marseille","lat":43.30541,"lon":5.3652,"is_reserved":false,"is_disabled":false,"rental_uris":{"android":"levelo://app?vid=9ea35a92-1564-493c-991c-f92a347b776b","ios":"levelo://app?vid=9ea35a92-1564-493c-991c-f92a347b776b"},"vehicle_type_id":"4","last_reported":1737465352,"current_range_meters":24800,"station_id":"ce4bgs12rcd13ifvqcag","pricing_plan_id":"cebpf4jnsgd1na2vs0mg"},{"bike_id":"e70ef129-9269-4977-88ab-de087f1ca58a","system_id":"levelo_inurba_marseille","lat":43.28454,"lon":5.35899,"is_reserved":false,"is_disabled":false,"rental_uris":{"android":"levelo://app?vid=e70ef129-9269-4977-88ab-de087f1ca58a","ios":"levelo://app?vid=e70ef129-9269-4977-88ab-de087f1ca58a"},"vehicle_type_id":"4","last_reported":1737465352,"current_range_meters":9600,"station_id":"ce4bhah2rcd13ifvqei0","pricing_plan_id":"cebpf4jnsgd1na2vs0mg"},{"bike_id":"308cc682-94fd-427f-a7f4-c7ad2e8f89c9","system_id":"levelo_inurba_marseille","lat":43.28459,"lon":5.35894,"is_reserved":false,"is_disabled":false,"rental_uris":{"android":"levelo://app?vid=308cc682-94fd-427f-a7f4-c7ad2e8f89c9","ios":"levelo://app?vid=308cc682-94fd-427f-a7f4-c7ad2e8f89c9"},"vehicle_type_id":"4","last_reported":1737465352,"current_range_meters":30400,"station_id":"ce4bhah2rcd13ifvqei0","pricing_plan_id":"cebpf4jnsgd1na2vs0mg"},{"bike_id":"b98d1ee6-d9b6-4436-8256-e6796817c6db","system_id":"levelo_inurba_marseille","lat":43.27201,"lon":5.39194,"is_reserved":false,"is_disabled":false,"rental_uris":{"android":"levelo://app?vid=b98d1ee6-d9b6-4436-8256-e6796817c6db","ios":"levelo://app?vid=b98d1ee6-d9b6-4436-8256-e6796817c6db"},"vehicle_type_id":"4","last_reported":1737465352,"current_range_meters":19600,"station_id":"ce4bhhp2rcd13ifvqfm0","pricing_plan_id":"cebpf4jnsgd1na2vs0mg"},{"bike_id":"97d5aac9-87b1-4616-9df2-9f463d30d8d5","system_id":"levelo_inurba_marseille","lat":43.23197,"lon":5.35535,"is_reserved":false,"is_disabled":false,"rental_uris":{"android":"levelo://app?vid=97d5aac9-87b1-4616-9df2-9f463d30d8d5","ios":"levelo://app?vid=97d5aac9-87b1-4616-9df2-9f463d30d8d5"},"vehicle_type_id":"4","last_reported":1737465352,"current_range_meters":37600,"station_id":"ce4bhu92rcd13ifvqi70","pricing_plan_id":"cebpf4jnsgd1na2vs0mg"},{"bike_id":"713c2070-5fbc-40f7-a36f-126465d4c68d","system_id":"levelo_inurba_marseille","lat":43.29771,"lon":5.37123,"is_reserved":false,"is_disabled":false,"rental_uris":{"android":"levelo://app?vid=713c2070-5fbc-40f7-a36f-126465d4c68d","ios":"levelo://app?vid=713c2070-5fbc-40f7-a36f-126465d4c68d"},"vehicle_type_id":"4","last_reported":1737465352,"current_range_meters":6000,"station_id":"ce4bgop2rcd13ifvqc1g","pricing_plan_id":"cebpf4jnsgd1na2vs0mg"},{"bike_id":"10d27098-69e9-48b1-9d26-115b0af1cc68","system_id":"levelo_inurba_marseille","lat":43.30555,"lon":5.36539,"is_reserved":false,"is_disabled":false,"rental_uris":{"android":"levelo://app?vid=10d27098-69e9-48b1-9d26-115b0af1cc68","ios":"levelo://app?vid=10d27098-69e9-48b1-9d26-115b0af1cc68"},"vehicle_type_id":"4","last_reported":1737465352,"current_range_meters":32000,"station_id":"ce4bgs12rcd13ifvqcag","pricing_plan_id":"cebpf4jnsgd1na2vs0mg"},{"bike_id":"551d3c50-8bf9-4adc-9508-78bf8f8220fb","system_id":"levelo_inurba_marseille","lat":43.3248,"lon":5.36572,"is_reserved":false,"is_disabled":false,"rental_uris":{"android":"levelo://app?vid=551d3c50-8bf9-4adc-9508-78bf8f8220fb","ios":"levelo://app?vid=551d3c50-8bf9-4adc-9508-78bf8f8220fb"},"vehicle_type_id":"4","last_reported":1737465352,"current_range_meters":36000,"station_id":"ce4bhs12rcd13ifvqhvg","pricing_plan_id":"cebpf4jnsgd1na2vs0mg"},{"bike_id":"0f2c8f40-214c-46c4-9d4c-ecdc642301bc","system_id":"levelo_inurba_marseille","lat":43.29788,"lon":5.37101,"is_reserved":false,"is_disabled":false,"rental_uris":{"android":"levelo://app?vid=0f2c8f40-214c-46c4-9d4c-ecdc642301bc","ios":"levelo://app?vid=0f2c8f40-214c-46c4-9d4c-ecdc642301bc"},"vehicle_type_id":"4","last_reported":1737465352,"current_range_meters":6800,"station_id":"ce4bgop2rcd13ifvqc1g","pricing_plan_id":"cebpf4jnsgd1na2vs0mg"},{"bike_id":"4e36db74-06bf-477a-bee9-51805eb8c5d1","system_id":"levelo_inurba_marseille","lat":43.27673,"lon":5.38877,"is_reserved":false,"is_disabled":false,"rental_uris":{"android":"levelo://app?vid=4e36db74-06bf-477a-bee9-51805eb8c5d1","ios":"levelo://app?vid=4e36db74-06bf-477a-bee9-51805eb8c5d1"},"vehicle_type_id":"4","last_reported":1737465352,"current_range_meters":28800,"station_id":"ce4bhi12rcd13ifvqfo0","pricing_plan_id":"cebpf4jnsgd1na2vs0mg"},{"bike_id":"a4fbf9ce-9fe7-476c-b76c-ebb20789a665","system_id":"levelo_inurba_marseille","lat":43.29597,"lon":5.38094,"is_reserved":false,"is_disabled":false,"rental_uris":{"android":"levelo://app?vid=a4fbf9ce-9fe7-476c-b76c-ebb20789a665","ios":"levelo://app?vid=a4fbf9ce-9fe7-476c-b76c-ebb20789a665"},"vehicle_type_id":"4","last_reported":1737465352,"current_range_meters":37600,"station_id":"ce4bgl12rcd13ifvqbo0","pricing_plan_id":"cebpf4jnsgd1na2vs0mg"},{"bike_id":"632af81c-bc13-4852-ba93-de9626339260","system_id":"levelo_inurba_marseille","lat":43.30784,"lon":5.37652,"is_reserved":false,"is_disabled":false,"rental_uris":{"android":"levelo://app?vid=632af81c-bc13-4852-ba93-de9626339260","ios":"levelo://app?vid=632af81c-bc13-4852-ba93-de9626339260"},"vehicle_type_id":"4","last_reported":1737465352,"current_range_meters":38000,"station_id":"ce4bgv92rcd13ifvqcq0","pricing_plan_id":"cebpf4jnsgd1na2vs0mg"},{"bike_id":"0fdc2558-c265-4c0f-b88d-b053909c0353","system_id":"levelo_inurba_marseille","lat":43.24649,"lon":5.38891,"is_reserved":false,"is_disabled":false,"rental_uris":{"android":"levelo://app?vid=0fdc2558-c265-4c0f-b88d-b053909c0353","ios":"levelo://app?vid=0fdc2558-c265-4c0f-b88d-b053909c0353"},"vehicle_type_id":"4","last_reported":1737465352,"current_range_meters":15200,"station_id":"ce4bhg12rcd13ifvqf60","pricing_plan_id":"cebpf4jnsgd1na2vs0mg"},{"bike_id":"3965fbee-4ca6-470c-8db4-3c059617bf7d","system_id":"levelo_inurba_marseille","lat":43.29801,"lon":5.38114,"is_reserved":false,"is_disabled":false,"rental_uris":{"android":"levelo://app?vid=3965fbee-4ca6-470c-8db4-3c059617bf7d","ios":"levelo://app?vid=3965fbee-4ca6-470c-8db4-3c059617bf7d"},"vehicle_type_id":"4","last_reported":1737465352,"current_range_meters":14800,"station_id":"ce4bgip2rcd13ifvqbb0","pricing_plan_id":"cebpf4jnsgd1na2vs0mg"},{"bike_id":"ec01a950-0de2-4665-a5e7-65756e11e135","system_id":"levelo_inurba_marseille","lat":43.29903,"lon":5.43658,"is_reserved":false,"is_disabled":false,"rental_uris":{"android":"levelo://app?vid=ec01a950-0de2-4665-a5e7-65756e11e135","ios":"levelo://app?vid=ec01a950-0de2-4665-a5e7-65756e11e135"},"vehicle_type_id":"4","last_reported":1737465352,"current_range_meters":25600,"station_id":"ce4bhpp2rcd13ifvqhfg","pricing_plan_id":"cebpf4jnsgd1na2vs0mg"},{"bike_id":"c03ea4ec-810d-413d-90fe-2d507f11cc8d","system_id":"levelo_inurba_marseille","lat":43.29596,"lon":5.38094,"is_reserved":false,"is_disabled":false,"rental_uris":{"android":"levelo://app?vid=c03ea4ec-810d-413d-90fe-2d507f11cc8d","ios":"levelo://app?vid=c03ea4ec-810d-413d-90fe-2d507f11cc8d"},"vehicle_type_id":"4","last_reported":1737465352,"current_range_meters":27600,"station_id":"ce4bgl12rcd13ifvqbo0","pricing_plan_id":"cebpf4jnsgd1na2vs0mg"},{"bike_id":"66ce096e-2d59-4d30-bb68-6329fea7fe13","system_id":"levelo_inurba_marseille","lat":43.32098,"lon":5.36779,"is_reserved":false,"is_disabled":false,"rental_uris":{"android":"levelo://app?vid=66ce096e-2d59-4d30-bb68-6329fea7fe13","ios":"levelo://app?vid=66ce096e-2d59-4d30-bb68-6329fea7fe13"},"vehicle_type_id":"4","last_reported":1737465352,"current_range_meters":27600,"station_id":"ce4bhrh2rcd13ifvqhug","pricing_plan_id":"cebpf4jnsgd1na2vs0mg"},{"bike_id":"477448eb-f60c-4a0c-8e7d-6fa92b99483b","system_id":"levelo_inurba_marseille","lat":43.30952,"lon":5.39076,"is_reserved":false,"is_disabled":false,"rental_uris":{"android":"levelo://app?vid=477448eb-f60c-4a0c-8e7d-6fa92b99483b","ios":"levelo://app?vid=477448eb-f60c-4a0c-8e7d-6fa92b99483b"},"vehicle_type_id":"4","last_reported":1737465352,"current_range_meters":38800,"station_id":"ce4bgup2rcd13ifvqco0","pricing_plan_id":"cebpf4jnsgd1na2vs0mg"},{"bike_id":"03db88d0-d795-4992-88ee-05e2cce5a137","system_id":"levelo_inurba_marseille","lat":43.291,"lon":5.38138,"is_reserved":false,"is_disabled":false,"rental_uris":{"android":"levelo://app?vid=03db88d0-d795-4992-88ee-05e2cce5a137","ios":"levelo://app?vid=03db88d0-d795-4992-88ee-05e2cce5a137"},"vehicle_type_id":"4","last_reported":1737465352,"current_range_meters":38800,"station_id":"ce4bh512rcd13ifvqe2g","pricing_plan_id":"cebpf4jnsgd1na2vs0mg"},{"bike_id":"6c5bc4fb-7692-4139-a6b1-f6405304a300","system_id":"levelo_inurba_marseille","lat":43.27489,"lon":5.42462,"is_reserved":false,"is_disabled":false,"rental_uris":{"android":"levelo://app?vid=6c5bc4fb-7692-4139-a6b1-f6405304a300","ios":"levelo://app?vid=6c5bc4fb-7692-4139-a6b1-f6405304a300"},"vehicle_type_id":"4","last_reported":1737465352,"current_range_meters":22800,"station_id":"ce4bhn92rcd13ifvqgrg","pricing_plan_id":"cebpf4jnsgd1na2vs0mg"},{"bike_id":"2ab7bad2-4f1d-403e-829c-3a3d88e8d4fa","system_id":"levelo_inurba_marseille","lat":43.30783,"lon":5.37643,"is_reserved":false,"is_disabled":false,"rental_uris":{"android":"levelo://app?vid=2ab7bad2-4f1d-403e-829c-3a3d88e8d4fa","ios":"levelo://app?vid=2ab7bad2-4f1d-403e-829c-3a3d88e8d4fa"},"vehicle_type_id":"4","last_reported":1737465352,"current_range_meters":17200,"station_id":"ce4bgv92rcd13ifvqcq0","pricing_plan_id":"cebpf4jnsgd1na2vs0mg"},{"bike_id":"497ca8d7-ebef-47b1-8af4-e055e5527d9d","system_id":"levelo_inurba_marseille","lat":43.2587,"lon":5.399,"is_reserved":false,"is_disabled":false,"rental_uris":{"android":"levelo://app?vid=497ca8d7-ebef-47b1-8af4-e055e5527d9d","ios":"levelo://app?vid=497ca8d7-ebef-47b1-8af4-e055e5527d9d"},"vehicle_type_id":"4","last_reported":1737465352,"current_range_meters":38400,"station_id":"ce4bhl92rcd13ifvqghg","pricing_plan_id":"cebpf4jnsgd1na2vs0mg"},{"bike_id":"ad3158cf-c5bd-4af5-99cc-ead9d2bdb981","system_id":"levelo_inurba_marseille","lat":43.29653,"lon":5.37144,"is_reserved":false,"is_disabled":false,"rental_uris":{"android":"levelo://app?vid=ad3158cf-c5bd-4af5-99cc-ead9d2bdb981","ios":"levelo://app?vid=ad3158cf-c5bd-4af5-99cc-ead9d2bdb981"},"vehicle_type_id":"4","last_reported":1737465352,"current_range_meters":8400,"station_id":"ce4bgnh2rcd13ifvqc0g","pricing_plan_id":"cebpf4jnsgd1na2vs0mg"},{"bike_id":"f29197b7-892b-4656-99c5-484d8091a1b7","system_id":"levelo_inurba_marseille","lat":43.30549,"lon":5.36703,"is_reserved":false,"is_disabled":false,"rental_uris":{"android":"levelo://app?vid=f29197b7-892b-4656-99c5-484d8091a1b7","ios":"levelo://app?vid=f29197b7-892b-4656-99c5-484d8091a1b7"},"vehicle_type_id":"4","last_reported":1737465352,"current_range_meters":38800,"station_id":"ce4bgrp2rcd13ifvqc9g","pricing_plan_id":"cebpf4jnsgd1na2vs0mg"},{"bike_id":"c63545a7-0958-43b8-9a12-90a8d5922737","system_id":"levelo_inurba_marseille","lat":43.24177,"lon":5.39733,"is_reserved":false,"is_disabled":false,"rental_uris":{"android":"levelo://app?vid=c63545a7-0958-43b8-9a12-90a8d5922737","ios":"levelo://app?vid=c63545a7-0958-43b8-9a12-90a8d5922737"},"vehicle_type_id":"4","last_reported":1737465352,"current_range_meters":24800,"station_id":"ce4bhn12rcd13ifvqgpg","pricing_plan_id":"cebpf4jnsgd1na2vs0mg"},{"bike_id":"5434439c-80a7-45ef-8e7d-a897cb833684","system_id":"levelo_inurba_marseille","lat":43.32364,"lon":5.36758,"is_reserved":false,"is_disabled":false,"rental_uris":{"android":"levelo://app?vid=5434439c-80a7-45ef-8e7d-a897cb833684","ios":"levelo://app?vid=5434439c-80a7-45ef-8e7d-a897cb833684"},"vehicle_type_id":"4","last_reported":1737465352,"current_range_meters":38800,"station_id":"ce4bhsh2rcd13ifvqi2g","pricing_plan_id":"cebpf4jnsgd1na2vs0mg"},{"bike_id":"46172028-0991-4dda-95c3-a902e808a121","system_id":"levelo_inurba_marseille","lat":43.29302,"lon":5.37448,"is_reserved":false,"is_disabled":false,"rental_uris":{"android":"levelo://app?vid=46172028-0991-4dda-95c3-a902e808a121","ios":"levelo://app?vid=46172028-0991-4dda-95c3-a902e808a121"},"vehicle_type_id":"4","last_reported":1737465352,"current_range_meters":38400,"station_id":"ce4bgi12rcd13ifvqb70","pricing_plan_id":"cebpf4jnsgd1na2vs0mg"},{"bike_id":"64899030-1386-4f33-8aa8-3daa0b76ca1f","system_id":"levelo_inurba_marseille","lat":43.33623,"lon":5.41021,"is_reserved":false,"is_disabled":false,"rental_uris":{"android":"levelo://app?vid=64899030-1386-4f33-8aa8-3daa0b76ca1f","ios":"levelo://app?vid=64899030-1386-4f33-8aa8-3daa0b76ca1f"},"vehicle_type_id":"4","last_reported":1737465352,"current_range_meters":11200,"station_id":"ce4bhqh2rcd13ifvqhmg","pricing_plan_id":"cebpf4jnsgd1na2vs0mg"},{"bike_id":"df369f94-f60d-4164-aae0-f638059bde04","system_id":"levelo_inurba_marseille","lat":43.32368,"lon":5.38881,"is_reserved":false,"is_disabled":false,"rental_uris":{"android":"levelo://app?vid=df369f94-f60d-4164-aae0-f638059bde04","ios":"levelo://app?vid=df369f94-f60d-4164-aae0-f638059bde04"},"vehicle_type_id":"4","last_reported":1737465352,"current_range_meters":29600,"station_id":"ce4bhqp2rcd13ifvqhog","pricing_plan_id":"cebpf4jnsgd1na2vs0mg"},{"bike_id":"ca7dfd1a-c702-48d0-bed6-df95c25b531a","system_id":"levelo_inurba_marseille","lat":43.30589,"lon":5.39343,"is_reserved":false,"is_disabled":false,"rental_uris":{"android":"levelo://app?vid=ca7dfd1a-c702-48d0-bed6-df95c25b531a","ios":"levelo://app?vid=ca7dfd1a-c702-48d0-bed6-df95c25b531a"},"vehicle_type_id":"4","last_reported":1737465352,"current_range_meters":36000,"station_id":"ce4bh0p2rcd13ifvqd80","pricing_plan_id":"cebpf4jnsgd1na2vs0mg"},{"bike_id":"3dd094e6-7b23-41d2-9e4a-a9cfaaac6a3e","system_id":"levelo_inurba_marseille","lat":43.3361,"lon":5.41022,"is_reserved":false,"is_disabled":false,"rental_uris":{"android":"levelo://app?vid=3dd094e6-7b23-41d2-9e4a-a9cfaaac6a3e","ios":"levelo://app?vid=3dd094e6-7b23-41d2-9e4a-a9cfaaac6a3e"},"vehicle_type_id":"4","last_reported":1737465352,"current_range_meters":38000,"station_id":"ce4bhqh2rcd13ifvqhmg","pricing_plan_id":"cebpf4jnsgd1na2vs0mg"},{"bike_id":"ffee3e92-aedf-4ae9-83cb-cc457d76f7ad","system_id":"levelo_inurba_marseille","lat":43.32637,"lon":5.41006,"is_reserved":false,"is_disabled":false,"rental_uris":{"android":"levelo://app?vid=ffee3e92-aedf-4ae9-83cb-cc457d76f7ad","ios":"levelo://app?vid=ffee3e92-aedf-4ae9-83cb-cc457d76f7ad"},"vehicle_type_id":"4","last_reported":1737465352,"current_range_meters":31200,"station_id":"ce4bhpp2rcd13ifvqhgg","pricing_plan_id":"cebpf4jnsgd1na2vs0mg"},{"bike_id":"524b093f-b071-41c0-9fe4-f158e085c588","system_id":"levelo_inurba_marseille","lat":43.32454,"lon":5.36568,"is_reserved":false,"is_disabled":false,"rental_uris":{"android":"levelo://app?vid=524b093f-b071-41c0-9fe4-f158e085c588","ios":"levelo://app?vid=524b093f-b071-41c0-9fe4-f158e085c588"},"vehicle_type_id":"4","last_reported":1737465352,"current_range_meters":28400,"station_id":"ce4bhs12rcd13ifvqhvg","pricing_plan_id":"cebpf4jnsgd1na2vs0mg"},{"bike_id":"c9ade4f2-5353-465e-a29e-88869a0b5538","system_id":"levelo_inurba_marseille","lat":43.26952,"lon":5.3863,"is_reserved":false,"is_disabled":false,"rental_uris":{"android":"levelo://app?vid=c9ade4f2-5353-465e-a29e-88869a0b5538","ios":"levelo://app?vid=c9ade4f2-5353-465e-a29e-88869a0b5538"},"vehicle_type_id":"4","last_reported":1737465352,"current_range_meters":36400,"station_id":"ce4bhh92rcd13ifvqfh0","pricing_plan_id":"cebpf4jnsgd1na2vs0mg"},{"bike_id":"bbe30ec8-e43d-4675-922b-0c8995bb10f8","system_id":"levelo_inurba_marseille","lat":43.27658,"lon":5.38902,"is_reserved":false,"is_disabled":false,"rental_uris":{"android":"levelo://app?vid=bbe30ec8-e43d-4675-922b-0c8995bb10f8","ios":"levelo://app?vid=bbe30ec8-e43d-4675-922b-0c8995bb10f8"},"vehicle_type_id":"4","last_reported":1737465352,"current_range_meters":38800,"station_id":"ce4bhi12rcd13ifvqfo0","pricing_plan_id":"cebpf4jnsgd1na2vs0mg"},{"bike_id":"ef6d9cdb-2009-4483-b52b-512f477b93a9","system_id":"levelo_inurba_marseille","lat":43.27206,"lon":5.39189,"is_reserved":false,"is_disabled":false,"rental_uris":{"android":"levelo://app?vid=ef6d9cdb-2009-4483-b52b-512f477b93a9","ios":"levelo://app?vid=ef6d9cdb-2009-4483-b52b-512f477b93a9"},"vehicle_type_id":"4","last_reported":1737465352,"current_range_meters":38000,"station_id":"ce4bhhp2rcd13ifvqfm0","pricing_plan_id":"cebpf4jnsgd1na2vs0mg"},{"bike_id":"30018cde-a53e-4d9c-9f8c-ddb064d6ec17","system_id":"levelo_inurba_marseille","lat":43.23066,"lon":5.35494,"is_reserved":false,"is_disabled":false,"rental_uris":{"android":"levelo://app?vid=30018cde-a53e-4d9c-9f8c-ddb064d6ec17","ios":"levelo://app?vid=30018cde-a53e-4d9c-9f8c-ddb064d6ec17"},"vehicle_type_id":"4","last_reported":1737465352,"current_range_meters":12400,"station_id":"cpo3342slgdg3j2ifvpg","pricing_plan_id":"cebpf4jnsgd1na2vs0mg"},{"bike_id":"a86a6700-765e-49cb-a89a-158a0b203e3f","system_id":"levelo_inurba_marseille","lat":43.246739,"lon":5.381528,"is_reserved":false,"is_disabled":false,"rental_uris":{"android":"levelo://app?vid=a86a6700-765e-49cb-a89a-158a0b203e3f","ios":"levelo://app?vid=a86a6700-765e-49cb-a89a-158a0b203e3f"},"vehicle_type_id":"4","last_reported":1737465352,"current_range_meters":35600,"station_id":"ce4bhih2rcd13ifvqfr0","pricing_plan_id":"cebpf4jnsgd1na2vs0mg"},{"bike_id":"8a1bee84-10b3-4229-803c-2a1e50653808","system_id":"levelo_inurba_marseille","lat":43.32441,"lon":5.36603,"is_reserved":false,"is_disabled":false,"rental_uris":{"android":"levelo://app?vid=8a1bee84-10b3-4229-803c-2a1e50653808","ios":"levelo://app?vid=8a1bee84-10b3-4229-803c-2a1e50653808"},"vehicle_type_id":"4","last_reported":1737465352,"current_range_meters":14800,"station_id":"","pricing_plan_id":"cebpf4jnsgd1na2vs0mg"},{"bike_id":"b5b91842-f1aa-4bba-964f-7a9484225fb0","system_id":"levelo_inurba_marseille","lat":43.25874,"lon":5.39906,"is_reserved":false,"is_disabled":false,"rental_uris":{"android":"levelo://app?vid=b5b91842-f1aa-4bba-964f-7a9484225fb0","ios":"levelo://app?vid=b5b91842-f1aa-4bba-964f-7a9484225fb0"},"vehicle_type_id":"4","last_reported":1737465352,"current_range_meters":38800,"station_id":"ce4bhl92rcd13ifvqghg","pricing_plan_id":"cebpf4jnsgd1na2vs0mg"},{"bike_id":"6449805d-b388-4f54-b4e7-06789a994543","system_id":"levelo_inurba_marseille","lat":43.3079,"lon":5.38169,"is_reserved":false,"is_disabled":true,"rental_uris":{"android":"levelo://app?vid=6449805d-b388-4f54-b4e7-06789a994543","ios":"levelo://app?vid=6449805d-b388-4f54-b4e7-06789a994543"},"vehicle_type_id":"4","last_reported":1737465352,"current_range_meters":1200,"station_id":"ce4bgt12rcd13ifvqce0","pricing_plan_id":"cebpf4jnsgd1na2vs0mg"},{"bike_id":"60b7d049-237a-4dbd-ad0c-436ecde1802f","system_id":"levelo_inurba_marseille","lat":43.23199,"lon":5.35563,"is_reserved":false,"is_disabled":false,"rental_uris":{"android":"levelo://app?vid=60b7d049-237a-4dbd-ad0c-436ecde1802f","ios":"levelo://app?vid=60b7d049-237a-4dbd-ad0c-436ecde1802f"},"vehicle_type_id":"4","last_reported":1737465352,"current_range_meters":20800,"station_id":"ce4bhu92rcd13ifvqi70","pricing_plan_id":"cebpf4jnsgd1na2vs0mg"},{"bike_id":"9cf1e74c-671c-4d26-a8d1-23257c24e327","system_id":"levelo_inurba_marseille","lat":43.27973,"lon":5.38726,"is_reserved":false,"is_disabled":false,"rental_uris":{"android":"levelo://app?vid=9cf1e74c-671c-4d26-a8d1-23257c24e327","ios":"levelo://app?vid=9cf1e74c-671c-4d26-a8d1-23257c24e327"},"vehicle_type_id":"4","last_reported":1737465352,"current_range_meters":38800,"station_id":"ce4bhg12rcd13ifvqf80","pricing_plan_id":"cebpf4jnsgd1na2vs0mg"},{"bike_id":"f7a6c901-31c8-4066-b53a-57cec004d404","system_id":"levelo_inurba_marseille","lat":43.25825,"lon":5.39441,"is_reserved":false,"is_disabled":false,"rental_uris":{"android":"levelo://app?vid=f7a6c901-31c8-4066-b53a-57cec004d404","ios":"levelo://app?vid=f7a6c901-31c8-4066-b53a-57cec004d404"},"vehicle_type_id":"4","last_reported":1737465352,"current_range_meters":28000,"station_id":"ce4bhip2rcd13ifvqft0","pricing_plan_id":"cebpf4jnsgd1na2vs0mg"},{"bike_id":"7a14c908-5d21-478e-b2fb-cdaa7ed81c08","system_id":"levelo_inurba_marseille","lat":43.2721,"lon":5.39197,"is_reserved":false,"is_disabled":false,"rental_uris":{"android":"levelo://app?vid=7a14c908-5d21-478e-b2fb-cdaa7ed81c08","ios":"levelo://app?vid=7a14c908-5d21-478e-b2fb-cdaa7ed81c08"},"vehicle_type_id":"4","last_reported":1737465352,"current_range_meters":38800,"station_id":"ce4bhhp2rcd13ifvqfm0","pricing_plan_id":"cebpf4jnsgd1na2vs0mg"},{"bike_id":"86d67274-3f7f-4b7f-936e-b73e7a0da0d3","system_id":"levelo_inurba_marseille","lat":43.30537,"lon":5.36752,"is_reserved":false,"is_disabled":false,"rental_uris":{"android":"levelo://app?vid=86d67274-3f7f-4b7f-936e-b73e7a0da0d3","ios":"levelo://app?vid=86d67274-3f7f-4b7f-936e-b73e7a0da0d3"},"vehicle_type_id":"4","last_reported":1737465352,"current_range_meters":38800,"station_id":"ce4bgrp2rcd13ifvqc9g","pricing_plan_id":"cebpf4jnsgd1na2vs0mg"},{"bike_id":"e6ebf494-3c35-4632-896f-d8fdfab804ad","system_id":"levelo_inurba_marseille","lat":43.30595,"lon":5.39368,"is_reserved":false,"is_disabled":false,"rental_uris":{"android":"levelo://app?vid=e6ebf494-3c35-4632-896f-d8fdfab804ad","ios":"levelo://app?vid=e6ebf494-3c35-4632-896f-d8fdfab804ad"},"vehicle_type_id":"4","last_reported":1737465352,"current_range_meters":22800,"station_id":"ce4bh0p2rcd13ifvqd80","pricing_plan_id":"cebpf4jnsgd1na2vs0mg"},{"bike_id":"f2b8aeab-8c5b-4c5c-8520-4e486493b3b3","system_id":"levelo_inurba_marseille","lat":43.29626,"lon":5.3717,"is_reserved":false,"is_disabled":false,"rental_uris":{"android":"levelo://app?vid=f2b8aeab-8c5b-4c5c-8520-4e486493b3b3","ios":"levelo://app?vid=f2b8aeab-8c5b-4c5c-8520-4e486493b3b3"},"vehicle_type_id":"4","last_reported":1737465352,"current_range_meters":8400,"station_id":"ce4bgnh2rcd13ifvqc0g","pricing_plan_id":"cebpf4jnsgd1na2vs0mg"},{"bike_id":"cea541d4-3f8e-4079-91ad-02075f617536","system_id":"levelo_inurba_marseille","lat":43.27373,"lon":5.36253,"is_reserved":false,"is_disabled":false,"rental_uris":{"android":"levelo://app?vid=cea541d4-3f8e-4079-91ad-02075f617536","ios":"levelo://app?vid=cea541d4-3f8e-4079-91ad-02075f617536"},"vehicle_type_id":"4","last_reported":1737465352,"current_range_meters":39200,"station_id":"ce4bhbh2rcd13ifvqeo0","pricing_plan_id":"cebpf4jnsgd1na2vs0mg"},{"bike_id":"4a056786-bc85-4309-a7b3-2d018225f433","system_id":"levelo_inurba_marseille","lat":43.29968,"lon":5.38499,"is_reserved":false,"is_disabled":true,"rental_uris":{"android":"levelo://app?vid=4a056786-bc85-4309-a7b3-2d018225f433","ios":"levelo://app?vid=4a056786-bc85-4309-a7b3-2d018225f433"},"vehicle_type_id":"4","last_reported":1737465352,"current_range_meters":1600,"station_id":"ce4bgj92rcd13ifvqbd0","pricing_plan_id":"cebpf4jnsgd1na2vs0mg"},{"bike_id":"d4b90593-cff6-42ae-a7e6-7dc69dbcd653","system_id":"levelo_inurba_marseille","lat":43.24066,"lon":5.37772,"is_reserved":false,"is_disabled":false,"rental_uris":{"android":"levelo://app?vid=d4b90593-cff6-42ae-a7e6-7dc69dbcd653","ios":"levelo://app?vid=d4b90593-cff6-42ae-a7e6-7dc69dbcd653"},"vehicle_type_id":"4","last_reported":1737465352,"current_range_meters":38000,"station_id":"ce4bhnp2rcd13ifvqgvg","pricing_plan_id":"cebpf4jnsgd1na2vs0mg"},{"bike_id":"4f990209-04d5-4ce5-bcf6-1abc31b5d30d","system_id":"levelo_inurba_marseille","lat":43.30548,"lon":5.36526,"is_reserved":false,"is_disabled":false,"rental_uris":{"android":"levelo://app?vid=4f990209-04d5-4ce5-bcf6-1abc31b5d30d","ios":"levelo://app?vid=4f990209-04d5-4ce5-bcf6-1abc31b5d30d"},"vehicle_type_id":"4","last_reported":1737465352,"current_range_meters":38800,"station_id":"ce4bgs12rcd13ifvqcag","pricing_plan_id":"cebpf4jnsgd1na2vs0mg"},{"bike_id":"a2665873-ff7d-4ec2-9a56-ebacf8c35007","system_id":"levelo_inurba_marseille","lat":43.29236,"lon":5.3608,"is_reserved":false,"is_disabled":false,"rental_uris":{"android":"levelo://app?vid=a2665873-ff7d-4ec2-9a56-ebacf8c35007","ios":"levelo://app?vid=a2665873-ff7d-4ec2-9a56-ebacf8c35007"},"vehicle_type_id":"4","last_reported":1737465352,"current_range_meters":28000,"station_id":"ce4bhbh2rcd13ifvqeqg","pricing_plan_id":"cebpf4jnsgd1na2vs0mg"},{"bike_id":"c5e57d6e-b59f-4b78-9a63-475907d5c10e","system_id":"levelo_inurba_marseille","lat":43.24805,"lon":5.37456,"is_reserved":false,"is_disabled":false,"rental_uris":{"android":"levelo://app?vid=c5e57d6e-b59f-4b78-9a63-475907d5c10e","ios":"levelo://app?vid=c5e57d6e-b59f-4b78-9a63-475907d5c10e"},"vehicle_type_id":"4","last_reported":1737465352,"current_range_meters":24000,"station_id":"ce4bhgh2rcd13ifvqfb0","pricing_plan_id":"cebpf4jnsgd1na2vs0mg"},{"bike_id":"292f8adc-7623-41ea-a3ea-158a93156577","system_id":"levelo_inurba_marseille","lat":43.30566,"lon":5.38428,"is_reserved":false,"is_disabled":false,"rental_uris":{"android":"levelo://app?vid=292f8adc-7623-41ea-a3ea-158a93156577","ios":"levelo://app?vid=292f8adc-7623-41ea-a3ea-158a93156577"},"vehicle_type_id":"4","last_reported":1737465352,"current_range_meters":29600,"station_id":"ce4bgg92rcd13ifvqb30","pricing_plan_id":"cebpf4jnsgd1na2vs0mg"},{"bike_id":"842dbf50-474a-4f28-922c-6c63296056d8","system_id":"levelo_inurba_marseille","lat":43.29389,"lon":5.37853,"is_reserved":false,"is_disabled":true,"rental_uris":{"android":"levelo://app?vid=842dbf50-474a-4f28-922c-6c63296056d8","ios":"levelo://app?vid=842dbf50-474a-4f28-922c-6c63296056d8"},"vehicle_type_id":"4","last_reported":1737465352,"current_range_meters":29600,"station_id":"ce4bgjh2rcd13ifvqbf0","pricing_plan_id":"cebpf4jnsgd1na2vs0mg"},{"bike_id":"09271c13-bc57-4a1b-ad60-73ddd2d0ee51","system_id":"levelo_inurba_marseille","lat":43.31353,"lon":5.36718,"is_reserved":false,"is_disabled":false,"rental_uris":{"android":"levelo://app?vid=09271c13-bc57-4a1b-ad60-73ddd2d0ee51","ios":"levelo://app?vid=09271c13-bc57-4a1b-ad60-73ddd2d0ee51"},"vehicle_type_id":"4","last_reported":1737465352,"current_range_meters":38800,"station_id":"ce4bgr92rcd13ifvqc6g","pricing_plan_id":"cebpf4jnsgd1na2vs0mg"},{"bike_id":"b1178cb4-439f-49c8-944f-b5adf4637300","system_id":"levelo_inurba_marseille","lat":43.28157,"lon":5.42644,"is_reserved":false,"is_disabled":false,"rental_uris":{"android":"levelo://app?vid=b1178cb4-439f-49c8-944f-b5adf4637300","ios":"levelo://app?vid=b1178cb4-439f-49c8-944f-b5adf4637300"},"vehicle_type_id":"4","last_reported":1737465352,"current_range_meters":24000,"station_id":"ce4bhnh2rcd13ifvqgug","pricing_plan_id":"cebpf4jnsgd1na2vs0mg"},{"bike_id":"64b084cb-bee9-4bf3-b5f1-99ae8fc22268","system_id":"levelo_inurba_marseille","lat":43.241825,"lon":5.3972,"is_reserved":false,"is_disabled":false,"rental_uris":{"android":"levelo://app?vid=64b084cb-bee9-4bf3-b5f1-99ae8fc22268","ios":"levelo://app?vid=64b084cb-bee9-4bf3-b5f1-99ae8fc22268"},"vehicle_type_id":"4","last_reported":1737465352,"current_range_meters":27200,"station_id":"ce4bhn12rcd13ifvqgpg","pricing_plan_id":"cebpf4jnsgd1na2vs0mg"},{"bike_id":"6e63ef53-d2fb-4193-8563-06449ed74b84","system_id":"levelo_inurba_marseille","lat":43.29908,"lon":5.38132,"is_reserved":false,"is_disabled":true,"rental_uris":{"android":"levelo://app?vid=6e63ef53-d2fb-4193-8563-06449ed74b84","ios":"levelo://app?vid=6e63ef53-d2fb-4193-8563-06449ed74b84"},"vehicle_type_id":"4","last_reported":1737465352,"current_range_meters":0,"station_id":"ce4bgj12rcd13ifvqbc0","pricing_plan_id":"cebpf4jnsgd1na2vs0mg"},{"bike_id":"8416c2eb-29ef-40ca-bcab-1cbe26f7589e","system_id":"levelo_inurba_marseille","lat":43.28472,"lon":5.35891,"is_reserved":false,"is_disabled":false,"rental_uris":{"android":"levelo://app?vid=8416c2eb-29ef-40ca-bcab-1cbe26f7589e","ios":"levelo://app?vid=8416c2eb-29ef-40ca-bcab-1cbe26f7589e"},"vehicle_type_id":"4","last_reported":1737465352,"current_range_meters":30800,"station_id":"ce4bhah2rcd13ifvqei0","pricing_plan_id":"cebpf4jnsgd1na2vs0mg"},{"bike_id":"e67b0eef-d916-463e-900e-bb2b15e4f670","system_id":"levelo_inurba_marseille","lat":43.28998,"lon":5.37822,"is_reserved":false,"is_disabled":false,"rental_uris":{"android":"levelo://app?vid=e67b0eef-d916-463e-900e-bb2b15e4f670","ios":"levelo://app?vid=e67b0eef-d916-463e-900e-bb2b15e4f670"},"vehicle_type_id":"4","last_reported":1737465352,"current_range_meters":38000,"station_id":"ce4bh9p2rcd13ifvqed0","pricing_plan_id":"cebpf4jnsgd1na2vs0mg"},{"bike_id":"0aaedd18-95c7-458b-bb63-6504ef2e11ba","system_id":"levelo_inurba_marseille","lat":43.32122,"lon":5.36798,"is_reserved":false,"is_disabled":false,"rental_uris":{"android":"levelo://app?vid=0aaedd18-95c7-458b-bb63-6504ef2e11ba","ios":"levelo://app?vid=0aaedd18-95c7-458b-bb63-6504ef2e11ba"},"vehicle_type_id":"4","last_reported":1737465352,"current_range_meters":33600,"station_id":"ce4bhrh2rcd13ifvqhug","pricing_plan_id":"cebpf4jnsgd1na2vs0mg"},{"bike_id":"2aff2808-d7be-4b33-8999-fdb4f597ac6b","system_id":"levelo_inurba_marseille","lat":43.2408,"lon":5.3776,"is_reserved":false,"is_disabled":false,"rental_uris":{"android":"levelo://app?vid=2aff2808-d7be-4b33-8999-fdb4f597ac6b","ios":"levelo://app?vid=2aff2808-d7be-4b33-8999-fdb4f597ac6b"},"vehicle_type_id":"4","last_reported":1737465352,"current_range_meters":39200,"station_id":"ce4bhnp2rcd13ifvqgvg","pricing_plan_id":"cebpf4jnsgd1na2vs0mg"},{"bike_id":"369e2f8b-9ce2-4cdb-b0e3-7cddb7bcf153","system_id":"levelo_inurba_marseille","lat":43.29515,"lon":5.39044,"is_reserved":false,"is_disabled":false,"rental_uris":{"android":"levelo://app?vid=369e2f8b-9ce2-4cdb-b0e3-7cddb7bcf153","ios":"levelo://app?vid=369e2f8b-9ce2-4cdb-b0e3-7cddb7bcf153"},"vehicle_type_id":"4","last_reported":1737465352,"current_range_meters":7200,"station_id":"ce4bh3p2rcd13ifvqdp0","pricing_plan_id":"cebpf4jnsgd1na2vs0mg"},{"bike_id":"a00f9d10-2df3-4a8a-9537-639a60aaa7db","system_id":"levelo_inurba_marseille","lat":43.32487,"lon":5.36566,"is_reserved":false,"is_disabled":false,"rental_uris":{"android":"levelo://app?vid=a00f9d10-2df3-4a8a-9537-639a60aaa7db","ios":"levelo://app?vid=a00f9d10-2df3-4a8a-9537-639a60aaa7db"},"vehicle_type_id":"4","last_reported":1737465352,"current_range_meters":35600,"station_id":"ce4bhs12rcd13ifvqhvg","pricing_plan_id":"cebpf4jnsgd1na2vs0mg"},{"bike_id":"f0eb1d86-49d7-4e30-9a1d-73e3b3c13f46","system_id":"levelo_inurba_marseille","lat":43.27792,"lon":5.39216,"is_reserved":false,"is_disabled":false,"rental_uris":{"android":"levelo://app?vid=f0eb1d86-49d7-4e30-9a1d-73e3b3c13f46","ios":"levelo://app?vid=f0eb1d86-49d7-4e30-9a1d-73e3b3c13f46"},"vehicle_type_id":"4","last_reported":1737465352,"current_range_meters":38800,"station_id":"","pricing_plan_id":"cebpf4jnsgd1na2vs0mg"},{"bike_id":"2eac6195-39d1-4ac5-ab47-8f48c635f2bc","system_id":"levelo_inurba_marseille","lat":43.23189,"lon":5.39987,"is_reserved":false,"is_disabled":false,"rental_uris":{"android":"levelo://app?vid=2eac6195-39d1-4ac5-ab47-8f48c635f2bc","ios":"levelo://app?vid=2eac6195-39d1-4ac5-ab47-8f48c635f2bc"},"vehicle_type_id":"4","last_reported":1737465352,"current_range_meters":39200,"station_id":"ce4bhn12rcd13ifvqgqg","pricing_plan_id":"cebpf4jnsgd1na2vs0mg"},{"bike_id":"be5af88f-b9fb-4c45-affa-947d36a2d441","system_id":"levelo_inurba_marseille","lat":43.26548,"lon":5.37339,"is_reserved":false,"is_disabled":false,"rental_uris":{"android":"levelo://app?vid=be5af88f-b9fb-4c45-affa-947d36a2d441","ios":"levelo://app?vid=be5af88f-b9fb-4c45-affa-947d36a2d441"},"vehicle_type_id":"4","last_reported":1737465352,"current_range_meters":9600,"station_id":"ce4bhg12rcd13ifvqf70","pricing_plan_id":"cebpf4jnsgd1na2vs0mg"},