{"last_updated":1704406010,"ttl":30,"version":"2.2","data":{"bikes":[{"bike_id":"53c6de25-625c-4b59-9787-d78550753d7a","system_id":"levelo_inurba_marseille","lat":43.314811,"lon":5.373103,"is_reserved":false,"is_disabled":false,"rental_uris":{"android":"levelo://app?vid=53c6de25-625c-4b59-9787-d78550753d7a","ios":"levelo://app?vid=53c6de25-625c-4b59-9787-d78550753d7a"},"vehicle_type_id":"4","last_reported":1704406010,"current_range_meters":0,"station_id":"ce4bgt12rcd13ifvqcd0","pricing_plan_id":"free"},{"bike_id":"64468dc6-1328-45d5-9c14-a0e97cdb2d6a","system_id":"levelo_inurba_marseille","lat":43.305368,"lon":5.367343,"is_reserved":false,"is_disabled":false,"rental_uris":{"android":"levelo://app?vid=64468dc6-1328-45d5-9c14-a0e97cdb2d6a","ios":"levelo://app?vid=64468dc6-1328-45d5-9c14-a0e97cdb2d6a"},"vehicle_type_id":"4","last_reported":1704406010,"current_range_meters":2400,"station_id":"ce4bgrp2rcd13ifvqc9g","pricing_plan_id":"free"},{"bike_id":"5611dd7f-fbdd-43a5-9553-e69d4d493df5","system_id":"levelo_inurba_marseille","lat":43.311238,"lon":5.377562,"is_reserved":false,"is_disabled":false,"rental_uris":{"android":"levelo://app?vid=5611dd7f-fbdd-43a5-9553-e69d4d493df5","ios":"levelo://app?vid=5611dd7f-fbdd-43a5-9553-e69d4d493df5"},"vehicle_type_id":"4","last_reported":1704406010,"current_range_meters":0,"station_id":"ce4bgt92rcd13ifvqcg0","pricing_plan_id":"free"},{"bike_id":"8f20fd1d-4b5f-4b10-8a6e-fe021223b97b","system_id":"levelo_inurba_marseille","lat":43.30836,"lon":5.3765,"is_reserved":false,"is_disabled":false,"rental_uris":{"android":"levelo://app?vid=8f20fd1d-4b5f-4b10-8a6e-fe021223b97b","ios":"levelo://app?vid=8f20fd1d-4b5f-4b10-8a6e-fe021223b97b"},"vehicle_type_id":"4","last_reported":1704406010,"current_range_meters":7600,"station_id":"ce4bgv92rcd13ifvqcq0","pricing_plan_id":"free"},{"bike_id":"05b2db70-1c3c-4b2b-beea-cd4448a97b0a","system_id":"levelo_inurba_marseille","lat":43.307945,"lon":5.376487,"is_reserved":false,"is_disabled":false,"rental_uris":{"android":"levelo://app?vid=05b2db70-1c3c-4b2b-beea-cd4448a97b0a","ios":"levelo://app?vid=05b2db70-1c3c-4b2b-beea-cd4448a97b0a"},"vehicle_type_id":"4","last_reported":1704406010,"current_range_meters":30400,"station_id":"ce4bgv92rcd13ifvqcq0","pricing_plan_id":"free"},{"bike_id":"2fe83b0f-eb02-4856-9559-2ec7a49fcb83","system_id":"levelo_inurba_marseille","lat":43.307945,"lon":5.376487,"is_reserved":false,"is_disabled":false,"rental_uris":{"android":"levelo://app?vid=2fe83b0f-eb02-4856-9559-2ec7a49fcb83","ios":"levelo://app?vid=2fe83b0f-eb02-4856-9559-2ec7a49fcb83"},"vehicle_type_id":"4","last_reported":1704406010,"current_range_meters":23200,"station_id":"ce4bgv92rcd13ifvqcq0","pricing_plan_id":"free"},{"bike_id":"b257377a-5678-4b16-8369-840448a748ec","system_id":"levelo_inurba_marseille","lat":43.317075,"lon":5.377367,"is_reserved":false,"is_disabled":false,"rental_uris":{"android":"levelo://app?vid=b257377a-5678-4b16-8369-840448a748ec","ios":"levelo://app?vid=b257377a-5678-4b16-8369-840448a748ec"},"vehicle_type_id":"4","last_reported":1704406010,"current_range_meters":29200,"station_id":"ce4bgth2rcd13ifvqch0","pricing_plan_id":"free"},{"bike_id":"cdeebf68-0b67-4be8-93c3-84e01677a380","system_id":"levelo_inurba_marseille","lat":43.317075,"lon":5.377367,"is_reserved":false,"is_disabled":false,"rental_uris":{"android":"levelo://app?vid=cdeebf68-0b67-4be8-93c3-84e01677a380","ios":"levelo://app?vid=cdeebf68-0b67-4be8-93c3-84e01677a380"},"vehicle_type_id":"4","last_reported":1704406010,"current_range_meters":17200,"station_id":"ce4bgth2rcd13ifvqch0","pricing_plan_id":"free"},{"bike_id":"c4e90871-bb94-4085-82dc-ccbd997a22ca","system_id":"levelo_inurba_marseille","lat":43.315219,"lon":5.379025,"is_reserved":false,"is_disabled":false,"rental_uris":{"android":"levelo://app?vid=c4e90871-bb94-4085-82dc-ccbd997a22ca","ios":"levelo://app?vid=c4e90871-bb94-4085-82dc-ccbd997a22ca"},"vehicle_type_id":"4","last_reported":1704406010,"current_range_meters":17200,"station_id":"","pricing_plan_id":"free"},{"bike_id":"b2f736b9-5add-4644-b351-74e3e3aa3500","system_id":"levelo_inurba_marseille","lat":43.315386,"lon":5.380251,"is_reserved":false,"is_disabled":false,"rental_uris":{"android":"levelo://app?vid=b2f736b9-5add-4644-b351-74e3e3aa3500","ios":"levelo://app?vid=b2f736b9-5add-4644-b351-74e3e3aa3500"},"vehicle_type_id":"4","last_reported":1704406010,"current_range_meters":22000,"station_id":"ce4bhsp2rcd13ifvqi50","pricing_plan_id":"free"},{"bike_id":"307d9482-3661-4312-8850-4ffb6c1830ee","system_id":"levelo_inurba_marseille","lat":43.308012,"lon":5.381511,"is_reserved":false,"is_disabled":false,"rental_uris":{"android":"levelo://app?vid=307d9482-3661-4312-8850-4ffb6c1830ee","ios":"levelo://app?vid=307d9482-3661-4312-8850-4ffb6c1830ee"},"vehicle_type_id":"4","last_reported":1704406010,"current_range_meters":4400,"station_id":"ce4bgt12rcd13ifvqce0","pricing_plan_id":"free"},{"bike_id":"454de3ec-f1bf-4b0d-b4c9-75bb118ce06c","system_id":"levelo_inurba_marseille","lat":43.308012,"lon":5.381511,"is_reserved":false,"is_disabled":false,"rental_uris":{"android":"levelo://app?vid=454de3ec-f1bf-4b0d-b4c9-75bb118ce06c","ios":"levelo://app?vid=454de3ec-f1bf-4b0d-b4c9-75bb118ce06c"},"vehicle_type_id":"4","last_reported":1704406010,"current_range_meters":24800,"station_id":"ce4bgt12rcd13ifvqce0","pricing_plan_id":"free"},{"bike_id":"d0817f4d-a8dd-4a3e-89fc-640de2d77e1e","system_id":"levelo_inurba_marseille","lat":43.308012,"lon":5.381511,"is_reserved":false,"is_disabled":false,"rental_uris":{"android":"levelo://app?vid=d0817f4d-a8dd-4a3e-89fc-640de2d77e1e","ios":"levelo://app?vid=d0817f4d-a8dd-4a3e-89fc-640de2d77e1e"},"vehicle_type_id":"4","last_reported":1704406010,"current_range_meters":10800,"station_id":"ce4bgt12rcd13ifvqce0","pricing_plan_id":"free"},{"bike_id":"275c26d3-ae78-4dfd-8ae5-9ea38bca16b8","system_id":"levelo_inurba_marseille","lat":43.313714,"lon":5.38323,"is_reserved":false,"is_disabled":false,"rental_uris":{"android":"levelo://app?vid=275c26d3-ae78-4dfd-8ae5-9ea38bca16b8","ios":"levelo://app?vid=275c26d3-ae78-4dfd-8ae5-9ea38bca16b8"},"vehicle_type_id":"4","last_reported":1704406010,"current_range_meters":0,"station_id":"","pricing_plan_id":"free"},{"bike_id":"152907c8-7c49-49cf-9963-9c9a3c579d2e","system_id":"levelo_inurba_marseille","lat":43.304606,"lon":5.379026,"is_reserved":false,"is_disabled":false,"rental_uris":{"android":"levelo://app?vid=152907c8-7c49-49cf-9963-9c9a3c579d2e","ios":"levelo://app?vid=152907c8-7c49-49cf-9963-9c9a3c579d2e"},"vehicle_type_id":"4","last_reported":1704406010,"current_range_meters":24000,"station_id":"ce4bgup2rcd13ifvqcn0","pricing_plan_id":"free"},{"bike_id":"519f7e8b-043e-473b-8cc5-b19d6887cd56","system_id":"levelo_inurba_marseille","lat":43.30463,"lon":5.37904,"is_reserved":false,"is_disabled":false,"rental_uris":{"android":"levelo://app?vid=519f7e8b-043e-473b-8cc5-b19d6887cd56","ios":"levelo://app?vid=519f7e8b-043e-473b-8cc5-b19d6887cd56"},"vehicle_type_id":"4","last_reported":1704406010,"current_range_meters":24000,"station_id":"ce4bgup2rcd13ifvqcn0","pricing_plan_id":"free"},{"bike_id":"4b6cfb33-edd0-4f1d-b10d-7fc88feb6bae","system_id":"levelo_inurba_marseille","lat":43.30459,"lon":5.37903,"is_reserved":false,"is_disabled":false,"rental_uris":{"android":"levelo://app?vid=4b6cfb33-edd0-4f1d-b10d-7fc88feb6bae","ios":"levelo://app?vid=4b6cfb33-edd0-4f1d-b10d-7fc88feb6bae"},"vehicle_type_id":"4","last_reported":1704406010,"current_range_meters":0,"station_id":"ce4bgup2rcd13ifvqcn0","pricing_plan_id":"free"},{"bike_id":"d9e7b2c9-3fe5-4642-84bc-fbb3e5d6faec","system_id":"levelo_inurba_marseille","lat":43.324771,"lon":5.36557,"is_reserved":false,"is_disabled":false,"rental_uris":{"android":"levelo://app?vid=d9e7b2c9-3fe5-4642-84bc-fbb3e5d6faec","ios":"levelo://app?vid=d9e7b2c9-3fe5-4642-84bc-fbb3e5d6faec"},"vehicle_type_id":"4","last_reported":1704406010,"current_range_meters":17200,"station_id":"ce4bhs12rcd13ifvqhvg","pricing_plan_id":"free"},{"bike_id":"16ea5f48-dbdb-43db-8a5d-9c12a1294194","system_id":"levelo_inurba_marseille","lat":43.324771,"lon":5.36557,"is_reserved":false,"is_disabled":false,"rental_uris":{"android":"levelo://app?vid=16ea5f48-dbdb-43db-8a5d-9c12a1294194","ios":"levelo://app?vid=16ea5f48-dbdb-43db-8a5d-9c12a1294194"},"vehicle_type_id":"4","last_reported":1704406010,"current_range_meters":25200,"station_id":"ce4bhs12rcd13ifvqhvg","pricing_plan_id":"free"},{"bike_id":"d7dea04c-b16e-44ab-89dd-805311b9280c","system_id":"levelo_inurba_marseille","lat":43.319928,"lon":5.381403,"is_reserved":false,"is_disabled":false,"rental_uris":{"android":"levelo://app?vid=d7dea04c-b16e-44ab-89dd-805311b9280c","ios":"levelo://app?vid=d7dea04c-b16e-44ab-89dd-805311b9280c"},"vehicle_type_id":"4","last_reported":1704406010,"current_range_meters":28400,"station_id":"ce4bhr12rcd13ifvqhpg","pricing_plan_id":"free"},{"bike_id":"a8f66612-75a3-4ac8-abc1-61ed5d7e6452","system_id":"levelo_inurba_marseille","lat":43.32001,"lon":5.38147,"is_reserved":false,"is_disabled":false,"rental_uris":{"android":"levelo://app?vid=a8f66612-75a3-4ac8-abc1-61ed5d7e6452","ios":"levelo://app?vid=a8f66612-75a3-4ac8-abc1-61ed5d7e6452"},"vehicle_type_id":"4","last_reported":1704406010,"current_range_meters":0,"station_id":"ce4bhr12rcd13ifvqhpg","pricing_plan_id":"free"},{"bike_id":"f1339662-51db-4ceb-9d62-c7891632b9a2","system_id":"levelo_inurba_marseille","lat":43.319981,"lon":5.381529,"is_reserved":false,"is_disabled":false,"rental_uris":{"android":"levelo://app?vid=f1339662-51db-4ceb-9d62-c7891632b9a2","ios":"levelo://app?vid=f1339662-51db-4ceb-9d62-c7891632b9a2"},"vehicle_type_id":"4","last_reported":1704406010,"current_range_meters":29200,"station_id":"ce4bhr12rcd13ifvqhpg","pricing_plan_id":"free"},{"bike_id":"e4e97c3a-21dd-481b-802d-cce9979f17ed","system_id":"levelo_inurba_marseille","lat":43.31999,"lon":5.38161,"is_reserved":false,"is_disabled":false,"rental_uris":{"android":"levelo://app?vid=e4e97c3a-21dd-481b-802d-cce9979f17ed","ios":"levelo://app?vid=e4e97c3a-21dd-481b-802d-cce9979f17ed"},"vehicle_type_id":"4","last_reported":1704406010,"current_range_meters":7600,"station_id":"ce4bhr12rcd13ifvqhpg","pricing_plan_id":"free"},{"bike_id":"e253ad60-da8a-4c58-a466-48804c123e03","system_id":"levelo_inurba_marseille","lat":43.31355,"lon":5.38492,"is_reserved":false,"is_disabled":false,"rental_uris":{"android":"levelo://app?vid=e253ad60-da8a-4c58-a466-48804c123e03","ios":"levelo://app?vid=e253ad60-da8a-4c58-a466-48804c123e03"},"vehicle_type_id":"4","last_reported":1704406010,"current_range_meters":2000,"station_id":"ce4bgt92rcd13ifvqcf0","pricing_plan_id":"free"},{"bike_id":"4833377f-ac47-47c1-8a31-cad50e3fc453","system_id":"levelo_inurba_marseille","lat":43.299222,"lon":5.365554,"is_reserved":false,"is_disabled":false,"rental_uris":{"android":"levelo://app?vid=4833377f-ac47-47c1-8a31-cad50e3fc453","ios":"levelo://app?vid=4833377f-ac47-47c1-8a31-cad50e3fc453"},"vehicle_type_id":"4","last_reported":1704406010,"current_range_meters":10000,"station_id":"ce4bgm92rcd13ifvqbr0","pricing_plan_id":"free"},{"bike_id":"bd810660-488e-4b2a-9763-51af1030a1fe","system_id":"levelo_inurba_marseille","lat":43.31367,"lon":5.38493,"is_reserved":false,"is_disabled":false,"rental_uris":{"android":"levelo://app?vid=bd810660-488e-4b2a-9763-51af1030a1fe","ios":"levelo://app?vid=bd810660-488e-4b2a-9763-51af1030a1fe"},"vehicle_type_id":"4","last_reported":1704406010,"current_range_meters":0,"station_id":"ce4bgt92rcd13ifvqcf0","pricing_plan_id":"free"},{"bike_id":"17504bde-947a-4cd6-98b3-9a4c66aca99b","system_id":"levelo_inurba_marseille","lat":43.313827,"lon":5.385007,"is_reserved":false,"is_disabled":false,"rental_uris":{"android":"levelo://app?vid=17504bde-947a-4cd6-98b3-9a4c66aca99b","ios":"levelo://app?vid=17504bde-947a-4cd6-98b3-9a4c66aca99b"},"vehicle_type_id":"4","last_reported":1704406010,"current_range_meters":12000,"station_id":"ce4bgt92rcd13ifvqcf0","pricing_plan_id":"free"},{"bike_id":"e2a506dc-6bd3-4e1e-abaf-fc1cdb53c296","system_id":"levelo_inurba_marseille","lat":43.299222,"lon":5.365554,"is_reserved":false,"is_disabled":false,"rental_uris":{"android":"levelo://app?vid=e2a506dc-6bd3-4e1e-abaf-fc1cdb53c296","ios":"levelo://app?vid=e2a506dc-6bd3-4e1e-abaf-fc1cdb53c296"},"vehicle_type_id":"4","last_reported":1704406010,"current_range_meters":1600,"station_id":"ce4bgm92rcd13ifvqbr0","pricing_plan_id":"free"},{"bike_id":"b22604ec-0c4b-41b4-a20e-38add68f7682","system_id":"levelo_inurba_marseille","lat":43.325679,"lon":5.374788,"is_reserved":false,"is_disabled":false,"rental_uris":{"android":"levelo://app?vid=b22604ec-0c4b-41b4-a20e-38add68f7682","ios":"levelo://app?vid=b22604ec-0c4b-41b4-a20e-38add68f7682"},"vehicle_type_id":"4","last_reported":1704406010,"current_range_meters":20800,"station_id":"","pricing_plan_id":"free"},{"bike_id":"42417447-5269-42ab-b331-b7ee94937d8f","system_id":"levelo_inurba_marseille","lat":43.311722,"lon":5.387247,"is_reserved":false,"is_disabled":false,"rental_uris":{"android":"levelo://app?vid=42417447-5269-42ab-b331-b7ee94937d8f","ios":"levelo://app?vid=42417447-5269-42ab-b331-b7ee94937d8f"},"vehicle_type_id":"4","last_reported":1704406010,"current_range_meters":24400,"station_id":"ce4bgv12rcd13ifvqcp0","pricing_plan_id":"free"},{"bike_id":"6c146d87-b3cb-4393-a6d7-3ec3c3d00c74","system_id":"levelo_inurba_marseille","lat":43.311722,"lon":5.387247,"is_reserved":false,"is_disabled":false,"rental_uris":{"android":"levelo://app?vid=6c146d87-b3cb-4393-a6d7-3ec3c3d00c74","ios":"levelo://app?vid=6c146d87-b3cb-4393-a6d7-3ec3c3d00c74"},"vehicle_type_id":"4","last_reported":1704406010,"current_range_meters":16000,"station_id":"ce4bgv12rcd13ifvqcp0","pricing_plan_id":"free"},{"bike_id":"921e099e-9cf7-40ea-bb4e-f7b3d50d3bd5","system_id":"levelo_inurba_marseille","lat":43.311722,"lon":5.387247,"is_reserved":false,"is_disabled":false,"rental_uris":{"android":"levelo://app?vid=921e099e-9cf7-40ea-bb4e-f7b3d50d3bd5","ios":"levelo://app?vid=921e099e-9cf7-40ea-bb4e-f7b3d50d3bd5"},"vehicle_type_id":"4","last_reported":1704406010,"current_range_meters":12400,"station_id":"ce4bgv12rcd13ifvqcp0","pricing_plan_id":"free"},{"bike_id":"c7888963-715e-4a09-b091-8a8744630352","system_id":"levelo_inurba_marseille","lat":43.311722,"lon":5.387247,"is_reserved":false,"is_disabled":false,"rental_uris":{"android":"levelo://app?vid=c7888963-715e-4a09-b091-8a8744630352","ios":"levelo://app?vid=c7888963-715e-4a09-b091-8a8744630352"},"vehicle_type_id":"4","last_reported":1704406010,"current_range_meters":13600,"station_id":"ce4bgv12rcd13ifvqcp0","pricing_plan_id":"free"},{"bike_id":"af5bb506-7cfd-4987-91ad-b9e2c0393089","system_id":"levelo_inurba_marseille","lat":43.311722,"lon":5.387247,"is_reserved":false,"is_disabled":false,"rental_uris":{"android":"levelo://app?vid=af5bb506-7cfd-4987-91ad-b9e2c0393089","ios":"levelo://app?vid=af5bb506-7cfd-4987-91ad-b9e2c0393089"},"vehicle_type_id":"4","last_reported":1704406010,"current_range_meters":6400,"station_id":"ce4bgv12rcd13ifvqcp0","pricing_plan_id":"free"},{"bike_id":"87c84b51-3a48-46ae-8f73-552f37c2f601","system_id":"levelo_inurba_marseille","lat":43.311722,"lon":5.387247,"is_reserved":false,"is_disabled":false,"rental_uris":{"android":"levelo://app?vid=87c84b51-3a48-46ae-8f73-552f37c2f601","ios":"levelo://app?vid=87c84b51-3a48-46ae-8f73-552f37c2f601"},"vehicle_type_id":"4","last_reported":1704406010,"current_range_meters":4400,"station_id":"ce4bgv12rcd13ifvqcp0","pricing_plan_id":"free"},{"bike_id":"f53e7a9d-7ee6-4428-85bd-3db5d7cc3975","system_id":"levelo_inurba_marseille","lat":43.322881,"lon":5.382646,"is_reserved":false,"is_disabled":false,"rental_uris":{"android":"levelo://app?vid=f53e7a9d-7ee6-4428-85bd-3db5d7cc3975","ios":"levelo://app?vid=f53e7a9d-7ee6-4428-85bd-3db5d7cc3975"},"vehicle_type_id":"4","last_reported":1704406010,"current_range_meters":31200,"station_id":"ce4bhr12rcd13ifvqhqg","pricing_plan_id":"free"},{"bike_id":"4c685cb6-62c0-4268-8ed5-b01f21429f68","system_id":"levelo_inurba_marseille","lat":43.322877,"lon":5.38266,"is_reserved":false,"is_disabled":false,"rental_uris":{"android":"levelo://app?vid=4c685cb6-62c0-4268-8ed5-b01f21429f68","ios":"levelo://app?vid=4c685cb6-62c0-4268-8ed5-b01f21429f68"},"vehicle_type_id":"4","last_reported":1704406010,"current_range_meters":15200,"station_id":"ce4bhr12rcd13ifvqhqg","pricing_plan_id":"free"},{"bike_id":"7e69bdeb-fe69-4483-8ee7-88c81ad264d9","system_id":"levelo_inurba_marseille","lat":43.322872,"lon":5.382756,"is_reserved":false,"is_disabled":false,"rental_uris":{"android":"levelo://app?vid=7e69bdeb-fe69-4483-8ee7-88c81ad264d9","ios":"levelo://app?vid=7e69bdeb-fe69-4483-8ee7-88c81ad264d9"},"vehicle_type_id":"4","last_reported":1704406010,"current_range_meters":27200,"station_id":"ce4bhr12rcd13ifvqhqg","pricing_plan_id":"free"},{"bike_id":"0bc7ad39-3608-4c43-89ec-85133441f01f","system_id":"levelo_inurba_marseille","lat":43.32294,"lon":5.38271,"is_reserved":false,"is_disabled":false,"rental_uris":{"android":"levelo://app?vid=0bc7ad39-3608-4c43-89ec-85133441f01f","ios":"levelo://app?vid=0bc7ad39-3608-4c43-89ec-85133441f01f"},"vehicle_type_id":"4","last_reported":1704406010,"current_range_meters":14400,"station_id":"ce4bhr12rcd13ifvqhqg","pricing_plan_id":"free"},{"bike_id":"a6953f89-b867-47c2-a99f-949ca50d8a77","system_id":"levelo_inurba_marseille","lat":43.32826,"lon":5.36687,"is_reserved":false,"is_disabled":false,"rental_uris":{"android":"levelo://app?vid=a6953f89-b867-47c2-a99f-949ca50d8a77","ios":"levelo://app?vid=a6953f89-b867-47c2-a99f-949ca50d8a77"},"vehicle_type_id":"4","last_reported":1704406010,"current_range_meters":15600,"station_id":"ce4bhs92rcd13ifvqi0g","pricing_plan_id":"free"},{"bike_id":"1bb80286-6712-4d1f-985b-6846055ae321","system_id":"levelo_inurba_marseille","lat":43.328371,"lon":5.366909,"is_reserved":false,"is_disabled":false,"rental_uris":{"android":"levelo://app?vid=1bb80286-6712-4d1f-985b-6846055ae321","ios":"levelo://app?vid=1bb80286-6712-4d1f-985b-6846055ae321"},"vehicle_type_id":"4","last_reported":1704406010,"current_range_meters":0,"station_id":"ce4bhs92rcd13ifvqi0g","pricing_plan_id":"free"},{"bike_id":"40547a36-645f-4cc6-8bf9-232a8ea96bf6","system_id":"levelo_inurba_marseille","lat":43.328371,"lon":5.366909,"is_reserved":false,"is_disabled":false,"rental_uris":{"android":"levelo://app?vid=40547a36-645f-4cc6-8bf9-232a8ea96bf6","ios":"levelo://app?vid=40547a36-645f-4cc6-8bf9-232a8ea96bf6"},"vehicle_type_id":"4","last_reported":1704406010,"current_range_meters":8000,"station_id":"ce4bhs92rcd13ifvqi0g","pricing_plan_id":"free"},{"bike_id":"cf701c0b-4ae0-4d78-9586-27f0dfe22c4e","system_id":"levelo_inurba_marseille","lat":43.297163,"lon":5.365866,"is_reserved":false,"is_disabled":false,"rental_uris":{"android":"levelo://app?vid=cf701c0b-4ae0-4d78-9586-27f0dfe22c4e","ios":"levelo://app?vid=cf701c0b-4ae0-4d78-9586-27f0dfe22c4e"},"vehicle_type_id":"4","last_reported":1704406010,"current_range_meters":24400,"station_id":"ce4bgn12rcd13ifvqbt0","pricing_plan_id":"free"},{"bike_id":"4d6cbba3-2e55-4f7b-870f-2fed43f3ec1c","system_id":"levelo_inurba_marseille","lat":43.328293,"lon":5.366865,"is_reserved":false,"is_disabled":false,"rental_uris":{"android":"levelo://app?vid=4d6cbba3-2e55-4f7b-870f-2fed43f3ec1c","ios":"levelo://app?vid=4d6cbba3-2e55-4f7b-870f-2fed43f3ec1c"},"vehicle_type_id":"4","last_reported":1704406010,"current_range_meters":14400,"station_id":"ce4bhs92rcd13ifvqi0g","pricing_plan_id":"free"},{"bike_id":"80bbfa94-3ee9-4de7-b681-88f4d29824bb","system_id":"levelo_inurba_marseille","lat":43.328371,"lon":5.366909,"is_reserved":false,"is_disabled":false,"rental_uris":{"android":"levelo://app?vid=80bbfa94-3ee9-4de7-b681-88f4d29824bb","ios":"levelo://app?vid=80bbfa94-3ee9-4de7-b681-88f4d29824bb"},"vehicle_type_id":"4","last_reported":1704406010,"current_range_meters":7200,"station_id":"ce4bhs92rcd13ifvqi0g","pricing_plan_id":"free"},{"bike_id":"95e60a05-c3f6-42d6-b8d8-8e09a3364abf","system_id":"levelo_inurba_marseille","lat":43.328371,"lon":5.366909,"is_reserved":false,"is_disabled":false,"rental_uris":{"android":"levelo://app?vid=95e60a05-c3f6-42d6-b8d8-8e09a3364abf","ios":"levelo://app?vid=95e60a05-c3f6-42d6-b8d8-8e09a3364abf"},"vehicle_type_id":"4","last_reported":1704406010,"current_range_meters":11200,"station_id":"ce4bhs92rcd13ifvqi0g","pricing_plan_id":"free"},{"bike_id":"370cccf7-c9ba-46c2-819b-c8e8cacc4c21","system_id":"levelo_inurba_marseille","lat":43.3277,"lon":5.37458,"is_reserved":false,"is_disabled":false,"rental_uris":{"android":"levelo://app?vid=370cccf7-c9ba-46c2-819b-c8e8cacc4c21","ios":"levelo://app?vid=370cccf7-c9ba-46c2-819b-c8e8cacc4c21"},"vehicle_type_id":"4","last_reported":1704406010,"current_range_meters":0,"station_id":"","pricing_plan_id":"free"},{"bike_id":"d3661675-ef34-4363-8f5c-3f830c1dd761","system_id":"levelo_inurba_marseille","lat":43.295963,"lon":5.367897,"is_reserved":false,"is_disabled":false,"rental_uris":{"android":"levelo://app?vid=d3661675-ef34-4363-8f5c-3f830c1dd761","ios":"levelo://app?vid=d3661675-ef34-4363-8f5c-3f830c1dd761"},"vehicle_type_id":"4","last_reported":1704406010,"current_range_meters":20400,"station_id":"","pricing_plan_id":"free"},{"bike_id":"bc5ba764-79c1-45a3-b6ce-fce82efb4aa9","system_id":"levelo_inurba_marseille","lat":43.299028,"lon":5.381509,"is_reserved":false,"is_disabled":false,"rental_uris":{"android":"levelo://app?vid=bc5ba764-79c1-45a3-b6ce-fce82efb4aa9","ios":"levelo://app?vid=bc5ba764-79c1-45a3-b6ce-fce82efb4aa9"},"vehicle_type_id":"4","last_reported":1704406010,"current_range_meters":24800,"station_id":"ce4bgj12rcd13ifvqbc0","pricing_plan_id":"free"},{"bike_id":"42672ba1-1b6e-4b97-8e9f-22a1eb2cb4dc","system_id":"levelo_inurba_marseille","lat":43.30961,"lon":5.39046,"is_reserved":false,"is_disabled":false,"rental_uris":{"android":"levelo://app?vid=42672ba1-1b6e-4b97-8e9f-22a1eb2cb4dc","ios":"levelo://app?vid=42672ba1-1b6e-4b97-8e9f-22a1eb2cb4dc"},"vehicle_type_id":"4","last_reported":1704406010,"current_range_meters":12400,"station_id":"ce4bgup2rcd13ifvqco0","pricing_plan_id":"free"},{"bike_id":"f7a069b6-0233-4611-b6a2-b6de1c645f9c","system_id":"levelo_inurba_marseille","lat":43.298037,"lon":5.381066,"is_reserved":false,"is_disabled":false,"rental_uris":{"android":"levelo://app?vid=f7a069b6-0233-4611-b6a2-b6de1c645f9c","ios":"levelo://app?vid=f7a069b6-0233-4611-b6a2-b6de1c645f9c"},"vehicle_type_id":"4","last_reported":1704406010,"current_range_meters":1200,"station_id":"ce4bgip2rcd13ifvqbb0","pricing_plan_id":"free"},{"bike_id":"31c16e0a-dcd4-42dd-95fa-5f206f031518","system_id":"levelo_inurba_marseille","lat":43.304274,"lon":5.388873,"is_reserved":false,"is_disabled":false,"rental_uris":{"android":"levelo://app?vid=31c16e0a-dcd4-42dd-95fa-5f206f031518","ios":"levelo://app?vid=31c16e0a-dcd4-42dd-95fa-5f206f031518"},"vehicle_type_id":"4","last_reported":1704406010,"current_range_meters":10400,"station_id":"ce4bgk12rcd13ifvqbi0","pricing_plan_id":"free"},{"bike_id":"d60802d6-4f47-444a-b234-883690eec05b","system_id":"levelo_inurba_marseille","lat":43.33062,"lon":5.3627,"is_reserved":false,"is_disabled":false,"rental_uris":{"android":"levelo://app?vid=d60802d6-4f47-444a-b234-883690eec05b","ios":"levelo://app?vid=d60802d6-4f47-444a-b234-883690eec05b"},"vehicle_type_id":"4","last_reported":1704406010,"current_range_meters":6400,"station_id":"","pricing_plan_id":"free"},{"bike_id":"0847d18b-b415-4dfb-a222-aa38c39279d3","system_id":"levelo_inurba_marseille","lat":43.299717,"lon":5.384845,"is_reserved":false,"is_disabled":false,"rental_uris":{"android":"levelo://app?vid=0847d18b-b415-4dfb-a222-aa38c39279d3","ios":"levelo://app?vid=0847d18b-b415-4dfb-a222-aa38c39279d3"},"vehicle_type_id":"4","last_reported":1704406010,"current_range_meters":7600,"station_id":"ce4bgj92rcd13ifvqbd0","pricing_plan_id":"free"},{"bike_id":"1755a159-fcd3-47aa-b9c5-21bb188e5ae2","system_id":"levelo_inurba_marseille","lat":43.299717,"lon":5.384845,"is_reserved":false,"is_disabled":false,"rental_uris":{"android":"levelo://app?vid=1755a159-fcd3-47aa-b9c5-21bb188e5ae2","ios":"levelo://app?vid=1755a159-fcd3-47aa-b9c5-21bb188e5ae2"},"vehicle_type_id":"4","last_reported":1704406010,"current_range_meters":27200,"station_id":"ce4bgj92rcd13ifvqbd0","pricing_plan_id":"free"},{"bike_id":"7416fffb-42ff-492b-b1a4-428838ee008b","system_id":"levelo_inurba_marseille","lat":43.3081,"lon":5.39213,"is_reserved":false,"is_disabled":false,"rental_uris":{"android":"levelo://app?vid=7416fffb-42ff-492b-b1a4-428838ee008b","ios":"levelo://app?vid=7416fffb-42ff-492b-b1a4-428838ee008b"},"vehicle_type_id":"4","last_reported":1704406010,"current_range_meters":7200,"station_id":"","pricing_plan_id":"free"},{"bike_id":"e0021f43-de18-4772-bbd0-459c38734811","system_id":"levelo_inurba_marseille","lat":43.323631,"lon":5.388811,"is_reserved":false,"is_disabled":false,"rental_uris":{"android":"levelo://app?vid=e0021f43-de18-4772-bbd0-459c38734811","ios":"levelo://app?vid=e0021f43-de18-4772-bbd0-459c38734811"},"vehicle_type_id":"4","last_reported":1704406010,"current_range_meters":8000,"station_id":"ce4bhqp2rcd13ifvqhog","pricing_plan_id":"free"},{"bike_id":"028a5017-6131-443f-a7fc-80671ad627e9","system_id":"levelo_inurba_marseille","lat":43.32367,"lon":5.388836,"is_reserved":false,"is_disabled":false,"rental_uris":{"android":"levelo://app?vid=028a5017-6131-443f-a7fc-80671ad627e9","ios":"levelo://app?vid=028a5017-6131-443f-a7fc-80671ad627e9"},"vehicle_type_id":"4","last_reported":1704406010,"current_range_meters":18800,"station_id":"ce4bhqp2rcd13ifvqhog","pricing_plan_id":"free"},{"bike_id":"8ed459c4-85ef-4f4f-808a-25f768d2eb94","system_id":"levelo_inurba_marseille","lat":43.32367,"lon":5.388836,"is_reserved":false,"is_disabled":false,"rental_uris":{"android":"levelo://app?vid=8ed459c4-85ef-4f4f-808a-25f768d2eb94","ios":"levelo://app?vid=8ed459c4-85ef-4f4f-808a-25f768d2eb94"},"vehicle_type_id":"4","last_reported":1704406010,"current_range_meters":7600,"station_id":"ce4bhqp2rcd13ifvqhog","pricing_plan_id":"free"},{"bike_id":"45b6e674-be1c-4db9-b552-a0c6066a5d8d","system_id":"levelo_inurba_marseille","lat":43.32367,"lon":5.388836,"is_reserved":false,"is_disabled":false,"rental_uris":{"android":"levelo://app?vid=45b6e674-be1c-4db9-b552-a0c6066a5d8d","ios":"levelo://app?vid=45b6e674-be1c-4db9-b552-a0c6066a5d8d"},"vehicle_type_id":"4","last_reported":1704406010,"current_range_meters":6400,"station_id":"ce4bhqp2rcd13ifvqhog","pricing_plan_id":"free"},{"bike_id":"6e6aea2e-6746-425e-ae3f-e73f5c833249","system_id":"levelo_inurba_marseille","lat":43.314233,"lon":5.39363,"is_reserved":false,"is_disabled":false,"rental_uris":{"android":"levelo://app?vid=6e6aea2e-6746-425e-ae3f-e73f5c833249","ios":"levelo://app?vid=6e6aea2e-6746-425e-ae3f-e73f5c833249"},"vehicle_type_id":"4","last_reported":1704406010,"current_range_meters":30000,"station_id":"","pricing_plan_id":"free"},{"bike_id":"08c51cb1-346c-4583-97c1-13384af841e3","system_id":"levelo_inurba_marseille","lat":43.293009,"lon":5.374584,"is_reserved":false,"is_disabled":false,"rental_uris":{"android":"levelo://app?vid=08c51cb1-346c-4583-97c1-13384af841e3","ios":"levelo://app?vid=08c51cb1-346c-4583-97c1-13384af841e3"},"vehicle_type_id":"4","last_reported":1704406010,"current_range_meters":0,"station_id":"ce4bgi12rcd13ifvqb70","pricing_plan_id":"free"},{"bike_id":"2d4fb21c-cb34-46bb-a3e5-203cf41bfc56","system_id":"levelo_inurba_marseille","lat":43.29289,"lon":5.374543,"is_reserved":false,"is_disabled":false,"rental_uris":{"android":"levelo://app?vid=2d4fb21c-cb34-46bb-a3e5-203cf41bfc56","ios":"levelo://app?vid=2d4fb21c-cb34-46bb-a3e5-203cf41bfc56"},"vehicle_type_id":"4","last_reported":1704406010,"current_range_meters":0,"station_id":"ce4bgi12rcd13ifvqb70","pricing_plan_id":"free"},{"bike_id":"7737a247-6402-4205-9046-0af604dccf43","system_id":"levelo_inurba_marseille","lat":43.302992,"lon":5.392136,"is_reserved":false,"is_disabled":false,"rental_uris":{"android":"levelo://app?vid=7737a247-6402-4205-9046-0af604dccf43","ios":"levelo://app?vid=7737a247-6402-4205-9046-0af604dccf43"},"vehicle_type_id":"4","last_reported":1704406010,"current_range_meters":18400,"station_id":"ce4bgkh2rcd13ifvqbk0","pricing_plan_id":"free"},{"bike_id":"c60f6ca1-a65e-473f-b309-301becb74a98","system_id":"levelo_inurba_marseille","lat":43.302992,"lon":5.392136,"is_reserved":false,"is_disabled":false,"rental_uris":{"android":"levelo://app?vid=c60f6ca1-a65e-473f-b309-301becb74a98","ios":"levelo://app?vid=c60f6ca1-a65e-473f-b309-301becb74a98"},"vehicle_type_id":"4","last_reported":1704406010,"current_range_meters":0,"station_id":"ce4bgkh2rcd13ifvqbk0","pricing_plan_id":"free"},{"bike_id":"82e8ccf3-478f-4bc3-b5dd-23e766d57b9f","system_id":"levelo_inurba_marseille","lat":43.300852,"lon":5.390859,"is_reserved":false,"is_disabled":false,"rental_uris":{"android":"levelo://app?vid=82e8ccf3-478f-4bc3-b5dd-23e766d57b9f","ios":"levelo://app?vid=82e8ccf3-478f-4bc3-b5dd-23e766d57b9f"},"vehicle_type_id":"4","last_reported":1704406010,"current_range_meters":20000,"station_id":"ce4bh192rcd13ifvqdb0","pricing_plan_id":"free"},{"bike_id":"74cfa131-7ff6-4ea6-a5e0-3feb6166db52","system_id":"levelo_inurba_marseille","lat":43.30883,"lon":5.3963,"is_reserved":false,"is_disabled":false,"rental_uris":{"android":"levelo://app?vid=74cfa131-7ff6-4ea6-a5e0-3feb6166db52","ios":"levelo://app?vid=74cfa131-7ff6-4ea6-a5e0-3feb6166db52"},"vehicle_type_id":"4","last_reported":1704406010,"current_range_meters":8400,"station_id":"ce4bh012rcd13ifvqcv0","pricing_plan_id":"free"},{"bike_id":"a30ab2b9-d1da-4d38-9e85-f0d4ef57bea0","system_id":"levelo_inurba_marseille","lat":43.308795,"lon":5.396352,"is_reserved":false,"is_disabled":false,"rental_uris":{"android":"levelo://app?vid=a30ab2b9-d1da-4d38-9e85-f0d4ef57bea0","ios":"levelo://app?vid=a30ab2b9-d1da-4d38-9e85-f0d4ef57bea0"},"vehicle_type_id":"4","last_reported":1704406010,"current_range_meters":20000,"station_id":"ce4bh012rcd13ifvqcv0","pricing_plan_id":"free"},{"bike_id":"d4edadcb-61ed-47ae-a793-104407bae02c","system_id":"levelo_inurba_marseille","lat":43.313291,"lon":5.396838,"is_reserved":false,"is_disabled":false,"rental_uris":{"android":"levelo://app?vid=d4edadcb-61ed-47ae-a793-104407bae02c","ios":"levelo://app?vid=d4edadcb-61ed-47ae-a793-104407bae02c"},"vehicle_type_id":"4","last_reported":1704406010,"current_range_meters":6800,"station_id":"ce4bgvp2rcd13ifvqcu0","pricing_plan_id":"free"},{"bike_id":"50958556-5743-43a2-bf6e-a96f7c88d7a3","system_id":"levelo_inurba_marseille","lat":43.309038,"lon":5.396546,"is_reserved":false,"is_disabled":false,"rental_uris":{"android":"levelo://app?vid=50958556-5743-43a2-bf6e-a96f7c88d7a3","ios":"levelo://app?vid=50958556-5743-43a2-bf6e-a96f7c88d7a3"},"vehicle_type_id":"4","last_reported":1704406010,"current_range_meters":10800,"station_id":"ce4bh012rcd13ifvqcv0","pricing_plan_id":"free"},{"bike_id":"d870183d-edd2-443b-8023-0ed33540355a","system_id":"levelo_inurba_marseille","lat":43.30885,"lon":5.39644,"is_reserved":false,"is_disabled":false,"rental_uris":{"android":"levelo://app?vid=d870183d-edd2-443b-8023-0ed33540355a","ios":"levelo://app?vid=d870183d-edd2-443b-8023-0ed33540355a"},"vehicle_type_id":"4","last_reported":1704406010,"current_range_meters":12800,"station_id":"ce4bh012rcd13ifvqcv0","pricing_plan_id":"free"},{"bike_id":"f6eaddcf-25db-4c21-bb71-899890ca7423","system_id":"levelo_inurba_marseille","lat":43.308774,"lon":5.396426,"is_reserved":false,"is_disabled":false,"rental_uris":{"android":"levelo://app?vid=f6eaddcf-25db-4c21-bb71-899890ca7423","ios":"levelo://app?vid=f6eaddcf-25db-4c21-bb71-899890ca7423"},"vehicle_type_id":"4","last_reported":1704406010,"current_range_meters":14400,"station_id":"ce4bh012rcd13ifvqcv0","pricing_plan_id":"free"},{"bike_id":"5ebab81c-726c-4c7d-adb4-882019490576","system_id":"levelo_inurba_marseille","lat":43.313291,"lon":5.396838,"is_reserved":false,"is_disabled":false,"rental_uris":{"android":"levelo://app?vid=5ebab81c-726c-4c7d-adb4-882019490576","ios":"levelo://app?vid=5ebab81c-726c-4c7d-adb4-882019490576"},"vehicle_type_id":"4","last_reported":1704406010,"current_range_meters":31200,"station_id":"ce4bgvp2rcd13ifvqcu0","pricing_plan_id":"free"},{"bike_id":"16e2afcd-f431-4525-ba3f-0cb4699147c4","system_id":"levelo_inurba_marseille","lat":43.30884,"lon":5.39648,"is_reserved":false,"is_disabled":false,"rental_uris":{"android":"levelo://app?vid=16e2afcd-f431-4525-ba3f-0cb4699147c4","ios":"levelo://app?vid=16e2afcd-f431-4525-ba3f-0cb4699147c4"},"vehicle_type_id":"4","last_reported":1704406010,"current_range_meters":0,"station_id":"ce4bh012rcd13ifvqcv0","pricing_plan_id":"free"},{"bike_id":"a1d4d6a9-131c-4e2d-8a0e-6c2a2e0e9747","system_id":"levelo_inurba_marseille","lat":43.313291,"lon":5.396838,"is_reserved":false,"is_disabled":false,"rental_uris":{"android":"levelo://app?vid=a1d4d6a9-131c-4e2d-8a0e-6c2a2e0e9747","ios":"levelo://app?vid=a1d4d6a9-131c-4e2d-8a0e-6c2a2e0e9747"},"vehicle_type_id":"4","last_reported":1704406010,"current_range_meters":17200,"station_id":"ce4bgvp2rcd13ifvqcu0","pricing_plan_id":"free"},{"bike_id":"11ebe11d-5eb5-4ea1-b905-a6590a77e53b","system_id":"levelo_inurba_marseille","lat":43.313291,"lon":5.396838,"is_reserved":false,"is_disabled":false,"rental_uris":{"android":"levelo://app?vid=11ebe11d-5eb5-4ea1-b905-a6590a77e53b","ios":"levelo://app?vid=11ebe11d-5eb5-4ea1-b905-a6590a77e53b"},"vehicle_type_id":"4","last_reported":1704406010,"current_range_meters":22800,"station_id":"ce4bgvp2rcd13ifvqcu0","pricing_plan_id":"free"},{"bike_id":"76cd2679-6a3d-4a00-8fe2-53d47fffa510","system_id":"levelo_inurba_marseille","lat":43.30877,"lon":5.39648,"is_reserved":false,"is_disabled":false,"rental_uris":{"android":"levelo://app?vid=76cd2679-6a3d-4a00-8fe2-53d47fffa510","ios":"levelo://app?vid=76cd2679-6a3d-4a00-8fe2-53d47fffa510"},"vehicle_type_id":"4","last_reported":1704406010,"current_range_meters":9600,"station_id":"ce4bh012rcd13ifvqcv0","pricing_plan_id":"free"},{"bike_id":"66d8f7ad-719a-499d-acd6-21d9f9724ee3","system_id":"levelo_inurba_marseille","lat":43.308901,"lon":5.396526,"is_reserved":false,"is_disabled":false,"rental_uris":{"android":"levelo://app?vid=66d8f7ad-719a-499d-acd6-21d9f9724ee3","ios":"levelo://app?vid=66d8f7ad-719a-499d-acd6-21d9f9724ee3"},"vehicle_type_id":"4","last_reported":1704406010,"current_range_meters":10000,"station_id":"ce4bh012rcd13ifvqcv0","pricing_plan_id":"free"},{"bike_id":"ff5b9743-d87c-46c3-b94b-957aa3927e6c","system_id":"levelo_inurba_marseille","lat":43.313291,"lon":5.396838,"is_reserved":false,"is_disabled":false,"rental_uris":{"android":"levelo://app?vid=ff5b9743-d87c-46c3-b94b-957aa3927e6c","ios":"levelo://app?vid=ff5b9743-d87c-46c3-b94b-957aa3927e6c"},"vehicle_type_id":"4","last_reported":1704406010,"current_range_meters":800,"station_id":"ce4bgvp2rcd13ifvqcu0","pricing_plan_id":"free"},{"bike_id":"aa279f14-2eb0-4317-b53f-99a839af9942","system_id":"levelo_inurba_marseille","lat":43.30883,"lon":5.39655,"is_reserved":false,"is_disabled":false,"rental_uris":{"android":"levelo://app?vid=aa279f14-2eb0-4317-b53f-99a839af9942","ios":"levelo://app?vid=aa279f14-2eb0-4317-b53f-99a839af9942"},"vehicle_type_id":"4","last_reported":1704406010,"current_range_meters":21600,"station_id":"ce4bh012rcd13ifvqcv0","pricing_plan_id":"free"},{"bike_id":"a68dcdfd-0e4f-4ee0-ab8d-61011641c4f8","system_id":"levelo_inurba_marseille","lat":43.29532,"lon":5.38537,"is_reserved":false,"is_disabled":false,"rental_uris":{"android":"levelo://app?vid=a68dcdfd-0e4f-4ee0-ab8d-61011641c4f8","ios":"levelo://app?vid=a68dcdfd-0e4f-4ee0-ab8d-61011641c4f8"},"vehicle_type_id":"4","last_reported":1704406010,"current_range_meters":0,"station_id":"ce4bgih2rcd13ifvqba0","pricing_plan_id":"free"},{"bike_id":"9c0e5fe7-62d7-48ee-8c7e-c5d4ef362a4a","system_id":"levelo_inurba_marseille","lat":43.29529,"lon":5.385581,"is_reserved":false,"is_disabled":false,"rental_uris":{"android":"levelo://app?vid=9c0e5fe7-62d7-48ee-8c7e-c5d4ef362a4a","ios":"levelo://app?vid=9c0e5fe7-62d7-48ee-8c7e-c5d4ef362a4a"},"vehicle_type_id":"4","last_reported":1704406010,"current_range_meters":14000,"station_id":"ce4bgih2rcd13ifvqba0","pricing_plan_id":"free"},{"bike_id":"4a9311c4-4db5-4367-b1f7-d435bd185033","system_id":"levelo_inurba_marseille","lat":43.33273,"lon":5.37989,"is_reserved":false,"is_disabled":false,"rental_uris":{"android":"levelo://app?vid=4a9311c4-4db5-4367-b1f7-d435bd185033","ios":"levelo://app?vid=4a9311c4-4db5-4367-b1f7-d435bd185033"},"vehicle_type_id":"4","last_reported":1704406010,"current_range_meters":5200,"station_id":"","pricing_plan_id":"free"},{"bike_id":"680688ae-0dd0-4473-93c6-679e0d0fc41a","system_id":"levelo_inurba_marseille","lat":43.290624,"lon":5.359245,"is_reserved":false,"is_disabled":false,"rental_uris":{"android":"levelo://app?vid=680688ae-0dd0-4473-93c6-679e0d0fc41a","ios":"levelo://app?vid=680688ae-0dd0-4473-93c6-679e0d0fc41a"},"vehicle_type_id":"4","last_reported":1704406010,"current_range_meters":28800,"station_id":"ce4bha92rcd13ifvqeg0","pricing_plan_id":"free"},{"bike_id":"8b53317e-6ce4-4bf4-bd9d-15f760e50985","system_id":"levelo_inurba_marseille","lat":43.292644,"lon":5.384257,"is_reserved":false,"is_disabled":false,"rental_uris":{"android":"levelo://app?vid=8b53317e-6ce4-4bf4-bd9d-15f760e50985","ios":"levelo://app?vid=8b53317e-6ce4-4bf4-bd9d-15f760e50985"},"vehicle_type_id":"4","last_reported":1704406010,"current_range_meters":0,"station_id":"ce4bh692rcd13ifvqea0","pricing_plan_id":"free"},{"bike_id":"86a02552-f2b8-4381-a9ec-74a57aeb4c12","system_id":"levelo_inurba_marseille","lat":43.290104,"lon":5.356111,"is_reserved":false,"is_disabled":false,"rental_uris":{"android":"levelo://app?vid=86a02552-f2b8-4381-a9ec-74a57aeb4c12","ios":"levelo://app?vid=86a02552-f2b8-4381-a9ec-74a57aeb4c12"},"vehicle_type_id":"4","last_reported":1704406010,"current_range_meters":6800,"station_id":"ce4bhb92rcd13ifvqen0","pricing_plan_id":"free"},{"bike_id":"fa40bd32-7b5c-4cd1-bd96-2308adb51a15","system_id":"levelo_inurba_marseille","lat":43.290103,"lon":5.356114,"is_reserved":false,"is_disabled":false,"rental_uris":{"android":"levelo://app?vid=fa40bd32-7b5c-4cd1-bd96-2308adb51a15","ios":"levelo://app?vid=fa40bd32-7b5c-4cd1-bd96-2308adb51a15"},"vehicle_type_id":"4","last_reported":1704406010,"current_range_meters":6800,"station_id":"ce4bhb92rcd13ifvqen0","pricing_plan_id":"free"},{"bike_id":"dc75d7c3-19ec-4531-95b9-93e0de663e34","system_id":"levelo_inurba_marseille","lat":43.29784,"lon":5.39333,"is_reserved":false,"is_disabled":false,"rental_uris":{"android":"levelo://app?vid=dc75d7c3-19ec-4531-95b9-93e0de663e34","ios":"levelo://app?vid=dc75d7c3-19ec-4531-95b9-93e0de663e34"},"vehicle_type_id":"4","last_reported":1704406010,"current_range_meters":13200,"station_id":"chh1huq6cuj3fo74tm60","pricing_plan_id":"free"},{"bike_id":"c78731e1-889f-4935-a18b-00c0749cffcb","system_id":"levelo_inurba_marseille","lat":43.297815,"lon":5.393548,"is_reserved":false,"is_disabled":false,"rental_uris":{"android":"levelo://app?vid=c78731e1-889f-4935-a18b-00c0749cffcb","ios":"levelo://app?vid=c78731e1-889f-4935-a18b-00c0749cffcb"},"vehicle_type_id":"4","last_reported":1704406010,"current_range_meters":22000,"station_id":"chh1huq6cuj3fo74tm60","pricing_plan_id":"free"},{"bike_id":"946b4ef6-ba7b-4ec7-a77b-305e645faf7d","system_id":"levelo_inurba_marseille","lat":43.295169,"lon":5.390426,"is_reserved":false,"is_disabled":false,"rental_uris":{"android":"levelo://app?vid=946b4ef6-ba7b-4ec7-a77b-305e645faf7d","ios":"levelo://app?vid=946b4ef6-ba7b-4ec7-a77b-305e645faf7d"},"vehicle_type_id":"4","last_reported":1704406010,"current_range_meters":800,"station_id":"ce4bh3p2rcd13ifvqdp0","pricing_plan_id":"free"},{"bike_id":"b4dc5f58-d698-47e4-9d04-a65a1aac924a","system_id":"levelo_inurba_marseille","lat":43.330442,"lon":5.389148,"is_reserved":false,"is_disabled":false,"rental_uris":{"android":"levelo://app?vid=b4dc5f58-d698-47e4-9d04-a65a1aac924a","ios":"levelo://app?vid=b4dc5f58-d698-47e4-9d04-a65a1aac924a"},"vehicle_type_id":"4","last_reported":1704406010,"current_range_meters":7200,"station_id":"ce4bhr92rcd13ifvqhrg","pricing_plan_id":"free"},{"bike_id":"a023d84b-11ca-49dd-9d6c-50372e788579","system_id":"levelo_inurba_marseille","lat":43.330442,"lon":5.389148,"is_reserved":false,"is_disabled":false,"rental_uris":{"android":"levelo://app?vid=a023d84b-11ca-49dd-9d6c-50372e788579","ios":"levelo://app?vid=a023d84b-11ca-49dd-9d6c-50372e788579"},"vehicle_type_id":"4","last_reported":1704406010,"current_range_meters":12800,"station_id":"ce4bhr92rcd13ifvqhrg","pricing_plan_id":"free"},{"bike_id":"7da19f74-ba7f-4bc9-841b-f11c963d1d8f","system_id":"levelo_inurba_marseille","lat":43.330442,"lon":5.389148,"is_reserved":false,"is_disabled":false,"rental_uris":{"android":"levelo://app?vid=7da19f74-ba7f-4bc9-841b-f11c963d1d8f","ios":"levelo://app?vid=7da19f74-ba7f-4bc9-841b-f11c963d1d8f"},"vehicle_type_id":"4","last_reported":1704406010,"current_range_meters":2800,"station_id":"ce4bhr92rcd13ifvqhrg","pricing_plan_id":"free"},{"bike_id":"e0bb97d7-f4db-49ab-a03c-a788a7e9f091","system_id":"levelo_inurba_marseille","lat":43.330442,"lon":5.389148,"is_reserved":false,"is_disabled":false,"rental_uris":{"android":"levelo://app?vid=e0bb97d7-f4db-49ab-a03c-a788a7e9f091","ios":"levelo://app?vid=e0bb97d7-f4db-49ab-a03c-a788a7e9f091"},"vehicle_type_id":"4","last_reported":1704406010,"current_range_meters":13600,"station_id":"ce4bhr92rcd13ifvqhrg","pricing_plan_id":"free"},{"bike_id":"a4544299-4117-4ba4-98ad-2dcd1cebe1e8","system_id":"levelo_inurba_marseille","lat":43.330442,"lon":5.389148,"is_reserved":false,"is_disabled":false,"rental_uris":{"android":"levelo://app?vid=a4544299-4117-4ba4-98ad-2dcd1cebe1e8","ios":"levelo://app?vid=a4544299-4117-4ba4-98ad-2dcd1cebe1e8"},"vehicle_type_id":"4","last_reported":1704406010,"current_range_meters":18800,"station_id":"ce4bhr92rcd13ifvqhrg","pricing_plan_id":"free"},{"bike_id":"a45508dc-3e20-4dc2-a3f2-c48092cac22d","system_id":"levelo_inurba_marseille","lat":43.330442,"lon":5.389148,"is_reserved":false,"is_disabled":false,"rental_uris":{"android":"levelo://app?vid=a45508dc-3e20-4dc2-a3f2-c48092cac22d","ios":"levelo://app?vid=a45508dc-3e20-4dc2-a3f2-c48092cac22d"},"vehicle_type_id":"4","last_reported":1704406010,"current_range_meters":30000,"station_id":"ce4bhr92rcd13ifvqhrg","pricing_plan_id":"free"},{"bike_id":"3537c72e-affb-4603-a0d4-44c57db301e5","system_id":"levelo_inurba_marseille","lat":43.330442,"lon":5.389148,"is_reserved":false,"is_disabled":false,"rental_uris":{"android":"levelo://app?vid=3537c72e-affb-4603-a0d4-44c57db301e5","ios":"levelo://app?vid=3537c72e-affb-4603-a0d4-44c57db301e5"},"vehicle_type_id":"4","last_reported":1704406010,"current_range_meters":24800,"station_id":"ce4bhr92rcd13ifvqhrg","pricing_plan_id":"free"},{"bike_id":"84d2aa7f-421f-46e8-84af-81081cda175c","system_id":"levelo_inurba_marseille","lat":43.295169,"lon":5.390426,"is_reserved":false,"is_disabled":false,"rental_uris":{"android":"levelo://app?vid=84d2aa7f-421f-46e8-84af-81081cda175c","ios":"levelo://app?vid=84d2aa7f-421f-46e8-84af-81081cda175c"},"vehicle_type_id":"4","last_reported":1704406010,"current_range_meters":28400,"station_id":"ce4bh3p2rcd13ifvqdp0","pricing_plan_id":"free"},{"bike_id":"d7f84905-ff40-4d33-8210-adc247cf1b6c","system_id":"levelo_inurba_marseille","lat":43.28856,"lon":5.358371,"is_reserved":false,"is_disabled":false,"rental_uris":{"android":"levelo://app?vid=d7f84905-ff40-4d33-8210-adc247cf1b6c","ios":"levelo://app?vid=d7f84905-ff40-4d33-8210-adc247cf1b6c"},"vehicle_type_id":"4","last_reported":1704406010,"current_range_meters":8800,"station_id":"ce4bhb12rcd13ifvqem0","pricing_plan_id":"free"},{"bike_id":"869d6b6e-aa0f-4f4e-9d68-687b086c6e09","system_id":"levelo_inurba_marseille","lat":43.28856,"lon":5.358371,"is_reserved":false,"is_disabled":false,"rental_uris":{"android":"levelo://app?vid=869d6b6e-aa0f-4f4e-9d68-687b086c6e09","ios":"levelo://app?vid=869d6b6e-aa0f-4f4e-9d68-687b086c6e09"},"vehicle_type_id":"4","last_reported":1704406010,"current_range_meters":2000,"station_id":"ce4bhb12rcd13ifvqem0","pricing_plan_id":"free"},{"bike_id":"c764d1bd-4ac5-46e0-bf02-ee8c7ef6962d","system_id":"levelo_inurba_marseille","lat":43.28856,"lon":5.358371,"is_reserved":false,"is_disabled":false,"rental_uris":{"android":"levelo://app?vid=c764d1bd-4ac5-46e0-bf02-ee8c7ef6962d","ios":"levelo://app?vid=c764d1bd-4ac5-46e0-bf02-ee8c7ef6962d"},"vehicle_type_id":"4","last_reported":1704406010,"current_range_meters":20000,"station_id":"ce4bhb12rcd13ifvqem0","pricing_plan_id":"free"},{"bike_id":"bd1211d9-2013-4b83-b359-0a9995f03659","system_id":"levelo_inurba_marseille","lat":43.28856,"lon":5.358371,"is_reserved":false,"is_disabled":false,"rental_uris":{"android":"levelo://app?vid=bd1211d9-2013-4b83-b359-0a9995f03659","ios":"levelo://app?vid=bd1211d9-2013-4b83-b359-0a9995f03659"},"vehicle_type_id":"4","last_reported":1704406010,"current_range_meters":12000,"station_id":"ce4bhb12rcd13ifvqem0","pricing_plan_id":"free"},{"bike_id":"1de03edc-ab64-4e26-a170-890c281bcda5","system_id":"levelo_inurba_marseille","lat":43.28856,"lon":5.358371,"is_reserved":false,"is_disabled":false,"rental_uris":{"android":"levelo://app?vid=1de03edc-ab64-4e26-a170-890c281bcda5","ios":"levelo://app?vid=1de03edc-ab64-4e26-a170-890c281bcda5"},"vehicle_type_id":"4","last_reported":1704406010,"current_range_meters":26800,"station_id":"ce4bhb12rcd13ifvqem0","pricing_plan_id":"free"},{"bike_id":"cc44d7ae-ed2b-4cf0-9214-a00a98d75d27","system_id":"levelo_inurba_marseille","lat":43.28856,"lon":5.358371,"is_reserved":false,"is_disabled":false,"rental_uris":{"android":"levelo://app?vid=cc44d7ae-ed2b-4cf0-9214-a00a98d75d27","ios":"levelo://app?vid=cc44d7ae-ed2b-4cf0-9214-a00a98d75d27"},"vehicle_type_id":"4","last_reported":1704406010,"current_range_meters":8800,"station_id":"ce4bhb12rcd13ifvqem0","pricing_plan_id":"free"},{"bike_id":"4eb24d5a-c417-4721-9d88-2bf1ad6399a3","system_id":"levelo_inurba_marseille","lat":43.309371,"lon":5.401449,"is_reserved":false,"is_disabled":false,"rental_uris":{"android":"levelo://app?vid=4eb24d5a-c417-4721-9d88-2bf1ad6399a3","ios":"levelo://app?vid=4eb24d5a-c417-4721-9d88-2bf1ad6399a3"},"vehicle_type_id":"4","last_reported":1704406010,"current_range_meters":20800,"station_id":"ce4bgvp2rcd13ifvqct0","pricing_plan_id":"free"},{"bike_id":"b1f85b16-0aa9-4f72-8f1e-5042af9339aa","system_id":"levelo_inurba_marseille","lat":43.289184,"lon":5.366408,"is_reserved":false,"is_disabled":false,"rental_uris":{"android":"levelo://app?vid=b1f85b16-0aa9-4f72-8f1e-5042af9339aa","ios":"levelo://app?vid=b1f85b16-0aa9-4f72-8f1e-5042af9339aa"},"vehicle_type_id":"4","last_reported":1704406010,"current_range_meters":0,"station_id":"ce4bhap2rcd13ifvqek0","pricing_plan_id":"free"},{"bike_id":"b29eb85c-a03f-4070-a998-1bfcfaf61f49","system_id":"levelo_inurba_marseille","lat":43.309226,"lon":5.401349,"is_reserved":false,"is_disabled":false,"rental_uris":{"android":"levelo://app?vid=b29eb85c-a03f-4070-a998-1bfcfaf61f49","ios":"levelo://app?vid=b29eb85c-a03f-4070-a998-1bfcfaf61f49"},"vehicle_type_id":"4","last_reported":1704406010,"current_range_meters":21200,"station_id":"ce4bgvp2rcd13ifvqct0","pricing_plan_id":"free"},{"bike_id":"cf639ec1-e779-4ec8-b5b0-5de13dfcfa8d","system_id":"levelo_inurba_marseille","lat":43.309371,"lon":5.401449,"is_reserved":false,"is_disabled":false,"rental_uris":{"android":"levelo://app?vid=cf639ec1-e779-4ec8-b5b0-5de13dfcfa8d","ios":"levelo://app?vid=cf639ec1-e779-4ec8-b5b0-5de13dfcfa8d"},"vehicle_type_id":"4","last_reported":1704406010,"current_range_meters":10800,"station_id":"ce4bgvp2rcd13ifvqct0","pricing_plan_id":"free"},{"bike_id":"3b57472c-5cca-4668-a829-9df7b57ac670","system_id":"levelo_inurba_marseille","lat":43.309371,"lon":5.401449,"is_reserved":false,"is_disabled":false,"rental_uris":{"android":"levelo://app?vid=3b57472c-5cca-4668-a829-9df7b57ac670","ios":"levelo://app?vid=3b57472c-5cca-4668-a829-9df7b57ac670"},"vehicle_type_id":"4","last_reported":1704406010,"current_range_meters":19600,"station_id":"ce4bgvp2rcd13ifvqct0","pricing_plan_id":"free"},{"bike_id":"be33ca6d-16ed-4d7a-8b99-ba4b96153d38","system_id":"levelo_inurba_marseille","lat":43.3094,"lon":5.40147,"is_reserved":false,"is_disabled":false,"rental_uris":{"android":"levelo://app?vid=be33ca6d-16ed-4d7a-8b99-ba4b96153d38","ios":"levelo://app?vid=be33ca6d-16ed-4d7a-8b99-ba4b96153d38"},"vehicle_type_id":"4","last_reported":1704406010,"current_range_meters":1200,"station_id":"ce4bgvp2rcd13ifvqct0","pricing_plan_id":"free"},{"bike_id":"5f300bb8-82fc-4283-a0ec-05ccb85a18ce","system_id":"levelo_inurba_marseille","lat":43.30642,"lon":5.401031,"is_reserved":false,"is_disabled":false,"rental_uris":{"android":"levelo://app?vid=5f300bb8-82fc-4283-a0ec-05ccb85a18ce","ios":"levelo://app?vid=5f300bb8-82fc-4283-a0ec-05ccb85a18ce"},"vehicle_type_id":"4","last_reported":1704406010,"current_range_meters":25600,"station_id":"ce4bh112rcd13ifvqda0","pricing_plan_id":"free"},{"bike_id":"7c8a3bd7-6d4e-4ade-8abf-f8d970c09b17","system_id":"levelo_inurba_marseille","lat":43.30644,"lon":5.40089,"is_reserved":false,"is_disabled":false,"rental_uris":{"android":"levelo://app?vid=7c8a3bd7-6d4e-4ade-8abf-f8d970c09b17","ios":"levelo://app?vid=7c8a3bd7-6d4e-4ade-8abf-f8d970c09b17"},"vehicle_type_id":"4","last_reported":1704406010,"current_range_meters":6400,"station_id":"ce4bh112rcd13ifvqda0","pricing_plan_id":"free"},{"bike_id":"38de82ba-9a22-4d1d-b18c-123321c3e8fe","system_id":"levelo_inurba_marseille","lat":43.33765,"lon":5.37485,"is_reserved":false,"is_disabled":false,"rental_uris":{"android":"levelo://app?vid=38de82ba-9a22-4d1d-b18c-123321c3e8fe","ios":"levelo://app?vid=38de82ba-9a22-4d1d-b18c-123321c3e8fe"},"vehicle_type_id":"4","last_reported":1704406010,"current_range_meters":27600,"station_id":"","pricing_plan_id":"free"},{"bike_id":"dd3eaa4d-5163-440e-bd91-6e38bae407a7","system_id":"levelo_inurba_marseille","lat":43.306412,"lon":5.401035,"is_reserved":false,"is_disabled":false,"rental_uris":{"android":"levelo://app?vid=dd3eaa4d-5163-440e-bd91-6e38bae407a7","ios":"levelo://app?vid=dd3eaa4d-5163-440e-bd91-6e38bae407a7"},"vehicle_type_id":"4","last_reported":1704406010,"current_range_meters":26800,"station_id":"ce4bh112rcd13ifvqda0","pricing_plan_id":"free"},{"bike_id":"a38cb2cd-211a-406b-a45d-b2390548c22c","system_id":"levelo_inurba_marseille","lat":43.33766,"lon":5.37482,"is_reserved":false,"is_disabled":false,"rental_uris":{"android":"levelo://app?vid=a38cb2cd-211a-406b-a45d-b2390548c22c","ios":"levelo://app?vid=a38cb2cd-211a-406b-a45d-b2390548c22c"},"vehicle_type_id":"4","last_reported":1704406010,"current_range_meters":22400,"station_id":"","pricing_plan_id":"free"},{"bike_id":"91f047d9-5543-43fb-992f-dcaca5f05d0a","system_id":"levelo_inurba_marseille","lat":43.28727,"lon":5.36078,"is_reserved":false,"is_disabled":false,"rental_uris":{"android":"levelo://app?vid=91f047d9-5543-43fb-992f-dcaca5f05d0a","ios":"levelo://app?vid=91f047d9-5543-43fb-992f-dcaca5f05d0a"},"vehicle_type_id":"4","last_reported":1704406010,"current_range_meters":21600,"station_id":"cki0cbj6b192h4jlfktg","pricing_plan_id":"free"},{"bike_id":"28e94116-301f-4fb7-a499-16fecfd58d40","system_id":"levelo_inurba_marseille","lat":43.28727,"lon":5.36078,"is_reserved":false,"is_disabled":false,"rental_uris":{"android":"levelo://app?vid=28e94116-301f-4fb7-a499-16fecfd58d40","ios":"levelo://app?vid=28e94116-301f-4fb7-a499-16fecfd58d40"},"vehicle_type_id":"4","last_reported":1704406010,"current_range_meters":8000,"station_id":"cki0cbj6b192h4jlfktg","pricing_plan_id":"free"},{"bike_id":"de4ddd09-30b1-4974-a212-d3a4f82a16ca","system_id":"levelo_inurba_marseille","lat":43.286591,"lon":5.363346,"is_reserved":false,"is_disabled":false,"rental_uris":{"android":"levelo://app?vid=de4ddd09-30b1-4974-a212-d3a4f82a16ca","ios":"levelo://app?vid=de4ddd09-30b1-4974-a212-d3a4f82a16ca"},"vehicle_type_id":"4","last_reported":1704406010,"current_range_meters":10400,"station_id":"ce4bhah2rcd13ifvqej0","pricing_plan_id":"free"},{"bike_id":"3b4a1bfa-d86d-479e-abd9-5f0c2478f88b","system_id":"levelo_inurba_marseille","lat":43.286593,"lon":5.363346,"is_reserved":false,"is_disabled":false,"rental_uris":{"android":"levelo://app?vid=3b4a1bfa-d86d-479e-abd9-5f0c2478f88b","ios":"levelo://app?vid=3b4a1bfa-d86d-479e-abd9-5f0c2478f88b"},"vehicle_type_id":"4","last_reported":1704406010,"current_range_meters":28000,"station_id":"ce4bhah2rcd13ifvqej0","pricing_plan_id":"free"},{"bike_id":"b36327e6-72bf-4855-b301-8ce3ca66d928","system_id":"levelo_inurba_marseille","lat":43.295196,"lon":5.39397,"is_reserved":false,"is_disabled":false,"rental_uris":{"android":"levelo://app?vid=b36327e6-72bf-4855-b301-8ce3ca66d928","ios":"levelo://app?vid=b36327e6-72bf-4855-b301-8ce3ca66d928"},"vehicle_type_id":"4","last_reported":1704406010,"current_range_meters":20400,"station_id":"ce4bh292rcd13ifvqdf0","pricing_plan_id":"free"},{"bike_id":"e17b8276-3034-479d-945d-f761197442a1","system_id":"levelo_inurba_marseille","lat":43.28702,"lon":5.3739,"is_reserved":false,"is_disabled":false,"rental_uris":{"android":"levelo://app?vid=e17b8276-3034-479d-945d-f761197442a1","ios":"levelo://app?vid=e17b8276-3034-479d-945d-f761197442a1"},"vehicle_type_id":"4","last_reported":1704406010,"current_range_meters":22000,"station_id":"ce4bh3p2rcd13ifvqdq0","pricing_plan_id":"free"},{"bike_id":"d74ef2ed-2c24-48e7-959f-29c3390f97ba","system_id":"levelo_inurba_marseille","lat":43.28702,"lon":5.37392,"is_reserved":false,"is_disabled":false,"rental_uris":{"android":"levelo://app?vid=d74ef2ed-2c24-48e7-959f-29c3390f97ba","ios":"levelo://app?vid=d74ef2ed-2c24-48e7-959f-29c3390f97ba"},"vehicle_type_id":"4","last_reported":1704406010,"current_range_meters":400,"station_id":"ce4bh3p2rcd13ifvqdq0","pricing_plan_id":"free"},{"bike_id":"b7ed8332-8ad9-435b-9a38-74d0066ce4c9","system_id":"levelo_inurba_marseille","lat":43.289307,"lon":5.38406,"is_reserved":false,"is_disabled":false,"rental_uris":{"android":"levelo://app?vid=b7ed8332-8ad9-435b-9a38-74d0066ce4c9","ios":"levelo://app?vid=b7ed8332-8ad9-435b-9a38-74d0066ce4c9"},"vehicle_type_id":"4","last_reported":1704406010,"current_range_meters":6400,"station_id":"ce4bh612rcd13ifvqe6g","pricing_plan_id":"free"},{"bike_id":"ad62eb2c-6762-4e5c-93ee-634414fde058","system_id":"levelo_inurba_marseille","lat":43.289307,"lon":5.38406,"is_reserved":false,"is_disabled":false,"rental_uris":{"android":"levelo://app?vid=ad62eb2c-6762-4e5c-93ee-634414fde058","ios":"levelo://app?vid=ad62eb2c-6762-4e5c-93ee-634414fde058"},"vehicle_type_id":"4","last_reported":1704406010,"current_range_meters":18800,"station_id":"ce4bh612rcd13ifvqe6g","pricing_plan_id":"free"},{"bike_id":"93820d48-bb35-41ff-ac44-85170dcaa996","system_id":"levelo_inurba_marseille","lat":43.289307,"lon":5.38406,"is_reserved":false,"is_disabled":false,"rental_uris":{"android":"levelo://app?vid=93820d48-bb35-41ff-ac44-85170dcaa996","ios":"levelo://app?vid=93820d48-bb35-41ff-ac44-85170dcaa996"},"vehicle_type_id":"4","last_reported":1704406010,"current_range_meters":14400,"station_id":"ce4bh612rcd13ifvqe6g","pricing_plan_id":"free"},{"bike_id":"9d408983-5bc1-4ab6-bdb9-a3a807f0904b","system_id":"levelo_inurba_marseille","lat":43.289307,"lon":5.38406,"is_reserved":false,"is_disabled":false,"rental_uris":{"android":"levelo://app?vid=9d408983-5bc1-4ab6-bdb9-a3a807f0904b","ios":"levelo://app?vid=9d408983-5bc1-4ab6-bdb9-a3a807f0904b"},"vehicle_type_id":"4","last_reported":1704406010,"current_range_meters":1200,"station_id":"ce4bh612rcd13ifvqe6g","pricing_plan_id":"free"},{"bike_id":"316f8c3a-fb3a-4d21-aeaf-6f97e4316958","system_id":"levelo_inurba_marseille","lat":43.287184,"lon":5.37937,"is_reserved":false,"is_disabled":false,"rental_uris":{"android":"levelo://app?vid=316f8c3a-fb3a-4d21-aeaf-6f97e4316958","ios":"levelo://app?vid=316f8c3a-fb3a-4d21-aeaf-6f97e4316958"},"vehicle_type_id":"4","last_reported":1704406010,"current_range_meters":18800,"station_id":"ce4bh9p2rcd13ifvqec0","pricing_plan_id":"free"},{"bike_id":"ac5a3a51-b28a-494f-aa4e-7b756f4b8359","system_id":"levelo_inurba_marseille","lat":43.291994,"lon":5.392907,"is_reserved":false,"is_disabled":false,"rental_uris":{"android":"levelo://app?vid=ac5a3a51-b28a-494f-aa4e-7b756f4b8359","ios":"levelo://app?vid=ac5a3a51-b28a-494f-aa4e-7b756f4b8359"},"vehicle_type_id":"4","last_reported":1704406010,"current_range_meters":2400,"station_id":"ce4bh192rcd13ifvqdd0","pricing_plan_id":"free"},{"bike_id":"c17f655e-f237-4cc9-bcd0-3cf9dbfa7379","system_id":"levelo_inurba_marseille","lat":43.291994,"lon":5.392907,"is_reserved":false,"is_disabled":false,"rental_uris":{"android":"levelo://app?vid=c17f655e-f237-4cc9-bcd0-3cf9dbfa7379","ios":"levelo://app?vid=c17f655e-f237-4cc9-bcd0-3cf9dbfa7379"},"vehicle_type_id":"4","last_reported":1704406010,"current_range_meters":22000,"station_id":"ce4bh192rcd13ifvqdd0","pricing_plan_id":"free"},{"bike_id":"cf02d1ff-8e3c-4af0-87f2-3aed46071fef","system_id":"levelo_inurba_marseille","lat":43.291994,"lon":5.392907,"is_reserved":false,"is_disabled":false,"rental_uris":{"android":"levelo://app?vid=cf02d1ff-8e3c-4af0-87f2-3aed46071fef","ios":"levelo://app?vid=cf02d1ff-8e3c-4af0-87f2-3aed46071fef"},"vehicle_type_id":"4","last_reported":1704406010,"current_range_meters":30000,"station_id":"ce4bh192rcd13ifvqdd0","pricing_plan_id":"free"},{"bike_id":"fda0f5ff-f508-43c3-ae33-f0d7c6449f9b","system_id":"levelo_inurba_marseille","lat":43.2847,"lon":5.35897,"is_reserved":false,"is_disabled":false,"rental_uris":{"android":"levelo://app?vid=fda0f5ff-f508-43c3-ae33-f0d7c6449f9b","ios":"levelo://app?vid=fda0f5ff-f508-43c3-ae33-f0d7c6449f9b"},"vehicle_type_id":"4","last_reported":1704406010,"current_range_meters":4800,"station_id":"ce4bhah2rcd13ifvqei0","pricing_plan_id":"free"},{"bike_id":"af48aff3-c34c-4d67-b7b0-9da0a82a345a","system_id":"levelo_inurba_marseille","lat":43.284538,"lon":5.358657,"is_reserved":false,"is_disabled":false,"rental_uris":{"android":"levelo://app?vid=af48aff3-c34c-4d67-b7b0-9da0a82a345a","ios":"levelo://app?vid=af48aff3-c34c-4d67-b7b0-9da0a82a345a"},"vehicle_type_id":"4","last_reported":1704406010,"current_range_meters":17200,"station_id":"ce4bhah2rcd13ifvqei0","pricing_plan_id":"free"},{"bike_id":"84625161-a9f0-49d4-9543-6571148ee0f0","system_id":"levelo_inurba_marseille","lat":43.284538,"lon":5.358657,"is_reserved":false,"is_disabled":false,"rental_uris":{"android":"levelo://app?vid=84625161-a9f0-49d4-9543-6571148ee0f0","ios":"levelo://app?vid=84625161-a9f0-49d4-9543-6571148ee0f0"},"vehicle_type_id":"4","last_reported":1704406010,"current_range_meters":15600,"station_id":"ce4bhah2rcd13ifvqei0","pricing_plan_id":"free"},{"bike_id":"b0d9c37a-12b7-4fcf-b2cc-70034df7a04b","system_id":"levelo_inurba_marseille","lat":43.29823,"lon":5.40152,"is_reserved":false,"is_disabled":false,"rental_uris":{"android":"levelo://app?vid=b0d9c37a-12b7-4fcf-b2cc-70034df7a04b","ios":"levelo://app?vid=b0d9c37a-12b7-4fcf-b2cc-70034df7a04b"},"vehicle_type_id":"4","last_reported":1704406010,"current_range_meters":11200,"station_id":"","pricing_plan_id":"free"},{"bike_id":"7043dc82-84df-4b72-bbce-61bff426246c","system_id":"levelo_inurba_marseille","lat":43.283998,"lon":5.375062,"is_reserved":false,"is_disabled":false,"rental_uris":{"android":"levelo://app?vid=7043dc82-84df-4b72-bbce-61bff426246c","ios":"levelo://app?vid=7043dc82-84df-4b72-bbce-61bff426246c"},"vehicle_type_id":"4","last_reported":1704406010,"current_range_meters":10800,"station_id":"ce4bh412rcd13ifvqds0","pricing_plan_id":"free"},{"bike_id":"41354722-05e0-49cd-9e07-2abcd9e87c1c","system_id":"levelo_inurba_marseille","lat":43.283998,"lon":5.375062,"is_reserved":false,"is_disabled":false,"rental_uris":{"android":"levelo://app?vid=41354722-05e0-49cd-9e07-2abcd9e87c1c","ios":"levelo://app?vid=41354722-05e0-49cd-9e07-2abcd9e87c1c"},"vehicle_type_id":"4","last_reported":1704406010,"current_range_meters":20800,"station_id":"ce4bh412rcd13ifvqds0","pricing_plan_id":"free"},{"bike_id":"8ae0a585-6388-4c3c-be4e-6a32dc022a5f","system_id":"levelo_inurba_marseille","lat":43.283998,"lon":5.375062,"is_reserved":false,"is_disabled":false,"rental_uris":{"android":"levelo://app?vid=8ae0a585-6388-4c3c-be4e-6a32dc022a5f","ios":"levelo://app?vid=8ae0a585-6388-4c3c-be4e-6a32dc022a5f"},"vehicle_type_id":"4","last_reported":1704406010,"current_range_meters":29600,"station_id":"ce4bh412rcd13ifvqds0","pricing_plan_id":"free"},{"bike_id":"bdcb73d9-a16f-412d-90c1-4ab3c50c74ca","system_id":"levelo_inurba_marseille","lat":43.295713,"lon":5.399639,"is_reserved":false,"is_disabled":false,"rental_uris":{"android":"levelo://app?vid=bdcb73d9-a16f-412d-90c1-4ab3c50c74ca","ios":"levelo://app?vid=bdcb73d9-a16f-412d-90c1-4ab3c50c74ca"},"vehicle_type_id":"4","last_reported":1704406010,"current_range_meters":12400,"station_id":"ce4bh312rcd13ifvqdj0","pricing_plan_id":"free"},{"bike_id":"acc693d8-08a2-4ff7-9d20-89e89d9170f6","system_id":"levelo_inurba_marseille","lat":43.283998,"lon":5.375062,"is_reserved":false,"is_disabled":false,"rental_uris":{"android":"levelo://app?vid=acc693d8-08a2-4ff7-9d20-89e89d9170f6","ios":"levelo://app?vid=acc693d8-08a2-4ff7-9d20-89e89d9170f6"},"vehicle_type_id":"4","last_reported":1704406010,"current_range_meters":11200,"station_id":"ce4bh412rcd13ifvqds0","pricing_plan_id":"free"},{"bike_id":"14a789f0-892d-4680-905b-2a0af4ff097b","system_id":"levelo_inurba_marseille","lat":43.295713,"lon":5.399639,"is_reserved":false,"is_disabled":false,"rental_uris":{"android":"levelo://app?vid=14a789f0-892d-4680-905b-2a0af4ff097b","ios":"levelo://app?vid=14a789f0-892d-4680-905b-2a0af4ff097b"},"vehicle_type_id":"4","last_reported":1704406010,"current_range_meters":0,"station_id":"ce4bh312rcd13ifvqdj0","pricing_plan_id":"free"},{"bike_id":"a4073dcf-86d5-4e5c-a12d-6de5153114ee","system_id":"levelo_inurba_marseille","lat":43.33717,"lon":5.391857,"is_reserved":false,"is_disabled":false,"rental_uris":{"android":"levelo://app?vid=a4073dcf-86d5-4e5c-a12d-6de5153114ee","ios":"levelo://app?vid=a4073dcf-86d5-4e5c-a12d-6de5153114ee"},"vehicle_type_id":"4","last_reported":1704406010,"current_range_meters":28000,"station_id":"ce4bhr92rcd13ifvqhsg","pricing_plan_id":"free"},{"bike_id":"a7f2aa66-394d-403b-a5cc-3905453aa144","system_id":"levelo_inurba_marseille","lat":43.29795,"lon":5.404086,"is_reserved":false,"is_disabled":false,"rental_uris":{"android":"levelo://app?vid=a7f2aa66-394d-403b-a5cc-3905453aa144","ios":"levelo://app?vid=a7f2aa66-394d-403b-a5cc-3905453aa144"},"vehicle_type_id":"4","last_reported":1704406010,"current_range_meters":30400,"station_id":"ce4bh112rcd13ifvqd90","pricing_plan_id":"free"},{"bike_id":"e90f6af7-e35a-4b60-a629-ceb8a0fa27ce","system_id":"levelo_inurba_marseille","lat":43.288501,"lon":5.393087,"is_reserved":false,"is_disabled":false,"rental_uris":{"android":"levelo://app?vid=e90f6af7-e35a-4b60-a629-ceb8a0fa27ce","ios":"levelo://app?vid=e90f6af7-e35a-4b60-a629-ceb8a0fa27ce"},"vehicle_type_id":"4","last_reported":1704406010,"current_range_meters":24800,"station_id":"ce4bh2p2rcd13ifvqdi0","pricing_plan_id":"free"},{"bike_id":"58550917-ad8f-4703-ad2a-9f9ec01a0e6a","system_id":"levelo_inurba_marseille","lat":43.288501,"lon":5.393087,"is_reserved":false,"is_disabled":false,"rental_uris":{"android":"levelo://app?vid=58550917-ad8f-4703-ad2a-9f9ec01a0e6a","ios":"levelo://app?vid=58550917-ad8f-4703-ad2a-9f9ec01a0e6a"},"vehicle_type_id":"4","last_reported":1704406010,"current_range_meters":23600,"station_id":"ce4bh2p2rcd13ifvqdi0","pricing_plan_id":"free"},{"bike_id":"5226f4d0-5921-4500-9677-2a7a4f582818","system_id":"levelo_inurba_marseille","lat":43.288501,"lon":5.393087,"is_reserved":false,"is_disabled":false,"rental_uris":{"android":"levelo://app?vid=5226f4d0-5921-4500-9677-2a7a4f582818","ios":"levelo://app?vid=5226f4d0-5921-4500-9677-2a7a4f582818"},"vehicle_type_id":"4","last_reported":1704406010,"current_range_meters":30400,"station_id":"ce4bh2p2rcd13ifvqdi0","pricing_plan_id":"free"},{"bike_id":"a93cff7a-b7cf-4064-9d53-b4ec6a220f2b","system_id":"levelo_inurba_marseille","lat":43.283498,"lon":5.380948,"is_reserved":false,"is_disabled":false,"rental_uris":{"android":"levelo://app?vid=a93cff7a-b7cf-4064-9d53-b4ec6a220f2b","ios":"levelo://app?vid=a93cff7a-b7cf-4064-9d53-b4ec6a220f2b"},"vehicle_type_id":"4","last_reported":1704406010,"current_range_meters":0,"station_id":"ce4bh412rcd13ifvqdr0","pricing_plan_id":"free"},{"bike_id":"9f866b24-fbce-4ce7-8f4f-4e2d2273f64c","system_id":"levelo_inurba_marseille","lat":43.283498,"lon":5.380948,"is_reserved":false,"is_disabled":false,"rental_uris":{"android":"levelo://app?vid=9f866b24-fbce-4ce7-8f4f-4e2d2273f64c","ios":"levelo://app?vid=9f866b24-fbce-4ce7-8f4f-4e2d2273f64c"},"vehicle_type_id":"4","last_reported":1704406010,"current_range_meters":17600,"station_id":"ce4bh412rcd13ifvqdr0","pricing_plan_id":"free"},{"bike_id":"7ecf9b18-b091-4b2c-829a-c786557d104a","system_id":"levelo_inurba_marseille","lat":43.28416,"lon":5.3498,"is_reserved":false,"is_disabled":false,"rental_uris":{"android":"levelo://app?vid=7ecf9b18-b091-4b2c-829a-c786557d104a","ios":"levelo://app?vid=7ecf9b18-b091-4b2c-829a-c786557d104a"},"vehicle_type_id":"4","last_reported":1704406010,"current_range_meters":0,"station_id":"","pricing_plan_id":"free"},{"bike_id":"1ec020ab-3b6f-4f8e-b00c-5ceeef40821c","system_id":"levelo_inurba_marseille","lat":43.289363,"lon":5.396322,"is_reserved":false,"is_disabled":false,"rental_uris":{"android":"levelo://app?vid=1ec020ab-3b6f-4f8e-b00c-5ceeef40821c","ios":"levelo://app?vid=1ec020ab-3b6f-4f8e-b00c-5ceeef40821c"},"vehicle_type_id":"4","last_reported":1704406010,"current_range_meters":0,"station_id":"ce4bh3h2rcd13ifvqdn0","pricing_plan_id":"free"},{"bike_id":"bcad6d31-e94c-4705-9311-8e2b9f0aa08f","system_id":"levelo_inurba_marseille","lat":43.292724,"lon":5.401131,"is_reserved":false,"is_disabled":false,"rental_uris":{"android":"levelo://app?vid=bcad6d31-e94c-4705-9311-8e2b9f0aa08f","ios":"levelo://app?vid=bcad6d31-e94c-4705-9311-8e2b9f0aa08f"},"vehicle_type_id":"4","last_reported":1704406010,"current_range_meters":15200,"station_id":"ce4bh312rcd13ifvqdk0","pricing_plan_id":"free"},{"bike_id":"c99fb61a-8086-4afb-92e6-e5112fba70c2","system_id":"levelo_inurba_marseille","lat":43.29288,"lon":5.40121,"is_reserved":false,"is_disabled":false,"rental_uris":{"android":"levelo://app?vid=c99fb61a-8086-4afb-92e6-e5112fba70c2","ios":"levelo://app?vid=c99fb61a-8086-4afb-92e6-e5112fba70c2"},"vehicle_type_id":"4","last_reported":1704406010,"current_range_meters":19600,"station_id":"ce4bh312rcd13ifvqdk0","pricing_plan_id":"free"},{"bike_id":"6a263d03-77ce-412c-9a3a-5260559614c9","system_id":"levelo_inurba_marseille","lat":43.282754,"lon":5.350519,"is_reserved":false,"is_disabled":false,"rental_uris":{"android":"levelo://app?vid=6a263d03-77ce-412c-9a3a-5260559614c9","ios":"levelo://app?vid=6a263d03-77ce-412c-9a3a-5260559614c9"},"vehicle_type_id":"4","last_reported":1704406010,"current_range_meters":18800,"station_id":"ce4bhbp2rcd13ifvqerg","pricing_plan_id":"free"},{"bike_id":"da302717-fc34-40a6-9b64-e90ac669122b","system_id":"levelo_inurba_marseille","lat":43.283502,"lon":5.386471,"is_reserved":false,"is_disabled":false,"rental_uris":{"android":"levelo://app?vid=da302717-fc34-40a6-9b64-e90ac669122b","ios":"levelo://app?vid=da302717-fc34-40a6-9b64-e90ac669122b"},"vehicle_type_id":"4","last_reported":1704406010,"current_range_meters":16400,"station_id":"ce4bh492rcd13ifvqdvg","pricing_plan_id":"free"},{"bike_id":"32bca454-dc93-4c51-af10-2d847e57b1e8","system_id":"levelo_inurba_marseille","lat":43.280382,"lon":5.369291,"is_reserved":false,"is_disabled":false,"rental_uris":{"android":"levelo://app?vid=32bca454-dc93-4c51-af10-2d847e57b1e8","ios":"levelo://app?vid=32bca454-dc93-4c51-af10-2d847e57b1e8"},"vehicle_type_id":"4","last_reported":1704406010,"current_range_meters":23200,"station_id":"ce4bha12rcd13ifvqef0","pricing_plan_id":"free"},{"bike_id":"2e828609-e0e3-4227-8c79-14b8143cff61","system_id":"levelo_inurba_marseille","lat":43.283502,"lon":5.386471,"is_reserved":false,"is_disabled":false,"rental_uris":{"android":"levelo://app?vid=2e828609-e0e3-4227-8c79-14b8143cff61","ios":"levelo://app?vid=2e828609-e0e3-4227-8c79-14b8143cff61"},"vehicle_type_id":"4","last_reported":1704406010,"current_range_meters":16800,"station_id":"ce4bh492rcd13ifvqdvg","pricing_plan_id":"free"},{"bike_id":"a7057a8a-4345-487f-83f6-9c65d5711f34","system_id":"levelo_inurba_marseille","lat":43.29044,"lon":5.39939,"is_reserved":false,"is_disabled":false,"rental_uris":{"android":"levelo://app?vid=a7057a8a-4345-487f-83f6-9c65d5711f34","ios":"levelo://app?vid=a7057a8a-4345-487f-83f6-9c65d5711f34"},"vehicle_type_id":"4","last_reported":1704406010,"current_range_meters":15600,"station_id":"ce4bh392rcd13ifvqdm0","pricing_plan_id":"free"},{"bike_id":"1e512842-e678-47b1-b3ed-8ae67f067268","system_id":"levelo_inurba_marseille","lat":43.280283,"lon":5.3694,"is_reserved":false,"is_disabled":false,"rental_uris":{"android":"levelo://app?vid=1e512842-e678-47b1-b3ed-8ae67f067268","ios":"levelo://app?vid=1e512842-e678-47b1-b3ed-8ae67f067268"},"vehicle_type_id":"4","last_reported":1704406010,"current_range_meters":2800,"station_id":"ce4bha12rcd13ifvqef0","pricing_plan_id":"free"},{"bike_id":"69773e01-f235-4d51-92b1-52ffc469331e","system_id":"levelo_inurba_marseille","lat":43.290458,"lon":5.399472,"is_reserved":false,"is_disabled":false,"rental_uris":{"android":"levelo://app?vid=69773e01-f235-4d51-92b1-52ffc469331e","ios":"levelo://app?vid=69773e01-f235-4d51-92b1-52ffc469331e"},"vehicle_type_id":"4","last_reported":1704406010,"current_range_meters":18400,"station_id":"ce4bh392rcd13ifvqdm0","pricing_plan_id":"free"},{"bike_id":"5162c687-fb89-4ad6-b278-29e8599528e0","system_id":"levelo_inurba_marseille","lat":43.280382,"lon":5.369291,"is_reserved":false,"is_disabled":false,"rental_uris":{"android":"levelo://app?vid=5162c687-fb89-4ad6-b278-29e8599528e0","ios":"levelo://app?vid=5162c687-fb89-4ad6-b278-29e8599528e0"},"vehicle_type_id":"4","last_reported":1704406010,"current_range_meters":21200,"station_id":"ce4bha12rcd13ifvqef0","pricing_plan_id":"free"},{"bike_id":"9a656f03-b20b-4b18-b988-89ca6f71913b","system_id":"levelo_inurba_marseille","lat":43.29039,"lon":5.39961,"is_reserved":false,"is_disabled":false,"rental_uris":{"android":"levelo://app?vid=9a656f03-b20b-4b18-b988-89ca6f71913b","ios":"levelo://app?vid=9a656f03-b20b-4b18-b988-89ca6f71913b"},"vehicle_type_id":"4","last_reported":1704406010,"current_range_meters":23600,"station_id":"ce4bh392rcd13ifvqdm0","pricing_plan_id":"free"},{"bike_id":"dceafd6c-975b-4f93-95ce-c8511a607403","system_id":"levelo_inurba_marseille","lat":43.2904,"lon":5.39966,"is_reserved":false,"is_disabled":false,"rental_uris":{"android":"levelo://app?vid=dceafd6c-975b-4f93-95ce-c8511a607403","ios":"levelo://app?vid=dceafd6c-975b-4f93-95ce-c8511a607403"},"vehicle_type_id":"4","last_reported":1704406010,"current_range_meters":15600,"station_id":"ce4bh392rcd13ifvqdm0","pricing_plan_id":"free"},{"bike_id":"8d4d72fb-7ff3-4d2b-8a16-915fc0bab4c1","system_id":"levelo_inurba_marseille","lat":43.29037,"lon":5.3997,"is_reserved":false,"is_disabled":false,"rental_uris":{"android":"levelo://app?vid=8d4d72fb-7ff3-4d2b-8a16-915fc0bab4c1","ios":"levelo://app?vid=8d4d72fb-7ff3-4d2b-8a16-915fc0bab4c1"},"vehicle_type_id":"4","last_reported":1704406010,"current_range_meters":18800,"station_id":"ce4bh392rcd13ifvqdm0","pricing_plan_id":"free"},{"bike_id":"a94544f2-b624-4fd3-b204-aa358aaa73c5","system_id":"levelo_inurba_marseille","lat":43.29034,"lon":5.39969,"is_reserved":false,"is_disabled":false,"rental_uris":{"android":"levelo://app?vid=a94544f2-b624-4fd3-b204-aa358aaa73c5","ios":"levelo://app?vid=a94544f2-b624-4fd3-b204-aa358aaa73c5"},"vehicle_type_id":"4","last_reported":1704406010,"current_range_meters":10000,"station_id":"ce4bh392rcd13ifvqdm0","pricing_plan_id":"free"},{"bike_id":"f8a83def-0596-498b-879d-0d73271d276f","system_id":"levelo_inurba_marseille","lat":43.2903,"lon":5.39974,"is_reserved":false,"is_disabled":false,"rental_uris":{"android":"levelo://app?vid=f8a83def-0596-498b-879d-0d73271d276f","ios":"levelo://app?vid=f8a83def-0596-498b-879d-0d73271d276f"},"vehicle_type_id":"4","last_reported":1704406010,"current_range_meters":28000,"station_id":"ce4bh392rcd13ifvqdm0","pricing_plan_id":"free"},{"bike_id":"d9b2d1f4-d239-4125-b824-752019b8b854","system_id":"levelo_inurba_marseille","lat":43.296307,"lon":5.405987,"is_reserved":false,"is_disabled":false,"rental_uris":{"android":"levelo://app?vid=d9b2d1f4-d239-4125-b824-752019b8b854","ios":"levelo://app?vid=d9b2d1f4-d239-4125-b824-752019b8b854"},"vehicle_type_id":"4","last_reported":1704406010,"current_range_meters":0,"station_id":"ce4bh0h2rcd13ifvqd60","pricing_plan_id":"free"},{"bike_id":"b35c4f43-2ba3-4342-b257-f3b0daea880c","system_id":"levelo_inurba_marseille","lat":43.281044,"lon":5.378308,"is_reserved":false,"is_disabled":false,"rental_uris":{"android":"levelo://app?vid=b35c4f43-2ba3-4342-b257-f3b0daea880c","ios":"levelo://app?vid=b35c4f43-2ba3-4342-b257-f3b0daea880c"},"vehicle_type_id":"4","last_reported":1704406010,"current_range_meters":19200,"station_id":"ce4bha12rcd13ifvqee0","pricing_plan_id":"free"},{"bike_id":"bc2adbbe-7d60-44f2-902c-1e494e547d45","system_id":"levelo_inurba_marseille","lat":43.284462,"lon":5.392121,"is_reserved":false,"is_disabled":false,"rental_uris":{"android":"levelo://app?vid=bc2adbbe-7d60-44f2-902c-1e494e547d45","ios":"levelo://app?vid=bc2adbbe-7d60-44f2-902c-1e494e547d45"},"vehicle_type_id":"4","last_reported":1704406010,"current_range_meters":800,"station_id":"ce4bhoh2rcd13ifvqh5g","pricing_plan_id":"free"},{"bike_id":"16afe946-ff9b-4dac-9f94-ced498dff0fb","system_id":"levelo_inurba_marseille","lat":43.284462,"lon":5.392121,"is_reserved":false,"is_disabled":false,"rental_uris":{"android":"levelo://app?vid=16afe946-ff9b-4dac-9f94-ced498dff0fb","ios":"levelo://app?vid=16afe946-ff9b-4dac-9f94-ced498dff0fb"},"vehicle_type_id":"4","last_reported":1704406010,"current_range_meters":22800,"station_id":"ce4bhoh2rcd13ifvqh5g","pricing_plan_id":"free"},{"bike_id":"bfcac061-05e4-4c13-b145-9ecd3204a4d5","system_id":"levelo_inurba_marseille","lat":43.285742,"lon":5.395004,"is_reserved":false,"is_disabled":false,"rental_uris":{"android":"levelo://app?vid=bfcac061-05e4-4c13-b145-9ecd3204a4d5","ios":"levelo://app?vid=bfcac061-05e4-4c13-b145-9ecd3204a4d5"},"vehicle_type_id":"4","last_reported":1704406010,"current_range_meters":24800,"station_id":"ce4bh292rcd13ifvqdg0","pricing_plan_id":"free"},{"bike_id":"fa60d1a1-7834-4c94-89f9-64b9637b7c1e","system_id":"levelo_inurba_marseille","lat":43.280784,"lon":5.396622,"is_reserved":false,"is_disabled":false,"rental_uris":{"android":"levelo://app?vid=fa60d1a1-7834-4c94-89f9-64b9637b7c1e","ios":"levelo://app?vid=fa60d1a1-7834-4c94-89f9-64b9637b7c1e"},"vehicle_type_id":"4","last_reported":1704406010,"current_range_meters":10400,"station_id":"ce4bho12rcd13ifvqh2g","pricing_plan_id":"free"},{"bike_id":"fa4704a9-d68e-48c0-a01f-ae6cb68194ae","system_id":"levelo_inurba_marseille","lat":43.287154,"lon":5.399979,"is_reserved":false,"is_disabled":false,"rental_uris":{"android":"levelo://app?vid=fa4704a9-d68e-48c0-a01f-ae6cb68194ae","ios":"levelo://app?vid=fa4704a9-d68e-48c0-a01f-ae6cb68194ae"},"vehicle_type_id":"4","last_reported":1704406010,"current_range_meters":13600,"station_id":"ce4bho92rcd13ifvqh3g","pricing_plan_id":"free"},{"bike_id":"bc03c173-0b29-49ca-adb1-76ffdd58b021","system_id":"levelo_inurba_marseille","lat":43.287154,"lon":5.399979,"is_reserved":false,"is_disabled":false,"rental_uris":{"android":"levelo://app?vid=bc03c173-0b29-49ca-adb1-76ffdd58b021","ios":"levelo://app?vid=bc03c173-0b29-49ca-adb1-76ffdd58b021"},"vehicle_type_id":"4","last_reported":1704406010,"current_range_meters":11600,"station_id":"ce4bho92rcd13ifvqh3g","pricing_plan_id":"free"},{"bike_id":"17f7d508-5bc1-419c-929a-6544186a4109","system_id":"levelo_inurba_marseille","lat":43.28698,"lon":5.39973,"is_reserved":false,"is_disabled":false,"rental_uris":{"android":"levelo://app?vid=17f7d508-5bc1-419c-929a-6544186a4109","ios":"levelo://app?vid=17f7d508-5bc1-419c-929a-6544186a4109"},"vehicle_type_id":"4","last_reported":1704406010,"current_range_meters":24000,"station_id":"ce4bho92rcd13ifvqh3g","pricing_plan_id":"free"},{"bike_id":"641ad07e-e4f4-4c35-b836-7044ea9004d5","system_id":"levelo_inurba_marseille","lat":43.287154,"lon":5.399979,"is_reserved":false,"is_disabled":false,"rental_uris":{"android":"levelo://app?vid=641ad07e-e4f4-4c35-b836-7044ea9004d5","ios":"levelo://app?vid=641ad07e-e4f4-4c35-b836-7044ea9004d5"},"vehicle_type_id":"4","last_reported":1704406010,"current_range_meters":29600,"station_id":"ce4bho92rcd13ifvqh3g","pricing_plan_id":"free"},{"bike_id":"38d7b7f1-b419-4969-a2c3-4140cdfe5b3c","system_id":"levelo_inurba_marseille","lat":43.287154,"lon":5.399979,"is_reserved":false,"is_disabled":false,"rental_uris":{"android":"levelo://app?vid=38d7b7f1-b419-4969-a2c3-4140cdfe5b3c","ios":"levelo://app?vid=38d7b7f1-b419-4969-a2c3-4140cdfe5b3c"},"vehicle_type_id":"4","last_reported":1704406010,"current_range_meters":15600,"station_id":"ce4bho92rcd13ifvqh3g","pricing_plan_id":"free"},{"bike_id":"e1eaa302-db66-42f3-bce4-5f76935cd5b4","system_id":"levelo_inurba_marseille","lat":43.279087,"lon":5.380114,"is_reserved":false,"is_disabled":false,"rental_uris":{"android":"levelo://app?vid=e1eaa302-db66-42f3-bce4-5f76935cd5b4","ios":"levelo://app?vid=e1eaa302-db66-42f3-bce4-5f76935cd5b4"},"vehicle_type_id":"4","last_reported":1704406010,"current_range_meters":20400,"station_id":"ce4bhf92rcd13ifvqf50","pricing_plan_id":"free"},{"bike_id":"7eae3f2f-d254-4e6b-8e86-528a285b2335","system_id":"levelo_inurba_marseille","lat":43.287154,"lon":5.399979,"is_reserved":false,"is_disabled":false,"rental_uris":{"android":"levelo://app?vid=7eae3f2f-d254-4e6b-8e86-528a285b2335","ios":"levelo://app?vid=7eae3f2f-d254-4e6b-8e86-528a285b2335"},"vehicle_type_id":"4","last_reported":1704406010,"current_range_meters":10800,"station_id":"ce4bho92rcd13ifvqh3g","pricing_plan_id":"free"},{"bike_id":"06490eac-aad3-4891-8502-bc71c8fb526d","system_id":"levelo_inurba_marseille","lat":43.287154,"lon":5.399979,"is_reserved":false,"is_disabled":false,"rental_uris":{"android":"levelo://app?vid=06490eac-aad3-4891-8502-bc71c8fb526d","ios":"levelo://app?vid=06490eac-aad3-4891-8502-bc71c8fb526d"},"vehicle_type_id":"4","last_reported":1704406010,"current_range_meters":23200,"station_id":"ce4bho92rcd13ifvqh3g","pricing_plan_id":"free"},{"bike_id":"08155ff4-c214-4001-92ed-097b8cffce39","system_id":"levelo_inurba_marseille","lat":43.320045,"lon":5.415046,"is_reserved":false,"is_disabled":false,"rental_uris":{"android":"levelo://app?vid=08155ff4-c214-4001-92ed-097b8cffce39","ios":"levelo://app?vid=08155ff4-c214-4001-92ed-097b8cffce39"},"vehicle_type_id":"4","last_reported":1704406010,"current_range_meters":22400,"station_id":"ce4bhq92rcd13ifvqhkg","pricing_plan_id":"free"},{"bike_id":"3c259b33-b115-4957-8918-058ff1fbec3d","system_id":"levelo_inurba_marseille","lat":43.320488,"lon":5.415508,"is_reserved":false,"is_disabled":false,"rental_uris":{"android":"levelo://app?vid=3c259b33-b115-4957-8918-058ff1fbec3d","ios":"levelo://app?vid=3c259b33-b115-4957-8918-058ff1fbec3d"},"vehicle_type_id":"4","last_reported":1704406010,"current_range_meters":15200,"station_id":"ce4bhq92rcd13ifvqhkg","pricing_plan_id":"free"},{"bike_id":"ca80aa51-e76a-4435-b4a0-2c6ed02bfabc","system_id":"levelo_inurba_marseille","lat":43.320045,"lon":5.415046,"is_reserved":false,"is_disabled":false,"rental_uris":{"android":"levelo://app?vid=ca80aa51-e76a-4435-b4a0-2c6ed02bfabc","ios":"levelo://app?vid=ca80aa51-e76a-4435-b4a0-2c6ed02bfabc"},"vehicle_type_id":"4","last_reported":1704406010,"current_range_meters":30000,"station_id":"ce4bhq92rcd13ifvqhkg","pricing_plan_id":"free"},{"bike_id":"a30670f3-d788-4875-ba5e-d008a8c6b4a5","system_id":"levelo_inurba_marseille","lat":43.292571,"lon":5.409107,"is_reserved":false,"is_disabled":false,"rental_uris":{"android":"levelo://app?vid=a30670f3-d788-4875-ba5e-d008a8c6b4a5","ios":"levelo://app?vid=a30670f3-d788-4875-ba5e-d008a8c6b4a5"},"vehicle_type_id":"4","last_reported":1704406010,"current_range_meters":17200,"station_id":"ce4bh192rcd13ifvqdc0","pricing_plan_id":"free"},{"bike_id":"8f3f3375-c0ee-4c2d-8db8-f528c9e8b25c","system_id":"levelo_inurba_marseille","lat":43.27618,"lon":5.361009,"is_reserved":false,"is_disabled":false,"rental_uris":{"android":"levelo://app?vid=8f3f3375-c0ee-4c2d-8db8-f528c9e8b25c","ios":"levelo://app?vid=8f3f3375-c0ee-4c2d-8db8-f528c9e8b25c"},"vehicle_type_id":"4","last_reported":1704406010,"current_range_meters":4000,"station_id":"ce4bgj92rcd13ifvqbe0","pricing_plan_id":"free"},{"bike_id":"cd2836bd-7416-4e20-8535-99c286431462","system_id":"levelo_inurba_marseille","lat":43.325243,"lon":5.414326,"is_reserved":false,"is_disabled":false,"rental_uris":{"android":"levelo://app?vid=cd2836bd-7416-4e20-8535-99c286431462","ios":"levelo://app?vid=cd2836bd-7416-4e20-8535-99c286431462"},"vehicle_type_id":"4","last_reported":1704406010,"current_range_meters":10400,"station_id":"ce4bhq12rcd13ifvqhhg","pricing_plan_id":"free"},{"bike_id":"d3f25bcc-da64-44bb-8495-bf854b2f447f","system_id":"levelo_inurba_marseille","lat":43.32437,"lon":5.41658,"is_reserved":false,"is_disabled":false,"rental_uris":{"android":"levelo://app?vid=d3f25bcc-da64-44bb-8495-bf854b2f447f","ios":"levelo://app?vid=d3f25bcc-da64-44bb-8495-bf854b2f447f"},"vehicle_type_id":"4","last_reported":1704406010,"current_range_meters":16000,"station_id":"","pricing_plan_id":"free"},{"bike_id":"dc138e57-93f3-4c41-862d-2071d861d9b9","system_id":"levelo_inurba_marseille","lat":43.336134,"lon":5.410341,"is_reserved":false,"is_disabled":false,"rental_uris":{"android":"levelo://app?vid=dc138e57-93f3-4c41-862d-2071d861d9b9","ios":"levelo://app?vid=dc138e57-93f3-4c41-862d-2071d861d9b9"},"vehicle_type_id":"4","last_reported":1704406010,"current_range_meters":24000,"station_id":"ce4bhqh2rcd13ifvqhmg","pricing_plan_id":"free"},{"bike_id":"d61c8011-37af-4c47-9e4c-b4a78e7819c7","system_id":"levelo_inurba_marseille","lat":43.28075,"lon":5.3966,"is_reserved":false,"is_disabled":false,"rental_uris":{"android":"levelo://app?vid=d61c8011-37af-4c47-9e4c-b4a78e7819c7","ios":"levelo://app?vid=d61c8011-37af-4c47-9e4c-b4a78e7819c7"},"vehicle_type_id":"4","last_reported":1704406010,"current_range_meters":0,"station_id":"ce4bho12rcd13ifvqh2g","pricing_plan_id":"free"},{"bike_id":"8afe7560-56de-435e-b920-344d4ba03f44","system_id":"levelo_inurba_marseille","lat":43.303837,"lon":5.418724,"is_reserved":false,"is_disabled":false,"rental_uris":{"android":"levelo://app?vid=8afe7560-56de-435e-b920-344d4ba03f44","ios":"levelo://app?vid=8afe7560-56de-435e-b920-344d4ba03f44"},"vehicle_type_id":"4","last_reported":1704406010,"current_range_meters":20800,"station_id":"ce4bhop2rcd13ifvqh7g","pricing_plan_id":"free"},{"bike_id":"7654ba54-5967-4faa-9b9c-858ec2d349dc","system_id":"levelo_inurba_marseille","lat":43.303837,"lon":5.418724,"is_reserved":false,"is_disabled":false,"rental_uris":{"android":"levelo://app?vid=7654ba54-5967-4faa-9b9c-858ec2d349dc","ios":"levelo://app?vid=7654ba54-5967-4faa-9b9c-858ec2d349dc"},"vehicle_type_id":"4","last_reported":1704406010,"current_range_meters":21200,"station_id":"ce4bhop2rcd13ifvqh7g","pricing_plan_id":"free"},{"bike_id":"0892d35a-7e73-4e98-9820-6b31b73793f5","system_id":"levelo_inurba_marseille","lat":43.303837,"lon":5.418724,"is_reserved":false,"is_disabled":false,"rental_uris":{"android":"levelo://app?vid=0892d35a-7e73-4e98-9820-6b31b73793f5","ios":"levelo://app?vid=0892d35a-7e73-4e98-9820-6b31b73793f5"},"vehicle_type_id":"4","last_reported":1704406010,"current_range_meters":24800,"station_id":"ce4bhop2rcd13ifvqh7g","pricing_plan_id":"free"},{"bike_id":"4968d964-3344-4faa-ab99-7ab716c4dba7","system_id":"levelo_inurba_marseille","lat":43.278401,"lon":5.392152,"is_reserved":false,"is_disabled":false,"rental_uris":{"android":"levelo://app?vid=4968d964-3344-4faa-ab99-7ab716c4dba7","ios":"levelo://app?vid=4968d964-3344-4faa-ab99-7ab716c4dba7"},"vehicle_type_id":"4","last_reported":1704406010,"current_range_meters":30800,"station_id":"ce4bhjp2rcd13ifvqga0","pricing_plan_id":"free"},{"bike_id":"f2838dce-cd7b-43c5-a690-d9411e245a8b","system_id":"levelo_inurba_marseille","lat":43.278399,"lon":5.392139,"is_reserved":false,"is_disabled":false,"rental_uris":{"android":"levelo://app?vid=f2838dce-cd7b-43c5-a690-d9411e245a8b","ios":"levelo://app?vid=f2838dce-cd7b-43c5-a690-d9411e245a8b"},"vehicle_type_id":"4","last_reported":1704406010,"current_range_meters":18800,"station_id":"ce4bhjp2rcd13ifvqga0","pricing_plan_id":"free"},{"bike_id":"1a7ca003-801f-4e65-8066-36f4d36a2fc1","system_id":"levelo_inurba_marseille","lat":43.278401,"lon":5.392152,"is_reserved":false,"is_disabled":false,"rental_uris":{"android":"levelo://app?vid=1a7ca003-801f-4e65-8066-36f4d36a2fc1","ios":"levelo://app?vid=1a7ca003-801f-4e65-8066-36f4d36a2fc1"},"vehicle_type_id":"4","last_reported":1704406010,"current_range_meters":0,"station_id":"ce4bhjp2rcd13ifvqga0","pricing_plan_id":"free"},{"bike_id":"13824fd8-64c2-49b0-82e4-22de884ca9be","system_id":"levelo_inurba_marseille","lat":43.27822,"lon":5.39203,"is_reserved":false,"is_disabled":false,"rental_uris":{"android":"levelo://app?vid=13824fd8-64c2-49b0-82e4-22de884ca9be","ios":"levelo://app?vid=13824fd8-64c2-49b0-82e4-22de884ca9be"},"vehicle_type_id":"4","last_reported":1704406010,"current_range_meters":2000,"station_id":"ce4bhjp2rcd13ifvqga0","pricing_plan_id":"free"},{"bike_id":"07b30513-8853-4f60-bb57-f0f2e7e5a301","system_id":"levelo_inurba_marseille","lat":43.278399,"lon":5.392139,"is_reserved":false,"is_disabled":false,"rental_uris":{"android":"levelo://app?vid=07b30513-8853-4f60-bb57-f0f2e7e5a301","ios":"levelo://app?vid=07b30513-8853-4f60-bb57-f0f2e7e5a301"},"vehicle_type_id":"4","last_reported":1704406010,"current_range_meters":8400,"station_id":"ce4bhjp2rcd13ifvqga0","pricing_plan_id":"free"},{"bike_id":"a1344053-79b6-4eb6-ba49-b844c62f8799","system_id":"levelo_inurba_marseille","lat":43.278401,"lon":5.392152,"is_reserved":false,"is_disabled":false,"rental_uris":{"android":"levelo://app?vid=a1344053-79b6-4eb6-ba49-b844c62f8799","ios":"levelo://app?vid=a1344053-79b6-4eb6-ba49-b844c62f8799"},"vehicle_type_id":"4","last_reported":1704406010,"current_range_meters":400,"station_id":"ce4bhjp2rcd13ifvqga0","pricing_plan_id":"free"},{"bike_id":"498cf589-2e0d-4fd1-a30c-2d0dba323d29","system_id":"levelo_inurba_marseille","lat":43.243884,"lon":5.370737,"is_reserved":false,"is_disabled":false,"rental_uris":{"android":"levelo://app?vid=498cf589-2e0d-4fd1-a30c-2d0dba323d29","ios":"levelo://app?vid=498cf589-2e0d-4fd1-a30c-2d0dba323d29"},"vehicle_type_id":"4","last_reported":1704406010,"current_range_meters":13600,"station_id":"ce4bhhh2rcd13ifvqfk0","pricing_plan_id":"free"},{"bike_id":"31d5a2b2-c087-4052-b2f3-a9e3c28580e1","system_id":"levelo_inurba_marseille","lat":43.273609,"lon":5.362708,"is_reserved":false,"is_disabled":false,"rental_uris":{"android":"levelo://app?vid=31d5a2b2-c087-4052-b2f3-a9e3c28580e1","ios":"levelo://app?vid=31d5a2b2-c087-4052-b2f3-a9e3c28580e1"},"vehicle_type_id":"4","last_reported":1704406010,"current_range_meters":8800,"station_id":"ce4bhbh2rcd13ifvqeo0","pricing_plan_id":"free"},{"bike_id":"8c977507-5788-41b7-8af7-0acd33f59e97","system_id":"levelo_inurba_marseille","lat":43.336134,"lon":5.410341,"is_reserved":false,"is_disabled":false,"rental_uris":{"android":"levelo://app?vid=8c977507-5788-41b7-8af7-0acd33f59e97","ios":"levelo://app?vid=8c977507-5788-41b7-8af7-0acd33f59e97"},"vehicle_type_id":"4","last_reported":1704406010,"current_range_meters":28800,"station_id":"ce4bhqh2rcd13ifvqhmg","pricing_plan_id":"free"},{"bike_id":"e67c711a-98d0-49f9-9916-7a240abb8bed","system_id":"levelo_inurba_marseille","lat":43.279952,"lon":5.400085,"is_reserved":false,"is_disabled":false,"rental_uris":{"android":"levelo://app?vid=e67c711a-98d0-49f9-9916-7a240abb8bed","ios":"levelo://app?vid=e67c711a-98d0-49f9-9916-7a240abb8bed"},"vehicle_type_id":"4","last_reported":1704406010,"current_range_meters":19200,"station_id":"ce4bho92rcd13ifvqh4g","pricing_plan_id":"free"},{"bike_id":"036874aa-80bb-4056-b3c9-66bf268c0a58","system_id":"levelo_inurba_marseille","lat":43.28,"lon":5.40018,"is_reserved":false,"is_disabled":false,"rental_uris":{"android":"levelo://app?vid=036874aa-80bb-4056-b3c9-66bf268c0a58","ios":"levelo://app?vid=036874aa-80bb-4056-b3c9-66bf268c0a58"},"vehicle_type_id":"4","last_reported":1704406010,"current_range_meters":9200,"station_id":"ce4bho92rcd13ifvqh4g","pricing_plan_id":"free"},{"bike_id":"dab28b0d-8ea6-4498-b094-8987947e9457","system_id":"levelo_inurba_marseille","lat":43.317121,"lon":5.423936,"is_reserved":false,"is_disabled":false,"rental_uris":{"android":"levelo://app?vid=dab28b0d-8ea6-4498-b094-8987947e9457","ios":"levelo://app?vid=dab28b0d-8ea6-4498-b094-8987947e9457"},"vehicle_type_id":"4","last_reported":1704406010,"current_range_meters":22800,"station_id":"ce4bhp92rcd13ifvqhbg","pricing_plan_id":"free"},{"bike_id":"4f0711dd-915f-4271-b28b-c5a497837f1d","system_id":"levelo_inurba_marseille","lat":43.317121,"lon":5.423936,"is_reserved":false,"is_disabled":false,"rental_uris":{"android":"levelo://app?vid=4f0711dd-915f-4271-b28b-c5a497837f1d","ios":"levelo://app?vid=4f0711dd-915f-4271-b28b-c5a497837f1d"},"vehicle_type_id":"4","last_reported":1704406010,"current_range_meters":30000,"station_id":"ce4bhp92rcd13ifvqhbg","pricing_plan_id":"free"},{"bike_id":"4115cdf3-dc4b-4b1e-94c8-c29fa44eb16d","system_id":"levelo_inurba_marseille","lat":43.317121,"lon":5.423936,"is_reserved":false,"is_disabled":false,"rental_uris":{"android":"levelo://app?vid=4115cdf3-dc4b-4b1e-94c8-c29fa44eb16d","ios":"levelo://app?vid=4115cdf3-dc4b-4b1e-94c8-c29fa44eb16d"},"vehicle_type_id":"4","last_reported":1704406010,"current_range_meters":30800,"station_id":"ce4bhp92rcd13ifvqhbg","pricing_plan_id":"free"},{"bike_id":"f7f79a4d-6ffd-4c77-8ef2-c4a3c9557f1a","system_id":"levelo_inurba_marseille","lat":43.274099,"lon":5.394019,"is_reserved":false,"is_disabled":false,"rental_uris":{"android":"levelo://app?vid=f7f79a4d-6ffd-4c77-8ef2-c4a3c9557f1a","ios":"levelo://app?vid=f7f79a4d-6ffd-4c77-8ef2-c4a3c9557f1a"},"vehicle_type_id":"4","last_reported":1704406010,"current_range_meters":24000,"station_id":"ce4bhdp2rcd13ifvqf20","pricing_plan_id":"free"},{"bike_id":"73af8d5c-f512-4ab5-b9eb-03c462f5bd8d","system_id":"levelo_inurba_marseille","lat":43.295511,"lon":5.422926,"is_reserved":false,"is_disabled":false,"rental_uris":{"android":"levelo://app?vid=73af8d5c-f512-4ab5-b9eb-03c462f5bd8d","ios":"levelo://app?vid=73af8d5c-f512-4ab5-b9eb-03c462f5bd8d"},"vehicle_type_id":"4","last_reported":1704406010,"current_range_meters":12400,"station_id":"ce4bhph2rcd13ifvqhdg","pricing_plan_id":"free"},{"bike_id":"d1f19f8b-0dce-476e-a88e-8d52e526f67f","system_id":"levelo_inurba_marseille","lat":43.295523,"lon":5.422926,"is_reserved":false,"is_disabled":false,"rental_uris":{"android":"levelo://app?vid=d1f19f8b-0dce-476e-a88e-8d52e526f67f","ios":"levelo://app?vid=d1f19f8b-0dce-476e-a88e-8d52e526f67f"},"vehicle_type_id":"4","last_reported":1704406010,"current_range_meters":26400,"station_id":"ce4bhph2rcd13ifvqhdg","pricing_plan_id":"free"},{"bike_id":"b15bf62a-b098-415b-99c2-f75370f251fa","system_id":"levelo_inurba_marseille","lat":43.295511,"lon":5.422926,"is_reserved":false,"is_disabled":false,"rental_uris":{"android":"levelo://app?vid=b15bf62a-b098-415b-99c2-f75370f251fa","ios":"levelo://app?vid=b15bf62a-b098-415b-99c2-f75370f251fa"},"vehicle_type_id":"4","last_reported":1704406010,"current_range_meters":6000,"station_id":"ce4bhph2rcd13ifvqhdg","pricing_plan_id":"free"},{"bike_id":"9664fb5b-23a7-4950-b957-58086de787e9","system_id":"levelo_inurba_marseille","lat":43.295523,"lon":5.422926,"is_reserved":false,"is_disabled":false,"rental_uris":{"android":"levelo://app?vid=9664fb5b-23a7-4950-b957-58086de787e9","ios":"levelo://app?vid=9664fb5b-23a7-4950-b957-58086de787e9"},"vehicle_type_id":"4","last_reported":1704406010,"current_range_meters":14400,"station_id":"ce4bhph2rcd13ifvqhdg","pricing_plan_id":"free"},{"bike_id":"1476ccaf-15c0-401b-aafd-c106b0adf6c7","system_id":"levelo_inurba_marseille","lat":43.295511,"lon":5.422926,"is_reserved":false,"is_disabled":false,"rental_uris":{"android":"levelo://app?vid=1476ccaf-15c0-401b-aafd-c106b0adf6c7","ios":"levelo://app?vid=1476ccaf-15c0-401b-aafd-c106b0adf6c7"},"vehicle_type_id":"4","last_reported":1704406010,"current_range_meters":800,"station_id":"ce4bhph2rcd13ifvqhdg","pricing_plan_id":"free"},{"bike_id":"87638faf-8770-4dcc-bb2a-991510e4755a","system_id":"levelo_inurba_marseille","lat":43.295511,"lon":5.422926,"is_reserved":false,"is_disabled":false,"rental_uris":{"android":"levelo://app?vid=87638faf-8770-4dcc-bb2a-991510e4755a","ios":"levelo://app?vid=87638faf-8770-4dcc-bb2a-991510e4755a"},"vehicle_type_id":"4","last_reported":1704406010,"current_range_meters":6400,"station_id":"ce4bhph2rcd13ifvqhdg","pricing_plan_id":"free"},{"bike_id":"768938e0-882c-4e76-a146-610e15b96739","system_id":"levelo_inurba_marseille","lat":43.295511,"lon":5.422926,"is_reserved":false,"is_disabled":false,"rental_uris":{"android":"levelo://app?vid=768938e0-882c-4e76-a146-610e15b96739","ios":"levelo://app?vid=768938e0-882c-4e76-a146-610e15b96739"},"vehicle_type_id":"4","last_reported":1704406010,"current_range_meters":8800,"station_id":"ce4bhph2rcd13ifvqhdg","pricing_plan_id":"free"},{"bike_id":"380c09c5-80e6-4851-b537-fda5c14c54af","system_id":"levelo_inurba_marseille","lat":43.278128,"lon":5.407195,"is_reserved":false,"is_disabled":false,"rental_uris":{"android":"levelo://app?vid=380c09c5-80e6-4851-b537-fda5c14c54af","ios":"levelo://app?vid=380c09c5-80e6-4851-b537-fda5c14c54af"},"vehicle_type_id":"4","last_reported":1704406010,"current_range_meters":31200,"station_id":"ce4bhnh2rcd13ifvqgtg","pricing_plan_id":"free"},{"bike_id":"f4f9a1ae-101b-4c21-96a5-8ee282e6764a","system_id":"levelo_inurba_marseille","lat":43.278128,"lon":5.407195,"is_reserved":false,"is_disabled":false,"rental_uris":{"android":"levelo://app?vid=f4f9a1ae-101b-4c21-96a5-8ee282e6764a","ios":"levelo://app?vid=f4f9a1ae-101b-4c21-96a5-8ee282e6764a"},"vehicle_type_id":"4","last_reported":1704406010,"current_range_meters":30400,"station_id":"ce4bhnh2rcd13ifvqgtg","pricing_plan_id":"free"},{"bike_id":"551af9f4-6a9b-4035-9c1f-9fbcfbeead6a","system_id":"levelo_inurba_marseille","lat":43.278128,"lon":5.407195,"is_reserved":false,"is_disabled":false,"rental_uris":{"android":"levelo://app?vid=551af9f4-6a9b-4035-9c1f-9fbcfbeead6a","ios":"levelo://app?vid=551af9f4-6a9b-4035-9c1f-9fbcfbeead6a"},"vehicle_type_id":"4","last_reported":1704406010,"current_range_meters":13600,"station_id":"ce4bhnh2rcd13ifvqgtg","pricing_plan_id":"free"},{"bike_id":"7bb3d5d8-6243-4f42-9f37-90f912d5d63b","system_id":"levelo_inurba_marseille","lat":43.278128,"lon":5.407195,"is_reserved":false,"is_disabled":false,"rental_uris":{"android":"levelo://app?vid=7bb3d5d8-6243-4f42-9f37-90f912d5d63b","ios":"levelo://app?vid=7bb3d5d8-6243-4f42-9f37-90f912d5d63b"},"vehicle_type_id":"4","last_reported":1704406010,"current_range_meters":18400,"station_id":"ce4bhnh2rcd13ifvqgtg","pricing_plan_id":"free"},{"bike_id":"954692ef-dfc7-455f-8a4a-5da75b703e96","system_id":"levelo_inurba_marseille","lat":43.269467,"lon":5.386439,"is_reserved":false,"is_disabled":false,"rental_uris":{"android":"levelo://app?vid=954692ef-dfc7-455f-8a4a-5da75b703e96","ios":"levelo://app?vid=954692ef-dfc7-455f-8a4a-5da75b703e96"},"vehicle_type_id":"4","last_reported":1704406010,"current_range_meters":18800,"station_id":"ce4bhh92rcd13ifvqfh0","pricing_plan_id":"free"},{"bike_id":"284fc3a0-0537-488a-b1ae-4a8d2e1b6424","system_id":"levelo_inurba_marseille","lat":43.279465,"lon":5.410561,"is_reserved":false,"is_disabled":false,"rental_uris":{"android":"levelo://app?vid=284fc3a0-0537-488a-b1ae-4a8d2e1b6424","ios":"levelo://app?vid=284fc3a0-0537-488a-b1ae-4a8d2e1b6424"},"vehicle_type_id":"4","last_reported":1704406010,"current_range_meters":1600,"station_id":"ce4bhnp2rcd13ifvqh0g","pricing_plan_id":"free"},{"bike_id":"ecfa10e8-387e-4c32-a9eb-75e424080620","system_id":"levelo_inurba_marseille","lat":43.279465,"lon":5.410561,"is_reserved":false,"is_disabled":false,"rental_uris":{"android":"levelo://app?vid=ecfa10e8-387e-4c32-a9eb-75e424080620","ios":"levelo://app?vid=ecfa10e8-387e-4c32-a9eb-75e424080620"},"vehicle_type_id":"4","last_reported":1704406010,"current_range_meters":16800,"station_id":"ce4bhnp2rcd13ifvqh0g","pricing_plan_id":"free"},{"bike_id":"efd959c6-aa55-4971-8e4b-58f77f7bb6f8","system_id":"levelo_inurba_marseille","lat":43.26681,"lon":5.382694,"is_reserved":false,"is_disabled":false,"rental_uris":{"android":"levelo://app?vid=efd959c6-aa55-4971-8e4b-58f77f7bb6f8","ios":"levelo://app?vid=efd959c6-aa55-4971-8e4b-58f77f7bb6f8"},"vehicle_type_id":"4","last_reported":1704406010,"current_range_meters":30800,"station_id":"ce4bhg92rcd13ifvqf90","pricing_plan_id":"free"},{"bike_id":"57c2863b-fe62-479d-99f5-0a42f036d04d","system_id":"levelo_inurba_marseille","lat":43.27996,"lon":5.416624,"is_reserved":false,"is_disabled":false,"rental_uris":{"android":"levelo://app?vid=57c2863b-fe62-479d-99f5-0a42f036d04d","ios":"levelo://app?vid=57c2863b-fe62-479d-99f5-0a42f036d04d"},"vehicle_type_id":"4","last_reported":1704406010,"current_range_meters":15200,"station_id":"ce4bho12rcd13ifvqh1g","pricing_plan_id":"free"},{"bike_id":"a3a8711a-f1ba-4eb9-98ea-5c59c2a546f5","system_id":"levelo_inurba_marseille","lat":43.265714,"lon":5.372891,"is_reserved":false,"is_disabled":false,"rental_uris":{"android":"levelo://app?vid=a3a8711a-f1ba-4eb9-98ea-5c59c2a546f5","ios":"levelo://app?vid=a3a8711a-f1ba-4eb9-98ea-5c59c2a546f5"},"vehicle_type_id":"4","last_reported":1704406010,"current_range_meters":16800,"station_id":"ce4bhg12rcd13ifvqf70","pricing_plan_id":"free"},{"bike_id":"8c30aad9-c429-4590-82a2-78dd2df0f6dc","system_id":"levelo_inurba_marseille","lat":43.308051,"lon":5.43527,"is_reserved":false,"is_disabled":false,"rental_uris":{"android":"levelo://app?vid=8c30aad9-c429-4590-82a2-78dd2df0f6dc","ios":"levelo://app?vid=8c30aad9-c429-4590-82a2-78dd2df0f6dc"},"vehicle_type_id":"4","last_reported":1704406010,"current_range_meters":30400,"station_id":"ce4bhph2rcd13ifvqheg","pricing_plan_id":"free"},{"bike_id":"36f2302f-4d39-4b0e-b812-306456958d16","system_id":"levelo_inurba_marseille","lat":43.26949,"lon":5.40262,"is_reserved":false,"is_disabled":false,"rental_uris":{"android":"levelo://app?vid=36f2302f-4d39-4b0e-b812-306456958d16","ios":"levelo://app?vid=36f2302f-4d39-4b0e-b812-306456958d16"},"vehicle_type_id":"4","last_reported":1704406010,"current_range_meters":11600,"station_id":"cjm6bp8fraef2m0cb0m0","pricing_plan_id":"free"},{"bike_id":"5f702d4c-df9e-4f49-9bdf-1385f3cb2555","system_id":"levelo_inurba_marseille","lat":43.261782,"lon":5.374515,"is_reserved":false,"is_disabled":false,"rental_uris":{"android":"levelo://app?vid=5f702d4c-df9e-4f49-9bdf-1385f3cb2555","ios":"levelo://app?vid=5f702d4c-df9e-4f49-9bdf-1385f3cb2555"},"vehicle_type_id":"4","last_reported":1704406010,"current_range_meters":5200,"station_id":"ce4bhgp2rcd13ifvqfc0","pricing_plan_id":"free"},{"bike_id":"6ded9338-5e61-42b7-a58c-c7d92ad324b4","system_id":"levelo_inurba_marseille","lat":43.27182,"lon":5.40978,"is_reserved":false,"is_disabled":false,"rental_uris":{"android":"levelo://app?vid=6ded9338-5e61-42b7-a58c-c7d92ad324b4","ios":"levelo://app?vid=6ded9338-5e61-42b7-a58c-c7d92ad324b4"},"vehicle_type_id":"4","last_reported":1704406010,"current_range_meters":0,"station_id":"ce4bhl12rcd13ifvqgf0","pricing_plan_id":"free"},{"bike_id":"0d102da3-fd59-40f5-977c-de2ac98eb30d","system_id":"levelo_inurba_marseille","lat":43.271388,"lon":5.409269,"is_reserved":false,"is_disabled":false,"rental_uris":{"android":"levelo://app?vid=0d102da3-fd59-40f5-977c-de2ac98eb30d","ios":"levelo://app?vid=0d102da3-fd59-40f5-977c-de2ac98eb30d"},