{"last_updated":1746169797,"ttl":60,"version":"2.2","data":{"bikes":[{"bike_id":"da5fa1d8-6920-41fa-9077-f26b3e00ef94","system_id":"levelo_inurba_marseille","lat":43.30947,"lon":5.39032,"is_reserved":false,"is_disabled":false,"rental_uris":{"android":"levelo://app?vid=da5fa1d8-6920-41fa-9077-f26b3e00ef94","ios":"levelo://app?vid=da5fa1d8-6920-41fa-9077-f26b3e00ef94"},"vehicle_type_id":"4","last_reported":1746169797,"current_range_meters":2800,"station_id":"ce4bgup2rcd13ifvqco0","pricing_plan_id":"cebpf4jnsgd1na2vs0mg"},{"bike_id":"5cda05c5-33c9-4109-89c1-36d218dc0d5f","system_id":"levelo_inurba_marseille","lat":43.31704,"lon":5.40472,"is_reserved":false,"is_disabled":false,"rental_uris":{"android":"levelo://app?vid=5cda05c5-33c9-4109-89c1-36d218dc0d5f","ios":"levelo://app?vid=5cda05c5-33c9-4109-89c1-36d218dc0d5f"},"vehicle_type_id":"4","last_reported":1746169797,"current_range_meters":2800,"station_id":"ce4bh012rcd13ifvqd00","pricing_plan_id":"cebpf4jnsgd1na2vs0mg"},{"bike_id":"d432c6a7-5217-4885-9836-26183363c293","system_id":"levelo_inurba_marseille","lat":43.24381,"lon":5.37066,"is_reserved":false,"is_disabled":false,"rental_uris":{"android":"levelo://app?vid=d432c6a7-5217-4885-9836-26183363c293","ios":"levelo://app?vid=d432c6a7-5217-4885-9836-26183363c293"},"vehicle_type_id":"4","last_reported":1746169797,"current_range_meters":3200,"station_id":"ce4bhhh2rcd13ifvqfk0","pricing_plan_id":"cebpf4jnsgd1na2vs0mg"},{"bike_id":"ec534a18-b1ba-4cd2-8229-d27abd41d44c","system_id":"levelo_inurba_marseille","lat":43.29573,"lon":5.37486,"is_reserved":false,"is_disabled":true,"rental_uris":{"android":"levelo://app?vid=ec534a18-b1ba-4cd2-8229-d27abd41d44c","ios":"levelo://app?vid=ec534a18-b1ba-4cd2-8229-d27abd41d44c"},"vehicle_type_id":"4","last_reported":1746169797,"current_range_meters":1600,"station_id":"ce4bgh92rcd13ifvqb50","pricing_plan_id":"cebpf4jnsgd1na2vs0mg"},{"bike_id":"f805e674-3ff6-493e-adef-39382006cc9a","system_id":"levelo_inurba_marseille","lat":43.29278,"lon":5.3685,"is_reserved":false,"is_disabled":false,"rental_uris":{"android":"levelo://app?vid=f805e674-3ff6-493e-adef-39382006cc9a","ios":"levelo://app?vid=f805e674-3ff6-493e-adef-39382006cc9a"},"vehicle_type_id":"4","last_reported":1746169797,"current_range_meters":3600,"station_id":"ce4bhbp2rcd13ifvqesg","pricing_plan_id":"cebpf4jnsgd1na2vs0mg"},{"bike_id":"7f770ba9-2e48-47c9-8bb4-942855273bad","system_id":"levelo_inurba_marseille","lat":43.25302,"lon":5.42398,"is_reserved":false,"is_disabled":true,"rental_uris":{"android":"levelo://app?vid=7f770ba9-2e48-47c9-8bb4-942855273bad","ios":"levelo://app?vid=7f770ba9-2e48-47c9-8bb4-942855273bad"},"vehicle_type_id":"4","last_reported":1746169797,"current_range_meters":3600,"station_id":"","pricing_plan_id":"cebpf4jnsgd1na2vs0mg"},{"bike_id":"656e48e5-fc3c-4dd5-bde6-192fbb5e0624","system_id":"levelo_inurba_marseille","lat":43.2749,"lon":5.42452,"is_reserved":false,"is_disabled":false,"rental_uris":{"android":"levelo://app?vid=656e48e5-fc3c-4dd5-bde6-192fbb5e0624","ios":"levelo://app?vid=656e48e5-fc3c-4dd5-bde6-192fbb5e0624"},"vehicle_type_id":"4","last_reported":1746169797,"current_range_meters":3600,"station_id":"ce4bhn92rcd13ifvqgrg","pricing_plan_id":"cebpf4jnsgd1na2vs0mg"},{"bike_id":"d901647f-aef6-4e5f-b7ba-7cb0dfd0a264","system_id":"levelo_inurba_marseille","lat":43.30773,"lon":5.376483,"is_reserved":false,"is_disabled":true,"rental_uris":{"android":"levelo://app?vid=d901647f-aef6-4e5f-b7ba-7cb0dfd0a264","ios":"levelo://app?vid=d901647f-aef6-4e5f-b7ba-7cb0dfd0a264"},"vehicle_type_id":"4","last_reported":1746169797,"current_range_meters":4000,"station_id":"ce4bgv92rcd13ifvqcq0","pricing_plan_id":"cebpf4jnsgd1na2vs0mg"},{"bike_id":"fce631bf-33a2-4c81-b71f-dc4aca2af098","system_id":"levelo_inurba_marseille","lat":43.28458,"lon":5.35896,"is_reserved":false,"is_disabled":false,"rental_uris":{"android":"levelo://app?vid=fce631bf-33a2-4c81-b71f-dc4aca2af098","ios":"levelo://app?vid=fce631bf-33a2-4c81-b71f-dc4aca2af098"},"vehicle_type_id":"4","last_reported":1746169797,"current_range_meters":4000,"station_id":"ce4bhah2rcd13ifvqei0","pricing_plan_id":"cebpf4jnsgd1na2vs0mg"},{"bike_id":"296b4c36-f7db-4001-9a4d-745ae525ba81","system_id":"levelo_inurba_marseille","lat":43.29343,"lon":5.37853,"is_reserved":false,"is_disabled":false,"rental_uris":{"android":"levelo://app?vid=296b4c36-f7db-4001-9a4d-745ae525ba81","ios":"levelo://app?vid=296b4c36-f7db-4001-9a4d-745ae525ba81"},"vehicle_type_id":"4","last_reported":1746169797,"current_range_meters":4400,"station_id":"ce4bgjh2rcd13ifvqbf0","pricing_plan_id":"cebpf4jnsgd1na2vs0mg"},{"bike_id":"fad842f6-0d66-4b2c-a78c-182babe856e0","system_id":"levelo_inurba_marseille","lat":43.26702,"lon":5.38275,"is_reserved":false,"is_disabled":false,"rental_uris":{"android":"levelo://app?vid=fad842f6-0d66-4b2c-a78c-182babe856e0","ios":"levelo://app?vid=fad842f6-0d66-4b2c-a78c-182babe856e0"},"vehicle_type_id":"4","last_reported":1746169797,"current_range_meters":4000,"station_id":"ce4bhg92rcd13ifvqf90","pricing_plan_id":"cebpf4jnsgd1na2vs0mg"},{"bike_id":"2b95ca9f-26d4-4709-944e-d07dbb72932a","system_id":"levelo_inurba_marseille","lat":43.24082,"lon":5.37753,"is_reserved":false,"is_disabled":false,"rental_uris":{"android":"levelo://app?vid=2b95ca9f-26d4-4709-944e-d07dbb72932a","ios":"levelo://app?vid=2b95ca9f-26d4-4709-944e-d07dbb72932a"},"vehicle_type_id":"4","last_reported":1746169797,"current_range_meters":4400,"station_id":"ce4bhnp2rcd13ifvqgvg","pricing_plan_id":"cebpf4jnsgd1na2vs0mg"},{"bike_id":"0b834390-07d0-42be-a5c6-bbe21fe5ecd8","system_id":"levelo_inurba_marseille","lat":43.29309,"lon":5.371777,"is_reserved":false,"is_disabled":false,"rental_uris":{"android":"levelo://app?vid=0b834390-07d0-42be-a5c6-bbe21fe5ecd8","ios":"levelo://app?vid=0b834390-07d0-42be-a5c6-bbe21fe5ecd8"},"vehicle_type_id":"4","last_reported":1746169797,"current_range_meters":4400,"station_id":"ce4bgh92rcd13ifvqb40","pricing_plan_id":"cebpf4jnsgd1na2vs0mg"},{"bike_id":"31ab7fa4-9637-4c42-b309-4fe5311558f4","system_id":"levelo_inurba_marseille","lat":43.30191,"lon":5.36617,"is_reserved":false,"is_disabled":false,"rental_uris":{"android":"levelo://app?vid=31ab7fa4-9637-4c42-b309-4fe5311558f4","ios":"levelo://app?vid=31ab7fa4-9637-4c42-b309-4fe5311558f4"},"vehicle_type_id":"4","last_reported":1746169797,"current_range_meters":4800,"station_id":"ce4bgrh2rcd13ifvqc8g","pricing_plan_id":"cebpf4jnsgd1na2vs0mg"},{"bike_id":"f78e6e2a-8107-47fb-b969-25345ac001d6","system_id":"levelo_inurba_marseille","lat":43.300751,"lon":5.377986,"is_reserved":false,"is_disabled":false,"rental_uris":{"android":"levelo://app?vid=f78e6e2a-8107-47fb-b969-25345ac001d6","ios":"levelo://app?vid=f78e6e2a-8107-47fb-b969-25345ac001d6"},"vehicle_type_id":"4","last_reported":1746169797,"current_range_meters":4800,"station_id":"","pricing_plan_id":"cebpf4jnsgd1na2vs0mg"},{"bike_id":"0f683dc3-4553-4628-87ea-6e7dc6c36a6f","system_id":"levelo_inurba_marseille","lat":43.29644,"lon":5.406,"is_reserved":false,"is_disabled":true,"rental_uris":{"android":"levelo://app?vid=0f683dc3-4553-4628-87ea-6e7dc6c36a6f","ios":"levelo://app?vid=0f683dc3-4553-4628-87ea-6e7dc6c36a6f"},"vehicle_type_id":"4","last_reported":1746169797,"current_range_meters":4800,"station_id":"ce4bh0h2rcd13ifvqd60","pricing_plan_id":"cebpf4jnsgd1na2vs0mg"},{"bike_id":"6b15d6b5-32c8-479b-b0fa-db205215e893","system_id":"levelo_inurba_marseille","lat":43.30597,"lon":5.39338,"is_reserved":false,"is_disabled":false,"rental_uris":{"android":"levelo://app?vid=6b15d6b5-32c8-479b-b0fa-db205215e893","ios":"levelo://app?vid=6b15d6b5-32c8-479b-b0fa-db205215e893"},"vehicle_type_id":"4","last_reported":1746169797,"current_range_meters":4800,"station_id":"ce4bh0p2rcd13ifvqd80","pricing_plan_id":"cebpf4jnsgd1na2vs0mg"},{"bike_id":"4af62b9a-7259-45f3-b15a-51fcc63c51c5","system_id":"levelo_inurba_marseille","lat":43.25693,"lon":5.41057,"is_reserved":false,"is_disabled":false,"rental_uris":{"android":"levelo://app?vid=4af62b9a-7259-45f3-b15a-51fcc63c51c5","ios":"levelo://app?vid=4af62b9a-7259-45f3-b15a-51fcc63c51c5"},"vehicle_type_id":"4","last_reported":1746169797,"current_range_meters":5600,"station_id":"ce4bhkp2rcd13ifvqgd0","pricing_plan_id":"cebpf4jnsgd1na2vs0mg"},{"bike_id":"0840f843-3a67-4e05-a048-29d3d9d53dba","system_id":"levelo_inurba_marseille","lat":43.25695,"lon":5.41079,"is_reserved":false,"is_disabled":false,"rental_uris":{"android":"levelo://app?vid=0840f843-3a67-4e05-a048-29d3d9d53dba","ios":"levelo://app?vid=0840f843-3a67-4e05-a048-29d3d9d53dba"},"vehicle_type_id":"4","last_reported":1746169797,"current_range_meters":5600,"station_id":"ce4bhkp2rcd13ifvqgd0","pricing_plan_id":"cebpf4jnsgd1na2vs0mg"},{"bike_id":"41649255-c38b-42cb-ae7f-67f2787c354c","system_id":"levelo_inurba_marseille","lat":43.23766,"lon":5.43576,"is_reserved":false,"is_disabled":false,"rental_uris":{"android":"levelo://app?vid=41649255-c38b-42cb-ae7f-67f2787c354c","ios":"levelo://app?vid=41649255-c38b-42cb-ae7f-67f2787c354c"},"vehicle_type_id":"4","last_reported":1746169797,"current_range_meters":5600,"station_id":"","pricing_plan_id":"cebpf4jnsgd1na2vs0mg"},{"bike_id":"215bdf6f-59e9-4581-ab6a-3306c221d929","system_id":"levelo_inurba_marseille","lat":43.24549,"lon":5.3987,"is_reserved":false,"is_disabled":false,"rental_uris":{"android":"levelo://app?vid=215bdf6f-59e9-4581-ab6a-3306c221d929","ios":"levelo://app?vid=215bdf6f-59e9-4581-ab6a-3306c221d929"},"vehicle_type_id":"4","last_reported":1746169797,"current_range_meters":5600,"station_id":"","pricing_plan_id":"cebpf4jnsgd1na2vs0mg"},{"bike_id":"7c1c9614-0775-4d2c-be85-483722b774a6","system_id":"levelo_inurba_marseille","lat":43.30337,"lon":5.40426,"is_reserved":false,"is_disabled":false,"rental_uris":{"android":"levelo://app?vid=7c1c9614-0775-4d2c-be85-483722b774a6","ios":"levelo://app?vid=7c1c9614-0775-4d2c-be85-483722b774a6"},"vehicle_type_id":"4","last_reported":1746169797,"current_range_meters":5600,"station_id":"ce4bh012rcd13ifvqd10","pricing_plan_id":"cebpf4jnsgd1na2vs0mg"},{"bike_id":"23753d55-98ca-4052-8a5b-884f5ffd270c","system_id":"levelo_inurba_marseille","lat":43.30454,"lon":5.37909,"is_reserved":false,"is_disabled":false,"rental_uris":{"android":"levelo://app?vid=23753d55-98ca-4052-8a5b-884f5ffd270c","ios":"levelo://app?vid=23753d55-98ca-4052-8a5b-884f5ffd270c"},"vehicle_type_id":"4","last_reported":1746169797,"current_range_meters":4800,"station_id":"ce4bgup2rcd13ifvqcn0","pricing_plan_id":"cebpf4jnsgd1na2vs0mg"},{"bike_id":"5c7d90fd-bd6a-4e62-a350-21a6a2bc7fa5","system_id":"levelo_inurba_marseille","lat":43.31213,"lon":5.36848,"is_reserved":false,"is_disabled":false,"rental_uris":{"android":"levelo://app?vid=5c7d90fd-bd6a-4e62-a350-21a6a2bc7fa5","ios":"levelo://app?vid=5c7d90fd-bd6a-4e62-a350-21a6a2bc7fa5"},"vehicle_type_id":"4","last_reported":1746169797,"current_range_meters":5600,"station_id":"ce4bgl92rcd13ifvqbq0","pricing_plan_id":"cebpf4jnsgd1na2vs0mg"},{"bike_id":"0c1c1c6c-3949-42cb-b459-7a98585c0830","system_id":"levelo_inurba_marseille","lat":43.30945,"lon":5.39028,"is_reserved":false,"is_disabled":false,"rental_uris":{"android":"levelo://app?vid=0c1c1c6c-3949-42cb-b459-7a98585c0830","ios":"levelo://app?vid=0c1c1c6c-3949-42cb-b459-7a98585c0830"},"vehicle_type_id":"4","last_reported":1746169797,"current_range_meters":6000,"station_id":"ce4bgup2rcd13ifvqco0","pricing_plan_id":"cebpf4jnsgd1na2vs0mg"},{"bike_id":"13719132-e74f-4933-8544-5bae74e9f2c3","system_id":"levelo_inurba_marseille","lat":43.27815,"lon":5.40705,"is_reserved":false,"is_disabled":false,"rental_uris":{"android":"levelo://app?vid=13719132-e74f-4933-8544-5bae74e9f2c3","ios":"levelo://app?vid=13719132-e74f-4933-8544-5bae74e9f2c3"},"vehicle_type_id":"4","last_reported":1746169797,"current_range_meters":6000,"station_id":"ce4bhnh2rcd13ifvqgtg","pricing_plan_id":"cebpf4jnsgd1na2vs0mg"},{"bike_id":"fba7928c-7134-4bb2-a3a9-d3d50410db7f","system_id":"levelo_inurba_marseille","lat":43.297743,"lon":5.381103,"is_reserved":false,"is_disabled":false,"rental_uris":{"android":"levelo://app?vid=fba7928c-7134-4bb2-a3a9-d3d50410db7f","ios":"levelo://app?vid=fba7928c-7134-4bb2-a3a9-d3d50410db7f"},"vehicle_type_id":"4","last_reported":1746169797,"current_range_meters":6000,"station_id":"ce4bgip2rcd13ifvqbb0","pricing_plan_id":"cebpf4jnsgd1na2vs0mg"},{"bike_id":"47de6562-ba72-42e5-ace3-2d5a54c7c0d3","system_id":"levelo_inurba_marseille","lat":43.27925,"lon":5.40965,"is_reserved":false,"is_disabled":true,"rental_uris":{"android":"levelo://app?vid=47de6562-ba72-42e5-ace3-2d5a54c7c0d3","ios":"levelo://app?vid=47de6562-ba72-42e5-ace3-2d5a54c7c0d3"},"vehicle_type_id":"4","last_reported":1746169797,"current_range_meters":6400,"station_id":"","pricing_plan_id":"cebpf4jnsgd1na2vs0mg"},{"bike_id":"590c3182-b259-4323-807a-fe38f07e15f2","system_id":"levelo_inurba_marseille","lat":43.33615,"lon":5.40984,"is_reserved":false,"is_disabled":false,"rental_uris":{"android":"levelo://app?vid=590c3182-b259-4323-807a-fe38f07e15f2","ios":"levelo://app?vid=590c3182-b259-4323-807a-fe38f07e15f2"},"vehicle_type_id":"4","last_reported":1746169797,"current_range_meters":6400,"station_id":"ce4bhqh2rcd13ifvqhmg","pricing_plan_id":"cebpf4jnsgd1na2vs0mg"},{"bike_id":"fee7396b-8d6a-4ad5-8af7-947693171efd","system_id":"levelo_inurba_marseille","lat":43.27059,"lon":5.42291,"is_reserved":false,"is_disabled":false,"rental_uris":{"android":"levelo://app?vid=fee7396b-8d6a-4ad5-8af7-947693171efd","ios":"levelo://app?vid=fee7396b-8d6a-4ad5-8af7-947693171efd"},"vehicle_type_id":"4","last_reported":1746169797,"current_range_meters":6400,"station_id":"ce4bhk92rcd13ifvqgb0","pricing_plan_id":"cebpf4jnsgd1na2vs0mg"},{"bike_id":"150a51f2-3cb3-49f3-ac9a-eb8482cf74cf","system_id":"levelo_inurba_marseille","lat":43.27208,"lon":5.39182,"is_reserved":false,"is_disabled":false,"rental_uris":{"android":"levelo://app?vid=150a51f2-3cb3-49f3-ac9a-eb8482cf74cf","ios":"levelo://app?vid=150a51f2-3cb3-49f3-ac9a-eb8482cf74cf"},"vehicle_type_id":"4","last_reported":1746169797,"current_range_meters":6400,"station_id":"ce4bhhp2rcd13ifvqfm0","pricing_plan_id":"cebpf4jnsgd1na2vs0mg"},{"bike_id":"45a897a0-8804-4925-8a62-c0e8fec569a8","system_id":"levelo_inurba_marseille","lat":43.23983,"lon":5.366,"is_reserved":false,"is_disabled":true,"rental_uris":{"android":"levelo://app?vid=45a897a0-8804-4925-8a62-c0e8fec569a8","ios":"levelo://app?vid=45a897a0-8804-4925-8a62-c0e8fec569a8"},"vehicle_type_id":"4","last_reported":1746169797,"current_range_meters":6400,"station_id":"ce4bhi12rcd13ifvqfp0","pricing_plan_id":"cebpf4jnsgd1na2vs0mg"},{"bike_id":"621d9d95-e07e-4cf5-b19a-cabdb95fa585","system_id":"levelo_inurba_marseille","lat":43.251068,"lon":5.403187,"is_reserved":false,"is_disabled":false,"rental_uris":{"android":"levelo://app?vid=621d9d95-e07e-4cf5-b19a-cabdb95fa585","ios":"levelo://app?vid=621d9d95-e07e-4cf5-b19a-cabdb95fa585"},"vehicle_type_id":"4","last_reported":1746169797,"current_range_meters":6400,"station_id":"ce4bhlh2rcd13ifvqgig","pricing_plan_id":"cebpf4jnsgd1na2vs0mg"},{"bike_id":"f804c215-e043-4bb2-ad41-8db2e0789dea","system_id":"levelo_inurba_marseille","lat":43.30923,"lon":5.40081,"is_reserved":false,"is_disabled":false,"rental_uris":{"android":"levelo://app?vid=f804c215-e043-4bb2-ad41-8db2e0789dea","ios":"levelo://app?vid=f804c215-e043-4bb2-ad41-8db2e0789dea"},"vehicle_type_id":"4","last_reported":1746169797,"current_range_meters":6800,"station_id":"","pricing_plan_id":"cebpf4jnsgd1na2vs0mg"},{"bike_id":"71e964c3-f356-4e49-8e62-c664cc23e871","system_id":"levelo_inurba_marseille","lat":43.30961,"lon":5.39044,"is_reserved":false,"is_disabled":false,"rental_uris":{"android":"levelo://app?vid=71e964c3-f356-4e49-8e62-c664cc23e871","ios":"levelo://app?vid=71e964c3-f356-4e49-8e62-c664cc23e871"},"vehicle_type_id":"4","last_reported":1746169797,"current_range_meters":6800,"station_id":"ce4bgup2rcd13ifvqco0","pricing_plan_id":"cebpf4jnsgd1na2vs0mg"},{"bike_id":"cf81bc7c-6fbd-4911-bfcc-ad2ae4d0da60","system_id":"levelo_inurba_marseille","lat":43.24997,"lon":5.38948,"is_reserved":false,"is_disabled":false,"rental_uris":{"android":"levelo://app?vid=cf81bc7c-6fbd-4911-bfcc-ad2ae4d0da60","ios":"levelo://app?vid=cf81bc7c-6fbd-4911-bfcc-ad2ae4d0da60"},"vehicle_type_id":"4","last_reported":1746169797,"current_range_meters":6800,"station_id":"ce4bhgp2rcd13ifvqfd0","pricing_plan_id":"cebpf4jnsgd1na2vs0mg"},{"bike_id":"92c9c34a-2661-40c7-b42b-42a1687057dd","system_id":"levelo_inurba_marseille","lat":43.211943,"lon":5.35072,"is_reserved":false,"is_disabled":true,"rental_uris":{"android":"levelo://app?vid=92c9c34a-2661-40c7-b42b-42a1687057dd","ios":"levelo://app?vid=92c9c34a-2661-40c7-b42b-42a1687057dd"},"vehicle_type_id":"4","last_reported":1746169797,"current_range_meters":7200,"station_id":"st_cvj6sg6p6f1abm77japg","pricing_plan_id":"cebpf4jnsgd1na2vs0mg"},{"bike_id":"b0c6bc4f-7001-4f83-8040-bc80f6bdee62","system_id":"levelo_inurba_marseille","lat":43.30597,"lon":5.39348,"is_reserved":false,"is_disabled":false,"rental_uris":{"android":"levelo://app?vid=b0c6bc4f-7001-4f83-8040-bc80f6bdee62","ios":"levelo://app?vid=b0c6bc4f-7001-4f83-8040-bc80f6bdee62"},"vehicle_type_id":"4","last_reported":1746169797,"current_range_meters":7200,"station_id":"ce4bh0p2rcd13ifvqd80","pricing_plan_id":"cebpf4jnsgd1na2vs0mg"},{"bike_id":"d1a36612-34db-411c-b249-381d6050539a","system_id":"levelo_inurba_marseille","lat":43.29961,"lon":5.38494,"is_reserved":false,"is_disabled":false,"rental_uris":{"android":"levelo://app?vid=d1a36612-34db-411c-b249-381d6050539a","ios":"levelo://app?vid=d1a36612-34db-411c-b249-381d6050539a"},"vehicle_type_id":"4","last_reported":1746169797,"current_range_meters":7200,"station_id":"ce4bgj92rcd13ifvqbd0","pricing_plan_id":"cebpf4jnsgd1na2vs0mg"},{"bike_id":"51ef9827-05d4-4f72-abc3-c6fec8c5a095","system_id":"levelo_inurba_marseille","lat":43.23162,"lon":5.4371,"is_reserved":false,"is_disabled":false,"rental_uris":{"android":"levelo://app?vid=51ef9827-05d4-4f72-abc3-c6fec8c5a095","ios":"levelo://app?vid=51ef9827-05d4-4f72-abc3-c6fec8c5a095"},"vehicle_type_id":"4","last_reported":1746169797,"current_range_meters":7200,"station_id":"ce4bhmp2rcd13ifvqgog","pricing_plan_id":"cebpf4jnsgd1na2vs0mg"},{"bike_id":"8c14a9dd-9596-4c54-9b10-cae5d57b4d1b","system_id":"levelo_inurba_marseille","lat":43.32406,"lon":5.39036,"is_reserved":false,"is_disabled":true,"rental_uris":{"android":"levelo://app?vid=8c14a9dd-9596-4c54-9b10-cae5d57b4d1b","ios":"levelo://app?vid=8c14a9dd-9596-4c54-9b10-cae5d57b4d1b"},"vehicle_type_id":"4","last_reported":1746169797,"current_range_meters":7200,"station_id":"","pricing_plan_id":"cebpf4jnsgd1na2vs0mg"},{"bike_id":"7cf2f118-55e2-491b-8e28-9d73e3c903a4","system_id":"levelo_inurba_marseille","lat":43.27503,"lon":5.42461,"is_reserved":false,"is_disabled":false,"rental_uris":{"android":"levelo://app?vid=7cf2f118-55e2-491b-8e28-9d73e3c903a4","ios":"levelo://app?vid=7cf2f118-55e2-491b-8e28-9d73e3c903a4"},"vehicle_type_id":"4","last_reported":1746169797,"current_range_meters":7200,"station_id":"ce4bhn92rcd13ifvqgrg","pricing_plan_id":"cebpf4jnsgd1na2vs0mg"},{"bike_id":"08ae6229-5a47-4c4c-99ac-4ba6243e9cfe","system_id":"levelo_inurba_marseille","lat":43.23055,"lon":5.35501,"is_reserved":false,"is_disabled":true,"rental_uris":{"android":"levelo://app?vid=08ae6229-5a47-4c4c-99ac-4ba6243e9cfe","ios":"levelo://app?vid=08ae6229-5a47-4c4c-99ac-4ba6243e9cfe"},"vehicle_type_id":"4","last_reported":1746169797,"current_range_meters":7200,"station_id":"cpo3342slgdg3j2ifvpg","pricing_plan_id":"cebpf4jnsgd1na2vs0mg"},{"bike_id":"17c7c1d2-a259-4818-a692-a67a36ab0cbc","system_id":"levelo_inurba_marseille","lat":43.29298,"lon":5.37457,"is_reserved":false,"is_disabled":false,"rental_uris":{"android":"levelo://app?vid=17c7c1d2-a259-4818-a692-a67a36ab0cbc","ios":"levelo://app?vid=17c7c1d2-a259-4818-a692-a67a36ab0cbc"},"vehicle_type_id":"4","last_reported":1746169797,"current_range_meters":7200,"station_id":"ce4bgi12rcd13ifvqb70","pricing_plan_id":"cebpf4jnsgd1na2vs0mg"},{"bike_id":"be456527-6b15-4d45-9584-9f70290eb771","system_id":"levelo_inurba_marseille","lat":43.30937,"lon":5.40188,"is_reserved":false,"is_disabled":false,"rental_uris":{"android":"levelo://app?vid=be456527-6b15-4d45-9584-9f70290eb771","ios":"levelo://app?vid=be456527-6b15-4d45-9584-9f70290eb771"},"vehicle_type_id":"4","last_reported":1746169797,"current_range_meters":8000,"station_id":"ce4bgvp2rcd13ifvqct0","pricing_plan_id":"cebpf4jnsgd1na2vs0mg"},{"bike_id":"0585aee3-4fd2-4100-ace9-3ab20275013d","system_id":"levelo_inurba_marseille","lat":43.28701,"lon":5.40004,"is_reserved":false,"is_disabled":false,"rental_uris":{"android":"levelo://app?vid=0585aee3-4fd2-4100-ace9-3ab20275013d","ios":"levelo://app?vid=0585aee3-4fd2-4100-ace9-3ab20275013d"},"vehicle_type_id":"4","last_reported":1746169797,"current_range_meters":8000,"station_id":"ce4bho92rcd13ifvqh3g","pricing_plan_id":"cebpf4jnsgd1na2vs0mg"},{"bike_id":"d90a9f6a-dcc7-4188-90fd-9982aa485cbb","system_id":"levelo_inurba_marseille","lat":43.24394,"lon":5.3707,"is_reserved":false,"is_disabled":true,"rental_uris":{"android":"levelo://app?vid=d90a9f6a-dcc7-4188-90fd-9982aa485cbb","ios":"levelo://app?vid=d90a9f6a-dcc7-4188-90fd-9982aa485cbb"},"vehicle_type_id":"4","last_reported":1746169797,"current_range_meters":8000,"station_id":"ce4bhhh2rcd13ifvqfk0","pricing_plan_id":"cebpf4jnsgd1na2vs0mg"},{"bike_id":"59cefbbe-8fb7-4d03-956c-725b17d597ef","system_id":"levelo_inurba_marseille","lat":43.28079,"lon":5.39652,"is_reserved":false,"is_disabled":false,"rental_uris":{"android":"levelo://app?vid=59cefbbe-8fb7-4d03-956c-725b17d597ef","ios":"levelo://app?vid=59cefbbe-8fb7-4d03-956c-725b17d597ef"},"vehicle_type_id":"4","last_reported":1746169797,"current_range_meters":7200,"station_id":"ce4bho12rcd13ifvqh2g","pricing_plan_id":"cebpf4jnsgd1na2vs0mg"},{"bike_id":"44137701-96fd-466c-876b-72e95bfc3ab1","system_id":"levelo_inurba_marseille","lat":43.28167,"lon":5.42679,"is_reserved":false,"is_disabled":false,"rental_uris":{"android":"levelo://app?vid=44137701-96fd-466c-876b-72e95bfc3ab1","ios":"levelo://app?vid=44137701-96fd-466c-876b-72e95bfc3ab1"},"vehicle_type_id":"4","last_reported":1746169797,"current_range_meters":8000,"station_id":"ce4bhnh2rcd13ifvqgug","pricing_plan_id":"cebpf4jnsgd1na2vs0mg"},{"bike_id":"6ec79724-695f-4466-b4f4-7a3dea399050","system_id":"levelo_inurba_marseille","lat":43.27072,"lon":5.42279,"is_reserved":false,"is_disabled":false,"rental_uris":{"android":"levelo://app?vid=6ec79724-695f-4466-b4f4-7a3dea399050","ios":"levelo://app?vid=6ec79724-695f-4466-b4f4-7a3dea399050"},"vehicle_type_id":"4","last_reported":1746169797,"current_range_meters":8000,"station_id":"ce4bhk92rcd13ifvqgb0","pricing_plan_id":"cebpf4jnsgd1na2vs0mg"},{"bike_id":"93dad334-9f21-4a50-99cb-c86648baef08","system_id":"levelo_inurba_marseille","lat":43.3133,"lon":5.39696,"is_reserved":false,"is_disabled":false,"rental_uris":{"android":"levelo://app?vid=93dad334-9f21-4a50-99cb-c86648baef08","ios":"levelo://app?vid=93dad334-9f21-4a50-99cb-c86648baef08"},"vehicle_type_id":"4","last_reported":1746169797,"current_range_meters":8400,"station_id":"ce4bgvp2rcd13ifvqcu0","pricing_plan_id":"cebpf4jnsgd1na2vs0mg"},{"bike_id":"e0c69642-153a-4cdf-94dd-e50d7657b75d","system_id":"levelo_inurba_marseille","lat":43.31709,"lon":5.40438,"is_reserved":false,"is_disabled":false,"rental_uris":{"android":"levelo://app?vid=e0c69642-153a-4cdf-94dd-e50d7657b75d","ios":"levelo://app?vid=e0c69642-153a-4cdf-94dd-e50d7657b75d"},"vehicle_type_id":"4","last_reported":1746169797,"current_range_meters":8400,"station_id":"ce4bh012rcd13ifvqd00","pricing_plan_id":"cebpf4jnsgd1na2vs0mg"},{"bike_id":"a9aab8ad-752c-4f03-b39d-d47555b167be","system_id":"levelo_inurba_marseille","lat":43.290348,"lon":5.375644,"is_reserved":false,"is_disabled":false,"rental_uris":{"android":"levelo://app?vid=a9aab8ad-752c-4f03-b39d-d47555b167be","ios":"levelo://app?vid=a9aab8ad-752c-4f03-b39d-d47555b167be"},"vehicle_type_id":"4","last_reported":1746169797,"current_range_meters":8400,"station_id":"ce4bh692rcd13ifvqe90","pricing_plan_id":"cebpf4jnsgd1na2vs0mg"},{"bike_id":"ffa74b91-d02d-46a4-bc90-20b31f7e74b2","system_id":"levelo_inurba_marseille","lat":43.26572,"lon":5.38994,"is_reserved":false,"is_disabled":true,"rental_uris":{"android":"levelo://app?vid=ffa74b91-d02d-46a4-bc90-20b31f7e74b2","ios":"levelo://app?vid=ffa74b91-d02d-46a4-bc90-20b31f7e74b2"},"vehicle_type_id":"4","last_reported":1746169797,"current_range_meters":8400,"station_id":"ce4bhe12rcd13ifvqf30","pricing_plan_id":"cebpf4jnsgd1na2vs0mg"},{"bike_id":"65d4855a-600f-4fce-b672-b6a2ca8c20bb","system_id":"levelo_inurba_marseille","lat":43.26964,"lon":5.38625,"is_reserved":false,"is_disabled":false,"rental_uris":{"android":"levelo://app?vid=65d4855a-600f-4fce-b672-b6a2ca8c20bb","ios":"levelo://app?vid=65d4855a-600f-4fce-b672-b6a2ca8c20bb"},"vehicle_type_id":"4","last_reported":1746169797,"current_range_meters":8400,"station_id":"ce4bhh92rcd13ifvqfh0","pricing_plan_id":"cebpf4jnsgd1na2vs0mg"},{"bike_id":"1cf73c93-75f3-44dc-bdda-81ad2851e42e","system_id":"levelo_inurba_marseille","lat":43.30593,"lon":5.39355,"is_reserved":false,"is_disabled":false,"rental_uris":{"android":"levelo://app?vid=1cf73c93-75f3-44dc-bdda-81ad2851e42e","ios":"levelo://app?vid=1cf73c93-75f3-44dc-bdda-81ad2851e42e"},"vehicle_type_id":"4","last_reported":1746169797,"current_range_meters":8400,"station_id":"ce4bh0p2rcd13ifvqd80","pricing_plan_id":"cebpf4jnsgd1na2vs0mg"},{"bike_id":"8cd15630-0c69-46e0-a1ee-eebb9363ed75","system_id":"levelo_inurba_marseille","lat":43.3025,"lon":5.40049,"is_reserved":false,"is_disabled":false,"rental_uris":{"android":"levelo://app?vid=8cd15630-0c69-46e0-a1ee-eebb9363ed75","ios":"levelo://app?vid=8cd15630-0c69-46e0-a1ee-eebb9363ed75"},"vehicle_type_id":"4","last_reported":1746169797,"current_range_meters":8400,"station_id":"ce4bgvh2rcd13ifvqcs0","pricing_plan_id":"cebpf4jnsgd1na2vs0mg"},{"bike_id":"e93b949e-1738-47f2-ad13-8f512df2ffaf","system_id":"levelo_inurba_marseille","lat":43.27497,"lon":5.42469,"is_reserved":false,"is_disabled":false,"rental_uris":{"android":"levelo://app?vid=e93b949e-1738-47f2-ad13-8f512df2ffaf","ios":"levelo://app?vid=e93b949e-1738-47f2-ad13-8f512df2ffaf"},"vehicle_type_id":"4","last_reported":1746169797,"current_range_meters":8400,"station_id":"ce4bhn92rcd13ifvqgrg","pricing_plan_id":"cebpf4jnsgd1na2vs0mg"},{"bike_id":"f86d1595-bc23-43f0-b70b-4aabc8d8fddc","system_id":"levelo_inurba_marseille","lat":43.33589,"lon":5.40923,"is_reserved":false,"is_disabled":false,"rental_uris":{"android":"levelo://app?vid=f86d1595-bc23-43f0-b70b-4aabc8d8fddc","ios":"levelo://app?vid=f86d1595-bc23-43f0-b70b-4aabc8d8fddc"},"vehicle_type_id":"4","last_reported":1746169797,"current_range_meters":8800,"station_id":"ce4bhqh2rcd13ifvqhmg","pricing_plan_id":"cebpf4jnsgd1na2vs0mg"},{"bike_id":"2df3c7e7-6f24-4b35-8876-4ea421331109","system_id":"levelo_inurba_marseille","lat":43.251038,"lon":5.403189,"is_reserved":false,"is_disabled":true,"rental_uris":{"android":"levelo://app?vid=2df3c7e7-6f24-4b35-8876-4ea421331109","ios":"levelo://app?vid=2df3c7e7-6f24-4b35-8876-4ea421331109"},"vehicle_type_id":"4","last_reported":1746169797,"current_range_meters":8800,"station_id":"ce4bhlh2rcd13ifvqgig","pricing_plan_id":"cebpf4jnsgd1na2vs0mg"},{"bike_id":"20677bec-f723-4a98-9582-28d71c43bf6e","system_id":"levelo_inurba_marseille","lat":43.23139,"lon":5.43722,"is_reserved":false,"is_disabled":false,"rental_uris":{"android":"levelo://app?vid=20677bec-f723-4a98-9582-28d71c43bf6e","ios":"levelo://app?vid=20677bec-f723-4a98-9582-28d71c43bf6e"},"vehicle_type_id":"4","last_reported":1746169797,"current_range_meters":8800,"station_id":"ce4bhmp2rcd13ifvqgog","pricing_plan_id":"cebpf4jnsgd1na2vs0mg"},{"bike_id":"7971fe93-5f1d-4a59-8508-b415e64fcb18","system_id":"levelo_inurba_marseille","lat":43.30943,"lon":5.37383,"is_reserved":false,"is_disabled":false,"rental_uris":{"android":"levelo://app?vid=7971fe93-5f1d-4a59-8508-b415e64fcb18","ios":"levelo://app?vid=7971fe93-5f1d-4a59-8508-b415e64fcb18"},"vehicle_type_id":"4","last_reported":1746169797,"current_range_meters":8800,"station_id":"","pricing_plan_id":"cebpf4jnsgd1na2vs0mg"},{"bike_id":"0275921f-ce6e-42c6-b9cc-724455ffabca","system_id":"levelo_inurba_marseille","lat":43.25722,"lon":5.41099,"is_reserved":false,"is_disabled":false,"rental_uris":{"android":"levelo://app?vid=0275921f-ce6e-42c6-b9cc-724455ffabca","ios":"levelo://app?vid=0275921f-ce6e-42c6-b9cc-724455ffabca"},"vehicle_type_id":"4","last_reported":1746169797,"current_range_meters":8800,"station_id":"ce4bhkp2rcd13ifvqgd0","pricing_plan_id":"cebpf4jnsgd1na2vs0mg"},{"bike_id":"4a6851f9-34fb-48f6-8387-4b9c13325bed","system_id":"levelo_inurba_marseille","lat":43.32113,"lon":5.36768,"is_reserved":false,"is_disabled":false,"rental_uris":{"android":"levelo://app?vid=4a6851f9-34fb-48f6-8387-4b9c13325bed","ios":"levelo://app?vid=4a6851f9-34fb-48f6-8387-4b9c13325bed"},"vehicle_type_id":"4","last_reported":1746169797,"current_range_meters":9200,"station_id":"ce4bhrh2rcd13ifvqhug","pricing_plan_id":"cebpf4jnsgd1na2vs0mg"},{"bike_id":"4e06d3e6-2b20-4e7b-aea6-0ad1ac5e1edf","system_id":"levelo_inurba_marseille","lat":43.32573,"lon":5.41429,"is_reserved":false,"is_disabled":false,"rental_uris":{"android":"levelo://app?vid=4e06d3e6-2b20-4e7b-aea6-0ad1ac5e1edf","ios":"levelo://app?vid=4e06d3e6-2b20-4e7b-aea6-0ad1ac5e1edf"},"vehicle_type_id":"4","last_reported":1746169797,"current_range_meters":9200,"station_id":"","pricing_plan_id":"cebpf4jnsgd1na2vs0mg"},{"bike_id":"f3d36354-fb65-4d90-83eb-303e5363ade6","system_id":"levelo_inurba_marseille","lat":43.31289,"lon":5.40199,"is_reserved":false,"is_disabled":false,"rental_uris":{"android":"levelo://app?vid=f3d36354-fb65-4d90-83eb-303e5363ade6","ios":"levelo://app?vid=f3d36354-fb65-4d90-83eb-303e5363ade6"},"vehicle_type_id":"4","last_reported":1746169797,"current_range_meters":9200,"station_id":"ce4bh092rcd13ifvqd30","pricing_plan_id":"cebpf4jnsgd1na2vs0mg"},{"bike_id":"d2fd2180-e73e-4220-869a-026232ab3e8c","system_id":"levelo_inurba_marseille","lat":43.2922,"lon":5.40046,"is_reserved":false,"is_disabled":false,"rental_uris":{"android":"levelo://app?vid=d2fd2180-e73e-4220-869a-026232ab3e8c","ios":"levelo://app?vid=d2fd2180-e73e-4220-869a-026232ab3e8c"},"vehicle_type_id":"4","last_reported":1746169797,"current_range_meters":9200,"station_id":"","pricing_plan_id":"cebpf4jnsgd1na2vs0mg"},{"bike_id":"bbf63f63-6bfd-4c80-b960-d5ee8b778047","system_id":"levelo_inurba_marseille","lat":43.30154,"lon":5.38078,"is_reserved":false,"is_disabled":false,"rental_uris":{"android":"levelo://app?vid=bbf63f63-6bfd-4c80-b960-d5ee8b778047","ios":"levelo://app?vid=bbf63f63-6bfd-4c80-b960-d5ee8b778047"},"vehicle_type_id":"4","last_reported":1746169797,"current_range_meters":8800,"station_id":"ce4bgjp2rcd13ifvqbh0","pricing_plan_id":"cebpf4jnsgd1na2vs0mg"},{"bike_id":"f752a1dc-dfd1-4555-8497-2d3f45d83cfc","system_id":"levelo_inurba_marseille","lat":43.29914,"lon":5.38164,"is_reserved":false,"is_disabled":false,"rental_uris":{"android":"levelo://app?vid=f752a1dc-dfd1-4555-8497-2d3f45d83cfc","ios":"levelo://app?vid=f752a1dc-dfd1-4555-8497-2d3f45d83cfc"},"vehicle_type_id":"4","last_reported":1746169797,"current_range_meters":9200,"station_id":"ce4bgj12rcd13ifvqbc0","pricing_plan_id":"cebpf4jnsgd1na2vs0mg"},{"bike_id":"32a5b9b2-5177-4b5f-91eb-6f7b00e0f325","system_id":"levelo_inurba_marseille","lat":43.26231,"lon":5.38731,"is_reserved":false,"is_disabled":false,"rental_uris":{"android":"levelo://app?vid=32a5b9b2-5177-4b5f-91eb-6f7b00e0f325","ios":"levelo://app?vid=32a5b9b2-5177-4b5f-91eb-6f7b00e0f325"},"vehicle_type_id":"4","last_reported":1746169797,"current_range_meters":9600,"station_id":"","pricing_plan_id":"cebpf4jnsgd1na2vs0mg"},{"bike_id":"c71bfdc2-450e-4590-97e2-2d95033f1120","system_id":"levelo_inurba_marseille","lat":43.30097,"lon":5.39077,"is_reserved":false,"is_disabled":false,"rental_uris":{"android":"levelo://app?vid=c71bfdc2-450e-4590-97e2-2d95033f1120","ios":"levelo://app?vid=c71bfdc2-450e-4590-97e2-2d95033f1120"},"vehicle_type_id":"4","last_reported":1746169797,"current_range_meters":9600,"station_id":"ce4bh192rcd13ifvqdb0","pricing_plan_id":"cebpf4jnsgd1na2vs0mg"},{"bike_id":"ba1291bf-568d-477b-8e17-c284858000b8","system_id":"levelo_inurba_marseille","lat":43.34154,"lon":5.41009,"is_reserved":false,"is_disabled":false,"rental_uris":{"android":"levelo://app?vid=ba1291bf-568d-477b-8e17-c284858000b8","ios":"levelo://app?vid=ba1291bf-568d-477b-8e17-c284858000b8"},"vehicle_type_id":"4","last_reported":1746169797,"current_range_meters":9600,"station_id":"","pricing_plan_id":"cebpf4jnsgd1na2vs0mg"},{"bike_id":"cacef962-381b-42d0-ae1c-3f655ade728a","system_id":"levelo_inurba_marseille","lat":43.25829,"lon":5.39439,"is_reserved":false,"is_disabled":false,"rental_uris":{"android":"levelo://app?vid=cacef962-381b-42d0-ae1c-3f655ade728a","ios":"levelo://app?vid=cacef962-381b-42d0-ae1c-3f655ade728a"},"vehicle_type_id":"4","last_reported":1746169797,"current_range_meters":9200,"station_id":"ce4bhip2rcd13ifvqft0","pricing_plan_id":"cebpf4jnsgd1na2vs0mg"},{"bike_id":"e62363b8-be2f-4501-8f4e-10e208c9dcc9","system_id":"levelo_inurba_marseille","lat":43.28708,"lon":5.40027,"is_reserved":false,"is_disabled":false,"rental_uris":{"android":"levelo://app?vid=e62363b8-be2f-4501-8f4e-10e208c9dcc9","ios":"levelo://app?vid=e62363b8-be2f-4501-8f4e-10e208c9dcc9"},"vehicle_type_id":"4","last_reported":1746169797,"current_range_meters":9600,"station_id":"ce4bho92rcd13ifvqh3g","pricing_plan_id":"cebpf4jnsgd1na2vs0mg"},{"bike_id":"bf0ded13-567f-4376-9241-fab3660dc401","system_id":"levelo_inurba_marseille","lat":43.23179,"lon":5.4368,"is_reserved":false,"is_disabled":false,"rental_uris":{"android":"levelo://app?vid=bf0ded13-567f-4376-9241-fab3660dc401","ios":"levelo://app?vid=bf0ded13-567f-4376-9241-fab3660dc401"},"vehicle_type_id":"4","last_reported":1746169797,"current_range_meters":9600,"station_id":"ce4bhmp2rcd13ifvqgog","pricing_plan_id":"cebpf4jnsgd1na2vs0mg"},{"bike_id":"e5dd5b1b-1fdc-4463-8e8b-dc81ff33afaa","system_id":"levelo_inurba_marseille","lat":43.26955,"lon":5.38627,"is_reserved":false,"is_disabled":false,"rental_uris":{"android":"levelo://app?vid=e5dd5b1b-1fdc-4463-8e8b-dc81ff33afaa","ios":"levelo://app?vid=e5dd5b1b-1fdc-4463-8e8b-dc81ff33afaa"},"vehicle_type_id":"4","last_reported":1746169797,"current_range_meters":9600,"station_id":"ce4bhh92rcd13ifvqfh0","pricing_plan_id":"cebpf4jnsgd1na2vs0mg"},{"bike_id":"5e783dca-e9bd-4f97-a67f-f3c52ee23fb9","system_id":"levelo_inurba_marseille","lat":43.296214,"lon":5.377067,"is_reserved":false,"is_disabled":true,"rental_uris":{"android":"levelo://app?vid=5e783dca-e9bd-4f97-a67f-f3c52ee23fb9","ios":"levelo://app?vid=5e783dca-e9bd-4f97-a67f-f3c52ee23fb9"},"vehicle_type_id":"4","last_reported":1746169797,"current_range_meters":10000,"station_id":"","pricing_plan_id":"cebpf4jnsgd1na2vs0mg"},{"bike_id":"758e00ea-ac41-47bc-b8b0-8faca5e664ac","system_id":"levelo_inurba_marseille","lat":43.30892,"lon":5.37177,"is_reserved":false,"is_disabled":false,"rental_uris":{"android":"levelo://app?vid=758e00ea-ac41-47bc-b8b0-8faca5e664ac","ios":"levelo://app?vid=758e00ea-ac41-47bc-b8b0-8faca5e664ac"},"vehicle_type_id":"4","last_reported":1746169797,"current_range_meters":10000,"station_id":"ce4bguh2rcd13ifvqckg","pricing_plan_id":"cebpf4jnsgd1na2vs0mg"},{"bike_id":"5ce5a92f-2072-4e8c-8483-5f453ebe476a","system_id":"levelo_inurba_marseille","lat":43.23161,"lon":5.43708,"is_reserved":false,"is_disabled":false,"rental_uris":{"android":"levelo://app?vid=5ce5a92f-2072-4e8c-8483-5f453ebe476a","ios":"levelo://app?vid=5ce5a92f-2072-4e8c-8483-5f453ebe476a"},"vehicle_type_id":"4","last_reported":1746169797,"current_range_meters":10000,"station_id":"ce4bhmp2rcd13ifvqgog","pricing_plan_id":"cebpf4jnsgd1na2vs0mg"},{"bike_id":"fd07a340-a32b-44cc-824b-9474cc171177","system_id":"levelo_inurba_marseille","lat":43.28157,"lon":5.42647,"is_reserved":false,"is_disabled":false,"rental_uris":{"android":"levelo://app?vid=fd07a340-a32b-44cc-824b-9474cc171177","ios":"levelo://app?vid=fd07a340-a32b-44cc-824b-9474cc171177"},"vehicle_type_id":"4","last_reported":1746169797,"current_range_meters":10000,"station_id":"ce4bhnh2rcd13ifvqgug","pricing_plan_id":"cebpf4jnsgd1na2vs0mg"},{"bike_id":"3f8bea75-f1b7-42a9-9ff5-4986c0552272","system_id":"levelo_inurba_marseille","lat":43.21764,"lon":5.34619,"is_reserved":false,"is_disabled":true,"rental_uris":{"android":"levelo://app?vid=3f8bea75-f1b7-42a9-9ff5-4986c0552272","ios":"levelo://app?vid=3f8bea75-f1b7-42a9-9ff5-4986c0552272"},"vehicle_type_id":"4","last_reported":1746169797,"current_range_meters":10000,"station_id":"st_cvj6r9ubvosntc0bgbag","pricing_plan_id":"cebpf4jnsgd1na2vs0mg"},{"bike_id":"75b10a7f-826f-4cc8-9167-a73a22f7b230","system_id":"levelo_inurba_marseille","lat":43.29363,"lon":5.3784,"is_reserved":false,"is_disabled":false,"rental_uris":{"android":"levelo://app?vid=75b10a7f-826f-4cc8-9167-a73a22f7b230","ios":"levelo://app?vid=75b10a7f-826f-4cc8-9167-a73a22f7b230"},"vehicle_type_id":"4","last_reported":1746169797,"current_range_meters":10000,"station_id":"ce4bgjh2rcd13ifvqbf0","pricing_plan_id":"cebpf4jnsgd1na2vs0mg"},{"bike_id":"bee154cf-b1bf-4f34-a011-ceff00b74e82","system_id":"levelo_inurba_marseille","lat":43.25583,"lon":5.3822,"is_reserved":false,"is_disabled":false,"rental_uris":{"android":"levelo://app?vid=bee154cf-b1bf-4f34-a011-ceff00b74e82","ios":"levelo://app?vid=bee154cf-b1bf-4f34-a011-ceff00b74e82"},"vehicle_type_id":"4","last_reported":1746169797,"current_range_meters":10000,"station_id":"ce4bhih2rcd13ifvqfs0","pricing_plan_id":"cebpf4jnsgd1na2vs0mg"},{"bike_id":"744a70b3-0d2b-4c64-b864-97777861f09d","system_id":"levelo_inurba_marseille","lat":43.24075,"lon":5.37763,"is_reserved":false,"is_disabled":false,"rental_uris":{"android":"levelo://app?vid=744a70b3-0d2b-4c64-b864-97777861f09d","ios":"levelo://app?vid=744a70b3-0d2b-4c64-b864-97777861f09d"},"vehicle_type_id":"4","last_reported":1746169797,"current_range_meters":10000,"station_id":"ce4bhnp2rcd13ifvqgvg","pricing_plan_id":"cebpf4jnsgd1na2vs0mg"},{"bike_id":"baddf602-d65c-45c0-9bce-ff8ea2e5a72c","system_id":"levelo_inurba_marseille","lat":43.24815,"lon":5.3746,"is_reserved":false,"is_disabled":false,"rental_uris":{"android":"levelo://app?vid=baddf602-d65c-45c0-9bce-ff8ea2e5a72c","ios":"levelo://app?vid=baddf602-d65c-45c0-9bce-ff8ea2e5a72c"},"vehicle_type_id":"4","last_reported":1746169797,"current_range_meters":10800,"station_id":"ce4bhgh2rcd13ifvqfb0","pricing_plan_id":"cebpf4jnsgd1na2vs0mg"},{"bike_id":"045b2767-67d3-41b7-8618-6d27646a5585","system_id":"levelo_inurba_marseille","lat":43.315876,"lon":5.387765,"is_reserved":false,"is_disabled":false,"rental_uris":{"android":"levelo://app?vid=045b2767-67d3-41b7-8618-6d27646a5585","ios":"levelo://app?vid=045b2767-67d3-41b7-8618-6d27646a5585"},"vehicle_type_id":"4","last_reported":1746169797,"current_range_meters":10800,"station_id":"","pricing_plan_id":"cebpf4jnsgd1na2vs0mg"},{"bike_id":"2f0c7911-806f-47c5-b87b-8bc96f5fed4a","system_id":"levelo_inurba_marseille","lat":43.30909,"lon":5.36841,"is_reserved":false,"is_disabled":false,"rental_uris":{"android":"levelo://app?vid=2f0c7911-806f-47c5-b87b-8bc96f5fed4a","ios":"levelo://app?vid=2f0c7911-806f-47c5-b87b-8bc96f5fed4a"},"vehicle_type_id":"4","last_reported":1746169797,"current_range_meters":10800,"station_id":"ce4bgn92rcd13ifvqbvg","pricing_plan_id":"cebpf4jnsgd1na2vs0mg"},{"bike_id":"ff35662d-4be6-41a9-9b4f-a51681d3d72d","system_id":"levelo_inurba_marseille","lat":43.29789,"lon":5.38116,"is_reserved":false,"is_disabled":false,"rental_uris":{"android":"levelo://app?vid=ff35662d-4be6-41a9-9b4f-a51681d3d72d","ios":"levelo://app?vid=ff35662d-4be6-41a9-9b4f-a51681d3d72d"},"vehicle_type_id":"4","last_reported":1746169797,"current_range_meters":10000,"station_id":"ce4bgip2rcd13ifvqbb0","pricing_plan_id":"cebpf4jnsgd1na2vs0mg"},{"bike_id":"5481888f-0ef7-4fa6-88a1-045852204653","system_id":"levelo_inurba_marseille","lat":43.29309,"lon":5.37174,"is_reserved":false,"is_disabled":false,"rental_uris":{"android":"levelo://app?vid=5481888f-0ef7-4fa6-88a1-045852204653","ios":"levelo://app?vid=5481888f-0ef7-4fa6-88a1-045852204653"},"vehicle_type_id":"4","last_reported":1746169797,"current_range_meters":11200,"station_id":"ce4bgh92rcd13ifvqb40","pricing_plan_id":"cebpf4jnsgd1na2vs0mg"},{"bike_id":"39221100-7774-4b60-870e-2c46db25e77d","system_id":"levelo_inurba_marseille","lat":43.29782,"lon":5.37108,"is_reserved":false,"is_disabled":false,"rental_uris":{"android":"levelo://app?vid=39221100-7774-4b60-870e-2c46db25e77d","ios":"levelo://app?vid=39221100-7774-4b60-870e-2c46db25e77d"},"vehicle_type_id":"4","last_reported":1746169797,"current_range_meters":11200,"station_id":"ce4bgop2rcd13ifvqc1g","pricing_plan_id":"cebpf4jnsgd1na2vs0mg"},{"bike_id":"df869c6e-30aa-4a10-bddb-7cd36ccc4eae","system_id":"levelo_inurba_marseille","lat":43.29903,"lon":5.43634,"is_reserved":false,"is_disabled":true,"rental_uris":{"android":"levelo://app?vid=df869c6e-30aa-4a10-bddb-7cd36ccc4eae","ios":"levelo://app?vid=df869c6e-30aa-4a10-bddb-7cd36ccc4eae"},"vehicle_type_id":"4","last_reported":1746169797,"current_range_meters":11200,"station_id":"ce4bhpp2rcd13ifvqhfg","pricing_plan_id":"cebpf4jnsgd1na2vs0mg"},{"bike_id":"56f543c3-cb38-4272-a4e5-cab053dcc3e0","system_id":"levelo_inurba_marseille","lat":43.291966,"lon":5.392961,"is_reserved":false,"is_disabled":true,"rental_uris":{"android":"levelo://app?vid=56f543c3-cb38-4272-a4e5-cab053dcc3e0","ios":"levelo://app?vid=56f543c3-cb38-4272-a4e5-cab053dcc3e0"},"vehicle_type_id":"4","last_reported":1746169797,"current_range_meters":11200,"station_id":"ce4bhbh2rcd13ifvqeo0","pricing_plan_id":"cebpf4jnsgd1na2vs0mg"},{"bike_id":"d19bb651-f920-4d98-a359-f0f41c85a34b","system_id":"levelo_inurba_marseille","lat":43.31351,"lon":5.38485,"is_reserved":false,"is_disabled":false,"rental_uris":{"android":"levelo://app?vid=d19bb651-f920-4d98-a359-f0f41c85a34b","ios":"levelo://app?vid=d19bb651-f920-4d98-a359-f0f41c85a34b"},"vehicle_type_id":"4","last_reported":1746169797,"current_range_meters":11200,"station_id":"ce4bgt92rcd13ifvqcf0","pricing_plan_id":"cebpf4jnsgd1na2vs0mg"},{"bike_id":"718efd42-4b6f-4ac4-ab28-c4b5a281556e","system_id":"levelo_inurba_marseille","lat":43.30979,"lon":5.39077,"is_reserved":false,"is_disabled":false,"rental_uris":{"android":"levelo://app?vid=718efd42-4b6f-4ac4-ab28-c4b5a281556e","ios":"levelo://app?vid=718efd42-4b6f-4ac4-ab28-c4b5a281556e"},"vehicle_type_id":"4","last_reported":1746169797,"current_range_meters":11200,"station_id":"ce4bgup2rcd13ifvqco0","pricing_plan_id":"cebpf4jnsgd1na2vs0mg"},{"bike_id":"c6e9174b-fda6-49bf-a637-f9ca130ffab8","system_id":"levelo_inurba_marseille","lat":43.25736,"lon":5.41144,"is_reserved":false,"is_disabled":false,"rental_uris":{"android":"levelo://app?vid=c6e9174b-fda6-49bf-a637-f9ca130ffab8","ios":"levelo://app?vid=c6e9174b-fda6-49bf-a637-f9ca130ffab8"},"vehicle_type_id":"4","last_reported":1746169797,"current_range_meters":11200,"station_id":"ce4bhkp2rcd13ifvqgd0","pricing_plan_id":"cebpf4jnsgd1na2vs0mg"},{"bike_id":"70343d1e-ded8-4525-8972-02514fdf5b15","system_id":"levelo_inurba_marseille","lat":43.27493,"lon":5.42456,"is_reserved":false,"is_disabled":false,"rental_uris":{"android":"levelo://app?vid=70343d1e-ded8-4525-8972-02514fdf5b15","ios":"levelo://app?vid=70343d1e-ded8-4525-8972-02514fdf5b15"},"vehicle_type_id":"4","last_reported":1746169797,"current_range_meters":11600,"station_id":"ce4bhn92rcd13ifvqgrg","pricing_plan_id":"cebpf4jnsgd1na2vs0mg"},{"bike_id":"4cc2b011-81f2-4910-af9d-0052ec928815","system_id":"levelo_inurba_marseille","lat":43.30374,"lon":5.42486,"is_reserved":false,"is_disabled":false,"rental_uris":{"android":"levelo://app?vid=4cc2b011-81f2-4910-af9d-0052ec928815","ios":"levelo://app?vid=4cc2b011-81f2-4910-af9d-0052ec928815"},"vehicle_type_id":"4","last_reported":1746169797,"current_range_meters":11600,"station_id":"ce4bhoh2rcd13ifvqh6g","pricing_plan_id":"cebpf4jnsgd1na2vs0mg"},{"bike_id":"fe583f86-fecd-41c3-bd8b-8ba8ebc7db3d","system_id":"levelo_inurba_marseille","lat":43.24074,"lon":5.37761,"is_reserved":false,"is_disabled":false,"rental_uris":{"android":"levelo://app?vid=fe583f86-fecd-41c3-bd8b-8ba8ebc7db3d","ios":"levelo://app?vid=fe583f86-fecd-41c3-bd8b-8ba8ebc7db3d"},"vehicle_type_id":"4","last_reported":1746169797,"current_range_meters":11600,"station_id":"ce4bhnp2rcd13ifvqgvg","pricing_plan_id":"cebpf4jnsgd1na2vs0mg"},{"bike_id":"fa09a71f-673d-4c1a-a11e-336f86ed1d37","system_id":"levelo_inurba_marseille","lat":43.30138,"lon":5.38093,"is_reserved":false,"is_disabled":false,"rental_uris":{"android":"levelo://app?vid=fa09a71f-673d-4c1a-a11e-336f86ed1d37","ios":"levelo://app?vid=fa09a71f-673d-4c1a-a11e-336f86ed1d37"},"vehicle_type_id":"4","last_reported":1746169797,"current_range_meters":12000,"station_id":"ce4bgjp2rcd13ifvqbh0","pricing_plan_id":"cebpf4jnsgd1na2vs0mg"},{"bike_id":"0c9a8767-a71f-4ef0-b390-c3b7e9c632a8","system_id":"levelo_inurba_marseille","lat":43.21191,"lon":5.35078,"is_reserved":false,"is_disabled":true,"rental_uris":{"android":"levelo://app?vid=0c9a8767-a71f-4ef0-b390-c3b7e9c632a8","ios":"levelo://app?vid=0c9a8767-a71f-4ef0-b390-c3b7e9c632a8"},"vehicle_type_id":"4","last_reported":1746169797,"current_range_meters":12000,"station_id":"st_cvj6sg6p6f1abm77japg","pricing_plan_id":"cebpf4jnsgd1na2vs0mg"},{"bike_id":"bbf542a5-21e5-4e47-b018-bbb5549df240","system_id":"levelo_inurba_marseille","lat":43.30241,"lon":5.40059,"is_reserved":false,"is_disabled":false,"rental_uris":{"android":"levelo://app?vid=bbf542a5-21e5-4e47-b018-bbb5549df240","ios":"levelo://app?vid=bbf542a5-21e5-4e47-b018-bbb5549df240"},"vehicle_type_id":"4","last_reported":1746169797,"current_range_meters":12000,"station_id":"ce4bgvh2rcd13ifvqcs0","pricing_plan_id":"cebpf4jnsgd1na2vs0mg"},{"bike_id":"a1848af7-0205-4517-b883-00ed17b8390e","system_id":"levelo_inurba_marseille","lat":43.29258,"lon":5.37622,"is_reserved":false,"is_disabled":false,"rental_uris":{"android":"levelo://app?vid=a1848af7-0205-4517-b883-00ed17b8390e","ios":"levelo://app?vid=a1848af7-0205-4517-b883-00ed17b8390e"},"vehicle_type_id":"4","last_reported":1746169797,"current_range_meters":12000,"station_id":"ce4bgi12rcd13ifvqb80","pricing_plan_id":"cebpf4jnsgd1na2vs0mg"},{"bike_id":"f3001217-8356-4538-8ab1-dd52f879807f","system_id":"levelo_inurba_marseille","lat":43.28935,"lon":5.36639,"is_reserved":false,"is_disabled":false,"rental_uris":{"android":"levelo://app?vid=f3001217-8356-4538-8ab1-dd52f879807f","ios":"levelo://app?vid=f3001217-8356-4538-8ab1-dd52f879807f"},"vehicle_type_id":"4","last_reported":1746169797,"current_range_meters":11600,"station_id":"ce4bhap2rcd13ifvqek0","pricing_plan_id":"cebpf4jnsgd1na2vs0mg"},{"bike_id":"f0db5fa2-ee3c-4f34-b509-0ff042a196f7","system_id":"levelo_inurba_marseille","lat":43.29316,"lon":5.40131,"is_reserved":false,"is_disabled":false,"rental_uris":{"android":"levelo://app?vid=f0db5fa2-ee3c-4f34-b509-0ff042a196f7","ios":"levelo://app?vid=f0db5fa2-ee3c-4f34-b509-0ff042a196f7"},"vehicle_type_id":"4","last_reported":1746169797,"current_range_meters":12400,"station_id":"","pricing_plan_id":"cebpf4jnsgd1na2vs0mg"},{"bike_id":"a0014789-22ec-4653-81d8-87fc03cee5b6","system_id":"levelo_inurba_marseille","lat":43.29304,"lon":5.37176,"is_reserved":false,"is_disabled":false,"rental_uris":{"android":"levelo://app?vid=a0014789-22ec-4653-81d8-87fc03cee5b6","ios":"levelo://app?vid=a0014789-22ec-4653-81d8-87fc03cee5b6"},"vehicle_type_id":"4","last_reported":1746169797,"current_range_meters":12400,"station_id":"ce4bgh92rcd13ifvqb40","pricing_plan_id":"cebpf4jnsgd1na2vs0mg"},{"bike_id":"8a0058ae-d47a-4696-afcc-53a66a14ba3f","system_id":"levelo_inurba_marseille","lat":43.29897,"lon":5.43638,"is_reserved":false,"is_disabled":false,"rental_uris":{"android":"levelo://app?vid=8a0058ae-d47a-4696-afcc-53a66a14ba3f","ios":"levelo://app?vid=8a0058ae-d47a-4696-afcc-53a66a14ba3f"},"vehicle_type_id":"4","last_reported":1746169797,"current_range_meters":12800,"station_id":"ce4bhpp2rcd13ifvqhfg","pricing_plan_id":"cebpf4jnsgd1na2vs0mg"},{"bike_id":"27ae44ab-4467-45ef-b0d1-8bfc33f0de73","system_id":"levelo_inurba_marseille","lat":43.28703,"lon":5.39967,"is_reserved":false,"is_disabled":false,"rental_uris":{"android":"levelo://app?vid=27ae44ab-4467-45ef-b0d1-8bfc33f0de73","ios":"levelo://app?vid=27ae44ab-4467-45ef-b0d1-8bfc33f0de73"},"vehicle_type_id":"4","last_reported":1746169797,"current_range_meters":12800,"station_id":"ce4bho92rcd13ifvqh3g","pricing_plan_id":"cebpf4jnsgd1na2vs0mg"},{"bike_id":"aaa7361e-2aed-4ab5-b86b-b5d18c767d33","system_id":"levelo_inurba_marseille","lat":43.29935,"lon":5.39505,"is_reserved":false,"is_disabled":true,"rental_uris":{"android":"levelo://app?vid=aaa7361e-2aed-4ab5-b86b-b5d18c767d33","ios":"levelo://app?vid=aaa7361e-2aed-4ab5-b86b-b5d18c767d33"},"vehicle_type_id":"4","last_reported":1746169797,"current_range_meters":12800,"station_id":"","pricing_plan_id":"cebpf4jnsgd1na2vs0mg"},{"bike_id":"f9eae9cb-3e30-4f98-9b5d-ec7d6955b1e9","system_id":"levelo_inurba_marseille","lat":43.31698,"lon":5.4046,"is_reserved":false,"is_disabled":false,"rental_uris":{"android":"levelo://app?vid=f9eae9cb-3e30-4f98-9b5d-ec7d6955b1e9","ios":"levelo://app?vid=f9eae9cb-3e30-4f98-9b5d-ec7d6955b1e9"},"vehicle_type_id":"4","last_reported":1746169797,"current_range_meters":12800,"station_id":"ce4bh012rcd13ifvqd00","pricing_plan_id":"cebpf4jnsgd1na2vs0mg"},{"bike_id":"213be9bf-50c6-4632-8101-ab3a4cec835a","system_id":"levelo_inurba_marseille","lat":43.29275,"lon":5.36848,"is_reserved":false,"is_disabled":false,"rental_uris":{"android":"levelo://app?vid=213be9bf-50c6-4632-8101-ab3a4cec835a","ios":"levelo://app?vid=213be9bf-50c6-4632-8101-ab3a4cec835a"},"vehicle_type_id":"4","last_reported":1746169797,"current_range_meters":12800,"station_id":"ce4bhbp2rcd13ifvqesg","pricing_plan_id":"cebpf4jnsgd1na2vs0mg"},{"bike_id":"6b5bdc81-8956-4ac3-aa91-fb31979aae0d","system_id":"levelo_inurba_marseille","lat":43.30915,"lon":5.39042,"is_reserved":false,"is_disabled":false,"rental_uris":{"android":"levelo://app?vid=6b5bdc81-8956-4ac3-aa91-fb31979aae0d","ios":"levelo://app?vid=6b5bdc81-8956-4ac3-aa91-fb31979aae0d"},"vehicle_type_id":"4","last_reported":1746169797,"current_range_meters":12800,"station_id":"","pricing_plan_id":"cebpf4jnsgd1na2vs0mg"},{"bike_id":"cca35146-ccf2-4f74-be51-d7880697b3c4","system_id":"levelo_inurba_marseille","lat":43.29929,"lon":5.38158,"is_reserved":false,"is_disabled":false,"rental_uris":{"android":"levelo://app?vid=cca35146-ccf2-4f74-be51-d7880697b3c4","ios":"levelo://app?vid=cca35146-ccf2-4f74-be51-d7880697b3c4"},"vehicle_type_id":"4","last_reported":1746169797,"current_range_meters":12400,"station_id":"ce4bgj12rcd13ifvqbc0","pricing_plan_id":"cebpf4jnsgd1na2vs0mg"},{"bike_id":"ac132c29-f819-4d62-974c-5c055342f4f0","system_id":"levelo_inurba_marseille","lat":43.2176,"lon":5.34586,"is_reserved":false,"is_disabled":true,"rental_uris":{"android":"levelo://app?vid=ac132c29-f819-4d62-974c-5c055342f4f0","ios":"levelo://app?vid=ac132c29-f819-4d62-974c-5c055342f4f0"},"vehicle_type_id":"4","last_reported":1746169797,"current_range_meters":13600,"station_id":"st_cvj6r9ubvosntc0bgbag","pricing_plan_id":"cebpf4jnsgd1na2vs0mg"},{"bike_id":"03f5b910-d1d5-49c8-a7a4-67a333daaa2e","system_id":"levelo_inurba_marseille","lat":43.32543,"lon":5.41445,"is_reserved":false,"is_disabled":false,"rental_uris":{"android":"levelo://app?vid=03f5b910-d1d5-49c8-a7a4-67a333daaa2e","ios":"levelo://app?vid=03f5b910-d1d5-49c8-a7a4-67a333daaa2e"},"vehicle_type_id":"4","last_reported":1746169797,"current_range_meters":13600,"station_id":"ce4bhq12rcd13ifvqhhg","pricing_plan_id":"cebpf4jnsgd1na2vs0mg"},{"bike_id":"7bd7c79e-5190-4568-b102-e02604e33904","system_id":"levelo_inurba_marseille","lat":43.30233,"lon":5.40536,"is_reserved":false,"is_disabled":true,"rental_uris":{"android":"levelo://app?vid=7bd7c79e-5190-4568-b102-e02604e33904","ios":"levelo://app?vid=7bd7c79e-5190-4568-b102-e02604e33904"},"vehicle_type_id":"4","last_reported":1746169797,"current_range_meters":13600,"station_id":"","pricing_plan_id":"cebpf4jnsgd1na2vs0mg"},{"bike_id":"fa458b78-5d1d-448f-8957-9784f4e9ac1a","system_id":"levelo_inurba_marseille","lat":43.305925,"lon":5.393805,"is_reserved":false,"is_disabled":false,"rental_uris":{"android":"levelo://app?vid=fa458b78-5d1d-448f-8957-9784f4e9ac1a","ios":"levelo://app?vid=fa458b78-5d1d-448f-8957-9784f4e9ac1a"},"vehicle_type_id":"4","last_reported":1746169797,"current_range_meters":13600,"station_id":"ce4bh0p2rcd13ifvqd80","pricing_plan_id":"cebpf4jnsgd1na2vs0mg"},{"bike_id":"6f56ecb2-620e-4176-bc24-85528e81f60f","system_id":"levelo_inurba_marseille","lat":43.30897,"lon":5.3718,"is_reserved":false,"is_disabled":false,"rental_uris":{"android":"levelo://app?vid=6f56ecb2-620e-4176-bc24-85528e81f60f","ios":"levelo://app?vid=6f56ecb2-620e-4176-bc24-85528e81f60f"},"vehicle_type_id":"4","last_reported":1746169797,"current_range_meters":14000,"station_id":"ce4bguh2rcd13ifvqckg","pricing_plan_id":"cebpf4jnsgd1na2vs0mg"},{"bike_id":"8a53bf42-acb8-4be5-ad1b-38650f6ba791","system_id":"levelo_inurba_marseille","lat":43.29927,"lon":5.36535,"is_reserved":false,"is_disabled":true,"rental_uris":{"android":"levelo://app?vid=8a53bf42-acb8-4be5-ad1b-38650f6ba791","ios":"levelo://app?vid=8a53bf42-acb8-4be5-ad1b-38650f6ba791"},"vehicle_type_id":"4","last_reported":1746169797,"current_range_meters":14000,"station_id":"ce4bgm92rcd13ifvqbr0","pricing_plan_id":"cebpf4jnsgd1na2vs0mg"},{"bike_id":"75472671-ac0e-4bfb-a055-2ad02801380a","system_id":"levelo_inurba_marseille","lat":43.27316,"lon":5.39072,"is_reserved":false,"is_disabled":false,"rental_uris":{"android":"levelo://app?vid=75472671-ac0e-4bfb-a055-2ad02801380a","ios":"levelo://app?vid=75472671-ac0e-4bfb-a055-2ad02801380a"},"vehicle_type_id":"4","last_reported":1746169797,"current_range_meters":14000,"station_id":"ce4bhgp2rcd13ifvqfe0","pricing_plan_id":"cebpf4jnsgd1na2vs0mg"},{"bike_id":"58ab4ed0-a69d-4f56-9f56-2c2bfa67cab2","system_id":"levelo_inurba_marseille","lat":43.28152,"lon":5.42624,"is_reserved":false,"is_disabled":false,"rental_uris":{"android":"levelo://app?vid=58ab4ed0-a69d-4f56-9f56-2c2bfa67cab2","ios":"levelo://app?vid=58ab4ed0-a69d-4f56-9f56-2c2bfa67cab2"},"vehicle_type_id":"4","last_reported":1746169797,"current_range_meters":14400,"station_id":"ce4bhnh2rcd13ifvqgug","pricing_plan_id":"cebpf4jnsgd1na2vs0mg"},{"bike_id":"8a98d962-578d-444b-a5bb-91a62b69d98d","system_id":"levelo_inurba_marseille","lat":43.211963,"lon":5.35072,"is_reserved":false,"is_disabled":true,"rental_uris":{"android":"levelo://app?vid=8a98d962-578d-444b-a5bb-91a62b69d98d","ios":"levelo://app?vid=8a98d962-578d-444b-a5bb-91a62b69d98d"},"vehicle_type_id":"4","last_reported":1746169797,"current_range_meters":14400,"station_id":"st_cvj6sg6p6f1abm77japg","pricing_plan_id":"cebpf4jnsgd1na2vs0mg"},{"bike_id":"31206848-7110-4ee4-8d7d-9489a9d1c071","system_id":"levelo_inurba_marseille","lat":43.30161,"lon":5.38076,"is_reserved":false,"is_disabled":false,"rental_uris":{"android":"levelo://app?vid=31206848-7110-4ee4-8d7d-9489a9d1c071","ios":"levelo://app?vid=31206848-7110-4ee4-8d7d-9489a9d1c071"},"vehicle_type_id":"4","last_reported":1746169797,"current_range_meters":14400,"station_id":"ce4bgjp2rcd13ifvqbh0","pricing_plan_id":"cebpf4jnsgd1na2vs0mg"},{"bike_id":"7512aee9-4fed-428c-81c8-bc4bbc83f5ae","system_id":"levelo_inurba_marseille","lat":43.272066,"lon":5.391934,"is_reserved":false,"is_disabled":true,"rental_uris":{"android":"levelo://app?vid=7512aee9-4fed-428c-81c8-bc4bbc83f5ae","ios":"levelo://app?vid=7512aee9-4fed-428c-81c8-bc4bbc83f5ae"},"vehicle_type_id":"4","last_reported":1746169797,"current_range_meters":14400,"station_id":"ce4bhhp2rcd13ifvqfm0","pricing_plan_id":"cebpf4jnsgd1na2vs0mg"},{"bike_id":"7fd80a67-7a4b-4131-aa61-22a40255ad15","system_id":"levelo_inurba_marseille","lat":43.31826,"lon":5.37757,"is_reserved":false,"is_disabled":true,"rental_uris":{"android":"levelo://app?vid=7fd80a67-7a4b-4131-aa61-22a40255ad15","ios":"levelo://app?vid=7fd80a67-7a4b-4131-aa61-22a40255ad15"},"vehicle_type_id":"4","last_reported":1746169797,"current_range_meters":14400,"station_id":"ce4bgth2rcd13ifvqch0","pricing_plan_id":"cebpf4jnsgd1na2vs0mg"},{"bike_id":"f7e7b8fe-c780-4f22-bb8a-1bd2d46b4a80","system_id":"levelo_inurba_marseille","lat":43.27811,"lon":5.40713,"is_reserved":false,"is_disabled":false,"rental_uris":{"android":"levelo://app?vid=f7e7b8fe-c780-4f22-bb8a-1bd2d46b4a80","ios":"levelo://app?vid=f7e7b8fe-c780-4f22-bb8a-1bd2d46b4a80"},"vehicle_type_id":"4","last_reported":1746169797,"current_range_meters":14400,"station_id":"ce4bhnh2rcd13ifvqgtg","pricing_plan_id":"cebpf4jnsgd1na2vs0mg"},{"bike_id":"b91be6f7-8df7-4884-afa4-be5b377d4883","system_id":"levelo_inurba_marseille","lat":43.27206,"lon":5.39179,"is_reserved":false,"is_disabled":false,"rental_uris":{"android":"levelo://app?vid=b91be6f7-8df7-4884-afa4-be5b377d4883","ios":"levelo://app?vid=b91be6f7-8df7-4884-afa4-be5b377d4883"},"vehicle_type_id":"4","last_reported":1746169797,"current_range_meters":14400,"station_id":"ce4bhhp2rcd13ifvqfm0","pricing_plan_id":"cebpf4jnsgd1na2vs0mg"},{"bike_id":"ba7b43c8-724d-4774-aced-6afefe73297a","system_id":"levelo_inurba_marseille","lat":43.29427,"lon":5.38627,"is_reserved":false,"is_disabled":false,"rental_uris":{"android":"levelo://app?vid=ba7b43c8-724d-4774-aced-6afefe73297a","ios":"levelo://app?vid=ba7b43c8-724d-4774-aced-6afefe73297a"},"vehicle_type_id":"4","last_reported":1746169797,"current_range_meters":14400,"station_id":"ce4bh2h2rcd13ifvqdh0","pricing_plan_id":"cebpf4jnsgd1na2vs0mg"},{"bike_id":"6ade583e-d6e8-4ac4-b0f1-07e06bcf4165","system_id":"levelo_inurba_marseille","lat":43.2792,"lon":5.39575,"is_reserved":false,"is_disabled":false,"rental_uris":{"android":"levelo://app?vid=6ade583e-d6e8-4ac4-b0f1-07e06bcf4165","ios":"levelo://app?vid=6ade583e-d6e8-4ac4-b0f1-07e06bcf4165"},"vehicle_type_id":"4","last_reported":1746169797,"current_range_meters":14800,"station_id":"ce4bhf92rcd13ifvqf40","pricing_plan_id":"cebpf4jnsgd1na2vs0mg"},{"bike_id":"4c07281c-28f8-4086-96ff-922f72f62cac","system_id":"levelo_inurba_marseille","lat":43.30943,"lon":5.39034,"is_reserved":false,"is_disabled":false,"rental_uris":{"android":"levelo://app?vid=4c07281c-28f8-4086-96ff-922f72f62cac","ios":"levelo://app?vid=4c07281c-28f8-4086-96ff-922f72f62cac"},"vehicle_type_id":"4","last_reported":1746169797,"current_range_meters":14800,"station_id":"ce4bgup2rcd13ifvqco0","pricing_plan_id":"cebpf4jnsgd1na2vs0mg"},{"bike_id":"924ebe6f-d3da-412d-b51d-9e4065478efe","system_id":"levelo_inurba_marseille","lat":43.32539,"lon":5.41514,"is_reserved":false,"is_disabled":false,"rental_uris":{"android":"levelo://app?vid=924ebe6f-d3da-412d-b51d-9e4065478efe","ios":"levelo://app?vid=924ebe6f-d3da-412d-b51d-9e4065478efe"},"vehicle_type_id":"4","last_reported":1746169797,"current_range_meters":14800,"station_id":"","pricing_plan_id":"cebpf4jnsgd1na2vs0mg"},{"bike_id":"25dbcab5-92b7-4973-85d1-d58cf4c54a15","system_id":"levelo_inurba_marseille","lat":43.28697,"lon":5.39981,"is_reserved":false,"is_disabled":false,"rental_uris":{"android":"levelo://app?vid=25dbcab5-92b7-4973-85d1-d58cf4c54a15","ios":"levelo://app?vid=25dbcab5-92b7-4973-85d1-d58cf4c54a15"},"vehicle_type_id":"4","last_reported":1746169797,"current_range_meters":14400,"station_id":"ce4bho92rcd13ifvqh3g","pricing_plan_id":"cebpf4jnsgd1na2vs0mg"},{"bike_id":"77d09e7b-221b-4d15-ab83-0997b0834807","system_id":"levelo_inurba_marseille","lat":43.28944,"lon":5.36385,"is_reserved":false,"is_disabled":false,"rental_uris":{"android":"levelo://app?vid=77d09e7b-221b-4d15-ab83-0997b0834807","ios":"levelo://app?vid=77d09e7b-221b-4d15-ab83-0997b0834807"},"vehicle_type_id":"4","last_reported":1746169797,"current_range_meters":14800,"station_id":"ce4bhc92rcd13ifvqetg","pricing_plan_id":"cebpf4jnsgd1na2vs0mg"},{"bike_id":"1ca47015-b35f-47e1-931c-0d4b4317b205","system_id":"levelo_inurba_marseille","lat":43.29561,"lon":5.4229,"is_reserved":false,"is_disabled":false,"rental_uris":{"android":"levelo://app?vid=1ca47015-b35f-47e1-931c-0d4b4317b205","ios":"levelo://app?vid=1ca47015-b35f-47e1-931c-0d4b4317b205"},"vehicle_type_id":"4","last_reported":1746169797,"current_range_meters":14400,"station_id":"ce4bhph2rcd13ifvqhdg","pricing_plan_id":"cebpf4jnsgd1na2vs0mg"},{"bike_id":"cdffe8fb-5e87-4eea-9d91-cbcec8c875bd","system_id":"levelo_inurba_marseille","lat":43.27493,"lon":5.424535,"is_reserved":false,"is_disabled":true,"rental_uris":{"android":"levelo://app?vid=cdffe8fb-5e87-4eea-9d91-cbcec8c875bd","ios":"levelo://app?vid=cdffe8fb-5e87-4eea-9d91-cbcec8c875bd"},"vehicle_type_id":"4","last_reported":1746169797,"current_range_meters":14800,"station_id":"ce4bhn92rcd13ifvqgrg","pricing_plan_id":"cebpf4jnsgd1na2vs0mg"},{"bike_id":"5d369739-b853-45f2-a4c9-d5d1cfd86e91","system_id":"levelo_inurba_marseille","lat":43.23195,"lon":5.35552,"is_reserved":false,"is_disabled":false,"rental_uris":{"android":"levelo://app?vid=5d369739-b853-45f2-a4c9-d5d1cfd86e91","ios":"levelo://app?vid=5d369739-b853-45f2-a4c9-d5d1cfd86e91"},"vehicle_type_id":"4","last_reported":1746169797,"current_range_meters":15200,"station_id":"ce4bhu92rcd13ifvqi70","pricing_plan_id":"cebpf4jnsgd1na2vs0mg"},{"bike_id":"43570242-c8cc-43fc-a26a-28bd415865fa","system_id":"levelo_inurba_marseille","lat":43.32485,"lon":5.36588,"is_reserved":false,"is_disabled":false,"rental_uris":{"android":"levelo://app?vid=43570242-c8cc-43fc-a26a-28bd415865fa","ios":"levelo://app?vid=43570242-c8cc-43fc-a26a-28bd415865fa"},"vehicle_type_id":"4","last_reported":1746169797,"current_range_meters":15200,"station_id":"ce4bhs12rcd13ifvqhvg","pricing_plan_id":"cebpf4jnsgd1na2vs0mg"},{"bike_id":"a5da6a65-99c1-4bec-a49d-d425f166bc1a","system_id":"levelo_inurba_marseille","lat":43.30947,"lon":5.39041,"is_reserved":false,"is_disabled":false,"rental_uris":{"android":"levelo://app?vid=a5da6a65-99c1-4bec-a49d-d425f166bc1a","ios":"levelo://app?vid=a5da6a65-99c1-4bec-a49d-d425f166bc1a"},"vehicle_type_id":"4","last_reported":1746169797,"current_range_meters":15200,"station_id":"ce4bgup2rcd13ifvqco0","pricing_plan_id":"cebpf4jnsgd1na2vs0mg"},{"bike_id":"f89fcb80-17ad-413b-ae91-9ca7544df656","system_id":"levelo_inurba_marseille","lat":43.24182,"lon":5.39727,"is_reserved":false,"is_disabled":false,"rental_uris":{"android":"levelo://app?vid=f89fcb80-17ad-413b-ae91-9ca7544df656","ios":"levelo://app?vid=f89fcb80-17ad-413b-ae91-9ca7544df656"},"vehicle_type_id":"4","last_reported":1746169797,"current_range_meters":16000,"station_id":"ce4bhn12rcd13ifvqgpg","pricing_plan_id":"cebpf4jnsgd1na2vs0mg"},{"bike_id":"fea90467-7b9b-451d-849d-003674ab8347","system_id":"levelo_inurba_marseille","lat":43.271823,"lon":5.392057,"is_reserved":false,"is_disabled":true,"rental_uris":{"android":"levelo://app?vid=fea90467-7b9b-451d-849d-003674ab8347","ios":"levelo://app?vid=fea90467-7b9b-451d-849d-003674ab8347"},"vehicle_type_id":"4","last_reported":1746169797,"current_range_meters":16000,"station_id":"ce4bhhp2rcd13ifvqfm0","pricing_plan_id":"cebpf4jnsgd1na2vs0mg"},{"bike_id":"da658829-0fa2-41f3-ad48-9d30aae08333","system_id":"levelo_inurba_marseille","lat":43.305711,"lon":5.399329,"is_reserved":false,"is_disabled":false,"rental_uris":{"android":"levelo://app?vid=da658829-0fa2-41f3-ad48-9d30aae08333","ios":"levelo://app?vid=da658829-0fa2-41f3-ad48-9d30aae08333"},"vehicle_type_id":"4","last_reported":1746169797,"current_range_meters":16000,"station_id":"","pricing_plan_id":"cebpf4jnsgd1na2vs0mg"},{"bike_id":"8b3ec479-d8ee-41d6-be01-673e6894d710","system_id":"levelo_inurba_marseille","lat":43.29034,"lon":5.39963,"is_reserved":false,"is_disabled":false,"rental_uris":{"android":"levelo://app?vid=8b3ec479-d8ee-41d6-be01-673e6894d710","ios":"levelo://app?vid=8b3ec479-d8ee-41d6-be01-673e6894d710"},"vehicle_type_id":"4","last_reported":1746169797,"current_range_meters":16000,"station_id":"ce4bh392rcd13ifvqdm0","pricing_plan_id":"cebpf4jnsgd1na2vs0mg"},{"bike_id":"fa8b55e8-446a-4324-87f4-1982d785d70b","system_id":"levelo_inurba_marseille","lat":43.30945,"lon":5.39027,"is_reserved":false,"is_disabled":false,"rental_uris":{"android":"levelo://app?vid=fa8b55e8-446a-4324-87f4-1982d785d70b","ios":"levelo://app?vid=fa8b55e8-446a-4324-87f4-1982d785d70b"},"vehicle_type_id":"4","last_reported":1746169797,"current_range_meters":16000,"station_id":"ce4bgup2rcd13ifvqco0","pricing_plan_id":"cebpf4jnsgd1na2vs0mg"},{"bike_id":"10c80c04-2a16-4acf-b639-131e747e5f9c","system_id":"levelo_inurba_marseille","lat":43.30464,"lon":5.37909,"is_reserved":false,"is_disabled":false,"rental_uris":{"android":"levelo://app?vid=10c80c04-2a16-4acf-b639-131e747e5f9c","ios":"levelo://app?vid=10c80c04-2a16-4acf-b639-131e747e5f9c"},"vehicle_type_id":"4","last_reported":1746169797,"current_range_meters":16000,"station_id":"ce4bgup2rcd13ifvqcn0","pricing_plan_id":"cebpf4jnsgd1na2vs0mg"},{"bike_id":"af5c4cc5-0a46-423f-b29c-acceba8c3144","system_id":"levelo_inurba_marseille","lat":43.23195,"lon":5.35551,"is_reserved":false,"is_disabled":false,"rental_uris":{"android":"levelo://app?vid=af5c4cc5-0a46-423f-b29c-acceba8c3144","ios":"levelo://app?vid=af5c4cc5-0a46-423f-b29c-acceba8c3144"},"vehicle_type_id":"4","last_reported":1746169797,"current_range_meters":16000,"station_id":"ce4bhu92rcd13ifvqi70","pricing_plan_id":"cebpf4jnsgd1na2vs0mg"},{"bike_id":"419c11bb-2e1d-4af8-bed2-cce85df9fc1e","system_id":"levelo_inurba_marseille","lat":43.29273,"lon":5.36844,"is_reserved":false,"is_disabled":false,"rental_uris":{"android":"levelo://app?vid=419c11bb-2e1d-4af8-bed2-cce85df9fc1e","ios":"levelo://app?vid=419c11bb-2e1d-4af8-bed2-cce85df9fc1e"},"vehicle_type_id":"4","last_reported":1746169797,"current_range_meters":16400,"station_id":"ce4bhbp2rcd13ifvqesg","pricing_plan_id":"cebpf4jnsgd1na2vs0mg"},{"bike_id":"68921982-9440-4ed6-a9fd-a5361982dcf6","system_id":"levelo_inurba_marseille","lat":43.26533,"lon":5.39084,"is_reserved":false,"is_disabled":true,"rental_uris":{"android":"levelo://app?vid=68921982-9440-4ed6-a9fd-a5361982dcf6","ios":"levelo://app?vid=68921982-9440-4ed6-a9fd-a5361982dcf6"},"vehicle_type_id":"4","last_reported":1746169797,"current_range_meters":16400,"station_id":"","pricing_plan_id":"cebpf4jnsgd1na2vs0mg"},{"bike_id":"89b81589-8611-4d99-b503-943f267f9a35","system_id":"levelo_inurba_marseille","lat":43.24175,"lon":5.36386,"is_reserved":false,"is_disabled":false,"rental_uris":{"android":"levelo://app?vid=89b81589-8611-4d99-b503-943f267f9a35","ios":"levelo://app?vid=89b81589-8611-4d99-b503-943f267f9a35"},"vehicle_type_id":"4","last_reported":1746169797,"current_range_meters":16400,"station_id":"cpo36qri1sfpv3e86is0","pricing_plan_id":"cebpf4jnsgd1na2vs0mg"},{"bike_id":"797678c2-2a74-405a-969c-a3661e5f47d1","system_id":"levelo_inurba_marseille","lat":43.29665,"lon":5.37287,"is_reserved":false,"is_disabled":false,"rental_uris":{"android":"levelo://app?vid=797678c2-2a74-405a-969c-a3661e5f47d1","ios":"levelo://app?vid=797678c2-2a74-405a-969c-a3661e5f47d1"},"vehicle_type_id":"4","last_reported":1746169797,"current_range_meters":16400,"station_id":"ce4bgk12rcd13ifvqbj0","pricing_plan_id":"cebpf4jnsgd1na2vs0mg"},{"bike_id":"fc4c4e12-8bd1-4978-b004-eee184fc087d","system_id":"levelo_inurba_marseille","lat":43.31685,"lon":5.40491,"is_reserved":false,"is_disabled":false,"rental_uris":{"android":"levelo://app?vid=fc4c4e12-8bd1-4978-b004-eee184fc087d","ios":"levelo://app?vid=fc4c4e12-8bd1-4978-b004-eee184fc087d"},"vehicle_type_id":"4","last_reported":1746169797,"current_range_meters":16400,"station_id":"ce4bh012rcd13ifvqd00","pricing_plan_id":"cebpf4jnsgd1na2vs0mg"},{"bike_id":"c35e9369-7aee-421c-a354-77373c2a95b0","system_id":"levelo_inurba_marseille","lat":43.32038,"lon":5.41556,"is_reserved":false,"is_disabled":false,"rental_uris":{"android":"levelo://app?vid=c35e9369-7aee-421c-a354-77373c2a95b0","ios":"levelo://app?vid=c35e9369-7aee-421c-a354-77373c2a95b0"},"vehicle_type_id":"4","last_reported":1746169797,"current_range_meters":16800,"station_id":"ce4bhq92rcd13ifvqhkg","pricing_plan_id":"cebpf4jnsgd1na2vs0mg"},{"bike_id":"39a356a6-2b28-407f-b093-d190e7a6974c","system_id":"levelo_inurba_marseille","lat":43.27997,"lon":5.41666,"is_reserved":false,"is_disabled":false,"rental_uris":{"android":"levelo://app?vid=39a356a6-2b28-407f-b093-d190e7a6974c","ios":"levelo://app?vid=39a356a6-2b28-407f-b093-d190e7a6974c"},"vehicle_type_id":"4","last_reported":1746169797,"current_range_meters":16800,"station_id":"ce4bho12rcd13ifvqh1g","pricing_plan_id":"cebpf4jnsgd1na2vs0mg"},{"bike_id":"f451153b-ef9f-4f9d-afc0-4e912b0e1f6f","system_id":"levelo_inurba_marseille","lat":43.31357,"lon":5.36723,"is_reserved":false,"is_disabled":false,"rental_uris":{"android":"levelo://app?vid=f451153b-ef9f-4f9d-afc0-4e912b0e1f6f","ios":"levelo://app?vid=f451153b-ef9f-4f9d-afc0-4e912b0e1f6f"},"vehicle_type_id":"4","last_reported":1746169797,"current_range_meters":16800,"station_id":"ce4bgr92rcd13ifvqc6g","pricing_plan_id":"cebpf4jnsgd1na2vs0mg"},{"bike_id":"408d0f78-822b-459f-b640-c83ccd645bfe","system_id":"levelo_inurba_marseille","lat":43.31495,"lon":5.37281,"is_reserved":false,"is_disabled":false,"rental_uris":{"android":"levelo://app?vid=408d0f78-822b-459f-b640-c83ccd645bfe","ios":"levelo://app?vid=408d0f78-822b-459f-b640-c83ccd645bfe"},"vehicle_type_id":"4","last_reported":1746169797,"current_range_meters":16800,"station_id":"ce4bgt12rcd13ifvqcd0","pricing_plan_id":"cebpf4jnsgd1na2vs0mg"},{"bike_id":"14498fc5-0949-4dab-96dd-86f8d2d8b6ad","system_id":"levelo_inurba_marseille","lat":43.31093,"lon":5.42449,"is_reserved":false,"is_disabled":true,"rental_uris":{"android":"levelo://app?vid=14498fc5-0949-4dab-96dd-86f8d2d8b6ad","ios":"levelo://app?vid=14498fc5-0949-4dab-96dd-86f8d2d8b6ad"},"vehicle_type_id":"4","last_reported":1746169797,"current_range_meters":16800,"station_id":"ce4bhp92rcd13ifvqhag","pricing_plan_id":"cebpf4jnsgd1na2vs0mg"},{"bike_id":"28907571-8a05-4e48-b05a-e42f423a7f82","system_id":"levelo_inurba_marseille","lat":43.26959,"lon":5.38634,"is_reserved":false,"is_disabled":false,"rental_uris":{"android":"levelo://app?vid=28907571-8a05-4e48-b05a-e42f423a7f82","ios":"levelo://app?vid=28907571-8a05-4e48-b05a-e42f423a7f82"},"vehicle_type_id":"4","last_reported":1746169797,"current_range_meters":16800,"station_id":"ce4bhh92rcd13ifvqfh0","pricing_plan_id":"cebpf4jnsgd1na2vs0mg"},{"bike_id":"5fd15870-1b92-4efa-95ea-745f6d882214","system_id":"levelo_inurba_marseille","lat":43.325497,"lon":5.41466,"is_reserved":false,"is_disabled":false,"rental_uris":{"android":"levelo://app?vid=5fd15870-1b92-4efa-95ea-745f6d882214","ios":"levelo://app?vid=5fd15870-1b92-4efa-95ea-745f6d882214"},"vehicle_type_id":"4","last_reported":1746169797,"current_range_meters":16800,"station_id":"ce4bhq12rcd13ifvqhhg","pricing_plan_id":"cebpf4jnsgd1na2vs0mg"},{"bike_id":"1db45e06-b676-41eb-b201-8ea0e9ed9c77","system_id":"levelo_inurba_marseille","lat":43.29557,"lon":5.42283,"is_reserved":false,"is_disabled":false,"rental_uris":{"android":"levelo://app?vid=1db45e06-b676-41eb-b201-8ea0e9ed9c77","ios":"levelo://app?vid=1db45e06-b676-41eb-b201-8ea0e9ed9c77"},"vehicle_type_id":"4","last_reported":1746169797,"current_range_meters":16800,"station_id":"ce4bhph2rcd13ifvqhdg","pricing_plan_id":"cebpf4jnsgd1na2vs0mg"},{"bike_id":"1afb7884-ce55-44ed-afc9-fa44e5ec6c6b","system_id":"levelo_inurba_marseille","lat":43.31348,"lon":5.36717,"is_reserved":false,"is_disabled":false,"rental_uris":{"android":"levelo://app?vid=1afb7884-ce55-44ed-afc9-fa44e5ec6c6b","ios":"levelo://app?vid=1afb7884-ce55-44ed-afc9-fa44e5ec6c6b"},"vehicle_type_id":"4","last_reported":1746169797,"current_range_meters":16800,"station_id":"ce4bgr92rcd13ifvqc6g","pricing_plan_id":"cebpf4jnsgd1na2vs0mg"},{"bike_id":"9d17772b-caca-47f8-899c-58aeb80c6bbb","system_id":"levelo_inurba_marseille","lat":43.29417,"lon":5.38619,"is_reserved":false,"is_disabled":false,"rental_uris":{"android":"levelo://app?vid=9d17772b-caca-47f8-899c-58aeb80c6bbb","ios":"levelo://app?vid=9d17772b-caca-47f8-899c-58aeb80c6bbb"},"vehicle_type_id":"4","last_reported":1746169797,"current_range_meters":16800,"station_id":"ce4bh2h2rcd13ifvqdh0","pricing_plan_id":"cebpf4jnsgd1na2vs0mg"},{"bike_id":"25ba12de-a64d-4158-a62c-786ad0d1f8b8","system_id":"levelo_inurba_marseille","lat":43.293706,"lon":5.378387,"is_reserved":false,"is_disabled":false,"rental_uris":{"android":"levelo://app?vid=25ba12de-a64d-4158-a62c-786ad0d1f8b8","ios":"levelo://app?vid=25ba12de-a64d-4158-a62c-786ad0d1f8b8"},"vehicle_type_id":"4","last_reported":1746169797,"current_range_meters":16800,"station_id":"ce4bgjh2rcd13ifvqbf0","pricing_plan_id":"cebpf4jnsgd1na2vs0mg"},{"bike_id":"6ca88b8d-a671-43ed-966a-07b7e6d6703d","system_id":"levelo_inurba_marseille","lat":43.30901,"lon":5.37178,"is_reserved":false,"is_disabled":false,"rental_uris":{"android":"levelo://app?vid=6ca88b8d-a671-43ed-966a-07b7e6d6703d","ios":"levelo://app?vid=6ca88b8d-a671-43ed-966a-07b7e6d6703d"},"vehicle_type_id":"4","last_reported":1746169797,"current_range_meters":16800,"station_id":"ce4bguh2rcd13ifvqckg","pricing_plan_id":"cebpf4jnsgd1na2vs0mg"},{"bike_id":"bd637518-3dca-49d4-8568-13280348053b","system_id":"levelo_inurba_marseille","lat":43.29795,"lon":5.38099,"is_reserved":false,"is_disabled":false,"rental_uris":{"android":"levelo://app?vid=bd637518-3dca-49d4-8568-13280348053b","ios":"levelo://app?vid=bd637518-3dca-49d4-8568-13280348053b"},"vehicle_type_id":"4","last_reported":1746169797,"current_range_meters":17200,"station_id":"ce4bgip2rcd13ifvqbb0","pricing_plan_id":"cebpf4jnsgd1na2vs0mg"},{"bike_id":"73d6cb51-f2e1-45c7-bd4e-295d494f1ba3","system_id":"levelo_inurba_marseille","lat":43.30913,"lon":5.3684,"is_reserved":false,"is_disabled":false,"rental_uris":{"android":"levelo://app?vid=73d6cb51-f2e1-45c7-bd4e-295d494f1ba3","ios":"levelo://app?vid=73d6cb51-f2e1-45c7-bd4e-295d494f1ba3"},"vehicle_type_id":"4","last_reported":1746169797,"current_range_meters":16800,"station_id":"ce4bgn92rcd13ifvqbvg","pricing_plan_id":"cebpf4jnsgd1na2vs0mg"},{"bike_id":"e222f8c9-3bac-4e42-8a25-82ab54564db0","system_id":"levelo_inurba_marseille","lat":43.27498,"lon":5.42445,"is_reserved":false,"is_disabled":false,"rental_uris":{"android":"levelo://app?vid=e222f8c9-3bac-4e42-8a25-82ab54564db0","ios":"levelo://app?vid=e222f8c9-3bac-4e42-8a25-82ab54564db0"},"vehicle_type_id":"4","last_reported":1746169797,"current_range_meters":17600,"station_id":"ce4bhn92rcd13ifvqgrg","pricing_plan_id":"cebpf4jnsgd1na2vs0mg"},{"bike_id":"334c6178-7bf9-463f-8bbd-2a66664ef9da","system_id":"levelo_inurba_marseille","lat":43.31715,"lon":5.37766,"is_reserved":false,"is_disabled":false,"rental_uris":{"android":"levelo://app?vid=334c6178-7bf9-463f-8bbd-2a66664ef9da","ios":"levelo://app?vid=334c6178-7bf9-463f-8bbd-2a66664ef9da"},"vehicle_type_id":"4","last_reported":1746169797,"current_range_meters":17200,"station_id":"ce4bgth2rcd13ifvqch0","pricing_plan_id":"cebpf4jnsgd1na2vs0mg"},{"bike_id":"b1a4767d-deb2-426b-93fc-660a6b9fbdc0","system_id":"levelo_inurba_marseille","lat":43.29316,"lon":5.40145,"is_reserved":false,"is_disabled":false,"rental_uris":{"android":"levelo://app?vid=b1a4767d-deb2-426b-93fc-660a6b9fbdc0","ios":"levelo://app?vid=b1a4767d-deb2-426b-93fc-660a6b9fbdc0"},"vehicle_type_id":"4","last_reported":1746169797,"current_range_meters":17600,"station_id":"","pricing_plan_id":"cebpf4jnsgd1na2vs0mg"},{"bike_id":"e22f0445-108f-4380-928e-35d0fcba19e1","system_id":"levelo_inurba_marseille","lat":43.29014,"lon":5.38126,"is_reserved":false,"is_disabled":false,"rental_uris":{"android":"levelo://app?vid=e22f0445-108f-4380-928e-35d0fcba19e1","ios":"levelo://app?vid=e22f0445-108f-4380-928e-35d0fcba19e1"},"vehicle_type_id":"4","last_reported":1746169797,"current_range_meters":17600,"station_id":"ce4bh4p2rcd13ifvqe1g","pricing_plan_id":"cebpf4jnsgd1na2vs0mg"},{"bike_id":"6493715c-bfa8-45f4-9122-b91f2d1d6e41","system_id":"levelo_inurba_marseille","lat":43.2455,"lon":5.39523,"is_reserved":false,"is_disabled":false,"rental_uris":{"android":"levelo://app?vid=6493715c-bfa8-45f4-9122-b91f2d1d6e41","ios":"levelo://app?vid=6493715c-bfa8-45f4-9122-b91f2d1d6e41"},"vehicle_type_id":"4","last_reported":1746169797,"current_range_meters":17200,"station_id":"ce4bhlp2rcd13ifvqgjg","pricing_plan_id":"cebpf4jnsgd1na2vs0mg"},{"bike_id":"de8c7cb1-f846-43b7-b55f-d09a21bc10a1","system_id":"levelo_inurba_marseille","lat":43.25836,"lon":5.39424,"is_reserved":false,"is_disabled":false,"rental_uris":{"android":"levelo://app?vid=de8c7cb1-f846-43b7-b55f-d09a21bc10a1","ios":"levelo://app?vid=de8c7cb1-f846-43b7-b55f-d09a21bc10a1"},"vehicle_type_id":"4","last_reported":1746169797,"current_range_meters":18000,"station_id":"ce4bhip2rcd13ifvqft0","pricing_plan_id":"cebpf4jnsgd1na2vs0mg"},{"bike_id":"257a3c78-b9d0-47f4-b131-12078df227b4","system_id":"levelo_inurba_marseille","lat":43.30493,"lon":5.37914,"is_reserved":false,"is_disabled":true,"rental_uris":{"android":"levelo://app?vid=257a3c78-b9d0-47f4-b131-12078df227b4","ios":"levelo://app?vid=257a3c78-b9d0-47f4-b131-12078df227b4"},"vehicle_type_id":"4","last_reported":1746169797,"current_range_meters":18000,"station_id":"ce4bgup2rcd13ifvqcn0","pricing_plan_id":"cebpf4jnsgd1na2vs0mg"},{"bike_id":"e65dd59a-9341-4960-9062-61c97aba8cb8","system_id":"levelo_inurba_marseille","lat":43.29839,"lon":5.36266,"is_reserved":false,"is_disabled":false,"rental_uris":{"android":"levelo://app?vid=e65dd59a-9341-4960-9062-61c97aba8cb8","ios":"levelo://app?vid=e65dd59a-9341-4960-9062-61c97aba8cb8"},"vehicle_type_id":"4","last_reported":1746169797,"current_range_meters":18000,"station_id":"ce4bgpp2rcd13ifvqc3g","pricing_plan_id":"cebpf4jnsgd1na2vs0mg"},{"bike_id":"bce70e28-5d5b-41b5-9bc1-36069ca69124","system_id":"levelo_inurba_marseille","lat":43.31742,"lon":5.39017,"is_reserved":false,"is_disabled":true,"rental_uris":{"android":"levelo://app?vid=bce70e28-5d5b-41b5-9bc1-36069ca69124","ios":"levelo://app?vid=bce70e28-5d5b-41b5-9bc1-36069ca69124"},"vehicle_type_id":"4","last_reported":1746169797,"current_range_meters":18000,"station_id":"ce4bhqp2rcd13ifvqhng","pricing_plan_id":"cebpf4jnsgd1na2vs0mg"},{"bike_id":"121322ff-1b29-4a85-88c0-1ab0c6c2dfb6","system_id":"levelo_inurba_marseille","lat":43.32488,"lon":5.36576,"is_reserved":false,"is_disabled":false,"rental_uris":{"android":"levelo://app?vid=121322ff-1b29-4a85-88c0-1ab0c6c2dfb6","ios":"levelo://app?vid=121322ff-1b29-4a85-88c0-1ab0c6c2dfb6"},"vehicle_type_id":"4","last_reported":1746169797,"current_range_meters":18000,"station_id":"ce4bhs12rcd13ifvqhvg","pricing_plan_id":"cebpf4jnsgd1na2vs0mg"},{"bike_id":"628fcfe9-d1d5-4a87-b97f-056bb7e6b982","system_id":"levelo_inurba_marseille","lat":43.28477,"lon":5.38413,"is_reserved":false,"is_disabled":false,"rental_uris":{"android":"levelo://app?vid=628fcfe9-d1d5-4a87-b97f-056bb7e6b982","ios":"levelo://app?vid=628fcfe9-d1d5-4a87-b97f-056bb7e6b982"},"vehicle_type_id":"4","last_reported":1746169797,"current_range_meters":17600,"station_id":"ce4bh512rcd13ifvqe3g","pricing_plan_id":"cebpf4jnsgd1na2vs0mg"},{"bike_id":"8c27b8ae-76fb-4a34-9566-9536d4e5935e","system_id":"levelo_inurba_marseille","lat":43.29294,"lon":5.40243,"is_reserved":false,"is_disabled":false,"rental_uris":{"android":"levelo://app?vid=8c27b8ae-76fb-4a34-9566-9536d4e5935e","ios":"levelo://app?vid=8c27b8ae-76fb-4a34-9566-9536d4e5935e"},"vehicle_type_id":"4","last_reported":1746169797,"current_range_meters":18800,"station_id":"","pricing_plan_id":"cebpf4jnsgd1na2vs0mg"},{"bike_id":"fb970dc0-2974-4aad-b2a9-f4298230f16a","system_id":"levelo_inurba_marseille","lat":43.23151,"lon":5.43712,"is_reserved":false,"is_disabled":false,"rental_uris":{"android":"levelo://app?vid=fb970dc0-2974-4aad-b2a9-f4298230f16a","ios":"levelo://app?vid=fb970dc0-2974-4aad-b2a9-f4298230f16a"},"vehicle_type_id":"4","last_reported":1746169797,"current_range_meters":18800,"station_id":"ce4bhmp2rcd13ifvqgog","pricing_plan_id":"cebpf4jnsgd1na2vs0mg"},{"bike_id":"d3c5b815-aeb9-4aa6-82d2-fc324eda72d0","system_id":"levelo_inurba_marseille","lat":43.24653,"lon":5.38892,"is_reserved":false,"is_disabled":false,"rental_uris":{"android":"levelo://app?vid=d3c5b815-aeb9-4aa6-82d2-fc324eda72d0","ios":"levelo://app?vid=d3c5b815-aeb9-4aa6-82d2-fc324eda72d0"},"vehicle_type_id":"4","last_reported":1746169797,"current_range_meters":18800,"station_id":"ce4bhg12rcd13ifvqf60","pricing_plan_id":"cebpf4jnsgd1na2vs0mg"},{"bike_id":"93649171-4459-4782-b5fe-da9af4a333dc","system_id":"levelo_inurba_marseille","lat":43.23592,"lon":5.40357,"is_reserved":false,"is_disabled":false,"rental_uris":{"android":"levelo://app?vid=93649171-4459-4782-b5fe-da9af4a333dc","ios":"levelo://app?vid=93649171-4459-4782-b5fe-da9af4a333dc"},"vehicle_type_id":"4","last_reported":1746169797,"current_range_meters":18800,"station_id":"","pricing_plan_id":"cebpf4jnsgd1na2vs0mg"},{"bike_id":"efaf1b5c-26d3-40d3-92e9-7f3883b8db84","system_id":"levelo_inurba_marseille","lat":43.31716,"lon":5.37709,"is_reserved":false,"is_disabled":false,"rental_uris":{"android":"levelo://app?vid=efaf1b5c-26d3-40d3-92e9-7f3883b8db84","ios":"levelo://app?vid=efaf1b5c-26d3-40d3-92e9-7f3883b8db84"},"vehicle_type_id":"4","last_reported":1746169797,"current_range_meters":18800,"station_id":"ce4bgth2rcd13ifvqch0","pricing_plan_id":"cebpf4jnsgd1na2vs0mg"},{"bike_id":"743e0db9-95cb-4331-8456-7fabac10b62b","system_id":"levelo_inurba_marseille","lat":43.31482,"lon":5.37289,"is_reserved":false,"is_disabled":false,"rental_uris":{"android":"levelo://app?vid=743e0db9-95cb-4331-8456-7fabac10b62b","ios":"levelo://app?vid=743e0db9-95cb-4331-8456-7fabac10b62b"},"vehicle_type_id":"4","last_reported":1746169797,"current_range_meters":18800,"station_id":"ce4bgt12rcd13ifvqcd0","pricing_plan_id":"cebpf4jnsgd1na2vs0mg"},{"bike_id":"eb8959cd-b002-41ac-9086-13f67f9a0bf4","system_id":"levelo_inurba_marseille","lat":43.2593,"lon":5.4091,"is_reserved":false,"is_disabled":false,"rental_uris":{"android":"levelo://app?vid=eb8959cd-b002-41ac-9086-13f67f9a0bf4","ios":"levelo://app?vid=eb8959cd-b002-41ac-9086-13f67f9a0bf4"},"vehicle_type_id":"4","last_reported":1746169797,"current_range_meters":18800,"station_id":"ce4bhm92rcd13ifvqglg","pricing_plan_id":"cebpf4jnsgd1na2vs0mg"},{"bike_id":"63980e88-f0bd-4c4a-a988-f3b794abe1d1","system_id":"levelo_inurba_marseille","lat":43.30528,"lon":5.36514,"is_reserved":false,"is_disabled":false,"rental_uris":{"android":"levelo://app?vid=63980e88-f0bd-4c4a-a988-f3b794abe1d1","ios":"levelo://app?vid=63980e88-f0bd-4c4a-a988-f3b794abe1d1"},"vehicle_type_id":"4","last_reported":1746169797,"current_range_meters":19200,"station_id":"ce4bgs12rcd13ifvqcag","pricing_plan_id":"cebpf4jnsgd1na2vs0mg"},{"bike_id":"144eae94-84d5-42b0-a739-b0ceeedc87f6","system_id":"levelo_inurba_marseille","lat":43.309479,"lon":5.390262,"is_reserved":false,"is_disabled":false,"rental_uris":{"android":"levelo://app?vid=144eae94-84d5-42b0-a739-b0ceeedc87f6","ios":"levelo://app?vid=144eae94-84d5-42b0-a739-b0ceeedc87f6"},"vehicle_type_id":"4","last_reported":1746169797,"current_range_meters":19200,"station_id":"ce4bgup2rcd13ifvqco0","pricing_plan_id":"cebpf4jnsgd1na2vs0mg"},{"bike_id":"8351fa19-aa0e-4318-b95b-f1fb285920d9","system_id":"levelo_inurba_marseille","lat":43.22916,"lon":5.3539,"is_reserved":false,"is_disabled":true,"rental_uris":{"android":"levelo://app?vid=8351fa19-aa0e-4318-b95b-f1fb285920d9","ios":"levelo://app?vid=8351fa19-aa0e-4318-b95b-f1fb285920d9"},"vehicle_type_id":"4","last_reported":1746169797,"current_range_meters":19200,"station_id":"cpo3532slgdg3j2ikp40","pricing_plan_id":"cebpf4jnsgd1na2vs0mg"},{"bike_id":"aea25399-c953-47c2-aee7-e13b0dd0cbd6","system_id":"levelo_inurba_marseille","lat":43.31536,"lon":5.38027,"is_reserved":false,"is_disabled":false,"rental_uris":{"android":"levelo://app?vid=aea25399-c953-47c2-aee7-e13b0dd0cbd6","ios":"levelo://app?vid=aea25399-c953-47c2-aee7-e13b0dd0cbd6"},"vehicle_type_id":"4","last_reported":1746169797,"current_range_meters":19200,"station_id":"ce4bhsp2rcd13ifvqi50","pricing_plan_id":"cebpf4jnsgd1na2vs0mg"},{"bike_id":"f7e54387-0e4d-4fd4-ac73-b1f9be8247e8","system_id":"levelo_inurba_marseille","lat":43.29274,"lon":5.36844,"is_reserved":false,"is_disabled":false,"rental_uris":{"android":"levelo://app?vid=f7e54387-0e4d-4fd4-ac73-b1f9be8247e8","ios":"levelo://app?vid=f7e54387-0e4d-4fd4-ac73-b1f9be8247e8"},"vehicle_type_id":"4","last_reported":1746169797,"current_range_meters":19600,"station_id":"ce4bhbp2rcd13ifvqesg","pricing_plan_id":"cebpf4jnsgd1na2vs0mg"},{"bike_id":"be7f7f8a-a6b9-47c4-87e0-a548330b814f","system_id":"levelo_inurba_marseille","lat":43.28616,"lon":5.35106,"is_reserved":false,"is_disabled":false,"rental_uris":{"android":"levelo://app?vid=be7f7f8a-a6b9-47c4-87e0-a548330b814f","ios":"levelo://app?vid=be7f7f8a-a6b9-47c4-87e0-a548330b814f"},"vehicle_type_id":"4","last_reported":1746169797,"current_range_meters":19600,"station_id":"ce4bhch2rcd13ifvqeug","pricing_plan_id":"cebpf4jnsgd1na2vs0mg"},{"bike_id":"d1f7e141-54c7-4ca0-9a3c-6c9ff12d4b73","system_id":"levelo_inurba_marseille","lat":43.26494,"lon":5.39544,"is_reserved":false,"is_disabled":false,"rental_uris":{"android":"levelo://app?vid=d1f7e141-54c7-4ca0-9a3c-6c9ff12d4b73","ios":"levelo://app?vid=d1f7e141-54c7-4ca0-9a3c-6c9ff12d4b73"},"vehicle_type_id":"4","last_reported":1746169797,"current_range_meters":19600,"station_id":"ce4bhi12rcd13ifvqfq0","pricing_plan_id":"cebpf4jnsgd1na2vs0mg"},{"bike_id":"256236db-3476-45f4-a83f-29a4ff78c56e","system_id":"levelo_inurba_marseille","lat":43.27056,"lon":5.40264,"is_reserved":false,"is_disabled":false,"rental_uris":{"android":"levelo://app?vid=256236db-3476-45f4-a83f-29a4ff78c56e","ios":"levelo://app?vid=256236db-3476-45f4-a83f-29a4ff78c56e"},"vehicle_type_id":"4","last_reported":1746169797,"current_range_meters":19600,"station_id":"ce4bhk92rcd13ifvqgc0","pricing_plan_id":"cebpf4jnsgd1na2vs0mg"},{"bike_id":"3a806dd9-2891-4b74-ba3c-337a406ee112","system_id":"levelo_inurba_marseille","lat":43.24072,"lon":5.37754,"is_reserved":false,"is_disabled":false,"rental_uris":{"android":"levelo://app?vid=3a806dd9-2891-4b74-ba3c-337a406ee112","ios":"levelo://app?vid=3a806dd9-2891-4b74-ba3c-337a406ee112"},"vehicle_type_id":"4","last_reported":1746169797,"current_range_meters":19200,"station_id":"ce4bhnp2rcd13ifvqgvg","pricing_plan_id":"cebpf4jnsgd1na2vs0mg"},{"bike_id":"c27137da-9fac-4f5b-9d19-80ac6fedb0b9","system_id":"levelo_inurba_marseille","lat":43.265627,"lon":5.390146,"is_reserved":false,"is_disabled":false,"rental_uris":{"android":"levelo://app?vid=c27137da-9fac-4f5b-9d19-80ac6fedb0b9","ios":"levelo://app?vid=c27137da-9fac-4f5b-9d19-80ac6fedb0b9"},"vehicle_type_id":"4","last_reported":1746169797,"current_range_meters":19600,"station_id":"ce4bhe12rcd13ifvqf30","pricing_plan_id":"cebpf4jnsgd1na2vs0mg"},{"bike_id":"812ca73a-1295-4b71-a9fa-705aa49b3c05","system_id":"levelo_inurba_marseille","lat":43.26779,"lon":5.39424,"is_reserved":false,"is_disabled":false,"rental_uris":{"android":"levelo://app?vid=812ca73a-1295-4b71-a9fa-705aa49b3c05","ios":"levelo://app?vid=812ca73a-1295-4b71-a9fa-705aa49b3c05"},"vehicle_type_id":"4","last_reported":1746169797,"current_range_meters":20000,"station_id":"ce4bhh12rcd13ifvqfg0","pricing_plan_id":"cebpf4jnsgd1na2vs0mg"},{"bike_id":"7d1a9982-56f7-4afa-9eb5-6a3308abcc10","system_id":"levelo_inurba_marseille","lat":43.31697,"lon":5.40465,"is_reserved":false,"is_disabled":false,"rental_uris":{"android":"levelo://app?vid=7d1a9982-56f7-4afa-9eb5-6a3308abcc10","ios":"levelo://app?vid=7d1a9982-56f7-4afa-9eb5-6a3308abcc10"},"vehicle_type_id":"4","last_reported":1746169797,"current_range_meters":20000,"station_id":"ce4bh012rcd13ifvqd00","pricing_plan_id":"cebpf4jnsgd1na2vs0mg"},{"bike_id":"ac6eee95-ffe9-4b98-9ee9-fb3c6a03f560","system_id":"levelo_inurba_marseille","lat":43.30151,"lon":5.38072,"is_reserved":false,"is_disabled":false,"rental_uris":{"android":"levelo://app?vid=ac6eee95-ffe9-4b98-9ee9-fb3c6a03f560","ios":"levelo://app?vid=ac6eee95-ffe9-4b98-9ee9-fb3c6a03f560"},"vehicle_type_id":"4","last_reported":1746169797,"current_range_meters":20000,"station_id":"ce4bgjp2rcd13ifvqbh0","pricing_plan_id":"cebpf4jnsgd1na2vs0mg"},{"bike_id":"a533ea96-1465-4866-94c8-df5a8922279a","system_id":"levelo_inurba_marseille","lat":43.33729,"lon":5.39183,"is_reserved":false,"is_disabled":false,"rental_uris":{"android":"levelo://app?vid=a533ea96-1465-4866-94c8-df5a8922279a","ios":"levelo://app?vid=a533ea96-1465-4866-94c8-df5a8922279a"},"vehicle_type_id":"4","last_reported":1746169797,"current_range_meters":20000,"station_id":"","pricing_plan_id":"cebpf4jnsgd1na2vs0mg"},{"bike_id":"6cd25f68-0449-47ba-a92b-e058c9c26168","system_id":"levelo_inurba_marseille","lat":43.288946,"lon":5.36103,"is_reserved":false,"is_disabled":false,"rental_uris":{"android":"levelo://app?vid=6cd25f68-0449-47ba-a92b-e058c9c26168","ios":"levelo://app?vid=6cd25f68-0449-47ba-a92b-e058c9c26168"},"vehicle_type_id":"4","last_reported":1746169797,"current_range_meters":20000,"station_id":"ce4bhc92rcd13ifvqetg","pricing_plan_id":"cebpf4jnsgd1na2vs0mg"},{"bike_id":"e1155ce3-6a3d-4475-b987-cd619dfcd382","system_id":"levelo_inurba_marseille","lat":43.24384,"lon":5.37055,"is_reserved":false,"is_disabled":false,"rental_uris":{"android":"levelo://app?vid=e1155ce3-6a3d-4475-b987-cd619dfcd382","ios":"levelo://app?vid=e1155ce3-6a3d-4475-b987-cd619dfcd382"},"vehicle_type_id":"4","last_reported":1746169797,"current_range_meters":20000,"station_id":"ce4bhhh2rcd13ifvqfk0","pricing_plan_id":"cebpf4jnsgd1na2vs0mg"},{"bike_id":"13a42e04-6481-4c46-a478-44486a9233b1","system_id":"levelo_inurba_marseille","lat":43.31467,"lon":5.37298,"is_reserved":false,"is_disabled":false,"rental_uris":{"android":"levelo://app?vid=13a42e04-6481-4c46-a478-44486a9233b1","ios":"levelo://app?vid=13a42e04-6481-4c46-a478-44486a9233b1"},"vehicle_type_id":"4","last_reported":1746169797,"current_range_meters":20000,"station_id":"ce4bgt12rcd13ifvqcd0","pricing_plan_id":"cebpf4jnsgd1na2vs0mg"},{"bike_id":"d0d7d2d3-4dad-492a-b94b-a30cf66608d0","system_id":"levelo_inurba_marseille","lat":43.30407,"lon":5.39696,"is_reserved":false,"is_disabled":false,"rental_uris":{"android":"levelo://app?vid=d0d7d2d3-4dad-492a-b94b-a30cf66608d0","ios":"levelo://app?vid=d0d7d2d3-4dad-492a-b94b-a30cf66608d0"},"vehicle_type_id":"4","last_reported":1746169797,"current_range_meters":20000,"station_id":"ce4bh092rcd13ifvqd20","pricing_plan_id":"cebpf4jnsgd1na2vs0mg"},{"bike_id":"597372d1-e377-4b1d-87c7-63453be0db72","system_id":"levelo_inurba_marseille","lat":43.29277,"lon":5.36852,"is_reserved":false,"is_disabled":false,"rental_uris":{"android":"levelo://app?vid=597372d1-e377-4b1d-87c7-63453be0db72","ios":"levelo://app?vid=597372d1-e377-4b1d-87c7-63453be0db72"},"vehicle_type_id":"4","last_reported":1746169797,"current_range_meters":20400,"station_id":"ce4bhbp2rcd13ifvqesg","pricing_plan_id":"cebpf4jnsgd1na2vs0mg"},{"bike_id":"df8deca6-caca-445b-b96b-4b530dffc00d","system_id":"levelo_inurba_marseille","lat":43.24071,"lon":5.37764,"is_reserved":false,"is_disabled":false,"rental_uris":{"android":"levelo://app?vid=df8deca6-caca-445b-b96b-4b530dffc00d","ios":"levelo://app?vid=df8deca6-caca-445b-b96b-4b530dffc00d"},"vehicle_type_id":"4","last_reported":1746169797,"current_range_meters":20400,"station_id":"ce4bhnp2rcd13ifvqgvg","pricing_plan_id":"cebpf4jnsgd1na2vs0mg"},{"bike_id":"f1094f93-fd43-4c0c-8aa6-ebefd9701c01","system_id":"levelo_inurba_marseille","lat":43.30266,"lon":5.37706,"is_reserved":false,"is_disabled":false,"rental_uris":{"android":"levelo://app?vid=f1094f93-fd43-4c0c-8aa6-ebefd9701c01","ios":"levelo://app?vid=f1094f93-fd43-4c0c-8aa6-ebefd9701c01"},"vehicle_type_id":"4","last_reported":1746169797,"current_range_meters":20400,"station_id":"ce4bguh2rcd13ifvqcj0","pricing_plan_id":"cebpf4jnsgd1na2vs0mg"},{"bike_id":"7ad6e8e8-4d18-486c-a162-b3a23d49866e","system_id":"levelo_inurba_marseille","lat":43.28952,"lon":5.39611,"is_reserved":false,"is_disabled":false,"rental_uris":{"android":"levelo://app?vid=7ad6e8e8-4d18-486c-a162-b3a23d49866e","ios":"levelo://app?vid=7ad6e8e8-4d18-486c-a162-b3a23d49866e"},"vehicle_type_id":"4","last_reported":1746169797,"current_range_meters":20800,"station_id":"ce4bh3h2rcd13ifvqdn0","pricing_plan_id":"cebpf4jnsgd1na2vs0mg"},{"bike_id":"2415f42e-55c0-4a5f-bb1d-9f19bc0ca913","system_id":"levelo_inurba_marseille","lat":43.30156,"lon":5.38081,"is_reserved":false,"is_disabled":false,"rental_uris":{"android":"levelo://app?vid=2415f42e-55c0-4a5f-bb1d-9f19bc0ca913","ios":"levelo://app?vid=2415f42e-55c0-4a5f-bb1d-9f19bc0ca913"},"vehicle_type_id":"4","last_reported":1746169797,"current_range_meters":20800,"station_id":"ce4bgjp2rcd13ifvqbh0","pricing_plan_id":"cebpf4jnsgd1na2vs0mg"},{"bike_id":"bc9b10eb-a079-4f0d-857a-d487abb50ec2","system_id":"levelo_inurba_marseille","lat":43.27604,"lon":5.36121,"is_reserved":false,"is_disabled":true,"rental_uris":{"android":"levelo://app?vid=bc9b10eb-a079-4f0d-857a-d487abb50ec2","ios":"levelo://app?vid=bc9b10eb-a079-4f0d-857a-d487abb50ec2"},"vehicle_type_id":"4","last_reported":1746169797,"current_range_meters":20800,"station_id":"ce4bgj92rcd13ifvqbe0","pricing_plan_id":"cebpf4jnsgd1na2vs0mg"},{"bike_id":"43d45349-e520-4783-8e56-675fede4e13a","system_id":"levelo_inurba_marseille","lat":43.289592,"lon":5.364755,"is_reserved":false,"is_disabled":false,"rental_uris":{"android":"levelo://app?vid=43d45349-e520-4783-8e56-675fede4e13a","ios":"levelo://app?vid=43d45349-e520-4783-8e56-675fede4e13a"},"vehicle_type_id":"4","last_reported":1746169797,"current_range_meters":20800,"station_id":"ce4bhc92rcd13ifvqetg","pricing_plan_id":"cebpf4jnsgd1na2vs0mg"},{"bike_id":"265605f6-7e8b-4de2-a229-612de470878a","system_id":"levelo_inurba_marseille","lat":43.27061,"lon":5.40264,"is_reserved":false,"is_disabled":false,"rental_uris":{"android":"levelo://app?vid=265605f6-7e8b-4de2-a229-612de470878a","ios":"levelo://app?vid=265605f6-7e8b-4de2-a229-612de470878a"},"vehicle_type_id":"4","last_reported":1746169797,"current_range_meters":20800,"station_id":"ce4bhk92rcd13ifvqgc0","pricing_plan_id":"cebpf4jnsgd1na2vs0mg"},{"bike_id":"5673c4b3-7c27-4a4f-b394-6cf74acdba78","system_id":"levelo_inurba_marseille","lat":43.29045,"lon":5.39956,"is_reserved":false,"is_disabled":false,"rental_uris":{"android":"levelo://app?vid=5673c4b3-7c27-4a4f-b394-6cf74acdba78","ios":"levelo://app?vid=5673c4b3-7c27-4a4f-b394-6cf74acdba78"},"vehicle_type_id":"4","last_reported":1746169797,"current_range_meters":20800,"station_id":"ce4bh392rcd13ifvqdm0","pricing_plan_id":"cebpf4jnsgd1na2vs0mg"},{"bike_id":"6e5978d6-de64-47c0-99f8-b5d78d75c802","system_id":"levelo_inurba_marseille","lat":43.305232,"lon":5.365795,"is_reserved":false,"is_disabled":false,"rental_uris":{"android":"levelo://app?vid=6e5978d6-de64-47c0-99f8-b5d78d75c802","ios":"levelo://app?vid=6e5978d6-de64-47c0-99f8-b5d78d75c802"},"vehicle_type_id":"4","last_reported":1746169797,"current_range_meters":21600,"station_id":"ce4bgs12rcd13ifvqcag","pricing_plan_id":"cebpf4jnsgd1na2vs0mg"},{"bike_id":"5aaa0796-22cb-4134-8a3c-e3f47465c117","system_id":"levelo_inurba_marseille","lat":43.330006,"lon":5.438557,"is_reserved":false,"is_disabled":false,"rental_uris":{"android":"levelo://app?vid=5aaa0796-22cb-4134-8a3c-e3f47465c117","ios":"levelo://app?vid=5aaa0796-22cb-4134-8a3c-e3f47465c117"},"vehicle_type_id":"4","last_reported":1746169797,"current_range_meters":21600,"station_id":"","pricing_plan_id":"cebpf4jnsgd1na2vs0mg"},{"bike_id":"46870161-f881-4670-bcda-f942981fca77","system_id":"levelo_inurba_marseille","lat":43.245427,"lon":5.395264,"is_reserved":false,"is_disabled":true,"rental_uris":{"android":"levelo://app?vid=46870161-f881-4670-bcda-f942981fca77","ios":"levelo://app?vid=46870161-f881-4670-bcda-f942981fca77"},"vehicle_type_id":"4","last_reported":1746169797,"current_range_meters":21600,"station_id":"ce4bhlp2rcd13ifvqgjg","pricing_plan_id":"cebpf4jnsgd1na2vs0mg"},{"bike_id":"0e68a1ad-1ec9-4bf4-a4c2-229b6e9922f9","system_id":"levelo_inurba_marseille","lat":43.3123,"lon":5.3687,"is_reserved":false,"is_disabled":false,"rental_uris":{"android":"levelo://app?vid=0e68a1ad-1ec9-4bf4-a4c2-229b6e9922f9","ios":"levelo://app?vid=0e68a1ad-1ec9-4bf4-a4c2-229b6e9922f9"},"vehicle_type_id":"4","last_reported":1746169797,"current_range_meters":21600,"station_id":"ce4bgl92rcd13ifvqbq0","pricing_plan_id":"cebpf4jnsgd1na2vs0mg"},{"bike_id":"3481d71a-e6e0-43a6-95f9-0e8e315a647b","system_id":"levelo_inurba_marseille","lat":43.324898,"lon":5.365665,"is_reserved":false,"is_disabled":false,"rental_uris":{"android":"levelo://app?vid=3481d71a-e6e0-43a6-95f9-0e8e315a647b","ios":"levelo://app?vid=3481d71a-e6e0-43a6-95f9-0e8e315a647b"},"vehicle_type_id":"4","last_reported":1746169797,"current_range_meters":20800,"station_id":"ce4bhs12rcd13ifvqhvg","pricing_plan_id":"cebpf4jnsgd1na2vs0mg"},{"bike_id":"baf4561c-9bda-477a-8871-110377773ec1","system_id":"levelo_inurba_marseille","lat":43.281499,"lon":5.426537,"is_reserved":false,"is_disabled":false,"rental_uris":{"android":"levelo://app?vid=baf4561c-9bda-477a-8871-110377773ec1","ios":"levelo://app?vid=baf4561c-9bda-477a-8871-110377773ec1"},"vehicle_type_id":"4","last_reported":1746169797,"current_range_meters":22000,"station_id":"ce4bhnh2rcd13ifvqgug","pricing_plan_id":"cebpf4jnsgd1na2vs0mg"},{"bike_id":"c47d8af0-6608-459a-ae32-46349610263f","system_id":"levelo_inurba_marseille","lat":43.31884,"lon":5.40736,"is_reserved":false,"is_disabled":false,"rental_uris":{"android":"levelo://app?vid=c47d8af0-6608-459a-ae32-46349610263f","ios":"levelo://app?vid=c47d8af0-6608-459a-ae32-46349610263f"},"vehicle_type_id":"4","last_reported":1746169797,"current_range_meters":22000,"station_id":"ce4bhq12rcd13ifvqhig","pricing_plan_id":"cebpf4jnsgd1na2vs0mg"},{"bike_id":"e0ceefc0-61c9-406f-91eb-ef69db9dbe42","system_id":"levelo_inurba_marseille","lat":43.26114,"lon":5.41469,"is_reserved":false,"is_disabled":false,"rental_uris":{"android":"levelo://app?vid=e0ceefc0-61c9-406f-91eb-ef69db9dbe42","ios":"levelo://app?vid=e0ceefc0-61c9-406f-91eb-ef69db9dbe42"},"vehicle_type_id":"4","last_reported":1746169797,"current_range_meters":22000,"station_id":"","pricing_plan_id":"cebpf4jnsgd1na2vs0mg"},{"bike_id":"020bed76-6abf-4c2f-a3e7-f8f36cacf88f","system_id":"levelo_inurba_marseille","lat":43.23964,"lon":5.36635,"is_reserved":false,"is_disabled":false,"rental_uris":{"android":"levelo://app?vid=020bed76-6abf-4c2f-a3e7-f8f36cacf88f","ios":"levelo://app?vid=020bed76-6abf-4c2f-a3e7-f8f36cacf88f"},"vehicle_type_id":"4","last_reported":1746169797,"current_range_meters":22000,"station_id":"ce4bhi12rcd13ifvqfp0","pricing_plan_id":"cebpf4jnsgd1na2vs0mg"},{"bike_id":"b4c5fa3f-21e4-45ac-874c-a536ce7e90eb","system_id":"levelo_inurba_marseille","lat":43.30272,"lon":5.37713,"is_reserved":false,"is_disabled":false,"rental_uris":{"android":"levelo://app?vid=b4c5fa3f-21e4-45ac-874c-a536ce7e90eb","ios":"levelo://app?vid=b4c5fa3f-21e4-45ac-874c-a536ce7e90eb"},"vehicle_type_id":"4","last_reported":1746169797,"current_range_meters":22000,"station_id":"ce4bguh2rcd13ifvqcj0","pricing_plan_id":"cebpf4jnsgd1na2vs0mg"},{"bike_id":"e9c0d3e2-68a6-4e73-87d0-d42881df72de","system_id":"levelo_inurba_marseille","lat":43.25822,"lon":5.39414,"is_reserved":false,"is_disabled":false,"rental_uris":{"android":"levelo://app?vid=e9c0d3e2-68a6-4e73-87d0-d42881df72de","ios":"levelo://app?vid=e9c0d3e2-68a6-4e73-87d0-d42881df72de"},"vehicle_type_id":"4","last_reported":1746169797,"current_range_meters":21600,"station_id":"ce4bhip2rcd13ifvqft0","pricing_plan_id":"cebpf4jnsgd1na2vs0mg"},{"bike_id":"d4a68adb-1c58-40c4-948b-5030d56b0223","system_id":"levelo_inurba_marseille","lat":43.32126,"lon":5.36816,"is_reserved":false,"is_disabled":false,"rental_uris":{"android":"levelo://app?vid=d4a68adb-1c58-40c4-948b-5030d56b0223","ios":"levelo://app?vid=d4a68adb-1c58-40c4-948b-5030d56b0223"},"vehicle_type_id":"4","last_reported":1746169797,"current_range_meters":22000,"station_id":"","pricing_plan_id":"cebpf4jnsgd1na2vs0mg"},