{"last_updated":1728252472,"ttl":60,"version":"2.2","data":{"bikes":[{"bike_id":"6dfe646a-1d59-458e-a351-73e41db2a61c","system_id":"levelo_inurba_marseille","lat":43.31891,"lon":5.40733,"is_reserved":false,"is_disabled":false,"rental_uris":{"android":"levelo://app?vid=6dfe646a-1d59-458e-a351-73e41db2a61c","ios":"levelo://app?vid=6dfe646a-1d59-458e-a351-73e41db2a61c"},"vehicle_type_id":"4","last_reported":1728252473,"current_range_meters":37600,"station_id":"ce4bhq12rcd13ifvqhig","pricing_plan_id":"cebpf4jnsgd1na2vs0mg"},{"bike_id":"1683a247-7daa-4167-ac82-a263e4f3cd5b","system_id":"levelo_inurba_marseille","lat":43.25081,"lon":5.39519,"is_reserved":false,"is_disabled":false,"rental_uris":{"android":"levelo://app?vid=1683a247-7daa-4167-ac82-a263e4f3cd5b","ios":"levelo://app?vid=1683a247-7daa-4167-ac82-a263e4f3cd5b"},"vehicle_type_id":"4","last_reported":1728252473,"current_range_meters":38800,"station_id":"ce4bhm12rcd13ifvqgkg","pricing_plan_id":"cebpf4jnsgd1na2vs0mg"},{"bike_id":"ffb50058-5078-4c2d-89a8-70983b69fe9b","system_id":"levelo_inurba_marseille","lat":43.284054,"lon":5.375248,"is_reserved":false,"is_disabled":false,"rental_uris":{"android":"levelo://app?vid=ffb50058-5078-4c2d-89a8-70983b69fe9b","ios":"levelo://app?vid=ffb50058-5078-4c2d-89a8-70983b69fe9b"},"vehicle_type_id":"4","last_reported":1728252473,"current_range_meters":28000,"station_id":"ce4bh412rcd13ifvqds0","pricing_plan_id":"cebpf4jnsgd1na2vs0mg"},{"bike_id":"c01b4f63-5885-414c-997b-2941ee91f21f","system_id":"levelo_inurba_marseille","lat":43.29305,"lon":5.37456,"is_reserved":false,"is_disabled":false,"rental_uris":{"android":"levelo://app?vid=c01b4f63-5885-414c-997b-2941ee91f21f","ios":"levelo://app?vid=c01b4f63-5885-414c-997b-2941ee91f21f"},"vehicle_type_id":"4","last_reported":1728252473,"current_range_meters":38000,"station_id":"ce4bgi12rcd13ifvqb70","pricing_plan_id":"cebpf4jnsgd1na2vs0mg"},{"bike_id":"07d432b9-404b-43e5-8aed-9265d6827336","system_id":"levelo_inurba_marseille","lat":43.24392,"lon":5.37054,"is_reserved":false,"is_disabled":false,"rental_uris":{"android":"levelo://app?vid=07d432b9-404b-43e5-8aed-9265d6827336","ios":"levelo://app?vid=07d432b9-404b-43e5-8aed-9265d6827336"},"vehicle_type_id":"4","last_reported":1728252473,"current_range_meters":31200,"station_id":"ce4bhhh2rcd13ifvqfk0","pricing_plan_id":"cebpf4jnsgd1na2vs0mg"},{"bike_id":"3edccbad-c604-40df-acb2-6e9d91b67298","system_id":"levelo_inurba_marseille","lat":43.23057,"lon":5.35493,"is_reserved":false,"is_disabled":false,"rental_uris":{"android":"levelo://app?vid=3edccbad-c604-40df-acb2-6e9d91b67298","ios":"levelo://app?vid=3edccbad-c604-40df-acb2-6e9d91b67298"},"vehicle_type_id":"4","last_reported":1728252473,"current_range_meters":24400,"station_id":"cpo3342slgdg3j2ifvpg","pricing_plan_id":"cebpf4jnsgd1na2vs0mg"},{"bike_id":"5c05045a-75f7-4086-9f51-f646714515ec","system_id":"levelo_inurba_marseille","lat":43.28545,"lon":5.39503,"is_reserved":false,"is_disabled":false,"rental_uris":{"android":"levelo://app?vid=5c05045a-75f7-4086-9f51-f646714515ec","ios":"levelo://app?vid=5c05045a-75f7-4086-9f51-f646714515ec"},"vehicle_type_id":"4","last_reported":1728252473,"current_range_meters":34800,"station_id":"ce4bh292rcd13ifvqdg0","pricing_plan_id":"cebpf4jnsgd1na2vs0mg"},{"bike_id":"6e39b554-957d-41b1-9b50-f6e7bbcd6957","system_id":"levelo_inurba_marseille","lat":43.24071,"lon":5.37764,"is_reserved":false,"is_disabled":false,"rental_uris":{"android":"levelo://app?vid=6e39b554-957d-41b1-9b50-f6e7bbcd6957","ios":"levelo://app?vid=6e39b554-957d-41b1-9b50-f6e7bbcd6957"},"vehicle_type_id":"4","last_reported":1728252473,"current_range_meters":38800,"station_id":"ce4bhnp2rcd13ifvqgvg","pricing_plan_id":"cebpf4jnsgd1na2vs0mg"},{"bike_id":"a39bfa3a-60f9-417c-bc69-78650d749b25","system_id":"levelo_inurba_marseille","lat":43.27989,"lon":5.4166,"is_reserved":false,"is_disabled":false,"rental_uris":{"android":"levelo://app?vid=a39bfa3a-60f9-417c-bc69-78650d749b25","ios":"levelo://app?vid=a39bfa3a-60f9-417c-bc69-78650d749b25"},"vehicle_type_id":"4","last_reported":1728252473,"current_range_meters":19200,"station_id":"ce4bho12rcd13ifvqh1g","pricing_plan_id":"cebpf4jnsgd1na2vs0mg"},{"bike_id":"e9d78d4d-95a4-429d-888e-fcf6c9e9e0c2","system_id":"levelo_inurba_marseille","lat":43.29569,"lon":5.37514,"is_reserved":false,"is_disabled":false,"rental_uris":{"android":"levelo://app?vid=e9d78d4d-95a4-429d-888e-fcf6c9e9e0c2","ios":"levelo://app?vid=e9d78d4d-95a4-429d-888e-fcf6c9e9e0c2"},"vehicle_type_id":"4","last_reported":1728252473,"current_range_meters":16000,"station_id":"ce4bgh92rcd13ifvqb50","pricing_plan_id":"cebpf4jnsgd1na2vs0mg"},{"bike_id":"1ad003a9-be67-4652-b1c6-a0312551fb2c","system_id":"levelo_inurba_marseille","lat":43.28662,"lon":5.3635,"is_reserved":false,"is_disabled":false,"rental_uris":{"android":"levelo://app?vid=1ad003a9-be67-4652-b1c6-a0312551fb2c","ios":"levelo://app?vid=1ad003a9-be67-4652-b1c6-a0312551fb2c"},"vehicle_type_id":"4","last_reported":1728252473,"current_range_meters":39200,"station_id":"ce4bhah2rcd13ifvqej0","pricing_plan_id":"cebpf4jnsgd1na2vs0mg"},{"bike_id":"3d3e93be-8a67-4628-9af2-2661c9a0daa4","system_id":"levelo_inurba_marseille","lat":43.22936,"lon":5.35381,"is_reserved":false,"is_disabled":false,"rental_uris":{"android":"levelo://app?vid=3d3e93be-8a67-4628-9af2-2661c9a0daa4","ios":"levelo://app?vid=3d3e93be-8a67-4628-9af2-2661c9a0daa4"},"vehicle_type_id":"4","last_reported":1728252473,"current_range_meters":34800,"station_id":"cpo3532slgdg3j2ikp40","pricing_plan_id":"cebpf4jnsgd1na2vs0mg"},{"bike_id":"83bd8e08-648e-4fc6-8901-05219804adac","system_id":"levelo_inurba_marseille","lat":43.22936,"lon":5.35378,"is_reserved":false,"is_disabled":false,"rental_uris":{"android":"levelo://app?vid=83bd8e08-648e-4fc6-8901-05219804adac","ios":"levelo://app?vid=83bd8e08-648e-4fc6-8901-05219804adac"},"vehicle_type_id":"4","last_reported":1728252473,"current_range_meters":28400,"station_id":"cpo3532slgdg3j2ikp40","pricing_plan_id":"cebpf4jnsgd1na2vs0mg"},{"bike_id":"ba1b3c02-e4c1-4a58-b229-cf59f4f91c13","system_id":"levelo_inurba_marseille","lat":43.3042,"lon":5.41282,"is_reserved":false,"is_disabled":false,"rental_uris":{"android":"levelo://app?vid=ba1b3c02-e4c1-4a58-b229-cf59f4f91c13","ios":"levelo://app?vid=ba1b3c02-e4c1-4a58-b229-cf59f4f91c13"},"vehicle_type_id":"4","last_reported":1728252473,"current_range_meters":7200,"station_id":"ce4bhop2rcd13ifvqh8g","pricing_plan_id":"cebpf4jnsgd1na2vs0mg"},{"bike_id":"1b183f6f-c373-4934-87ad-52ad2e80dde3","system_id":"levelo_inurba_marseille","lat":43.3373,"lon":5.39184,"is_reserved":false,"is_disabled":false,"rental_uris":{"android":"levelo://app?vid=1b183f6f-c373-4934-87ad-52ad2e80dde3","ios":"levelo://app?vid=1b183f6f-c373-4934-87ad-52ad2e80dde3"},"vehicle_type_id":"4","last_reported":1728252473,"current_range_meters":28800,"station_id":"ce4bhr92rcd13ifvqhsg","pricing_plan_id":"cebpf4jnsgd1na2vs0mg"},{"bike_id":"81b07a05-4c57-4e76-99d6-5f6e3acbb201","system_id":"levelo_inurba_marseille","lat":43.23061,"lon":5.35496,"is_reserved":false,"is_disabled":false,"rental_uris":{"android":"levelo://app?vid=81b07a05-4c57-4e76-99d6-5f6e3acbb201","ios":"levelo://app?vid=81b07a05-4c57-4e76-99d6-5f6e3acbb201"},"vehicle_type_id":"4","last_reported":1728252473,"current_range_meters":16400,"station_id":"cpo3342slgdg3j2ifvpg","pricing_plan_id":"cebpf4jnsgd1na2vs0mg"},{"bike_id":"3a99c055-67e4-4a33-8788-b3e630857fba","system_id":"levelo_inurba_marseille","lat":43.308838,"lon":5.371899,"is_reserved":false,"is_disabled":false,"rental_uris":{"android":"levelo://app?vid=3a99c055-67e4-4a33-8788-b3e630857fba","ios":"levelo://app?vid=3a99c055-67e4-4a33-8788-b3e630857fba"},"vehicle_type_id":"4","last_reported":1728252473,"current_range_meters":24400,"station_id":"ce4bgl92rcd13ifvqbq0","pricing_plan_id":"cebpf4jnsgd1na2vs0mg"},{"bike_id":"7b5acb30-7728-4d2f-b8de-cc88114cf385","system_id":"levelo_inurba_marseille","lat":43.23152,"lon":5.43727,"is_reserved":false,"is_disabled":false,"rental_uris":{"android":"levelo://app?vid=7b5acb30-7728-4d2f-b8de-cc88114cf385","ios":"levelo://app?vid=7b5acb30-7728-4d2f-b8de-cc88114cf385"},"vehicle_type_id":"4","last_reported":1728252473,"current_range_meters":39200,"station_id":"ce4bhmp2rcd13ifvqgog","pricing_plan_id":"cebpf4jnsgd1na2vs0mg"},{"bike_id":"9f567c8d-a712-4380-9484-ef3c7ecb9609","system_id":"levelo_inurba_marseille","lat":43.30592,"lon":5.39347,"is_reserved":false,"is_disabled":false,"rental_uris":{"android":"levelo://app?vid=9f567c8d-a712-4380-9484-ef3c7ecb9609","ios":"levelo://app?vid=9f567c8d-a712-4380-9484-ef3c7ecb9609"},"vehicle_type_id":"4","last_reported":1728252473,"current_range_meters":37600,"station_id":"ce4bh0p2rcd13ifvqd80","pricing_plan_id":"cebpf4jnsgd1na2vs0mg"},{"bike_id":"d685cdd8-2cc7-41fe-ac8f-064af163f6fd","system_id":"levelo_inurba_marseille","lat":43.27554,"lon":5.38408,"is_reserved":false,"is_disabled":false,"rental_uris":{"android":"levelo://app?vid=d685cdd8-2cc7-41fe-ac8f-064af163f6fd","ios":"levelo://app?vid=d685cdd8-2cc7-41fe-ac8f-064af163f6fd"},"vehicle_type_id":"4","last_reported":1728252473,"current_range_meters":25600,"station_id":"ce4bhh92rcd13ifvqfi0","pricing_plan_id":"cebpf4jnsgd1na2vs0mg"},{"bike_id":"4d9c0f2f-ec87-45dc-b4e8-9be9be397a90","system_id":"levelo_inurba_marseille","lat":43.30349,"lon":5.41872,"is_reserved":false,"is_disabled":false,"rental_uris":{"android":"levelo://app?vid=4d9c0f2f-ec87-45dc-b4e8-9be9be397a90","ios":"levelo://app?vid=4d9c0f2f-ec87-45dc-b4e8-9be9be397a90"},"vehicle_type_id":"4","last_reported":1728252473,"current_range_meters":32800,"station_id":"ce4bhop2rcd13ifvqh7g","pricing_plan_id":"cebpf4jnsgd1na2vs0mg"},{"bike_id":"249ba857-c21a-4cf9-b612-6eace3a3311f","system_id":"levelo_inurba_marseille","lat":43.2707,"lon":5.42276,"is_reserved":false,"is_disabled":false,"rental_uris":{"android":"levelo://app?vid=249ba857-c21a-4cf9-b612-6eace3a3311f","ios":"levelo://app?vid=249ba857-c21a-4cf9-b612-6eace3a3311f"},"vehicle_type_id":"4","last_reported":1728252473,"current_range_meters":24400,"station_id":"ce4bhk92rcd13ifvqgb0","pricing_plan_id":"cebpf4jnsgd1na2vs0mg"},{"bike_id":"32ab325a-0e98-4bb3-809c-c26d46577549","system_id":"levelo_inurba_marseille","lat":43.22929,"lon":5.3538,"is_reserved":false,"is_disabled":false,"rental_uris":{"android":"levelo://app?vid=32ab325a-0e98-4bb3-809c-c26d46577549","ios":"levelo://app?vid=32ab325a-0e98-4bb3-809c-c26d46577549"},"vehicle_type_id":"4","last_reported":1728252473,"current_range_meters":24800,"station_id":"cpo3532slgdg3j2ikp40","pricing_plan_id":"cebpf4jnsgd1na2vs0mg"},{"bike_id":"21814611-01da-4a56-bde2-76253f0cdaa1","system_id":"levelo_inurba_marseille","lat":43.27072,"lon":5.42273,"is_reserved":false,"is_disabled":false,"rental_uris":{"android":"levelo://app?vid=21814611-01da-4a56-bde2-76253f0cdaa1","ios":"levelo://app?vid=21814611-01da-4a56-bde2-76253f0cdaa1"},"vehicle_type_id":"4","last_reported":1728252473,"current_range_meters":38000,"station_id":"ce4bhk92rcd13ifvqgb0","pricing_plan_id":"cebpf4jnsgd1na2vs0mg"},{"bike_id":"c87ae6bc-af8e-48bc-8433-c3a42ec521e9","system_id":"levelo_inurba_marseille","lat":43.292538,"lon":5.40897,"is_reserved":false,"is_disabled":false,"rental_uris":{"android":"levelo://app?vid=c87ae6bc-af8e-48bc-8433-c3a42ec521e9","ios":"levelo://app?vid=c87ae6bc-af8e-48bc-8433-c3a42ec521e9"},"vehicle_type_id":"4","last_reported":1728252473,"current_range_meters":2800,"station_id":"ce4bh192rcd13ifvqdc0","pricing_plan_id":"cebpf4jnsgd1na2vs0mg"},{"bike_id":"2617a4eb-f153-4c7e-b1d6-ce61b849d29c","system_id":"levelo_inurba_marseille","lat":43.28941,"lon":5.39621,"is_reserved":false,"is_disabled":false,"rental_uris":{"android":"levelo://app?vid=2617a4eb-f153-4c7e-b1d6-ce61b849d29c","ios":"levelo://app?vid=2617a4eb-f153-4c7e-b1d6-ce61b849d29c"},"vehicle_type_id":"4","last_reported":1728252473,"current_range_meters":17600,"station_id":"ce4bh3h2rcd13ifvqdn0","pricing_plan_id":"cebpf4jnsgd1na2vs0mg"},{"bike_id":"03ebdfef-60b9-4383-b780-f6e10ef5dff9","system_id":"levelo_inurba_marseille","lat":43.33748,"lon":5.37433,"is_reserved":false,"is_disabled":false,"rental_uris":{"android":"levelo://app?vid=03ebdfef-60b9-4383-b780-f6e10ef5dff9","ios":"levelo://app?vid=03ebdfef-60b9-4383-b780-f6e10ef5dff9"},"vehicle_type_id":"4","last_reported":1728252473,"current_range_meters":24800,"station_id":"","pricing_plan_id":"cebpf4jnsgd1na2vs0mg"},{"bike_id":"2345fb5f-209d-4ace-ba8e-e17ce21fb05b","system_id":"levelo_inurba_marseille","lat":43.30098,"lon":5.3908,"is_reserved":false,"is_disabled":false,"rental_uris":{"android":"levelo://app?vid=2345fb5f-209d-4ace-ba8e-e17ce21fb05b","ios":"levelo://app?vid=2345fb5f-209d-4ace-ba8e-e17ce21fb05b"},"vehicle_type_id":"4","last_reported":1728252473,"current_range_meters":29600,"station_id":"ce4bh192rcd13ifvqdb0","pricing_plan_id":"cebpf4jnsgd1na2vs0mg"},{"bike_id":"8cf23727-fc4e-4c93-882a-71dd981736a7","system_id":"levelo_inurba_marseille","lat":43.30886,"lon":5.39626,"is_reserved":false,"is_disabled":false,"rental_uris":{"android":"levelo://app?vid=8cf23727-fc4e-4c93-882a-71dd981736a7","ios":"levelo://app?vid=8cf23727-fc4e-4c93-882a-71dd981736a7"},"vehicle_type_id":"4","last_reported":1728252473,"current_range_meters":24000,"station_id":"ce4bh012rcd13ifvqcv0","pricing_plan_id":"cebpf4jnsgd1na2vs0mg"},{"bike_id":"8c4ede2a-8479-4951-912b-e9104b176599","system_id":"levelo_inurba_marseille","lat":43.33726,"lon":5.39193,"is_reserved":false,"is_disabled":false,"rental_uris":{"android":"levelo://app?vid=8c4ede2a-8479-4951-912b-e9104b176599","ios":"levelo://app?vid=8c4ede2a-8479-4951-912b-e9104b176599"},"vehicle_type_id":"4","last_reported":1728252473,"current_range_meters":6400,"station_id":"ce4bhr92rcd13ifvqhsg","pricing_plan_id":"cebpf4jnsgd1na2vs0mg"},{"bike_id":"5af4be8f-9e9c-491e-a64b-e706a69bc035","system_id":"levelo_inurba_marseille","lat":43.29839,"lon":5.40535,"is_reserved":false,"is_disabled":false,"rental_uris":{"android":"levelo://app?vid=5af4be8f-9e9c-491e-a64b-e706a69bc035","ios":"levelo://app?vid=5af4be8f-9e9c-491e-a64b-e706a69bc035"},"vehicle_type_id":"4","last_reported":1728252473,"current_range_meters":14000,"station_id":"","pricing_plan_id":"cebpf4jnsgd1na2vs0mg"},{"bike_id":"dde5a1c3-072e-489b-8ecd-fcf0ca5f51cd","system_id":"levelo_inurba_marseille","lat":43.28706,"lon":5.39981,"is_reserved":false,"is_disabled":false,"rental_uris":{"android":"levelo://app?vid=dde5a1c3-072e-489b-8ecd-fcf0ca5f51cd","ios":"levelo://app?vid=dde5a1c3-072e-489b-8ecd-fcf0ca5f51cd"},"vehicle_type_id":"4","last_reported":1728252473,"current_range_meters":36000,"station_id":"ce4bho92rcd13ifvqh3g","pricing_plan_id":"cebpf4jnsgd1na2vs0mg"},{"bike_id":"86eeea58-2039-4141-a427-be58987e3711","system_id":"levelo_inurba_marseille","lat":43.29218,"lon":5.39333,"is_reserved":false,"is_disabled":false,"rental_uris":{"android":"levelo://app?vid=86eeea58-2039-4141-a427-be58987e3711","ios":"levelo://app?vid=86eeea58-2039-4141-a427-be58987e3711"},"vehicle_type_id":"4","last_reported":1728252473,"current_range_meters":38800,"station_id":"ce4bh192rcd13ifvqdd0","pricing_plan_id":"cebpf4jnsgd1na2vs0mg"},{"bike_id":"4018fa26-9a2a-4214-af21-76b3667a940b","system_id":"levelo_inurba_marseille","lat":43.33768,"lon":5.37413,"is_reserved":false,"is_disabled":false,"rental_uris":{"android":"levelo://app?vid=4018fa26-9a2a-4214-af21-76b3667a940b","ios":"levelo://app?vid=4018fa26-9a2a-4214-af21-76b3667a940b"},"vehicle_type_id":"4","last_reported":1728252473,"current_range_meters":26000,"station_id":"","pricing_plan_id":"cebpf4jnsgd1na2vs0mg"},{"bike_id":"1c171f7c-ff3e-4912-9b7b-48ee5d0e2652","system_id":"levelo_inurba_marseille","lat":43.30574,"lon":5.39347,"is_reserved":false,"is_disabled":false,"rental_uris":{"android":"levelo://app?vid=1c171f7c-ff3e-4912-9b7b-48ee5d0e2652","ios":"levelo://app?vid=1c171f7c-ff3e-4912-9b7b-48ee5d0e2652"},"vehicle_type_id":"4","last_reported":1728252473,"current_range_meters":38800,"station_id":"ce4bh0p2rcd13ifvqd80","pricing_plan_id":"cebpf4jnsgd1na2vs0mg"},{"bike_id":"47eac1fe-2ca6-4418-8b2f-3564461491d6","system_id":"levelo_inurba_marseille","lat":43.27915,"lon":5.39573,"is_reserved":false,"is_disabled":false,"rental_uris":{"android":"levelo://app?vid=47eac1fe-2ca6-4418-8b2f-3564461491d6","ios":"levelo://app?vid=47eac1fe-2ca6-4418-8b2f-3564461491d6"},"vehicle_type_id":"4","last_reported":1728252473,"current_range_meters":28400,"station_id":"ce4bhf92rcd13ifvqf40","pricing_plan_id":"cebpf4jnsgd1na2vs0mg"},{"bike_id":"35db5aab-a536-4286-87d7-90ec43783f24","system_id":"levelo_inurba_marseille","lat":43.23194,"lon":5.35551,"is_reserved":false,"is_disabled":false,"rental_uris":{"android":"levelo://app?vid=35db5aab-a536-4286-87d7-90ec43783f24","ios":"levelo://app?vid=35db5aab-a536-4286-87d7-90ec43783f24"},"vehicle_type_id":"4","last_reported":1728252473,"current_range_meters":38000,"station_id":"ce4bhu92rcd13ifvqi70","pricing_plan_id":"cebpf4jnsgd1na2vs0mg"},{"bike_id":"ac7477e2-647f-4698-b2f1-05ac6bd7ca79","system_id":"levelo_inurba_marseille","lat":43.27371,"lon":5.36247,"is_reserved":false,"is_disabled":false,"rental_uris":{"android":"levelo://app?vid=ac7477e2-647f-4698-b2f1-05ac6bd7ca79","ios":"levelo://app?vid=ac7477e2-647f-4698-b2f1-05ac6bd7ca79"},"vehicle_type_id":"4","last_reported":1728252473,"current_range_meters":30800,"station_id":"ce4bhbh2rcd13ifvqeo0","pricing_plan_id":"cebpf4jnsgd1na2vs0mg"},{"bike_id":"7a9ac661-9227-40b0-99b2-dbe41dda9b6a","system_id":"levelo_inurba_marseille","lat":43.31483,"lon":5.37303,"is_reserved":false,"is_disabled":false,"rental_uris":{"android":"levelo://app?vid=7a9ac661-9227-40b0-99b2-dbe41dda9b6a","ios":"levelo://app?vid=7a9ac661-9227-40b0-99b2-dbe41dda9b6a"},"vehicle_type_id":"4","last_reported":1728252473,"current_range_meters":38800,"station_id":"ce4bgt12rcd13ifvqcd0","pricing_plan_id":"cebpf4jnsgd1na2vs0mg"},{"bike_id":"c741a1ea-b8fe-42a2-9765-5a12d8f6719f","system_id":"levelo_inurba_marseille","lat":43.310773,"lon":5.383521,"is_reserved":false,"is_disabled":false,"rental_uris":{"android":"levelo://app?vid=c741a1ea-b8fe-42a2-9765-5a12d8f6719f","ios":"levelo://app?vid=c741a1ea-b8fe-42a2-9765-5a12d8f6719f"},"vehicle_type_id":"4","last_reported":1728252473,"current_range_meters":6400,"station_id":"ce4bgv92rcd13ifvqcr0","pricing_plan_id":"cebpf4jnsgd1na2vs0mg"},{"bike_id":"62dfd99c-f976-4937-b2d0-5b50f5ae699f","system_id":"levelo_inurba_marseille","lat":43.24169,"lon":5.36401,"is_reserved":false,"is_disabled":false,"rental_uris":{"android":"levelo://app?vid=62dfd99c-f976-4937-b2d0-5b50f5ae699f","ios":"levelo://app?vid=62dfd99c-f976-4937-b2d0-5b50f5ae699f"},"vehicle_type_id":"4","last_reported":1728252473,"current_range_meters":13600,"station_id":"cpo36qri1sfpv3e86is0","pricing_plan_id":"cebpf4jnsgd1na2vs0mg"},{"bike_id":"39f34bbe-4113-4187-87c3-7aa3b4c7636d","system_id":"levelo_inurba_marseille","lat":43.28331,"lon":5.38099,"is_reserved":false,"is_disabled":false,"rental_uris":{"android":"levelo://app?vid=39f34bbe-4113-4187-87c3-7aa3b4c7636d","ios":"levelo://app?vid=39f34bbe-4113-4187-87c3-7aa3b4c7636d"},"vehicle_type_id":"4","last_reported":1728252473,"current_range_meters":8800,"station_id":"ce4bh412rcd13ifvqdr0","pricing_plan_id":"cebpf4jnsgd1na2vs0mg"},{"bike_id":"491813ec-5bcd-4eda-acb2-c01ccb4e9894","system_id":"levelo_inurba_marseille","lat":43.33753,"lon":5.37435,"is_reserved":false,"is_disabled":false,"rental_uris":{"android":"levelo://app?vid=491813ec-5bcd-4eda-acb2-c01ccb4e9894","ios":"levelo://app?vid=491813ec-5bcd-4eda-acb2-c01ccb4e9894"},"vehicle_type_id":"4","last_reported":1728252473,"current_range_meters":25200,"station_id":"","pricing_plan_id":"cebpf4jnsgd1na2vs0mg"},{"bike_id":"23c14b3c-a751-4109-bb74-0ad6b39787af","system_id":"levelo_inurba_marseille","lat":43.24075,"lon":5.37757,"is_reserved":false,"is_disabled":false,"rental_uris":{"android":"levelo://app?vid=23c14b3c-a751-4109-bb74-0ad6b39787af","ios":"levelo://app?vid=23c14b3c-a751-4109-bb74-0ad6b39787af"},"vehicle_type_id":"4","last_reported":1728252473,"current_range_meters":38800,"station_id":"ce4bhnp2rcd13ifvqgvg","pricing_plan_id":"cebpf4jnsgd1na2vs0mg"},{"bike_id":"c4afd6a3-a875-408a-b534-9c21a771ecb6","system_id":"levelo_inurba_marseille","lat":43.28671,"lon":5.36344,"is_reserved":false,"is_disabled":false,"rental_uris":{"android":"levelo://app?vid=c4afd6a3-a875-408a-b534-9c21a771ecb6","ios":"levelo://app?vid=c4afd6a3-a875-408a-b534-9c21a771ecb6"},"vehicle_type_id":"4","last_reported":1728252473,"current_range_meters":37600,"station_id":"ce4bhah2rcd13ifvqej0","pricing_plan_id":"cebpf4jnsgd1na2vs0mg"},{"bike_id":"8066cbd9-6f5f-4c8b-82e0-670217342883","system_id":"levelo_inurba_marseille","lat":43.24542,"lon":5.39526,"is_reserved":false,"is_disabled":false,"rental_uris":{"android":"levelo://app?vid=8066cbd9-6f5f-4c8b-82e0-670217342883","ios":"levelo://app?vid=8066cbd9-6f5f-4c8b-82e0-670217342883"},"vehicle_type_id":"4","last_reported":1728252473,"current_range_meters":30800,"station_id":"ce4bhlp2rcd13ifvqgjg","pricing_plan_id":"cebpf4jnsgd1na2vs0mg"},{"bike_id":"870ecdbf-3528-4277-82a5-269de3374c1c","system_id":"levelo_inurba_marseille","lat":43.27066,"lon":5.42282,"is_reserved":false,"is_disabled":false,"rental_uris":{"android":"levelo://app?vid=870ecdbf-3528-4277-82a5-269de3374c1c","ios":"levelo://app?vid=870ecdbf-3528-4277-82a5-269de3374c1c"},"vehicle_type_id":"4","last_reported":1728252473,"current_range_meters":38800,"station_id":"ce4bhk92rcd13ifvqgb0","pricing_plan_id":"cebpf4jnsgd1na2vs0mg"},{"bike_id":"a7c8a6a7-5a32-4a07-be5d-f4b583728d14","system_id":"levelo_inurba_marseille","lat":43.27556,"lon":5.38418,"is_reserved":false,"is_disabled":false,"rental_uris":{"android":"levelo://app?vid=a7c8a6a7-5a32-4a07-be5d-f4b583728d14","ios":"levelo://app?vid=a7c8a6a7-5a32-4a07-be5d-f4b583728d14"},"vehicle_type_id":"4","last_reported":1728252473,"current_range_meters":38800,"station_id":"ce4bhh92rcd13ifvqfi0","pricing_plan_id":"cebpf4jnsgd1na2vs0mg"},{"bike_id":"baba7691-81ff-4c7d-90d9-c89eba9696cb","system_id":"levelo_inurba_marseille","lat":43.25928,"lon":5.40908,"is_reserved":false,"is_disabled":false,"rental_uris":{"android":"levelo://app?vid=baba7691-81ff-4c7d-90d9-c89eba9696cb","ios":"levelo://app?vid=baba7691-81ff-4c7d-90d9-c89eba9696cb"},"vehicle_type_id":"4","last_reported":1728252473,"current_range_meters":30000,"station_id":"ce4bhm92rcd13ifvqglg","pricing_plan_id":"cebpf4jnsgd1na2vs0mg"},{"bike_id":"00548726-27c5-4faf-9bb3-764c91ffaba8","system_id":"levelo_inurba_marseille","lat":43.30661,"lon":5.4009,"is_reserved":false,"is_disabled":false,"rental_uris":{"android":"levelo://app?vid=00548726-27c5-4faf-9bb3-764c91ffaba8","ios":"levelo://app?vid=00548726-27c5-4faf-9bb3-764c91ffaba8"},"vehicle_type_id":"4","last_reported":1728252473,"current_range_meters":12800,"station_id":"ce4bh112rcd13ifvqda0","pricing_plan_id":"cebpf4jnsgd1na2vs0mg"},{"bike_id":"ee5a2003-1fbb-4b27-884a-acd217a98149","system_id":"levelo_inurba_marseille","lat":43.29031,"lon":5.39966,"is_reserved":false,"is_disabled":false,"rental_uris":{"android":"levelo://app?vid=ee5a2003-1fbb-4b27-884a-acd217a98149","ios":"levelo://app?vid=ee5a2003-1fbb-4b27-884a-acd217a98149"},"vehicle_type_id":"4","last_reported":1728252473,"current_range_meters":8400,"station_id":"ce4bh392rcd13ifvqdm0","pricing_plan_id":"cebpf4jnsgd1na2vs0mg"},{"bike_id":"c619e285-38ac-4c34-bcad-92900c7ea1b1","system_id":"levelo_inurba_marseille","lat":43.30786,"lon":5.38163,"is_reserved":false,"is_disabled":false,"rental_uris":{"android":"levelo://app?vid=c619e285-38ac-4c34-bcad-92900c7ea1b1","ios":"levelo://app?vid=c619e285-38ac-4c34-bcad-92900c7ea1b1"},"vehicle_type_id":"4","last_reported":1728252473,"current_range_meters":21600,"station_id":"ce4bgt12rcd13ifvqce0","pricing_plan_id":"cebpf4jnsgd1na2vs0mg"},{"bike_id":"c906ace6-02e9-4f80-ad21-12688e141ebb","system_id":"levelo_inurba_marseille","lat":43.30954,"lon":5.3904,"is_reserved":false,"is_disabled":false,"rental_uris":{"android":"levelo://app?vid=c906ace6-02e9-4f80-ad21-12688e141ebb","ios":"levelo://app?vid=c906ace6-02e9-4f80-ad21-12688e141ebb"},"vehicle_type_id":"4","last_reported":1728252473,"current_range_meters":31200,"station_id":"ce4bgup2rcd13ifvqco0","pricing_plan_id":"cebpf4jnsgd1na2vs0mg"},{"bike_id":"6ae7d0e0-1623-4439-8d68-fec3c5db110c","system_id":"levelo_inurba_marseille","lat":43.22932,"lon":5.35378,"is_reserved":false,"is_disabled":false,"rental_uris":{"android":"levelo://app?vid=6ae7d0e0-1623-4439-8d68-fec3c5db110c","ios":"levelo://app?vid=6ae7d0e0-1623-4439-8d68-fec3c5db110c"},"vehicle_type_id":"4","last_reported":1728252473,"current_range_meters":36000,"station_id":"cpo3532slgdg3j2ikp40","pricing_plan_id":"cebpf4jnsgd1na2vs0mg"},{"bike_id":"4af55307-045f-4c66-a045-a91d88bb4c16","system_id":"levelo_inurba_marseille","lat":43.22931,"lon":5.35376,"is_reserved":false,"is_disabled":false,"rental_uris":{"android":"levelo://app?vid=4af55307-045f-4c66-a045-a91d88bb4c16","ios":"levelo://app?vid=4af55307-045f-4c66-a045-a91d88bb4c16"},"vehicle_type_id":"4","last_reported":1728252473,"current_range_meters":28800,"station_id":"cpo3532slgdg3j2ikp40","pricing_plan_id":"cebpf4jnsgd1na2vs0mg"},{"bike_id":"e1b524e6-03eb-4607-981b-c6c2b07008ab","system_id":"levelo_inurba_marseille","lat":43.24667,"lon":5.381707,"is_reserved":false,"is_disabled":false,"rental_uris":{"android":"levelo://app?vid=e1b524e6-03eb-4607-981b-c6c2b07008ab","ios":"levelo://app?vid=e1b524e6-03eb-4607-981b-c6c2b07008ab"},"vehicle_type_id":"4","last_reported":1728252473,"current_range_meters":38800,"station_id":"ce4bhih2rcd13ifvqfr0","pricing_plan_id":"cebpf4jnsgd1na2vs0mg"},{"bike_id":"92ac950a-8e1b-4f8b-baee-0ef65bc2473a","system_id":"levelo_inurba_marseille","lat":43.28701,"lon":5.39976,"is_reserved":false,"is_disabled":false,"rental_uris":{"android":"levelo://app?vid=92ac950a-8e1b-4f8b-baee-0ef65bc2473a","ios":"levelo://app?vid=92ac950a-8e1b-4f8b-baee-0ef65bc2473a"},"vehicle_type_id":"4","last_reported":1728252473,"current_range_meters":14000,"station_id":"ce4bho92rcd13ifvqh3g","pricing_plan_id":"cebpf4jnsgd1na2vs0mg"},{"bike_id":"13a35d1a-1c21-4cdd-9282-17040c700716","system_id":"levelo_inurba_marseille","lat":43.32538,"lon":5.41435,"is_reserved":false,"is_disabled":false,"rental_uris":{"android":"levelo://app?vid=13a35d1a-1c21-4cdd-9282-17040c700716","ios":"levelo://app?vid=13a35d1a-1c21-4cdd-9282-17040c700716"},"vehicle_type_id":"4","last_reported":1728252473,"current_range_meters":32800,"station_id":"ce4bhq12rcd13ifvqhhg","pricing_plan_id":"cebpf4jnsgd1na2vs0mg"},{"bike_id":"6482b1fb-67cb-4384-a7c9-6c0a7b56e3b4","system_id":"levelo_inurba_marseille","lat":43.2885,"lon":5.4333,"is_reserved":false,"is_disabled":false,"rental_uris":{"android":"levelo://app?vid=6482b1fb-67cb-4384-a7c9-6c0a7b56e3b4","ios":"levelo://app?vid=6482b1fb-67cb-4384-a7c9-6c0a7b56e3b4"},"vehicle_type_id":"4","last_reported":1728252473,"current_range_meters":8400,"station_id":"","pricing_plan_id":"cebpf4jnsgd1na2vs0mg"},{"bike_id":"50406f60-0d84-42f0-94b7-a1203815bff7","system_id":"levelo_inurba_marseille","lat":43.3078,"lon":5.376525,"is_reserved":false,"is_disabled":false,"rental_uris":{"android":"levelo://app?vid=50406f60-0d84-42f0-94b7-a1203815bff7","ios":"levelo://app?vid=50406f60-0d84-42f0-94b7-a1203815bff7"},"vehicle_type_id":"4","last_reported":1728252473,"current_range_meters":23200,"station_id":"","pricing_plan_id":"cebpf4jnsgd1na2vs0mg"},{"bike_id":"265b6257-cac5-4700-be81-5022c39ebf02","system_id":"levelo_inurba_marseille","lat":43.24544,"lon":5.39523,"is_reserved":false,"is_disabled":false,"rental_uris":{"android":"levelo://app?vid=265b6257-cac5-4700-be81-5022c39ebf02","ios":"levelo://app?vid=265b6257-cac5-4700-be81-5022c39ebf02"},"vehicle_type_id":"4","last_reported":1728252473,"current_range_meters":30000,"station_id":"ce4bhlp2rcd13ifvqgjg","pricing_plan_id":"cebpf4jnsgd1na2vs0mg"},{"bike_id":"fd814ad2-288d-477b-ac17-45ebc511da82","system_id":"levelo_inurba_marseille","lat":43.32366,"lon":5.38885,"is_reserved":false,"is_disabled":false,"rental_uris":{"android":"levelo://app?vid=fd814ad2-288d-477b-ac17-45ebc511da82","ios":"levelo://app?vid=fd814ad2-288d-477b-ac17-45ebc511da82"},"vehicle_type_id":"4","last_reported":1728252473,"current_range_meters":38800,"station_id":"ce4bhqp2rcd13ifvqhog","pricing_plan_id":"cebpf4jnsgd1na2vs0mg"},{"bike_id":"458f5828-3d56-4435-88db-2bbc4971abb9","system_id":"levelo_inurba_marseille","lat":43.23187,"lon":5.39981,"is_reserved":false,"is_disabled":false,"rental_uris":{"android":"levelo://app?vid=458f5828-3d56-4435-88db-2bbc4971abb9","ios":"levelo://app?vid=458f5828-3d56-4435-88db-2bbc4971abb9"},"vehicle_type_id":"4","last_reported":1728252473,"current_range_meters":38800,"station_id":"ce4bhn12rcd13ifvqgqg","pricing_plan_id":"cebpf4jnsgd1na2vs0mg"},{"bike_id":"c63cfc07-9615-48b0-a2f9-23a6bb6d16fd","system_id":"levelo_inurba_marseille","lat":43.28342,"lon":5.38106,"is_reserved":false,"is_disabled":false,"rental_uris":{"android":"levelo://app?vid=c63cfc07-9615-48b0-a2f9-23a6bb6d16fd","ios":"levelo://app?vid=c63cfc07-9615-48b0-a2f9-23a6bb6d16fd"},"vehicle_type_id":"4","last_reported":1728252473,"current_range_meters":18800,"station_id":"ce4bh412rcd13ifvqdr0","pricing_plan_id":"cebpf4jnsgd1na2vs0mg"},{"bike_id":"97ef281f-c717-429c-a078-d6a368902950","system_id":"levelo_inurba_marseille","lat":43.24164,"lon":5.36397,"is_reserved":false,"is_disabled":false,"rental_uris":{"android":"levelo://app?vid=97ef281f-c717-429c-a078-d6a368902950","ios":"levelo://app?vid=97ef281f-c717-429c-a078-d6a368902950"},"vehicle_type_id":"4","last_reported":1728252473,"current_range_meters":23200,"station_id":"cpo36qri1sfpv3e86is0","pricing_plan_id":"cebpf4jnsgd1na2vs0mg"},{"bike_id":"a7bfd1cb-5231-41aa-9b35-15039466acfd","system_id":"levelo_inurba_marseille","lat":43.30953,"lon":5.39026,"is_reserved":false,"is_disabled":false,"rental_uris":{"android":"levelo://app?vid=a7bfd1cb-5231-41aa-9b35-15039466acfd","ios":"levelo://app?vid=a7bfd1cb-5231-41aa-9b35-15039466acfd"},"vehicle_type_id":"4","last_reported":1728252473,"current_range_meters":34000,"station_id":"ce4bgup2rcd13ifvqco0","pricing_plan_id":"cebpf4jnsgd1na2vs0mg"},{"bike_id":"36d89f8b-d020-4141-9059-6531b6d3d4ea","system_id":"levelo_inurba_marseille","lat":43.28455,"lon":5.35886,"is_reserved":false,"is_disabled":false,"rental_uris":{"android":"levelo://app?vid=36d89f8b-d020-4141-9059-6531b6d3d4ea","ios":"levelo://app?vid=36d89f8b-d020-4141-9059-6531b6d3d4ea"},"vehicle_type_id":"4","last_reported":1728252473,"current_range_meters":16800,"station_id":"ce4bhah2rcd13ifvqei0","pricing_plan_id":"cebpf4jnsgd1na2vs0mg"},{"bike_id":"5fc71de8-51c6-4977-ab35-bac20c38e473","system_id":"levelo_inurba_marseille","lat":43.30644,"lon":5.40073,"is_reserved":false,"is_disabled":false,"rental_uris":{"android":"levelo://app?vid=5fc71de8-51c6-4977-ab35-bac20c38e473","ios":"levelo://app?vid=5fc71de8-51c6-4977-ab35-bac20c38e473"},"vehicle_type_id":"4","last_reported":1728252473,"current_range_meters":38800,"station_id":"ce4bh112rcd13ifvqda0","pricing_plan_id":"cebpf4jnsgd1na2vs0mg"},{"bike_id":"1ed0e51c-e98f-4537-a737-327f6b3abf0a","system_id":"levelo_inurba_marseille","lat":43.30325,"lon":5.40441,"is_reserved":false,"is_disabled":false,"rental_uris":{"android":"levelo://app?vid=1ed0e51c-e98f-4537-a737-327f6b3abf0a","ios":"levelo://app?vid=1ed0e51c-e98f-4537-a737-327f6b3abf0a"},"vehicle_type_id":"4","last_reported":1728252473,"current_range_meters":3200,"station_id":"ce4bh012rcd13ifvqd10","pricing_plan_id":"cebpf4jnsgd1na2vs0mg"},{"bike_id":"9b510305-dbb5-455a-afea-ea62ba2f8d36","system_id":"levelo_inurba_marseille","lat":43.23182,"lon":5.39985,"is_reserved":false,"is_disabled":false,"rental_uris":{"android":"levelo://app?vid=9b510305-dbb5-455a-afea-ea62ba2f8d36","ios":"levelo://app?vid=9b510305-dbb5-455a-afea-ea62ba2f8d36"},"vehicle_type_id":"4","last_reported":1728252473,"current_range_meters":8800,"station_id":"ce4bhn12rcd13ifvqgqg","pricing_plan_id":"cebpf4jnsgd1na2vs0mg"},{"bike_id":"511e2553-c346-4039-a913-af4a7c85005d","system_id":"levelo_inurba_marseille","lat":43.31527,"lon":5.3803,"is_reserved":false,"is_disabled":false,"rental_uris":{"android":"levelo://app?vid=511e2553-c346-4039-a913-af4a7c85005d","ios":"levelo://app?vid=511e2553-c346-4039-a913-af4a7c85005d"},"vehicle_type_id":"4","last_reported":1728252473,"current_range_meters":11200,"station_id":"ce4bhsp2rcd13ifvqi50","pricing_plan_id":"cebpf4jnsgd1na2vs0mg"},{"bike_id":"190548a0-05d5-4bdb-bc1f-d4a1ad9e157a","system_id":"levelo_inurba_marseille","lat":43.27995,"lon":5.41658,"is_reserved":false,"is_disabled":false,"rental_uris":{"android":"levelo://app?vid=190548a0-05d5-4bdb-bc1f-d4a1ad9e157a","ios":"levelo://app?vid=190548a0-05d5-4bdb-bc1f-d4a1ad9e157a"},"vehicle_type_id":"4","last_reported":1728252473,"current_range_meters":12400,"station_id":"ce4bho12rcd13ifvqh1g","pricing_plan_id":"cebpf4jnsgd1na2vs0mg"},{"bike_id":"85a8b07e-682b-4725-800e-b0749654fba5","system_id":"levelo_inurba_marseille","lat":43.24167,"lon":5.36398,"is_reserved":false,"is_disabled":false,"rental_uris":{"android":"levelo://app?vid=85a8b07e-682b-4725-800e-b0749654fba5","ios":"levelo://app?vid=85a8b07e-682b-4725-800e-b0749654fba5"},"vehicle_type_id":"4","last_reported":1728252473,"current_range_meters":27200,"station_id":"cpo36qri1sfpv3e86is0","pricing_plan_id":"cebpf4jnsgd1na2vs0mg"},{"bike_id":"742b0a39-2ee6-4a7f-970b-979e89ae43ed","system_id":"levelo_inurba_marseille","lat":43.30889,"lon":5.37415,"is_reserved":false,"is_disabled":false,"rental_uris":{"android":"levelo://app?vid=742b0a39-2ee6-4a7f-970b-979e89ae43ed","ios":"levelo://app?vid=742b0a39-2ee6-4a7f-970b-979e89ae43ed"},"vehicle_type_id":"4","last_reported":1728252473,"current_range_meters":20000,"station_id":"","pricing_plan_id":"cebpf4jnsgd1na2vs0mg"},{"bike_id":"304f0f46-778c-4448-8270-d4d4de7ea60c","system_id":"levelo_inurba_marseille","lat":43.27916,"lon":5.39581,"is_reserved":false,"is_disabled":false,"rental_uris":{"android":"levelo://app?vid=304f0f46-778c-4448-8270-d4d4de7ea60c","ios":"levelo://app?vid=304f0f46-778c-4448-8270-d4d4de7ea60c"},"vehicle_type_id":"4","last_reported":1728252473,"current_range_meters":12000,"station_id":"ce4bhf92rcd13ifvqf40","pricing_plan_id":"cebpf4jnsgd1na2vs0mg"},{"bike_id":"8ab34a30-55c6-4dd9-8378-d3c7bd7c01ef","system_id":"levelo_inurba_marseille","lat":43.2815,"lon":5.42653,"is_reserved":false,"is_disabled":false,"rental_uris":{"android":"levelo://app?vid=8ab34a30-55c6-4dd9-8378-d3c7bd7c01ef","ios":"levelo://app?vid=8ab34a30-55c6-4dd9-8378-d3c7bd7c01ef"},"vehicle_type_id":"4","last_reported":1728252473,"current_range_meters":32400,"station_id":"ce4bhnh2rcd13ifvqgug","pricing_plan_id":"cebpf4jnsgd1na2vs0mg"},{"bike_id":"b2ee7e2f-43a2-4a7e-a754-77d0f53ad9a9","system_id":"levelo_inurba_marseille","lat":43.24546,"lon":5.39521,"is_reserved":false,"is_disabled":false,"rental_uris":{"android":"levelo://app?vid=b2ee7e2f-43a2-4a7e-a754-77d0f53ad9a9","ios":"levelo://app?vid=b2ee7e2f-43a2-4a7e-a754-77d0f53ad9a9"},"vehicle_type_id":"4","last_reported":1728252473,"current_range_meters":11200,"station_id":"ce4bhlp2rcd13ifvqgjg","pricing_plan_id":"cebpf4jnsgd1na2vs0mg"},{"bike_id":"05ddab4b-2219-453e-b9f6-9211ae63c830","system_id":"levelo_inurba_marseille","lat":43.24172,"lon":5.36394,"is_reserved":false,"is_disabled":false,"rental_uris":{"android":"levelo://app?vid=05ddab4b-2219-453e-b9f6-9211ae63c830","ios":"levelo://app?vid=05ddab4b-2219-453e-b9f6-9211ae63c830"},"vehicle_type_id":"4","last_reported":1728252473,"current_range_meters":30800,"station_id":"cpo36qri1sfpv3e86is0","pricing_plan_id":"cebpf4jnsgd1na2vs0mg"},{"bike_id":"e60bb475-3382-4c05-98aa-d0e35c325a0f","system_id":"levelo_inurba_marseille","lat":43.2979,"lon":5.39344,"is_reserved":false,"is_disabled":false,"rental_uris":{"android":"levelo://app?vid=e60bb475-3382-4c05-98aa-d0e35c325a0f","ios":"levelo://app?vid=e60bb475-3382-4c05-98aa-d0e35c325a0f"},"vehicle_type_id":"4","last_reported":1728252473,"current_range_meters":18000,"station_id":"chh1huq6cuj3fo74tm60","pricing_plan_id":"cebpf4jnsgd1na2vs0mg"},{"bike_id":"fe06016f-aa42-48a4-b798-24a47cf3ce1a","system_id":"levelo_inurba_marseille","lat":43.32658,"lon":5.4099,"is_reserved":false,"is_disabled":false,"rental_uris":{"android":"levelo://app?vid=fe06016f-aa42-48a4-b798-24a47cf3ce1a","ios":"levelo://app?vid=fe06016f-aa42-48a4-b798-24a47cf3ce1a"},"vehicle_type_id":"4","last_reported":1728252473,"current_range_meters":38800,"station_id":"ce4bhpp2rcd13ifvqhgg","pricing_plan_id":"cebpf4jnsgd1na2vs0mg"},{"bike_id":"5b5a4382-3222-43c1-8f07-381d1baf8a3c","system_id":"levelo_inurba_marseille","lat":43.27926,"lon":5.39571,"is_reserved":false,"is_disabled":false,"rental_uris":{"android":"levelo://app?vid=5b5a4382-3222-43c1-8f07-381d1baf8a3c","ios":"levelo://app?vid=5b5a4382-3222-43c1-8f07-381d1baf8a3c"},"vehicle_type_id":"4","last_reported":1728252473,"current_range_meters":38800,"station_id":"ce4bhf92rcd13ifvqf40","pricing_plan_id":"cebpf4jnsgd1na2vs0mg"},{"bike_id":"fc62b209-a00b-4705-a54e-9729cc929097","system_id":"levelo_inurba_marseille","lat":43.291965,"lon":5.393193,"is_reserved":false,"is_disabled":false,"rental_uris":{"android":"levelo://app?vid=fc62b209-a00b-4705-a54e-9729cc929097","ios":"levelo://app?vid=fc62b209-a00b-4705-a54e-9729cc929097"},"vehicle_type_id":"4","last_reported":1728252473,"current_range_meters":30400,"station_id":"ce4bh192rcd13ifvqdd0","pricing_plan_id":"cebpf4jnsgd1na2vs0mg"},{"bike_id":"d0ca1193-12e8-4ac2-9a60-4ae6e0040151","system_id":"levelo_inurba_marseille","lat":43.22931,"lon":5.3538,"is_reserved":false,"is_disabled":false,"rental_uris":{"android":"levelo://app?vid=d0ca1193-12e8-4ac2-9a60-4ae6e0040151","ios":"levelo://app?vid=d0ca1193-12e8-4ac2-9a60-4ae6e0040151"},"vehicle_type_id":"4","last_reported":1728252473,"current_range_meters":26800,"station_id":"cpo3532slgdg3j2ikp40","pricing_plan_id":"cebpf4jnsgd1na2vs0mg"},{"bike_id":"91196bc7-8b03-458c-8f8d-67325ce7ff11","system_id":"levelo_inurba_marseille","lat":43.28437,"lon":5.39185,"is_reserved":false,"is_disabled":false,"rental_uris":{"android":"levelo://app?vid=91196bc7-8b03-458c-8f8d-67325ce7ff11","ios":"levelo://app?vid=91196bc7-8b03-458c-8f8d-67325ce7ff11"},"vehicle_type_id":"4","last_reported":1728252473,"current_range_meters":3600,"station_id":"ce4bhoh2rcd13ifvqh5g","pricing_plan_id":"cebpf4jnsgd1na2vs0mg"},{"bike_id":"8ff024bc-f5ff-4211-8f93-6180bb8da902","system_id":"levelo_inurba_marseille","lat":43.288116,"lon":5.392137,"is_reserved":false,"is_disabled":false,"rental_uris":{"android":"levelo://app?vid=8ff024bc-f5ff-4211-8f93-6180bb8da902","ios":"levelo://app?vid=8ff024bc-f5ff-4211-8f93-6180bb8da902"},"vehicle_type_id":"4","last_reported":1728252473,"current_range_meters":9600,"station_id":"ce4bgqh2rcd13ifvqc5g","pricing_plan_id":"cebpf4jnsgd1na2vs0mg"},{"bike_id":"5f757817-8585-4a6e-bc43-dc195daaa659","system_id":"levelo_inurba_marseille","lat":43.29874,"lon":5.39727,"is_reserved":false,"is_disabled":false,"rental_uris":{"android":"levelo://app?vid=5f757817-8585-4a6e-bc43-dc195daaa659","ios":"levelo://app?vid=5f757817-8585-4a6e-bc43-dc195daaa659"},"vehicle_type_id":"4","last_reported":1728252473,"current_range_meters":38800,"station_id":"ce4bh0h2rcd13ifvqd50","pricing_plan_id":"cebpf4jnsgd1na2vs0mg"},{"bike_id":"606e6cb9-3877-458a-948c-a0f0f2fbcaf6","system_id":"levelo_inurba_marseille","lat":43.2963,"lon":5.40596,"is_reserved":false,"is_disabled":false,"rental_uris":{"android":"levelo://app?vid=606e6cb9-3877-458a-948c-a0f0f2fbcaf6","ios":"levelo://app?vid=606e6cb9-3877-458a-948c-a0f0f2fbcaf6"},"vehicle_type_id":"4","last_reported":1728252473,"current_range_meters":22800,"station_id":"ce4bh0h2rcd13ifvqd60","pricing_plan_id":"cebpf4jnsgd1na2vs0mg"},{"bike_id":"2a6b656d-962f-45fb-a48b-afc40d269521","system_id":"levelo_inurba_marseille","lat":43.24075,"lon":5.37753,"is_reserved":false,"is_disabled":false,"rental_uris":{"android":"levelo://app?vid=2a6b656d-962f-45fb-a48b-afc40d269521","ios":"levelo://app?vid=2a6b656d-962f-45fb-a48b-afc40d269521"},"vehicle_type_id":"4","last_reported":1728252473,"current_range_meters":38800,"station_id":"ce4bhnp2rcd13ifvqgvg","pricing_plan_id":"cebpf4jnsgd1na2vs0mg"},{"bike_id":"437a3fd1-334a-4653-bf70-43a299e58abd","system_id":"levelo_inurba_marseille","lat":43.2841,"lon":5.37519,"is_reserved":false,"is_disabled":false,"rental_uris":{"android":"levelo://app?vid=437a3fd1-334a-4653-bf70-43a299e58abd","ios":"levelo://app?vid=437a3fd1-334a-4653-bf70-43a299e58abd"},"vehicle_type_id":"4","last_reported":1728252473,"current_range_meters":2800,"station_id":"ce4bh412rcd13ifvqds0","pricing_plan_id":"cebpf4jnsgd1na2vs0mg"},{"bike_id":"97b3e577-842c-4159-9c4d-a25d9b136036","system_id":"levelo_inurba_marseille","lat":43.30263,"lon":5.37966,"is_reserved":false,"is_disabled":false,"rental_uris":{"android":"levelo://app?vid=97b3e577-842c-4159-9c4d-a25d9b136036","ios":"levelo://app?vid=97b3e577-842c-4159-9c4d-a25d9b136036"},"vehicle_type_id":"4","last_reported":1728252473,"current_range_meters":21600,"station_id":"","pricing_plan_id":"cebpf4jnsgd1na2vs0mg"},{"bike_id":"b331395e-1126-4c2b-bcc1-f57b9247b297","system_id":"levelo_inurba_marseille","lat":43.28571,"lon":5.39488,"is_reserved":false,"is_disabled":false,"rental_uris":{"android":"levelo://app?vid=b331395e-1126-4c2b-bcc1-f57b9247b297","ios":"levelo://app?vid=b331395e-1126-4c2b-bcc1-f57b9247b297"},"vehicle_type_id":"4","last_reported":1728252473,"current_range_meters":2800,"station_id":"ce4bh292rcd13ifvqdg0","pricing_plan_id":"cebpf4jnsgd1na2vs0mg"},{"bike_id":"18cab30f-71a4-424c-a58a-1028931912e7","system_id":"levelo_inurba_marseille","lat":43.27812,"lon":5.40702,"is_reserved":false,"is_disabled":false,"rental_uris":{"android":"levelo://app?vid=18cab30f-71a4-424c-a58a-1028931912e7","ios":"levelo://app?vid=18cab30f-71a4-424c-a58a-1028931912e7"},"vehicle_type_id":"4","last_reported":1728252473,"current_range_meters":28800,"station_id":"ce4bhnh2rcd13ifvqgtg","pricing_plan_id":"cebpf4jnsgd1na2vs0mg"},{"bike_id":"0f883a22-8e08-490c-97ec-787ea6e859de","system_id":"levelo_inurba_marseille","lat":43.23185,"lon":5.39983,"is_reserved":false,"is_disabled":false,"rental_uris":{"android":"levelo://app?vid=0f883a22-8e08-490c-97ec-787ea6e859de","ios":"levelo://app?vid=0f883a22-8e08-490c-97ec-787ea6e859de"},"vehicle_type_id":"4","last_reported":1728252473,"current_range_meters":38800,"station_id":"ce4bhn12rcd13ifvqgqg","pricing_plan_id":"cebpf4jnsgd1na2vs0mg"},{"bike_id":"e2aa43d6-93dc-40b2-8642-d2251992f807","system_id":"levelo_inurba_marseille","lat":43.306454,"lon":5.400856,"is_reserved":false,"is_disabled":false,"rental_uris":{"android":"levelo://app?vid=e2aa43d6-93dc-40b2-8642-d2251992f807","ios":"levelo://app?vid=e2aa43d6-93dc-40b2-8642-d2251992f807"},"vehicle_type_id":"4","last_reported":1728252473,"current_range_meters":17600,"station_id":"ce4bh0p2rcd13ifvqd70","pricing_plan_id":"cebpf4jnsgd1na2vs0mg"},{"bike_id":"e8f38f77-6572-42be-9296-0cbe6e7cb972","system_id":"levelo_inurba_marseille","lat":43.23055,"lon":5.35495,"is_reserved":false,"is_disabled":false,"rental_uris":{"android":"levelo://app?vid=e8f38f77-6572-42be-9296-0cbe6e7cb972","ios":"levelo://app?vid=e8f38f77-6572-42be-9296-0cbe6e7cb972"},"vehicle_type_id":"4","last_reported":1728252473,"current_range_meters":38800,"station_id":"cpo3342slgdg3j2ifvpg","pricing_plan_id":"cebpf4jnsgd1na2vs0mg"},{"bike_id":"e8d89304-b341-4fdf-97b1-b62a54b73ef2","system_id":"levelo_inurba_marseille","lat":43.29076,"lon":5.37168,"is_reserved":false,"is_disabled":false,"rental_uris":{"android":"levelo://app?vid=e8d89304-b341-4fdf-97b1-b62a54b73ef2","ios":"levelo://app?vid=e8d89304-b341-4fdf-97b1-b62a54b73ef2"},"vehicle_type_id":"4","last_reported":1728252473,"current_range_meters":25600,"station_id":"ce4bh5p2rcd13ifvqe4g","pricing_plan_id":"cebpf4jnsgd1na2vs0mg"},{"bike_id":"6e6af65e-29e7-4906-a118-0f7d164f38e5","system_id":"levelo_inurba_marseille","lat":43.3117,"lon":5.38705,"is_reserved":false,"is_disabled":false,"rental_uris":{"android":"levelo://app?vid=6e6af65e-29e7-4906-a118-0f7d164f38e5","ios":"levelo://app?vid=6e6af65e-29e7-4906-a118-0f7d164f38e5"},"vehicle_type_id":"4","last_reported":1728252473,"current_range_meters":38800,"station_id":"ce4bgv12rcd13ifvqcp0","pricing_plan_id":"cebpf4jnsgd1na2vs0mg"},{"bike_id":"ac85bbc4-642e-4858-b238-bc55e135d5f3","system_id":"levelo_inurba_marseille","lat":43.25729,"lon":5.41112,"is_reserved":false,"is_disabled":false,"rental_uris":{"android":"levelo://app?vid=ac85bbc4-642e-4858-b238-bc55e135d5f3","ios":"levelo://app?vid=ac85bbc4-642e-4858-b238-bc55e135d5f3"},"vehicle_type_id":"4","last_reported":1728252473,"current_range_meters":28000,"station_id":"ce4bhkp2rcd13ifvqgd0","pricing_plan_id":"cebpf4jnsgd1na2vs0mg"},{"bike_id":"9d1d362d-a3fe-4fe2-9693-285ab59b13f6","system_id":"levelo_inurba_marseille","lat":43.29031,"lon":5.39968,"is_reserved":false,"is_disabled":false,"rental_uris":{"android":"levelo://app?vid=9d1d362d-a3fe-4fe2-9693-285ab59b13f6","ios":"levelo://app?vid=9d1d362d-a3fe-4fe2-9693-285ab59b13f6"},"vehicle_type_id":"4","last_reported":1728252473,"current_range_meters":22800,"station_id":"ce4bh392rcd13ifvqdm0","pricing_plan_id":"cebpf4jnsgd1na2vs0mg"},{"bike_id":"94edce63-e861-4f0b-9ec3-ee0d2406d14e","system_id":"levelo_inurba_marseille","lat":43.27966,"lon":5.38744,"is_reserved":false,"is_disabled":false,"rental_uris":{"android":"levelo://app?vid=94edce63-e861-4f0b-9ec3-ee0d2406d14e","ios":"levelo://app?vid=94edce63-e861-4f0b-9ec3-ee0d2406d14e"},"vehicle_type_id":"4","last_reported":1728252473,"current_range_meters":36800,"station_id":"ce4bhg12rcd13ifvqf80","pricing_plan_id":"cebpf4jnsgd1na2vs0mg"},{"bike_id":"fbe2db3f-9b7b-451a-ad48-131ae931cad3","system_id":"levelo_inurba_marseille","lat":43.25717,"lon":5.41117,"is_reserved":false,"is_disabled":false,"rental_uris":{"android":"levelo://app?vid=fbe2db3f-9b7b-451a-ad48-131ae931cad3","ios":"levelo://app?vid=fbe2db3f-9b7b-451a-ad48-131ae931cad3"},"vehicle_type_id":"4","last_reported":1728252473,"current_range_meters":14400,"station_id":"ce4bhkp2rcd13ifvqgd0","pricing_plan_id":"cebpf4jnsgd1na2vs0mg"},{"bike_id":"490889b1-cee9-4892-9db5-299333956c90","system_id":"levelo_inurba_marseille","lat":43.34134,"lon":5.40903,"is_reserved":false,"is_disabled":false,"rental_uris":{"android":"levelo://app?vid=490889b1-cee9-4892-9db5-299333956c90","ios":"levelo://app?vid=490889b1-cee9-4892-9db5-299333956c90"},"vehicle_type_id":"4","last_reported":1728252473,"current_range_meters":38000,"station_id":"ce4bhqh2rcd13ifvqhlg","pricing_plan_id":"cebpf4jnsgd1na2vs0mg"},{"bike_id":"ea30e775-8466-430d-96e1-a121d270f1bd","system_id":"levelo_inurba_marseille","lat":43.24648,"lon":5.38892,"is_reserved":false,"is_disabled":false,"rental_uris":{"android":"levelo://app?vid=ea30e775-8466-430d-96e1-a121d270f1bd","ios":"levelo://app?vid=ea30e775-8466-430d-96e1-a121d270f1bd"},"vehicle_type_id":"4","last_reported":1728252473,"current_range_meters":38800,"station_id":"ce4bhg12rcd13ifvqf60","pricing_plan_id":"cebpf4jnsgd1na2vs0mg"},{"bike_id":"fbfafa39-8e8e-43d0-ad01-3d738647c745","system_id":"levelo_inurba_marseille","lat":43.28691,"lon":5.39971,"is_reserved":false,"is_disabled":false,"rental_uris":{"android":"levelo://app?vid=fbfafa39-8e8e-43d0-ad01-3d738647c745","ios":"levelo://app?vid=fbfafa39-8e8e-43d0-ad01-3d738647c745"},"vehicle_type_id":"4","last_reported":1728252473,"current_range_meters":34800,"station_id":"ce4bho92rcd13ifvqh3g","pricing_plan_id":"cebpf4jnsgd1na2vs0mg"},{"bike_id":"4378a0dd-7ddd-4246-9294-1e2af02e0700","system_id":"levelo_inurba_marseille","lat":43.23196,"lon":5.35552,"is_reserved":false,"is_disabled":false,"rental_uris":{"android":"levelo://app?vid=4378a0dd-7ddd-4246-9294-1e2af02e0700","ios":"levelo://app?vid=4378a0dd-7ddd-4246-9294-1e2af02e0700"},"vehicle_type_id":"4","last_reported":1728252473,"current_range_meters":8400,"station_id":"ce4bhu92rcd13ifvqi70","pricing_plan_id":"cebpf4jnsgd1na2vs0mg"},{"bike_id":"c656545f-1946-4086-8c48-8ebfeeddee78","system_id":"levelo_inurba_marseille","lat":43.2982,"lon":5.40347,"is_reserved":false,"is_disabled":false,"rental_uris":{"android":"levelo://app?vid=c656545f-1946-4086-8c48-8ebfeeddee78","ios":"levelo://app?vid=c656545f-1946-4086-8c48-8ebfeeddee78"},"vehicle_type_id":"4","last_reported":1728252473,"current_range_meters":28400,"station_id":"","pricing_plan_id":"cebpf4jnsgd1na2vs0mg"},{"bike_id":"443871d8-edee-4b1c-87f4-b63d4937594f","system_id":"levelo_inurba_marseille","lat":43.2756,"lon":5.38411,"is_reserved":false,"is_disabled":false,"rental_uris":{"android":"levelo://app?vid=443871d8-edee-4b1c-87f4-b63d4937594f","ios":"levelo://app?vid=443871d8-edee-4b1c-87f4-b63d4937594f"},"vehicle_type_id":"4","last_reported":1728252473,"current_range_meters":19600,"station_id":"ce4bhh92rcd13ifvqfi0","pricing_plan_id":"cebpf4jnsgd1na2vs0mg"},{"bike_id":"23fc48c8-ca80-4830-81ff-9f99416697f3","system_id":"levelo_inurba_marseille","lat":43.28866,"lon":5.39313,"is_reserved":false,"is_disabled":false,"rental_uris":{"android":"levelo://app?vid=23fc48c8-ca80-4830-81ff-9f99416697f3","ios":"levelo://app?vid=23fc48c8-ca80-4830-81ff-9f99416697f3"},"vehicle_type_id":"4","last_reported":1728252473,"current_range_meters":16800,"station_id":"ce4bh2p2rcd13ifvqdi0","pricing_plan_id":"cebpf4jnsgd1na2vs0mg"},{"bike_id":"19657177-a128-445d-88b3-9f9f9bff6229","system_id":"levelo_inurba_marseille","lat":43.25109,"lon":5.40322,"is_reserved":false,"is_disabled":false,"rental_uris":{"android":"levelo://app?vid=19657177-a128-445d-88b3-9f9f9bff6229","ios":"levelo://app?vid=19657177-a128-445d-88b3-9f9f9bff6229"},"vehicle_type_id":"4","last_reported":1728252473,"current_range_meters":38800,"station_id":"ce4bhlh2rcd13ifvqgig","pricing_plan_id":"cebpf4jnsgd1na2vs0mg"},{"bike_id":"98fab8a1-a284-40da-8df2-14f71a37d57b","system_id":"levelo_inurba_marseille","lat":43.24551,"lon":5.39526,"is_reserved":false,"is_disabled":false,"rental_uris":{"android":"levelo://app?vid=98fab8a1-a284-40da-8df2-14f71a37d57b","ios":"levelo://app?vid=98fab8a1-a284-40da-8df2-14f71a37d57b"},"vehicle_type_id":"4","last_reported":1728252473,"current_range_meters":30000,"station_id":"ce4bhlp2rcd13ifvqgjg","pricing_plan_id":"cebpf4jnsgd1na2vs0mg"},{"bike_id":"ca497d73-ca95-45d5-92b1-f420a9b2ab33","system_id":"levelo_inurba_marseille","lat":43.3133,"lon":5.39697,"is_reserved":false,"is_disabled":false,"rental_uris":{"android":"levelo://app?vid=ca497d73-ca95-45d5-92b1-f420a9b2ab33","ios":"levelo://app?vid=ca497d73-ca95-45d5-92b1-f420a9b2ab33"},"vehicle_type_id":"4","last_reported":1728252473,"current_range_meters":6400,"station_id":"ce4bgvp2rcd13ifvqcu0","pricing_plan_id":"cebpf4jnsgd1na2vs0mg"},{"bike_id":"21288de7-f927-43a6-aeff-787f443177ba","system_id":"levelo_inurba_marseille","lat":43.27905,"lon":5.37997,"is_reserved":false,"is_disabled":false,"rental_uris":{"android":"levelo://app?vid=21288de7-f927-43a6-aeff-787f443177ba","ios":"levelo://app?vid=21288de7-f927-43a6-aeff-787f443177ba"},"vehicle_type_id":"4","last_reported":1728252473,"current_range_meters":37600,"station_id":"ce4bhf92rcd13ifvqf50","pricing_plan_id":"cebpf4jnsgd1na2vs0mg"},{"bike_id":"93d45870-2e1c-4ed1-9664-7b219a4ed443","system_id":"levelo_inurba_marseille","lat":43.22935,"lon":5.35378,"is_reserved":false,"is_disabled":false,"rental_uris":{"android":"levelo://app?vid=93d45870-2e1c-4ed1-9664-7b219a4ed443","ios":"levelo://app?vid=93d45870-2e1c-4ed1-9664-7b219a4ed443"},"vehicle_type_id":"4","last_reported":1728252473,"current_range_meters":38800,"station_id":"cpo3532slgdg3j2ikp40","pricing_plan_id":"cebpf4jnsgd1na2vs0mg"},{"bike_id":"2320b15e-2a70-41d2-95b9-fe8a1eb35e18","system_id":"levelo_inurba_marseille","lat":43.29277,"lon":5.36765,"is_reserved":false,"is_disabled":false,"rental_uris":{"android":"levelo://app?vid=2320b15e-2a70-41d2-95b9-fe8a1eb35e18","ios":"levelo://app?vid=2320b15e-2a70-41d2-95b9-fe8a1eb35e18"},"vehicle_type_id":"4","last_reported":1728252473,"current_range_meters":17200,"station_id":"","pricing_plan_id":"cebpf4jnsgd1na2vs0mg"},{"bike_id":"2ff6bac0-f386-428c-89aa-655b212c895e","system_id":"levelo_inurba_marseille","lat":43.33018,"lon":5.39044,"is_reserved":false,"is_disabled":false,"rental_uris":{"android":"levelo://app?vid=2ff6bac0-f386-428c-89aa-655b212c895e","ios":"levelo://app?vid=2ff6bac0-f386-428c-89aa-655b212c895e"},"vehicle_type_id":"4","last_reported":1728252473,"current_range_meters":9600,"station_id":"ce4bhr92rcd13ifvqhrg","pricing_plan_id":"cebpf4jnsgd1na2vs0mg"},{"bike_id":"f78376bc-a2b1-4867-8e0d-6af4d9668214","system_id":"levelo_inurba_marseille","lat":43.30602,"lon":5.37233,"is_reserved":false,"is_disabled":false,"rental_uris":{"android":"levelo://app?vid=f78376bc-a2b1-4867-8e0d-6af4d9668214","ios":"levelo://app?vid=f78376bc-a2b1-4867-8e0d-6af4d9668214"},"vehicle_type_id":"4","last_reported":1728252473,"current_range_meters":37600,"station_id":"ce4bgqh2rcd13ifvqc4g","pricing_plan_id":"cebpf4jnsgd1na2vs0mg"},{"bike_id":"6e512044-ef12-457b-bcca-26bd86c5618a","system_id":"levelo_inurba_marseille","lat":43.23058,"lon":5.35498,"is_reserved":false,"is_disabled":false,"rental_uris":{"android":"levelo://app?vid=6e512044-ef12-457b-bcca-26bd86c5618a","ios":"levelo://app?vid=6e512044-ef12-457b-bcca-26bd86c5618a"},"vehicle_type_id":"4","last_reported":1728252473,"current_range_meters":38800,"station_id":"cpo3342slgdg3j2ifvpg","pricing_plan_id":"cebpf4jnsgd1na2vs0mg"},{"bike_id":"d18846cc-861c-4232-b8a3-fe40eea38d70","system_id":"levelo_inurba_marseille","lat":43.29873,"lon":5.39733,"is_reserved":false,"is_disabled":false,"rental_uris":{"android":"levelo://app?vid=d18846cc-861c-4232-b8a3-fe40eea38d70","ios":"levelo://app?vid=d18846cc-861c-4232-b8a3-fe40eea38d70"},"vehicle_type_id":"4","last_reported":1728252473,"current_range_meters":26000,"station_id":"ce4bh0h2rcd13ifvqd50","pricing_plan_id":"cebpf4jnsgd1na2vs0mg"},{"bike_id":"e3476c14-2ab0-48da-b93e-0d3624cd9013","system_id":"levelo_inurba_marseille","lat":43.26062,"lon":5.39397,"is_reserved":false,"is_disabled":false,"rental_uris":{"android":"levelo://app?vid=e3476c14-2ab0-48da-b93e-0d3624cd9013","ios":"levelo://app?vid=e3476c14-2ab0-48da-b93e-0d3624cd9013"},"vehicle_type_id":"4","last_reported":1728252473,"current_range_meters":13600,"station_id":"ce4bhh92rcd13ifvqfj0","pricing_plan_id":"cebpf4jnsgd1na2vs0mg"},{"bike_id":"09533919-e196-4089-9f9c-66783c87f530","system_id":"levelo_inurba_marseille","lat":43.30888,"lon":5.39629,"is_reserved":false,"is_disabled":false,"rental_uris":{"android":"levelo://app?vid=09533919-e196-4089-9f9c-66783c87f530","ios":"levelo://app?vid=09533919-e196-4089-9f9c-66783c87f530"},"vehicle_type_id":"4","last_reported":1728252473,"current_range_meters":21600,"station_id":"ce4bh012rcd13ifvqcv0","pricing_plan_id":"cebpf4jnsgd1na2vs0mg"},{"bike_id":"634b28b1-7a03-46a7-974c-3e44a1b4599d","system_id":"levelo_inurba_marseille","lat":43.29704,"lon":5.36609,"is_reserved":false,"is_disabled":false,"rental_uris":{"android":"levelo://app?vid=634b28b1-7a03-46a7-974c-3e44a1b4599d","ios":"levelo://app?vid=634b28b1-7a03-46a7-974c-3e44a1b4599d"},"vehicle_type_id":"4","last_reported":1728252473,"current_range_meters":27600,"station_id":"ce4bgn12rcd13ifvqbt0","pricing_plan_id":"cebpf4jnsgd1na2vs0mg"},{"bike_id":"ca11ad8e-2b8e-4f0f-ba6f-c0c17b818b37","system_id":"levelo_inurba_marseille","lat":43.25085,"lon":5.3951,"is_reserved":false,"is_disabled":false,"rental_uris":{"android":"levelo://app?vid=ca11ad8e-2b8e-4f0f-ba6f-c0c17b818b37","ios":"levelo://app?vid=ca11ad8e-2b8e-4f0f-ba6f-c0c17b818b37"},"vehicle_type_id":"4","last_reported":1728252473,"current_range_meters":38800,"station_id":"ce4bhm12rcd13ifvqgkg","pricing_plan_id":"cebpf4jnsgd1na2vs0mg"},{"bike_id":"270b90ca-7521-4165-af49-e1c727e5fa34","system_id":"levelo_inurba_marseille","lat":43.24167,"lon":5.36397,"is_reserved":false,"is_disabled":false,"rental_uris":{"android":"levelo://app?vid=270b90ca-7521-4165-af49-e1c727e5fa34","ios":"levelo://app?vid=270b90ca-7521-4165-af49-e1c727e5fa34"},"vehicle_type_id":"4","last_reported":1728252473,"current_range_meters":32000,"station_id":"cpo36qri1sfpv3e86is0","pricing_plan_id":"cebpf4jnsgd1na2vs0mg"},{"bike_id":"611d6115-26cb-4221-ba38-d0cfdcb796c1","system_id":"levelo_inurba_marseille","lat":43.28034,"lon":5.36943,"is_reserved":false,"is_disabled":false,"rental_uris":{"android":"levelo://app?vid=611d6115-26cb-4221-ba38-d0cfdcb796c1","ios":"levelo://app?vid=611d6115-26cb-4221-ba38-d0cfdcb796c1"},"vehicle_type_id":"4","last_reported":1728252473,"current_range_meters":37600,"station_id":"ce4bha12rcd13ifvqef0","pricing_plan_id":"cebpf4jnsgd1na2vs0mg"},{"bike_id":"a6e9d49a-4dd9-456d-ad6e-07a36ec96123","system_id":"levelo_inurba_marseille","lat":43.29001,"lon":5.35615,"is_reserved":false,"is_disabled":false,"rental_uris":{"android":"levelo://app?vid=a6e9d49a-4dd9-456d-ad6e-07a36ec96123","ios":"levelo://app?vid=a6e9d49a-4dd9-456d-ad6e-07a36ec96123"},"vehicle_type_id":"4","last_reported":1728252473,"current_range_meters":30800,"station_id":"ce4bhb92rcd13ifvqen0","pricing_plan_id":"cebpf4jnsgd1na2vs0mg"},{"bike_id":"5a4b67be-7590-4cf8-b42b-76b709519577","system_id":"levelo_inurba_marseille","lat":43.24387,"lon":5.37055,"is_reserved":false,"is_disabled":false,"rental_uris":{"android":"levelo://app?vid=5a4b67be-7590-4cf8-b42b-76b709519577","ios":"levelo://app?vid=5a4b67be-7590-4cf8-b42b-76b709519577"},"vehicle_type_id":"4","last_reported":1728252473,"current_range_meters":39200,"station_id":"ce4bhhh2rcd13ifvqfk0","pricing_plan_id":"cebpf4jnsgd1na2vs0mg"},{"bike_id":"ec9ff367-cd15-436e-850c-fbb219b50716","system_id":"levelo_inurba_marseille","lat":43.30886,"lon":5.37186,"is_reserved":false,"is_disabled":false,"rental_uris":{"android":"levelo://app?vid=ec9ff367-cd15-436e-850c-fbb219b50716","ios":"levelo://app?vid=ec9ff367-cd15-436e-850c-fbb219b50716"},"vehicle_type_id":"4","last_reported":1728252473,"current_range_meters":12400,"station_id":"ce4bguh2rcd13ifvqckg","pricing_plan_id":"cebpf4jnsgd1na2vs0mg"},{"bike_id":"824e294a-c810-4688-b9ec-efc7382fd889","system_id":"levelo_inurba_marseille","lat":43.31084,"lon":5.42431,"is_reserved":false,"is_disabled":false,"rental_uris":{"android":"levelo://app?vid=824e294a-c810-4688-b9ec-efc7382fd889","ios":"levelo://app?vid=824e294a-c810-4688-b9ec-efc7382fd889"},"vehicle_type_id":"4","last_reported":1728252473,"current_range_meters":31200,"station_id":"ce4bhp92rcd13ifvqhag","pricing_plan_id":"cebpf4jnsgd1na2vs0mg"},{"bike_id":"fe5ef45b-b542-4623-9a70-41457f7ea616","system_id":"levelo_inurba_marseille","lat":43.30586,"lon":5.39342,"is_reserved":false,"is_disabled":false,"rental_uris":{"android":"levelo://app?vid=fe5ef45b-b542-4623-9a70-41457f7ea616","ios":"levelo://app?vid=fe5ef45b-b542-4623-9a70-41457f7ea616"},"vehicle_type_id":"4","last_reported":1728252473,"current_range_meters":38000,"station_id":"ce4bh0p2rcd13ifvqd80","pricing_plan_id":"cebpf4jnsgd1na2vs0mg"},{"bike_id":"ca5f4c34-3469-41d3-9f12-b240f1be893e","system_id":"levelo_inurba_marseille","lat":43.22936,"lon":5.35377,"is_reserved":false,"is_disabled":false,"rental_uris":{"android":"levelo://app?vid=ca5f4c34-3469-41d3-9f12-b240f1be893e","ios":"levelo://app?vid=ca5f4c34-3469-41d3-9f12-b240f1be893e"},"vehicle_type_id":"4","last_reported":1728252473,"current_range_meters":18800,"station_id":"cpo3532slgdg3j2ikp40","pricing_plan_id":"cebpf4jnsgd1na2vs0mg"},{"bike_id":"dcb2bb4f-dec2-472c-822b-63056d23b375","system_id":"levelo_inurba_marseille","lat":43.26567,"lon":5.38997,"is_reserved":false,"is_disabled":false,"rental_uris":{"android":"levelo://app?vid=dcb2bb4f-dec2-472c-822b-63056d23b375","ios":"levelo://app?vid=dcb2bb4f-dec2-472c-822b-63056d23b375"},"vehicle_type_id":"4","last_reported":1728252473,"current_range_meters":35200,"station_id":"ce4bhe12rcd13ifvqf30","pricing_plan_id":"cebpf4jnsgd1na2vs0mg"},{"bike_id":"d8a99f42-e569-442c-9ff5-86e714e6f437","system_id":"levelo_inurba_marseille","lat":43.31331,"lon":5.39691,"is_reserved":false,"is_disabled":false,"rental_uris":{"android":"levelo://app?vid=d8a99f42-e569-442c-9ff5-86e714e6f437","ios":"levelo://app?vid=d8a99f42-e569-442c-9ff5-86e714e6f437"},"vehicle_type_id":"4","last_reported":1728252473,"current_range_meters":29600,"station_id":"ce4bgvp2rcd13ifvqcu0","pricing_plan_id":"cebpf4jnsgd1na2vs0mg"},{"bike_id":"f055b8c8-78c8-4853-93b8-81296136d793","system_id":"levelo_inurba_marseille","lat":43.32628,"lon":5.41018,"is_reserved":false,"is_disabled":false,"rental_uris":{"android":"levelo://app?vid=f055b8c8-78c8-4853-93b8-81296136d793","ios":"levelo://app?vid=f055b8c8-78c8-4853-93b8-81296136d793"},"vehicle_type_id":"4","last_reported":1728252473,"current_range_meters":38800,"station_id":"ce4bhpp2rcd13ifvqhgg","pricing_plan_id":"cebpf4jnsgd1na2vs0mg"},{"bike_id":"85081b74-3c48-4b75-b6b6-b181683e784a","system_id":"levelo_inurba_marseille","lat":43.25727,"lon":5.41117,"is_reserved":false,"is_disabled":false,"rental_uris":{"android":"levelo://app?vid=85081b74-3c48-4b75-b6b6-b181683e784a","ios":"levelo://app?vid=85081b74-3c48-4b75-b6b6-b181683e784a"},"vehicle_type_id":"4","last_reported":1728252473,"current_range_meters":36800,"station_id":"ce4bhkp2rcd13ifvqgd0","pricing_plan_id":"cebpf4jnsgd1na2vs0mg"},{"bike_id":"ca150432-5632-417f-a220-d6e10e3598a2","system_id":"levelo_inurba_marseille","lat":43.29894,"lon":5.43663,"is_reserved":false,"is_disabled":false,"rental_uris":{"android":"levelo://app?vid=ca150432-5632-417f-a220-d6e10e3598a2","ios":"levelo://app?vid=ca150432-5632-417f-a220-d6e10e3598a2"},"vehicle_type_id":"4","last_reported":1728252473,"current_range_meters":39200,"station_id":"ce4bhpp2rcd13ifvqhfg","pricing_plan_id":"cebpf4jnsgd1na2vs0mg"},{"bike_id":"b1cbe098-b772-4fa8-8f53-20e8557fecfb","system_id":"levelo_inurba_marseille","lat":43.289297,"lon":5.383883,"is_reserved":false,"is_disabled":false,"rental_uris":{"android":"levelo://app?vid=b1cbe098-b772-4fa8-8f53-20e8557fecfb","ios":"levelo://app?vid=b1cbe098-b772-4fa8-8f53-20e8557fecfb"},"vehicle_type_id":"4","last_reported":1728252473,"current_range_meters":37600,"station_id":"ce4bh612rcd13ifvqe6g","pricing_plan_id":"cebpf4jnsgd1na2vs0mg"},{"bike_id":"8791dffb-0fe7-4d2d-bb33-d23dba1351a1","system_id":"levelo_inurba_marseille","lat":43.29792,"lon":5.39337,"is_reserved":false,"is_disabled":false,"rental_uris":{"android":"levelo://app?vid=8791dffb-0fe7-4d2d-bb33-d23dba1351a1","ios":"levelo://app?vid=8791dffb-0fe7-4d2d-bb33-d23dba1351a1"},"vehicle_type_id":"4","last_reported":1728252473,"current_range_meters":28400,"station_id":"chh1huq6cuj3fo74tm60","pricing_plan_id":"cebpf4jnsgd1na2vs0mg"},{"bike_id":"7cba0374-be77-4d49-8476-e0da3cccc891","system_id":"levelo_inurba_marseille","lat":43.24164,"lon":5.36393,"is_reserved":false,"is_disabled":false,"rental_uris":{"android":"levelo://app?vid=7cba0374-be77-4d49-8476-e0da3cccc891","ios":"levelo://app?vid=7cba0374-be77-4d49-8476-e0da3cccc891"},"vehicle_type_id":"4","last_reported":1728252473,"current_range_meters":30000,"station_id":"cpo36qri1sfpv3e86is0","pricing_plan_id":"cebpf4jnsgd1na2vs0mg"},{"bike_id":"de7b61ce-9a77-48b8-b281-c8a3b04be6be","system_id":"levelo_inurba_marseille","lat":43.30597,"lon":5.36567,"is_reserved":false,"is_disabled":false,"rental_uris":{"android":"levelo://app?vid=de7b61ce-9a77-48b8-b281-c8a3b04be6be","ios":"levelo://app?vid=de7b61ce-9a77-48b8-b281-c8a3b04be6be"},"vehicle_type_id":"4","last_reported":1728252473,"current_range_meters":26000,"station_id":"ce4bgs12rcd13ifvqcag","pricing_plan_id":"cebpf4jnsgd1na2vs0mg"},{"bike_id":"c2eafa11-ad6c-4f3b-b6e4-6e6fc5d9785c","system_id":"levelo_inurba_marseille","lat":43.29897,"lon":5.43659,"is_reserved":false,"is_disabled":false,"rental_uris":{"android":"levelo://app?vid=c2eafa11-ad6c-4f3b-b6e4-6e6fc5d9785c","ios":"levelo://app?vid=c2eafa11-ad6c-4f3b-b6e4-6e6fc5d9785c"},"vehicle_type_id":"4","last_reported":1728252473,"current_range_meters":35600,"station_id":"ce4bhpp2rcd13ifvqhfg","pricing_plan_id":"cebpf4jnsgd1na2vs0mg"},{"bike_id":"d0f999e2-85b5-4009-bc94-0921606f50d6","system_id":"levelo_inurba_marseille","lat":43.29195,"lon":5.39313,"is_reserved":false,"is_disabled":false,"rental_uris":{"android":"levelo://app?vid=d0f999e2-85b5-4009-bc94-0921606f50d6","ios":"levelo://app?vid=d0f999e2-85b5-4009-bc94-0921606f50d6"},"vehicle_type_id":"4","last_reported":1728252473,"current_range_meters":4400,"station_id":"ce4bh192rcd13ifvqdd0","pricing_plan_id":"cebpf4jnsgd1na2vs0mg"},{"bike_id":"a325764b-3e89-44ce-b7a8-b00d21009039","system_id":"levelo_inurba_marseille","lat":43.31322,"lon":5.39688,"is_reserved":false,"is_disabled":false,"rental_uris":{"android":"levelo://app?vid=a325764b-3e89-44ce-b7a8-b00d21009039","ios":"levelo://app?vid=a325764b-3e89-44ce-b7a8-b00d21009039"},"vehicle_type_id":"4","last_reported":1728252473,"current_range_meters":6400,"station_id":"ce4bgvp2rcd13ifvqcu0","pricing_plan_id":"cebpf4jnsgd1na2vs0mg"},{"bike_id":"d6a904eb-96a5-4bea-a586-e8aaeedf5f4c","system_id":"levelo_inurba_marseille","lat":43.25722,"lon":5.41108,"is_reserved":false,"is_disabled":false,"rental_uris":{"android":"levelo://app?vid=d6a904eb-96a5-4bea-a586-e8aaeedf5f4c","ios":"levelo://app?vid=d6a904eb-96a5-4bea-a586-e8aaeedf5f4c"},"vehicle_type_id":"4","last_reported":1728252473,"current_range_meters":37600,"station_id":"ce4bhkp2rcd13ifvqgd0","pricing_plan_id":"cebpf4jnsgd1na2vs0mg"},{"bike_id":"09fb0b57-2324-4bd9-a741-e90822f89c25","system_id":"levelo_inurba_marseille","lat":43.2407,"lon":5.37763,"is_reserved":false,"is_disabled":false,"rental_uris":{"android":"levelo://app?vid=09fb0b57-2324-4bd9-a741-e90822f89c25","ios":"levelo://app?vid=09fb0b57-2324-4bd9-a741-e90822f89c25"},"vehicle_type_id":"4","last_reported":1728252473,"current_range_meters":38800,"station_id":"ce4bhnp2rcd13ifvqgvg","pricing_plan_id":"cebpf4jnsgd1na2vs0mg"},{"bike_id":"50849c11-3cff-4996-ab52-beb01f8836c7","system_id":"levelo_inurba_marseille","lat":43.26063,"lon":5.39401,"is_reserved":false,"is_disabled":false,"rental_uris":{"android":"levelo://app?vid=50849c11-3cff-4996-ab52-beb01f8836c7","ios":"levelo://app?vid=50849c11-3cff-4996-ab52-beb01f8836c7"},"vehicle_type_id":"4","last_reported":1728252473,"current_range_meters":8800,"station_id":"ce4bhh92rcd13ifvqfj0","pricing_plan_id":"cebpf4jnsgd1na2vs0mg"},{"bike_id":"b4da9d8b-9301-478c-9f01-3fa9f5b15d66","system_id":"levelo_inurba_marseille","lat":43.33596,"lon":5.41015,"is_reserved":false,"is_disabled":false,"rental_uris":{"android":"levelo://app?vid=b4da9d8b-9301-478c-9f01-3fa9f5b15d66","ios":"levelo://app?vid=b4da9d8b-9301-478c-9f01-3fa9f5b15d66"},"vehicle_type_id":"4","last_reported":1728252473,"current_range_meters":38800,"station_id":"ce4bhqh2rcd13ifvqhmg","pricing_plan_id":"cebpf4jnsgd1na2vs0mg"},{"bike_id":"7dab7f56-8694-438f-aad3-658c33176dfe","system_id":"levelo_inurba_marseille","lat":43.31993,"lon":5.38146,"is_reserved":false,"is_disabled":false,"rental_uris":{"android":"levelo://app?vid=7dab7f56-8694-438f-aad3-658c33176dfe","ios":"levelo://app?vid=7dab7f56-8694-438f-aad3-658c33176dfe"},"vehicle_type_id":"4","last_reported":1728252473,"current_range_meters":38800,"station_id":"ce4bhr12rcd13ifvqhpg","pricing_plan_id":"cebpf4jnsgd1na2vs0mg"},{"bike_id":"7a348d21-f2e8-43e7-9c15-c14bb9bb72a2","system_id":"levelo_inurba_marseille","lat":43.29956,"lon":5.41324,"is_reserved":false,"is_disabled":false,"rental_uris":{"android":"levelo://app?vid=7a348d21-f2e8-43e7-9c15-c14bb9bb72a2","ios":"levelo://app?vid=7a348d21-f2e8-43e7-9c15-c14bb9bb72a2"},"vehicle_type_id":"4","last_reported":1728252473,"current_range_meters":22000,"station_id":"ce4bhp12rcd13ifvqh9g","pricing_plan_id":"cebpf4jnsgd1na2vs0mg"},{"bike_id":"e337e2fc-66bb-45cf-accc-092f6809fbeb","system_id":"levelo_inurba_marseille","lat":43.24673,"lon":5.38159,"is_reserved":false,"is_disabled":false,"rental_uris":{"android":"levelo://app?vid=e337e2fc-66bb-45cf-accc-092f6809fbeb","ios":"levelo://app?vid=e337e2fc-66bb-45cf-accc-092f6809fbeb"},"vehicle_type_id":"4","last_reported":1728252473,"current_range_meters":38400,"station_id":"ce4bhih2rcd13ifvqfr0","pricing_plan_id":"cebpf4jnsgd1na2vs0mg"},{"bike_id":"6b85f1aa-8089-48ad-94d4-250fceea6bae","system_id":"levelo_inurba_marseille","lat":43.28032,"lon":5.36933,"is_reserved":false,"is_disabled":false,"rental_uris":{"android":"levelo://app?vid=6b85f1aa-8089-48ad-94d4-250fceea6bae","ios":"levelo://app?vid=6b85f1aa-8089-48ad-94d4-250fceea6bae"},"vehicle_type_id":"4","last_reported":1728252473,"current_range_meters":24000,"station_id":"ce4bha12rcd13ifvqef0","pricing_plan_id":"cebpf4jnsgd1na2vs0mg"},{"bike_id":"8bd16631-5fed-4070-bcdf-51a0bee6bb63","system_id":"levelo_inurba_marseille","lat":43.27934,"lon":5.41041,"is_reserved":false,"is_disabled":false,"rental_uris":{"android":"levelo://app?vid=8bd16631-5fed-4070-bcdf-51a0bee6bb63","ios":"levelo://app?vid=8bd16631-5fed-4070-bcdf-51a0bee6bb63"},"vehicle_type_id":"4","last_reported":1728252473,"current_range_meters":25200,"station_id":"ce4bhnp2rcd13ifvqh0g","pricing_plan_id":"cebpf4jnsgd1na2vs0mg"},{"bike_id":"6f9298d0-5f53-433b-9c4a-49e3bb21c6ea","system_id":"levelo_inurba_marseille","lat":43.28352,"lon":5.381,"is_reserved":false,"is_disabled":false,"rental_uris":{"android":"levelo://app?vid=6f9298d0-5f53-433b-9c4a-49e3bb21c6ea","ios":"levelo://app?vid=6f9298d0-5f53-433b-9c4a-49e3bb21c6ea"},"vehicle_type_id":"4","last_reported":1728252473,"current_range_meters":38800,"station_id":"ce4bh412rcd13ifvqdr0","pricing_plan_id":"cebpf4jnsgd1na2vs0mg"},{"bike_id":"66a81085-1a96-4f65-934a-3195a2059afa","system_id":"levelo_inurba_marseille","lat":43.24648,"lon":5.38894,"is_reserved":false,"is_disabled":false,"rental_uris":{"android":"levelo://app?vid=66a81085-1a96-4f65-934a-3195a2059afa","ios":"levelo://app?vid=66a81085-1a96-4f65-934a-3195a2059afa"},"vehicle_type_id":"4","last_reported":1728252473,"current_range_meters":30400,"station_id":"ce4bhg12rcd13ifvqf60","pricing_plan_id":"cebpf4jnsgd1na2vs0mg"},{"bike_id":"de418b94-658a-4cf4-80c0-81d87cf7e675","system_id":"levelo_inurba_marseille","lat":43.29259,"lon":5.409155,"is_reserved":false,"is_disabled":false,"rental_uris":{"android":"levelo://app?vid=de418b94-658a-4cf4-80c0-81d87cf7e675","ios":"levelo://app?vid=de418b94-658a-4cf4-80c0-81d87cf7e675"},"vehicle_type_id":"4","last_reported":1728252473,"current_range_meters":30800,"station_id":"ce4bh192rcd13ifvqdc0","pricing_plan_id":"cebpf4jnsgd1na2vs0mg"},{"bike_id":"2bea7207-ca58-43c7-a5dc-8427afd5fc98","system_id":"levelo_inurba_marseille","lat":43.25473,"lon":5.41242,"is_reserved":false,"is_disabled":false,"rental_uris":{"android":"levelo://app?vid=2bea7207-ca58-43c7-a5dc-8427afd5fc98","ios":"levelo://app?vid=2bea7207-ca58-43c7-a5dc-8427afd5fc98"},"vehicle_type_id":"4","last_reported":1728252473,"current_range_meters":2800,"station_id":"","pricing_plan_id":"cebpf4jnsgd1na2vs0mg"},{"bike_id":"61bec512-5c79-4055-a048-77e59c5d1c57","system_id":"levelo_inurba_marseille","lat":43.28468,"lon":5.358771,"is_reserved":false,"is_disabled":false,"rental_uris":{"android":"levelo://app?vid=61bec512-5c79-4055-a048-77e59c5d1c57","ios":"levelo://app?vid=61bec512-5c79-4055-a048-77e59c5d1c57"},"vehicle_type_id":"4","last_reported":1728252473,"current_range_meters":38800,"station_id":"ce4bhah2rcd13ifvqei0","pricing_plan_id":"cebpf4jnsgd1na2vs0mg"},{"bike_id":"b15507aa-9663-460a-acd3-1d919ec55220","system_id":"levelo_inurba_marseille","lat":43.23188,"lon":5.39982,"is_reserved":false,"is_disabled":false,"rental_uris":{"android":"levelo://app?vid=b15507aa-9663-460a-acd3-1d919ec55220","ios":"levelo://app?vid=b15507aa-9663-460a-acd3-1d919ec55220"},"vehicle_type_id":"4","last_reported":1728252473,"current_range_meters":39200,"station_id":"ce4bhn12rcd13ifvqgqg","pricing_plan_id":"cebpf4jnsgd1na2vs0mg"},{"bike_id":"1c6ced08-6c65-4e22-a8e3-0734c3156234","system_id":"levelo_inurba_marseille","lat":43.25717,"lon":5.41105,"is_reserved":false,"is_disabled":false,"rental_uris":{"android":"levelo://app?vid=1c6ced08-6c65-4e22-a8e3-0734c3156234","ios":"levelo://app?vid=1c6ced08-6c65-4e22-a8e3-0734c3156234"},"vehicle_type_id":"4","last_reported":1728252473,"current_range_meters":37600,"station_id":"ce4bhkp2rcd13ifvqgd0","pricing_plan_id":"cebpf4jnsgd1na2vs0mg"},{"bike_id":"ca0879b0-330f-479d-853f-1c008340d8b5","system_id":"levelo_inurba_marseille","lat":43.31068,"lon":5.38343,"is_reserved":false,"is_disabled":false,"rental_uris":{"android":"levelo://app?vid=ca0879b0-330f-479d-853f-1c008340d8b5","ios":"levelo://app?vid=ca0879b0-330f-479d-853f-1c008340d8b5"},"vehicle_type_id":"4","last_reported":1728252473,"current_range_meters":12000,"station_id":"ce4bgv92rcd13ifvqcr0","pricing_plan_id":"cebpf4jnsgd1na2vs0mg"},{"bike_id":"7918b12d-040a-4a8e-b9a8-f0ac2a80d774","system_id":"levelo_inurba_marseille","lat":43.30304,"lon":5.369,"is_reserved":false,"is_disabled":false,"rental_uris":{"android":"levelo://app?vid=7918b12d-040a-4a8e-b9a8-f0ac2a80d774","ios":"levelo://app?vid=7918b12d-040a-4a8e-b9a8-f0ac2a80d774"},"vehicle_type_id":"4","last_reported":1728252473,"current_range_meters":11600,"station_id":"ce4bgqh2rcd13ifvqc5g","pricing_plan_id":"cebpf4jnsgd1na2vs0mg"},{"bike_id":"4bdcbcc9-d6ee-4741-88df-9b596cc02388","system_id":"levelo_inurba_marseille","lat":43.30891,"lon":5.37192,"is_reserved":false,"is_disabled":false,"rental_uris":{"android":"levelo://app?vid=4bdcbcc9-d6ee-4741-88df-9b596cc02388","ios":"levelo://app?vid=4bdcbcc9-d6ee-4741-88df-9b596cc02388"},"vehicle_type_id":"4","last_reported":1728252473,"current_range_meters":35600,"station_id":"ce4bguh2rcd13ifvqckg","pricing_plan_id":"cebpf4jnsgd1na2vs0mg"},{"bike_id":"9c3c6e29-f85a-4bf4-9052-4821a3e5d6d2","system_id":"levelo_inurba_marseille","lat":43.2867,"lon":5.38667,"is_reserved":false,"is_disabled":false,"rental_uris":{"android":"levelo://app?vid=9c3c6e29-f85a-4bf4-9052-4821a3e5d6d2","ios":"levelo://app?vid=9c3c6e29-f85a-4bf4-9052-4821a3e5d6d2"},"vehicle_type_id":"4","last_reported":1728252473,"current_range_meters":8000,"station_id":"ce4bh492rcd13ifvqdug","pricing_plan_id":"cebpf4jnsgd1na2vs0mg"},{"bike_id":"68b77a88-2067-422a-ab7b-e29094a40dcc","system_id":"levelo_inurba_marseille","lat":43.25122,"lon":5.40313,"is_reserved":false,"is_disabled":false,"rental_uris":{"android":"levelo://app?vid=68b77a88-2067-422a-ab7b-e29094a40dcc","ios":"levelo://app?vid=68b77a88-2067-422a-ab7b-e29094a40dcc"},"vehicle_type_id":"4","last_reported":1728252473,"current_range_meters":38800,"station_id":"ce4bhlh2rcd13ifvqgig","pricing_plan_id":"cebpf4jnsgd1na2vs0mg"},{"bike_id":"83d54d4a-a708-4af4-953c-a1569f745ffe","system_id":"levelo_inurba_marseille","lat":43.31692,"lon":5.3776,"is_reserved":false,"is_disabled":false,"rental_uris":{"android":"levelo://app?vid=83d54d4a-a708-4af4-953c-a1569f745ffe","ios":"levelo://app?vid=83d54d4a-a708-4af4-953c-a1569f745ffe"},"vehicle_type_id":"4","last_reported":1728252473,"current_range_meters":38800,"station_id":"ce4bgth2rcd13ifvqch0","pricing_plan_id":"cebpf4jnsgd1na2vs0mg"},{"bike_id":"8b5d7733-b439-4eff-8c2f-be6f7c9f03aa","system_id":"levelo_inurba_marseille","lat":43.28933,"lon":5.36399,"is_reserved":false,"is_disabled":false,"rental_uris":{"android":"levelo://app?vid=8b5d7733-b439-4eff-8c2f-be6f7c9f03aa","ios":"levelo://app?vid=8b5d7733-b439-4eff-8c2f-be6f7c9f03aa"},"vehicle_type_id":"4","last_reported":1728252473,"current_range_meters":6000,"station_id":"ce4bhc92rcd13ifvqetg","pricing_plan_id":"cebpf4jnsgd1na2vs0mg"},{"bike_id":"c0b8ebee-27ae-4c0f-a6ac-85e96575653e","system_id":"levelo_inurba_marseille","lat":43.28464,"lon":5.35874,"is_reserved":false,"is_disabled":false,"rental_uris":{"android":"levelo://app?vid=c0b8ebee-27ae-4c0f-a6ac-85e96575653e","ios":"levelo://app?vid=c0b8ebee-27ae-4c0f-a6ac-85e96575653e"},"vehicle_type_id":"4","last_reported":1728252473,"current_range_meters":22000,"station_id":"ce4bhah2rcd13ifvqei0","pricing_plan_id":"cebpf4jnsgd1na2vs0mg"},{"bike_id":"fd7017ae-b3c1-486d-9a11-7c66a0a1bb00","system_id":"levelo_inurba_marseille","lat":43.29799,"lon":5.3934,"is_reserved":false,"is_disabled":false,"rental_uris":{"android":"levelo://app?vid=fd7017ae-b3c1-486d-9a11-7c66a0a1bb00","ios":"levelo://app?vid=fd7017ae-b3c1-486d-9a11-7c66a0a1bb00"},"vehicle_type_id":"4","last_reported":1728252473,"current_range_meters":28800,"station_id":"chh1huq6cuj3fo74tm60","pricing_plan_id":"cebpf4jnsgd1na2vs0mg"},{"bike_id":"31dbe0be-b207-4d36-94f8-f90ff582d615","system_id":"levelo_inurba_marseille","lat":43.28617,"lon":5.35098,"is_reserved":false,"is_disabled":false,"rental_uris":{"android":"levelo://app?vid=31dbe0be-b207-4d36-94f8-f90ff582d615","ios":"levelo://app?vid=31dbe0be-b207-4d36-94f8-f90ff582d615"},"vehicle_type_id":"4","last_reported":1728252473,"current_range_meters":18000,"station_id":"ce4bhch2rcd13ifvqeug","pricing_plan_id":"cebpf4jnsgd1na2vs0mg"},{"bike_id":"80ba6692-36a2-471f-b8b5-0e783b8c298c","system_id":"levelo_inurba_marseille","lat":43.30785,"lon":5.37635,"is_reserved":false,"is_disabled":false,"rental_uris":{"android":"levelo://app?vid=80ba6692-36a2-471f-b8b5-0e783b8c298c","ios":"levelo://app?vid=80ba6692-36a2-471f-b8b5-0e783b8c298c"},"vehicle_type_id":"4","last_reported":1728252473,"current_range_meters":27600,"station_id":"ce4bgv92rcd13ifvqcq0","pricing_plan_id":"cebpf4jnsgd1na2vs0mg"},{"bike_id":"c06432f7-425c-41e6-b185-0d2b53e94168","system_id":"levelo_inurba_marseille","lat":43.29274,"lon":5.40114,"is_reserved":false,"is_disabled":false,"rental_uris":{"android":"levelo://app?vid=c06432f7-425c-41e6-b185-0d2b53e94168","ios":"levelo://app?vid=c06432f7-425c-41e6-b185-0d2b53e94168"},"vehicle_type_id":"4","last_reported":1728252473,"current_range_meters":25200,"station_id":"ce4bh312rcd13ifvqdk0","pricing_plan_id":"cebpf4jnsgd1na2vs0mg"},{"bike_id":"ad8b4a48-8d2c-4456-93da-970dbca9306e","system_id":"levelo_inurba_marseille","lat":43.31117,"lon":5.37752,"is_reserved":false,"is_disabled":false,"rental_uris":{"android":"levelo://app?vid=ad8b4a48-8d2c-4456-93da-970dbca9306e","ios":"levelo://app?vid=ad8b4a48-8d2c-4456-93da-970dbca9306e"},"vehicle_type_id":"4","last_reported":1728252473,"current_range_meters":38800,"station_id":"ce4bgt92rcd13ifvqcg0","pricing_plan_id":"cebpf4jnsgd1na2vs0mg"},{"bike_id":"a285724e-d8b9-484f-a9d0-bf71614174b2","system_id":"levelo_inurba_marseille","lat":43.29555,"lon":5.42277,"is_reserved":false,"is_disabled":false,"rental_uris":{"android":"levelo://app?vid=a285724e-d8b9-484f-a9d0-bf71614174b2","ios":"levelo://app?vid=a285724e-d8b9-484f-a9d0-bf71614174b2"},"vehicle_type_id":"4","last_reported":1728252473,"current_range_meters":38800,"station_id":"ce4bhph2rcd13ifvqhdg","pricing_plan_id":"cebpf4jnsgd1na2vs0mg"},{"bike_id":"5c95c647-d3eb-4ba6-881d-3b353c9a2f59","system_id":"levelo_inurba_marseille","lat":43.28106,"lon":5.3784,"is_reserved":false,"is_disabled":false,"rental_uris":{"android":"levelo://app?vid=5c95c647-d3eb-4ba6-881d-3b353c9a2f59","ios":"levelo://app?vid=5c95c647-d3eb-4ba6-881d-3b353c9a2f59"},"vehicle_type_id":"4","last_reported":1728252473,"current_range_meters":38400,"station_id":"ce4bha12rcd13ifvqee0","pricing_plan_id":"cebpf4jnsgd1na2vs0mg"},{"bike_id":"25f0e664-feb1-459b-bd9e-e3b4561b7fa0","system_id":"levelo_inurba_marseille","lat":43.29657,"lon":5.37888,"is_reserved":false,"is_disabled":false,"rental_uris":{"android":"levelo://app?vid=25f0e664-feb1-459b-bd9e-e3b4561b7fa0","ios":"levelo://app?vid=25f0e664-feb1-459b-bd9e-e3b4561b7fa0"},"vehicle_type_id":"4","last_reported":1728252473,"current_range_meters":38400,"station_id":"ce4bgl12rcd13ifvqbo0","pricing_plan_id":"cebpf4jnsgd1na2vs0mg"},{"bike_id":"86170d0b-8729-45dd-81c8-b82867ed835e","system_id":"levelo_inurba_marseille","lat":43.3089,"lon":5.37195,"is_reserved":false,"is_disabled":false,"rental_uris":{"android":"levelo://app?vid=86170d0b-8729-45dd-81c8-b82867ed835e","ios":"levelo://app?vid=86170d0b-8729-45dd-81c8-b82867ed835e"},"vehicle_type_id":"4","last_reported":1728252473,"current_range_meters":36000,"station_id":"ce4bguh2rcd13ifvqckg","pricing_plan_id":"cebpf4jnsgd1na2vs0mg"},{"bike_id":"27c5f2a9-8158-45c6-b742-4db159c5f60d","system_id":"levelo_inurba_marseille","lat":43.31334,"lon":5.39692,"is_reserved":false,"is_disabled":false,"rental_uris":{"android":"levelo://app?vid=27c5f2a9-8158-45c6-b742-4db159c5f60d","ios":"levelo://app?vid=27c5f2a9-8158-45c6-b742-4db159c5f60d"},"vehicle_type_id":"4","last_reported":1728252473,"current_range_meters":29600,"station_id":"ce4bgvp2rcd13ifvqcu0","pricing_plan_id":"cebpf4jnsgd1na2vs0mg"},{"bike_id":"7b370d99-5247-45ef-a303-548109cf04e4","system_id":"levelo_inurba_marseille","lat":43.25718,"lon":5.41095,"is_reserved":false,"is_disabled":false,"rental_uris":{"android":"levelo://app?vid=7b370d99-5247-45ef-a303-548109cf04e4","ios":"levelo://app?vid=7b370d99-5247-45ef-a303-548109cf04e4"},"vehicle_type_id":"4","last_reported":1728252473,"current_range_meters":6000,"station_id":"ce4bhkp2rcd13ifvqgd0","pricing_plan_id":"cebpf4jnsgd1na2vs0mg"},{"bike_id":"f7452467-f43b-421e-891e-59c26efa3cb6","system_id":"levelo_inurba_marseille","lat":43.3249,"lon":5.36561,"is_reserved":false,"is_disabled":false,"rental_uris":{"android":"levelo://app?vid=f7452467-f43b-421e-891e-59c26efa3cb6","ios":"levelo://app?vid=f7452467-f43b-421e-891e-59c26efa3cb6"},"vehicle_type_id":"4","last_reported":1728252473,"current_range_meters":33200,"station_id":"ce4bhs12rcd13ifvqhvg","pricing_plan_id":"cebpf4jnsgd1na2vs0mg"},{"bike_id":"8ffce609-7f44-4787-9202-2d3775564a59","system_id":"levelo_inurba_marseille","lat":43.28438,"lon":5.39179,"is_reserved":false,"is_disabled":false,"rental_uris":{"android":"levelo://app?vid=8ffce609-7f44-4787-9202-2d3775564a59","ios":"levelo://app?vid=8ffce609-7f44-4787-9202-2d3775564a59"},"vehicle_type_id":"4","last_reported":1728252473,"current_range_meters":36400,"station_id":"ce4bhoh2rcd13ifvqh5g","pricing_plan_id":"cebpf4jnsgd1na2vs0mg"},{"bike_id":"46111dd5-309e-46c2-94a5-fd1026f78ab1","system_id":"levelo_inurba_marseille","lat":43.31114,"lon":5.37757,"is_reserved":false,"is_disabled":false,"rental_uris":{"android":"levelo://app?vid=46111dd5-309e-46c2-94a5-fd1026f78ab1","ios":"levelo://app?vid=46111dd5-309e-46c2-94a5-fd1026f78ab1"},"vehicle_type_id":"4","last_reported":1728252473,"current_range_meters":17200,"station_id":"ce4bgt92rcd13ifvqcg0","pricing_plan_id":"cebpf4jnsgd1na2vs0mg"},{"bike_id":"a6efd440-64c2-4bc6-9a2b-c6f1c2b5dae0","system_id":"levelo_inurba_marseille","lat":43.31076,"lon":5.383539,"is_reserved":false,"is_disabled":false,"rental_uris":{"android":"levelo://app?vid=a6efd440-64c2-4bc6-9a2b-c6f1c2b5dae0","ios":"levelo://app?vid=a6efd440-64c2-4bc6-9a2b-c6f1c2b5dae0"},"vehicle_type_id":"4","last_reported":1728252473,"current_range_meters":25600,"station_id":"ce4bgv92rcd13ifvqcr0","pricing_plan_id":"cebpf4jnsgd1na2vs0mg"},{"bike_id":"3af48eb3-1d1f-4a32-a948-7cc05add2405","system_id":"levelo_inurba_marseille","lat":43.24551,"lon":5.39522,"is_reserved":false,"is_disabled":false,"rental_uris":{"android":"levelo://app?vid=3af48eb3-1d1f-4a32-a948-7cc05add2405","ios":"levelo://app?vid=3af48eb3-1d1f-4a32-a948-7cc05add2405"},"vehicle_type_id":"4","last_reported":1728252473,"current_range_meters":28800,"station_id":"ce4bhlp2rcd13ifvqgjg","pricing_plan_id":"cebpf4jnsgd1na2vs0mg"},{"bike_id":"77e44f96-8992-4ec5-ba2c-5e51b9e5b288","system_id":"levelo_inurba_marseille","lat":43.27065,"lon":5.38781,"is_reserved":false,"is_disabled":false,"rental_uris":{"android":"levelo://app?vid=77e44f96-8992-4ec5-ba2c-5e51b9e5b288","ios":"levelo://app?vid=77e44f96-8992-4ec5-ba2c-5e51b9e5b288"},"vehicle_type_id":"4","last_reported":1728252473,"current_range_meters":34800,"station_id":"","pricing_plan_id":"cebpf4jnsgd1na2vs0mg"},{"bike_id":"e483c2df-b264-469a-9770-b5566865794c","system_id":"levelo_inurba_marseille","lat":43.28702,"lon":5.39976,"is_reserved":false,"is_disabled":false,"rental_uris":{"android":"levelo://app?vid=e483c2df-b264-469a-9770-b5566865794c","ios":"levelo://app?vid=e483c2df-b264-469a-9770-b5566865794c"},"vehicle_type_id":"4","last_reported":1728252473,"current_range_meters":37600,"station_id":"ce4bho92rcd13ifvqh3g","pricing_plan_id":"cebpf4jnsgd1na2vs0mg"},{"bike_id":"67c4d9dd-ea85-4b87-a82f-9d128e46f7d4","system_id":"levelo_inurba_marseille","lat":43.24547,"lon":5.39527,"is_reserved":false,"is_disabled":false,"rental_uris":{"android":"levelo://app?vid=67c4d9dd-ea85-4b87-a82f-9d128e46f7d4","ios":"levelo://app?vid=67c4d9dd-ea85-4b87-a82f-9d128e46f7d4"},"vehicle_type_id":"4","last_reported":1728252473,"current_range_meters":37600,"station_id":"ce4bhlp2rcd13ifvqgjg","pricing_plan_id":"cebpf4jnsgd1na2vs0mg"},{"bike_id":"44cb9723-f094-45c7-9c71-6d82e25886a7","system_id":"levelo_inurba_marseille","lat":43.23053,"lon":5.3549,"is_reserved":false,"is_disabled":false,"rental_uris":{"android":"levelo://app?vid=44cb9723-f094-45c7-9c71-6d82e25886a7","ios":"levelo://app?vid=44cb9723-f094-45c7-9c71-6d82e25886a7"},"vehicle_type_id":"4","last_reported":1728252473,"current_range_meters":38800,"station_id":"cpo3342slgdg3j2ifvpg","pricing_plan_id":"cebpf4jnsgd1na2vs0mg"},{"bike_id":"b51ee6d2-4574-4587-a7f0-3852397ae634","system_id":"levelo_inurba_marseille","lat":43.22934,"lon":5.35376,"is_reserved":false,"is_disabled":false,"rental_uris":{"android":"levelo://app?vid=b51ee6d2-4574-4587-a7f0-3852397ae634","ios":"levelo://app?vid=b51ee6d2-4574-4587-a7f0-3852397ae634"},"vehicle_type_id":"4","last_reported":1728252473,"current_range_meters":34000,"station_id":"cpo3532slgdg3j2ikp40","pricing_plan_id":"cebpf4jnsgd1na2vs0mg"},{"bike_id":"b78de78d-efbe-4aaf-8db4-ebbfd97eb2d2","system_id":"levelo_inurba_marseille","lat":43.27368,"lon":5.36247,"is_reserved":false,"is_disabled":false,"rental_uris":{"android":"levelo://app?vid=b78de78d-efbe-4aaf-8db4-ebbfd97eb2d2","ios":"levelo://app?vid=b78de78d-efbe-4aaf-8db4-ebbfd97eb2d2"},"vehicle_type_id":"4","last_reported":1728252473,"current_range_meters":38000,"station_id":"ce4bhbh2rcd13ifvqeo0","pricing_plan_id":"cebpf4jnsgd1na2vs0mg"},{"bike_id":"2f1e8879-e0af-4267-beb2-826f07f9adbd","system_id":"levelo_inurba_marseille","lat":43.28474,"lon":5.38546,"is_reserved":false,"is_disabled":false,"rental_uris":{"android":"levelo://app?vid=2f1e8879-e0af-4267-beb2-826f07f9adbd","ios":"levelo://app?vid=2f1e8879-e0af-4267-beb2-826f07f9adbd"},"vehicle_type_id":"4","last_reported":1728252473,"current_range_meters":8400,"station_id":"ce4bh8p2rcd13ifvqeb0","pricing_plan_id":"cebpf4jnsgd1na2vs0mg"},{"bike_id":"6a217875-cf24-470c-9d34-0fd8beb4dfb1","system_id":"levelo_inurba_marseille","lat":43.33609,"lon":5.41035,"is_reserved":false,"is_disabled":false,"rental_uris":{"android":"levelo://app?vid=6a217875-cf24-470c-9d34-0fd8beb4dfb1","ios":"levelo://app?vid=6a217875-cf24-470c-9d34-0fd8beb4dfb1"},"vehicle_type_id":"4","last_reported":1728252473,"current_range_meters":37600,"station_id":"ce4bhqh2rcd13ifvqhmg","pricing_plan_id":"cebpf4jnsgd1na2vs0mg"},{"bike_id":"5f60c541-6cd8-440c-af1b-186c8381e736","system_id":"levelo_inurba_marseille","lat":43.28437,"lon":5.39184,"is_reserved":false,"is_disabled":false,"rental_uris":{"android":"levelo://app?vid=5f60c541-6cd8-440c-af1b-186c8381e736","ios":"levelo://app?vid=5f60c541-6cd8-440c-af1b-186c8381e736"},"vehicle_type_id":"4","last_reported":1728252473,"current_range_meters":16800,"station_id":"ce4bhoh2rcd13ifvqh5g","pricing_plan_id":"cebpf4jnsgd1na2vs0mg"},{"bike_id":"f2acd239-ccb9-48cf-834c-23b38c9062b9","system_id":"levelo_inurba_marseille","lat":43.26193,"lon":5.37446,"is_reserved":false,"is_disabled":false,"rental_uris":{"android":"levelo://app?vid=f2acd239-ccb9-48cf-834c-23b38c9062b9","ios":"levelo://app?vid=f2acd239-ccb9-48cf-834c-23b38c9062b9"},"vehicle_type_id":"4","last_reported":1728252473,"current_range_meters":2800,"station_id":"ce4bhgp2rcd13ifvqfc0","pricing_plan_id":"cebpf4jnsgd1na2vs0mg"},{"bike_id":"4e0c83a2-b0c3-4894-8559-e509681998d3","system_id":"levelo_inurba_marseille","lat":43.31114,"lon":5.38324,"is_reserved":false,"is_disabled":false,"rental_uris":{"android":"levelo://app?vid=4e0c83a2-b0c3-4894-8559-e509681998d3","ios":"levelo://app?vid=4e0c83a2-b0c3-4894-8559-e509681998d3"},"vehicle_type_id":"4","last_reported":1728252473,"current_range_meters":7200,"station_id":"ce4bgv92rcd13ifvqcr0","pricing_plan_id":"cebpf4jnsgd1na2vs0mg"},{"bike_id":"a76ee3fd-363a-4d57-9618-b37ded534ce5","system_id":"levelo_inurba_marseille","lat":43.24392,"lon":5.37068,"is_reserved":false,"is_disabled":false,"rental_uris":{"android":"levelo://app?vid=a76ee3fd-363a-4d57-9618-b37ded534ce5","ios":"levelo://app?vid=a76ee3fd-363a-4d57-9618-b37ded534ce5"},"vehicle_type_id":"4","last_reported":1728252473,"current_range_meters":37600,"station_id":"ce4bhhh2rcd13ifvqfk0","pricing_plan_id":"cebpf4jnsgd1na2vs0mg"},{"bike_id":"79f4b86c-d8a8-4ba8-8d92-b98b5173d09a","system_id":"levelo_inurba_marseille","lat":43.2857,"lon":5.39495,"is_reserved":false,"is_disabled":false,"rental_uris":{"android":"levelo://app?vid=79f4b86c-d8a8-4ba8-8d92-b98b5173d09a","ios":"levelo://app?vid=79f4b86c-d8a8-4ba8-8d92-b98b5173d09a"},"vehicle_type_id":"4","last_reported":1728252473,"current_range_meters":26800,"station_id":"ce4bh292rcd13ifvqdg0","pricing_plan_id":"cebpf4jnsgd1na2vs0mg"},{"bike_id":"ae53a9d1-01ac-447b-a4c7-269e1c5ac403","system_id":"levelo_inurba_marseille","lat":43.31822,"lon":5.40632,"is_reserved":false,"is_disabled":false,"rental_uris":{"android":"levelo://app?vid=ae53a9d1-01ac-447b-a4c7-269e1c5ac403","ios":"levelo://app?vid=ae53a9d1-01ac-447b-a4c7-269e1c5ac403"},"vehicle_type_id":"4","last_reported":1728252473,"current_range_meters":10000,"station_id":"","pricing_plan_id":"cebpf4jnsgd1na2vs0mg"},{"bike_id":"583707f1-0e79-4991-97d9-91493229adea","system_id":"levelo_inurba_marseille","lat":43.32657,"lon":5.40991,"is_reserved":false,"is_disabled":false,"rental_uris":{"android":"levelo://app?vid=583707f1-0e79-4991-97d9-91493229adea","ios":"levelo://app?vid=583707f1-0e79-4991-97d9-91493229adea"},"vehicle_type_id":"4","last_reported":1728252473,"current_range_meters":38800,"station_id":"ce4bhpp2rcd13ifvqhgg","pricing_plan_id":"cebpf4jnsgd1na2vs0mg"},{"bike_id":"0c2058c5-8d7e-45f4-b3c7-a29098a68ff4","system_id":"levelo_inurba_marseille","lat":43.24388,"lon":5.37053,"is_reserved":false,"is_disabled":false,"rental_uris":{"android":"levelo://app?vid=0c2058c5-8d7e-45f4-b3c7-a29098a68ff4","ios":"levelo://app?vid=0c2058c5-8d7e-45f4-b3c7-a29098a68ff4"},"vehicle_type_id":"4","last_reported":1728252473,"current_range_meters":38800,"station_id":"ce4bhhh2rcd13ifvqfk0","pricing_plan_id":"cebpf4jnsgd1na2vs0mg"},{"bike_id":"08b70c8a-f66e-4961-9183-062e687ee9f9","system_id":"levelo_inurba_marseille","lat":43.28458,"lon":5.35883,"is_reserved":false,"is_disabled":false,"rental_uris":{"android":"levelo://app?vid=08b70c8a-f66e-4961-9183-062e687ee9f9","ios":"levelo://app?vid=08b70c8a-f66e-4961-9183-062e687ee9f9"},"vehicle_type_id":"4","last_reported":1728252473,"current_range_meters":32000,"station_id":"ce4bhah2rcd13ifvqei0","pricing_plan_id":"cebpf4jnsgd1na2vs0mg"},{"bike_id":"34ff7be7-8c5d-44aa-9d82-61dde1fca75d","system_id":"levelo_inurba_marseille","lat":43.29704,"lon":5.36621,"is_reserved":false,"is_disabled":false,"rental_uris":{"android":"levelo://app?vid=34ff7be7-8c5d-44aa-9d82-61dde1fca75d","ios":"levelo://app?vid=34ff7be7-8c5d-44aa-9d82-61dde1fca75d"},"vehicle_type_id":"4","last_reported":1728252473,"current_range_meters":38400,"station_id":"ce4bgn12rcd13ifvqbt0","pricing_plan_id":"cebpf4jnsgd1na2vs0mg"},{"bike_id":"f78d3fb0-9f99-4c45-ae1f-edf0a6e323e2","system_id":"levelo_inurba_marseille","lat":43.2847,"lon":5.35881,"is_reserved":false,"is_disabled":false,"rental_uris":{"android":"levelo://app?vid=f78d3fb0-9f99-4c45-ae1f-edf0a6e323e2","ios":"levelo://app?vid=f78d3fb0-9f99-4c45-ae1f-edf0a6e323e2"},"vehicle_type_id":"4","last_reported":1728252473,"current_range_meters":18000,"station_id":"ce4bhah2rcd13ifvqei0","pricing_plan_id":"cebpf4jnsgd1na2vs0mg"},{"bike_id":"bc3691b3-7baf-4def-8ecf-c3f59a294e01","system_id":"levelo_inurba_marseille","lat":43.30889,"lon":5.39652,"is_reserved":false,"is_disabled":false,"rental_uris":{"android":"levelo://app?vid=bc3691b3-7baf-4def-8ecf-c3f59a294e01","ios":"levelo://app?vid=bc3691b3-7baf-4def-8ecf-c3f59a294e01"},"vehicle_type_id":"4","last_reported":1728252473,"current_range_meters":17600,"station_id":"ce4bh012rcd13ifvqcv0","pricing_plan_id":"cebpf4jnsgd1na2vs0mg"},{"bike_id":"8dea3b3f-b6ec-4739-9037-42b898bbb532","system_id":"levelo_inurba_marseille","lat":43.31329,"lon":5.39698,"is_reserved":false,"is_disabled":false,"rental_uris":{"android":"levelo://app?vid=8dea3b3f-b6ec-4739-9037-42b898bbb532","ios":"levelo://app?vid=8dea3b3f-b6ec-4739-9037-42b898bbb532"},"vehicle_type_id":"4","last_reported":1728252473,"current_range_meters":19200,"station_id":"ce4bgvp2rcd13ifvqcu0","pricing_plan_id":"cebpf4jnsgd1na2vs0mg"},{"bike_id":"c50e441c-d247-4c47-85e3-c59071bb20fa","system_id":"levelo_inurba_marseille","lat":43.24544,"lon":5.39528,"is_reserved":false,"is_disabled":false,"rental_uris":{"android":"levelo://app?vid=c50e441c-d247-4c47-85e3-c59071bb20fa","ios":"levelo://app?vid=c50e441c-d247-4c47-85e3-c59071bb20fa"},"vehicle_type_id":"4","last_reported":1728252473,"current_range_meters":28000,"station_id":"ce4bhlp2rcd13ifvqgjg","pricing_plan_id":"cebpf4jnsgd1na2vs0mg"},{"bike_id":"cb0c4bb6-cb6f-4371-b1cd-d16d8e1b0e2d","system_id":"levelo_inurba_marseille","lat":43.23182,"lon":5.39977,"is_reserved":false,"is_disabled":false,"rental_uris":{"android":"levelo://app?vid=cb0c4bb6-cb6f-4371-b1cd-d16d8e1b0e2d","ios":"levelo://app?vid=cb0c4bb6-cb6f-4371-b1cd-d16d8e1b0e2d"},"vehicle_type_id":"4","last_reported":1728252473,"current_range_meters":38800,"station_id":"ce4bhn12rcd13ifvqgqg","pricing_plan_id":"cebpf4jnsgd1na2vs0mg"},{"bike_id":"98688872-48f9-4422-81b8-dc7e20309db0","system_id":"levelo_inurba_marseille","lat":43.27995,"lon":5.41659,"is_reserved":false,"is_disabled":false,"rental_uris":{"android":"levelo://app?vid=98688872-48f9-4422-81b8-dc7e20309db0","ios":"levelo://app?vid=98688872-48f9-4422-81b8-dc7e20309db0"},"vehicle_type_id":"4","last_reported":1728252473,"current_range_meters":2000,"station_id":"ce4bho12rcd13ifvqh1g","pricing_plan_id":"cebpf4jnsgd1na2vs0mg"},{"bike_id":"14e00e44-d9b7-471b-962e-bc98305eb0a0","system_id":"levelo_inurba_marseille","lat":43.29914,"lon":5.37461,"is_reserved":false,"is_disabled":false,"rental_uris":{"android":"levelo://app?vid=14e00e44-d9b7-471b-962e-bc98305eb0a0","ios":"levelo://app?vid=14e00e44-d9b7-471b-962e-bc98305eb0a0"},"vehicle_type_id":"4","last_reported":1728252473,"current_range_meters":35600,"station_id":"ce4bgjh2rcd13ifvqbg0","pricing_plan_id":"cebpf4jnsgd1na2vs0mg"},{"bike_id":"2c3e549a-0bb2-4fb9-bd22-57595391bba7","system_id":"levelo_inurba_marseille","lat":43.28482,"lon":5.3842,"is_reserved":false,"is_disabled":false,"rental_uris":{"android":"levelo://app?vid=2c3e549a-0bb2-4fb9-bd22-57595391bba7","ios":"levelo://app?vid=2c3e549a-0bb2-4fb9-bd22-57595391bba7"},"vehicle_type_id":"4","last_reported":1728252473,"current_range_meters":38400,"station_id":"ce4bh512rcd13ifvqe3g","pricing_plan_id":"cebpf4jnsgd1na2vs0mg"},{"bike_id":"6b4618ac-bf15-42bd-b8ce-f62f3e28352b","system_id":"levelo_inurba_marseille","lat":43.23196,"lon":5.35552,"is_reserved":false,"is_disabled":false,"rental_uris":{"android":"levelo://app?vid=6b4618ac-bf15-42bd-b8ce-f62f3e28352b","ios":"levelo://app?vid=6b4618ac-bf15-42bd-b8ce-f62f3e28352b"},"vehicle_type_id":"4","last_reported":1728252473,"current_range_meters":36800,"station_id":"ce4bhu92rcd13ifvqi70","pricing_plan_id":"cebpf4jnsgd1na2vs0mg"},{"bike_id":"cf510518-0d7c-4245-b5b4-9bc84058e427","system_id":"levelo_inurba_marseille","lat":43.25115,"lon":5.40326,"is_reserved":false,"is_disabled":false,"rental_uris":{"android":"levelo://app?vid=cf510518-0d7c-4245-b5b4-9bc84058e427","ios":"levelo://app?vid=cf510518-0d7c-4245-b5b4-9bc84058e427"},"vehicle_type_id":"4","last_reported":1728252473,"current_range_meters":24800,"station_id":"ce4bhlh2rcd13ifvqgig","pricing_plan_id":"cebpf4jnsgd1na2vs0mg"},{"bike_id":"d81e8b70-0cec-4a83-ac18-c99848066d32","system_id":"levelo_inurba_marseille","lat":43.24076,"lon":5.37743,"is_reserved":false,"is_disabled":false,"rental_uris":{"android":"levelo://app?vid=d81e8b70-0cec-4a83-ac18-c99848066d32","ios":"levelo://app?vid=d81e8b70-0cec-4a83-ac18-c99848066d32"},"vehicle_type_id":"4","last_reported":1728252473,"current_range_meters":38800,"station_id":"ce4bhnp2rcd13ifvqgvg","pricing_plan_id":"cebpf4jnsgd1na2vs0mg"},{"bike_id":"0b3fc274-1722-4bcf-bc74-07f71a3b14f8","system_id":"levelo_inurba_marseille","lat":43.2928,"lon":5.40114,"is_reserved":false,"is_disabled":false,"rental_uris":{"android":"levelo://app?vid=0b3fc274-1722-4bcf-bc74-07f71a3b14f8","ios":"levelo://app?vid=0b3fc274-1722-4bcf-bc74-07f71a3b14f8"},"vehicle_type_id":"4","last_reported":1728252473,"current_range_meters":23200,"station_id":"ce4bh312rcd13ifvqdk0","pricing_plan_id":"cebpf4jnsgd1na2vs0mg"},{"bike_id":"bdefae95-7cc5-4880-bfcb-b1af39586be0","system_id":"levelo_inurba_marseille","lat":43.32657,"lon":5.41001,"is_reserved":false,"is_disabled":false,"rental_uris":{"android":"levelo://app?vid=bdefae95-7cc5-4880-bfcb-b1af39586be0","ios":"levelo://app?vid=bdefae95-7cc5-4880-bfcb-b1af39586be0"},"vehicle_type_id":"4","last_reported":1728252473,"current_range_meters":35200,"station_id":"ce4bhpp2rcd13ifvqhgg","pricing_plan_id":"cebpf4jnsgd1na2vs0mg"},{"bike_id":"7f2584c3-186b-4ca9-b416-bee639b50e12","system_id":"levelo_inurba_marseille","lat":43.22935,"lon":5.35379,"is_reserved":false,"is_disabled":false,"rental_uris":{"android":"levelo://app?vid=7f2584c3-186b-4ca9-b416-bee639b50e12","ios":"levelo://app?vid=7f2584c3-186b-4ca9-b416-bee639b50e12"},"vehicle_type_id":"4","last_reported":1728252473,"current_range_meters":27600,"station_id":"cpo3532slgdg3j2ikp40","pricing_plan_id":"cebpf4jnsgd1na2vs0mg"},{"bike_id":"1d152269-c2fa-4900-bfa9-f20a095e29df","system_id":"levelo_inurba_marseille","lat":43.25721,"lon":5.41116,"is_reserved":false,"is_disabled":false,"rental_uris":{"android":"levelo://app?vid=1d152269-c2fa-4900-bfa9-f20a095e29df","ios":"levelo://app?vid=1d152269-c2fa-4900-bfa9-f20a095e29df"},"vehicle_type_id":"4","last_reported":1728252473,"current_range_meters":38000,"station_id":"ce4bhkp2rcd13ifvqgd0","pricing_plan_id":"cebpf4jnsgd1na2vs0mg"},{"bike_id":"eaca2dd7-3623-456a-a5a3-868893c89918","system_id":"levelo_inurba_marseille","lat":43.32295,"lon":5.38276,"is_reserved":false,"is_disabled":false,"rental_uris":{"android":"levelo://app?vid=eaca2dd7-3623-456a-a5a3-868893c89918","ios":"levelo://app?vid=eaca2dd7-3623-456a-a5a3-868893c89918"},"vehicle_type_id":"4","last_reported":1728252473,"current_range_meters":30000,"station_id":"ce4bhr12rcd13ifvqhqg","pricing_plan_id":"cebpf4jnsgd1na2vs0mg"},{"bike_id":"de4c08ca-e041-41b0-bf42-6c06fba1dff2","system_id":"levelo_inurba_marseille","lat":43.24071,"lon":5.37766,"is_reserved":false,"is_disabled":false,"rental_uris":{"android":"levelo://app?vid=de4c08ca-e041-41b0-bf42-6c06fba1dff2","ios":"levelo://app?vid=de4c08ca-e041-41b0-bf42-6c06fba1dff2"},"vehicle_type_id":"4","last_reported":1728252473,"current_range_meters":38800,"station_id":"ce4bhnp2rcd13ifvqgvg","pricing_plan_id":"cebpf4jnsgd1na2vs0mg"},{"bike_id":"5182113f-8908-4825-903e-5a46e19bca5b","system_id":"levelo_inurba_marseille","lat":43.32479,"lon":5.36558,"is_reserved":false,"is_disabled":false,"rental_uris":{"android":"levelo://app?vid=5182113f-8908-4825-903e-5a46e19bca5b","ios":"levelo://app?vid=5182113f-8908-4825-903e-5a46e19bca5b"},"vehicle_type_id":"4","last_reported":1728252473,"current_range_meters":28000,"station_id":"ce4bhs12rcd13ifvqhvg","pricing_plan_id":"cebpf4jnsgd1na2vs0mg"},{"bike_id":"e03c9d0c-17ae-4003-b903-fd8aa9951041","system_id":"levelo_inurba_marseille","lat":43.33743,"lon":5.3745,"is_reserved":false,"is_disabled":false,"rental_uris":{"android":"levelo://app?vid=e03c9d0c-17ae-4003-b903-fd8aa9951041","ios":"levelo://app?vid=e03c9d0c-17ae-4003-b903-fd8aa9951041"},"vehicle_type_id":"4","last_reported":1728252473,"current_range_meters":32000,"station_id":"","pricing_plan_id":"cebpf4jnsgd1na2vs0mg"},