{"last_updated":1748430536,"ttl":60,"version":"2.2","data":{"bikes":[{"bike_id":"55d42eeb-6b71-4987-a0f2-3d758b10d43e","system_id":"levelo_inurba_marseille","lat":43.33771,"lon":5.37424,"is_reserved":false,"is_disabled":true,"rental_uris":{"android":"levelo://app?vid=55d42eeb-6b71-4987-a0f2-3d758b10d43e","ios":"levelo://app?vid=55d42eeb-6b71-4987-a0f2-3d758b10d43e"},"vehicle_type_id":"4","last_reported":1748430536,"current_range_meters":0,"station_id":"","pricing_plan_id":"cebpf4jnsgd1na2vs0mg"},{"bike_id":"b7fe4621-b706-42f0-9085-4811142f84e8","system_id":"levelo_inurba_marseille","lat":43.337499,"lon":5.374469,"is_reserved":false,"is_disabled":true,"rental_uris":{"android":"levelo://app?vid=b7fe4621-b706-42f0-9085-4811142f84e8","ios":"levelo://app?vid=b7fe4621-b706-42f0-9085-4811142f84e8"},"vehicle_type_id":"4","last_reported":1748430536,"current_range_meters":0,"station_id":"","pricing_plan_id":"cebpf4jnsgd1na2vs0mg"},{"bike_id":"ad402f0f-3192-410c-afac-8cf064a40c6d","system_id":"levelo_inurba_marseille","lat":43.337444,"lon":5.374475,"is_reserved":false,"is_disabled":true,"rental_uris":{"android":"levelo://app?vid=ad402f0f-3192-410c-afac-8cf064a40c6d","ios":"levelo://app?vid=ad402f0f-3192-410c-afac-8cf064a40c6d"},"vehicle_type_id":"4","last_reported":1748430536,"current_range_meters":0,"station_id":"","pricing_plan_id":"cebpf4jnsgd1na2vs0mg"},{"bike_id":"cc296809-08df-4102-b00e-a11fbd482cd4","system_id":"levelo_inurba_marseille","lat":43.2345,"lon":5.41259,"is_reserved":false,"is_disabled":true,"rental_uris":{"android":"levelo://app?vid=cc296809-08df-4102-b00e-a11fbd482cd4","ios":"levelo://app?vid=cc296809-08df-4102-b00e-a11fbd482cd4"},"vehicle_type_id":"4","last_reported":1748430536,"current_range_meters":0,"station_id":"","pricing_plan_id":"cebpf4jnsgd1na2vs0mg"},{"bike_id":"80dc1064-d63f-4a22-ad21-d8abd70986c0","system_id":"levelo_inurba_marseille","lat":43.300668,"lon":5.410383,"is_reserved":false,"is_disabled":true,"rental_uris":{"android":"levelo://app?vid=80dc1064-d63f-4a22-ad21-d8abd70986c0","ios":"levelo://app?vid=80dc1064-d63f-4a22-ad21-d8abd70986c0"},"vehicle_type_id":"4","last_reported":1748430536,"current_range_meters":0,"station_id":"","pricing_plan_id":"cebpf4jnsgd1na2vs0mg"},{"bike_id":"2fd7e160-685c-4858-b57b-dcaef27a8e94","system_id":"levelo_inurba_marseille","lat":43.230331,"lon":5.401847,"is_reserved":false,"is_disabled":true,"rental_uris":{"android":"levelo://app?vid=2fd7e160-685c-4858-b57b-dcaef27a8e94","ios":"levelo://app?vid=2fd7e160-685c-4858-b57b-dcaef27a8e94"},"vehicle_type_id":"4","last_reported":1748430536,"current_range_meters":0,"station_id":"","pricing_plan_id":"cebpf4jnsgd1na2vs0mg"},{"bike_id":"97c021c4-1b51-4829-866e-3c515e5957bf","system_id":"levelo_inurba_marseille","lat":43.29571,"lon":5.37502,"is_reserved":false,"is_disabled":true,"rental_uris":{"android":"levelo://app?vid=97c021c4-1b51-4829-866e-3c515e5957bf","ios":"levelo://app?vid=97c021c4-1b51-4829-866e-3c515e5957bf"},"vehicle_type_id":"4","last_reported":1748430536,"current_range_meters":0,"station_id":"ce4bgh92rcd13ifvqb50","pricing_plan_id":"cebpf4jnsgd1na2vs0mg"},{"bike_id":"c1360c63-b3b6-45ff-8d60-c4137ade76d9","system_id":"levelo_inurba_marseille","lat":43.29263,"lon":5.37616,"is_reserved":false,"is_disabled":true,"rental_uris":{"android":"levelo://app?vid=c1360c63-b3b6-45ff-8d60-c4137ade76d9","ios":"levelo://app?vid=c1360c63-b3b6-45ff-8d60-c4137ade76d9"},"vehicle_type_id":"4","last_reported":1748430536,"current_range_meters":0,"station_id":"ce4bgi12rcd13ifvqb80","pricing_plan_id":"cebpf4jnsgd1na2vs0mg"},{"bike_id":"e9845647-3eef-4c1b-bda1-d281583dc1f8","system_id":"levelo_inurba_marseille","lat":43.2964,"lon":5.40589,"is_reserved":false,"is_disabled":true,"rental_uris":{"android":"levelo://app?vid=e9845647-3eef-4c1b-bda1-d281583dc1f8","ios":"levelo://app?vid=e9845647-3eef-4c1b-bda1-d281583dc1f8"},"vehicle_type_id":"4","last_reported":1748430536,"current_range_meters":0,"station_id":"ce4bh0h2rcd13ifvqd60","pricing_plan_id":"cebpf4jnsgd1na2vs0mg"},{"bike_id":"55e619ee-59fc-4105-b7c9-e6cb71564b69","system_id":"levelo_inurba_marseille","lat":43.29173,"lon":5.37136,"is_reserved":false,"is_disabled":true,"rental_uris":{"android":"levelo://app?vid=55e619ee-59fc-4105-b7c9-e6cb71564b69","ios":"levelo://app?vid=55e619ee-59fc-4105-b7c9-e6cb71564b69"},"vehicle_type_id":"4","last_reported":1748430536,"current_range_meters":0,"station_id":"ce4bha92rcd13ifvqeh0","pricing_plan_id":"cebpf4jnsgd1na2vs0mg"},{"bike_id":"06d49c64-6abd-4bc6-b5d9-bff06ec35d23","system_id":"levelo_inurba_marseille","lat":43.23151,"lon":5.43713,"is_reserved":false,"is_disabled":true,"rental_uris":{"android":"levelo://app?vid=06d49c64-6abd-4bc6-b5d9-bff06ec35d23","ios":"levelo://app?vid=06d49c64-6abd-4bc6-b5d9-bff06ec35d23"},"vehicle_type_id":"4","last_reported":1748430536,"current_range_meters":0,"station_id":"ce4bhmp2rcd13ifvqgog","pricing_plan_id":"cebpf4jnsgd1na2vs0mg"},{"bike_id":"720ce4d2-4dcb-484b-b736-fc1a93c19ec5","system_id":"levelo_inurba_marseille","lat":43.23149,"lon":5.43712,"is_reserved":false,"is_disabled":true,"rental_uris":{"android":"levelo://app?vid=720ce4d2-4dcb-484b-b736-fc1a93c19ec5","ios":"levelo://app?vid=720ce4d2-4dcb-484b-b736-fc1a93c19ec5"},"vehicle_type_id":"4","last_reported":1748430536,"current_range_meters":0,"station_id":"ce4bhmp2rcd13ifvqgog","pricing_plan_id":"cebpf4jnsgd1na2vs0mg"},{"bike_id":"7ccbe713-6267-4079-a69a-21154b1ff98d","system_id":"levelo_inurba_marseille","lat":43.29964,"lon":5.41318,"is_reserved":false,"is_disabled":true,"rental_uris":{"android":"levelo://app?vid=7ccbe713-6267-4079-a69a-21154b1ff98d","ios":"levelo://app?vid=7ccbe713-6267-4079-a69a-21154b1ff98d"},"vehicle_type_id":"4","last_reported":1748430536,"current_range_meters":0,"station_id":"ce4bhp12rcd13ifvqh9g","pricing_plan_id":"cebpf4jnsgd1na2vs0mg"},{"bike_id":"48302b09-9796-4c07-873c-71c536e0622c","system_id":"levelo_inurba_marseille","lat":43.24165,"lon":5.36391,"is_reserved":false,"is_disabled":true,"rental_uris":{"android":"levelo://app?vid=48302b09-9796-4c07-873c-71c536e0622c","ios":"levelo://app?vid=48302b09-9796-4c07-873c-71c536e0622c"},"vehicle_type_id":"4","last_reported":1748430536,"current_range_meters":0,"station_id":"cpo36qri1sfpv3e86is0","pricing_plan_id":"cebpf4jnsgd1na2vs0mg"},{"bike_id":"29b49b84-013a-4698-8ea2-210024e9f5bd","system_id":"levelo_inurba_marseille","lat":43.27913,"lon":5.39576,"is_reserved":false,"is_disabled":true,"rental_uris":{"android":"levelo://app?vid=29b49b84-013a-4698-8ea2-210024e9f5bd","ios":"levelo://app?vid=29b49b84-013a-4698-8ea2-210024e9f5bd"},"vehicle_type_id":"4","last_reported":1748430536,"current_range_meters":400,"station_id":"ce4bhf92rcd13ifvqf40","pricing_plan_id":"cebpf4jnsgd1na2vs0mg"},{"bike_id":"cbd01d98-c0ae-450c-b0e7-3fde427521b0","system_id":"levelo_inurba_marseille","lat":43.26034,"lon":5.37551,"is_reserved":false,"is_disabled":true,"rental_uris":{"android":"levelo://app?vid=cbd01d98-c0ae-450c-b0e7-3fde427521b0","ios":"levelo://app?vid=cbd01d98-c0ae-450c-b0e7-3fde427521b0"},"vehicle_type_id":"4","last_reported":1748430536,"current_range_meters":400,"station_id":"ce4bhgh2rcd13ifvqfa0","pricing_plan_id":"cebpf4jnsgd1na2vs0mg"},{"bike_id":"a63080ed-4ecd-4704-b675-515543c32834","system_id":"levelo_inurba_marseille","lat":43.284,"lon":5.37517,"is_reserved":false,"is_disabled":true,"rental_uris":{"android":"levelo://app?vid=a63080ed-4ecd-4704-b675-515543c32834","ios":"levelo://app?vid=a63080ed-4ecd-4704-b675-515543c32834"},"vehicle_type_id":"4","last_reported":1748430536,"current_range_meters":800,"station_id":"","pricing_plan_id":"cebpf4jnsgd1na2vs0mg"},{"bike_id":"d411f596-0c2a-42b5-a9a7-194ddca9d26f","system_id":"levelo_inurba_marseille","lat":43.30596,"lon":5.39352,"is_reserved":false,"is_disabled":true,"rental_uris":{"android":"levelo://app?vid=d411f596-0c2a-42b5-a9a7-194ddca9d26f","ios":"levelo://app?vid=d411f596-0c2a-42b5-a9a7-194ddca9d26f"},"vehicle_type_id":"4","last_reported":1748430536,"current_range_meters":800,"station_id":"ce4bh0p2rcd13ifvqd80","pricing_plan_id":"cebpf4jnsgd1na2vs0mg"},{"bike_id":"5dec7172-352a-4869-8ab6-e0d10420ad8f","system_id":"levelo_inurba_marseille","lat":43.28888,"lon":5.35824,"is_reserved":false,"is_disabled":true,"rental_uris":{"android":"levelo://app?vid=5dec7172-352a-4869-8ab6-e0d10420ad8f","ios":"levelo://app?vid=5dec7172-352a-4869-8ab6-e0d10420ad8f"},"vehicle_type_id":"4","last_reported":1748430536,"current_range_meters":800,"station_id":"ce4bhb12rcd13ifvqem0","pricing_plan_id":"cebpf4jnsgd1na2vs0mg"},{"bike_id":"e92a85ef-084a-40a4-9ec9-84354df47a73","system_id":"levelo_inurba_marseille","lat":43.273612,"lon":5.362558,"is_reserved":false,"is_disabled":true,"rental_uris":{"android":"levelo://app?vid=e92a85ef-084a-40a4-9ec9-84354df47a73","ios":"levelo://app?vid=e92a85ef-084a-40a4-9ec9-84354df47a73"},"vehicle_type_id":"4","last_reported":1748430536,"current_range_meters":800,"station_id":"ce4bhbh2rcd13ifvqeo0","pricing_plan_id":"cebpf4jnsgd1na2vs0mg"},{"bike_id":"d36f3270-105d-490b-b8c7-43daeaadda89","system_id":"levelo_inurba_marseille","lat":43.26214,"lon":5.37438,"is_reserved":false,"is_disabled":true,"rental_uris":{"android":"levelo://app?vid=d36f3270-105d-490b-b8c7-43daeaadda89","ios":"levelo://app?vid=d36f3270-105d-490b-b8c7-43daeaadda89"},"vehicle_type_id":"4","last_reported":1748430536,"current_range_meters":800,"station_id":"ce4bhgp2rcd13ifvqfc0","pricing_plan_id":"cebpf4jnsgd1na2vs0mg"},{"bike_id":"ca92f624-35a2-4141-8632-c58f9fdde728","system_id":"levelo_inurba_marseille","lat":43.23153,"lon":5.43713,"is_reserved":false,"is_disabled":true,"rental_uris":{"android":"levelo://app?vid=ca92f624-35a2-4141-8632-c58f9fdde728","ios":"levelo://app?vid=ca92f624-35a2-4141-8632-c58f9fdde728"},"vehicle_type_id":"4","last_reported":1748430536,"current_range_meters":800,"station_id":"ce4bhmp2rcd13ifvqgog","pricing_plan_id":"cebpf4jnsgd1na2vs0mg"},{"bike_id":"fdb151a0-1f95-4027-a852-b0b3fa0dfee9","system_id":"levelo_inurba_marseille","lat":43.28414,"lon":5.34979,"is_reserved":false,"is_disabled":true,"rental_uris":{"android":"levelo://app?vid=fdb151a0-1f95-4027-a852-b0b3fa0dfee9","ios":"levelo://app?vid=fdb151a0-1f95-4027-a852-b0b3fa0dfee9"},"vehicle_type_id":"4","last_reported":1748430536,"current_range_meters":1200,"station_id":"ce4bhbh2rcd13ifvqepg","pricing_plan_id":"cebpf4jnsgd1na2vs0mg"},{"bike_id":"6f2a5717-dd17-4aee-9434-59519029efe4","system_id":"levelo_inurba_marseille","lat":43.30797,"lon":5.43522,"is_reserved":false,"is_disabled":true,"rental_uris":{"android":"levelo://app?vid=6f2a5717-dd17-4aee-9434-59519029efe4","ios":"levelo://app?vid=6f2a5717-dd17-4aee-9434-59519029efe4"},"vehicle_type_id":"4","last_reported":1748430536,"current_range_meters":1200,"station_id":"ce4bhph2rcd13ifvqheg","pricing_plan_id":"cebpf4jnsgd1na2vs0mg"},{"bike_id":"dca7ebaa-7dc2-4ddc-a6aa-dd51f0a5c6ee","system_id":"levelo_inurba_marseille","lat":43.29971,"lon":5.37172,"is_reserved":false,"is_disabled":true,"rental_uris":{"android":"levelo://app?vid=dca7ebaa-7dc2-4ddc-a6aa-dd51f0a5c6ee","ios":"levelo://app?vid=dca7ebaa-7dc2-4ddc-a6aa-dd51f0a5c6ee"},"vehicle_type_id":"4","last_reported":1748430536,"current_range_meters":1600,"station_id":"ce4bgr92rcd13ifvqc7g","pricing_plan_id":"cebpf4jnsgd1na2vs0mg"},{"bike_id":"4e3ef8a4-2026-4d0f-85ba-0a03cd96cf20","system_id":"levelo_inurba_marseille","lat":43.30794,"lon":5.37661,"is_reserved":false,"is_disabled":true,"rental_uris":{"android":"levelo://app?vid=4e3ef8a4-2026-4d0f-85ba-0a03cd96cf20","ios":"levelo://app?vid=4e3ef8a4-2026-4d0f-85ba-0a03cd96cf20"},"vehicle_type_id":"4","last_reported":1748430536,"current_range_meters":1600,"station_id":"ce4bgv92rcd13ifvqcq0","pricing_plan_id":"cebpf4jnsgd1na2vs0mg"},{"bike_id":"b298d702-ba0e-4bab-bc9e-28565a4d0f73","system_id":"levelo_inurba_marseille","lat":43.30285,"lon":5.37715,"is_reserved":false,"is_disabled":true,"rental_uris":{"android":"levelo://app?vid=b298d702-ba0e-4bab-bc9e-28565a4d0f73","ios":"levelo://app?vid=b298d702-ba0e-4bab-bc9e-28565a4d0f73"},"vehicle_type_id":"4","last_reported":1748430536,"current_range_meters":2000,"station_id":"","pricing_plan_id":"cebpf4jnsgd1na2vs0mg"},{"bike_id":"f64b0b1f-d3ff-4133-ab1b-57400b57662c","system_id":"levelo_inurba_marseille","lat":43.29581,"lon":5.37524,"is_reserved":false,"is_disabled":true,"rental_uris":{"android":"levelo://app?vid=f64b0b1f-d3ff-4133-ab1b-57400b57662c","ios":"levelo://app?vid=f64b0b1f-d3ff-4133-ab1b-57400b57662c"},"vehicle_type_id":"4","last_reported":1748430536,"current_range_meters":2000,"station_id":"ce4bgh92rcd13ifvqb50","pricing_plan_id":"cebpf4jnsgd1na2vs0mg"},{"bike_id":"48df0c86-45ee-478d-bac6-09b4729c0adc","system_id":"levelo_inurba_marseille","lat":43.26553,"lon":5.37284,"is_reserved":false,"is_disabled":true,"rental_uris":{"android":"levelo://app?vid=48df0c86-45ee-478d-bac6-09b4729c0adc","ios":"levelo://app?vid=48df0c86-45ee-478d-bac6-09b4729c0adc"},"vehicle_type_id":"4","last_reported":1748430536,"current_range_meters":2000,"station_id":"ce4bhg12rcd13ifvqf70","pricing_plan_id":"cebpf4jnsgd1na2vs0mg"},{"bike_id":"ab47c1b8-cc17-4510-beb1-d30ebc20c098","system_id":"levelo_inurba_marseille","lat":43.3059,"lon":5.37242,"is_reserved":false,"is_disabled":false,"rental_uris":{"android":"levelo://app?vid=ab47c1b8-cc17-4510-beb1-d30ebc20c098","ios":"levelo://app?vid=ab47c1b8-cc17-4510-beb1-d30ebc20c098"},"vehicle_type_id":"4","last_reported":1748430536,"current_range_meters":2800,"station_id":"ce4bgqh2rcd13ifvqc4g","pricing_plan_id":"cebpf4jnsgd1na2vs0mg"},{"bike_id":"455e0f3d-b9ab-4001-bd18-58ccd8fae6c8","system_id":"levelo_inurba_marseille","lat":43.284264,"lon":5.349771,"is_reserved":false,"is_disabled":false,"rental_uris":{"android":"levelo://app?vid=455e0f3d-b9ab-4001-bd18-58ccd8fae6c8","ios":"levelo://app?vid=455e0f3d-b9ab-4001-bd18-58ccd8fae6c8"},"vehicle_type_id":"4","last_reported":1748430536,"current_range_meters":2800,"station_id":"ce4bhbh2rcd13ifvqepg","pricing_plan_id":"cebpf4jnsgd1na2vs0mg"},{"bike_id":"2ed10494-ece3-4576-bdb4-eac22c4e8217","system_id":"levelo_inurba_marseille","lat":43.26956,"lon":5.3863,"is_reserved":false,"is_disabled":false,"rental_uris":{"android":"levelo://app?vid=2ed10494-ece3-4576-bdb4-eac22c4e8217","ios":"levelo://app?vid=2ed10494-ece3-4576-bdb4-eac22c4e8217"},"vehicle_type_id":"4","last_reported":1748430536,"current_range_meters":2800,"station_id":"ce4bhh92rcd13ifvqfh0","pricing_plan_id":"cebpf4jnsgd1na2vs0mg"},{"bike_id":"7bc66d78-4295-4d0d-8789-0db13dc73b2c","system_id":"levelo_inurba_marseille","lat":43.26215,"lon":5.37437,"is_reserved":false,"is_disabled":false,"rental_uris":{"android":"levelo://app?vid=7bc66d78-4295-4d0d-8789-0db13dc73b2c","ios":"levelo://app?vid=7bc66d78-4295-4d0d-8789-0db13dc73b2c"},"vehicle_type_id":"4","last_reported":1748430536,"current_range_meters":3200,"station_id":"ce4bhgp2rcd13ifvqfc0","pricing_plan_id":"cebpf4jnsgd1na2vs0mg"},{"bike_id":"dbf52771-fbce-4ac8-b2de-8b0e72fd38e2","system_id":"levelo_inurba_marseille","lat":43.30178,"lon":5.36643,"is_reserved":false,"is_disabled":false,"rental_uris":{"android":"levelo://app?vid=dbf52771-fbce-4ac8-b2de-8b0e72fd38e2","ios":"levelo://app?vid=dbf52771-fbce-4ac8-b2de-8b0e72fd38e2"},"vehicle_type_id":"4","last_reported":1748430536,"current_range_meters":3600,"station_id":"ce4bgrh2rcd13ifvqc8g","pricing_plan_id":"cebpf4jnsgd1na2vs0mg"},{"bike_id":"4fdb7b49-3937-46d2-b9c0-a8f39ca51d0b","system_id":"levelo_inurba_marseille","lat":43.27314,"lon":5.39071,"is_reserved":false,"is_disabled":true,"rental_uris":{"android":"levelo://app?vid=4fdb7b49-3937-46d2-b9c0-a8f39ca51d0b","ios":"levelo://app?vid=4fdb7b49-3937-46d2-b9c0-a8f39ca51d0b"},"vehicle_type_id":"4","last_reported":1748430536,"current_range_meters":3600,"station_id":"ce4bhgp2rcd13ifvqfe0","pricing_plan_id":"cebpf4jnsgd1na2vs0mg"},{"bike_id":"5cc5086b-245a-4b66-8cee-a076c6bc2204","system_id":"levelo_inurba_marseille","lat":43.27565,"lon":5.38429,"is_reserved":false,"is_disabled":false,"rental_uris":{"android":"levelo://app?vid=5cc5086b-245a-4b66-8cee-a076c6bc2204","ios":"levelo://app?vid=5cc5086b-245a-4b66-8cee-a076c6bc2204"},"vehicle_type_id":"4","last_reported":1748430536,"current_range_meters":3600,"station_id":"ce4bhh92rcd13ifvqfi0","pricing_plan_id":"cebpf4jnsgd1na2vs0mg"},{"bike_id":"01c173e5-cbae-4820-bdbf-c007367360c7","system_id":"levelo_inurba_marseille","lat":43.23968,"lon":5.36621,"is_reserved":false,"is_disabled":false,"rental_uris":{"android":"levelo://app?vid=01c173e5-cbae-4820-bdbf-c007367360c7","ios":"levelo://app?vid=01c173e5-cbae-4820-bdbf-c007367360c7"},"vehicle_type_id":"4","last_reported":1748430536,"current_range_meters":3600,"station_id":"ce4bhi12rcd13ifvqfp0","pricing_plan_id":"cebpf4jnsgd1na2vs0mg"},{"bike_id":"bc025435-6e22-4530-9e01-4f08ead8d148","system_id":"levelo_inurba_marseille","lat":43.254969,"lon":5.37649,"is_reserved":false,"is_disabled":false,"rental_uris":{"android":"levelo://app?vid=bc025435-6e22-4530-9e01-4f08ead8d148","ios":"levelo://app?vid=bc025435-6e22-4530-9e01-4f08ead8d148"},"vehicle_type_id":"4","last_reported":1748430536,"current_range_meters":4000,"station_id":"","pricing_plan_id":"cebpf4jnsgd1na2vs0mg"},{"bike_id":"a6dda9d3-9e41-4132-bfca-41c7da65584f","system_id":"levelo_inurba_marseille","lat":43.30142,"lon":5.37407,"is_reserved":false,"is_disabled":false,"rental_uris":{"android":"levelo://app?vid=a6dda9d3-9e41-4132-bfca-41c7da65584f","ios":"levelo://app?vid=a6dda9d3-9e41-4132-bfca-41c7da65584f"},"vehicle_type_id":"4","last_reported":1748430536,"current_range_meters":4000,"station_id":"ce4bgs92rcd13ifvqcc0","pricing_plan_id":"cebpf4jnsgd1na2vs0mg"},{"bike_id":"667e0a53-6601-4b74-b9d4-866a8c87285a","system_id":"levelo_inurba_marseille","lat":43.2927,"lon":5.36843,"is_reserved":false,"is_disabled":false,"rental_uris":{"android":"levelo://app?vid=667e0a53-6601-4b74-b9d4-866a8c87285a","ios":"levelo://app?vid=667e0a53-6601-4b74-b9d4-866a8c87285a"},"vehicle_type_id":"4","last_reported":1748430536,"current_range_meters":4000,"station_id":"ce4bhbp2rcd13ifvqesg","pricing_plan_id":"cebpf4jnsgd1na2vs0mg"},{"bike_id":"5c47ae80-8de8-4465-90a7-a446e52223ee","system_id":"levelo_inurba_marseille","lat":43.258319,"lon":5.394391,"is_reserved":false,"is_disabled":false,"rental_uris":{"android":"levelo://app?vid=5c47ae80-8de8-4465-90a7-a446e52223ee","ios":"levelo://app?vid=5c47ae80-8de8-4465-90a7-a446e52223ee"},"vehicle_type_id":"4","last_reported":1748430536,"current_range_meters":4000,"station_id":"ce4bhip2rcd13ifvqft0","pricing_plan_id":"cebpf4jnsgd1na2vs0mg"},{"bike_id":"a3b3b644-d0b6-4fcd-a49e-cdb4a764f887","system_id":"levelo_inurba_marseille","lat":43.231849,"lon":5.399886,"is_reserved":false,"is_disabled":false,"rental_uris":{"android":"levelo://app?vid=a3b3b644-d0b6-4fcd-a49e-cdb4a764f887","ios":"levelo://app?vid=a3b3b644-d0b6-4fcd-a49e-cdb4a764f887"},"vehicle_type_id":"4","last_reported":1748430536,"current_range_meters":4000,"station_id":"ce4bhn12rcd13ifvqgqg","pricing_plan_id":"cebpf4jnsgd1na2vs0mg"},{"bike_id":"d2b47567-c01b-451c-a253-93c80b5defc7","system_id":"levelo_inurba_marseille","lat":43.287011,"lon":5.399845,"is_reserved":false,"is_disabled":false,"rental_uris":{"android":"levelo://app?vid=d2b47567-c01b-451c-a253-93c80b5defc7","ios":"levelo://app?vid=d2b47567-c01b-451c-a253-93c80b5defc7"},"vehicle_type_id":"4","last_reported":1748430536,"current_range_meters":4000,"station_id":"ce4bho92rcd13ifvqh3g","pricing_plan_id":"cebpf4jnsgd1na2vs0mg"},{"bike_id":"f4c45e95-54cf-46e5-83c5-d89c27c9a69c","system_id":"levelo_inurba_marseille","lat":43.27288,"lon":5.41587,"is_reserved":false,"is_disabled":false,"rental_uris":{"android":"levelo://app?vid=f4c45e95-54cf-46e5-83c5-d89c27c9a69c","ios":"levelo://app?vid=f4c45e95-54cf-46e5-83c5-d89c27c9a69c"},"vehicle_type_id":"4","last_reported":1748430536,"current_range_meters":4400,"station_id":"","pricing_plan_id":"cebpf4jnsgd1na2vs0mg"},{"bike_id":"3eb34e2b-61d8-44bb-b535-149c94bea4fb","system_id":"levelo_inurba_marseille","lat":43.29193,"lon":5.35793,"is_reserved":false,"is_disabled":false,"rental_uris":{"android":"levelo://app?vid=3eb34e2b-61d8-44bb-b535-149c94bea4fb","ios":"levelo://app?vid=3eb34e2b-61d8-44bb-b535-149c94bea4fb"},"vehicle_type_id":"4","last_reported":1748430536,"current_range_meters":4400,"station_id":"ce4bhb12rcd13ifvqel0","pricing_plan_id":"cebpf4jnsgd1na2vs0mg"},{"bike_id":"c000f3ac-7114-42fd-bcf1-d90c7aa6c07a","system_id":"levelo_inurba_marseille","lat":43.27175,"lon":5.4099,"is_reserved":false,"is_disabled":false,"rental_uris":{"android":"levelo://app?vid=c000f3ac-7114-42fd-bcf1-d90c7aa6c07a","ios":"levelo://app?vid=c000f3ac-7114-42fd-bcf1-d90c7aa6c07a"},"vehicle_type_id":"4","last_reported":1748430536,"current_range_meters":4400,"station_id":"ce4bhl12rcd13ifvqgf0","pricing_plan_id":"cebpf4jnsgd1na2vs0mg"},{"bike_id":"29e6eaaf-c5e4-491e-be3f-3fe88304f36b","system_id":"levelo_inurba_marseille","lat":43.28426,"lon":5.34975,"is_reserved":false,"is_disabled":false,"rental_uris":{"android":"levelo://app?vid=29e6eaaf-c5e4-491e-be3f-3fe88304f36b","ios":"levelo://app?vid=29e6eaaf-c5e4-491e-be3f-3fe88304f36b"},"vehicle_type_id":"4","last_reported":1748430536,"current_range_meters":4800,"station_id":"ce4bhbh2rcd13ifvqepg","pricing_plan_id":"cebpf4jnsgd1na2vs0mg"},{"bike_id":"43e4d072-02df-4dae-affb-0193ed1e7187","system_id":"levelo_inurba_marseille","lat":43.28432,"lon":5.35025,"is_reserved":false,"is_disabled":false,"rental_uris":{"android":"levelo://app?vid=43e4d072-02df-4dae-affb-0193ed1e7187","ios":"levelo://app?vid=43e4d072-02df-4dae-affb-0193ed1e7187"},"vehicle_type_id":"4","last_reported":1748430536,"current_range_meters":4800,"station_id":"ce4bhbh2rcd13ifvqepg","pricing_plan_id":"cebpf4jnsgd1na2vs0mg"},{"bike_id":"311572db-8d52-4975-9f0c-5c8b79ad0b71","system_id":"levelo_inurba_marseille","lat":43.26488,"lon":5.39556,"is_reserved":false,"is_disabled":false,"rental_uris":{"android":"levelo://app?vid=311572db-8d52-4975-9f0c-5c8b79ad0b71","ios":"levelo://app?vid=311572db-8d52-4975-9f0c-5c8b79ad0b71"},"vehicle_type_id":"4","last_reported":1748430536,"current_range_meters":4800,"station_id":"ce4bhi12rcd13ifvqfq0","pricing_plan_id":"cebpf4jnsgd1na2vs0mg"},{"bike_id":"c826a468-c0a7-48ee-be2e-fae0d77db3ef","system_id":"levelo_inurba_marseille","lat":43.231516,"lon":5.437044,"is_reserved":false,"is_disabled":false,"rental_uris":{"android":"levelo://app?vid=c826a468-c0a7-48ee-be2e-fae0d77db3ef","ios":"levelo://app?vid=c826a468-c0a7-48ee-be2e-fae0d77db3ef"},"vehicle_type_id":"4","last_reported":1748430536,"current_range_meters":4800,"station_id":"ce4bhmp2rcd13ifvqgog","pricing_plan_id":"cebpf4jnsgd1na2vs0mg"},{"bike_id":"3fe6ed2d-7fb1-4ba4-94c9-fa58c4b0335c","system_id":"levelo_inurba_marseille","lat":43.32273,"lon":5.37632,"is_reserved":false,"is_disabled":false,"rental_uris":{"android":"levelo://app?vid=3fe6ed2d-7fb1-4ba4-94c9-fa58c4b0335c","ios":"levelo://app?vid=3fe6ed2d-7fb1-4ba4-94c9-fa58c4b0335c"},"vehicle_type_id":"4","last_reported":1748430536,"current_range_meters":5600,"station_id":"","pricing_plan_id":"cebpf4jnsgd1na2vs0mg"},{"bike_id":"016809eb-0067-406b-9838-34cf17fddebc","system_id":"levelo_inurba_marseille","lat":43.29301,"lon":5.37453,"is_reserved":false,"is_disabled":false,"rental_uris":{"android":"levelo://app?vid=016809eb-0067-406b-9838-34cf17fddebc","ios":"levelo://app?vid=016809eb-0067-406b-9838-34cf17fddebc"},"vehicle_type_id":"4","last_reported":1748430536,"current_range_meters":5600,"station_id":"ce4bgi12rcd13ifvqb70","pricing_plan_id":"cebpf4jnsgd1na2vs0mg"},{"bike_id":"acd99c14-6589-4b57-a652-56208201bf8f","system_id":"levelo_inurba_marseille","lat":43.30953,"lon":5.40137,"is_reserved":false,"is_disabled":false,"rental_uris":{"android":"levelo://app?vid=acd99c14-6589-4b57-a652-56208201bf8f","ios":"levelo://app?vid=acd99c14-6589-4b57-a652-56208201bf8f"},"vehicle_type_id":"4","last_reported":1748430536,"current_range_meters":5600,"station_id":"ce4bgvp2rcd13ifvqct0","pricing_plan_id":"cebpf4jnsgd1na2vs0mg"},{"bike_id":"ef2d4442-74f5-4d9d-8eb3-f944f390e399","system_id":"levelo_inurba_marseille","lat":43.28722,"lon":5.37935,"is_reserved":false,"is_disabled":false,"rental_uris":{"android":"levelo://app?vid=ef2d4442-74f5-4d9d-8eb3-f944f390e399","ios":"levelo://app?vid=ef2d4442-74f5-4d9d-8eb3-f944f390e399"},"vehicle_type_id":"4","last_reported":1748430536,"current_range_meters":5600,"station_id":"ce4bh9p2rcd13ifvqec0","pricing_plan_id":"cebpf4jnsgd1na2vs0mg"},{"bike_id":"9c5561ef-2517-4540-81bc-cd1ed451f820","system_id":"levelo_inurba_marseille","lat":43.266557,"lon":5.384331,"is_reserved":false,"is_disabled":false,"rental_uris":{"android":"levelo://app?vid=9c5561ef-2517-4540-81bc-cd1ed451f820","ios":"levelo://app?vid=9c5561ef-2517-4540-81bc-cd1ed451f820"},"vehicle_type_id":"4","last_reported":1748430536,"current_range_meters":6000,"station_id":"","pricing_plan_id":"cebpf4jnsgd1na2vs0mg"},{"bike_id":"17de41b1-1a51-425d-b2bb-51dd18aec1ad","system_id":"levelo_inurba_marseille","lat":43.25112,"lon":5.40323,"is_reserved":false,"is_disabled":false,"rental_uris":{"android":"levelo://app?vid=17de41b1-1a51-425d-b2bb-51dd18aec1ad","ios":"levelo://app?vid=17de41b1-1a51-425d-b2bb-51dd18aec1ad"},"vehicle_type_id":"4","last_reported":1748430536,"current_range_meters":6000,"station_id":"ce4bhlh2rcd13ifvqgig","pricing_plan_id":"cebpf4jnsgd1na2vs0mg"},{"bike_id":"cee0c3e6-c1db-4752-bb13-2757b3e28c2a","system_id":"levelo_inurba_marseille","lat":43.30743,"lon":5.42438,"is_reserved":false,"is_disabled":false,"rental_uris":{"android":"levelo://app?vid=cee0c3e6-c1db-4752-bb13-2757b3e28c2a","ios":"levelo://app?vid=cee0c3e6-c1db-4752-bb13-2757b3e28c2a"},"vehicle_type_id":"4","last_reported":1748430536,"current_range_meters":6000,"station_id":"st_cvj6ca6bvosntc0bfgr0","pricing_plan_id":"cebpf4jnsgd1na2vs0mg"},{"bike_id":"aa50e492-b74c-4649-891c-eaddf4f4f828","system_id":"levelo_inurba_marseille","lat":43.286751,"lon":5.363357,"is_reserved":false,"is_disabled":false,"rental_uris":{"android":"levelo://app?vid=aa50e492-b74c-4649-891c-eaddf4f4f828","ios":"levelo://app?vid=aa50e492-b74c-4649-891c-eaddf4f4f828"},"vehicle_type_id":"4","last_reported":1748430536,"current_range_meters":6400,"station_id":"ce4bhah2rcd13ifvqej0","pricing_plan_id":"cebpf4jnsgd1na2vs0mg"},{"bike_id":"a8b114b0-0594-4336-a844-57de2b2236ca","system_id":"levelo_inurba_marseille","lat":43.27052,"lon":5.40253,"is_reserved":false,"is_disabled":false,"rental_uris":{"android":"levelo://app?vid=a8b114b0-0594-4336-a844-57de2b2236ca","ios":"levelo://app?vid=a8b114b0-0594-4336-a844-57de2b2236ca"},"vehicle_type_id":"4","last_reported":1748430536,"current_range_meters":6400,"station_id":"ce4bhk92rcd13ifvqgc0","pricing_plan_id":"cebpf4jnsgd1na2vs0mg"},{"bike_id":"66db8b9d-3924-4098-9a43-1a4fa23b7f3b","system_id":"levelo_inurba_marseille","lat":43.27057,"lon":5.402571,"is_reserved":false,"is_disabled":false,"rental_uris":{"android":"levelo://app?vid=66db8b9d-3924-4098-9a43-1a4fa23b7f3b","ios":"levelo://app?vid=66db8b9d-3924-4098-9a43-1a4fa23b7f3b"},"vehicle_type_id":"4","last_reported":1748430536,"current_range_meters":6400,"station_id":"ce4bhk92rcd13ifvqgc0","pricing_plan_id":"cebpf4jnsgd1na2vs0mg"},{"bike_id":"b50244b8-863b-414a-aa3f-234c7c9609a3","system_id":"levelo_inurba_marseille","lat":43.25118,"lon":5.40314,"is_reserved":false,"is_disabled":false,"rental_uris":{"android":"levelo://app?vid=b50244b8-863b-414a-aa3f-234c7c9609a3","ios":"levelo://app?vid=b50244b8-863b-414a-aa3f-234c7c9609a3"},"vehicle_type_id":"4","last_reported":1748430536,"current_range_meters":6400,"station_id":"ce4bhlh2rcd13ifvqgig","pricing_plan_id":"cebpf4jnsgd1na2vs0mg"},{"bike_id":"017d7072-5d81-4aef-8fe7-5a90efa103e7","system_id":"levelo_inurba_marseille","lat":43.23186,"lon":5.39995,"is_reserved":false,"is_disabled":false,"rental_uris":{"android":"levelo://app?vid=017d7072-5d81-4aef-8fe7-5a90efa103e7","ios":"levelo://app?vid=017d7072-5d81-4aef-8fe7-5a90efa103e7"},"vehicle_type_id":"4","last_reported":1748430536,"current_range_meters":6400,"station_id":"ce4bhn12rcd13ifvqgqg","pricing_plan_id":"cebpf4jnsgd1na2vs0mg"},{"bike_id":"082732f4-c400-4266-a538-845d79052893","system_id":"levelo_inurba_marseille","lat":43.32665,"lon":5.409867,"is_reserved":false,"is_disabled":false,"rental_uris":{"android":"levelo://app?vid=082732f4-c400-4266-a538-845d79052893","ios":"levelo://app?vid=082732f4-c400-4266-a538-845d79052893"},"vehicle_type_id":"4","last_reported":1748430536,"current_range_meters":6400,"station_id":"ce4bhpp2rcd13ifvqhgg","pricing_plan_id":"cebpf4jnsgd1na2vs0mg"},{"bike_id":"d735b261-4660-4c0e-abb6-40a42549a554","system_id":"levelo_inurba_marseille","lat":43.285693,"lon":5.39489,"is_reserved":false,"is_disabled":false,"rental_uris":{"android":"levelo://app?vid=d735b261-4660-4c0e-abb6-40a42549a554","ios":"levelo://app?vid=d735b261-4660-4c0e-abb6-40a42549a554"},"vehicle_type_id":"4","last_reported":1748430536,"current_range_meters":6800,"station_id":"ce4bh292rcd13ifvqdg0","pricing_plan_id":"cebpf4jnsgd1na2vs0mg"},{"bike_id":"dea7d9d6-c5d3-45af-a5a5-fc6f98230ba4","system_id":"levelo_inurba_marseille","lat":43.27375,"lon":5.36244,"is_reserved":false,"is_disabled":false,"rental_uris":{"android":"levelo://app?vid=dea7d9d6-c5d3-45af-a5a5-fc6f98230ba4","ios":"levelo://app?vid=dea7d9d6-c5d3-45af-a5a5-fc6f98230ba4"},"vehicle_type_id":"4","last_reported":1748430536,"current_range_meters":6800,"station_id":"ce4bhbh2rcd13ifvqeo0","pricing_plan_id":"cebpf4jnsgd1na2vs0mg"},{"bike_id":"b0551037-bc1b-42e7-a8f4-21860c1cae8a","system_id":"levelo_inurba_marseille","lat":43.28269,"lon":5.3507,"is_reserved":false,"is_disabled":false,"rental_uris":{"android":"levelo://app?vid=b0551037-bc1b-42e7-a8f4-21860c1cae8a","ios":"levelo://app?vid=b0551037-bc1b-42e7-a8f4-21860c1cae8a"},"vehicle_type_id":"4","last_reported":1748430536,"current_range_meters":6800,"station_id":"ce4bhbp2rcd13ifvqerg","pricing_plan_id":"cebpf4jnsgd1na2vs0mg"},{"bike_id":"4e1e85a3-afa3-4a71-a987-28d21847f946","system_id":"levelo_inurba_marseille","lat":43.2558,"lon":5.38221,"is_reserved":false,"is_disabled":false,"rental_uris":{"android":"levelo://app?vid=4e1e85a3-afa3-4a71-a987-28d21847f946","ios":"levelo://app?vid=4e1e85a3-afa3-4a71-a987-28d21847f946"},"vehicle_type_id":"4","last_reported":1748430536,"current_range_meters":6800,"station_id":"ce4bhih2rcd13ifvqfs0","pricing_plan_id":"cebpf4jnsgd1na2vs0mg"},{"bike_id":"efe5509f-fbd5-40fb-b83f-1a96d9c68cfe","system_id":"levelo_inurba_marseille","lat":43.26791,"lon":5.40273,"is_reserved":false,"is_disabled":false,"rental_uris":{"android":"levelo://app?vid=efe5509f-fbd5-40fb-b83f-1a96d9c68cfe","ios":"levelo://app?vid=efe5509f-fbd5-40fb-b83f-1a96d9c68cfe"},"vehicle_type_id":"4","last_reported":1748430536,"current_range_meters":6800,"station_id":"ce501612rcd8frsf0b60","pricing_plan_id":"cebpf4jnsgd1na2vs0mg"},{"bike_id":"48aa7ac3-49d5-4846-bbdf-873a2ffe6bd1","system_id":"levelo_inurba_marseille","lat":43.22936,"lon":5.35376,"is_reserved":false,"is_disabled":false,"rental_uris":{"android":"levelo://app?vid=48aa7ac3-49d5-4846-bbdf-873a2ffe6bd1","ios":"levelo://app?vid=48aa7ac3-49d5-4846-bbdf-873a2ffe6bd1"},"vehicle_type_id":"4","last_reported":1748430536,"current_range_meters":6800,"station_id":"cpo3532slgdg3j2ikp40","pricing_plan_id":"cebpf4jnsgd1na2vs0mg"},{"bike_id":"1335255c-e672-47b0-b5bb-07a53b49a948","system_id":"levelo_inurba_marseille","lat":43.30953,"lon":5.39039,"is_reserved":false,"is_disabled":false,"rental_uris":{"android":"levelo://app?vid=1335255c-e672-47b0-b5bb-07a53b49a948","ios":"levelo://app?vid=1335255c-e672-47b0-b5bb-07a53b49a948"},"vehicle_type_id":"4","last_reported":1748430536,"current_range_meters":7200,"station_id":"ce4bgup2rcd13ifvqco0","pricing_plan_id":"cebpf4jnsgd1na2vs0mg"},{"bike_id":"a3d83c90-b14c-4360-aedf-ee3e450e0548","system_id":"levelo_inurba_marseille","lat":43.30325,"lon":5.40428,"is_reserved":false,"is_disabled":false,"rental_uris":{"android":"levelo://app?vid=a3d83c90-b14c-4360-aedf-ee3e450e0548","ios":"levelo://app?vid=a3d83c90-b14c-4360-aedf-ee3e450e0548"},"vehicle_type_id":"4","last_reported":1748430536,"current_range_meters":7200,"station_id":"ce4bh012rcd13ifvqd10","pricing_plan_id":"cebpf4jnsgd1na2vs0mg"},{"bike_id":"606b482b-168f-40ef-9406-a527e888de65","system_id":"levelo_inurba_marseille","lat":43.29199,"lon":5.35794,"is_reserved":false,"is_disabled":false,"rental_uris":{"android":"levelo://app?vid=606b482b-168f-40ef-9406-a527e888de65","ios":"levelo://app?vid=606b482b-168f-40ef-9406-a527e888de65"},"vehicle_type_id":"4","last_reported":1748430536,"current_range_meters":7200,"station_id":"ce4bhb12rcd13ifvqel0","pricing_plan_id":"cebpf4jnsgd1na2vs0mg"},{"bike_id":"43d97882-70a9-4d70-8cfd-ee0d8e505a97","system_id":"levelo_inurba_marseille","lat":43.26027,"lon":5.37548,"is_reserved":false,"is_disabled":false,"rental_uris":{"android":"levelo://app?vid=43d97882-70a9-4d70-8cfd-ee0d8e505a97","ios":"levelo://app?vid=43d97882-70a9-4d70-8cfd-ee0d8e505a97"},"vehicle_type_id":"4","last_reported":1748430536,"current_range_meters":7200,"station_id":"ce4bhgh2rcd13ifvqfa0","pricing_plan_id":"cebpf4jnsgd1na2vs0mg"},{"bike_id":"71ef3ace-8356-4918-85f0-74509166e874","system_id":"levelo_inurba_marseille","lat":43.295545,"lon":5.422925,"is_reserved":false,"is_disabled":false,"rental_uris":{"android":"levelo://app?vid=71ef3ace-8356-4918-85f0-74509166e874","ios":"levelo://app?vid=71ef3ace-8356-4918-85f0-74509166e874"},"vehicle_type_id":"4","last_reported":1748430536,"current_range_meters":7200,"station_id":"ce4bhph2rcd13ifvqhdg","pricing_plan_id":"cebpf4jnsgd1na2vs0mg"},{"bike_id":"a5f90b1e-a09e-40ad-8d54-7442721c8689","system_id":"levelo_inurba_marseille","lat":43.24619,"lon":5.392885,"is_reserved":false,"is_disabled":false,"rental_uris":{"android":"levelo://app?vid=a5f90b1e-a09e-40ad-8d54-7442721c8689","ios":"levelo://app?vid=a5f90b1e-a09e-40ad-8d54-7442721c8689"},"vehicle_type_id":"4","last_reported":1748430536,"current_range_meters":8000,"station_id":"","pricing_plan_id":"cebpf4jnsgd1na2vs0mg"},{"bike_id":"9c2df684-8688-496b-af94-4e45a0e80b63","system_id":"levelo_inurba_marseille","lat":43.30307,"lon":5.39209,"is_reserved":false,"is_disabled":false,"rental_uris":{"android":"levelo://app?vid=9c2df684-8688-496b-af94-4e45a0e80b63","ios":"levelo://app?vid=9c2df684-8688-496b-af94-4e45a0e80b63"},"vehicle_type_id":"4","last_reported":1748430536,"current_range_meters":8000,"station_id":"ce4bgkh2rcd13ifvqbk0","pricing_plan_id":"cebpf4jnsgd1na2vs0mg"},{"bike_id":"8145cdf9-86b8-4e0f-b8ac-1d21a9f3db6d","system_id":"levelo_inurba_marseille","lat":43.30882,"lon":5.36827,"is_reserved":false,"is_disabled":false,"rental_uris":{"android":"levelo://app?vid=8145cdf9-86b8-4e0f-b8ac-1d21a9f3db6d","ios":"levelo://app?vid=8145cdf9-86b8-4e0f-b8ac-1d21a9f3db6d"},"vehicle_type_id":"4","last_reported":1748430536,"current_range_meters":8000,"station_id":"ce4bgn92rcd13ifvqbvg","pricing_plan_id":"cebpf4jnsgd1na2vs0mg"},{"bike_id":"58221aa1-4365-4906-842b-cc03542a9a51","system_id":"levelo_inurba_marseille","lat":43.30904,"lon":5.37194,"is_reserved":false,"is_disabled":false,"rental_uris":{"android":"levelo://app?vid=58221aa1-4365-4906-842b-cc03542a9a51","ios":"levelo://app?vid=58221aa1-4365-4906-842b-cc03542a9a51"},"vehicle_type_id":"4","last_reported":1748430536,"current_range_meters":8000,"station_id":"ce4bguh2rcd13ifvqckg","pricing_plan_id":"cebpf4jnsgd1na2vs0mg"},{"bike_id":"f0da08b0-cd61-4c0d-8ae3-5583bfe8476f","system_id":"levelo_inurba_marseille","lat":43.28374,"lon":5.38635,"is_reserved":false,"is_disabled":false,"rental_uris":{"android":"levelo://app?vid=f0da08b0-cd61-4c0d-8ae3-5583bfe8476f","ios":"levelo://app?vid=f0da08b0-cd61-4c0d-8ae3-5583bfe8476f"},"vehicle_type_id":"4","last_reported":1748430536,"current_range_meters":8000,"station_id":"ce4bh492rcd13ifvqdvg","pricing_plan_id":"cebpf4jnsgd1na2vs0mg"},{"bike_id":"381fe022-e952-4d36-9d93-f46b0fe1590d","system_id":"levelo_inurba_marseille","lat":43.26572,"lon":5.39002,"is_reserved":false,"is_disabled":false,"rental_uris":{"android":"levelo://app?vid=381fe022-e952-4d36-9d93-f46b0fe1590d","ios":"levelo://app?vid=381fe022-e952-4d36-9d93-f46b0fe1590d"},"vehicle_type_id":"4","last_reported":1748430536,"current_range_meters":8000,"station_id":"ce4bhe12rcd13ifvqf30","pricing_plan_id":"cebpf4jnsgd1na2vs0mg"},{"bike_id":"71624964-7fb7-4254-a259-ff9c5269297b","system_id":"levelo_inurba_marseille","lat":43.33022,"lon":5.39038,"is_reserved":false,"is_disabled":false,"rental_uris":{"android":"levelo://app?vid=71624964-7fb7-4254-a259-ff9c5269297b","ios":"levelo://app?vid=71624964-7fb7-4254-a259-ff9c5269297b"},"vehicle_type_id":"4","last_reported":1748430536,"current_range_meters":8000,"station_id":"ce4bhr92rcd13ifvqhrg","pricing_plan_id":"cebpf4jnsgd1na2vs0mg"},{"bike_id":"87b395fb-0dfd-464d-b68d-3afc622e0d48","system_id":"levelo_inurba_marseille","lat":43.29554,"lon":5.39465,"is_reserved":false,"is_disabled":false,"rental_uris":{"android":"levelo://app?vid=87b395fb-0dfd-464d-b68d-3afc622e0d48","ios":"levelo://app?vid=87b395fb-0dfd-464d-b68d-3afc622e0d48"},"vehicle_type_id":"4","last_reported":1748430536,"current_range_meters":8400,"station_id":"","pricing_plan_id":"cebpf4jnsgd1na2vs0mg"},{"bike_id":"1a9deaa6-5b0b-41ea-a3a0-9c49f0de8473","system_id":"levelo_inurba_marseille","lat":43.293246,"lon":5.411551,"is_reserved":false,"is_disabled":false,"rental_uris":{"android":"levelo://app?vid=1a9deaa6-5b0b-41ea-a3a0-9c49f0de8473","ios":"levelo://app?vid=1a9deaa6-5b0b-41ea-a3a0-9c49f0de8473"},"vehicle_type_id":"4","last_reported":1748430536,"current_range_meters":8400,"station_id":"","pricing_plan_id":"cebpf4jnsgd1na2vs0mg"},{"bike_id":"a5813f86-2e78-4252-b1bb-ec51de8e3614","system_id":"levelo_inurba_marseille","lat":43.30955,"lon":5.39029,"is_reserved":false,"is_disabled":false,"rental_uris":{"android":"levelo://app?vid=a5813f86-2e78-4252-b1bb-ec51de8e3614","ios":"levelo://app?vid=a5813f86-2e78-4252-b1bb-ec51de8e3614"},"vehicle_type_id":"4","last_reported":1748430536,"current_range_meters":8400,"station_id":"ce4bgup2rcd13ifvqco0","pricing_plan_id":"cebpf4jnsgd1na2vs0mg"},{"bike_id":"b6ba96cc-22a7-4167-a228-ebd8dba83e21","system_id":"levelo_inurba_marseille","lat":43.28463,"lon":5.35884,"is_reserved":false,"is_disabled":false,"rental_uris":{"android":"levelo://app?vid=b6ba96cc-22a7-4167-a228-ebd8dba83e21","ios":"levelo://app?vid=b6ba96cc-22a7-4167-a228-ebd8dba83e21"},"vehicle_type_id":"4","last_reported":1748430536,"current_range_meters":8400,"station_id":"ce4bhah2rcd13ifvqei0","pricing_plan_id":"cebpf4jnsgd1na2vs0mg"},{"bike_id":"b438af95-0209-4169-96a4-6c331970637e","system_id":"levelo_inurba_marseille","lat":43.25821,"lon":5.3944,"is_reserved":false,"is_disabled":false,"rental_uris":{"android":"levelo://app?vid=b438af95-0209-4169-96a4-6c331970637e","ios":"levelo://app?vid=b438af95-0209-4169-96a4-6c331970637e"},"vehicle_type_id":"4","last_reported":1748430536,"current_range_meters":8400,"station_id":"ce4bhip2rcd13ifvqft0","pricing_plan_id":"cebpf4jnsgd1na2vs0mg"},{"bike_id":"ca985fd2-dcb1-4caa-b6e9-111175c9990d","system_id":"levelo_inurba_marseille","lat":43.24547,"lon":5.3952,"is_reserved":false,"is_disabled":false,"rental_uris":{"android":"levelo://app?vid=ca985fd2-dcb1-4caa-b6e9-111175c9990d","ios":"levelo://app?vid=ca985fd2-dcb1-4caa-b6e9-111175c9990d"},"vehicle_type_id":"4","last_reported":1748430536,"current_range_meters":8400,"station_id":"ce4bhlp2rcd13ifvqgjg","pricing_plan_id":"cebpf4jnsgd1na2vs0mg"},{"bike_id":"a30f0e65-ba7d-424c-bc91-6d97d276f3f5","system_id":"levelo_inurba_marseille","lat":43.23156,"lon":5.43708,"is_reserved":false,"is_disabled":false,"rental_uris":{"android":"levelo://app?vid=a30f0e65-ba7d-424c-bc91-6d97d276f3f5","ios":"levelo://app?vid=a30f0e65-ba7d-424c-bc91-6d97d276f3f5"},"vehicle_type_id":"4","last_reported":1748430536,"current_range_meters":8400,"station_id":"ce4bhmp2rcd13ifvqgog","pricing_plan_id":"cebpf4jnsgd1na2vs0mg"},{"bike_id":"a90874a9-5d91-4e97-8863-1decc68698f5","system_id":"levelo_inurba_marseille","lat":43.23181,"lon":5.399984,"is_reserved":false,"is_disabled":false,"rental_uris":{"android":"levelo://app?vid=a90874a9-5d91-4e97-8863-1decc68698f5","ios":"levelo://app?vid=a90874a9-5d91-4e97-8863-1decc68698f5"},"vehicle_type_id":"4","last_reported":1748430536,"current_range_meters":8400,"station_id":"ce4bhn12rcd13ifvqgqg","pricing_plan_id":"cebpf4jnsgd1na2vs0mg"},{"bike_id":"4d5e007e-82b4-4f51-bc9b-57dc81d9df72","system_id":"levelo_inurba_marseille","lat":43.32539,"lon":5.41425,"is_reserved":false,"is_disabled":false,"rental_uris":{"android":"levelo://app?vid=4d5e007e-82b4-4f51-bc9b-57dc81d9df72","ios":"levelo://app?vid=4d5e007e-82b4-4f51-bc9b-57dc81d9df72"},"vehicle_type_id":"4","last_reported":1748430536,"current_range_meters":8400,"station_id":"ce4bhq12rcd13ifvqhhg","pricing_plan_id":"cebpf4jnsgd1na2vs0mg"},{"bike_id":"86e1ef55-5839-406e-9e5e-20f422d24807","system_id":"levelo_inurba_marseille","lat":43.31761,"lon":5.3902,"is_reserved":false,"is_disabled":false,"rental_uris":{"android":"levelo://app?vid=86e1ef55-5839-406e-9e5e-20f422d24807","ios":"levelo://app?vid=86e1ef55-5839-406e-9e5e-20f422d24807"},"vehicle_type_id":"4","last_reported":1748430536,"current_range_meters":8400,"station_id":"ce4bhqp2rcd13ifvqhng","pricing_plan_id":"cebpf4jnsgd1na2vs0mg"},{"bike_id":"9cf8b369-970a-423b-8d85-ffe5ca3e99cb","system_id":"levelo_inurba_marseille","lat":43.23194,"lon":5.35547,"is_reserved":false,"is_disabled":false,"rental_uris":{"android":"levelo://app?vid=9cf8b369-970a-423b-8d85-ffe5ca3e99cb","ios":"levelo://app?vid=9cf8b369-970a-423b-8d85-ffe5ca3e99cb"},"vehicle_type_id":"4","last_reported":1748430536,"current_range_meters":8400,"station_id":"ce4bhu92rcd13ifvqi70","pricing_plan_id":"cebpf4jnsgd1na2vs0mg"},{"bike_id":"efad0556-b78a-4eef-ac7d-13b469fccde9","system_id":"levelo_inurba_marseille","lat":43.29003,"lon":5.35605,"is_reserved":false,"is_disabled":false,"rental_uris":{"android":"levelo://app?vid=efad0556-b78a-4eef-ac7d-13b469fccde9","ios":"levelo://app?vid=efad0556-b78a-4eef-ac7d-13b469fccde9"},"vehicle_type_id":"4","last_reported":1748430536,"current_range_meters":8800,"station_id":"","pricing_plan_id":"cebpf4jnsgd1na2vs0mg"},{"bike_id":"de82d006-a542-4cc5-9b8f-8ed2d19a481b","system_id":"levelo_inurba_marseille","lat":43.30143,"lon":5.37427,"is_reserved":false,"is_disabled":false,"rental_uris":{"android":"levelo://app?vid=de82d006-a542-4cc5-9b8f-8ed2d19a481b","ios":"levelo://app?vid=de82d006-a542-4cc5-9b8f-8ed2d19a481b"},"vehicle_type_id":"4","last_reported":1748430536,"current_range_meters":8800,"station_id":"ce4bgs92rcd13ifvqcc0","pricing_plan_id":"cebpf4jnsgd1na2vs0mg"},{"bike_id":"38303e76-870d-43ef-b2b6-5b703c7a2576","system_id":"levelo_inurba_marseille","lat":43.27378,"lon":5.36261,"is_reserved":false,"is_disabled":false,"rental_uris":{"android":"levelo://app?vid=38303e76-870d-43ef-b2b6-5b703c7a2576","ios":"levelo://app?vid=38303e76-870d-43ef-b2b6-5b703c7a2576"},"vehicle_type_id":"4","last_reported":1748430536,"current_range_meters":8800,"station_id":"ce4bhbh2rcd13ifvqeo0","pricing_plan_id":"cebpf4jnsgd1na2vs0mg"},{"bike_id":"36d15808-ead8-4e63-913a-bca26f82b39f","system_id":"levelo_inurba_marseille","lat":43.2841,"lon":5.34986,"is_reserved":false,"is_disabled":false,"rental_uris":{"android":"levelo://app?vid=36d15808-ead8-4e63-913a-bca26f82b39f","ios":"levelo://app?vid=36d15808-ead8-4e63-913a-bca26f82b39f"},"vehicle_type_id":"4","last_reported":1748430536,"current_range_meters":8800,"station_id":"ce4bhbh2rcd13ifvqepg","pricing_plan_id":"cebpf4jnsgd1na2vs0mg"},{"bike_id":"2acf15bf-7ffb-47bb-8465-2c5c88e7f8bf","system_id":"levelo_inurba_marseille","lat":43.32561,"lon":5.41444,"is_reserved":false,"is_disabled":false,"rental_uris":{"android":"levelo://app?vid=2acf15bf-7ffb-47bb-8465-2c5c88e7f8bf","ios":"levelo://app?vid=2acf15bf-7ffb-47bb-8465-2c5c88e7f8bf"},"vehicle_type_id":"4","last_reported":1748430536,"current_range_meters":8800,"station_id":"ce4bhq12rcd13ifvqhhg","pricing_plan_id":"cebpf4jnsgd1na2vs0mg"},{"bike_id":"81ae8239-8969-416c-a354-b76111559a11","system_id":"levelo_inurba_marseille","lat":43.29569,"lon":5.37513,"is_reserved":false,"is_disabled":false,"rental_uris":{"android":"levelo://app?vid=81ae8239-8969-416c-a354-b76111559a11","ios":"levelo://app?vid=81ae8239-8969-416c-a354-b76111559a11"},"vehicle_type_id":"4","last_reported":1748430536,"current_range_meters":9200,"station_id":"ce4bgh92rcd13ifvqb50","pricing_plan_id":"cebpf4jnsgd1na2vs0mg"},{"bike_id":"08ca5dcc-0f39-40aa-ad24-724c5b367ae4","system_id":"levelo_inurba_marseille","lat":43.29979,"lon":5.38487,"is_reserved":false,"is_disabled":false,"rental_uris":{"android":"levelo://app?vid=08ca5dcc-0f39-40aa-ad24-724c5b367ae4","ios":"levelo://app?vid=08ca5dcc-0f39-40aa-ad24-724c5b367ae4"},"vehicle_type_id":"4","last_reported":1748430536,"current_range_meters":9200,"station_id":"ce4bgj92rcd13ifvqbd0","pricing_plan_id":"cebpf4jnsgd1na2vs0mg"},{"bike_id":"a9211613-65d1-4a9f-942c-c758b73a8588","system_id":"levelo_inurba_marseille","lat":43.299768,"lon":5.371821,"is_reserved":false,"is_disabled":false,"rental_uris":{"android":"levelo://app?vid=a9211613-65d1-4a9f-942c-c758b73a8588","ios":"levelo://app?vid=a9211613-65d1-4a9f-942c-c758b73a8588"},"vehicle_type_id":"4","last_reported":1748430536,"current_range_meters":9200,"station_id":"ce4bgr92rcd13ifvqc7g","pricing_plan_id":"cebpf4jnsgd1na2vs0mg"},{"bike_id":"ed990cd4-15e6-4270-8491-8fc44def0906","system_id":"levelo_inurba_marseille","lat":43.28096,"lon":5.3783,"is_reserved":false,"is_disabled":false,"rental_uris":{"android":"levelo://app?vid=ed990cd4-15e6-4270-8491-8fc44def0906","ios":"levelo://app?vid=ed990cd4-15e6-4270-8491-8fc44def0906"},"vehicle_type_id":"4","last_reported":1748430536,"current_range_meters":9200,"station_id":"ce4bha12rcd13ifvqee0","pricing_plan_id":"cebpf4jnsgd1na2vs0mg"},{"bike_id":"4b04b1e6-7ad3-4768-81e4-2f1bdb89d1e3","system_id":"levelo_inurba_marseille","lat":43.25125,"lon":5.40323,"is_reserved":false,"is_disabled":false,"rental_uris":{"android":"levelo://app?vid=4b04b1e6-7ad3-4768-81e4-2f1bdb89d1e3","ios":"levelo://app?vid=4b04b1e6-7ad3-4768-81e4-2f1bdb89d1e3"},"vehicle_type_id":"4","last_reported":1748430536,"current_range_meters":9200,"station_id":"ce4bhlh2rcd13ifvqgig","pricing_plan_id":"cebpf4jnsgd1na2vs0mg"},{"bike_id":"c98963b4-c6fb-469c-bfaa-0a3d1e373178","system_id":"levelo_inurba_marseille","lat":43.24168,"lon":5.36375,"is_reserved":false,"is_disabled":false,"rental_uris":{"android":"levelo://app?vid=c98963b4-c6fb-469c-bfaa-0a3d1e373178","ios":"levelo://app?vid=c98963b4-c6fb-469c-bfaa-0a3d1e373178"},"vehicle_type_id":"4","last_reported":1748430536,"current_range_meters":9200,"station_id":"cpo36qri1sfpv3e86is0","pricing_plan_id":"cebpf4jnsgd1na2vs0mg"},{"bike_id":"dca40154-b3be-4cbb-a685-51b4936dfb3c","system_id":"levelo_inurba_marseille","lat":43.30454,"lon":5.37908,"is_reserved":false,"is_disabled":false,"rental_uris":{"android":"levelo://app?vid=dca40154-b3be-4cbb-a685-51b4936dfb3c","ios":"levelo://app?vid=dca40154-b3be-4cbb-a685-51b4936dfb3c"},"vehicle_type_id":"4","last_reported":1748430536,"current_range_meters":9600,"station_id":"ce4bgup2rcd13ifvqcn0","pricing_plan_id":"cebpf4jnsgd1na2vs0mg"},{"bike_id":"970ee8b4-4852-4f48-8aec-a1de73a60a41","system_id":"levelo_inurba_marseille","lat":43.29521,"lon":5.39035,"is_reserved":false,"is_disabled":false,"rental_uris":{"android":"levelo://app?vid=970ee8b4-4852-4f48-8aec-a1de73a60a41","ios":"levelo://app?vid=970ee8b4-4852-4f48-8aec-a1de73a60a41"},"vehicle_type_id":"4","last_reported":1748430536,"current_range_meters":9600,"station_id":"ce4bh3p2rcd13ifvqdp0","pricing_plan_id":"cebpf4jnsgd1na2vs0mg"},{"bike_id":"5075cce3-bcb7-4705-a2dc-82ab1c7139f0","system_id":"levelo_inurba_marseille","lat":43.25503,"lon":5.37647,"is_reserved":false,"is_disabled":false,"rental_uris":{"android":"levelo://app?vid=5075cce3-bcb7-4705-a2dc-82ab1c7139f0","ios":"levelo://app?vid=5075cce3-bcb7-4705-a2dc-82ab1c7139f0"},"vehicle_type_id":"4","last_reported":1748430536,"current_range_meters":9600,"station_id":"ce4bhh12rcd13ifvqff0","pricing_plan_id":"cebpf4jnsgd1na2vs0mg"},{"bike_id":"04f22404-f0e4-400d-b598-aa9047b5cb18","system_id":"levelo_inurba_marseille","lat":43.25862,"lon":5.39902,"is_reserved":false,"is_disabled":false,"rental_uris":{"android":"levelo://app?vid=04f22404-f0e4-400d-b598-aa9047b5cb18","ios":"levelo://app?vid=04f22404-f0e4-400d-b598-aa9047b5cb18"},"vehicle_type_id":"4","last_reported":1748430536,"current_range_meters":9600,"station_id":"ce4bhl92rcd13ifvqghg","pricing_plan_id":"cebpf4jnsgd1na2vs0mg"},{"bike_id":"16578a9c-c460-4d38-be25-a20250881a73","system_id":"levelo_inurba_marseille","lat":43.32227,"lon":5.38406,"is_reserved":false,"is_disabled":false,"rental_uris":{"android":"levelo://app?vid=16578a9c-c460-4d38-be25-a20250881a73","ios":"levelo://app?vid=16578a9c-c460-4d38-be25-a20250881a73"},"vehicle_type_id":"4","last_reported":1748430536,"current_range_meters":10000,"station_id":"","pricing_plan_id":"cebpf4jnsgd1na2vs0mg"},{"bike_id":"fcf11e6c-0e27-4e51-a890-c1e385240db5","system_id":"levelo_inurba_marseille","lat":43.29859,"lon":5.3626,"is_reserved":false,"is_disabled":false,"rental_uris":{"android":"levelo://app?vid=fcf11e6c-0e27-4e51-a890-c1e385240db5","ios":"levelo://app?vid=fcf11e6c-0e27-4e51-a890-c1e385240db5"},"vehicle_type_id":"4","last_reported":1748430536,"current_range_meters":10000,"station_id":"ce4bgpp2rcd13ifvqc3g","pricing_plan_id":"cebpf4jnsgd1na2vs0mg"},{"bike_id":"1b9c2ef0-00e1-4305-98de-7cfcbd1fc201","system_id":"levelo_inurba_marseille","lat":43.30555,"lon":5.36551,"is_reserved":false,"is_disabled":false,"rental_uris":{"android":"levelo://app?vid=1b9c2ef0-00e1-4305-98de-7cfcbd1fc201","ios":"levelo://app?vid=1b9c2ef0-00e1-4305-98de-7cfcbd1fc201"},"vehicle_type_id":"4","last_reported":1748430536,"current_range_meters":10000,"station_id":"ce4bgs12rcd13ifvqcag","pricing_plan_id":"cebpf4jnsgd1na2vs0mg"},{"bike_id":"781c2494-b525-4f21-97ce-ed188b9190c5","system_id":"levelo_inurba_marseille","lat":43.29033,"lon":5.37556,"is_reserved":false,"is_disabled":false,"rental_uris":{"android":"levelo://app?vid=781c2494-b525-4f21-97ce-ed188b9190c5","ios":"levelo://app?vid=781c2494-b525-4f21-97ce-ed188b9190c5"},"vehicle_type_id":"4","last_reported":1748430536,"current_range_meters":10000,"station_id":"ce4bh692rcd13ifvqe90","pricing_plan_id":"cebpf4jnsgd1na2vs0mg"},{"bike_id":"5d2f68a9-e3f4-4738-b5b0-93463f347302","system_id":"levelo_inurba_marseille","lat":43.28424,"lon":5.34983,"is_reserved":false,"is_disabled":false,"rental_uris":{"android":"levelo://app?vid=5d2f68a9-e3f4-4738-b5b0-93463f347302","ios":"levelo://app?vid=5d2f68a9-e3f4-4738-b5b0-93463f347302"},"vehicle_type_id":"4","last_reported":1748430536,"current_range_meters":10000,"station_id":"ce4bhbh2rcd13ifvqepg","pricing_plan_id":"cebpf4jnsgd1na2vs0mg"},{"bike_id":"ccf95dfb-6c86-40be-882e-9274f8d4bc3e","system_id":"levelo_inurba_marseille","lat":43.27677,"lon":5.38868,"is_reserved":false,"is_disabled":false,"rental_uris":{"android":"levelo://app?vid=ccf95dfb-6c86-40be-882e-9274f8d4bc3e","ios":"levelo://app?vid=ccf95dfb-6c86-40be-882e-9274f8d4bc3e"},"vehicle_type_id":"4","last_reported":1748430536,"current_range_meters":10000,"station_id":"ce4bhi12rcd13ifvqfo0","pricing_plan_id":"cebpf4jnsgd1na2vs0mg"},{"bike_id":"5f43bab2-8fe9-4b99-b78a-a733c9d1a189","system_id":"levelo_inurba_marseille","lat":43.23154,"lon":5.43705,"is_reserved":false,"is_disabled":false,"rental_uris":{"android":"levelo://app?vid=5f43bab2-8fe9-4b99-b78a-a733c9d1a189","ios":"levelo://app?vid=5f43bab2-8fe9-4b99-b78a-a733c9d1a189"},"vehicle_type_id":"4","last_reported":1748430536,"current_range_meters":10000,"station_id":"ce4bhmp2rcd13ifvqgog","pricing_plan_id":"cebpf4jnsgd1na2vs0mg"},{"bike_id":"42bc06da-ae5e-4405-8589-e6066c5301d2","system_id":"levelo_inurba_marseille","lat":43.2808,"lon":5.39655,"is_reserved":false,"is_disabled":false,"rental_uris":{"android":"levelo://app?vid=42bc06da-ae5e-4405-8589-e6066c5301d2","ios":"levelo://app?vid=42bc06da-ae5e-4405-8589-e6066c5301d2"},"vehicle_type_id":"4","last_reported":1748430536,"current_range_meters":10000,"station_id":"ce4bho12rcd13ifvqh2g","pricing_plan_id":"cebpf4jnsgd1na2vs0mg"},{"bike_id":"0ae398b7-4358-4206-aee5-f6b4095726aa","system_id":"levelo_inurba_marseille","lat":43.28611,"lon":5.3707,"is_reserved":false,"is_disabled":false,"rental_uris":{"android":"levelo://app?vid=0ae398b7-4358-4206-aee5-f6b4095726aa","ios":"levelo://app?vid=0ae398b7-4358-4206-aee5-f6b4095726aa"},"vehicle_type_id":"4","last_reported":1748430536,"current_range_meters":10000,"station_id":"ce4bht12rcd13ifvqi60","pricing_plan_id":"cebpf4jnsgd1na2vs0mg"},{"bike_id":"925e29ac-ac8d-43d3-9b1e-8788a09d98c1","system_id":"levelo_inurba_marseille","lat":43.31167,"lon":5.40185,"is_reserved":false,"is_disabled":false,"rental_uris":{"android":"levelo://app?vid=925e29ac-ac8d-43d3-9b1e-8788a09d98c1","ios":"levelo://app?vid=925e29ac-ac8d-43d3-9b1e-8788a09d98c1"},"vehicle_type_id":"4","last_reported":1748430536,"current_range_meters":10800,"station_id":"","pricing_plan_id":"cebpf4jnsgd1na2vs0mg"},{"bike_id":"071c8f48-56d0-4f89-921e-134b819ac9f0","system_id":"levelo_inurba_marseille","lat":43.31225,"lon":5.368629,"is_reserved":false,"is_disabled":false,"rental_uris":{"android":"levelo://app?vid=071c8f48-56d0-4f89-921e-134b819ac9f0","ios":"levelo://app?vid=071c8f48-56d0-4f89-921e-134b819ac9f0"},"vehicle_type_id":"4","last_reported":1748430536,"current_range_meters":10800,"station_id":"ce4bgl92rcd13ifvqbq0","pricing_plan_id":"cebpf4jnsgd1na2vs0mg"},{"bike_id":"ae8f2ba3-c94e-498c-848b-a463ff674c62","system_id":"levelo_inurba_marseille","lat":43.30312,"lon":5.36901,"is_reserved":false,"is_disabled":false,"rental_uris":{"android":"levelo://app?vid=ae8f2ba3-c94e-498c-848b-a463ff674c62","ios":"levelo://app?vid=ae8f2ba3-c94e-498c-848b-a463ff674c62"},"vehicle_type_id":"4","last_reported":1748430536,"current_range_meters":10800,"station_id":"ce4bgqh2rcd13ifvqc5g","pricing_plan_id":"cebpf4jnsgd1na2vs0mg"},{"bike_id":"8eaa8731-cba0-4da0-8881-b5264822c964","system_id":"levelo_inurba_marseille","lat":43.30546,"lon":5.36538,"is_reserved":false,"is_disabled":false,"rental_uris":{"android":"levelo://app?vid=8eaa8731-cba0-4da0-8881-b5264822c964","ios":"levelo://app?vid=8eaa8731-cba0-4da0-8881-b5264822c964"},"vehicle_type_id":"4","last_reported":1748430536,"current_range_meters":10800,"station_id":"ce4bgs12rcd13ifvqcag","pricing_plan_id":"cebpf4jnsgd1na2vs0mg"},{"bike_id":"6e122c12-02e3-429b-96f6-9b8cae60f6dc","system_id":"levelo_inurba_marseille","lat":43.30461,"lon":5.37905,"is_reserved":false,"is_disabled":false,"rental_uris":{"android":"levelo://app?vid=6e122c12-02e3-429b-96f6-9b8cae60f6dc","ios":"levelo://app?vid=6e122c12-02e3-429b-96f6-9b8cae60f6dc"},"vehicle_type_id":"4","last_reported":1748430536,"current_range_meters":10800,"station_id":"ce4bgup2rcd13ifvqcn0","pricing_plan_id":"cebpf4jnsgd1na2vs0mg"},{"bike_id":"2092fc37-4a85-40a7-a796-5b1eaf56be9d","system_id":"levelo_inurba_marseille","lat":43.30933,"lon":5.40138,"is_reserved":false,"is_disabled":false,"rental_uris":{"android":"levelo://app?vid=2092fc37-4a85-40a7-a796-5b1eaf56be9d","ios":"levelo://app?vid=2092fc37-4a85-40a7-a796-5b1eaf56be9d"},"vehicle_type_id":"4","last_reported":1748430536,"current_range_meters":10800,"station_id":"ce4bgvp2rcd13ifvqct0","pricing_plan_id":"cebpf4jnsgd1na2vs0mg"},{"bike_id":"a9f46909-ea18-4868-b335-dafca3ddeb2e","system_id":"levelo_inurba_marseille","lat":43.29422,"lon":5.38628,"is_reserved":false,"is_disabled":false,"rental_uris":{"android":"levelo://app?vid=a9f46909-ea18-4868-b335-dafca3ddeb2e","ios":"levelo://app?vid=a9f46909-ea18-4868-b335-dafca3ddeb2e"},"vehicle_type_id":"4","last_reported":1748430536,"current_range_meters":10800,"station_id":"ce4bh2h2rcd13ifvqdh0","pricing_plan_id":"cebpf4jnsgd1na2vs0mg"},{"bike_id":"4a57b7c7-ceba-4d88-b50a-2975893a97f4","system_id":"levelo_inurba_marseille","lat":43.29087,"lon":5.37163,"is_reserved":false,"is_disabled":false,"rental_uris":{"android":"levelo://app?vid=4a57b7c7-ceba-4d88-b50a-2975893a97f4","ios":"levelo://app?vid=4a57b7c7-ceba-4d88-b50a-2975893a97f4"},"vehicle_type_id":"4","last_reported":1748430536,"current_range_meters":10800,"station_id":"ce4bh5p2rcd13ifvqe4g","pricing_plan_id":"cebpf4jnsgd1na2vs0mg"},{"bike_id":"112ebed0-a1fd-468c-ad9e-9fb312663f38","system_id":"levelo_inurba_marseille","lat":43.29785,"lon":5.38095,"is_reserved":false,"is_disabled":false,"rental_uris":{"android":"levelo://app?vid=112ebed0-a1fd-468c-ad9e-9fb312663f38","ios":"levelo://app?vid=112ebed0-a1fd-468c-ad9e-9fb312663f38"},"vehicle_type_id":"4","last_reported":1748430536,"current_range_meters":11200,"station_id":"ce4bgip2rcd13ifvqbb0","pricing_plan_id":"cebpf4jnsgd1na2vs0mg"},{"bike_id":"08165cbb-6ace-41cd-a0e2-a8692b282c40","system_id":"levelo_inurba_marseille","lat":43.30545,"lon":5.36545,"is_reserved":false,"is_disabled":false,"rental_uris":{"android":"levelo://app?vid=08165cbb-6ace-41cd-a0e2-a8692b282c40","ios":"levelo://app?vid=08165cbb-6ace-41cd-a0e2-a8692b282c40"},"vehicle_type_id":"4","last_reported":1748430536,"current_range_meters":11200,"station_id":"ce4bgs12rcd13ifvqcag","pricing_plan_id":"cebpf4jnsgd1na2vs0mg"},{"bike_id":"c8ab60de-172e-4983-b08e-e4d7178bcdf3","system_id":"levelo_inurba_marseille","lat":43.31362,"lon":5.38484,"is_reserved":false,"is_disabled":false,"rental_uris":{"android":"levelo://app?vid=c8ab60de-172e-4983-b08e-e4d7178bcdf3","ios":"levelo://app?vid=c8ab60de-172e-4983-b08e-e4d7178bcdf3"},"vehicle_type_id":"4","last_reported":1748430536,"current_range_meters":11200,"station_id":"ce4bgt92rcd13ifvqcf0","pricing_plan_id":"cebpf4jnsgd1na2vs0mg"},{"bike_id":"aa4eeb3d-8a87-4d70-bbb9-ae22a2e3f103","system_id":"levelo_inurba_marseille","lat":43.28615,"lon":5.3511,"is_reserved":false,"is_disabled":false,"rental_uris":{"android":"levelo://app?vid=aa4eeb3d-8a87-4d70-bbb9-ae22a2e3f103","ios":"levelo://app?vid=aa4eeb3d-8a87-4d70-bbb9-ae22a2e3f103"},"vehicle_type_id":"4","last_reported":1748430536,"current_range_meters":11200,"station_id":"ce4bhch2rcd13ifvqeug","pricing_plan_id":"cebpf4jnsgd1na2vs0mg"},{"bike_id":"b6776944-1c4f-4d22-bfa7-028ba5cfb43a","system_id":"levelo_inurba_marseille","lat":43.27077,"lon":5.40248,"is_reserved":false,"is_disabled":false,"rental_uris":{"android":"levelo://app?vid=b6776944-1c4f-4d22-bfa7-028ba5cfb43a","ios":"levelo://app?vid=b6776944-1c4f-4d22-bfa7-028ba5cfb43a"},"vehicle_type_id":"4","last_reported":1748430536,"current_range_meters":11200,"station_id":"ce4bhk92rcd13ifvqgc0","pricing_plan_id":"cebpf4jnsgd1na2vs0mg"},{"bike_id":"f9d03e1b-2163-4b4d-b780-a4c9b9ca9f19","system_id":"levelo_inurba_marseille","lat":43.25727,"lon":5.41102,"is_reserved":false,"is_disabled":false,"rental_uris":{"android":"levelo://app?vid=f9d03e1b-2163-4b4d-b780-a4c9b9ca9f19","ios":"levelo://app?vid=f9d03e1b-2163-4b4d-b780-a4c9b9ca9f19"},"vehicle_type_id":"4","last_reported":1748430536,"current_range_meters":11200,"station_id":"ce4bhkp2rcd13ifvqgd0","pricing_plan_id":"cebpf4jnsgd1na2vs0mg"},{"bike_id":"98047655-8bf4-4e47-b6d1-71d00b9b5e6d","system_id":"levelo_inurba_marseille","lat":43.2315,"lon":5.43721,"is_reserved":false,"is_disabled":false,"rental_uris":{"android":"levelo://app?vid=98047655-8bf4-4e47-b6d1-71d00b9b5e6d","ios":"levelo://app?vid=98047655-8bf4-4e47-b6d1-71d00b9b5e6d"},"vehicle_type_id":"4","last_reported":1748430536,"current_range_meters":11200,"station_id":"ce4bhmp2rcd13ifvqgog","pricing_plan_id":"cebpf4jnsgd1na2vs0mg"},{"bike_id":"7ce906f0-6e43-42f8-ae8c-a6bb81f1a4fc","system_id":"levelo_inurba_marseille","lat":43.23186,"lon":5.39984,"is_reserved":false,"is_disabled":false,"rental_uris":{"android":"levelo://app?vid=7ce906f0-6e43-42f8-ae8c-a6bb81f1a4fc","ios":"levelo://app?vid=7ce906f0-6e43-42f8-ae8c-a6bb81f1a4fc"},"vehicle_type_id":"4","last_reported":1748430536,"current_range_meters":11200,"station_id":"ce4bhn12rcd13ifvqgqg","pricing_plan_id":"cebpf4jnsgd1na2vs0mg"},{"bike_id":"254073dd-456a-45fd-8514-aa502cc2310c","system_id":"levelo_inurba_marseille","lat":43.32533,"lon":5.41429,"is_reserved":false,"is_disabled":false,"rental_uris":{"android":"levelo://app?vid=254073dd-456a-45fd-8514-aa502cc2310c","ios":"levelo://app?vid=254073dd-456a-45fd-8514-aa502cc2310c"},"vehicle_type_id":"4","last_reported":1748430536,"current_range_meters":11200,"station_id":"ce4bhq12rcd13ifvqhhg","pricing_plan_id":"cebpf4jnsgd1na2vs0mg"},{"bike_id":"1e6e288c-e4d4-426d-9934-6c16dd4ed208","system_id":"levelo_inurba_marseille","lat":43.321164,"lon":5.367552,"is_reserved":false,"is_disabled":false,"rental_uris":{"android":"levelo://app?vid=1e6e288c-e4d4-426d-9934-6c16dd4ed208","ios":"levelo://app?vid=1e6e288c-e4d4-426d-9934-6c16dd4ed208"},"vehicle_type_id":"4","last_reported":1748430536,"current_range_meters":11200,"station_id":"ce4bhrh2rcd13ifvqhug","pricing_plan_id":"cebpf4jnsgd1na2vs0mg"},{"bike_id":"d91476d4-089e-45eb-87f0-bf5793830b22","system_id":"levelo_inurba_marseille","lat":43.29791,"lon":5.39341,"is_reserved":false,"is_disabled":false,"rental_uris":{"android":"levelo://app?vid=d91476d4-089e-45eb-87f0-bf5793830b22","ios":"levelo://app?vid=d91476d4-089e-45eb-87f0-bf5793830b22"},"vehicle_type_id":"4","last_reported":1748430536,"current_range_meters":11200,"station_id":"chh1huq6cuj3fo74tm60","pricing_plan_id":"cebpf4jnsgd1na2vs0mg"},{"bike_id":"e43210c4-813b-490d-933a-fff733a5ab6e","system_id":"levelo_inurba_marseille","lat":43.29702,"lon":5.36608,"is_reserved":false,"is_disabled":false,"rental_uris":{"android":"levelo://app?vid=e43210c4-813b-490d-933a-fff733a5ab6e","ios":"levelo://app?vid=e43210c4-813b-490d-933a-fff733a5ab6e"},"vehicle_type_id":"4","last_reported":1748430536,"current_range_meters":11600,"station_id":"ce4bgn12rcd13ifvqbt0","pricing_plan_id":"cebpf4jnsgd1na2vs0mg"},{"bike_id":"ebef2745-3f7a-440a-9681-2c2034f2e1ea","system_id":"levelo_inurba_marseille","lat":43.30172,"lon":5.37359,"is_reserved":false,"is_disabled":false,"rental_uris":{"android":"levelo://app?vid=ebef2745-3f7a-440a-9681-2c2034f2e1ea","ios":"levelo://app?vid=ebef2745-3f7a-440a-9681-2c2034f2e1ea"},"vehicle_type_id":"4","last_reported":1748430536,"current_range_meters":11600,"station_id":"ce4bgs92rcd13ifvqcc0","pricing_plan_id":"cebpf4jnsgd1na2vs0mg"},{"bike_id":"94617c1e-c4a4-4265-bcff-d82856c045bb","system_id":"levelo_inurba_marseille","lat":43.28559,"lon":5.39488,"is_reserved":false,"is_disabled":false,"rental_uris":{"android":"levelo://app?vid=94617c1e-c4a4-4265-bcff-d82856c045bb","ios":"levelo://app?vid=94617c1e-c4a4-4265-bcff-d82856c045bb"},"vehicle_type_id":"4","last_reported":1748430536,"current_range_meters":11600,"station_id":"ce4bh292rcd13ifvqdg0","pricing_plan_id":"cebpf4jnsgd1na2vs0mg"},{"bike_id":"a2c97d6a-6888-4b00-93c1-205dfcbde7b1","system_id":"levelo_inurba_marseille","lat":43.25935,"lon":5.40898,"is_reserved":false,"is_disabled":false,"rental_uris":{"android":"levelo://app?vid=a2c97d6a-6888-4b00-93c1-205dfcbde7b1","ios":"levelo://app?vid=a2c97d6a-6888-4b00-93c1-205dfcbde7b1"},"vehicle_type_id":"4","last_reported":1748430536,"current_range_meters":11600,"station_id":"ce4bhm92rcd13ifvqglg","pricing_plan_id":"cebpf4jnsgd1na2vs0mg"},{"bike_id":"5e0d93d9-7389-45d1-a3d8-df4e5386a4d6","system_id":"levelo_inurba_marseille","lat":43.23186,"lon":5.35551,"is_reserved":false,"is_disabled":false,"rental_uris":{"android":"levelo://app?vid=5e0d93d9-7389-45d1-a3d8-df4e5386a4d6","ios":"levelo://app?vid=5e0d93d9-7389-45d1-a3d8-df4e5386a4d6"},"vehicle_type_id":"4","last_reported":1748430536,"current_range_meters":11600,"station_id":"ce4bhu92rcd13ifvqi70","pricing_plan_id":"cebpf4jnsgd1na2vs0mg"},{"bike_id":"41b52262-afe6-4595-9846-6841b7051fb5","system_id":"levelo_inurba_marseille","lat":43.269375,"lon":5.40256,"is_reserved":false,"is_disabled":false,"rental_uris":{"android":"levelo://app?vid=41b52262-afe6-4595-9846-6841b7051fb5","ios":"levelo://app?vid=41b52262-afe6-4595-9846-6841b7051fb5"},"vehicle_type_id":"4","last_reported":1748430536,"current_range_meters":11600,"station_id":"cjm6bp8fraef2m0cb0m0","pricing_plan_id":"cebpf4jnsgd1na2vs0mg"},{"bike_id":"2f650bb1-6027-4191-83d2-16315820a0a7","system_id":"levelo_inurba_marseille","lat":43.300033,"lon":5.373397,"is_reserved":false,"is_disabled":false,"rental_uris":{"android":"levelo://app?vid=2f650bb1-6027-4191-83d2-16315820a0a7","ios":"levelo://app?vid=2f650bb1-6027-4191-83d2-16315820a0a7"},"vehicle_type_id":"4","last_reported":1748430536,"current_range_meters":12000,"station_id":"","pricing_plan_id":"cebpf4jnsgd1na2vs0mg"},{"bike_id":"28f4d848-2fa3-40c0-b1a6-6d55ae057dbc","system_id":"levelo_inurba_marseille","lat":43.313723,"lon":5.366964,"is_reserved":false,"is_disabled":false,"rental_uris":{"android":"levelo://app?vid=28f4d848-2fa3-40c0-b1a6-6d55ae057dbc","ios":"levelo://app?vid=28f4d848-2fa3-40c0-b1a6-6d55ae057dbc"},"vehicle_type_id":"4","last_reported":1748430536,"current_range_meters":12000,"station_id":"ce4bgr92rcd13ifvqc6g","pricing_plan_id":"cebpf4jnsgd1na2vs0mg"},{"bike_id":"55012dee-979f-4dcc-a53b-b942325d66f2","system_id":"levelo_inurba_marseille","lat":43.28275,"lon":5.35072,"is_reserved":false,"is_disabled":false,"rental_uris":{"android":"levelo://app?vid=55012dee-979f-4dcc-a53b-b942325d66f2","ios":"levelo://app?vid=55012dee-979f-4dcc-a53b-b942325d66f2"},"vehicle_type_id":"4","last_reported":1748430536,"current_range_meters":12000,"station_id":"ce4bhbp2rcd13ifvqerg","pricing_plan_id":"cebpf4jnsgd1na2vs0mg"},{"bike_id":"e0b30274-c242-4783-b0f5-796c62e39ade","system_id":"levelo_inurba_marseille","lat":43.2656,"lon":5.37284,"is_reserved":false,"is_disabled":false,"rental_uris":{"android":"levelo://app?vid=e0b30274-c242-4783-b0f5-796c62e39ade","ios":"levelo://app?vid=e0b30274-c242-4783-b0f5-796c62e39ade"},"vehicle_type_id":"4","last_reported":1748430536,"current_range_meters":12000,"station_id":"ce4bhg12rcd13ifvqf70","pricing_plan_id":"cebpf4jnsgd1na2vs0mg"},{"bike_id":"8432e158-836a-4a47-aa87-53ef4e3aa18f","system_id":"levelo_inurba_marseille","lat":43.23156,"lon":5.43704,"is_reserved":false,"is_disabled":false,"rental_uris":{"android":"levelo://app?vid=8432e158-836a-4a47-aa87-53ef4e3aa18f","ios":"levelo://app?vid=8432e158-836a-4a47-aa87-53ef4e3aa18f"},"vehicle_type_id":"4","last_reported":1748430536,"current_range_meters":12000,"station_id":"ce4bhmp2rcd13ifvqgog","pricing_plan_id":"cebpf4jnsgd1na2vs0mg"},{"bike_id":"fdfa7863-9967-4d31-ae32-f03efdd733b9","system_id":"levelo_inurba_marseille","lat":43.330223,"lon":5.390504,"is_reserved":false,"is_disabled":false,"rental_uris":{"android":"levelo://app?vid=fdfa7863-9967-4d31-ae32-f03efdd733b9","ios":"levelo://app?vid=fdfa7863-9967-4d31-ae32-f03efdd733b9"},"vehicle_type_id":"4","last_reported":1748430536,"current_range_meters":12000,"station_id":"ce4bhr92rcd13ifvqhrg","pricing_plan_id":"cebpf4jnsgd1na2vs0mg"},{"bike_id":"c84f8025-f392-4efb-8662-faa8b7ebbd21","system_id":"levelo_inurba_marseille","lat":43.295066,"lon":5.374448,"is_reserved":false,"is_disabled":false,"rental_uris":{"android":"levelo://app?vid=c84f8025-f392-4efb-8662-faa8b7ebbd21","ios":"levelo://app?vid=c84f8025-f392-4efb-8662-faa8b7ebbd21"},"vehicle_type_id":"4","last_reported":1748430536,"current_range_meters":12400,"station_id":"ce4bgh92rcd13ifvqb50","pricing_plan_id":"cebpf4jnsgd1na2vs0mg"},{"bike_id":"8e44bdff-2e89-409c-b710-8ae49247ce81","system_id":"levelo_inurba_marseille","lat":43.31356,"lon":5.36701,"is_reserved":false,"is_disabled":false,"rental_uris":{"android":"levelo://app?vid=8e44bdff-2e89-409c-b710-8ae49247ce81","ios":"levelo://app?vid=8e44bdff-2e89-409c-b710-8ae49247ce81"},"vehicle_type_id":"4","last_reported":1748430536,"current_range_meters":12400,"station_id":"ce4bgr92rcd13ifvqc6g","pricing_plan_id":"cebpf4jnsgd1na2vs0mg"},{"bike_id":"fb201de5-6dd2-4135-90a6-aefaddd4ccd4","system_id":"levelo_inurba_marseille","lat":43.25584,"lon":5.38232,"is_reserved":false,"is_disabled":false,"rental_uris":{"android":"levelo://app?vid=fb201de5-6dd2-4135-90a6-aefaddd4ccd4","ios":"levelo://app?vid=fb201de5-6dd2-4135-90a6-aefaddd4ccd4"},"vehicle_type_id":"4","last_reported":1748430536,"current_range_meters":12400,"station_id":"ce4bhih2rcd13ifvqfs0","pricing_plan_id":"cebpf4jnsgd1na2vs0mg"},{"bike_id":"2536d8fa-a409-4512-a3e2-95d9f94cf38b","system_id":"levelo_inurba_marseille","lat":43.3361,"lon":5.4103,"is_reserved":false,"is_disabled":false,"rental_uris":{"android":"levelo://app?vid=2536d8fa-a409-4512-a3e2-95d9f94cf38b","ios":"levelo://app?vid=2536d8fa-a409-4512-a3e2-95d9f94cf38b"},"vehicle_type_id":"4","last_reported":1748430536,"current_range_meters":12400,"station_id":"ce4bhqh2rcd13ifvqhmg","pricing_plan_id":"cebpf4jnsgd1na2vs0mg"},{"bike_id":"68569c75-0918-4dd3-8aaa-9554bdab65ce","system_id":"levelo_inurba_marseille","lat":43.26802,"lon":5.40268,"is_reserved":false,"is_disabled":false,"rental_uris":{"android":"levelo://app?vid=68569c75-0918-4dd3-8aaa-9554bdab65ce","ios":"levelo://app?vid=68569c75-0918-4dd3-8aaa-9554bdab65ce"},"vehicle_type_id":"4","last_reported":1748430536,"current_range_meters":12400,"station_id":"ce501612rcd8frsf0b60","pricing_plan_id":"cebpf4jnsgd1na2vs0mg"},{"bike_id":"d72d42e8-fb3a-45ce-96b6-34b3508aaed7","system_id":"levelo_inurba_marseille","lat":43.3408,"lon":5.39866,"is_reserved":false,"is_disabled":false,"rental_uris":{"android":"levelo://app?vid=d72d42e8-fb3a-45ce-96b6-34b3508aaed7","ios":"levelo://app?vid=d72d42e8-fb3a-45ce-96b6-34b3508aaed7"},"vehicle_type_id":"4","last_reported":1748430536,"current_range_meters":12800,"station_id":"","pricing_plan_id":"cebpf4jnsgd1na2vs0mg"},{"bike_id":"c3e2edcf-72ad-41c8-98b8-cb2820985a7a","system_id":"levelo_inurba_marseille","lat":43.3148,"lon":5.37299,"is_reserved":false,"is_disabled":false,"rental_uris":{"android":"levelo://app?vid=c3e2edcf-72ad-41c8-98b8-cb2820985a7a","ios":"levelo://app?vid=c3e2edcf-72ad-41c8-98b8-cb2820985a7a"},"vehicle_type_id":"4","last_reported":1748430536,"current_range_meters":12800,"station_id":"ce4bgt12rcd13ifvqcd0","pricing_plan_id":"cebpf4jnsgd1na2vs0mg"},{"bike_id":"759755d7-73fe-46e1-a88a-dbdf2abbe138","system_id":"levelo_inurba_marseille","lat":43.295295,"lon":5.393985,"is_reserved":false,"is_disabled":false,"rental_uris":{"android":"levelo://app?vid=759755d7-73fe-46e1-a88a-dbdf2abbe138","ios":"levelo://app?vid=759755d7-73fe-46e1-a88a-dbdf2abbe138"},"vehicle_type_id":"4","last_reported":1748430536,"current_range_meters":12800,"station_id":"ce4bh292rcd13ifvqdf0","pricing_plan_id":"cebpf4jnsgd1na2vs0mg"},{"bike_id":"227ce3be-2274-4113-b672-71108a7fd2f1","system_id":"levelo_inurba_marseille","lat":43.2397,"lon":5.36631,"is_reserved":false,"is_disabled":false,"rental_uris":{"android":"levelo://app?vid=227ce3be-2274-4113-b672-71108a7fd2f1","ios":"levelo://app?vid=227ce3be-2274-4113-b672-71108a7fd2f1"},"vehicle_type_id":"4","last_reported":1748430536,"current_range_meters":12800,"station_id":"ce4bhi12rcd13ifvqfp0","pricing_plan_id":"cebpf4jnsgd1na2vs0mg"},{"bike_id":"345f80f2-41ea-48b3-a311-bc9c1f768bd9","system_id":"levelo_inurba_marseille","lat":43.27944,"lon":5.4105,"is_reserved":false,"is_disabled":false,"rental_uris":{"android":"levelo://app?vid=345f80f2-41ea-48b3-a311-bc9c1f768bd9","ios":"levelo://app?vid=345f80f2-41ea-48b3-a311-bc9c1f768bd9"},"vehicle_type_id":"4","last_reported":1748430536,"current_range_meters":12800,"station_id":"ce4bhnp2rcd13ifvqh0g","pricing_plan_id":"cebpf4jnsgd1na2vs0mg"},{"bike_id":"0db043ed-bee9-495c-8aa7-bd4914193e82","system_id":"levelo_inurba_marseille","lat":43.29553,"lon":5.42291,"is_reserved":false,"is_disabled":false,"rental_uris":{"android":"levelo://app?vid=0db043ed-bee9-495c-8aa7-bd4914193e82","ios":"levelo://app?vid=0db043ed-bee9-495c-8aa7-bd4914193e82"},"vehicle_type_id":"4","last_reported":1748430536,"current_range_meters":12800,"station_id":"ce4bhph2rcd13ifvqhdg","pricing_plan_id":"cebpf4jnsgd1na2vs0mg"},{"bike_id":"097f970b-375f-4b74-9427-a05a73ffd790","system_id":"levelo_inurba_marseille","lat":43.32363,"lon":5.36746,"is_reserved":false,"is_disabled":false,"rental_uris":{"android":"levelo://app?vid=097f970b-375f-4b74-9427-a05a73ffd790","ios":"levelo://app?vid=097f970b-375f-4b74-9427-a05a73ffd790"},"vehicle_type_id":"4","last_reported":1748430536,"current_range_meters":12800,"station_id":"ce4bhsh2rcd13ifvqi2g","pricing_plan_id":"cebpf4jnsgd1na2vs0mg"},{"bike_id":"244ce130-80b5-4207-9ef7-8d54b297a541","system_id":"levelo_inurba_marseille","lat":43.31516,"lon":5.38672,"is_reserved":false,"is_disabled":false,"rental_uris":{"android":"levelo://app?vid=244ce130-80b5-4207-9ef7-8d54b297a541","ios":"levelo://app?vid=244ce130-80b5-4207-9ef7-8d54b297a541"},"vehicle_type_id":"4","last_reported":1748430536,"current_range_meters":13600,"station_id":"","pricing_plan_id":"cebpf4jnsgd1na2vs0mg"},{"bike_id":"ce51f40c-8d37-49e1-944a-65a1e8b2b230","system_id":"levelo_inurba_marseille","lat":43.30536,"lon":5.36717,"is_reserved":false,"is_disabled":false,"rental_uris":{"android":"levelo://app?vid=ce51f40c-8d37-49e1-944a-65a1e8b2b230","ios":"levelo://app?vid=ce51f40c-8d37-49e1-944a-65a1e8b2b230"},"vehicle_type_id":"4","last_reported":1748430536,"current_range_meters":13600,"station_id":"ce4bgrp2rcd13ifvqc9g","pricing_plan_id":"cebpf4jnsgd1na2vs0mg"},{"bike_id":"135abd13-e144-4f96-b589-15832b6a65b9","system_id":"levelo_inurba_marseille","lat":43.301406,"lon":5.374214,"is_reserved":false,"is_disabled":false,"rental_uris":{"android":"levelo://app?vid=135abd13-e144-4f96-b589-15832b6a65b9","ios":"levelo://app?vid=135abd13-e144-4f96-b589-15832b6a65b9"},"vehicle_type_id":"4","last_reported":1748430536,"current_range_meters":13600,"station_id":"ce4bgs92rcd13ifvqcc0","pricing_plan_id":"cebpf4jnsgd1na2vs0mg"},{"bike_id":"22df9455-930b-44db-947f-5d1bc11cb1ef","system_id":"levelo_inurba_marseille","lat":43.30893,"lon":5.37189,"is_reserved":false,"is_disabled":false,"rental_uris":{"android":"levelo://app?vid=22df9455-930b-44db-947f-5d1bc11cb1ef","ios":"levelo://app?vid=22df9455-930b-44db-947f-5d1bc11cb1ef"},"vehicle_type_id":"4","last_reported":1748430536,"current_range_meters":13600,"station_id":"ce4bguh2rcd13ifvqckg","pricing_plan_id":"cebpf4jnsgd1na2vs0mg"},{"bike_id":"1fec5f2e-61c7-4f4c-af76-880656e8cd22","system_id":"levelo_inurba_marseille","lat":43.27942,"lon":5.41035,"is_reserved":false,"is_disabled":false,"rental_uris":{"android":"levelo://app?vid=1fec5f2e-61c7-4f4c-af76-880656e8cd22","ios":"levelo://app?vid=1fec5f2e-61c7-4f4c-af76-880656e8cd22"},"vehicle_type_id":"4","last_reported":1748430536,"current_range_meters":13600,"station_id":"ce4bhnp2rcd13ifvqh0g","pricing_plan_id":"cebpf4jnsgd1na2vs0mg"},{"bike_id":"d8ffc57b-96b0-4c89-bfdf-f54b78f5562e","system_id":"levelo_inurba_marseille","lat":43.29738,"lon":5.37703,"is_reserved":false,"is_disabled":false,"rental_uris":{"android":"levelo://app?vid=d8ffc57b-96b0-4c89-bfdf-f54b78f5562e","ios":"levelo://app?vid=d8ffc57b-96b0-4c89-bfdf-f54b78f5562e"},"vehicle_type_id":"4","last_reported":1748430536,"current_range_meters":14000,"station_id":"ce4bgkh2rcd13ifvqbl0","pricing_plan_id":"cebpf4jnsgd1na2vs0mg"},{"bike_id":"d49302de-3843-45f9-a5dd-8b7687c62571","system_id":"levelo_inurba_marseille","lat":43.30196,"lon":5.36605,"is_reserved":false,"is_disabled":false,"rental_uris":{"android":"levelo://app?vid=d49302de-3843-45f9-a5dd-8b7687c62571","ios":"levelo://app?vid=d49302de-3843-45f9-a5dd-8b7687c62571"},"vehicle_type_id":"4","last_reported":1748430536,"current_range_meters":14000,"station_id":"ce4bgrh2rcd13ifvqc8g","pricing_plan_id":"cebpf4jnsgd1na2vs0mg"},{"bike_id":"e5510727-e28d-4577-9d7a-ede0fe14eff9","system_id":"levelo_inurba_marseille","lat":43.27058,"lon":5.40265,"is_reserved":false,"is_disabled":false,"rental_uris":{"android":"levelo://app?vid=e5510727-e28d-4577-9d7a-ede0fe14eff9","ios":"levelo://app?vid=e5510727-e28d-4577-9d7a-ede0fe14eff9"},"vehicle_type_id":"4","last_reported":1748430536,"current_range_meters":14000,"station_id":"ce4bhk92rcd13ifvqgc0","pricing_plan_id":"cebpf4jnsgd1na2vs0mg"},{"bike_id":"9c724d30-4ddc-42b8-abe2-bd3f324f9946","system_id":"levelo_inurba_marseille","lat":43.24169,"lon":5.36393,"is_reserved":false,"is_disabled":false,"rental_uris":{"android":"levelo://app?vid=9c724d30-4ddc-42b8-abe2-bd3f324f9946","ios":"levelo://app?vid=9c724d30-4ddc-42b8-abe2-bd3f324f9946"},"vehicle_type_id":"4","last_reported":1748430536,"current_range_meters":14000,"station_id":"cpo36qri1sfpv3e86is0","pricing_plan_id":"cebpf4jnsgd1na2vs0mg"},{"bike_id":"9e25217f-a82a-48bf-b354-7f7d352a947e","system_id":"levelo_inurba_marseille","lat":43.24399,"lon":5.371024,"is_reserved":false,"is_disabled":false,"rental_uris":{"android":"levelo://app?vid=9e25217f-a82a-48bf-b354-7f7d352a947e","ios":"levelo://app?vid=9e25217f-a82a-48bf-b354-7f7d352a947e"},"vehicle_type_id":"4","last_reported":1748430536,"current_range_meters":14400,"station_id":"ce4bhhh2rcd13ifvqfk0","pricing_plan_id":"cebpf4jnsgd1na2vs0mg"},{"bike_id":"c8fa656b-80cd-420d-a6d1-e1aefb7fe1df","system_id":"levelo_inurba_marseille","lat":43.23964,"lon":5.36631,"is_reserved":false,"is_disabled":false,"rental_uris":{"android":"levelo://app?vid=c8fa656b-80cd-420d-a6d1-e1aefb7fe1df","ios":"levelo://app?vid=c8fa656b-80cd-420d-a6d1-e1aefb7fe1df"},"vehicle_type_id":"4","last_reported":1748430536,"current_range_meters":14400,"station_id":"ce4bhi12rcd13ifvqfp0","pricing_plan_id":"cebpf4jnsgd1na2vs0mg"},{"bike_id":"d053567f-079c-47f1-bbe0-bcfc310eb193","system_id":"levelo_inurba_marseille","lat":43.254432,"lon":5.401575,"is_reserved":false,"is_disabled":false,"rental_uris":{"android":"levelo://app?vid=d053567f-079c-47f1-bbe0-bcfc310eb193","ios":"levelo://app?vid=d053567f-079c-47f1-bbe0-bcfc310eb193"},"vehicle_type_id":"4","last_reported":1748430536,"current_range_meters":14400,"station_id":"ce4bhlh2rcd13ifvqgig","pricing_plan_id":"cebpf4jnsgd1na2vs0mg"},{"bike_id":"02685a3d-56d4-4c07-89be-ab1cf94f4165","system_id":"levelo_inurba_marseille","lat":43.2512,"lon":5.40317,"is_reserved":false,"is_disabled":false,"rental_uris":{"android":"levelo://app?vid=02685a3d-56d4-4c07-89be-ab1cf94f4165","ios":"levelo://app?vid=02685a3d-56d4-4c07-89be-ab1cf94f4165"},"vehicle_type_id":"4","last_reported":1748430536,"current_range_meters":14400,"station_id":"ce4bhlh2rcd13ifvqgig","pricing_plan_id":"cebpf4jnsgd1na2vs0mg"},{"bike_id":"ae4b5501-5283-4d80-ac95-6ef63388d08b","system_id":"levelo_inurba_marseille","lat":43.27999,"lon":5.40016,"is_reserved":false,"is_disabled":false,"rental_uris":{"android":"levelo://app?vid=ae4b5501-5283-4d80-ac95-6ef63388d08b","ios":"levelo://app?vid=ae4b5501-5283-4d80-ac95-6ef63388d08b"},"vehicle_type_id":"4","last_reported":1748430536,"current_range_meters":14400,"station_id":"ce4bho92rcd13ifvqh4g","pricing_plan_id":"cebpf4jnsgd1na2vs0mg"},{"bike_id":"da9f1604-30f9-4e00-986a-54a97bb8c147","system_id":"levelo_inurba_marseille","lat":43.21195,"lon":5.35074,"is_reserved":false,"is_disabled":false,"rental_uris":{"android":"levelo://app?vid=da9f1604-30f9-4e00-986a-54a97bb8c147","ios":"levelo://app?vid=da9f1604-30f9-4e00-986a-54a97bb8c147"},"vehicle_type_id":"4","last_reported":1748430536,"current_range_meters":14400,"station_id":"st_cvj6sg6p6f1abm77japg","pricing_plan_id":"cebpf4jnsgd1na2vs0mg"},{"bike_id":"e096af3c-0540-4efc-bca3-a970fb73bc93","system_id":"levelo_inurba_marseille","lat":43.282141,"lon":5.390636,"is_reserved":false,"is_disabled":false,"rental_uris":{"android":"levelo://app?vid=e096af3c-0540-4efc-bca3-a970fb73bc93","ios":"levelo://app?vid=e096af3c-0540-4efc-bca3-a970fb73bc93"},"vehicle_type_id":"4","last_reported":1748430536,"current_range_meters":14800,"station_id":"","pricing_plan_id":"cebpf4jnsgd1na2vs0mg"},{"bike_id":"a7b28dad-b0e3-4373-84c9-ca1db05de1f6","system_id":"levelo_inurba_marseille","lat":43.29983,"lon":5.383983,"is_reserved":false,"is_disabled":false,"rental_uris":{"android":"levelo://app?vid=a7b28dad-b0e3-4373-84c9-ca1db05de1f6","ios":"levelo://app?vid=a7b28dad-b0e3-4373-84c9-ca1db05de1f6"},"vehicle_type_id":"4","last_reported":1748430536,"current_range_meters":14800,"station_id":"","pricing_plan_id":"cebpf4jnsgd1na2vs0mg"},{"bike_id":"48631712-c372-4924-b516-0ff6d4bb66ae","system_id":"levelo_inurba_marseille","lat":43.29836,"lon":5.38312,"is_reserved":false,"is_disabled":false,"rental_uris":{"android":"levelo://app?vid=48631712-c372-4924-b516-0ff6d4bb66ae","ios":"levelo://app?vid=48631712-c372-4924-b516-0ff6d4bb66ae"},"vehicle_type_id":"4","last_reported":1748430536,"current_range_meters":14800,"station_id":"","pricing_plan_id":"cebpf4jnsgd1na2vs0mg"},{"bike_id":"63616c72-9029-44e6-98de-a040d6b5ecfb","system_id":"levelo_inurba_marseille","lat":43.32133,"lon":5.36721,"is_reserved":false,"is_disabled":false,"rental_uris":{"android":"levelo://app?vid=63616c72-9029-44e6-98de-a040d6b5ecfb","ios":"levelo://app?vid=63616c72-9029-44e6-98de-a040d6b5ecfb"},"vehicle_type_id":"4","last_reported":1748430536,"current_range_meters":14800,"station_id":"","pricing_plan_id":"cebpf4jnsgd1na2vs0mg"},{"bike_id":"16358778-9c20-4d43-9f79-f22659df4b1a","system_id":"levelo_inurba_marseille","lat":43.27378,"lon":5.36242,"is_reserved":false,"is_disabled":false,"rental_uris":{"android":"levelo://app?vid=16358778-9c20-4d43-9f79-f22659df4b1a","ios":"levelo://app?vid=16358778-9c20-4d43-9f79-f22659df4b1a"},"vehicle_type_id":"4","last_reported":1748430536,"current_range_meters":14800,"station_id":"ce4bhbh2rcd13ifvqeo0","pricing_plan_id":"cebpf4jnsgd1na2vs0mg"},{"bike_id":"7e21b4c5-84e6-49b9-999a-4fa6883be7c5","system_id":"levelo_inurba_marseille","lat":43.28413,"lon":5.34972,"is_reserved":false,"is_disabled":false,"rental_uris":{"android":"levelo://app?vid=7e21b4c5-84e6-49b9-999a-4fa6883be7c5","ios":"levelo://app?vid=7e21b4c5-84e6-49b9-999a-4fa6883be7c5"},"vehicle_type_id":"4","last_reported":1748430536,"current_range_meters":14800,"station_id":"ce4bhbh2rcd13ifvqepg","pricing_plan_id":"cebpf4jnsgd1na2vs0mg"},{"bike_id":"24a11296-1d4b-4907-9e88-5097c4e57fe4","system_id":"levelo_inurba_marseille","lat":43.28277,"lon":5.35077,"is_reserved":false,"is_disabled":false,"rental_uris":{"android":"levelo://app?vid=24a11296-1d4b-4907-9e88-5097c4e57fe4","ios":"levelo://app?vid=24a11296-1d4b-4907-9e88-5097c4e57fe4"},"vehicle_type_id":"4","last_reported":1748430536,"current_range_meters":14800,"station_id":"ce4bhbp2rcd13ifvqerg","pricing_plan_id":"cebpf4jnsgd1na2vs0mg"},{"bike_id":"60815888-7c98-4769-b7d4-8cf1272505d8","system_id":"levelo_inurba_marseille","lat":43.23207,"lon":5.39955,"is_reserved":false,"is_disabled":false,"rental_uris":{"android":"levelo://app?vid=60815888-7c98-4769-b7d4-8cf1272505d8","ios":"levelo://app?vid=60815888-7c98-4769-b7d4-8cf1272505d8"},"vehicle_type_id":"4","last_reported":1748430536,"current_range_meters":15200,"station_id":"","pricing_plan_id":"cebpf4jnsgd1na2vs0mg"},{"bike_id":"e3b44f52-b3f3-495d-af95-be6b3dc206b9","system_id":"levelo_inurba_marseille","lat":43.29535,"lon":5.38546,"is_reserved":false,"is_disabled":false,"rental_uris":{"android":"levelo://app?vid=e3b44f52-b3f3-495d-af95-be6b3dc206b9","ios":"levelo://app?vid=e3b44f52-b3f3-495d-af95-be6b3dc206b9"},"vehicle_type_id":"4","last_reported":1748430536,"current_range_meters":15200,"station_id":"ce4bgih2rcd13ifvqba0","pricing_plan_id":"cebpf4jnsgd1na2vs0mg"},{"bike_id":"763fa6c7-3fdf-4358-afa8-5dbc72d2375c","system_id":"levelo_inurba_marseille","lat":43.31484,"lon":5.37305,"is_reserved":false,"is_disabled":false,"rental_uris":{"android":"levelo://app?vid=763fa6c7-3fdf-4358-afa8-5dbc72d2375c","ios":"levelo://app?vid=763fa6c7-3fdf-4358-afa8-5dbc72d2375c"},"vehicle_type_id":"4","last_reported":1748430536,"current_range_meters":15200,"station_id":"ce4bgt12rcd13ifvqcd0","pricing_plan_id":"cebpf4jnsgd1na2vs0mg"},{"bike_id":"d957d312-c58f-47a6-b29a-f01af54a789e","system_id":"levelo_inurba_marseille","lat":43.29634,"lon":5.40595,"is_reserved":false,"is_disabled":false,"rental_uris":{"android":"levelo://app?vid=d957d312-c58f-47a6-b29a-f01af54a789e","ios":"levelo://app?vid=d957d312-c58f-47a6-b29a-f01af54a789e"},"vehicle_type_id":"4","last_reported":1748430536,"current_range_meters":15200,"station_id":"ce4bh0h2rcd13ifvqd60","pricing_plan_id":"cebpf4jnsgd1na2vs0mg"},{"bike_id":"600b992f-0781-449c-8447-ec99f2c3f9ed","system_id":"levelo_inurba_marseille","lat":43.28573,"lon":5.39508,"is_reserved":false,"is_disabled":false,"rental_uris":{"android":"levelo://app?vid=600b992f-0781-449c-8447-ec99f2c3f9ed","ios":"levelo://app?vid=600b992f-0781-449c-8447-ec99f2c3f9ed"},"vehicle_type_id":"4","last_reported":1748430536,"current_range_meters":15200,"station_id":"ce4bh292rcd13ifvqdg0","pricing_plan_id":"cebpf4jnsgd1na2vs0mg"},{"bike_id":"f70b4fd3-08c0-41b4-beae-c5689f2ac985","system_id":"levelo_inurba_marseille","lat":43.28678,"lon":5.38669,"is_reserved":false,"is_disabled":false,"rental_uris":{"android":"levelo://app?vid=f70b4fd3-08c0-41b4-beae-c5689f2ac985","ios":"levelo://app?vid=f70b4fd3-08c0-41b4-beae-c5689f2ac985"},"vehicle_type_id":"4","last_reported":1748430536,"current_range_meters":15200,"station_id":"ce4bh492rcd13ifvqdug","pricing_plan_id":"cebpf4jnsgd1na2vs0mg"},{"bike_id":"3cad45d9-90b5-438b-b5b6-5b05ee49547c","system_id":"levelo_inurba_marseille","lat":43.25111,"lon":5.40321,"is_reserved":false,"is_disabled":false,"rental_uris":{"android":"levelo://app?vid=3cad45d9-90b5-438b-b5b6-5b05ee49547c","ios":"levelo://app?vid=3cad45d9-90b5-438b-b5b6-5b05ee49547c"},"vehicle_type_id":"4","last_reported":1748430536,"current_range_meters":15200,"station_id":"ce4bhlh2rcd13ifvqgig","pricing_plan_id":"cebpf4jnsgd1na2vs0mg"},{"bike_id":"f208415b-80e1-4713-a6ae-428f26017243","system_id":"levelo_inurba_marseille","lat":43.323145,"lon":5.367031,"is_reserved":false,"is_disabled":false,"rental_uris":{"android":"levelo://app?vid=f208415b-80e1-4713-a6ae-428f26017243","ios":"levelo://app?vid=f208415b-80e1-4713-a6ae-428f26017243"},"vehicle_type_id":"4","last_reported":1748430536,"current_range_meters":15200,"station_id":"ce4bhsh2rcd13ifvqi2g","pricing_plan_id":"cebpf4jnsgd1na2vs0mg"},{"bike_id":"2d7aa7aa-1349-4d3b-983d-1d1fb44a94b8","system_id":"levelo_inurba_marseille","lat":43.26805,"lon":5.40271,"is_reserved":false,"is_disabled":false,"rental_uris":{"android":"levelo://app?vid=2d7aa7aa-1349-4d3b-983d-1d1fb44a94b8","ios":"levelo://app?vid=2d7aa7aa-1349-4d3b-983d-1d1fb44a94b8"},"vehicle_type_id":"4","last_reported":1748430536,"current_range_meters":15200,"station_id":"ce501612rcd8frsf0b60","pricing_plan_id":"cebpf4jnsgd1na2vs0mg"},{"bike_id":"78561a21-4ad6-42f3-b013-571db6228ce1","system_id":"levelo_inurba_marseille","lat":43.30301,"lon":5.36894,"is_reserved":false,"is_disabled":false,"rental_uris":{"android":"levelo://app?vid=78561a21-4ad6-42f3-b013-571db6228ce1","ios":"levelo://app?vid=78561a21-4ad6-42f3-b013-571db6228ce1"},"vehicle_type_id":"4","last_reported":1748430536,"current_range_meters":16000,"station_id":"ce4bgqh2rcd13ifvqc5g","pricing_plan_id":"cebpf4jnsgd1na2vs0mg"},{"bike_id":"d0f8c4fd-4734-48f7-8c11-b7675a50022a","system_id":"levelo_inurba_marseille","lat":43.30926,"lon":5.40148,"is_reserved":false,"is_disabled":false,"rental_uris":{"android":"levelo://app?vid=d0f8c4fd-4734-48f7-8c11-b7675a50022a","ios":"levelo://app?vid=d0f8c4fd-4734-48f7-8c11-b7675a50022a"},"vehicle_type_id":"4","last_reported":1748430536,"current_range_meters":16000,"station_id":"ce4bgvp2rcd13ifvqct0","pricing_plan_id":"cebpf4jnsgd1na2vs0mg"},{"bike_id":"6ac7edd4-badc-4853-87f6-24b5639be3b4","system_id":"levelo_inurba_marseille","lat":43.24179,"lon":5.3972,"is_reserved":false,"is_disabled":false,"rental_uris":{"android":"levelo://app?vid=6ac7edd4-badc-4853-87f6-24b5639be3b4","ios":"levelo://app?vid=6ac7edd4-badc-4853-87f6-24b5639be3b4"},"vehicle_type_id":"4","last_reported":1748430536,"current_range_meters":16000,"station_id":"ce4bhn12rcd13ifvqgpg","pricing_plan_id":"cebpf4jnsgd1na2vs0mg"},{"bike_id":"d6dfe4b3-e0a3-4161-87f2-bd5e66965bce","system_id":"levelo_inurba_marseille","lat":43.301929,"lon":5.39779,"is_reserved":false,"is_disabled":false,"rental_uris":{"android":"levelo://app?vid=d6dfe4b3-e0a3-4161-87f2-bd5e66965bce","ios":"levelo://app?vid=d6dfe4b3-e0a3-4161-87f2-bd5e66965bce"},"vehicle_type_id":"4","last_reported":1748430536,"current_range_meters":16400,"station_id":"","pricing_plan_id":"cebpf4jnsgd1na2vs0mg"},{"bike_id":"f787d05e-fb6d-46ef-8a82-b189b759f233","system_id":"levelo_inurba_marseille","lat":43.29368,"lon":5.37847,"is_reserved":false,"is_disabled":false,"rental_uris":{"android":"levelo://app?vid=f787d05e-fb6d-46ef-8a82-b189b759f233","ios":"levelo://app?vid=f787d05e-fb6d-46ef-8a82-b189b759f233"},"vehicle_type_id":"4","last_reported":1748430536,"current_range_meters":16400,"station_id":"ce4bgjh2rcd13ifvqbf0","pricing_plan_id":"cebpf4jnsgd1na2vs0mg"},{"bike_id":"99dd0d54-1576-402f-b345-65a484125c48","system_id":"levelo_inurba_marseille","lat":43.30581,"lon":5.36735,"is_reserved":false,"is_disabled":false,"rental_uris":{"android":"levelo://app?vid=99dd0d54-1576-402f-b345-65a484125c48","ios":"levelo://app?vid=99dd0d54-1576-402f-b345-65a484125c48"},"vehicle_type_id":"4","last_reported":1748430536,"current_range_meters":16400,"station_id":"ce4bgrp2rcd13ifvqc9g","pricing_plan_id":"cebpf4jnsgd1na2vs0mg"},{"bike_id":"3497c608-d157-4b08-a88b-6d42b660a25c","system_id":"levelo_inurba_marseille","lat":43.28615,"lon":5.35095,"is_reserved":false,"is_disabled":false,"rental_uris":{"android":"levelo://app?vid=3497c608-d157-4b08-a88b-6d42b660a25c","ios":"levelo://app?vid=3497c608-d157-4b08-a88b-6d42b660a25c"},"vehicle_type_id":"4","last_reported":1748430536,"current_range_meters":16400,"station_id":"ce4bhch2rcd13ifvqeug","pricing_plan_id":"cebpf4jnsgd1na2vs0mg"},{"bike_id":"e9628234-cd01-4fca-8a79-df3576372d6a","system_id":"levelo_inurba_marseille","lat":43.26034,"lon":5.37543,"is_reserved":false,"is_disabled":false,"rental_uris":{"android":"levelo://app?vid=e9628234-cd01-4fca-8a79-df3576372d6a","ios":"levelo://app?vid=e9628234-cd01-4fca-8a79-df3576372d6a"},"vehicle_type_id":"4","last_reported":1748430536,"current_range_meters":16400,"station_id":"ce4bhgh2rcd13ifvqfa0","pricing_plan_id":"cebpf4jnsgd1na2vs0mg"},{"bike_id":"a0b95b13-3e80-4077-b978-76e3a5dff908","system_id":"levelo_inurba_marseille","lat":43.27074,"lon":5.40237,"is_reserved":false,"is_disabled":false,"rental_uris":{"android":"levelo://app?vid=a0b95b13-3e80-4077-b978-76e3a5dff908","ios":"levelo://app?vid=a0b95b13-3e80-4077-b978-76e3a5dff908"},"vehicle_type_id":"4","last_reported":1748430536,"current_range_meters":16400,"station_id":"ce4bhk92rcd13ifvqgc0","pricing_plan_id":"cebpf4jnsgd1na2vs0mg"},{"bike_id":"76ba449c-06bc-4248-96cb-77ff2d20a863","system_id":"levelo_inurba_marseille","lat":43.28712,"lon":5.37938,"is_reserved":false,"is_disabled":false,"rental_uris":{"android":"levelo://app?vid=76ba449c-06bc-4248-96cb-77ff2d20a863","ios":"levelo://app?vid=76ba449c-06bc-4248-96cb-77ff2d20a863"},"vehicle_type_id":"4","last_reported":1748430536,"current_range_meters":16800,"station_id":"ce4bh9p2rcd13ifvqec0","pricing_plan_id":"cebpf4jnsgd1na2vs0mg"},{"bike_id":"5a2ffc6b-bd59-4efe-a9ae-5d7f8b87dbd2","system_id":"levelo_inurba_marseille","lat":43.24385,"lon":5.37056,"is_reserved":false,"is_disabled":false,"rental_uris":{"android":"levelo://app?vid=5a2ffc6b-bd59-4efe-a9ae-5d7f8b87dbd2","ios":"levelo://app?vid=5a2ffc6b-bd59-4efe-a9ae-5d7f8b87dbd2"},"vehicle_type_id":"4","last_reported":1748430536,"current_range_meters":16800,"station_id":"ce4bhhh2rcd13ifvqfk0","pricing_plan_id":"cebpf4jnsgd1na2vs0mg"},{"bike_id":"754aed2a-cf54-4467-b6ba-83fa67e5d062","system_id":"levelo_inurba_marseille","lat":43.33027,"lon":5.39032,"is_reserved":false,"is_disabled":false,"rental_uris":{"android":"levelo://app?vid=754aed2a-cf54-4467-b6ba-83fa67e5d062","ios":"levelo://app?vid=754aed2a-cf54-4467-b6ba-83fa67e5d062"},"vehicle_type_id":"4","last_reported":1748430536,"current_range_meters":16800,"station_id":"ce4bhr92rcd13ifvqhrg","pricing_plan_id":"cebpf4jnsgd1na2vs0mg"},{"bike_id":"edc0a308-16c3-49e1-b58c-2b3ba1ad48f5","system_id":"levelo_inurba_marseille","lat":43.299071,"lon":5.385112,"is_reserved":false,"is_disabled":false,"rental_uris":{"android":"levelo://app?vid=edc0a308-16c3-49e1-b58c-2b3ba1ad48f5","ios":"levelo://app?vid=edc0a308-16c3-49e1-b58c-2b3ba1ad48f5"},"vehicle_type_id":"4","last_reported":1748430536,"current_range_meters":16800,"station_id":"chh1huq6cuj3fo74tm60","pricing_plan_id":"cebpf4jnsgd1na2vs0mg"},{"bike_id":"9fe8baa7-2078-430d-ba64-db4fa590fcc8","system_id":"levelo_inurba_marseille","lat":43.21748,"lon":5.34598,"is_reserved":false,"is_disabled":false,"rental_uris":{"android":"levelo://app?vid=9fe8baa7-2078-430d-ba64-db4fa590fcc8","ios":"levelo://app?vid=9fe8baa7-2078-430d-ba64-db4fa590fcc8"},"vehicle_type_id":"4","last_reported":1748430536,"current_range_meters":16800,"station_id":"st_cvj6r9ubvosntc0bgbag","pricing_plan_id":"cebpf4jnsgd1na2vs0mg"},{"bike_id":"1cc8e6d9-dcfc-4bea-aeb5-47cb500e54cd","system_id":"levelo_inurba_marseille","lat":43.29813,"lon":5.36351,"is_reserved":false,"is_disabled":false,"rental_uris":{"android":"levelo://app?vid=1cc8e6d9-dcfc-4bea-aeb5-47cb500e54cd","ios":"levelo://app?vid=1cc8e6d9-dcfc-4bea-aeb5-47cb500e54cd"},"vehicle_type_id":"4","last_reported":1748430536,"current_range_meters":17200,"station_id":"","pricing_plan_id":"cebpf4jnsgd1na2vs0mg"},{"bike_id":"ecef8788-4032-4831-b0af-0b88c49b7166","system_id":"levelo_inurba_marseille","lat":43.3134,"lon":5.36715,"is_reserved":false,"is_disabled":false,"rental_uris":{"android":"levelo://app?vid=ecef8788-4032-4831-b0af-0b88c49b7166","ios":"levelo://app?vid=ecef8788-4032-4831-b0af-0b88c49b7166"},"vehicle_type_id":"4","last_reported":1748430536,"current_range_meters":17200,"station_id":"ce4bgr92rcd13ifvqc6g","pricing_plan_id":"cebpf4jnsgd1na2vs0mg"},{"bike_id":"1898a25e-5afc-4c2d-9a50-8b57c52806b8","system_id":"levelo_inurba_marseille","lat":43.30466,"lon":5.37901,"is_reserved":false,"is_disabled":false,"rental_uris":{"android":"levelo://app?vid=1898a25e-5afc-4c2d-9a50-8b57c52806b8","ios":"levelo://app?vid=1898a25e-5afc-4c2d-9a50-8b57c52806b8"},"vehicle_type_id":"4","last_reported":1748430536,"current_range_meters":17200,"station_id":"ce4bgup2rcd13ifvqcn0","pricing_plan_id":"cebpf4jnsgd1na2vs0mg"},{"bike_id":"e4a53ef8-bd17-49cb-9a2e-e82e1e53a421","system_id":"levelo_inurba_marseille","lat":43.29278,"lon":5.40115,"is_reserved":false,"is_disabled":false,"rental_uris":{"android":"levelo://app?vid=e4a53ef8-bd17-49cb-9a2e-e82e1e53a421","ios":"levelo://app?vid=e4a53ef8-bd17-49cb-9a2e-e82e1e53a421"},"vehicle_type_id":"4","last_reported":1748430536,"current_range_meters":17200,"station_id":"ce4bh312rcd13ifvqdk0","pricing_plan_id":"cebpf4jnsgd1na2vs0mg"},{"bike_id":"d978ac97-40b7-4e21-89bb-d5c463459135","system_id":"levelo_inurba_marseille","lat":43.29283,"lon":5.40114,"is_reserved":false,"is_disabled":false,"rental_uris":{"android":"levelo://app?vid=d978ac97-40b7-4e21-89bb-d5c463459135","ios":"levelo://app?vid=d978ac97-40b7-4e21-89bb-d5c463459135"},"vehicle_type_id":"4","last_reported":1748430536,"current_range_meters":17200,"station_id":"ce4bh312rcd13ifvqdk0","pricing_plan_id":"cebpf4jnsgd1na2vs0mg"},{"bike_id":"5a37c25e-cc47-4a06-ba91-ae8839f36a63","system_id":"levelo_inurba_marseille","lat":43.26553,"lon":5.3728,"is_reserved":false,"is_disabled":false,"rental_uris":{"android":"levelo://app?vid=5a37c25e-cc47-4a06-ba91-ae8839f36a63","ios":"levelo://app?vid=5a37c25e-cc47-4a06-ba91-ae8839f36a63"},"vehicle_type_id":"4","last_reported":1748430536,"current_range_meters":17200,"station_id":"ce4bhg12rcd13ifvqf70","pricing_plan_id":"cebpf4jnsgd1na2vs0mg"},{"bike_id":"ce7c597b-a26f-404e-b2c7-c2d8592a9281","system_id":"levelo_inurba_marseille","lat":43.25933,"lon":5.40909,"is_reserved":false,"is_disabled":false,"rental_uris":{"android":"levelo://app?vid=ce7c597b-a26f-404e-b2c7-c2d8592a9281","ios":"levelo://app?vid=ce7c597b-a26f-404e-b2c7-c2d8592a9281"},"vehicle_type_id":"4","last_reported":1748430536,"current_range_meters":17200,"station_id":"ce4bhm92rcd13ifvqglg","pricing_plan_id":"cebpf4jnsgd1na2vs0mg"},{"bike_id":"74596cad-01b8-4827-9b35-ca1f4056673c","system_id":"levelo_inurba_marseille","lat":43.32323,"lon":5.38273,"is_reserved":false,"is_disabled":false,"rental_uris":{"android":"levelo://app?vid=74596cad-01b8-4827-9b35-ca1f4056673c","ios":"levelo://app?vid=74596cad-01b8-4827-9b35-ca1f4056673c"},"vehicle_type_id":"4","last_reported":1748430536,"current_range_meters":17200,"station_id":"ce4bhr12rcd13ifvqhqg","pricing_plan_id":"cebpf4jnsgd1na2vs0mg"},{"bike_id":"8370405b-92b4-4963-aa2e-c5495e16d397","system_id":"levelo_inurba_marseille","lat":43.32459,"lon":5.36547,"is_reserved":false,"is_disabled":false,"rental_uris":{"android":"levelo://app?vid=8370405b-92b4-4963-aa2e-c5495e16d397","ios":"levelo://app?vid=8370405b-92b4-4963-aa2e-c5495e16d397"},"vehicle_type_id":"4","last_reported":1748430536,"current_range_meters":17200,"station_id":"ce4bhs12rcd13ifvqhvg","pricing_plan_id":"cebpf4jnsgd1na2vs0mg"},{"bike_id":"dc1a44ba-3c53-43a1-b201-cbef6ec55a6f","system_id":"levelo_inurba_marseille","lat":43.30557,"lon":5.38423,"is_reserved":false,"is_disabled":false,"rental_uris":{"android":"levelo://app?vid=dc1a44ba-3c53-43a1-b201-cbef6ec55a6f","ios":"levelo://app?vid=dc1a44ba-3c53-43a1-b201-cbef6ec55a6f"},"vehicle_type_id":"4","last_reported":1748430536,"current_range_meters":17600,"station_id":"ce4bgg92rcd13ifvqb30","pricing_plan_id":"cebpf4jnsgd1na2vs0mg"},{"bike_id":"669aa451-316e-4f62-9f09-88614f6cbc13","system_id":"levelo_inurba_marseille","lat":43.27379,"lon":5.36247,"is_reserved":false,"is_disabled":false,"rental_uris":{"android":"levelo://app?vid=669aa451-316e-4f62-9f09-88614f6cbc13","ios":"levelo://app?vid=669aa451-316e-4f62-9f09-88614f6cbc13"},"vehicle_type_id":"4","last_reported":1748430536,"current_range_meters":17600,"station_id":"ce4bhbh2rcd13ifvqeo0","pricing_plan_id":"cebpf4jnsgd1na2vs0mg"},{"bike_id":"f28bd174-5dff-4a43-b8aa-c6ddb148d9e0","system_id":"levelo_inurba_marseille","lat":43.28408,"lon":5.34989,"is_reserved":false,"is_disabled":false,"rental_uris":{"android":"levelo://app?vid=f28bd174-5dff-4a43-b8aa-c6ddb148d9e0","ios":"levelo://app?vid=f28bd174-5dff-4a43-b8aa-c6ddb148d9e0"},"vehicle_type_id":"4","last_reported":1748430536,"current_range_meters":17600,"station_id":"ce4bhbh2rcd13ifvqepg","pricing_plan_id":"cebpf4jnsgd1na2vs0mg"},{"bike_id":"16c1928a-f1da-4575-9ab0-42b3233d934e","system_id":"levelo_inurba_marseille","lat":43.2656,"lon":5.37272,"is_reserved":false,"is_disabled":false,"rental_uris":{"android":"levelo://app?vid=16c1928a-f1da-4575-9ab0-42b3233d934e","ios":"levelo://app?vid=16c1928a-f1da-4575-9ab0-42b3233d934e"},"vehicle_type_id":"4","last_reported":1748430536,"current_range_meters":17600,"station_id":"ce4bhg12rcd13ifvqf70","pricing_plan_id":"cebpf4jnsgd1na2vs0mg"},{"bike_id":"340b6b28-6f90-412f-9197-2fc31f9afa51","system_id":"levelo_inurba_marseille","lat":43.23964,"lon":5.36622,"is_reserved":false,"is_disabled":false,"rental_uris":{"android":"levelo://app?vid=340b6b28-6f90-412f-9197-2fc31f9afa51","ios":"levelo://app?vid=340b6b28-6f90-412f-9197-2fc31f9afa51"},"vehicle_type_id":"4","last_reported":1748430536,"current_range_meters":17600,"station_id":"ce4bhi12rcd13ifvqfp0","pricing_plan_id":"cebpf4jnsgd1na2vs0mg"},{"bike_id":"6b768e44-2286-4c3b-9779-4cbddad163c2","system_id":"levelo_inurba_marseille","lat":43.270528,"lon":5.402536,"is_reserved":false,"is_disabled":false,"rental_uris":{"android":"levelo://app?vid=6b768e44-2286-4c3b-9779-4cbddad163c2","ios":"levelo://app?vid=6b768e44-2286-4c3b-9779-4cbddad163c2"},"vehicle_type_id":"4","last_reported":1748430536,"current_range_meters":17600,"station_id":"ce4bhk92rcd13ifvqgc0","pricing_plan_id":"cebpf4jnsgd1na2vs0mg"},{"bike_id":"ed99bce0-701b-4234-b61e-1211fa572644","system_id":"levelo_inurba_marseille","lat":43.2509,"lon":5.4033,"is_reserved":false,"is_disabled":false,"rental_uris":{"android":"levelo://app?vid=ed99bce0-701b-4234-b61e-1211fa572644","ios":"levelo://app?vid=ed99bce0-701b-4234-b61e-1211fa572644"},"vehicle_type_id":"4","last_reported":1748430536,"current_range_meters":17600,"station_id":"ce4bhlh2rcd13ifvqgig","pricing_plan_id":"cebpf4jnsgd1na2vs0mg"},