{"last_updated":1710713187,"ttl":30,"version":"2.2","data":{"bikes":[{"bike_id":"47d5e841-c64e-4811-9203-fb059e31d7eb","system_id":"levelo_inurba_marseille","lat":43.31341,"lon":5.367098,"is_reserved":false,"is_disabled":false,"rental_uris":{"android":"levelo://app?vid=47d5e841-c64e-4811-9203-fb059e31d7eb","ios":"levelo://app?vid=47d5e841-c64e-4811-9203-fb059e31d7eb"},"vehicle_type_id":"4","last_reported":1710713187,"current_range_meters":19200,"station_id":"ce4bgr92rcd13ifvqc6g","pricing_plan_id":"cebpf4jnsgd1na2vs0mg"},{"bike_id":"6c5e9eec-b88b-4498-8d02-c148df21a2e4","system_id":"levelo_inurba_marseille","lat":43.312239,"lon":5.368562,"is_reserved":false,"is_disabled":false,"rental_uris":{"android":"levelo://app?vid=6c5e9eec-b88b-4498-8d02-c148df21a2e4","ios":"levelo://app?vid=6c5e9eec-b88b-4498-8d02-c148df21a2e4"},"vehicle_type_id":"4","last_reported":1710713187,"current_range_meters":23200,"station_id":"ce4bgl92rcd13ifvqbq0","pricing_plan_id":"cebpf4jnsgd1na2vs0mg"},{"bike_id":"33edaa85-cbae-4835-941c-dc528bb41d95","system_id":"levelo_inurba_marseille","lat":43.309076,"lon":5.368465,"is_reserved":false,"is_disabled":false,"rental_uris":{"android":"levelo://app?vid=33edaa85-cbae-4835-941c-dc528bb41d95","ios":"levelo://app?vid=33edaa85-cbae-4835-941c-dc528bb41d95"},"vehicle_type_id":"4","last_reported":1710713187,"current_range_meters":9200,"station_id":"ce4bgn92rcd13ifvqbvg","pricing_plan_id":"cebpf4jnsgd1na2vs0mg"},{"bike_id":"4616d4a0-2062-4ba8-b245-e12928edd6f7","system_id":"levelo_inurba_marseille","lat":43.309076,"lon":5.368465,"is_reserved":false,"is_disabled":false,"rental_uris":{"android":"levelo://app?vid=4616d4a0-2062-4ba8-b245-e12928edd6f7","ios":"levelo://app?vid=4616d4a0-2062-4ba8-b245-e12928edd6f7"},"vehicle_type_id":"4","last_reported":1710713187,"current_range_meters":28800,"station_id":"ce4bgn92rcd13ifvqbvg","pricing_plan_id":"cebpf4jnsgd1na2vs0mg"},{"bike_id":"c95a33ba-cbb5-49c5-b55a-1a0caf8e809a","system_id":"levelo_inurba_marseille","lat":43.314811,"lon":5.373104,"is_reserved":false,"is_disabled":false,"rental_uris":{"android":"levelo://app?vid=c95a33ba-cbb5-49c5-b55a-1a0caf8e809a","ios":"levelo://app?vid=c95a33ba-cbb5-49c5-b55a-1a0caf8e809a"},"vehicle_type_id":"4","last_reported":1710713187,"current_range_meters":6000,"station_id":"ce4bgt12rcd13ifvqcd0","pricing_plan_id":"cebpf4jnsgd1na2vs0mg"},{"bike_id":"e98e7f0a-0c93-4ac9-8d08-f7b1bcb4368a","system_id":"levelo_inurba_marseille","lat":43.309034,"lon":5.371783,"is_reserved":false,"is_disabled":false,"rental_uris":{"android":"levelo://app?vid=e98e7f0a-0c93-4ac9-8d08-f7b1bcb4368a","ios":"levelo://app?vid=e98e7f0a-0c93-4ac9-8d08-f7b1bcb4368a"},"vehicle_type_id":"4","last_reported":1710713187,"current_range_meters":22400,"station_id":"ce4bguh2rcd13ifvqckg","pricing_plan_id":"cebpf4jnsgd1na2vs0mg"},{"bike_id":"26ff1074-cbf3-4d5b-9465-ccfd9771499d","system_id":"levelo_inurba_marseille","lat":43.30555,"lon":5.36533,"is_reserved":false,"is_disabled":false,"rental_uris":{"android":"levelo://app?vid=26ff1074-cbf3-4d5b-9465-ccfd9771499d","ios":"levelo://app?vid=26ff1074-cbf3-4d5b-9465-ccfd9771499d"},"vehicle_type_id":"4","last_reported":1710713187,"current_range_meters":14000,"station_id":"ce4bgs12rcd13ifvqcag","pricing_plan_id":"cebpf4jnsgd1na2vs0mg"},{"bike_id":"820e69cc-eea9-40dd-a6e9-defeba85e641","system_id":"levelo_inurba_marseille","lat":43.305551,"lon":5.365301,"is_reserved":false,"is_disabled":false,"rental_uris":{"android":"levelo://app?vid=820e69cc-eea9-40dd-a6e9-defeba85e641","ios":"levelo://app?vid=820e69cc-eea9-40dd-a6e9-defeba85e641"},"vehicle_type_id":"4","last_reported":1710713187,"current_range_meters":31200,"station_id":"ce4bgs12rcd13ifvqcag","pricing_plan_id":"cebpf4jnsgd1na2vs0mg"},{"bike_id":"c6a29562-7c4d-4062-8280-e91f15ea8338","system_id":"levelo_inurba_marseille","lat":43.311125,"lon":5.377624,"is_reserved":false,"is_disabled":false,"rental_uris":{"android":"levelo://app?vid=c6a29562-7c4d-4062-8280-e91f15ea8338","ios":"levelo://app?vid=c6a29562-7c4d-4062-8280-e91f15ea8338"},"vehicle_type_id":"4","last_reported":1710713187,"current_range_meters":6000,"station_id":"ce4bgt92rcd13ifvqcg0","pricing_plan_id":"cebpf4jnsgd1na2vs0mg"},{"bike_id":"13d8d8e0-bca8-4b36-8067-8a025788900c","system_id":"levelo_inurba_marseille","lat":43.311125,"lon":5.377624,"is_reserved":false,"is_disabled":false,"rental_uris":{"android":"levelo://app?vid=13d8d8e0-bca8-4b36-8067-8a025788900c","ios":"levelo://app?vid=13d8d8e0-bca8-4b36-8067-8a025788900c"},"vehicle_type_id":"4","last_reported":1710713187,"current_range_meters":8000,"station_id":"ce4bgt92rcd13ifvqcg0","pricing_plan_id":"cebpf4jnsgd1na2vs0mg"},{"bike_id":"500f4970-ff5b-43a9-8312-439339b4d96e","system_id":"levelo_inurba_marseille","lat":43.311131,"lon":5.377651,"is_reserved":false,"is_disabled":false,"rental_uris":{"android":"levelo://app?vid=500f4970-ff5b-43a9-8312-439339b4d96e","ios":"levelo://app?vid=500f4970-ff5b-43a9-8312-439339b4d96e"},"vehicle_type_id":"4","last_reported":1710713187,"current_range_meters":19200,"station_id":"ce4bgt92rcd13ifvqcg0","pricing_plan_id":"cebpf4jnsgd1na2vs0mg"},{"bike_id":"4c44bec0-b880-47c4-9c8b-4d718fe6e31a","system_id":"levelo_inurba_marseille","lat":43.311125,"lon":5.377624,"is_reserved":false,"is_disabled":false,"rental_uris":{"android":"levelo://app?vid=4c44bec0-b880-47c4-9c8b-4d718fe6e31a","ios":"levelo://app?vid=4c44bec0-b880-47c4-9c8b-4d718fe6e31a"},"vehicle_type_id":"4","last_reported":1710713187,"current_range_meters":4000,"station_id":"ce4bgt92rcd13ifvqcg0","pricing_plan_id":"cebpf4jnsgd1na2vs0mg"},{"bike_id":"e93236bd-234d-400e-a615-b62532cbc45d","system_id":"levelo_inurba_marseille","lat":43.305989,"lon":5.37225,"is_reserved":false,"is_disabled":false,"rental_uris":{"android":"levelo://app?vid=e93236bd-234d-400e-a615-b62532cbc45d","ios":"levelo://app?vid=e93236bd-234d-400e-a615-b62532cbc45d"},"vehicle_type_id":"4","last_reported":1710713187,"current_range_meters":16400,"station_id":"ce4bgqh2rcd13ifvqc4g","pricing_plan_id":"cebpf4jnsgd1na2vs0mg"},{"bike_id":"7b5c4c6d-9b07-42f8-b486-b24ae97cc90c","system_id":"levelo_inurba_marseille","lat":43.307945,"lon":5.376487,"is_reserved":false,"is_disabled":false,"rental_uris":{"android":"levelo://app?vid=7b5c4c6d-9b07-42f8-b486-b24ae97cc90c","ios":"levelo://app?vid=7b5c4c6d-9b07-42f8-b486-b24ae97cc90c"},"vehicle_type_id":"4","last_reported":1710713187,"current_range_meters":2000,"station_id":"ce4bgv92rcd13ifvqcq0","pricing_plan_id":"cebpf4jnsgd1na2vs0mg"},{"bike_id":"7e111b11-fd89-4c88-a9ec-ba7dbc243046","system_id":"levelo_inurba_marseille","lat":43.307945,"lon":5.376487,"is_reserved":false,"is_disabled":false,"rental_uris":{"android":"levelo://app?vid=7e111b11-fd89-4c88-a9ec-ba7dbc243046","ios":"levelo://app?vid=7e111b11-fd89-4c88-a9ec-ba7dbc243046"},"vehicle_type_id":"4","last_reported":1710713187,"current_range_meters":4800,"station_id":"ce4bgv92rcd13ifvqcq0","pricing_plan_id":"cebpf4jnsgd1na2vs0mg"},{"bike_id":"6b20c2b6-b12e-4a17-ac2a-3124e1b572a0","system_id":"levelo_inurba_marseille","lat":43.30796,"lon":5.37635,"is_reserved":false,"is_disabled":false,"rental_uris":{"android":"levelo://app?vid=6b20c2b6-b12e-4a17-ac2a-3124e1b572a0","ios":"levelo://app?vid=6b20c2b6-b12e-4a17-ac2a-3124e1b572a0"},"vehicle_type_id":"4","last_reported":1710713187,"current_range_meters":23200,"station_id":"ce4bgv92rcd13ifvqcq0","pricing_plan_id":"cebpf4jnsgd1na2vs0mg"},{"bike_id":"8d9997d7-ada9-40c1-84d3-7a08b9bf25e9","system_id":"levelo_inurba_marseille","lat":43.307945,"lon":5.376487,"is_reserved":false,"is_disabled":false,"rental_uris":{"android":"levelo://app?vid=8d9997d7-ada9-40c1-84d3-7a08b9bf25e9","ios":"levelo://app?vid=8d9997d7-ada9-40c1-84d3-7a08b9bf25e9"},"vehicle_type_id":"4","last_reported":1710713187,"current_range_meters":29600,"station_id":"ce4bgv92rcd13ifvqcq0","pricing_plan_id":"cebpf4jnsgd1na2vs0mg"},{"bike_id":"c365a34c-0a4a-490e-b117-2c44f8726990","system_id":"levelo_inurba_marseille","lat":43.307945,"lon":5.376487,"is_reserved":false,"is_disabled":false,"rental_uris":{"android":"levelo://app?vid=c365a34c-0a4a-490e-b117-2c44f8726990","ios":"levelo://app?vid=c365a34c-0a4a-490e-b117-2c44f8726990"},"vehicle_type_id":"4","last_reported":1710713187,"current_range_meters":16000,"station_id":"ce4bgv92rcd13ifvqcq0","pricing_plan_id":"cebpf4jnsgd1na2vs0mg"},{"bike_id":"03489076-29ae-49db-9688-c08e2c344e3f","system_id":"levelo_inurba_marseille","lat":43.30793,"lon":5.37648,"is_reserved":false,"is_disabled":false,"rental_uris":{"android":"levelo://app?vid=03489076-29ae-49db-9688-c08e2c344e3f","ios":"levelo://app?vid=03489076-29ae-49db-9688-c08e2c344e3f"},"vehicle_type_id":"4","last_reported":1710713187,"current_range_meters":1600,"station_id":"ce4bgv92rcd13ifvqcq0","pricing_plan_id":"cebpf4jnsgd1na2vs0mg"},{"bike_id":"e686e953-d36d-4395-a161-4b9a7c3272f1","system_id":"levelo_inurba_marseille","lat":43.30798,"lon":5.37654,"is_reserved":false,"is_disabled":false,"rental_uris":{"android":"levelo://app?vid=e686e953-d36d-4395-a161-4b9a7c3272f1","ios":"levelo://app?vid=e686e953-d36d-4395-a161-4b9a7c3272f1"},"vehicle_type_id":"4","last_reported":1710713187,"current_range_meters":16000,"station_id":"ce4bgv92rcd13ifvqcq0","pricing_plan_id":"cebpf4jnsgd1na2vs0mg"},{"bike_id":"3bf9c80d-abb9-4484-acd0-1716e1e226e0","system_id":"levelo_inurba_marseille","lat":43.307945,"lon":5.376487,"is_reserved":false,"is_disabled":false,"rental_uris":{"android":"levelo://app?vid=3bf9c80d-abb9-4484-acd0-1716e1e226e0","ios":"levelo://app?vid=3bf9c80d-abb9-4484-acd0-1716e1e226e0"},"vehicle_type_id":"4","last_reported":1710713187,"current_range_meters":11200,"station_id":"ce4bgv92rcd13ifvqcq0","pricing_plan_id":"cebpf4jnsgd1na2vs0mg"},{"bike_id":"d0f5f75d-2c64-4adb-9452-9aa04dc86622","system_id":"levelo_inurba_marseille","lat":43.307906,"lon":5.376496,"is_reserved":false,"is_disabled":false,"rental_uris":{"android":"levelo://app?vid=d0f5f75d-2c64-4adb-9452-9aa04dc86622","ios":"levelo://app?vid=d0f5f75d-2c64-4adb-9452-9aa04dc86622"},"vehicle_type_id":"4","last_reported":1710713187,"current_range_meters":27600,"station_id":"ce4bgv92rcd13ifvqcq0","pricing_plan_id":"cebpf4jnsgd1na2vs0mg"},{"bike_id":"63151f82-8a79-4b13-9a82-e7430d898273","system_id":"levelo_inurba_marseille","lat":43.307854,"lon":5.376463,"is_reserved":false,"is_disabled":false,"rental_uris":{"android":"levelo://app?vid=63151f82-8a79-4b13-9a82-e7430d898273","ios":"levelo://app?vid=63151f82-8a79-4b13-9a82-e7430d898273"},"vehicle_type_id":"4","last_reported":1710713187,"current_range_meters":3200,"station_id":"ce4bgv92rcd13ifvqcq0","pricing_plan_id":"cebpf4jnsgd1na2vs0mg"},{"bike_id":"30240de0-4e79-45a2-a9ae-ae2c14fcff17","system_id":"levelo_inurba_marseille","lat":43.307945,"lon":5.376487,"is_reserved":false,"is_disabled":false,"rental_uris":{"android":"levelo://app?vid=30240de0-4e79-45a2-a9ae-ae2c14fcff17","ios":"levelo://app?vid=30240de0-4e79-45a2-a9ae-ae2c14fcff17"},"vehicle_type_id":"4","last_reported":1710713187,"current_range_meters":18400,"station_id":"ce4bgv92rcd13ifvqcq0","pricing_plan_id":"cebpf4jnsgd1na2vs0mg"},{"bike_id":"1f5908b4-d8b5-462b-b2d5-a02fac9149c6","system_id":"levelo_inurba_marseille","lat":43.307945,"lon":5.376487,"is_reserved":false,"is_disabled":false,"rental_uris":{"android":"levelo://app?vid=1f5908b4-d8b5-462b-b2d5-a02fac9149c6","ios":"levelo://app?vid=1f5908b4-d8b5-462b-b2d5-a02fac9149c6"},"vehicle_type_id":"4","last_reported":1710713187,"current_range_meters":8400,"station_id":"ce4bgv92rcd13ifvqcq0","pricing_plan_id":"cebpf4jnsgd1na2vs0mg"},{"bike_id":"4747aff8-0436-4ad2-9a6c-b5e7548a0a2e","system_id":"levelo_inurba_marseille","lat":43.307945,"lon":5.376487,"is_reserved":false,"is_disabled":false,"rental_uris":{"android":"levelo://app?vid=4747aff8-0436-4ad2-9a6c-b5e7548a0a2e","ios":"levelo://app?vid=4747aff8-0436-4ad2-9a6c-b5e7548a0a2e"},"vehicle_type_id":"4","last_reported":1710713187,"current_range_meters":7600,"station_id":"ce4bgv92rcd13ifvqcq0","pricing_plan_id":"cebpf4jnsgd1na2vs0mg"},{"bike_id":"27bdfc46-6752-410a-987f-eccecbe1f864","system_id":"levelo_inurba_marseille","lat":43.30787,"lon":5.37649,"is_reserved":false,"is_disabled":false,"rental_uris":{"android":"levelo://app?vid=27bdfc46-6752-410a-987f-eccecbe1f864","ios":"levelo://app?vid=27bdfc46-6752-410a-987f-eccecbe1f864"},"vehicle_type_id":"4","last_reported":1710713187,"current_range_meters":22800,"station_id":"ce4bgv92rcd13ifvqcq0","pricing_plan_id":"cebpf4jnsgd1na2vs0mg"},{"bike_id":"0745772a-59d2-4d92-90b0-6b2bc517bc78","system_id":"levelo_inurba_marseille","lat":43.307945,"lon":5.376487,"is_reserved":false,"is_disabled":false,"rental_uris":{"android":"levelo://app?vid=0745772a-59d2-4d92-90b0-6b2bc517bc78","ios":"levelo://app?vid=0745772a-59d2-4d92-90b0-6b2bc517bc78"},"vehicle_type_id":"4","last_reported":1710713187,"current_range_meters":1200,"station_id":"ce4bgv92rcd13ifvqcq0","pricing_plan_id":"cebpf4jnsgd1na2vs0mg"},{"bike_id":"00ca0ce2-8e55-466c-a244-ba6ab095b6c6","system_id":"levelo_inurba_marseille","lat":43.317075,"lon":5.377367,"is_reserved":false,"is_disabled":false,"rental_uris":{"android":"levelo://app?vid=00ca0ce2-8e55-466c-a244-ba6ab095b6c6","ios":"levelo://app?vid=00ca0ce2-8e55-466c-a244-ba6ab095b6c6"},"vehicle_type_id":"4","last_reported":1710713187,"current_range_meters":21200,"station_id":"ce4bgth2rcd13ifvqch0","pricing_plan_id":"cebpf4jnsgd1na2vs0mg"},{"bike_id":"e65c95f7-a013-4145-8ad6-2113b15f2e99","system_id":"levelo_inurba_marseille","lat":43.317075,"lon":5.377367,"is_reserved":false,"is_disabled":false,"rental_uris":{"android":"levelo://app?vid=e65c95f7-a013-4145-8ad6-2113b15f2e99","ios":"levelo://app?vid=e65c95f7-a013-4145-8ad6-2113b15f2e99"},"vehicle_type_id":"4","last_reported":1710713187,"current_range_meters":18000,"station_id":"ce4bgth2rcd13ifvqch0","pricing_plan_id":"cebpf4jnsgd1na2vs0mg"},{"bike_id":"806f6b83-9538-478d-96a3-c44f877516ca","system_id":"levelo_inurba_marseille","lat":43.317075,"lon":5.377367,"is_reserved":false,"is_disabled":false,"rental_uris":{"android":"levelo://app?vid=806f6b83-9538-478d-96a3-c44f877516ca","ios":"levelo://app?vid=806f6b83-9538-478d-96a3-c44f877516ca"},"vehicle_type_id":"4","last_reported":1710713187,"current_range_meters":28800,"station_id":"ce4bgth2rcd13ifvqch0","pricing_plan_id":"cebpf4jnsgd1na2vs0mg"},{"bike_id":"fe2cd759-1b1e-4873-8ae1-d4f3eecd4556","system_id":"levelo_inurba_marseille","lat":43.291994,"lon":5.392907,"is_reserved":false,"is_disabled":false,"rental_uris":{"android":"levelo://app?vid=fe2cd759-1b1e-4873-8ae1-d4f3eecd4556","ios":"levelo://app?vid=fe2cd759-1b1e-4873-8ae1-d4f3eecd4556"},"vehicle_type_id":"4","last_reported":1710713187,"current_range_meters":18800,"station_id":"ce4bh192rcd13ifvqdd0","pricing_plan_id":"cebpf4jnsgd1na2vs0mg"},{"bike_id":"db55f996-62b1-4757-95f8-e545f249334b","system_id":"levelo_inurba_marseille","lat":43.30313,"lon":5.368977,"is_reserved":false,"is_disabled":false,"rental_uris":{"android":"levelo://app?vid=db55f996-62b1-4757-95f8-e545f249334b","ios":"levelo://app?vid=db55f996-62b1-4757-95f8-e545f249334b"},"vehicle_type_id":"4","last_reported":1710713187,"current_range_meters":18000,"station_id":"ce4bgqh2rcd13ifvqc5g","pricing_plan_id":"cebpf4jnsgd1na2vs0mg"},{"bike_id":"10ee882d-f683-41c6-a86d-74cd4e4fdebe","system_id":"levelo_inurba_marseille","lat":43.303127,"lon":5.368967,"is_reserved":false,"is_disabled":false,"rental_uris":{"android":"levelo://app?vid=10ee882d-f683-41c6-a86d-74cd4e4fdebe","ios":"levelo://app?vid=10ee882d-f683-41c6-a86d-74cd4e4fdebe"},"vehicle_type_id":"4","last_reported":1710713187,"current_range_meters":14000,"station_id":"ce4bgqh2rcd13ifvqc5g","pricing_plan_id":"cebpf4jnsgd1na2vs0mg"},{"bike_id":"4bee3496-b3da-4b12-a752-971de0a909fb","system_id":"levelo_inurba_marseille","lat":43.315369,"lon":5.380288,"is_reserved":false,"is_disabled":false,"rental_uris":{"android":"levelo://app?vid=4bee3496-b3da-4b12-a752-971de0a909fb","ios":"levelo://app?vid=4bee3496-b3da-4b12-a752-971de0a909fb"},"vehicle_type_id":"4","last_reported":1710713187,"current_range_meters":7600,"station_id":"ce4bhsp2rcd13ifvqi50","pricing_plan_id":"cebpf4jnsgd1na2vs0mg"},{"bike_id":"91709d5a-f631-487e-a9e0-ac78dd1436e0","system_id":"levelo_inurba_marseille","lat":43.3022,"lon":5.36906,"is_reserved":false,"is_disabled":false,"rental_uris":{"android":"levelo://app?vid=91709d5a-f631-487e-a9e0-ac78dd1436e0","ios":"levelo://app?vid=91709d5a-f631-487e-a9e0-ac78dd1436e0"},"vehicle_type_id":"4","last_reported":1710713187,"current_range_meters":2400,"station_id":"","pricing_plan_id":"cebpf4jnsgd1na2vs0mg"},{"bike_id":"47dd7d57-061c-49b0-a306-cb01bd50080c","system_id":"levelo_inurba_marseille","lat":43.301939,"lon":5.366286,"is_reserved":false,"is_disabled":false,"rental_uris":{"android":"levelo://app?vid=47dd7d57-061c-49b0-a306-cb01bd50080c","ios":"levelo://app?vid=47dd7d57-061c-49b0-a306-cb01bd50080c"},"vehicle_type_id":"4","last_reported":1710713187,"current_range_meters":22000,"station_id":"ce4bgrh2rcd13ifvqc8g","pricing_plan_id":"cebpf4jnsgd1na2vs0mg"},{"bike_id":"d8191dec-c978-400d-9202-9b591d245589","system_id":"levelo_inurba_marseille","lat":43.301939,"lon":5.366286,"is_reserved":false,"is_disabled":false,"rental_uris":{"android":"levelo://app?vid=d8191dec-c978-400d-9202-9b591d245589","ios":"levelo://app?vid=d8191dec-c978-400d-9202-9b591d245589"},"vehicle_type_id":"4","last_reported":1710713187,"current_range_meters":15600,"station_id":"ce4bgrh2rcd13ifvqc8g","pricing_plan_id":"cebpf4jnsgd1na2vs0mg"},{"bike_id":"bd77a7ad-c558-4e3f-b680-7188ccd0e8d9","system_id":"levelo_inurba_marseille","lat":43.301939,"lon":5.366286,"is_reserved":false,"is_disabled":false,"rental_uris":{"android":"levelo://app?vid=bd77a7ad-c558-4e3f-b680-7188ccd0e8d9","ios":"levelo://app?vid=bd77a7ad-c558-4e3f-b680-7188ccd0e8d9"},"vehicle_type_id":"4","last_reported":1710713187,"current_range_meters":28800,"station_id":"ce4bgrh2rcd13ifvqc8g","pricing_plan_id":"cebpf4jnsgd1na2vs0mg"},{"bike_id":"5704009e-000c-485e-8540-8a5fecf58f6c","system_id":"levelo_inurba_marseille","lat":43.301939,"lon":5.366286,"is_reserved":false,"is_disabled":false,"rental_uris":{"android":"levelo://app?vid=5704009e-000c-485e-8540-8a5fecf58f6c","ios":"levelo://app?vid=5704009e-000c-485e-8540-8a5fecf58f6c"},"vehicle_type_id":"4","last_reported":1710713187,"current_range_meters":27200,"station_id":"ce4bgrh2rcd13ifvqc8g","pricing_plan_id":"cebpf4jnsgd1na2vs0mg"},{"bike_id":"119df15b-af5a-4ccd-8a90-48fe766e25ca","system_id":"levelo_inurba_marseille","lat":43.301939,"lon":5.366286,"is_reserved":false,"is_disabled":false,"rental_uris":{"android":"levelo://app?vid=119df15b-af5a-4ccd-8a90-48fe766e25ca","ios":"levelo://app?vid=119df15b-af5a-4ccd-8a90-48fe766e25ca"},"vehicle_type_id":"4","last_reported":1710713187,"current_range_meters":22400,"station_id":"ce4bgrh2rcd13ifvqc8g","pricing_plan_id":"cebpf4jnsgd1na2vs0mg"},{"bike_id":"3956b780-7c13-4f88-82ba-b07264b37029","system_id":"levelo_inurba_marseille","lat":43.30799,"lon":5.38146,"is_reserved":false,"is_disabled":false,"rental_uris":{"android":"levelo://app?vid=3956b780-7c13-4f88-82ba-b07264b37029","ios":"levelo://app?vid=3956b780-7c13-4f88-82ba-b07264b37029"},"vehicle_type_id":"4","last_reported":1710713187,"current_range_meters":27200,"station_id":"ce4bgt12rcd13ifvqce0","pricing_plan_id":"cebpf4jnsgd1na2vs0mg"},{"bike_id":"8c0cc4f8-9ded-4a5c-b07a-89b9db6646e2","system_id":"levelo_inurba_marseille","lat":43.30805,"lon":5.38153,"is_reserved":false,"is_disabled":false,"rental_uris":{"android":"levelo://app?vid=8c0cc4f8-9ded-4a5c-b07a-89b9db6646e2","ios":"levelo://app?vid=8c0cc4f8-9ded-4a5c-b07a-89b9db6646e2"},"vehicle_type_id":"4","last_reported":1710713187,"current_range_meters":8800,"station_id":"ce4bgt12rcd13ifvqce0","pricing_plan_id":"cebpf4jnsgd1na2vs0mg"},{"bike_id":"41d7962e-011f-4ac5-8c35-5ae6bff1942c","system_id":"levelo_inurba_marseille","lat":43.308012,"lon":5.381511,"is_reserved":false,"is_disabled":false,"rental_uris":{"android":"levelo://app?vid=41d7962e-011f-4ac5-8c35-5ae6bff1942c","ios":"levelo://app?vid=41d7962e-011f-4ac5-8c35-5ae6bff1942c"},"vehicle_type_id":"4","last_reported":1710713187,"current_range_meters":16000,"station_id":"ce4bgt12rcd13ifvqce0","pricing_plan_id":"cebpf4jnsgd1na2vs0mg"},{"bike_id":"5e53a388-a1a2-4fd0-bace-f58cace3eec4","system_id":"levelo_inurba_marseille","lat":43.308012,"lon":5.381511,"is_reserved":false,"is_disabled":false,"rental_uris":{"android":"levelo://app?vid=5e53a388-a1a2-4fd0-bace-f58cace3eec4","ios":"levelo://app?vid=5e53a388-a1a2-4fd0-bace-f58cace3eec4"},"vehicle_type_id":"4","last_reported":1710713187,"current_range_meters":14000,"station_id":"ce4bgt12rcd13ifvqce0","pricing_plan_id":"cebpf4jnsgd1na2vs0mg"},{"bike_id":"0f748f7f-d469-4011-8676-ce8583972ef5","system_id":"levelo_inurba_marseille","lat":43.308012,"lon":5.381511,"is_reserved":false,"is_disabled":false,"rental_uris":{"android":"levelo://app?vid=0f748f7f-d469-4011-8676-ce8583972ef5","ios":"levelo://app?vid=0f748f7f-d469-4011-8676-ce8583972ef5"},"vehicle_type_id":"4","last_reported":1710713187,"current_range_meters":4000,"station_id":"ce4bgt12rcd13ifvqce0","pricing_plan_id":"cebpf4jnsgd1na2vs0mg"},{"bike_id":"744643e9-9c56-49bf-add9-f609233b53a2","system_id":"levelo_inurba_marseille","lat":43.308012,"lon":5.381511,"is_reserved":false,"is_disabled":false,"rental_uris":{"android":"levelo://app?vid=744643e9-9c56-49bf-add9-f609233b53a2","ios":"levelo://app?vid=744643e9-9c56-49bf-add9-f609233b53a2"},"vehicle_type_id":"4","last_reported":1710713187,"current_range_meters":10400,"station_id":"ce4bgt12rcd13ifvqce0","pricing_plan_id":"cebpf4jnsgd1na2vs0mg"},{"bike_id":"87431b19-cb55-4fda-a8ad-15dce1c9324e","system_id":"levelo_inurba_marseille","lat":43.308012,"lon":5.381511,"is_reserved":false,"is_disabled":false,"rental_uris":{"android":"levelo://app?vid=87431b19-cb55-4fda-a8ad-15dce1c9324e","ios":"levelo://app?vid=87431b19-cb55-4fda-a8ad-15dce1c9324e"},"vehicle_type_id":"4","last_reported":1710713187,"current_range_meters":13200,"station_id":"ce4bgt12rcd13ifvqce0","pricing_plan_id":"cebpf4jnsgd1na2vs0mg"},{"bike_id":"60aa5b14-14c2-48fb-b50e-2f461c855171","system_id":"levelo_inurba_marseille","lat":43.308012,"lon":5.381511,"is_reserved":false,"is_disabled":false,"rental_uris":{"android":"levelo://app?vid=60aa5b14-14c2-48fb-b50e-2f461c855171","ios":"levelo://app?vid=60aa5b14-14c2-48fb-b50e-2f461c855171"},"vehicle_type_id":"4","last_reported":1710713187,"current_range_meters":18000,"station_id":"ce4bgt12rcd13ifvqce0","pricing_plan_id":"cebpf4jnsgd1na2vs0mg"},{"bike_id":"44b14c54-4cd8-4ff4-bfdc-fa61314eb857","system_id":"levelo_inurba_marseille","lat":43.308012,"lon":5.381511,"is_reserved":false,"is_disabled":false,"rental_uris":{"android":"levelo://app?vid=44b14c54-4cd8-4ff4-bfdc-fa61314eb857","ios":"levelo://app?vid=44b14c54-4cd8-4ff4-bfdc-fa61314eb857"},"vehicle_type_id":"4","last_reported":1710713187,"current_range_meters":31200,"station_id":"ce4bgt12rcd13ifvqce0","pricing_plan_id":"cebpf4jnsgd1na2vs0mg"},{"bike_id":"9d6474d2-d6a5-4a4e-ac62-17f1bbe2ddbc","system_id":"levelo_inurba_marseille","lat":43.308012,"lon":5.381511,"is_reserved":false,"is_disabled":false,"rental_uris":{"android":"levelo://app?vid=9d6474d2-d6a5-4a4e-ac62-17f1bbe2ddbc","ios":"levelo://app?vid=9d6474d2-d6a5-4a4e-ac62-17f1bbe2ddbc"},"vehicle_type_id":"4","last_reported":1710713187,"current_range_meters":18800,"station_id":"ce4bgt12rcd13ifvqce0","pricing_plan_id":"cebpf4jnsgd1na2vs0mg"},{"bike_id":"884becc8-e7cc-4c66-80af-22f4f1815ac9","system_id":"levelo_inurba_marseille","lat":43.308012,"lon":5.381511,"is_reserved":false,"is_disabled":false,"rental_uris":{"android":"levelo://app?vid=884becc8-e7cc-4c66-80af-22f4f1815ac9","ios":"levelo://app?vid=884becc8-e7cc-4c66-80af-22f4f1815ac9"},"vehicle_type_id":"4","last_reported":1710713187,"current_range_meters":4000,"station_id":"ce4bgt12rcd13ifvqce0","pricing_plan_id":"cebpf4jnsgd1na2vs0mg"},{"bike_id":"eefb9e34-6a95-4061-861a-041e6d41536d","system_id":"levelo_inurba_marseille","lat":43.308012,"lon":5.381511,"is_reserved":false,"is_disabled":false,"rental_uris":{"android":"levelo://app?vid=eefb9e34-6a95-4061-861a-041e6d41536d","ios":"levelo://app?vid=eefb9e34-6a95-4061-861a-041e6d41536d"},"vehicle_type_id":"4","last_reported":1710713187,"current_range_meters":2800,"station_id":"ce4bgt12rcd13ifvqce0","pricing_plan_id":"cebpf4jnsgd1na2vs0mg"},{"bike_id":"53c58a90-d62f-489f-a6dd-a6802a0b1301","system_id":"levelo_inurba_marseille","lat":43.308012,"lon":5.381511,"is_reserved":false,"is_disabled":false,"rental_uris":{"android":"levelo://app?vid=53c58a90-d62f-489f-a6dd-a6802a0b1301","ios":"levelo://app?vid=53c58a90-d62f-489f-a6dd-a6802a0b1301"},"vehicle_type_id":"4","last_reported":1710713187,"current_range_meters":18800,"station_id":"ce4bgt12rcd13ifvqce0","pricing_plan_id":"cebpf4jnsgd1na2vs0mg"},{"bike_id":"fbcde3fe-631e-471b-9fda-bb071ba7668a","system_id":"levelo_inurba_marseille","lat":43.308012,"lon":5.381511,"is_reserved":false,"is_disabled":false,"rental_uris":{"android":"levelo://app?vid=fbcde3fe-631e-471b-9fda-bb071ba7668a","ios":"levelo://app?vid=fbcde3fe-631e-471b-9fda-bb071ba7668a"},"vehicle_type_id":"4","last_reported":1710713187,"current_range_meters":10800,"station_id":"ce4bgt12rcd13ifvqce0","pricing_plan_id":"cebpf4jnsgd1na2vs0mg"},{"bike_id":"4bc1ebb2-c5a1-4e3e-98a5-c42de2761a44","system_id":"levelo_inurba_marseille","lat":43.308012,"lon":5.381511,"is_reserved":false,"is_disabled":false,"rental_uris":{"android":"levelo://app?vid=4bc1ebb2-c5a1-4e3e-98a5-c42de2761a44","ios":"levelo://app?vid=4bc1ebb2-c5a1-4e3e-98a5-c42de2761a44"},"vehicle_type_id":"4","last_reported":1710713187,"current_range_meters":16000,"station_id":"ce4bgt12rcd13ifvqce0","pricing_plan_id":"cebpf4jnsgd1na2vs0mg"},{"bike_id":"58812fd3-bf2e-4210-bd3f-5f535fc1a4a3","system_id":"levelo_inurba_marseille","lat":43.324771,"lon":5.36557,"is_reserved":false,"is_disabled":false,"rental_uris":{"android":"levelo://app?vid=58812fd3-bf2e-4210-bd3f-5f535fc1a4a3","ios":"levelo://app?vid=58812fd3-bf2e-4210-bd3f-5f535fc1a4a3"},"vehicle_type_id":"4","last_reported":1710713187,"current_range_meters":0,"station_id":"ce4bhs12rcd13ifvqhvg","pricing_plan_id":"cebpf4jnsgd1na2vs0mg"},{"bike_id":"f34a10b5-3b51-4b98-af60-c0752dacefa7","system_id":"levelo_inurba_marseille","lat":43.32475,"lon":5.36582,"is_reserved":false,"is_disabled":false,"rental_uris":{"android":"levelo://app?vid=f34a10b5-3b51-4b98-af60-c0752dacefa7","ios":"levelo://app?vid=f34a10b5-3b51-4b98-af60-c0752dacefa7"},"vehicle_type_id":"4","last_reported":1710713187,"current_range_meters":5200,"station_id":"ce4bhs12rcd13ifvqhvg","pricing_plan_id":"cebpf4jnsgd1na2vs0mg"},{"bike_id":"f2c3a32a-405e-49cc-b23f-0d21b5be2993","system_id":"levelo_inurba_marseille","lat":43.324771,"lon":5.36557,"is_reserved":false,"is_disabled":false,"rental_uris":{"android":"levelo://app?vid=f2c3a32a-405e-49cc-b23f-0d21b5be2993","ios":"levelo://app?vid=f2c3a32a-405e-49cc-b23f-0d21b5be2993"},"vehicle_type_id":"4","last_reported":1710713187,"current_range_meters":0,"station_id":"ce4bhs12rcd13ifvqhvg","pricing_plan_id":"cebpf4jnsgd1na2vs0mg"},{"bike_id":"56f560ed-af4a-4552-9e6f-336407123cc8","system_id":"levelo_inurba_marseille","lat":43.324771,"lon":5.36557,"is_reserved":false,"is_disabled":false,"rental_uris":{"android":"levelo://app?vid=56f560ed-af4a-4552-9e6f-336407123cc8","ios":"levelo://app?vid=56f560ed-af4a-4552-9e6f-336407123cc8"},"vehicle_type_id":"4","last_reported":1710713187,"current_range_meters":15600,"station_id":"ce4bhs12rcd13ifvqhvg","pricing_plan_id":"cebpf4jnsgd1na2vs0mg"},{"bike_id":"75270c0e-7e7f-4849-8f76-3a582914a326","system_id":"levelo_inurba_marseille","lat":43.324771,"lon":5.36557,"is_reserved":false,"is_disabled":false,"rental_uris":{"android":"levelo://app?vid=75270c0e-7e7f-4849-8f76-3a582914a326","ios":"levelo://app?vid=75270c0e-7e7f-4849-8f76-3a582914a326"},"vehicle_type_id":"4","last_reported":1710713187,"current_range_meters":1200,"station_id":"ce4bhs12rcd13ifvqhvg","pricing_plan_id":"cebpf4jnsgd1na2vs0mg"},{"bike_id":"3323b9c1-97bc-41f9-bb28-76f55faa2493","system_id":"levelo_inurba_marseille","lat":43.324771,"lon":5.36557,"is_reserved":false,"is_disabled":false,"rental_uris":{"android":"levelo://app?vid=3323b9c1-97bc-41f9-bb28-76f55faa2493","ios":"levelo://app?vid=3323b9c1-97bc-41f9-bb28-76f55faa2493"},"vehicle_type_id":"4","last_reported":1710713187,"current_range_meters":23600,"station_id":"ce4bhs12rcd13ifvqhvg","pricing_plan_id":"cebpf4jnsgd1na2vs0mg"},{"bike_id":"b12d38fd-58cd-4c66-b0bb-31700b2cac0b","system_id":"levelo_inurba_marseille","lat":43.324771,"lon":5.36557,"is_reserved":false,"is_disabled":false,"rental_uris":{"android":"levelo://app?vid=b12d38fd-58cd-4c66-b0bb-31700b2cac0b","ios":"levelo://app?vid=b12d38fd-58cd-4c66-b0bb-31700b2cac0b"},"vehicle_type_id":"4","last_reported":1710713187,"current_range_meters":2400,"station_id":"ce4bhs12rcd13ifvqhvg","pricing_plan_id":"cebpf4jnsgd1na2vs0mg"},{"bike_id":"bee3993c-9912-4e92-b200-9b479bcf2a74","system_id":"levelo_inurba_marseille","lat":43.324771,"lon":5.36557,"is_reserved":false,"is_disabled":false,"rental_uris":{"android":"levelo://app?vid=bee3993c-9912-4e92-b200-9b479bcf2a74","ios":"levelo://app?vid=bee3993c-9912-4e92-b200-9b479bcf2a74"},"vehicle_type_id":"4","last_reported":1710713187,"current_range_meters":15200,"station_id":"ce4bhs12rcd13ifvqhvg","pricing_plan_id":"cebpf4jnsgd1na2vs0mg"},{"bike_id":"90d18fcb-1ccc-4801-8851-50ac17aacae2","system_id":"levelo_inurba_marseille","lat":43.324818,"lon":5.365685,"is_reserved":false,"is_disabled":false,"rental_uris":{"android":"levelo://app?vid=90d18fcb-1ccc-4801-8851-50ac17aacae2","ios":"levelo://app?vid=90d18fcb-1ccc-4801-8851-50ac17aacae2"},"vehicle_type_id":"4","last_reported":1710713187,"current_range_meters":4000,"station_id":"ce4bhs12rcd13ifvqhvg","pricing_plan_id":"cebpf4jnsgd1na2vs0mg"},{"bike_id":"f8d9b102-986f-419e-a346-ca5a1c6cfb80","system_id":"levelo_inurba_marseille","lat":43.324771,"lon":5.36557,"is_reserved":false,"is_disabled":false,"rental_uris":{"android":"levelo://app?vid=f8d9b102-986f-419e-a346-ca5a1c6cfb80","ios":"levelo://app?vid=f8d9b102-986f-419e-a346-ca5a1c6cfb80"},"vehicle_type_id":"4","last_reported":1710713187,"current_range_meters":27200,"station_id":"ce4bhs12rcd13ifvqhvg","pricing_plan_id":"cebpf4jnsgd1na2vs0mg"},{"bike_id":"07e70654-04d2-4017-a610-cb2286138e92","system_id":"levelo_inurba_marseille","lat":43.324771,"lon":5.36557,"is_reserved":false,"is_disabled":false,"rental_uris":{"android":"levelo://app?vid=07e70654-04d2-4017-a610-cb2286138e92","ios":"levelo://app?vid=07e70654-04d2-4017-a610-cb2286138e92"},"vehicle_type_id":"4","last_reported":1710713187,"current_range_meters":8400,"station_id":"ce4bhs12rcd13ifvqhvg","pricing_plan_id":"cebpf4jnsgd1na2vs0mg"},{"bike_id":"4bd44391-da5b-495d-adec-ce7c22cd19b7","system_id":"levelo_inurba_marseille","lat":43.324771,"lon":5.36557,"is_reserved":false,"is_disabled":false,"rental_uris":{"android":"levelo://app?vid=4bd44391-da5b-495d-adec-ce7c22cd19b7","ios":"levelo://app?vid=4bd44391-da5b-495d-adec-ce7c22cd19b7"},"vehicle_type_id":"4","last_reported":1710713187,"current_range_meters":800,"station_id":"ce4bhs12rcd13ifvqhvg","pricing_plan_id":"cebpf4jnsgd1na2vs0mg"},{"bike_id":"4e6267ee-9b18-4920-8833-a5fea2d27894","system_id":"levelo_inurba_marseille","lat":43.324771,"lon":5.36557,"is_reserved":false,"is_disabled":false,"rental_uris":{"android":"levelo://app?vid=4e6267ee-9b18-4920-8833-a5fea2d27894","ios":"levelo://app?vid=4e6267ee-9b18-4920-8833-a5fea2d27894"},"vehicle_type_id":"4","last_reported":1710713187,"current_range_meters":17600,"station_id":"ce4bhs12rcd13ifvqhvg","pricing_plan_id":"cebpf4jnsgd1na2vs0mg"},{"bike_id":"36562c59-3bf2-4724-b213-751a719fe26c","system_id":"levelo_inurba_marseille","lat":43.324771,"lon":5.36557,"is_reserved":false,"is_disabled":false,"rental_uris":{"android":"levelo://app?vid=36562c59-3bf2-4724-b213-751a719fe26c","ios":"levelo://app?vid=36562c59-3bf2-4724-b213-751a719fe26c"},"vehicle_type_id":"4","last_reported":1710713187,"current_range_meters":1200,"station_id":"ce4bhs12rcd13ifvqhvg","pricing_plan_id":"cebpf4jnsgd1na2vs0mg"},{"bike_id":"09ccf981-433e-46df-8a07-0a8993c8f676","system_id":"levelo_inurba_marseille","lat":43.324771,"lon":5.36557,"is_reserved":false,"is_disabled":false,"rental_uris":{"android":"levelo://app?vid=09ccf981-433e-46df-8a07-0a8993c8f676","ios":"levelo://app?vid=09ccf981-433e-46df-8a07-0a8993c8f676"},"vehicle_type_id":"4","last_reported":1710713187,"current_range_meters":6800,"station_id":"ce4bhs12rcd13ifvqhvg","pricing_plan_id":"cebpf4jnsgd1na2vs0mg"},{"bike_id":"473e3ffb-2b31-407c-b2a3-a026df93674f","system_id":"levelo_inurba_marseille","lat":43.324771,"lon":5.36557,"is_reserved":false,"is_disabled":false,"rental_uris":{"android":"levelo://app?vid=473e3ffb-2b31-407c-b2a3-a026df93674f","ios":"levelo://app?vid=473e3ffb-2b31-407c-b2a3-a026df93674f"},"vehicle_type_id":"4","last_reported":1710713187,"current_range_meters":26000,"station_id":"ce4bhs12rcd13ifvqhvg","pricing_plan_id":"cebpf4jnsgd1na2vs0mg"},{"bike_id":"73dcde6f-7e2f-4805-8b8f-cf5d47d4ff1d","system_id":"levelo_inurba_marseille","lat":43.324771,"lon":5.36557,"is_reserved":false,"is_disabled":false,"rental_uris":{"android":"levelo://app?vid=73dcde6f-7e2f-4805-8b8f-cf5d47d4ff1d","ios":"levelo://app?vid=73dcde6f-7e2f-4805-8b8f-cf5d47d4ff1d"},"vehicle_type_id":"4","last_reported":1710713187,"current_range_meters":12400,"station_id":"ce4bhs12rcd13ifvqhvg","pricing_plan_id":"cebpf4jnsgd1na2vs0mg"},{"bike_id":"6f2538c0-37d4-4220-a711-e86a47cbc884","system_id":"levelo_inurba_marseille","lat":43.31067,"lon":5.383437,"is_reserved":false,"is_disabled":false,"rental_uris":{"android":"levelo://app?vid=6f2538c0-37d4-4220-a711-e86a47cbc884","ios":"levelo://app?vid=6f2538c0-37d4-4220-a711-e86a47cbc884"},"vehicle_type_id":"4","last_reported":1710713187,"current_range_meters":0,"station_id":"ce4bgv92rcd13ifvqcr0","pricing_plan_id":"cebpf4jnsgd1na2vs0mg"},{"bike_id":"5b67bb82-1b97-4dae-87ec-c571b1d38286","system_id":"levelo_inurba_marseille","lat":43.310804,"lon":5.38359,"is_reserved":false,"is_disabled":false,"rental_uris":{"android":"levelo://app?vid=5b67bb82-1b97-4dae-87ec-c571b1d38286","ios":"levelo://app?vid=5b67bb82-1b97-4dae-87ec-c571b1d38286"},"vehicle_type_id":"4","last_reported":1710713187,"current_range_meters":9200,"station_id":"ce4bgv92rcd13ifvqcr0","pricing_plan_id":"cebpf4jnsgd1na2vs0mg"},{"bike_id":"b82377d3-e120-4dd8-a992-075438703241","system_id":"levelo_inurba_marseille","lat":43.310804,"lon":5.38359,"is_reserved":false,"is_disabled":false,"rental_uris":{"android":"levelo://app?vid=b82377d3-e120-4dd8-a992-075438703241","ios":"levelo://app?vid=b82377d3-e120-4dd8-a992-075438703241"},"vehicle_type_id":"4","last_reported":1710713187,"current_range_meters":6000,"station_id":"ce4bgv92rcd13ifvqcr0","pricing_plan_id":"cebpf4jnsgd1na2vs0mg"},{"bike_id":"9558d35e-eb84-4b71-b9ad-865b8918d751","system_id":"levelo_inurba_marseille","lat":43.310804,"lon":5.38359,"is_reserved":false,"is_disabled":false,"rental_uris":{"android":"levelo://app?vid=9558d35e-eb84-4b71-b9ad-865b8918d751","ios":"levelo://app?vid=9558d35e-eb84-4b71-b9ad-865b8918d751"},"vehicle_type_id":"4","last_reported":1710713187,"current_range_meters":8000,"station_id":"ce4bgv92rcd13ifvqcr0","pricing_plan_id":"cebpf4jnsgd1na2vs0mg"},{"bike_id":"1a365a03-6342-44bf-bd3f-ad201046fe6a","system_id":"levelo_inurba_marseille","lat":43.310804,"lon":5.38359,"is_reserved":false,"is_disabled":false,"rental_uris":{"android":"levelo://app?vid=1a365a03-6342-44bf-bd3f-ad201046fe6a","ios":"levelo://app?vid=1a365a03-6342-44bf-bd3f-ad201046fe6a"},"vehicle_type_id":"4","last_reported":1710713187,"current_range_meters":2800,"station_id":"ce4bgv92rcd13ifvqcr0","pricing_plan_id":"cebpf4jnsgd1na2vs0mg"},{"bike_id":"b78d3962-e6d5-4ca7-9a74-c278181c6de1","system_id":"levelo_inurba_marseille","lat":43.310804,"lon":5.38359,"is_reserved":false,"is_disabled":false,"rental_uris":{"android":"levelo://app?vid=b78d3962-e6d5-4ca7-9a74-c278181c6de1","ios":"levelo://app?vid=b78d3962-e6d5-4ca7-9a74-c278181c6de1"},"vehicle_type_id":"4","last_reported":1710713187,"current_range_meters":0,"station_id":"ce4bgv92rcd13ifvqcr0","pricing_plan_id":"cebpf4jnsgd1na2vs0mg"},{"bike_id":"680dcf1a-5ce6-4695-923f-9322355fa5f2","system_id":"levelo_inurba_marseille","lat":43.302784,"lon":5.377158,"is_reserved":false,"is_disabled":false,"rental_uris":{"android":"levelo://app?vid=680dcf1a-5ce6-4695-923f-9322355fa5f2","ios":"levelo://app?vid=680dcf1a-5ce6-4695-923f-9322355fa5f2"},"vehicle_type_id":"4","last_reported":1710713187,"current_range_meters":26800,"station_id":"ce4bguh2rcd13ifvqcj0","pricing_plan_id":"cebpf4jnsgd1na2vs0mg"},{"bike_id":"8cfcab8a-deae-43a7-a1c4-07ec92834998","system_id":"levelo_inurba_marseille","lat":43.301429,"lon":5.37413,"is_reserved":false,"is_disabled":false,"rental_uris":{"android":"levelo://app?vid=8cfcab8a-deae-43a7-a1c4-07ec92834998","ios":"levelo://app?vid=8cfcab8a-deae-43a7-a1c4-07ec92834998"},"vehicle_type_id":"4","last_reported":1710713187,"current_range_meters":6800,"station_id":"ce4bgs92rcd13ifvqcc0","pricing_plan_id":"cebpf4jnsgd1na2vs0mg"},{"bike_id":"99b6d252-0b8b-4d81-bda6-bfc67dc33b41","system_id":"levelo_inurba_marseille","lat":43.31995,"lon":5.38148,"is_reserved":false,"is_disabled":false,"rental_uris":{"android":"levelo://app?vid=99b6d252-0b8b-4d81-bda6-bfc67dc33b41","ios":"levelo://app?vid=99b6d252-0b8b-4d81-bda6-bfc67dc33b41"},"vehicle_type_id":"4","last_reported":1710713187,"current_range_meters":18400,"station_id":"ce4bhr12rcd13ifvqhpg","pricing_plan_id":"cebpf4jnsgd1na2vs0mg"},{"bike_id":"b3015aab-550e-45d6-9e44-61aef91bf99b","system_id":"levelo_inurba_marseille","lat":43.31994,"lon":5.38152,"is_reserved":false,"is_disabled":false,"rental_uris":{"android":"levelo://app?vid=b3015aab-550e-45d6-9e44-61aef91bf99b","ios":"levelo://app?vid=b3015aab-550e-45d6-9e44-61aef91bf99b"},"vehicle_type_id":"4","last_reported":1710713187,"current_range_meters":20400,"station_id":"ce4bhr12rcd13ifvqhpg","pricing_plan_id":"cebpf4jnsgd1na2vs0mg"},{"bike_id":"be83824f-cd7e-44ed-bda3-89905b40ab1f","system_id":"levelo_inurba_marseille","lat":43.31999,"lon":5.381483,"is_reserved":false,"is_disabled":false,"rental_uris":{"android":"levelo://app?vid=be83824f-cd7e-44ed-bda3-89905b40ab1f","ios":"levelo://app?vid=be83824f-cd7e-44ed-bda3-89905b40ab1f"},"vehicle_type_id":"4","last_reported":1710713187,"current_range_meters":15200,"station_id":"ce4bhr12rcd13ifvqhpg","pricing_plan_id":"cebpf4jnsgd1na2vs0mg"},{"bike_id":"fdcb258b-70ac-447d-b2bc-a3e6ee0bea0d","system_id":"levelo_inurba_marseille","lat":43.319987,"lon":5.381504,"is_reserved":false,"is_disabled":false,"rental_uris":{"android":"levelo://app?vid=fdcb258b-70ac-447d-b2bc-a3e6ee0bea0d","ios":"levelo://app?vid=fdcb258b-70ac-447d-b2bc-a3e6ee0bea0d"},"vehicle_type_id":"4","last_reported":1710713187,"current_range_meters":27200,"station_id":"ce4bhr12rcd13ifvqhpg","pricing_plan_id":"cebpf4jnsgd1na2vs0mg"},{"bike_id":"0c6d9e9b-4ef1-4b7a-9e68-14e0b06c0fa1","system_id":"levelo_inurba_marseille","lat":43.32003,"lon":5.38147,"is_reserved":false,"is_disabled":false,"rental_uris":{"android":"levelo://app?vid=0c6d9e9b-4ef1-4b7a-9e68-14e0b06c0fa1","ios":"levelo://app?vid=0c6d9e9b-4ef1-4b7a-9e68-14e0b06c0fa1"},"vehicle_type_id":"4","last_reported":1710713187,"current_range_meters":10400,"station_id":"ce4bhr12rcd13ifvqhpg","pricing_plan_id":"cebpf4jnsgd1na2vs0mg"},{"bike_id":"fe460372-25fb-4f5d-9698-810196013e8a","system_id":"levelo_inurba_marseille","lat":43.320002,"lon":5.381498,"is_reserved":false,"is_disabled":false,"rental_uris":{"android":"levelo://app?vid=fe460372-25fb-4f5d-9698-810196013e8a","ios":"levelo://app?vid=fe460372-25fb-4f5d-9698-810196013e8a"},"vehicle_type_id":"4","last_reported":1710713187,"current_range_meters":30400,"station_id":"ce4bhr12rcd13ifvqhpg","pricing_plan_id":"cebpf4jnsgd1na2vs0mg"},{"bike_id":"a46f3b86-7dc1-46bc-b469-645f5d47ddad","system_id":"levelo_inurba_marseille","lat":43.31996,"lon":5.38155,"is_reserved":false,"is_disabled":false,"rental_uris":{"android":"levelo://app?vid=a46f3b86-7dc1-46bc-b469-645f5d47ddad","ios":"levelo://app?vid=a46f3b86-7dc1-46bc-b469-645f5d47ddad"},"vehicle_type_id":"4","last_reported":1710713187,"current_range_meters":10400,"station_id":"ce4bhr12rcd13ifvqhpg","pricing_plan_id":"cebpf4jnsgd1na2vs0mg"},{"bike_id":"4bc451a1-3314-4300-994e-f9fd16ea23b7","system_id":"levelo_inurba_marseille","lat":43.319998,"lon":5.381529,"is_reserved":false,"is_disabled":false,"rental_uris":{"android":"levelo://app?vid=4bc451a1-3314-4300-994e-f9fd16ea23b7","ios":"levelo://app?vid=4bc451a1-3314-4300-994e-f9fd16ea23b7"},"vehicle_type_id":"4","last_reported":1710713187,"current_range_meters":19200,"station_id":"ce4bhr12rcd13ifvqhpg","pricing_plan_id":"cebpf4jnsgd1na2vs0mg"},{"bike_id":"2d6f4218-debc-4f1d-af93-1c20119e3aea","system_id":"levelo_inurba_marseille","lat":43.31998,"lon":5.38155,"is_reserved":false,"is_disabled":false,"rental_uris":{"android":"levelo://app?vid=2d6f4218-debc-4f1d-af93-1c20119e3aea","ios":"levelo://app?vid=2d6f4218-debc-4f1d-af93-1c20119e3aea"},"vehicle_type_id":"4","last_reported":1710713187,"current_range_meters":2000,"station_id":"ce4bhr12rcd13ifvqhpg","pricing_plan_id":"cebpf4jnsgd1na2vs0mg"},{"bike_id":"7ac2b187-076e-4d9c-88d6-3ada644a4632","system_id":"levelo_inurba_marseille","lat":43.32004,"lon":5.38151,"is_reserved":false,"is_disabled":false,"rental_uris":{"android":"levelo://app?vid=7ac2b187-076e-4d9c-88d6-3ada644a4632","ios":"levelo://app?vid=7ac2b187-076e-4d9c-88d6-3ada644a4632"},"vehicle_type_id":"4","last_reported":1710713187,"current_range_meters":2400,"station_id":"ce4bhr12rcd13ifvqhpg","pricing_plan_id":"cebpf4jnsgd1na2vs0mg"},{"bike_id":"e73c117d-38e9-4e7d-83eb-b88250e199b0","system_id":"levelo_inurba_marseille","lat":43.32001,"lon":5.38158,"is_reserved":false,"is_disabled":false,"rental_uris":{"android":"levelo://app?vid=e73c117d-38e9-4e7d-83eb-b88250e199b0","ios":"levelo://app?vid=e73c117d-38e9-4e7d-83eb-b88250e199b0"},"vehicle_type_id":"4","last_reported":1710713187,"current_range_meters":16800,"station_id":"ce4bhr12rcd13ifvqhpg","pricing_plan_id":"cebpf4jnsgd1na2vs0mg"},{"bike_id":"641740e1-528f-44c4-955d-5b7ab849c288","system_id":"levelo_inurba_marseille","lat":43.32,"lon":5.38159,"is_reserved":false,"is_disabled":false,"rental_uris":{"android":"levelo://app?vid=641740e1-528f-44c4-955d-5b7ab849c288","ios":"levelo://app?vid=641740e1-528f-44c4-955d-5b7ab849c288"},"vehicle_type_id":"4","last_reported":1710713187,"current_range_meters":18800,"station_id":"ce4bhr12rcd13ifvqhpg","pricing_plan_id":"cebpf4jnsgd1na2vs0mg"},{"bike_id":"0b2f5274-792e-4216-b1a5-276f34f88968","system_id":"levelo_inurba_marseille","lat":43.320028,"lon":5.381683,"is_reserved":false,"is_disabled":false,"rental_uris":{"android":"levelo://app?vid=0b2f5274-792e-4216-b1a5-276f34f88968","ios":"levelo://app?vid=0b2f5274-792e-4216-b1a5-276f34f88968"},"vehicle_type_id":"4","last_reported":1710713187,"current_range_meters":12400,"station_id":"ce4bhr12rcd13ifvqhpg","pricing_plan_id":"cebpf4jnsgd1na2vs0mg"},{"bike_id":"15ab1240-365a-434f-8ceb-e899cef94a22","system_id":"levelo_inurba_marseille","lat":43.313571,"lon":5.384829,"is_reserved":false,"is_disabled":false,"rental_uris":{"android":"levelo://app?vid=15ab1240-365a-434f-8ceb-e899cef94a22","ios":"levelo://app?vid=15ab1240-365a-434f-8ceb-e899cef94a22"},"vehicle_type_id":"4","last_reported":1710713187,"current_range_meters":13200,"station_id":"ce4bgt92rcd13ifvqcf0","pricing_plan_id":"cebpf4jnsgd1na2vs0mg"},{"bike_id":"271d0d63-0e76-4b1a-be9d-348de9533b16","system_id":"levelo_inurba_marseille","lat":43.313571,"lon":5.384829,"is_reserved":false,"is_disabled":false,"rental_uris":{"android":"levelo://app?vid=271d0d63-0e76-4b1a-be9d-348de9533b16","ios":"levelo://app?vid=271d0d63-0e76-4b1a-be9d-348de9533b16"},"vehicle_type_id":"4","last_reported":1710713187,"current_range_meters":20400,"station_id":"ce4bgt92rcd13ifvqcf0","pricing_plan_id":"cebpf4jnsgd1na2vs0mg"},{"bike_id":"302c8843-3a42-4a1c-bb58-e98c87a6fcdf","system_id":"levelo_inurba_marseille","lat":43.313571,"lon":5.384829,"is_reserved":false,"is_disabled":false,"rental_uris":{"android":"levelo://app?vid=302c8843-3a42-4a1c-bb58-e98c87a6fcdf","ios":"levelo://app?vid=302c8843-3a42-4a1c-bb58-e98c87a6fcdf"},"vehicle_type_id":"4","last_reported":1710713187,"current_range_meters":4000,"station_id":"ce4bgt92rcd13ifvqcf0","pricing_plan_id":"cebpf4jnsgd1na2vs0mg"},{"bike_id":"8d0eeee1-3a01-488a-8795-4f8798354ea8","system_id":"levelo_inurba_marseille","lat":43.313571,"lon":5.384829,"is_reserved":false,"is_disabled":false,"rental_uris":{"android":"levelo://app?vid=8d0eeee1-3a01-488a-8795-4f8798354ea8","ios":"levelo://app?vid=8d0eeee1-3a01-488a-8795-4f8798354ea8"},"vehicle_type_id":"4","last_reported":1710713187,"current_range_meters":14000,"station_id":"ce4bgt92rcd13ifvqcf0","pricing_plan_id":"cebpf4jnsgd1na2vs0mg"},{"bike_id":"c26393d1-6db3-4475-89fb-a4b2f6f44c38","system_id":"levelo_inurba_marseille","lat":43.313571,"lon":5.384829,"is_reserved":false,"is_disabled":false,"rental_uris":{"android":"levelo://app?vid=c26393d1-6db3-4475-89fb-a4b2f6f44c38","ios":"levelo://app?vid=c26393d1-6db3-4475-89fb-a4b2f6f44c38"},"vehicle_type_id":"4","last_reported":1710713187,"current_range_meters":16000,"station_id":"ce4bgt92rcd13ifvqcf0","pricing_plan_id":"cebpf4jnsgd1na2vs0mg"},{"bike_id":"a9a7c602-8426-45f1-afe0-a7e04c775814","system_id":"levelo_inurba_marseille","lat":43.313571,"lon":5.384829,"is_reserved":false,"is_disabled":false,"rental_uris":{"android":"levelo://app?vid=a9a7c602-8426-45f1-afe0-a7e04c775814","ios":"levelo://app?vid=a9a7c602-8426-45f1-afe0-a7e04c775814"},"vehicle_type_id":"4","last_reported":1710713187,"current_range_meters":8400,"station_id":"ce4bgt92rcd13ifvqcf0","pricing_plan_id":"cebpf4jnsgd1na2vs0mg"},{"bike_id":"583cbe72-9806-4b01-b58a-afdaf124a54d","system_id":"levelo_inurba_marseille","lat":43.313571,"lon":5.384829,"is_reserved":false,"is_disabled":false,"rental_uris":{"android":"levelo://app?vid=583cbe72-9806-4b01-b58a-afdaf124a54d","ios":"levelo://app?vid=583cbe72-9806-4b01-b58a-afdaf124a54d"},"vehicle_type_id":"4","last_reported":1710713187,"current_range_meters":26800,"station_id":"ce4bgt92rcd13ifvqcf0","pricing_plan_id":"cebpf4jnsgd1na2vs0mg"},{"bike_id":"ff95cd4f-375b-404b-8267-a517d3fd7f72","system_id":"levelo_inurba_marseille","lat":43.299222,"lon":5.365554,"is_reserved":false,"is_disabled":false,"rental_uris":{"android":"levelo://app?vid=ff95cd4f-375b-404b-8267-a517d3fd7f72","ios":"levelo://app?vid=ff95cd4f-375b-404b-8267-a517d3fd7f72"},"vehicle_type_id":"4","last_reported":1710713187,"current_range_meters":6800,"station_id":"ce4bgm92rcd13ifvqbr0","pricing_plan_id":"cebpf4jnsgd1na2vs0mg"},{"bike_id":"e1e5f574-7807-4d8e-ad5e-91772bd59290","system_id":"levelo_inurba_marseille","lat":43.315821,"lon":5.384841,"is_reserved":false,"is_disabled":false,"rental_uris":{"android":"levelo://app?vid=e1e5f574-7807-4d8e-ad5e-91772bd59290","ios":"levelo://app?vid=e1e5f574-7807-4d8e-ad5e-91772bd59290"},"vehicle_type_id":"4","last_reported":1710713187,"current_range_meters":15600,"station_id":"","pricing_plan_id":"cebpf4jnsgd1na2vs0mg"},{"bike_id":"dde19696-913e-475e-889b-92ddd8037f0b","system_id":"levelo_inurba_marseille","lat":43.299724,"lon":5.371829,"is_reserved":false,"is_disabled":false,"rental_uris":{"android":"levelo://app?vid=dde19696-913e-475e-889b-92ddd8037f0b","ios":"levelo://app?vid=dde19696-913e-475e-889b-92ddd8037f0b"},"vehicle_type_id":"4","last_reported":1710713187,"current_range_meters":24000,"station_id":"ce4bgr92rcd13ifvqc7g","pricing_plan_id":"cebpf4jnsgd1na2vs0mg"},{"bike_id":"28a2b523-3ef1-4c8c-914f-bc70b39fbbd1","system_id":"levelo_inurba_marseille","lat":43.299724,"lon":5.371829,"is_reserved":false,"is_disabled":false,"rental_uris":{"android":"levelo://app?vid=28a2b523-3ef1-4c8c-914f-bc70b39fbbd1","ios":"levelo://app?vid=28a2b523-3ef1-4c8c-914f-bc70b39fbbd1"},"vehicle_type_id":"4","last_reported":1710713187,"current_range_meters":7200,"station_id":"ce4bgr92rcd13ifvqc7g","pricing_plan_id":"cebpf4jnsgd1na2vs0mg"},{"bike_id":"f1e76166-ce20-4381-b7b5-e09c8b52ed08","system_id":"levelo_inurba_marseille","lat":43.302708,"lon":5.379536,"is_reserved":false,"is_disabled":false,"rental_uris":{"android":"levelo://app?vid=f1e76166-ce20-4381-b7b5-e09c8b52ed08","ios":"levelo://app?vid=f1e76166-ce20-4381-b7b5-e09c8b52ed08"},"vehicle_type_id":"4","last_reported":1710713187,"current_range_meters":4400,"station_id":"","pricing_plan_id":"cebpf4jnsgd1na2vs0mg"},{"bike_id":"cded3ba0-e90e-4391-bc36-afead07dcb18","system_id":"levelo_inurba_marseille","lat":43.298433,"lon":5.362774,"is_reserved":false,"is_disabled":false,"rental_uris":{"android":"levelo://app?vid=cded3ba0-e90e-4391-bc36-afead07dcb18","ios":"levelo://app?vid=cded3ba0-e90e-4391-bc36-afead07dcb18"},"vehicle_type_id":"4","last_reported":1710713187,"current_range_meters":22800,"station_id":"ce4bgpp2rcd13ifvqc3g","pricing_plan_id":"cebpf4jnsgd1na2vs0mg"},{"bike_id":"5e842f29-175b-48c9-8fb3-84a1b2bb47ca","system_id":"levelo_inurba_marseille","lat":43.29847,"lon":5.36286,"is_reserved":false,"is_disabled":false,"rental_uris":{"android":"levelo://app?vid=5e842f29-175b-48c9-8fb3-84a1b2bb47ca","ios":"levelo://app?vid=5e842f29-175b-48c9-8fb3-84a1b2bb47ca"},"vehicle_type_id":"4","last_reported":1710713187,"current_range_meters":19600,"station_id":"ce4bgpp2rcd13ifvqc3g","pricing_plan_id":"cebpf4jnsgd1na2vs0mg"},{"bike_id":"6004eadb-ffb7-4752-9b2c-8c8f4181cdb2","system_id":"levelo_inurba_marseille","lat":43.298433,"lon":5.362774,"is_reserved":false,"is_disabled":false,"rental_uris":{"android":"levelo://app?vid=6004eadb-ffb7-4752-9b2c-8c8f4181cdb2","ios":"levelo://app?vid=6004eadb-ffb7-4752-9b2c-8c8f4181cdb2"},"vehicle_type_id":"4","last_reported":1710713187,"current_range_meters":28000,"station_id":"ce4bgpp2rcd13ifvqc3g","pricing_plan_id":"cebpf4jnsgd1na2vs0mg"},{"bike_id":"734281d9-764a-4cb7-a7b8-b94c122a0e79","system_id":"levelo_inurba_marseille","lat":43.299243,"lon":5.374807,"is_reserved":false,"is_disabled":false,"rental_uris":{"android":"levelo://app?vid=734281d9-764a-4cb7-a7b8-b94c122a0e79","ios":"levelo://app?vid=734281d9-764a-4cb7-a7b8-b94c122a0e79"},"vehicle_type_id":"4","last_reported":1710713187,"current_range_meters":20400,"station_id":"ce4bgjh2rcd13ifvqbg0","pricing_plan_id":"cebpf4jnsgd1na2vs0mg"},{"bike_id":"424f86d6-d088-46d0-ae5d-f1f931e34a46","system_id":"levelo_inurba_marseille","lat":43.31183,"lon":5.38704,"is_reserved":false,"is_disabled":false,"rental_uris":{"android":"levelo://app?vid=424f86d6-d088-46d0-ae5d-f1f931e34a46","ios":"levelo://app?vid=424f86d6-d088-46d0-ae5d-f1f931e34a46"},"vehicle_type_id":"4","last_reported":1710713187,"current_range_meters":9600,"station_id":"ce4bgv12rcd13ifvqcp0","pricing_plan_id":"cebpf4jnsgd1na2vs0mg"},{"bike_id":"4a2cafce-119a-4c2a-99ee-358ef362c6e1","system_id":"levelo_inurba_marseille","lat":43.311722,"lon":5.387247,"is_reserved":false,"is_disabled":false,"rental_uris":{"android":"levelo://app?vid=4a2cafce-119a-4c2a-99ee-358ef362c6e1","ios":"levelo://app?vid=4a2cafce-119a-4c2a-99ee-358ef362c6e1"},"vehicle_type_id":"4","last_reported":1710713187,"current_range_meters":28800,"station_id":"ce4bgv12rcd13ifvqcp0","pricing_plan_id":"cebpf4jnsgd1na2vs0mg"},{"bike_id":"1280695b-3478-43e4-b993-d129ad11a0ef","system_id":"levelo_inurba_marseille","lat":43.299151,"lon":5.374709,"is_reserved":false,"is_disabled":false,"rental_uris":{"android":"levelo://app?vid=1280695b-3478-43e4-b993-d129ad11a0ef","ios":"levelo://app?vid=1280695b-3478-43e4-b993-d129ad11a0ef"},"vehicle_type_id":"4","last_reported":1710713187,"current_range_meters":20400,"station_id":"","pricing_plan_id":"cebpf4jnsgd1na2vs0mg"},{"bike_id":"4da67fff-b1ca-4bd8-bdd2-18812ca04ca5","system_id":"levelo_inurba_marseille","lat":43.311722,"lon":5.387247,"is_reserved":false,"is_disabled":false,"rental_uris":{"android":"levelo://app?vid=4da67fff-b1ca-4bd8-bdd2-18812ca04ca5","ios":"levelo://app?vid=4da67fff-b1ca-4bd8-bdd2-18812ca04ca5"},"vehicle_type_id":"4","last_reported":1710713187,"current_range_meters":16800,"station_id":"ce4bgv12rcd13ifvqcp0","pricing_plan_id":"cebpf4jnsgd1na2vs0mg"},{"bike_id":"69ffa23c-b088-4443-ac3f-a28211b3ce3d","system_id":"levelo_inurba_marseille","lat":43.31175,"lon":5.38717,"is_reserved":false,"is_disabled":false,"rental_uris":{"android":"levelo://app?vid=69ffa23c-b088-4443-ac3f-a28211b3ce3d","ios":"levelo://app?vid=69ffa23c-b088-4443-ac3f-a28211b3ce3d"},"vehicle_type_id":"4","last_reported":1710713187,"current_range_meters":16800,"station_id":"ce4bgv12rcd13ifvqcp0","pricing_plan_id":"cebpf4jnsgd1na2vs0mg"},{"bike_id":"50f226c5-93b8-4b5a-9d72-329171bd309b","system_id":"levelo_inurba_marseille","lat":43.311722,"lon":5.387247,"is_reserved":false,"is_disabled":false,"rental_uris":{"android":"levelo://app?vid=50f226c5-93b8-4b5a-9d72-329171bd309b","ios":"levelo://app?vid=50f226c5-93b8-4b5a-9d72-329171bd309b"},"vehicle_type_id":"4","last_reported":1710713187,"current_range_meters":31600,"station_id":"ce4bgv12rcd13ifvqcp0","pricing_plan_id":"cebpf4jnsgd1na2vs0mg"},{"bike_id":"e7aa74fe-3956-493b-b45e-e7220ca01c58","system_id":"levelo_inurba_marseille","lat":43.311722,"lon":5.387247,"is_reserved":false,"is_disabled":false,"rental_uris":{"android":"levelo://app?vid=e7aa74fe-3956-493b-b45e-e7220ca01c58","ios":"levelo://app?vid=e7aa74fe-3956-493b-b45e-e7220ca01c58"},"vehicle_type_id":"4","last_reported":1710713187,"current_range_meters":7600,"station_id":"ce4bgv12rcd13ifvqcp0","pricing_plan_id":"cebpf4jnsgd1na2vs0mg"},{"bike_id":"45821149-22da-4679-adbd-64e3b008e2c6","system_id":"levelo_inurba_marseille","lat":43.31171,"lon":5.38721,"is_reserved":false,"is_disabled":false,"rental_uris":{"android":"levelo://app?vid=45821149-22da-4679-adbd-64e3b008e2c6","ios":"levelo://app?vid=45821149-22da-4679-adbd-64e3b008e2c6"},"vehicle_type_id":"4","last_reported":1710713187,"current_range_meters":20800,"station_id":"ce4bgv12rcd13ifvqcp0","pricing_plan_id":"cebpf4jnsgd1na2vs0mg"},{"bike_id":"dfe8c111-6c46-4fad-9265-71badfecdef6","system_id":"levelo_inurba_marseille","lat":43.311722,"lon":5.387247,"is_reserved":false,"is_disabled":false,"rental_uris":{"android":"levelo://app?vid=dfe8c111-6c46-4fad-9265-71badfecdef6","ios":"levelo://app?vid=dfe8c111-6c46-4fad-9265-71badfecdef6"},"vehicle_type_id":"4","last_reported":1710713187,"current_range_meters":12800,"station_id":"ce4bgv12rcd13ifvqcp0","pricing_plan_id":"cebpf4jnsgd1na2vs0mg"},{"bike_id":"938af8af-5a88-4944-b512-e0d5a638b963","system_id":"levelo_inurba_marseille","lat":43.311722,"lon":5.387247,"is_reserved":false,"is_disabled":false,"rental_uris":{"android":"levelo://app?vid=938af8af-5a88-4944-b512-e0d5a638b963","ios":"levelo://app?vid=938af8af-5a88-4944-b512-e0d5a638b963"},"vehicle_type_id":"4","last_reported":1710713187,"current_range_meters":23200,"station_id":"ce4bgv12rcd13ifvqcp0","pricing_plan_id":"cebpf4jnsgd1na2vs0mg"},{"bike_id":"bbaa44f1-e76b-48bc-a428-cf353df54683","system_id":"levelo_inurba_marseille","lat":43.322872,"lon":5.382756,"is_reserved":false,"is_disabled":false,"rental_uris":{"android":"levelo://app?vid=bbaa44f1-e76b-48bc-a428-cf353df54683","ios":"levelo://app?vid=bbaa44f1-e76b-48bc-a428-cf353df54683"},"vehicle_type_id":"4","last_reported":1710713187,"current_range_meters":2000,"station_id":"ce4bhr12rcd13ifvqhqg","pricing_plan_id":"cebpf4jnsgd1na2vs0mg"},{"bike_id":"5f8b4803-e4ba-4452-a9f1-55c7a87b5d2b","system_id":"levelo_inurba_marseille","lat":43.322872,"lon":5.382756,"is_reserved":false,"is_disabled":false,"rental_uris":{"android":"levelo://app?vid=5f8b4803-e4ba-4452-a9f1-55c7a87b5d2b","ios":"levelo://app?vid=5f8b4803-e4ba-4452-a9f1-55c7a87b5d2b"},"vehicle_type_id":"4","last_reported":1710713187,"current_range_meters":24800,"station_id":"ce4bhr12rcd13ifvqhqg","pricing_plan_id":"cebpf4jnsgd1na2vs0mg"},{"bike_id":"bd6b6545-b45a-4dc0-b743-d330ab6c2563","system_id":"levelo_inurba_marseille","lat":43.322872,"lon":5.382756,"is_reserved":false,"is_disabled":false,"rental_uris":{"android":"levelo://app?vid=bd6b6545-b45a-4dc0-b743-d330ab6c2563","ios":"levelo://app?vid=bd6b6545-b45a-4dc0-b743-d330ab6c2563"},"vehicle_type_id":"4","last_reported":1710713187,"current_range_meters":31200,"station_id":"ce4bhr12rcd13ifvqhqg","pricing_plan_id":"cebpf4jnsgd1na2vs0mg"},{"bike_id":"accb2f69-ca20-4b2f-9b54-89cf5f810bdd","system_id":"levelo_inurba_marseille","lat":43.322872,"lon":5.382756,"is_reserved":false,"is_disabled":false,"rental_uris":{"android":"levelo://app?vid=accb2f69-ca20-4b2f-9b54-89cf5f810bdd","ios":"levelo://app?vid=accb2f69-ca20-4b2f-9b54-89cf5f810bdd"},"vehicle_type_id":"4","last_reported":1710713187,"current_range_meters":19600,"station_id":"ce4bhr12rcd13ifvqhqg","pricing_plan_id":"cebpf4jnsgd1na2vs0mg"},{"bike_id":"16e739f2-de48-4af5-bd96-fcc98e61db39","system_id":"levelo_inurba_marseille","lat":43.322872,"lon":5.382756,"is_reserved":false,"is_disabled":false,"rental_uris":{"android":"levelo://app?vid=16e739f2-de48-4af5-bd96-fcc98e61db39","ios":"levelo://app?vid=16e739f2-de48-4af5-bd96-fcc98e61db39"},"vehicle_type_id":"4","last_reported":1710713187,"current_range_meters":30800,"station_id":"ce4bhr12rcd13ifvqhqg","pricing_plan_id":"cebpf4jnsgd1na2vs0mg"},{"bike_id":"16decc57-ed9a-40d4-8633-e2f1ee463781","system_id":"levelo_inurba_marseille","lat":43.322872,"lon":5.382756,"is_reserved":false,"is_disabled":false,"rental_uris":{"android":"levelo://app?vid=16decc57-ed9a-40d4-8633-e2f1ee463781","ios":"levelo://app?vid=16decc57-ed9a-40d4-8633-e2f1ee463781"},"vehicle_type_id":"4","last_reported":1710713187,"current_range_meters":30400,"station_id":"ce4bhr12rcd13ifvqhqg","pricing_plan_id":"cebpf4jnsgd1na2vs0mg"},{"bike_id":"3ff125a5-dff1-4591-b6cc-449dc2424878","system_id":"levelo_inurba_marseille","lat":43.322872,"lon":5.382756,"is_reserved":false,"is_disabled":false,"rental_uris":{"android":"levelo://app?vid=3ff125a5-dff1-4591-b6cc-449dc2424878","ios":"levelo://app?vid=3ff125a5-dff1-4591-b6cc-449dc2424878"},"vehicle_type_id":"4","last_reported":1710713187,"current_range_meters":22400,"station_id":"ce4bhr12rcd13ifvqhqg","pricing_plan_id":"cebpf4jnsgd1na2vs0mg"},{"bike_id":"4f4a75fa-11e1-4b9c-9fc5-7e2938322638","system_id":"levelo_inurba_marseille","lat":43.322872,"lon":5.382756,"is_reserved":false,"is_disabled":false,"rental_uris":{"android":"levelo://app?vid=4f4a75fa-11e1-4b9c-9fc5-7e2938322638","ios":"levelo://app?vid=4f4a75fa-11e1-4b9c-9fc5-7e2938322638"},"vehicle_type_id":"4","last_reported":1710713187,"current_range_meters":31600,"station_id":"ce4bhr12rcd13ifvqhqg","pricing_plan_id":"cebpf4jnsgd1na2vs0mg"},{"bike_id":"36727d06-0af4-4c64-88de-4193d3d2494b","system_id":"levelo_inurba_marseille","lat":43.322872,"lon":5.382756,"is_reserved":false,"is_disabled":false,"rental_uris":{"android":"levelo://app?vid=36727d06-0af4-4c64-88de-4193d3d2494b","ios":"levelo://app?vid=36727d06-0af4-4c64-88de-4193d3d2494b"},"vehicle_type_id":"4","last_reported":1710713187,"current_range_meters":21200,"station_id":"ce4bhr12rcd13ifvqhqg","pricing_plan_id":"cebpf4jnsgd1na2vs0mg"},{"bike_id":"6c9a6cc3-43ef-4195-8fc6-ae267ed9b3d4","system_id":"levelo_inurba_marseille","lat":43.32289,"lon":5.38273,"is_reserved":false,"is_disabled":false,"rental_uris":{"android":"levelo://app?vid=6c9a6cc3-43ef-4195-8fc6-ae267ed9b3d4","ios":"levelo://app?vid=6c9a6cc3-43ef-4195-8fc6-ae267ed9b3d4"},"vehicle_type_id":"4","last_reported":1710713187,"current_range_meters":22400,"station_id":"ce4bhr12rcd13ifvqhqg","pricing_plan_id":"cebpf4jnsgd1na2vs0mg"},{"bike_id":"eddeac31-d118-4f00-9fae-66dd1f398919","system_id":"levelo_inurba_marseille","lat":43.322872,"lon":5.382756,"is_reserved":false,"is_disabled":false,"rental_uris":{"android":"levelo://app?vid=eddeac31-d118-4f00-9fae-66dd1f398919","ios":"levelo://app?vid=eddeac31-d118-4f00-9fae-66dd1f398919"},"vehicle_type_id":"4","last_reported":1710713187,"current_range_meters":14000,"station_id":"ce4bhr12rcd13ifvqhqg","pricing_plan_id":"cebpf4jnsgd1na2vs0mg"},{"bike_id":"944e024b-f191-4329-964c-9a510e7978eb","system_id":"levelo_inurba_marseille","lat":43.322885,"lon":5.3828,"is_reserved":false,"is_disabled":false,"rental_uris":{"android":"levelo://app?vid=944e024b-f191-4329-964c-9a510e7978eb","ios":"levelo://app?vid=944e024b-f191-4329-964c-9a510e7978eb"},"vehicle_type_id":"4","last_reported":1710713187,"current_range_meters":7600,"station_id":"ce4bhr12rcd13ifvqhqg","pricing_plan_id":"cebpf4jnsgd1na2vs0mg"},{"bike_id":"67630bca-062b-439b-a3c6-0d70b3a4129d","system_id":"levelo_inurba_marseille","lat":43.32291,"lon":5.38284,"is_reserved":false,"is_disabled":false,"rental_uris":{"android":"levelo://app?vid=67630bca-062b-439b-a3c6-0d70b3a4129d","ios":"levelo://app?vid=67630bca-062b-439b-a3c6-0d70b3a4129d"},"vehicle_type_id":"4","last_reported":1710713187,"current_range_meters":27200,"station_id":"ce4bhr12rcd13ifvqhqg","pricing_plan_id":"cebpf4jnsgd1na2vs0mg"},{"bike_id":"960037d9-cd41-48f1-968e-be9175e7b5b6","system_id":"levelo_inurba_marseille","lat":43.297163,"lon":5.365866,"is_reserved":false,"is_disabled":false,"rental_uris":{"android":"levelo://app?vid=960037d9-cd41-48f1-968e-be9175e7b5b6","ios":"levelo://app?vid=960037d9-cd41-48f1-968e-be9175e7b5b6"},"vehicle_type_id":"4","last_reported":1710713187,"current_range_meters":22000,"station_id":"ce4bgn12rcd13ifvqbt0","pricing_plan_id":"cebpf4jnsgd1na2vs0mg"},{"bike_id":"10f44d9c-7a2c-4a34-aad6-497215218a3a","system_id":"levelo_inurba_marseille","lat":43.297163,"lon":5.365866,"is_reserved":false,"is_disabled":false,"rental_uris":{"android":"levelo://app?vid=10f44d9c-7a2c-4a34-aad6-497215218a3a","ios":"levelo://app?vid=10f44d9c-7a2c-4a34-aad6-497215218a3a"},"vehicle_type_id":"4","last_reported":1710713187,"current_range_meters":21600,"station_id":"ce4bgn12rcd13ifvqbt0","pricing_plan_id":"cebpf4jnsgd1na2vs0mg"},{"bike_id":"a5c59ff9-ca7f-458a-8ae0-0fea0a55af22","system_id":"levelo_inurba_marseille","lat":43.297163,"lon":5.365866,"is_reserved":false,"is_disabled":false,"rental_uris":{"android":"levelo://app?vid=a5c59ff9-ca7f-458a-8ae0-0fea0a55af22","ios":"levelo://app?vid=a5c59ff9-ca7f-458a-8ae0-0fea0a55af22"},"vehicle_type_id":"4","last_reported":1710713187,"current_range_meters":24400,"station_id":"ce4bgn12rcd13ifvqbt0","pricing_plan_id":"cebpf4jnsgd1na2vs0mg"},{"bike_id":"c4e92d71-2158-4a21-9812-bdd789784e30","system_id":"levelo_inurba_marseille","lat":43.297163,"lon":5.365866,"is_reserved":false,"is_disabled":false,"rental_uris":{"android":"levelo://app?vid=c4e92d71-2158-4a21-9812-bdd789784e30","ios":"levelo://app?vid=c4e92d71-2158-4a21-9812-bdd789784e30"},"vehicle_type_id":"4","last_reported":1710713187,"current_range_meters":14800,"station_id":"ce4bgn12rcd13ifvqbt0","pricing_plan_id":"cebpf4jnsgd1na2vs0mg"},{"bike_id":"0a219c2d-db42-476e-9baf-1866719313f7","system_id":"levelo_inurba_marseille","lat":43.297163,"lon":5.365866,"is_reserved":false,"is_disabled":false,"rental_uris":{"android":"levelo://app?vid=0a219c2d-db42-476e-9baf-1866719313f7","ios":"levelo://app?vid=0a219c2d-db42-476e-9baf-1866719313f7"},"vehicle_type_id":"4","last_reported":1710713187,"current_range_meters":25600,"station_id":"ce4bgn12rcd13ifvqbt0","pricing_plan_id":"cebpf4jnsgd1na2vs0mg"},{"bike_id":"1f697e18-bb12-4e29-a7be-3ccedacbe2da","system_id":"levelo_inurba_marseille","lat":43.297163,"lon":5.365866,"is_reserved":false,"is_disabled":false,"rental_uris":{"android":"levelo://app?vid=1f697e18-bb12-4e29-a7be-3ccedacbe2da","ios":"levelo://app?vid=1f697e18-bb12-4e29-a7be-3ccedacbe2da"},"vehicle_type_id":"4","last_reported":1710713187,"current_range_meters":15600,"station_id":"ce4bgn12rcd13ifvqbt0","pricing_plan_id":"cebpf4jnsgd1na2vs0mg"},{"bike_id":"06ed3e3b-5835-458f-b7a9-7a461b38fcf3","system_id":"levelo_inurba_marseille","lat":43.297163,"lon":5.365866,"is_reserved":false,"is_disabled":false,"rental_uris":{"android":"levelo://app?vid=06ed3e3b-5835-458f-b7a9-7a461b38fcf3","ios":"levelo://app?vid=06ed3e3b-5835-458f-b7a9-7a461b38fcf3"},"vehicle_type_id":"4","last_reported":1710713187,"current_range_meters":12400,"station_id":"ce4bgn12rcd13ifvqbt0","pricing_plan_id":"cebpf4jnsgd1na2vs0mg"},{"bike_id":"43b742aa-8e2c-41f1-bf17-166a7690d823","system_id":"levelo_inurba_marseille","lat":43.2968,"lon":5.37291,"is_reserved":false,"is_disabled":false,"rental_uris":{"android":"levelo://app?vid=43b742aa-8e2c-41f1-bf17-166a7690d823","ios":"levelo://app?vid=43b742aa-8e2c-41f1-bf17-166a7690d823"},"vehicle_type_id":"4","last_reported":1710713187,"current_range_meters":27600,"station_id":"ce4bgk12rcd13ifvqbj0","pricing_plan_id":"cebpf4jnsgd1na2vs0mg"},{"bike_id":"656f5751-1967-407f-b27d-9dfde40b21ce","system_id":"levelo_inurba_marseille","lat":43.29602,"lon":5.36792,"is_reserved":false,"is_disabled":false,"rental_uris":{"android":"levelo://app?vid=656f5751-1967-407f-b27d-9dfde40b21ce","ios":"levelo://app?vid=656f5751-1967-407f-b27d-9dfde40b21ce"},"vehicle_type_id":"4","last_reported":1710713187,"current_range_meters":400,"station_id":"","pricing_plan_id":"cebpf4jnsgd1na2vs0mg"},{"bike_id":"bae2a962-f8a1-4787-96d4-639c742d0845","system_id":"levelo_inurba_marseille","lat":43.29573,"lon":5.367355,"is_reserved":false,"is_disabled":false,"rental_uris":{"android":"levelo://app?vid=bae2a962-f8a1-4787-96d4-639c742d0845","ios":"levelo://app?vid=bae2a962-f8a1-4787-96d4-639c742d0845"},"vehicle_type_id":"4","last_reported":1710713187,"current_range_meters":26400,"station_id":"ce4bgph2rcd13ifvqc2g","pricing_plan_id":"cebpf4jnsgd1na2vs0mg"},{"bike_id":"da4293bf-c192-4760-9bcf-9678740e86e3","system_id":"levelo_inurba_marseille","lat":43.296131,"lon":5.370791,"is_reserved":false,"is_disabled":false,"rental_uris":{"android":"levelo://app?vid=da4293bf-c192-4760-9bcf-9678740e86e3","ios":"levelo://app?vid=da4293bf-c192-4760-9bcf-9678740e86e3"},"vehicle_type_id":"4","last_reported":1710713187,"current_range_meters":18000,"station_id":"ce4bgnh2rcd13ifvqc0g","pricing_plan_id":"cebpf4jnsgd1na2vs0mg"},{"bike_id":"09b3675f-2e26-4fca-a65f-ec6e7098c211","system_id":"levelo_inurba_marseille","lat":43.29573,"lon":5.367355,"is_reserved":false,"is_disabled":false,"rental_uris":{"android":"levelo://app?vid=09b3675f-2e26-4fca-a65f-ec6e7098c211","ios":"levelo://app?vid=09b3675f-2e26-4fca-a65f-ec6e7098c211"},"vehicle_type_id":"4","last_reported":1710713187,"current_range_meters":24800,"station_id":"ce4bgph2rcd13ifvqc2g","pricing_plan_id":"cebpf4jnsgd1na2vs0mg"},{"bike_id":"96e56579-4de5-450a-b8aa-30f9c4c63b98","system_id":"levelo_inurba_marseille","lat":43.296129,"lon":5.370777,"is_reserved":false,"is_disabled":false,"rental_uris":{"android":"levelo://app?vid=96e56579-4de5-450a-b8aa-30f9c4c63b98","ios":"levelo://app?vid=96e56579-4de5-450a-b8aa-30f9c4c63b98"},"vehicle_type_id":"4","last_reported":1710713187,"current_range_meters":10000,"station_id":"ce4bgnh2rcd13ifvqc0g","pricing_plan_id":"cebpf4jnsgd1na2vs0mg"},{"bike_id":"c6ef1296-5751-4a74-a38a-e7e12a74606e","system_id":"levelo_inurba_marseille","lat":43.29573,"lon":5.367355,"is_reserved":false,"is_disabled":false,"rental_uris":{"android":"levelo://app?vid=c6ef1296-5751-4a74-a38a-e7e12a74606e","ios":"levelo://app?vid=c6ef1296-5751-4a74-a38a-e7e12a74606e"},"vehicle_type_id":"4","last_reported":1710713187,"current_range_meters":10400,"station_id":"ce4bgph2rcd13ifvqc2g","pricing_plan_id":"cebpf4jnsgd1na2vs0mg"},{"bike_id":"7daf7eda-61e1-4239-91d9-7c40d535c00b","system_id":"levelo_inurba_marseille","lat":43.29724,"lon":5.37705,"is_reserved":false,"is_disabled":false,"rental_uris":{"android":"levelo://app?vid=7daf7eda-61e1-4239-91d9-7c40d535c00b","ios":"levelo://app?vid=7daf7eda-61e1-4239-91d9-7c40d535c00b"},"vehicle_type_id":"4","last_reported":1710713187,"current_range_meters":31200,"station_id":"ce4bgkh2rcd13ifvqbl0","pricing_plan_id":"cebpf4jnsgd1na2vs0mg"},{"bike_id":"e5b33727-690a-458b-9fe8-87842d55fb6f","system_id":"levelo_inurba_marseille","lat":43.299028,"lon":5.381509,"is_reserved":false,"is_disabled":false,"rental_uris":{"android":"levelo://app?vid=e5b33727-690a-458b-9fe8-87842d55fb6f","ios":"levelo://app?vid=e5b33727-690a-458b-9fe8-87842d55fb6f"},"vehicle_type_id":"4","last_reported":1710713187,"current_range_meters":4400,"station_id":"ce4bgj12rcd13ifvqbc0","pricing_plan_id":"cebpf4jnsgd1na2vs0mg"},{"bike_id":"a501f59e-a79c-447e-93f6-9f38a2dd5f64","system_id":"levelo_inurba_marseille","lat":43.29721,"lon":5.37732,"is_reserved":false,"is_disabled":false,"rental_uris":{"android":"levelo://app?vid=a501f59e-a79c-447e-93f6-9f38a2dd5f64","ios":"levelo://app?vid=a501f59e-a79c-447e-93f6-9f38a2dd5f64"},"vehicle_type_id":"4","last_reported":1710713187,"current_range_meters":16800,"station_id":"","pricing_plan_id":"cebpf4jnsgd1na2vs0mg"},{"bike_id":"ee21536c-65f2-47a3-bb1e-19e45926b84c","system_id":"levelo_inurba_marseille","lat":43.309589,"lon":5.390258,"is_reserved":false,"is_disabled":false,"rental_uris":{"android":"levelo://app?vid=ee21536c-65f2-47a3-bb1e-19e45926b84c","ios":"levelo://app?vid=ee21536c-65f2-47a3-bb1e-19e45926b84c"},"vehicle_type_id":"4","last_reported":1710713187,"current_range_meters":27200,"station_id":"ce4bgup2rcd13ifvqco0","pricing_plan_id":"cebpf4jnsgd1na2vs0mg"},{"bike_id":"acdf78ee-febd-409b-95d2-4fdda52ce877","system_id":"levelo_inurba_marseille","lat":43.309589,"lon":5.390258,"is_reserved":false,"is_disabled":false,"rental_uris":{"android":"levelo://app?vid=acdf78ee-febd-409b-95d2-4fdda52ce877","ios":"levelo://app?vid=acdf78ee-febd-409b-95d2-4fdda52ce877"},"vehicle_type_id":"4","last_reported":1710713187,"current_range_meters":21600,"station_id":"ce4bgup2rcd13ifvqco0","pricing_plan_id":"cebpf4jnsgd1na2vs0mg"},{"bike_id":"98e3a47f-1782-4da0-b029-d6e51ecbe567","system_id":"levelo_inurba_marseille","lat":43.317557,"lon":5.390173,"is_reserved":false,"is_disabled":false,"rental_uris":{"android":"levelo://app?vid=98e3a47f-1782-4da0-b029-d6e51ecbe567","ios":"levelo://app?vid=98e3a47f-1782-4da0-b029-d6e51ecbe567"},"vehicle_type_id":"4","last_reported":1710713187,"current_range_meters":24800,"station_id":"ce4bhqp2rcd13ifvqhng","pricing_plan_id":"cebpf4jnsgd1na2vs0mg"},{"bike_id":"580ebe89-bdc3-48bb-b83b-c5d3ebbaef0c","system_id":"levelo_inurba_marseille","lat":43.317538,"lon":5.390178,"is_reserved":false,"is_disabled":false,"rental_uris":{"android":"levelo://app?vid=580ebe89-bdc3-48bb-b83b-c5d3ebbaef0c","ios":"levelo://app?vid=580ebe89-bdc3-48bb-b83b-c5d3ebbaef0c"},"vehicle_type_id":"4","last_reported":1710713187,"current_range_meters":23600,"station_id":"ce4bhqp2rcd13ifvqhng","pricing_plan_id":"cebpf4jnsgd1na2vs0mg"},{"bike_id":"6e1884ed-e888-40ea-9333-cd85f3f83119","system_id":"levelo_inurba_marseille","lat":43.317557,"lon":5.390173,"is_reserved":false,"is_disabled":false,"rental_uris":{"android":"levelo://app?vid=6e1884ed-e888-40ea-9333-cd85f3f83119","ios":"levelo://app?vid=6e1884ed-e888-40ea-9333-cd85f3f83119"},"vehicle_type_id":"4","last_reported":1710713187,"current_range_meters":9200,"station_id":"ce4bhqp2rcd13ifvqhng","pricing_plan_id":"cebpf4jnsgd1na2vs0mg"},{"bike_id":"4cd5de38-8b96-4d11-b52f-1ce712d4d7ec","system_id":"levelo_inurba_marseille","lat":43.31754,"lon":5.39023,"is_reserved":false,"is_disabled":false,"rental_uris":{"android":"levelo://app?vid=4cd5de38-8b96-4d11-b52f-1ce712d4d7ec","ios":"levelo://app?vid=4cd5de38-8b96-4d11-b52f-1ce712d4d7ec"},"vehicle_type_id":"4","last_reported":1710713187,"current_range_meters":19600,"station_id":"ce4bhqp2rcd13ifvqhng","pricing_plan_id":"cebpf4jnsgd1na2vs0mg"},{"bike_id":"2323827a-2228-4f52-a45f-54ab81310645","system_id":"levelo_inurba_marseille","lat":43.29795,"lon":5.38102,"is_reserved":false,"is_disabled":false,"rental_uris":{"android":"levelo://app?vid=2323827a-2228-4f52-a45f-54ab81310645","ios":"levelo://app?vid=2323827a-2228-4f52-a45f-54ab81310645"},"vehicle_type_id":"4","last_reported":1710713187,"current_range_meters":0,"station_id":"ce4bgip2rcd13ifvqbb0","pricing_plan_id":"cebpf4jnsgd1na2vs0mg"},{"bike_id":"1f1cf9d2-b500-4cab-b505-27945057d464","system_id":"levelo_inurba_marseille","lat":43.304274,"lon":5.388873,"is_reserved":false,"is_disabled":false,"rental_uris":{"android":"levelo://app?vid=1f1cf9d2-b500-4cab-b505-27945057d464","ios":"levelo://app?vid=1f1cf9d2-b500-4cab-b505-27945057d464"},"vehicle_type_id":"4","last_reported":1710713187,"current_range_meters":17200,"station_id":"ce4bgk12rcd13ifvqbi0","pricing_plan_id":"cebpf4jnsgd1na2vs0mg"},{"bike_id":"bdd30917-7196-4751-b4b4-31309d78cbe3","system_id":"levelo_inurba_marseille","lat":43.304274,"lon":5.388873,"is_reserved":false,"is_disabled":false,"rental_uris":{"android":"levelo://app?vid=bdd30917-7196-4751-b4b4-31309d78cbe3","ios":"levelo://app?vid=bdd30917-7196-4751-b4b4-31309d78cbe3"},"vehicle_type_id":"4","last_reported":1710713187,"current_range_meters":24800,"station_id":"ce4bgk12rcd13ifvqbi0","pricing_plan_id":"cebpf4jnsgd1na2vs0mg"},{"bike_id":"d4ba4c59-6c60-47d7-8841-5c577a5e1303","system_id":"levelo_inurba_marseille","lat":43.30432,"lon":5.3889,"is_reserved":false,"is_disabled":false,"rental_uris":{"android":"levelo://app?vid=d4ba4c59-6c60-47d7-8841-5c577a5e1303","ios":"levelo://app?vid=d4ba4c59-6c60-47d7-8841-5c577a5e1303"},"vehicle_type_id":"4","last_reported":1710713187,"current_range_meters":0,"station_id":"ce4bgk12rcd13ifvqbi0","pricing_plan_id":"cebpf4jnsgd1na2vs0mg"},{"bike_id":"bfb4d656-3182-4556-8565-f64625a10cba","system_id":"levelo_inurba_marseille","lat":43.298037,"lon":5.381066,"is_reserved":false,"is_disabled":false,"rental_uris":{"android":"levelo://app?vid=bfb4d656-3182-4556-8565-f64625a10cba","ios":"levelo://app?vid=bfb4d656-3182-4556-8565-f64625a10cba"},"vehicle_type_id":"4","last_reported":1710713187,"current_range_meters":11200,"station_id":"ce4bgip2rcd13ifvqbb0","pricing_plan_id":"cebpf4jnsgd1na2vs0mg"},{"bike_id":"956ca44e-b939-48f8-b73a-b41883536da8","system_id":"levelo_inurba_marseille","lat":43.296263,"lon":5.377094,"is_reserved":false,"is_disabled":false,"rental_uris":{"android":"levelo://app?vid=956ca44e-b939-48f8-b73a-b41883536da8","ios":"levelo://app?vid=956ca44e-b939-48f8-b73a-b41883536da8"},"vehicle_type_id":"4","last_reported":1710713187,"current_range_meters":28800,"station_id":"ce4bgi92rcd13ifvqb90","pricing_plan_id":"cebpf4jnsgd1na2vs0mg"},{"bike_id":"37a94ae4-4f8f-4709-b18e-7f475b71d895","system_id":"levelo_inurba_marseille","lat":43.295279,"lon":5.375048,"is_reserved":false,"is_disabled":false,"rental_uris":{"android":"levelo://app?vid=37a94ae4-4f8f-4709-b18e-7f475b71d895","ios":"levelo://app?vid=37a94ae4-4f8f-4709-b18e-7f475b71d895"},"vehicle_type_id":"4","last_reported":1710713187,"current_range_meters":26000,"station_id":"ce4bgkp2rcd13ifvqbmg","pricing_plan_id":"cebpf4jnsgd1na2vs0mg"},{"bike_id":"30634322-7b99-404c-ae3b-c0ec30293176","system_id":"levelo_inurba_marseille","lat":43.29971,"lon":5.38495,"is_reserved":false,"is_disabled":false,"rental_uris":{"android":"levelo://app?vid=30634322-7b99-404c-ae3b-c0ec30293176","ios":"levelo://app?vid=30634322-7b99-404c-ae3b-c0ec30293176"},"vehicle_type_id":"4","last_reported":1710713187,"current_range_meters":0,"station_id":"ce4bgj92rcd13ifvqbd0","pricing_plan_id":"cebpf4jnsgd1na2vs0mg"},{"bike_id":"b2cf1a65-9944-4f5e-830c-2567125d81c5","system_id":"levelo_inurba_marseille","lat":43.302059,"lon":5.387881,"is_reserved":false,"is_disabled":false,"rental_uris":{"android":"levelo://app?vid=b2cf1a65-9944-4f5e-830c-2567125d81c5","ios":"levelo://app?vid=b2cf1a65-9944-4f5e-830c-2567125d81c5"},"vehicle_type_id":"4","last_reported":1710713187,"current_range_meters":0,"station_id":"","pricing_plan_id":"cebpf4jnsgd1na2vs0mg"},{"bike_id":"a6ad3789-1246-49a3-bc93-0147fdf86b74","system_id":"levelo_inurba_marseille","lat":43.29647,"lon":5.37987,"is_reserved":false,"is_disabled":false,"rental_uris":{"android":"levelo://app?vid=a6ad3789-1246-49a3-bc93-0147fdf86b74","ios":"levelo://app?vid=a6ad3789-1246-49a3-bc93-0147fdf86b74"},"vehicle_type_id":"4","last_reported":1710713187,"current_range_meters":7200,"station_id":"","pricing_plan_id":"cebpf4jnsgd1na2vs0mg"},{"bike_id":"9d559d23-02de-43dc-a884-3a3c50d966b4","system_id":"levelo_inurba_marseille","lat":43.32365,"lon":5.38879,"is_reserved":false,"is_disabled":false,"rental_uris":{"android":"levelo://app?vid=9d559d23-02de-43dc-a884-3a3c50d966b4","ios":"levelo://app?vid=9d559d23-02de-43dc-a884-3a3c50d966b4"},"vehicle_type_id":"4","last_reported":1710713187,"current_range_meters":22400,"station_id":"ce4bhqp2rcd13ifvqhog","pricing_plan_id":"cebpf4jnsgd1na2vs0mg"},{"bike_id":"06052476-d739-4c41-ae87-82d1af14bcbc","system_id":"levelo_inurba_marseille","lat":43.32367,"lon":5.388836,"is_reserved":false,"is_disabled":false,"rental_uris":{"android":"levelo://app?vid=06052476-d739-4c41-ae87-82d1af14bcbc","ios":"levelo://app?vid=06052476-d739-4c41-ae87-82d1af14bcbc"},"vehicle_type_id":"4","last_reported":1710713187,"current_range_meters":6400,"station_id":"ce4bhqp2rcd13ifvqhog","pricing_plan_id":"cebpf4jnsgd1na2vs0mg"},{"bike_id":"f1bc208a-74d3-4099-8573-86c72e18a960","system_id":"levelo_inurba_marseille","lat":43.32367,"lon":5.388836,"is_reserved":false,"is_disabled":false,"rental_uris":{"android":"levelo://app?vid=f1bc208a-74d3-4099-8573-86c72e18a960","ios":"levelo://app?vid=f1bc208a-74d3-4099-8573-86c72e18a960"},"vehicle_type_id":"4","last_reported":1710713187,"current_range_meters":5600,"station_id":"ce4bhqp2rcd13ifvqhog","pricing_plan_id":"cebpf4jnsgd1na2vs0mg"},{"bike_id":"219b75a0-6099-4217-945c-5af03708a34a","system_id":"levelo_inurba_marseille","lat":43.32367,"lon":5.38887,"is_reserved":false,"is_disabled":false,"rental_uris":{"android":"levelo://app?vid=219b75a0-6099-4217-945c-5af03708a34a","ios":"levelo://app?vid=219b75a0-6099-4217-945c-5af03708a34a"},"vehicle_type_id":"4","last_reported":1710713187,"current_range_meters":800,"station_id":"ce4bhqp2rcd13ifvqhog","pricing_plan_id":"cebpf4jnsgd1na2vs0mg"},{"bike_id":"c3e604a5-4cb2-4048-ad78-0ceaf173b32f","system_id":"levelo_inurba_marseille","lat":43.32367,"lon":5.388836,"is_reserved":false,"is_disabled":false,"rental_uris":{"android":"levelo://app?vid=c3e604a5-4cb2-4048-ad78-0ceaf173b32f","ios":"levelo://app?vid=c3e604a5-4cb2-4048-ad78-0ceaf173b32f"},"vehicle_type_id":"4","last_reported":1710713187,"current_range_meters":0,"station_id":"ce4bhqp2rcd13ifvqhog","pricing_plan_id":"cebpf4jnsgd1na2vs0mg"},{"bike_id":"c112743b-eb9c-426a-93a3-11464a5e60c0","system_id":"levelo_inurba_marseille","lat":43.32365,"lon":5.38892,"is_reserved":false,"is_disabled":false,"rental_uris":{"android":"levelo://app?vid=c112743b-eb9c-426a-93a3-11464a5e60c0","ios":"levelo://app?vid=c112743b-eb9c-426a-93a3-11464a5e60c0"},"vehicle_type_id":"4","last_reported":1710713187,"current_range_meters":0,"station_id":"ce4bhqp2rcd13ifvqhog","pricing_plan_id":"cebpf4jnsgd1na2vs0mg"},{"bike_id":"88c09819-0132-49e1-a848-b83c3e55111a","system_id":"levelo_inurba_marseille","lat":43.32367,"lon":5.388836,"is_reserved":false,"is_disabled":false,"rental_uris":{"android":"levelo://app?vid=88c09819-0132-49e1-a848-b83c3e55111a","ios":"levelo://app?vid=88c09819-0132-49e1-a848-b83c3e55111a"},"vehicle_type_id":"4","last_reported":1710713187,"current_range_meters":28400,"station_id":"ce4bhqp2rcd13ifvqhog","pricing_plan_id":"cebpf4jnsgd1na2vs0mg"},{"bike_id":"879cf394-5f34-4ef6-a1b6-208a20d30cf0","system_id":"levelo_inurba_marseille","lat":43.32367,"lon":5.388836,"is_reserved":false,"is_disabled":false,"rental_uris":{"android":"levelo://app?vid=879cf394-5f34-4ef6-a1b6-208a20d30cf0","ios":"levelo://app?vid=879cf394-5f34-4ef6-a1b6-208a20d30cf0"},"vehicle_type_id":"4","last_reported":1710713187,"current_range_meters":800,"station_id":"ce4bhqp2rcd13ifvqhog","pricing_plan_id":"cebpf4jnsgd1na2vs0mg"},{"bike_id":"5a925cdd-9706-4a42-98e0-66c82c62a984","system_id":"levelo_inurba_marseille","lat":43.293259,"lon":5.371586,"is_reserved":false,"is_disabled":false,"rental_uris":{"android":"levelo://app?vid=5a925cdd-9706-4a42-98e0-66c82c62a984","ios":"levelo://app?vid=5a925cdd-9706-4a42-98e0-66c82c62a984"},"vehicle_type_id":"4","last_reported":1710713187,"current_range_meters":7200,"station_id":"ce4bgh92rcd13ifvqb40","pricing_plan_id":"cebpf4jnsgd1na2vs0mg"},{"bike_id":"9d86d3ff-a5f8-415f-9c5f-55b5e1417646","system_id":"levelo_inurba_marseille","lat":43.292749,"lon":5.368402,"is_reserved":false,"is_disabled":false,"rental_uris":{"android":"levelo://app?vid=9d86d3ff-a5f8-415f-9c5f-55b5e1417646","ios":"levelo://app?vid=9d86d3ff-a5f8-415f-9c5f-55b5e1417646"},"vehicle_type_id":"4","last_reported":1710713187,"current_range_meters":0,"station_id":"ce4bhbp2rcd13ifvqesg","pricing_plan_id":"cebpf4jnsgd1na2vs0mg"},{"bike_id":"3c472813-8486-4a8e-9d82-9bea18d18ac2","system_id":"levelo_inurba_marseille","lat":43.2931,"lon":5.37178,"is_reserved":false,"is_disabled":false,"rental_uris":{"android":"levelo://app?vid=3c472813-8486-4a8e-9d82-9bea18d18ac2","ios":"levelo://app?vid=3c472813-8486-4a8e-9d82-9bea18d18ac2"},"vehicle_type_id":"4","last_reported":1710713187,"current_range_meters":2000,"station_id":"ce4bgh92rcd13ifvqb40","pricing_plan_id":"cebpf4jnsgd1na2vs0mg"},{"bike_id":"b4d86377-49a3-4815-b582-2ff30722bfba","system_id":"levelo_inurba_marseille","lat":43.293259,"lon":5.371586,"is_reserved":false,"is_disabled":false,"rental_uris":{"android":"levelo://app?vid=b4d86377-49a3-4815-b582-2ff30722bfba","ios":"levelo://app?vid=b4d86377-49a3-4815-b582-2ff30722bfba"},"vehicle_type_id":"4","last_reported":1710713187,"current_range_meters":0,"station_id":"ce4bgh92rcd13ifvqb40","pricing_plan_id":"cebpf4jnsgd1na2vs0mg"},{"bike_id":"a680657f-399d-4303-8e51-eee75819987e","system_id":"levelo_inurba_marseille","lat":43.305994,"lon":5.393687,"is_reserved":false,"is_disabled":false,"rental_uris":{"android":"levelo://app?vid=a680657f-399d-4303-8e51-eee75819987e","ios":"levelo://app?vid=a680657f-399d-4303-8e51-eee75819987e"},"vehicle_type_id":"4","last_reported":1710713187,"current_range_meters":17600,"station_id":"ce4bh0p2rcd13ifvqd80","pricing_plan_id":"cebpf4jnsgd1na2vs0mg"},{"bike_id":"283e386e-8a62-4b43-bd40-1ef35bf1a68f","system_id":"levelo_inurba_marseille","lat":43.293009,"lon":5.374584,"is_reserved":false,"is_disabled":false,"rental_uris":{"android":"levelo://app?vid=283e386e-8a62-4b43-bd40-1ef35bf1a68f","ios":"levelo://app?vid=283e386e-8a62-4b43-bd40-1ef35bf1a68f"},"vehicle_type_id":"4","last_reported":1710713187,"current_range_meters":800,"station_id":"ce4bgi12rcd13ifvqb70","pricing_plan_id":"cebpf4jnsgd1na2vs0mg"},{"bike_id":"ede60710-fda8-4776-b523-7bedbb5d9aaf","system_id":"levelo_inurba_marseille","lat":43.306007,"lon":5.393596,"is_reserved":false,"is_disabled":false,"rental_uris":{"android":"levelo://app?vid=ede60710-fda8-4776-b523-7bedbb5d9aaf","ios":"levelo://app?vid=ede60710-fda8-4776-b523-7bedbb5d9aaf"},"vehicle_type_id":"4","last_reported":1710713187,"current_range_meters":0,"station_id":"ce4bh0p2rcd13ifvqd80","pricing_plan_id":"cebpf4jnsgd1na2vs0mg"},{"bike_id":"2b8bc43b-8a74-48b3-9b99-ca02878173a2","system_id":"levelo_inurba_marseille","lat":43.292994,"lon":5.374786,"is_reserved":false,"is_disabled":false,"rental_uris":{"android":"levelo://app?vid=2b8bc43b-8a74-48b3-9b99-ca02878173a2","ios":"levelo://app?vid=2b8bc43b-8a74-48b3-9b99-ca02878173a2"},"vehicle_type_id":"4","last_reported":1710713187,"current_range_meters":0,"station_id":"ce4bgi12rcd13ifvqb70","pricing_plan_id":"cebpf4jnsgd1na2vs0mg"},{"bike_id":"b64ea7e5-baef-4848-86aa-b5acd403e5d7","system_id":"levelo_inurba_marseille","lat":43.305994,"lon":5.393687,"is_reserved":false,"is_disabled":false,"rental_uris":{"android":"levelo://app?vid=b64ea7e5-baef-4848-86aa-b5acd403e5d7","ios":"levelo://app?vid=b64ea7e5-baef-4848-86aa-b5acd403e5d7"},"vehicle_type_id":"4","last_reported":1710713187,"current_range_meters":24400,"station_id":"ce4bh0p2rcd13ifvqd80","pricing_plan_id":"cebpf4jnsgd1na2vs0mg"},{"bike_id":"f90a088d-b594-47ec-aefc-c52b12847ca1","system_id":"levelo_inurba_marseille","lat":43.29373,"lon":5.37859,"is_reserved":false,"is_disabled":false,"rental_uris":{"android":"levelo://app?vid=f90a088d-b594-47ec-aefc-c52b12847ca1","ios":"levelo://app?vid=f90a088d-b594-47ec-aefc-c52b12847ca1"},"vehicle_type_id":"4","last_reported":1710713187,"current_range_meters":23600,"station_id":"ce4bgjh2rcd13ifvqbf0","pricing_plan_id":"cebpf4jnsgd1na2vs0mg"},{"bike_id":"35212b5e-9efe-48da-9259-ce2017bc9be0","system_id":"levelo_inurba_marseille","lat":43.293714,"lon":5.378571,"is_reserved":false,"is_disabled":false,"rental_uris":{"android":"levelo://app?vid=35212b5e-9efe-48da-9259-ce2017bc9be0","ios":"levelo://app?vid=35212b5e-9efe-48da-9259-ce2017bc9be0"},"vehicle_type_id":"4","last_reported":1710713187,"current_range_meters":0,"station_id":"ce4bgjh2rcd13ifvqbf0","pricing_plan_id":"cebpf4jnsgd1na2vs0mg"},{"bike_id":"74c32402-894b-4e5d-b657-4e6a046d278d","system_id":"levelo_inurba_marseille","lat":43.300852,"lon":5.390859,"is_reserved":false,"is_disabled":false,"rental_uris":{"android":"levelo://app?vid=74c32402-894b-4e5d-b657-4e6a046d278d","ios":"levelo://app?vid=74c32402-894b-4e5d-b657-4e6a046d278d"},"vehicle_type_id":"4","last_reported":1710713187,"current_range_meters":8400,"station_id":"ce4bh192rcd13ifvqdb0","pricing_plan_id":"cebpf4jnsgd1na2vs0mg"},{"bike_id":"4839f843-ae64-4075-8945-c7db6b86165f","system_id":"levelo_inurba_marseille","lat":43.300852,"lon":5.390859,"is_reserved":false,"is_disabled":false,"rental_uris":{"android":"levelo://app?vid=4839f843-ae64-4075-8945-c7db6b86165f","ios":"levelo://app?vid=4839f843-ae64-4075-8945-c7db6b86165f"},"vehicle_type_id":"4","last_reported":1710713187,"current_range_meters":30400,"station_id":"ce4bh192rcd13ifvqdb0","pricing_plan_id":"cebpf4jnsgd1na2vs0mg"},{"bike_id":"69065b1c-50bd-4df9-9538-720c5aa62f8e","system_id":"levelo_inurba_marseille","lat":43.300852,"lon":5.390859,"is_reserved":false,"is_disabled":false,"rental_uris":{"android":"levelo://app?vid=69065b1c-50bd-4df9-9538-720c5aa62f8e","ios":"levelo://app?vid=69065b1c-50bd-4df9-9538-720c5aa62f8e"},"vehicle_type_id":"4","last_reported":1710713187,"current_range_meters":0,"station_id":"ce4bh192rcd13ifvqdb0","pricing_plan_id":"cebpf4jnsgd1na2vs0mg"},{"bike_id":"701c1c12-3dd4-4cd6-96b9-de09bfd70efe","system_id":"levelo_inurba_marseille","lat":43.291743,"lon":5.371425,"is_reserved":false,"is_disabled":false,"rental_uris":{"android":"levelo://app?vid=701c1c12-3dd4-4cd6-96b9-de09bfd70efe","ios":"levelo://app?vid=701c1c12-3dd4-4cd6-96b9-de09bfd70efe"},"vehicle_type_id":"4","last_reported":1710713187,"current_range_meters":0,"station_id":"ce4bha92rcd13ifvqeh0","pricing_plan_id":"cebpf4jnsgd1na2vs0mg"},{"bike_id":"3d3cd928-8250-455e-b057-954fd77e0dca","system_id":"levelo_inurba_marseille","lat":43.291675,"lon":5.371583,"is_reserved":false,"is_disabled":false,"rental_uris":{"android":"levelo://app?vid=3d3cd928-8250-455e-b057-954fd77e0dca","ios":"levelo://app?vid=3d3cd928-8250-455e-b057-954fd77e0dca"},"vehicle_type_id":"4","last_reported":1710713187,"current_range_meters":31200,"station_id":"ce4bha92rcd13ifvqeh0","pricing_plan_id":"cebpf4jnsgd1na2vs0mg"},{"bike_id":"55d4a1f8-a29a-48ac-a92a-171cac40e27d","system_id":"levelo_inurba_marseille","lat":43.291675,"lon":5.371583,"is_reserved":false,"is_disabled":false,"rental_uris":{"android":"levelo://app?vid=55d4a1f8-a29a-48ac-a92a-171cac40e27d","ios":"levelo://app?vid=55d4a1f8-a29a-48ac-a92a-171cac40e27d"},"vehicle_type_id":"4","last_reported":1710713187,"current_range_meters":24800,"station_id":"ce4bha92rcd13ifvqeh0","pricing_plan_id":"cebpf4jnsgd1na2vs0mg"},{"bike_id":"828eeef2-1e73-412b-9fff-25cbd62cdd19","system_id":"levelo_inurba_marseille","lat":43.291675,"lon":5.371583,"is_reserved":false,"is_disabled":false,"rental_uris":{"android":"levelo://app?vid=828eeef2-1e73-412b-9fff-25cbd62cdd19","ios":"levelo://app?vid=828eeef2-1e73-412b-9fff-25cbd62cdd19"},"vehicle_type_id":"4","last_reported":1710713187,"current_range_meters":6400,"station_id":"ce4bha92rcd13ifvqeh0","pricing_plan_id":"cebpf4jnsgd1na2vs0mg"},{"bike_id":"cd2168aa-785b-4de7-b887-f1b2632efeb2","system_id":"levelo_inurba_marseille","lat":43.29874,"lon":5.38914,"is_reserved":false,"is_disabled":false,"rental_uris":{"android":"levelo://app?vid=cd2168aa-785b-4de7-b887-f1b2632efeb2","ios":"levelo://app?vid=cd2168aa-785b-4de7-b887-f1b2632efeb2"},"vehicle_type_id":"4","last_reported":1710713187,"current_range_meters":0,"station_id":"ce4bh392rcd13ifvqdl0","pricing_plan_id":"cebpf4jnsgd1na2vs0mg"},{"bike_id":"e4dae2a8-499e-4571-b0f5-ee0f9565d77e","system_id":"levelo_inurba_marseille","lat":43.30898,"lon":5.39629,"is_reserved":false,"is_disabled":false,"rental_uris":{"android":"levelo://app?vid=e4dae2a8-499e-4571-b0f5-ee0f9565d77e","ios":"levelo://app?vid=e4dae2a8-499e-4571-b0f5-ee0f9565d77e"},"vehicle_type_id":"4","last_reported":1710713187,"current_range_meters":18800,"station_id":"ce4bh012rcd13ifvqcv0","pricing_plan_id":"cebpf4jnsgd1na2vs0mg"},{"bike_id":"4b5bc0e0-4d73-49d2-b167-94b9c11fe7aa","system_id":"levelo_inurba_marseille","lat":43.291994,"lon":5.357886,"is_reserved":false,"is_disabled":false,"rental_uris":{"android":"levelo://app?vid=4b5bc0e0-4d73-49d2-b167-94b9c11fe7aa","ios":"levelo://app?vid=4b5bc0e0-4d73-49d2-b167-94b9c11fe7aa"},"vehicle_type_id":"4","last_reported":1710713187,"current_range_meters":25200,"station_id":"ce4bhb12rcd13ifvqel0","pricing_plan_id":"cebpf4jnsgd1na2vs0mg"},{"bike_id":"1f27bdc0-f932-47ff-8468-d9e76c4d6ae7","system_id":"levelo_inurba_marseille","lat":43.309047,"lon":5.396551,"is_reserved":false,"is_disabled":false,"rental_uris":{"android":"levelo://app?vid=1f27bdc0-f932-47ff-8468-d9e76c4d6ae7","ios":"levelo://app?vid=1f27bdc0-f932-47ff-8468-d9e76c4d6ae7"},"vehicle_type_id":"4","last_reported":1710713187,"current_range_meters":2000,"station_id":"ce4bh012rcd13ifvqcv0","pricing_plan_id":"cebpf4jnsgd1na2vs0mg"},{"bike_id":"3b6f3d22-6dae-45f5-bbdf-d7f6a88f3cdf","system_id":"levelo_inurba_marseille","lat":43.313291,"lon":5.396838,"is_reserved":false,"is_disabled":false,"rental_uris":{"android":"levelo://app?vid=3b6f3d22-6dae-45f5-bbdf-d7f6a88f3cdf","ios":"levelo://app?vid=3b6f3d22-6dae-45f5-bbdf-d7f6a88f3cdf"},"vehicle_type_id":"4","last_reported":1710713187,"current_range_meters":26400,"station_id":"ce4bgvp2rcd13ifvqcu0","pricing_plan_id":"cebpf4jnsgd1na2vs0mg"},{"bike_id":"b9c740d2-1beb-47c5-a36e-4596c9bac6c8","system_id":"levelo_inurba_marseille","lat":43.3089,"lon":5.39644,"is_reserved":false,"is_disabled":false,"rental_uris":{"android":"levelo://app?vid=b9c740d2-1beb-47c5-a36e-4596c9bac6c8","ios":"levelo://app?vid=b9c740d2-1beb-47c5-a36e-4596c9bac6c8"},"vehicle_type_id":"4","last_reported":1710713187,"current_range_meters":800,"station_id":"ce4bh012rcd13ifvqcv0","pricing_plan_id":"cebpf4jnsgd1na2vs0mg"},{"bike_id":"c82ea6fe-d405-4391-934f-4ed8589dd8e9","system_id":"levelo_inurba_marseille","lat":43.309038,"lon":5.396546,"is_reserved":false,"is_disabled":false,"rental_uris":{"android":"levelo://app?vid=c82ea6fe-d405-4391-934f-4ed8589dd8e9","ios":"levelo://app?vid=c82ea6fe-d405-4391-934f-4ed8589dd8e9"},"vehicle_type_id":"4","last_reported":1710713187,"current_range_meters":0,"station_id":"ce4bh012rcd13ifvqcv0","pricing_plan_id":"cebpf4jnsgd1na2vs0mg"},{"bike_id":"8ab9d5be-86ef-427f-aa1c-1c6cb89ca3f2","system_id":"levelo_inurba_marseille","lat":43.309038,"lon":5.396546,"is_reserved":false,"is_disabled":false,"rental_uris":{"android":"levelo://app?vid=8ab9d5be-86ef-427f-aa1c-1c6cb89ca3f2","ios":"levelo://app?vid=8ab9d5be-86ef-427f-aa1c-1c6cb89ca3f2"},"vehicle_type_id":"4","last_reported":1710713187,"current_range_meters":4400,"station_id":"ce4bh012rcd13ifvqcv0","pricing_plan_id":"cebpf4jnsgd1na2vs0mg"},{"bike_id":"aa830ee6-4b4a-4012-93bd-39e24ce8c96e","system_id":"levelo_inurba_marseille","lat":43.313291,"lon":5.396838,"is_reserved":false,"is_disabled":false,"rental_uris":{"android":"levelo://app?vid=aa830ee6-4b4a-4012-93bd-39e24ce8c96e","ios":"levelo://app?vid=aa830ee6-4b4a-4012-93bd-39e24ce8c96e"},"vehicle_type_id":"4","last_reported":1710713187,"current_range_meters":24800,"station_id":"ce4bgvp2rcd13ifvqcu0","pricing_plan_id":"cebpf4jnsgd1na2vs0mg"},{"bike_id":"b1776f5e-63a5-4d71-80bd-a1603cefd42e","system_id":"levelo_inurba_marseille","lat":43.313291,"lon":5.396838,"is_reserved":false,"is_disabled":false,"rental_uris":{"android":"levelo://app?vid=b1776f5e-63a5-4d71-80bd-a1603cefd42e","ios":"levelo://app?vid=b1776f5e-63a5-4d71-80bd-a1603cefd42e"},"vehicle_type_id":"4","last_reported":1710713187,"current_range_meters":30400,"station_id":"ce4bgvp2rcd13ifvqcu0","pricing_plan_id":"cebpf4jnsgd1na2vs0mg"},{"bike_id":"66864364-2f61-49a6-a900-cb645f0d364f","system_id":"levelo_inurba_marseille","lat":43.313291,"lon":5.396838,"is_reserved":false,"is_disabled":false,"rental_uris":{"android":"levelo://app?vid=66864364-2f61-49a6-a900-cb645f0d364f","ios":"levelo://app?vid=66864364-2f61-49a6-a900-cb645f0d364f"},"vehicle_type_id":"4","last_reported":1710713187,"current_range_meters":26800,"station_id":"ce4bgvp2rcd13ifvqcu0","pricing_plan_id":"cebpf4jnsgd1na2vs0mg"},{"bike_id":"ee9565c0-762b-4734-84f2-a10fe94fa564","system_id":"levelo_inurba_marseille","lat":43.309047,"lon":5.396551,"is_reserved":false,"is_disabled":false,"rental_uris":{"android":"levelo://app?vid=ee9565c0-762b-4734-84f2-a10fe94fa564","ios":"levelo://app?vid=ee9565c0-762b-4734-84f2-a10fe94fa564"},"vehicle_type_id":"4","last_reported":1710713187,"current_range_meters":16800,"station_id":"ce4bh012rcd13ifvqcv0","pricing_plan_id":"cebpf4jnsgd1na2vs0mg"},{"bike_id":"f53e0ecb-c23d-43f1-8ac5-3495c5a98378","system_id":"levelo_inurba_marseille","lat":43.308869,"lon":5.396484,"is_reserved":false,"is_disabled":false,"rental_uris":{"android":"levelo://app?vid=f53e0ecb-c23d-43f1-8ac5-3495c5a98378","ios":"levelo://app?vid=f53e0ecb-c23d-43f1-8ac5-3495c5a98378"},"vehicle_type_id":"4","last_reported":1710713187,"current_range_meters":4000,"station_id":"ce4bh012rcd13ifvqcv0","pricing_plan_id":"cebpf4jnsgd1na2vs0mg"},{"bike_id":"d0f00d6d-b13d-4184-a136-14d85c797c31","system_id":"levelo_inurba_marseille","lat":43.30884,"lon":5.39648,"is_reserved":false,"is_disabled":false,"rental_uris":{"android":"levelo://app?vid=d0f00d6d-b13d-4184-a136-14d85c797c31","ios":"levelo://app?vid=d0f00d6d-b13d-4184-a136-14d85c797c31"},"vehicle_type_id":"4","last_reported":1710713187,"current_range_meters":0,"station_id":"ce4bh012rcd13ifvqcv0","pricing_plan_id":"cebpf4jnsgd1na2vs0mg"},{"bike_id":"06fa0553-90b9-4663-bfdf-896067900222","system_id":"levelo_inurba_marseille","lat":43.308865,"lon":5.396488,"is_reserved":false,"is_disabled":false,"rental_uris":{"android":"levelo://app?vid=06fa0553-90b9-4663-bfdf-896067900222","ios":"levelo://app?vid=06fa0553-90b9-4663-bfdf-896067900222"},"vehicle_type_id":"4","last_reported":1710713187,"current_range_meters":26400,"station_id":"ce4bh012rcd13ifvqcv0","pricing_plan_id":"cebpf4jnsgd1na2vs0mg"},{"bike_id":"2244e9a4-fcee-4efb-831d-bc43b5bb4f78","system_id":"levelo_inurba_marseille","lat":43.308913,"lon":5.396506,"is_reserved":false,"is_disabled":false,"rental_uris":{"android":"levelo://app?vid=2244e9a4-fcee-4efb-831d-bc43b5bb4f78","ios":"levelo://app?vid=2244e9a4-fcee-4efb-831d-bc43b5bb4f78"},"vehicle_type_id":"4","last_reported":1710713187,"current_range_meters":10000,"station_id":"ce4bh012rcd13ifvqcv0","pricing_plan_id":"cebpf4jnsgd1na2vs0mg"},{"bike_id":"a16cd61e-e0ce-4cd2-957c-cf92525fa3f4","system_id":"levelo_inurba_marseille","lat":43.30883,"lon":5.39649,"is_reserved":false,"is_disabled":false,"rental_uris":{"android":"levelo://app?vid=a16cd61e-e0ce-4cd2-957c-cf92525fa3f4","ios":"levelo://app?vid=a16cd61e-e0ce-4cd2-957c-cf92525fa3f4"},"vehicle_type_id":"4","last_reported":1710713187,"current_range_meters":6800,"station_id":"ce4bh012rcd13ifvqcv0","pricing_plan_id":"cebpf4jnsgd1na2vs0mg"},{"bike_id":"39168a1a-c4d4-46c2-b497-0624cf454b2c","system_id":"levelo_inurba_marseille","lat":43.30879,"lon":5.39648,"is_reserved":false,"is_disabled":false,"rental_uris":{"android":"levelo://app?vid=39168a1a-c4d4-46c2-b497-0624cf454b2c","ios":"levelo://app?vid=39168a1a-c4d4-46c2-b497-0624cf454b2c"},"vehicle_type_id":"4","last_reported":1710713187,"current_range_meters":15200,"station_id":"ce4bh012rcd13ifvqcv0","pricing_plan_id":"cebpf4jnsgd1na2vs0mg"},{"bike_id":"2db53e45-8b21-445e-bc72-8f5c3742fd90","system_id":"levelo_inurba_marseille","lat":43.309047,"lon":5.396551,"is_reserved":false,"is_disabled":false,"rental_uris":{"android":"levelo://app?vid=2db53e45-8b21-445e-bc72-8f5c3742fd90","ios":"levelo://app?vid=2db53e45-8b21-445e-bc72-8f5c3742fd90"},"vehicle_type_id":"4","last_reported":1710713187,"current_range_meters":16400,"station_id":"ce4bh012rcd13ifvqcv0","pricing_plan_id":"cebpf4jnsgd1na2vs0mg"},{"bike_id":"6a70da66-1d5d-460a-8cdc-c9b69ebd3ce8","system_id":"levelo_inurba_marseille","lat":43.313291,"lon":5.396838,"is_reserved":false,"is_disabled":false,"rental_uris":{"android":"levelo://app?vid=6a70da66-1d5d-460a-8cdc-c9b69ebd3ce8","ios":"levelo://app?vid=6a70da66-1d5d-460a-8cdc-c9b69ebd3ce8"},"vehicle_type_id":"4","last_reported":1710713187,"current_range_meters":14000,"station_id":"ce4bgvp2rcd13ifvqcu0","pricing_plan_id":"cebpf4jnsgd1na2vs0mg"},{"bike_id":"a8ff0484-0428-4db1-b39b-85b4d6c279e0","system_id":"levelo_inurba_marseille","lat":43.30891,"lon":5.39652,"is_reserved":false,"is_disabled":false,"rental_uris":{"android":"levelo://app?vid=a8ff0484-0428-4db1-b39b-85b4d6c279e0","ios":"levelo://app?vid=a8ff0484-0428-4db1-b39b-85b4d6c279e0"},"vehicle_type_id":"4","last_reported":1710713187,"current_range_meters":2800,"station_id":"ce4bh012rcd13ifvqcv0","pricing_plan_id":"cebpf4jnsgd1na2vs0mg"},{"bike_id":"798b30fc-764d-4570-9888-9481197546c1","system_id":"levelo_inurba_marseille","lat":43.313291,"lon":5.396838,"is_reserved":false,"is_disabled":false,"rental_uris":{"android":"levelo://app?vid=798b30fc-764d-4570-9888-9481197546c1","ios":"levelo://app?vid=798b30fc-764d-4570-9888-9481197546c1"},"vehicle_type_id":"4","last_reported":1710713187,"current_range_meters":25200,"station_id":"ce4bgvp2rcd13ifvqcu0","pricing_plan_id":"cebpf4jnsgd1na2vs0mg"},{"bike_id":"4c2b0a03-efdc-4de1-afa9-753f52c7ecf5","system_id":"levelo_inurba_marseille","lat":43.313291,"lon":5.396838,"is_reserved":false,"is_disabled":false,"rental_uris":{"android":"levelo://app?vid=4c2b0a03-efdc-4de1-afa9-753f52c7ecf5","ios":"levelo://app?vid=4c2b0a03-efdc-4de1-afa9-753f52c7ecf5"},"vehicle_type_id":"4","last_reported":1710713187,"current_range_meters":31600,"station_id":"ce4bgvp2rcd13ifvqcu0","pricing_plan_id":"cebpf4jnsgd1na2vs0mg"},{"bike_id":"5c201f86-fd6a-4a5a-86a7-2768ea9f488b","system_id":"levelo_inurba_marseille","lat":43.308931,"lon":5.39654,"is_reserved":false,"is_disabled":false,"rental_uris":{"android":"levelo://app?vid=5c201f86-fd6a-4a5a-86a7-2768ea9f488b","ios":"levelo://app?vid=5c201f86-fd6a-4a5a-86a7-2768ea9f488b"},"vehicle_type_id":"4","last_reported":1710713187,"current_range_meters":3600,"station_id":"ce4bh012rcd13ifvqcv0","pricing_plan_id":"cebpf4jnsgd1na2vs0mg"},{"bike_id":"5ab67605-9a66-42cf-ad57-b13a778a45b7","system_id":"levelo_inurba_marseille","lat":43.30891,"lon":5.396602,"is_reserved":false,"is_disabled":false,"rental_uris":{"android":"levelo://app?vid=5ab67605-9a66-42cf-ad57-b13a778a45b7","ios":"levelo://app?vid=5ab67605-9a66-42cf-ad57-b13a778a45b7"},"vehicle_type_id":"4","last_reported":1710713187,"current_range_meters":21200,"station_id":"ce4bh012rcd13ifvqcv0","pricing_plan_id":"cebpf4jnsgd1na2vs0mg"},{"bike_id":"031c06d1-ceff-40ad-883c-b5351d0e810c","system_id":"levelo_inurba_marseille","lat":43.30892,"lon":5.39662,"is_reserved":false,"is_disabled":false,"rental_uris":{"android":"levelo://app?vid=031c06d1-ceff-40ad-883c-b5351d0e810c","ios":"levelo://app?vid=031c06d1-ceff-40ad-883c-b5351d0e810c"},"vehicle_type_id":"4","last_reported":1710713187,"current_range_meters":1600,"station_id":"ce4bh012rcd13ifvqcv0","pricing_plan_id":"cebpf4jnsgd1na2vs0mg"},{"bike_id":"b4f1a17c-3518-4176-8f97-579176ac5c7b","system_id":"levelo_inurba_marseille","lat":43.29538,"lon":5.38545,"is_reserved":false,"is_disabled":false,"rental_uris":{"android":"levelo://app?vid=b4f1a17c-3518-4176-8f97-579176ac5c7b","ios":"levelo://app?vid=b4f1a17c-3518-4176-8f97-579176ac5c7b"},