{"last_updated":1706040465,"ttl":30,"version":"2.2","data":{"bikes":[{"bike_id":"c2ed9c0d-b07c-45ec-bdf2-16d882e57614","system_id":"levelo_inurba_marseille","lat":43.313391,"lon":5.36706,"is_reserved":false,"is_disabled":false,"rental_uris":{"android":"levelo://app?vid=c2ed9c0d-b07c-45ec-bdf2-16d882e57614","ios":"levelo://app?vid=c2ed9c0d-b07c-45ec-bdf2-16d882e57614"},"vehicle_type_id":"4","last_reported":1706040465,"current_range_meters":12000,"station_id":"ce4bgr92rcd13ifvqc6g","pricing_plan_id":"free"},{"bike_id":"0527477d-871a-47e8-abfb-bfdacd1c6d00","system_id":"levelo_inurba_marseille","lat":43.312239,"lon":5.368562,"is_reserved":false,"is_disabled":false,"rental_uris":{"android":"levelo://app?vid=0527477d-871a-47e8-abfb-bfdacd1c6d00","ios":"levelo://app?vid=0527477d-871a-47e8-abfb-bfdacd1c6d00"},"vehicle_type_id":"4","last_reported":1706040465,"current_range_meters":12000,"station_id":"ce4bgl92rcd13ifvqbq0","pricing_plan_id":"free"},{"bike_id":"38f91f47-3939-4a72-8f7a-4c5adc5fa5a9","system_id":"levelo_inurba_marseille","lat":43.31226,"lon":5.36861,"is_reserved":false,"is_disabled":false,"rental_uris":{"android":"levelo://app?vid=38f91f47-3939-4a72-8f7a-4c5adc5fa5a9","ios":"levelo://app?vid=38f91f47-3939-4a72-8f7a-4c5adc5fa5a9"},"vehicle_type_id":"4","last_reported":1706040465,"current_range_meters":3600,"station_id":"ce4bgl92rcd13ifvqbq0","pricing_plan_id":"free"},{"bike_id":"003f0808-f550-4ce1-be44-be7f192412e4","system_id":"levelo_inurba_marseille","lat":43.314811,"lon":5.373103,"is_reserved":false,"is_disabled":false,"rental_uris":{"android":"levelo://app?vid=003f0808-f550-4ce1-be44-be7f192412e4","ios":"levelo://app?vid=003f0808-f550-4ce1-be44-be7f192412e4"},"vehicle_type_id":"4","last_reported":1706040465,"current_range_meters":11600,"station_id":"ce4bgt12rcd13ifvqcd0","pricing_plan_id":"free"},{"bike_id":"a3c37e8f-7ab5-44e6-acbd-825d58ed241c","system_id":"levelo_inurba_marseille","lat":43.314811,"lon":5.373103,"is_reserved":false,"is_disabled":false,"rental_uris":{"android":"levelo://app?vid=a3c37e8f-7ab5-44e6-acbd-825d58ed241c","ios":"levelo://app?vid=a3c37e8f-7ab5-44e6-acbd-825d58ed241c"},"vehicle_type_id":"4","last_reported":1706040465,"current_range_meters":25200,"station_id":"ce4bgt12rcd13ifvqcd0","pricing_plan_id":"free"},{"bike_id":"5a7e5407-1aea-4cab-82e3-d8be5338198f","system_id":"levelo_inurba_marseille","lat":43.306154,"lon":5.36676,"is_reserved":false,"is_disabled":false,"rental_uris":{"android":"levelo://app?vid=5a7e5407-1aea-4cab-82e3-d8be5338198f","ios":"levelo://app?vid=5a7e5407-1aea-4cab-82e3-d8be5338198f"},"vehicle_type_id":"4","last_reported":1706040465,"current_range_meters":0,"station_id":"","pricing_plan_id":"free"},{"bike_id":"04df9b81-480a-429b-98d9-7b6e39d920ff","system_id":"levelo_inurba_marseille","lat":43.311125,"lon":5.377624,"is_reserved":false,"is_disabled":false,"rental_uris":{"android":"levelo://app?vid=04df9b81-480a-429b-98d9-7b6e39d920ff","ios":"levelo://app?vid=04df9b81-480a-429b-98d9-7b6e39d920ff"},"vehicle_type_id":"4","last_reported":1706040465,"current_range_meters":5200,"station_id":"ce4bgt92rcd13ifvqcg0","pricing_plan_id":"free"},{"bike_id":"fc0878a1-ab9d-44e6-9dad-1c71d18e5fc0","system_id":"levelo_inurba_marseille","lat":43.311125,"lon":5.377624,"is_reserved":false,"is_disabled":false,"rental_uris":{"android":"levelo://app?vid=fc0878a1-ab9d-44e6-9dad-1c71d18e5fc0","ios":"levelo://app?vid=fc0878a1-ab9d-44e6-9dad-1c71d18e5fc0"},"vehicle_type_id":"4","last_reported":1706040465,"current_range_meters":6800,"station_id":"ce4bgt92rcd13ifvqcg0","pricing_plan_id":"free"},{"bike_id":"2ce72df8-c89e-4d8a-9459-de64119317a3","system_id":"levelo_inurba_marseille","lat":43.311125,"lon":5.377624,"is_reserved":false,"is_disabled":false,"rental_uris":{"android":"levelo://app?vid=2ce72df8-c89e-4d8a-9459-de64119317a3","ios":"levelo://app?vid=2ce72df8-c89e-4d8a-9459-de64119317a3"},"vehicle_type_id":"4","last_reported":1706040465,"current_range_meters":14000,"station_id":"ce4bgt92rcd13ifvqcg0","pricing_plan_id":"free"},{"bike_id":"d7854f2c-e25b-4567-9ca1-100b79dde627","system_id":"levelo_inurba_marseille","lat":43.31713,"lon":5.37692,"is_reserved":false,"is_disabled":false,"rental_uris":{"android":"levelo://app?vid=d7854f2c-e25b-4567-9ca1-100b79dde627","ios":"levelo://app?vid=d7854f2c-e25b-4567-9ca1-100b79dde627"},"vehicle_type_id":"4","last_reported":1706040465,"current_range_meters":13200,"station_id":"ce4bgth2rcd13ifvqch0","pricing_plan_id":"free"},{"bike_id":"c00ff8ea-cdbf-46f4-9a5c-b2abe4228fde","system_id":"levelo_inurba_marseille","lat":43.307945,"lon":5.376487,"is_reserved":false,"is_disabled":false,"rental_uris":{"android":"levelo://app?vid=c00ff8ea-cdbf-46f4-9a5c-b2abe4228fde","ios":"levelo://app?vid=c00ff8ea-cdbf-46f4-9a5c-b2abe4228fde"},"vehicle_type_id":"4","last_reported":1706040465,"current_range_meters":8400,"station_id":"ce4bgv92rcd13ifvqcq0","pricing_plan_id":"free"},{"bike_id":"9b5e78cd-6acc-418b-a884-3744c0e0bf9b","system_id":"levelo_inurba_marseille","lat":43.301939,"lon":5.366286,"is_reserved":false,"is_disabled":false,"rental_uris":{"android":"levelo://app?vid=9b5e78cd-6acc-418b-a884-3744c0e0bf9b","ios":"levelo://app?vid=9b5e78cd-6acc-418b-a884-3744c0e0bf9b"},"vehicle_type_id":"4","last_reported":1706040465,"current_range_meters":24800,"station_id":"ce4bgrh2rcd13ifvqc8g","pricing_plan_id":"free"},{"bike_id":"4ab61cc9-1949-4ab5-bcf1-8f07c54632b5","system_id":"levelo_inurba_marseille","lat":43.310568,"lon":5.381598,"is_reserved":false,"is_disabled":false,"rental_uris":{"android":"levelo://app?vid=4ab61cc9-1949-4ab5-bcf1-8f07c54632b5","ios":"levelo://app?vid=4ab61cc9-1949-4ab5-bcf1-8f07c54632b5"},"vehicle_type_id":"4","last_reported":1706040465,"current_range_meters":20400,"station_id":"","pricing_plan_id":"free"},{"bike_id":"026dd225-3632-43ad-82a0-cc07dee5f5f8","system_id":"levelo_inurba_marseille","lat":43.308012,"lon":5.381511,"is_reserved":false,"is_disabled":false,"rental_uris":{"android":"levelo://app?vid=026dd225-3632-43ad-82a0-cc07dee5f5f8","ios":"levelo://app?vid=026dd225-3632-43ad-82a0-cc07dee5f5f8"},"vehicle_type_id":"4","last_reported":1706040465,"current_range_meters":9600,"station_id":"ce4bgt12rcd13ifvqce0","pricing_plan_id":"free"},{"bike_id":"7eedcb35-c30c-4f22-8ac8-e8053092deb1","system_id":"levelo_inurba_marseille","lat":43.308012,"lon":5.381511,"is_reserved":false,"is_disabled":false,"rental_uris":{"android":"levelo://app?vid=7eedcb35-c30c-4f22-8ac8-e8053092deb1","ios":"levelo://app?vid=7eedcb35-c30c-4f22-8ac8-e8053092deb1"},"vehicle_type_id":"4","last_reported":1706040465,"current_range_meters":20800,"station_id":"ce4bgt12rcd13ifvqce0","pricing_plan_id":"free"},{"bike_id":"36e641fc-d7fd-4a47-bb58-3916906f9280","system_id":"levelo_inurba_marseille","lat":43.308012,"lon":5.381511,"is_reserved":false,"is_disabled":false,"rental_uris":{"android":"levelo://app?vid=36e641fc-d7fd-4a47-bb58-3916906f9280","ios":"levelo://app?vid=36e641fc-d7fd-4a47-bb58-3916906f9280"},"vehicle_type_id":"4","last_reported":1706040465,"current_range_meters":30000,"station_id":"ce4bgt12rcd13ifvqce0","pricing_plan_id":"free"},{"bike_id":"87adad9b-1fc8-4f7e-97de-ba3598268ab3","system_id":"levelo_inurba_marseille","lat":43.308012,"lon":5.381511,"is_reserved":false,"is_disabled":false,"rental_uris":{"android":"levelo://app?vid=87adad9b-1fc8-4f7e-97de-ba3598268ab3","ios":"levelo://app?vid=87adad9b-1fc8-4f7e-97de-ba3598268ab3"},"vehicle_type_id":"4","last_reported":1706040465,"current_range_meters":3200,"station_id":"ce4bgt12rcd13ifvqce0","pricing_plan_id":"free"},{"bike_id":"da54d21b-68ea-4673-8cc5-be1c6d17975d","system_id":"levelo_inurba_marseille","lat":43.308012,"lon":5.381511,"is_reserved":false,"is_disabled":false,"rental_uris":{"android":"levelo://app?vid=da54d21b-68ea-4673-8cc5-be1c6d17975d","ios":"levelo://app?vid=da54d21b-68ea-4673-8cc5-be1c6d17975d"},"vehicle_type_id":"4","last_reported":1706040465,"current_range_meters":24400,"station_id":"ce4bgt12rcd13ifvqce0","pricing_plan_id":"free"},{"bike_id":"dc9f4fe5-4cea-413b-bd7b-6c6d42be3b1c","system_id":"levelo_inurba_marseille","lat":43.308012,"lon":5.381511,"is_reserved":false,"is_disabled":false,"rental_uris":{"android":"levelo://app?vid=dc9f4fe5-4cea-413b-bd7b-6c6d42be3b1c","ios":"levelo://app?vid=dc9f4fe5-4cea-413b-bd7b-6c6d42be3b1c"},"vehicle_type_id":"4","last_reported":1706040465,"current_range_meters":11200,"station_id":"ce4bgt12rcd13ifvqce0","pricing_plan_id":"free"},{"bike_id":"70efb69f-8003-41e0-baf4-567f95b26cbc","system_id":"levelo_inurba_marseille","lat":43.308012,"lon":5.381511,"is_reserved":false,"is_disabled":false,"rental_uris":{"android":"levelo://app?vid=70efb69f-8003-41e0-baf4-567f95b26cbc","ios":"levelo://app?vid=70efb69f-8003-41e0-baf4-567f95b26cbc"},"vehicle_type_id":"4","last_reported":1706040465,"current_range_meters":20800,"station_id":"ce4bgt12rcd13ifvqce0","pricing_plan_id":"free"},{"bike_id":"a3600748-0193-46a4-b89c-161bdba45f4a","system_id":"levelo_inurba_marseille","lat":43.308012,"lon":5.381511,"is_reserved":false,"is_disabled":false,"rental_uris":{"android":"levelo://app?vid=a3600748-0193-46a4-b89c-161bdba45f4a","ios":"levelo://app?vid=a3600748-0193-46a4-b89c-161bdba45f4a"},"vehicle_type_id":"4","last_reported":1706040465,"current_range_meters":10800,"station_id":"ce4bgt12rcd13ifvqce0","pricing_plan_id":"free"},{"bike_id":"589fa8fa-6a13-46a4-9c7b-e2e09f792560","system_id":"levelo_inurba_marseille","lat":43.30455,"lon":5.37901,"is_reserved":false,"is_disabled":false,"rental_uris":{"android":"levelo://app?vid=589fa8fa-6a13-46a4-9c7b-e2e09f792560","ios":"levelo://app?vid=589fa8fa-6a13-46a4-9c7b-e2e09f792560"},"vehicle_type_id":"4","last_reported":1706040465,"current_range_meters":0,"station_id":"ce4bgup2rcd13ifvqcn0","pricing_plan_id":"free"},{"bike_id":"5eb89afe-c51f-4ff8-8e66-71558e6cd7e3","system_id":"levelo_inurba_marseille","lat":43.324771,"lon":5.36557,"is_reserved":false,"is_disabled":false,"rental_uris":{"android":"levelo://app?vid=5eb89afe-c51f-4ff8-8e66-71558e6cd7e3","ios":"levelo://app?vid=5eb89afe-c51f-4ff8-8e66-71558e6cd7e3"},"vehicle_type_id":"4","last_reported":1706040465,"current_range_meters":8000,"station_id":"ce4bhs12rcd13ifvqhvg","pricing_plan_id":"free"},{"bike_id":"e8864f13-cb02-44c6-88ab-ba5f258fe84f","system_id":"levelo_inurba_marseille","lat":43.324771,"lon":5.36557,"is_reserved":false,"is_disabled":false,"rental_uris":{"android":"levelo://app?vid=e8864f13-cb02-44c6-88ab-ba5f258fe84f","ios":"levelo://app?vid=e8864f13-cb02-44c6-88ab-ba5f258fe84f"},"vehicle_type_id":"4","last_reported":1706040465,"current_range_meters":21200,"station_id":"ce4bhs12rcd13ifvqhvg","pricing_plan_id":"free"},{"bike_id":"f4d43637-748a-42ca-b475-983a409d336b","system_id":"levelo_inurba_marseille","lat":43.324771,"lon":5.36557,"is_reserved":false,"is_disabled":false,"rental_uris":{"android":"levelo://app?vid=f4d43637-748a-42ca-b475-983a409d336b","ios":"levelo://app?vid=f4d43637-748a-42ca-b475-983a409d336b"},"vehicle_type_id":"4","last_reported":1706040465,"current_range_meters":16800,"station_id":"ce4bhs12rcd13ifvqhvg","pricing_plan_id":"free"},{"bike_id":"dc49a2bc-c54f-43f8-bdaf-bfb9096d0275","system_id":"levelo_inurba_marseille","lat":43.319911,"lon":5.381438,"is_reserved":false,"is_disabled":false,"rental_uris":{"android":"levelo://app?vid=dc49a2bc-c54f-43f8-bdaf-bfb9096d0275","ios":"levelo://app?vid=dc49a2bc-c54f-43f8-bdaf-bfb9096d0275"},"vehicle_type_id":"4","last_reported":1706040465,"current_range_meters":6400,"station_id":"ce4bhr12rcd13ifvqhpg","pricing_plan_id":"free"},{"bike_id":"db5640b8-520d-4779-8ec1-4a4bc253b2f8","system_id":"levelo_inurba_marseille","lat":43.319935,"lon":5.381699,"is_reserved":false,"is_disabled":false,"rental_uris":{"android":"levelo://app?vid=db5640b8-520d-4779-8ec1-4a4bc253b2f8","ios":"levelo://app?vid=db5640b8-520d-4779-8ec1-4a4bc253b2f8"},"vehicle_type_id":"4","last_reported":1706040465,"current_range_meters":9600,"station_id":"ce4bhr12rcd13ifvqhpg","pricing_plan_id":"free"},{"bike_id":"3ce3e68d-0313-40cb-afa9-858c717ce4c9","system_id":"levelo_inurba_marseille","lat":43.319935,"lon":5.381699,"is_reserved":false,"is_disabled":false,"rental_uris":{"android":"levelo://app?vid=3ce3e68d-0313-40cb-afa9-858c717ce4c9","ios":"levelo://app?vid=3ce3e68d-0313-40cb-afa9-858c717ce4c9"},"vehicle_type_id":"4","last_reported":1706040465,"current_range_meters":22400,"station_id":"ce4bhr12rcd13ifvqhpg","pricing_plan_id":"free"},{"bike_id":"00646b3f-5cf3-4e84-bfb8-47e4dcf2da8c","system_id":"levelo_inurba_marseille","lat":43.319935,"lon":5.381699,"is_reserved":false,"is_disabled":false,"rental_uris":{"android":"levelo://app?vid=00646b3f-5cf3-4e84-bfb8-47e4dcf2da8c","ios":"levelo://app?vid=00646b3f-5cf3-4e84-bfb8-47e4dcf2da8c"},"vehicle_type_id":"4","last_reported":1706040465,"current_range_meters":4000,"station_id":"ce4bhr12rcd13ifvqhpg","pricing_plan_id":"free"},{"bike_id":"fd388e30-6c90-4fbf-abdf-dd15ef425659","system_id":"levelo_inurba_marseille","lat":43.319967,"lon":5.381565,"is_reserved":false,"is_disabled":false,"rental_uris":{"android":"levelo://app?vid=fd388e30-6c90-4fbf-abdf-dd15ef425659","ios":"levelo://app?vid=fd388e30-6c90-4fbf-abdf-dd15ef425659"},"vehicle_type_id":"4","last_reported":1706040465,"current_range_meters":20800,"station_id":"ce4bhr12rcd13ifvqhpg","pricing_plan_id":"free"},{"bike_id":"4c2d4969-44b3-4b99-ac08-166dc554d101","system_id":"levelo_inurba_marseille","lat":43.319935,"lon":5.381699,"is_reserved":false,"is_disabled":false,"rental_uris":{"android":"levelo://app?vid=4c2d4969-44b3-4b99-ac08-166dc554d101","ios":"levelo://app?vid=4c2d4969-44b3-4b99-ac08-166dc554d101"},"vehicle_type_id":"4","last_reported":1706040465,"current_range_meters":2800,"station_id":"ce4bhr12rcd13ifvqhpg","pricing_plan_id":"free"},{"bike_id":"cc49fb07-820d-4047-984c-6077647af278","system_id":"levelo_inurba_marseille","lat":43.319935,"lon":5.381699,"is_reserved":false,"is_disabled":false,"rental_uris":{"android":"levelo://app?vid=cc49fb07-820d-4047-984c-6077647af278","ios":"levelo://app?vid=cc49fb07-820d-4047-984c-6077647af278"},"vehicle_type_id":"4","last_reported":1706040465,"current_range_meters":22000,"station_id":"ce4bhr12rcd13ifvqhpg","pricing_plan_id":"free"},{"bike_id":"88483b5e-a393-4bfe-9800-1971f45b7e52","system_id":"levelo_inurba_marseille","lat":43.319935,"lon":5.381699,"is_reserved":false,"is_disabled":false,"rental_uris":{"android":"levelo://app?vid=88483b5e-a393-4bfe-9800-1971f45b7e52","ios":"levelo://app?vid=88483b5e-a393-4bfe-9800-1971f45b7e52"},"vehicle_type_id":"4","last_reported":1706040465,"current_range_meters":19600,"station_id":"ce4bhr12rcd13ifvqhpg","pricing_plan_id":"free"},{"bike_id":"26473e6c-6aa5-4477-be16-b83b681d1fa5","system_id":"levelo_inurba_marseille","lat":43.319935,"lon":5.381699,"is_reserved":false,"is_disabled":false,"rental_uris":{"android":"levelo://app?vid=26473e6c-6aa5-4477-be16-b83b681d1fa5","ios":"levelo://app?vid=26473e6c-6aa5-4477-be16-b83b681d1fa5"},"vehicle_type_id":"4","last_reported":1706040465,"current_range_meters":17600,"station_id":"ce4bhr12rcd13ifvqhpg","pricing_plan_id":"free"},{"bike_id":"d87078bd-be56-40a8-a9a5-b622c33fa043","system_id":"levelo_inurba_marseille","lat":43.313571,"lon":5.384829,"is_reserved":false,"is_disabled":false,"rental_uris":{"android":"levelo://app?vid=d87078bd-be56-40a8-a9a5-b622c33fa043","ios":"levelo://app?vid=d87078bd-be56-40a8-a9a5-b622c33fa043"},"vehicle_type_id":"4","last_reported":1706040465,"current_range_meters":10000,"station_id":"ce4bgt92rcd13ifvqcf0","pricing_plan_id":"free"},{"bike_id":"2ae1bec3-a79b-4c20-beee-12484a244334","system_id":"levelo_inurba_marseille","lat":43.313571,"lon":5.384829,"is_reserved":false,"is_disabled":false,"rental_uris":{"android":"levelo://app?vid=2ae1bec3-a79b-4c20-beee-12484a244334","ios":"levelo://app?vid=2ae1bec3-a79b-4c20-beee-12484a244334"},"vehicle_type_id":"4","last_reported":1706040465,"current_range_meters":6400,"station_id":"ce4bgt92rcd13ifvqcf0","pricing_plan_id":"free"},{"bike_id":"b50399c3-1af2-47ab-b44a-262d7c001484","system_id":"levelo_inurba_marseille","lat":43.313571,"lon":5.384829,"is_reserved":false,"is_disabled":false,"rental_uris":{"android":"levelo://app?vid=b50399c3-1af2-47ab-b44a-262d7c001484","ios":"levelo://app?vid=b50399c3-1af2-47ab-b44a-262d7c001484"},"vehicle_type_id":"4","last_reported":1706040465,"current_range_meters":5200,"station_id":"ce4bgt92rcd13ifvqcf0","pricing_plan_id":"free"},{"bike_id":"9186a8af-d83c-43ee-b333-fa0e3abc90b4","system_id":"levelo_inurba_marseille","lat":43.313571,"lon":5.384829,"is_reserved":false,"is_disabled":false,"rental_uris":{"android":"levelo://app?vid=9186a8af-d83c-43ee-b333-fa0e3abc90b4","ios":"levelo://app?vid=9186a8af-d83c-43ee-b333-fa0e3abc90b4"},"vehicle_type_id":"4","last_reported":1706040465,"current_range_meters":6800,"station_id":"ce4bgt92rcd13ifvqcf0","pricing_plan_id":"free"},{"bike_id":"491b487f-a0ac-4eb3-8964-d75faf8ee422","system_id":"levelo_inurba_marseille","lat":43.313571,"lon":5.384829,"is_reserved":false,"is_disabled":false,"rental_uris":{"android":"levelo://app?vid=491b487f-a0ac-4eb3-8964-d75faf8ee422","ios":"levelo://app?vid=491b487f-a0ac-4eb3-8964-d75faf8ee422"},"vehicle_type_id":"4","last_reported":1706040465,"current_range_meters":20000,"station_id":"ce4bgt92rcd13ifvqcf0","pricing_plan_id":"free"},{"bike_id":"96b8e3c9-9066-4bc1-979d-6d2d67bf219b","system_id":"levelo_inurba_marseille","lat":43.313571,"lon":5.384829,"is_reserved":false,"is_disabled":false,"rental_uris":{"android":"levelo://app?vid=96b8e3c9-9066-4bc1-979d-6d2d67bf219b","ios":"levelo://app?vid=96b8e3c9-9066-4bc1-979d-6d2d67bf219b"},"vehicle_type_id":"4","last_reported":1706040465,"current_range_meters":26400,"station_id":"ce4bgt92rcd13ifvqcf0","pricing_plan_id":"free"},{"bike_id":"35982c45-77a1-4628-8f1a-6c09a93aaa22","system_id":"levelo_inurba_marseille","lat":43.313571,"lon":5.384829,"is_reserved":false,"is_disabled":false,"rental_uris":{"android":"levelo://app?vid=35982c45-77a1-4628-8f1a-6c09a93aaa22","ios":"levelo://app?vid=35982c45-77a1-4628-8f1a-6c09a93aaa22"},"vehicle_type_id":"4","last_reported":1706040465,"current_range_meters":22800,"station_id":"ce4bgt92rcd13ifvqcf0","pricing_plan_id":"free"},{"bike_id":"a39cfb70-5717-4ecb-bf2d-a36c3cafa75b","system_id":"levelo_inurba_marseille","lat":43.31364,"lon":5.38495,"is_reserved":false,"is_disabled":false,"rental_uris":{"android":"levelo://app?vid=a39cfb70-5717-4ecb-bf2d-a36c3cafa75b","ios":"levelo://app?vid=a39cfb70-5717-4ecb-bf2d-a36c3cafa75b"},"vehicle_type_id":"4","last_reported":1706040465,"current_range_meters":11600,"station_id":"ce4bgt92rcd13ifvqcf0","pricing_plan_id":"free"},{"bike_id":"8a638abf-daa0-48f0-badb-d7723266567b","system_id":"levelo_inurba_marseille","lat":43.313571,"lon":5.384829,"is_reserved":false,"is_disabled":false,"rental_uris":{"android":"levelo://app?vid=8a638abf-daa0-48f0-badb-d7723266567b","ios":"levelo://app?vid=8a638abf-daa0-48f0-badb-d7723266567b"},"vehicle_type_id":"4","last_reported":1706040465,"current_range_meters":21600,"station_id":"ce4bgt92rcd13ifvqcf0","pricing_plan_id":"free"},{"bike_id":"112ebb17-85eb-4c66-a1cb-752d5f767624","system_id":"levelo_inurba_marseille","lat":43.299209,"lon":5.365547,"is_reserved":false,"is_disabled":false,"rental_uris":{"android":"levelo://app?vid=112ebb17-85eb-4c66-a1cb-752d5f767624","ios":"levelo://app?vid=112ebb17-85eb-4c66-a1cb-752d5f767624"},"vehicle_type_id":"4","last_reported":1706040465,"current_range_meters":21600,"station_id":"ce4bgm92rcd13ifvqbr0","pricing_plan_id":"free"},{"bike_id":"783d9957-995c-40c4-8307-4ae2716bad23","system_id":"levelo_inurba_marseille","lat":43.305364,"lon":5.384119,"is_reserved":false,"is_disabled":false,"rental_uris":{"android":"levelo://app?vid=783d9957-995c-40c4-8307-4ae2716bad23","ios":"levelo://app?vid=783d9957-995c-40c4-8307-4ae2716bad23"},"vehicle_type_id":"4","last_reported":1706040465,"current_range_meters":800,"station_id":"ce4bgg92rcd13ifvqb30","pricing_plan_id":"free"},{"bike_id":"58cbbd29-23e5-4193-b829-84f952967ad5","system_id":"levelo_inurba_marseille","lat":43.299243,"lon":5.374807,"is_reserved":false,"is_disabled":false,"rental_uris":{"android":"levelo://app?vid=58cbbd29-23e5-4193-b829-84f952967ad5","ios":"levelo://app?vid=58cbbd29-23e5-4193-b829-84f952967ad5"},"vehicle_type_id":"4","last_reported":1706040465,"current_range_meters":12800,"station_id":"ce4bgjh2rcd13ifvqbg0","pricing_plan_id":"free"},{"bike_id":"82111cc0-128e-43cb-a4c3-c0a66daa394d","system_id":"levelo_inurba_marseille","lat":43.311722,"lon":5.387247,"is_reserved":false,"is_disabled":false,"rental_uris":{"android":"levelo://app?vid=82111cc0-128e-43cb-a4c3-c0a66daa394d","ios":"levelo://app?vid=82111cc0-128e-43cb-a4c3-c0a66daa394d"},"vehicle_type_id":"4","last_reported":1706040465,"current_range_meters":23200,"station_id":"ce4bgv12rcd13ifvqcp0","pricing_plan_id":"free"},{"bike_id":"07c29876-739f-4ec2-bafc-0b07f946b993","system_id":"levelo_inurba_marseille","lat":43.311722,"lon":5.387247,"is_reserved":false,"is_disabled":false,"rental_uris":{"android":"levelo://app?vid=07c29876-739f-4ec2-bafc-0b07f946b993","ios":"levelo://app?vid=07c29876-739f-4ec2-bafc-0b07f946b993"},"vehicle_type_id":"4","last_reported":1706040465,"current_range_meters":0,"station_id":"ce4bgv12rcd13ifvqcp0","pricing_plan_id":"free"},{"bike_id":"47e14d49-b774-47c3-a96e-de2ce1c0f7bb","system_id":"levelo_inurba_marseille","lat":43.311722,"lon":5.387247,"is_reserved":false,"is_disabled":false,"rental_uris":{"android":"levelo://app?vid=47e14d49-b774-47c3-a96e-de2ce1c0f7bb","ios":"levelo://app?vid=47e14d49-b774-47c3-a96e-de2ce1c0f7bb"},"vehicle_type_id":"4","last_reported":1706040465,"current_range_meters":21200,"station_id":"ce4bgv12rcd13ifvqcp0","pricing_plan_id":"free"},{"bike_id":"6f139cd9-98ee-41d5-b33a-193bef3f2abc","system_id":"levelo_inurba_marseille","lat":43.299243,"lon":5.374807,"is_reserved":false,"is_disabled":false,"rental_uris":{"android":"levelo://app?vid=6f139cd9-98ee-41d5-b33a-193bef3f2abc","ios":"levelo://app?vid=6f139cd9-98ee-41d5-b33a-193bef3f2abc"},"vehicle_type_id":"4","last_reported":1706040465,"current_range_meters":10400,"station_id":"ce4bgjh2rcd13ifvqbg0","pricing_plan_id":"free"},{"bike_id":"a5eab93a-98fb-47fc-9252-cb341c71bc75","system_id":"levelo_inurba_marseille","lat":43.29788,"lon":5.37114,"is_reserved":false,"is_disabled":false,"rental_uris":{"android":"levelo://app?vid=a5eab93a-98fb-47fc-9252-cb341c71bc75","ios":"levelo://app?vid=a5eab93a-98fb-47fc-9252-cb341c71bc75"},"vehicle_type_id":"4","last_reported":1706040465,"current_range_meters":0,"station_id":"ce4bgop2rcd13ifvqc1g","pricing_plan_id":"free"},{"bike_id":"171d2d26-404a-4d95-bf44-3dcfca9fe8aa","system_id":"levelo_inurba_marseille","lat":43.322872,"lon":5.382756,"is_reserved":false,"is_disabled":false,"rental_uris":{"android":"levelo://app?vid=171d2d26-404a-4d95-bf44-3dcfca9fe8aa","ios":"levelo://app?vid=171d2d26-404a-4d95-bf44-3dcfca9fe8aa"},"vehicle_type_id":"4","last_reported":1706040465,"current_range_meters":21600,"station_id":"ce4bhr12rcd13ifvqhqg","pricing_plan_id":"free"},{"bike_id":"89789d60-57f9-4669-bae1-bd74942c359c","system_id":"levelo_inurba_marseille","lat":43.322872,"lon":5.382756,"is_reserved":false,"is_disabled":false,"rental_uris":{"android":"levelo://app?vid=89789d60-57f9-4669-bae1-bd74942c359c","ios":"levelo://app?vid=89789d60-57f9-4669-bae1-bd74942c359c"},"vehicle_type_id":"4","last_reported":1706040465,"current_range_meters":17600,"station_id":"ce4bhr12rcd13ifvqhqg","pricing_plan_id":"free"},{"bike_id":"455aa212-be06-4400-9478-d2f1e827f201","system_id":"levelo_inurba_marseille","lat":43.322872,"lon":5.382756,"is_reserved":false,"is_disabled":false,"rental_uris":{"android":"levelo://app?vid=455aa212-be06-4400-9478-d2f1e827f201","ios":"levelo://app?vid=455aa212-be06-4400-9478-d2f1e827f201"},"vehicle_type_id":"4","last_reported":1706040465,"current_range_meters":22000,"station_id":"ce4bhr12rcd13ifvqhqg","pricing_plan_id":"free"},{"bike_id":"e654f202-6c69-4242-8f59-efc7b661b26a","system_id":"levelo_inurba_marseille","lat":43.322872,"lon":5.382756,"is_reserved":false,"is_disabled":false,"rental_uris":{"android":"levelo://app?vid=e654f202-6c69-4242-8f59-efc7b661b26a","ios":"levelo://app?vid=e654f202-6c69-4242-8f59-efc7b661b26a"},"vehicle_type_id":"4","last_reported":1706040465,"current_range_meters":23600,"station_id":"ce4bhr12rcd13ifvqhqg","pricing_plan_id":"free"},{"bike_id":"73755ba0-1381-4d5d-8750-d3a07d3f4c75","system_id":"levelo_inurba_marseille","lat":43.32824,"lon":5.36679,"is_reserved":false,"is_disabled":false,"rental_uris":{"android":"levelo://app?vid=73755ba0-1381-4d5d-8750-d3a07d3f4c75","ios":"levelo://app?vid=73755ba0-1381-4d5d-8750-d3a07d3f4c75"},"vehicle_type_id":"4","last_reported":1706040465,"current_range_meters":9600,"station_id":"ce4bhs92rcd13ifvqi0g","pricing_plan_id":"free"},{"bike_id":"447532c0-56ca-46ac-9000-fea47d81b433","system_id":"levelo_inurba_marseille","lat":43.328256,"lon":5.366779,"is_reserved":false,"is_disabled":false,"rental_uris":{"android":"levelo://app?vid=447532c0-56ca-46ac-9000-fea47d81b433","ios":"levelo://app?vid=447532c0-56ca-46ac-9000-fea47d81b433"},"vehicle_type_id":"4","last_reported":1706040465,"current_range_meters":26000,"station_id":"ce4bhs92rcd13ifvqi0g","pricing_plan_id":"free"},{"bike_id":"6da9db5a-42ba-4fa8-afc9-4fdbb45498c1","system_id":"levelo_inurba_marseille","lat":43.328259,"lon":5.366784,"is_reserved":false,"is_disabled":false,"rental_uris":{"android":"levelo://app?vid=6da9db5a-42ba-4fa8-afc9-4fdbb45498c1","ios":"levelo://app?vid=6da9db5a-42ba-4fa8-afc9-4fdbb45498c1"},"vehicle_type_id":"4","last_reported":1706040465,"current_range_meters":18000,"station_id":"ce4bhs92rcd13ifvqi0g","pricing_plan_id":"free"},{"bike_id":"572c30ca-2698-4ebb-9720-28d9ee8291d9","system_id":"levelo_inurba_marseille","lat":43.328261,"lon":5.366856,"is_reserved":false,"is_disabled":false,"rental_uris":{"android":"levelo://app?vid=572c30ca-2698-4ebb-9720-28d9ee8291d9","ios":"levelo://app?vid=572c30ca-2698-4ebb-9720-28d9ee8291d9"},"vehicle_type_id":"4","last_reported":1706040465,"current_range_meters":18000,"station_id":"ce4bhs92rcd13ifvqi0g","pricing_plan_id":"free"},{"bike_id":"ea0178f3-2c6b-4af6-b062-91b0b8dde1df","system_id":"levelo_inurba_marseille","lat":43.32827,"lon":5.366873,"is_reserved":false,"is_disabled":false,"rental_uris":{"android":"levelo://app?vid=ea0178f3-2c6b-4af6-b062-91b0b8dde1df","ios":"levelo://app?vid=ea0178f3-2c6b-4af6-b062-91b0b8dde1df"},"vehicle_type_id":"4","last_reported":1706040465,"current_range_meters":8800,"station_id":"ce4bhs92rcd13ifvqi0g","pricing_plan_id":"free"},{"bike_id":"32a039db-eef1-4a0a-8c6a-17ab6d5d4eda","system_id":"levelo_inurba_marseille","lat":43.32827,"lon":5.36683,"is_reserved":false,"is_disabled":false,"rental_uris":{"android":"levelo://app?vid=32a039db-eef1-4a0a-8c6a-17ab6d5d4eda","ios":"levelo://app?vid=32a039db-eef1-4a0a-8c6a-17ab6d5d4eda"},"vehicle_type_id":"4","last_reported":1706040465,"current_range_meters":4400,"station_id":"ce4bhs92rcd13ifvqi0g","pricing_plan_id":"free"},{"bike_id":"f529af8b-6eb5-4dad-b929-2be8fdbdd47b","system_id":"levelo_inurba_marseille","lat":43.328371,"lon":5.366909,"is_reserved":false,"is_disabled":false,"rental_uris":{"android":"levelo://app?vid=f529af8b-6eb5-4dad-b929-2be8fdbdd47b","ios":"levelo://app?vid=f529af8b-6eb5-4dad-b929-2be8fdbdd47b"},"vehicle_type_id":"4","last_reported":1706040465,"current_range_meters":29600,"station_id":"ce4bhs92rcd13ifvqi0g","pricing_plan_id":"free"},{"bike_id":"6721428b-c74b-45c6-886b-c2d04f1acc8c","system_id":"levelo_inurba_marseille","lat":43.328276,"lon":5.3669,"is_reserved":false,"is_disabled":false,"rental_uris":{"android":"levelo://app?vid=6721428b-c74b-45c6-886b-c2d04f1acc8c","ios":"levelo://app?vid=6721428b-c74b-45c6-886b-c2d04f1acc8c"},"vehicle_type_id":"4","last_reported":1706040465,"current_range_meters":13200,"station_id":"ce4bhs92rcd13ifvqi0g","pricing_plan_id":"free"},{"bike_id":"6851d2e7-d28c-47d0-964c-c2c15e7e3afe","system_id":"levelo_inurba_marseille","lat":43.328371,"lon":5.366909,"is_reserved":false,"is_disabled":false,"rental_uris":{"android":"levelo://app?vid=6851d2e7-d28c-47d0-964c-c2c15e7e3afe","ios":"levelo://app?vid=6851d2e7-d28c-47d0-964c-c2c15e7e3afe"},"vehicle_type_id":"4","last_reported":1706040465,"current_range_meters":4400,"station_id":"ce4bhs92rcd13ifvqi0g","pricing_plan_id":"free"},{"bike_id":"38d4b3c6-c1c4-4ada-b0ed-8e6826ac2770","system_id":"levelo_inurba_marseille","lat":43.328371,"lon":5.366912,"is_reserved":false,"is_disabled":false,"rental_uris":{"android":"levelo://app?vid=38d4b3c6-c1c4-4ada-b0ed-8e6826ac2770","ios":"levelo://app?vid=38d4b3c6-c1c4-4ada-b0ed-8e6826ac2770"},"vehicle_type_id":"4","last_reported":1706040465,"current_range_meters":16800,"station_id":"ce4bhs92rcd13ifvqi0g","pricing_plan_id":"free"},{"bike_id":"85cedcff-9e9a-415d-8415-195178ea3cb7","system_id":"levelo_inurba_marseille","lat":43.328288,"lon":5.366744,"is_reserved":false,"is_disabled":false,"rental_uris":{"android":"levelo://app?vid=85cedcff-9e9a-415d-8415-195178ea3cb7","ios":"levelo://app?vid=85cedcff-9e9a-415d-8415-195178ea3cb7"},"vehicle_type_id":"4","last_reported":1706040465,"current_range_meters":11200,"station_id":"ce4bhs92rcd13ifvqi0g","pricing_plan_id":"free"},{"bike_id":"e92d083a-dfb9-464f-a2d7-ffc480709cb3","system_id":"levelo_inurba_marseille","lat":43.328371,"lon":5.366912,"is_reserved":false,"is_disabled":false,"rental_uris":{"android":"levelo://app?vid=e92d083a-dfb9-464f-a2d7-ffc480709cb3","ios":"levelo://app?vid=e92d083a-dfb9-464f-a2d7-ffc480709cb3"},"vehicle_type_id":"4","last_reported":1706040465,"current_range_meters":12800,"station_id":"ce4bhs92rcd13ifvqi0g","pricing_plan_id":"free"},{"bike_id":"d8b5260c-205c-4300-9784-22ead2fde86f","system_id":"levelo_inurba_marseille","lat":43.328371,"lon":5.366909,"is_reserved":false,"is_disabled":false,"rental_uris":{"android":"levelo://app?vid=d8b5260c-205c-4300-9784-22ead2fde86f","ios":"levelo://app?vid=d8b5260c-205c-4300-9784-22ead2fde86f"},"vehicle_type_id":"4","last_reported":1706040465,"current_range_meters":18000,"station_id":"ce4bhs92rcd13ifvqi0g","pricing_plan_id":"free"},{"bike_id":"5b7aaccd-f0dd-4bc4-a5b7-1581df3aca1d","system_id":"levelo_inurba_marseille","lat":43.328371,"lon":5.366909,"is_reserved":false,"is_disabled":false,"rental_uris":{"android":"levelo://app?vid=5b7aaccd-f0dd-4bc4-a5b7-1581df3aca1d","ios":"levelo://app?vid=5b7aaccd-f0dd-4bc4-a5b7-1581df3aca1d"},"vehicle_type_id":"4","last_reported":1706040465,"current_range_meters":14400,"station_id":"ce4bhs92rcd13ifvqi0g","pricing_plan_id":"free"},{"bike_id":"8e2e258c-9f25-408c-8291-bf6e5ba33180","system_id":"levelo_inurba_marseille","lat":43.328371,"lon":5.366909,"is_reserved":false,"is_disabled":false,"rental_uris":{"android":"levelo://app?vid=8e2e258c-9f25-408c-8291-bf6e5ba33180","ios":"levelo://app?vid=8e2e258c-9f25-408c-8291-bf6e5ba33180"},"vehicle_type_id":"4","last_reported":1706040465,"current_range_meters":28400,"station_id":"ce4bhs92rcd13ifvqi0g","pricing_plan_id":"free"},{"bike_id":"fb5c81e7-2e43-4803-b381-527ab4102689","system_id":"levelo_inurba_marseille","lat":43.328371,"lon":5.366909,"is_reserved":false,"is_disabled":false,"rental_uris":{"android":"levelo://app?vid=fb5c81e7-2e43-4803-b381-527ab4102689","ios":"levelo://app?vid=fb5c81e7-2e43-4803-b381-527ab4102689"},"vehicle_type_id":"4","last_reported":1706040465,"current_range_meters":30800,"station_id":"ce4bhs92rcd13ifvqi0g","pricing_plan_id":"free"},{"bike_id":"204738f6-469d-4db3-bd14-c2b38ef5e726","system_id":"levelo_inurba_marseille","lat":43.328371,"lon":5.366912,"is_reserved":false,"is_disabled":false,"rental_uris":{"android":"levelo://app?vid=204738f6-469d-4db3-bd14-c2b38ef5e726","ios":"levelo://app?vid=204738f6-469d-4db3-bd14-c2b38ef5e726"},"vehicle_type_id":"4","last_reported":1706040465,"current_range_meters":23600,"station_id":"ce4bhs92rcd13ifvqi0g","pricing_plan_id":"free"},{"bike_id":"79d2d98a-29f2-4ffd-ae01-bfd8a1fa05d5","system_id":"levelo_inurba_marseille","lat":43.328371,"lon":5.366912,"is_reserved":false,"is_disabled":false,"rental_uris":{"android":"levelo://app?vid=79d2d98a-29f2-4ffd-ae01-bfd8a1fa05d5","ios":"levelo://app?vid=79d2d98a-29f2-4ffd-ae01-bfd8a1fa05d5"},"vehicle_type_id":"4","last_reported":1706040465,"current_range_meters":29600,"station_id":"ce4bhs92rcd13ifvqi0g","pricing_plan_id":"free"},{"bike_id":"ad32d1c0-0a4c-4152-8c29-fea173cfe935","system_id":"levelo_inurba_marseille","lat":43.295954,"lon":5.367932,"is_reserved":false,"is_disabled":false,"rental_uris":{"android":"levelo://app?vid=ad32d1c0-0a4c-4152-8c29-fea173cfe935","ios":"levelo://app?vid=ad32d1c0-0a4c-4152-8c29-fea173cfe935"},"vehicle_type_id":"4","last_reported":1706040465,"current_range_meters":17200,"station_id":"ce4bgph2rcd13ifvqc2g","pricing_plan_id":"free"},{"bike_id":"945b670e-8790-4ff4-ba21-77b9048e5ded","system_id":"levelo_inurba_marseille","lat":43.296131,"lon":5.370791,"is_reserved":false,"is_disabled":false,"rental_uris":{"android":"levelo://app?vid=945b670e-8790-4ff4-ba21-77b9048e5ded","ios":"levelo://app?vid=945b670e-8790-4ff4-ba21-77b9048e5ded"},"vehicle_type_id":"4","last_reported":1706040465,"current_range_meters":28400,"station_id":"ce4bgnh2rcd13ifvqc0g","pricing_plan_id":"free"},{"bike_id":"e3689707-ebc0-41d8-8284-cf3e01232ac9","system_id":"levelo_inurba_marseille","lat":43.29731,"lon":5.37685,"is_reserved":false,"is_disabled":false,"rental_uris":{"android":"levelo://app?vid=e3689707-ebc0-41d8-8284-cf3e01232ac9","ios":"levelo://app?vid=e3689707-ebc0-41d8-8284-cf3e01232ac9"},"vehicle_type_id":"4","last_reported":1706040465,"current_range_meters":0,"station_id":"ce4bgkh2rcd13ifvqbl0","pricing_plan_id":"free"},{"bike_id":"c47ba47a-8887-42fd-ac6f-ea27be25eabd","system_id":"levelo_inurba_marseille","lat":43.298037,"lon":5.381066,"is_reserved":false,"is_disabled":false,"rental_uris":{"android":"levelo://app?vid=c47ba47a-8887-42fd-ac6f-ea27be25eabd","ios":"levelo://app?vid=c47ba47a-8887-42fd-ac6f-ea27be25eabd"},"vehicle_type_id":"4","last_reported":1706040465,"current_range_meters":7200,"station_id":"ce4bgip2rcd13ifvqbb0","pricing_plan_id":"free"},{"bike_id":"89bd7d10-5b76-4eb7-a8bc-970f24da2b52","system_id":"levelo_inurba_marseille","lat":43.309589,"lon":5.390258,"is_reserved":false,"is_disabled":false,"rental_uris":{"android":"levelo://app?vid=89bd7d10-5b76-4eb7-a8bc-970f24da2b52","ios":"levelo://app?vid=89bd7d10-5b76-4eb7-a8bc-970f24da2b52"},"vehicle_type_id":"4","last_reported":1706040465,"current_range_meters":1600,"station_id":"ce4bgup2rcd13ifvqco0","pricing_plan_id":"free"},{"bike_id":"0b89f1ef-7e39-40da-b52c-537085a903f0","system_id":"levelo_inurba_marseille","lat":43.309589,"lon":5.390258,"is_reserved":false,"is_disabled":false,"rental_uris":{"android":"levelo://app?vid=0b89f1ef-7e39-40da-b52c-537085a903f0","ios":"levelo://app?vid=0b89f1ef-7e39-40da-b52c-537085a903f0"},"vehicle_type_id":"4","last_reported":1706040465,"current_range_meters":31200,"station_id":"ce4bgup2rcd13ifvqco0","pricing_plan_id":"free"},{"bike_id":"139ffc3e-663c-433e-b5fe-eb7f77c9a180","system_id":"levelo_inurba_marseille","lat":43.309589,"lon":5.390258,"is_reserved":false,"is_disabled":false,"rental_uris":{"android":"levelo://app?vid=139ffc3e-663c-433e-b5fe-eb7f77c9a180","ios":"levelo://app?vid=139ffc3e-663c-433e-b5fe-eb7f77c9a180"},"vehicle_type_id":"4","last_reported":1706040465,"current_range_meters":8000,"station_id":"ce4bgup2rcd13ifvqco0","pricing_plan_id":"free"},{"bike_id":"a8ee9d30-40b0-4853-b58c-0e424c6eee67","system_id":"levelo_inurba_marseille","lat":43.31756,"lon":5.39015,"is_reserved":false,"is_disabled":false,"rental_uris":{"android":"levelo://app?vid=a8ee9d30-40b0-4853-b58c-0e424c6eee67","ios":"levelo://app?vid=a8ee9d30-40b0-4853-b58c-0e424c6eee67"},"vehicle_type_id":"4","last_reported":1706040465,"current_range_meters":0,"station_id":"ce4bhqp2rcd13ifvqhng","pricing_plan_id":"free"},{"bike_id":"39f65fdc-6e2a-4b07-a04c-06ec503ae506","system_id":"levelo_inurba_marseille","lat":43.298037,"lon":5.381066,"is_reserved":false,"is_disabled":false,"rental_uris":{"android":"levelo://app?vid=39f65fdc-6e2a-4b07-a04c-06ec503ae506","ios":"levelo://app?vid=39f65fdc-6e2a-4b07-a04c-06ec503ae506"},"vehicle_type_id":"4","last_reported":1706040465,"current_range_meters":26000,"station_id":"ce4bgip2rcd13ifvqbb0","pricing_plan_id":"free"},{"bike_id":"cb61270b-1874-4608-b078-3f2984626b6c","system_id":"levelo_inurba_marseille","lat":43.304274,"lon":5.388873,"is_reserved":false,"is_disabled":false,"rental_uris":{"android":"levelo://app?vid=cb61270b-1874-4608-b078-3f2984626b6c","ios":"levelo://app?vid=cb61270b-1874-4608-b078-3f2984626b6c"},"vehicle_type_id":"4","last_reported":1706040465,"current_range_meters":0,"station_id":"ce4bgk12rcd13ifvqbi0","pricing_plan_id":"free"},{"bike_id":"5d35ea78-4f35-457b-b986-42e3553a7830","system_id":"levelo_inurba_marseille","lat":43.304278,"lon":5.388868,"is_reserved":false,"is_disabled":false,"rental_uris":{"android":"levelo://app?vid=5d35ea78-4f35-457b-b986-42e3553a7830","ios":"levelo://app?vid=5d35ea78-4f35-457b-b986-42e3553a7830"},"vehicle_type_id":"4","last_reported":1706040465,"current_range_meters":0,"station_id":"ce4bgk12rcd13ifvqbi0","pricing_plan_id":"free"},{"bike_id":"6c3381ec-3b61-4230-b596-a83a486a24ab","system_id":"levelo_inurba_marseille","lat":43.296277,"lon":5.377108,"is_reserved":false,"is_disabled":false,"rental_uris":{"android":"levelo://app?vid=6c3381ec-3b61-4230-b596-a83a486a24ab","ios":"levelo://app?vid=6c3381ec-3b61-4230-b596-a83a486a24ab"},"vehicle_type_id":"4","last_reported":1706040465,"current_range_meters":10000,"station_id":"ce4bgi92rcd13ifvqb90","pricing_plan_id":"free"},{"bike_id":"0445d1a9-e719-4b06-9390-673b6beb59ee","system_id":"levelo_inurba_marseille","lat":43.296277,"lon":5.377108,"is_reserved":false,"is_disabled":false,"rental_uris":{"android":"levelo://app?vid=0445d1a9-e719-4b06-9390-673b6beb59ee","ios":"levelo://app?vid=0445d1a9-e719-4b06-9390-673b6beb59ee"},"vehicle_type_id":"4","last_reported":1706040465,"current_range_meters":0,"station_id":"ce4bgi92rcd13ifvqb90","pricing_plan_id":"free"},{"bike_id":"38a1e8a4-fa1e-4cb9-9f11-50c0c02af014","system_id":"levelo_inurba_marseille","lat":43.298037,"lon":5.381066,"is_reserved":false,"is_disabled":false,"rental_uris":{"android":"levelo://app?vid=38a1e8a4-fa1e-4cb9-9f11-50c0c02af014","ios":"levelo://app?vid=38a1e8a4-fa1e-4cb9-9f11-50c0c02af014"},"vehicle_type_id":"4","last_reported":1706040465,"current_range_meters":19600,"station_id":"ce4bgip2rcd13ifvqbb0","pricing_plan_id":"free"},{"bike_id":"d16ae1b1-e357-4f92-83d5-2c9042cabefd","system_id":"levelo_inurba_marseille","lat":43.295279,"lon":5.375048,"is_reserved":false,"is_disabled":false,"rental_uris":{"android":"levelo://app?vid=d16ae1b1-e357-4f92-83d5-2c9042cabefd","ios":"levelo://app?vid=d16ae1b1-e357-4f92-83d5-2c9042cabefd"},"vehicle_type_id":"4","last_reported":1706040465,"current_range_meters":30000,"station_id":"ce4bgkp2rcd13ifvqbmg","pricing_plan_id":"free"},{"bike_id":"64313539-a8ac-46f3-9999-f136c9c5e68f","system_id":"levelo_inurba_marseille","lat":43.3237,"lon":5.38881,"is_reserved":false,"is_disabled":false,"rental_uris":{"android":"levelo://app?vid=64313539-a8ac-46f3-9999-f136c9c5e68f","ios":"levelo://app?vid=64313539-a8ac-46f3-9999-f136c9c5e68f"},"vehicle_type_id":"4","last_reported":1706040465,"current_range_meters":25200,"station_id":"ce4bhqp2rcd13ifvqhog","pricing_plan_id":"free"},{"bike_id":"b3ae146c-2436-4afb-b45a-3899af5aa2de","system_id":"levelo_inurba_marseille","lat":43.32367,"lon":5.388836,"is_reserved":false,"is_disabled":false,"rental_uris":{"android":"levelo://app?vid=b3ae146c-2436-4afb-b45a-3899af5aa2de","ios":"levelo://app?vid=b3ae146c-2436-4afb-b45a-3899af5aa2de"},"vehicle_type_id":"4","last_reported":1706040465,"current_range_meters":20800,"station_id":"ce4bhqp2rcd13ifvqhog","pricing_plan_id":"free"},{"bike_id":"67f5060f-c83b-46fd-a0be-e3fe3fd14d0f","system_id":"levelo_inurba_marseille","lat":43.292749,"lon":5.368402,"is_reserved":false,"is_disabled":false,"rental_uris":{"android":"levelo://app?vid=67f5060f-c83b-46fd-a0be-e3fe3fd14d0f","ios":"levelo://app?vid=67f5060f-c83b-46fd-a0be-e3fe3fd14d0f"},"vehicle_type_id":"4","last_reported":1706040465,"current_range_meters":28000,"station_id":"ce4bhbp2rcd13ifvqesg","pricing_plan_id":"free"},{"bike_id":"c715ead0-0fd2-44a2-9149-86a23a126bfc","system_id":"levelo_inurba_marseille","lat":43.292749,"lon":5.368402,"is_reserved":false,"is_disabled":false,"rental_uris":{"android":"levelo://app?vid=c715ead0-0fd2-44a2-9149-86a23a126bfc","ios":"levelo://app?vid=c715ead0-0fd2-44a2-9149-86a23a126bfc"},"vehicle_type_id":"4","last_reported":1706040465,"current_range_meters":18400,"station_id":"ce4bhbp2rcd13ifvqesg","pricing_plan_id":"free"},{"bike_id":"00d9cb6a-d3cc-431e-bab7-272d7690ca96","system_id":"levelo_inurba_marseille","lat":43.293259,"lon":5.371586,"is_reserved":false,"is_disabled":false,"rental_uris":{"android":"levelo://app?vid=00d9cb6a-d3cc-431e-bab7-272d7690ca96","ios":"levelo://app?vid=00d9cb6a-d3cc-431e-bab7-272d7690ca96"},"vehicle_type_id":"4","last_reported":1706040465,"current_range_meters":28400,"station_id":"ce4bgh92rcd13ifvqb40","pricing_plan_id":"free"},{"bike_id":"3aa7afa9-31c9-412e-b41c-5eb00ac6866d","system_id":"levelo_inurba_marseille","lat":43.30638,"lon":5.39301,"is_reserved":false,"is_disabled":false,"rental_uris":{"android":"levelo://app?vid=3aa7afa9-31c9-412e-b41c-5eb00ac6866d","ios":"levelo://app?vid=3aa7afa9-31c9-412e-b41c-5eb00ac6866d"},"vehicle_type_id":"4","last_reported":1706040465,"current_range_meters":22400,"station_id":"","pricing_plan_id":"free"},{"bike_id":"7ddb729d-8d48-480d-9def-90cbb6ed883f","system_id":"levelo_inurba_marseille","lat":43.292749,"lon":5.368402,"is_reserved":false,"is_disabled":false,"rental_uris":{"android":"levelo://app?vid=7ddb729d-8d48-480d-9def-90cbb6ed883f","ios":"levelo://app?vid=7ddb729d-8d48-480d-9def-90cbb6ed883f"},"vehicle_type_id":"4","last_reported":1706040465,"current_range_meters":2800,"station_id":"ce4bhbp2rcd13ifvqesg","pricing_plan_id":"free"},{"bike_id":"76289218-9439-43b2-a2a8-62149917f17d","system_id":"levelo_inurba_marseille","lat":43.292749,"lon":5.368402,"is_reserved":false,"is_disabled":false,"rental_uris":{"android":"levelo://app?vid=76289218-9439-43b2-a2a8-62149917f17d","ios":"levelo://app?vid=76289218-9439-43b2-a2a8-62149917f17d"},"vehicle_type_id":"4","last_reported":1706040465,"current_range_meters":8800,"station_id":"ce4bhbp2rcd13ifvqesg","pricing_plan_id":"free"},{"bike_id":"f9267e3e-e010-4c5d-be29-e0fb1e76912a","system_id":"levelo_inurba_marseille","lat":43.292749,"lon":5.368402,"is_reserved":false,"is_disabled":false,"rental_uris":{"android":"levelo://app?vid=f9267e3e-e010-4c5d-be29-e0fb1e76912a","ios":"levelo://app?vid=f9267e3e-e010-4c5d-be29-e0fb1e76912a"},"vehicle_type_id":"4","last_reported":1706040465,"current_range_meters":13600,"station_id":"ce4bhbp2rcd13ifvqesg","pricing_plan_id":"free"},{"bike_id":"aa2c6c35-a968-4dbc-8354-1a571f50afac","system_id":"levelo_inurba_marseille","lat":43.292749,"lon":5.368402,"is_reserved":false,"is_disabled":false,"rental_uris":{"android":"levelo://app?vid=aa2c6c35-a968-4dbc-8354-1a571f50afac","ios":"levelo://app?vid=aa2c6c35-a968-4dbc-8354-1a571f50afac"},"vehicle_type_id":"4","last_reported":1706040465,"current_range_meters":14000,"station_id":"ce4bhbp2rcd13ifvqesg","pricing_plan_id":"free"},{"bike_id":"36cfa10c-2e44-4b7b-94b5-03b52b9a9b82","system_id":"levelo_inurba_marseille","lat":43.292749,"lon":5.368402,"is_reserved":false,"is_disabled":false,"rental_uris":{"android":"levelo://app?vid=36cfa10c-2e44-4b7b-94b5-03b52b9a9b82","ios":"levelo://app?vid=36cfa10c-2e44-4b7b-94b5-03b52b9a9b82"},"vehicle_type_id":"4","last_reported":1706040465,"current_range_meters":16400,"station_id":"ce4bhbp2rcd13ifvqesg","pricing_plan_id":"free"},{"bike_id":"de1393c6-645a-4c09-88ee-219d55ff03a0","system_id":"levelo_inurba_marseille","lat":43.305994,"lon":5.393687,"is_reserved":false,"is_disabled":false,"rental_uris":{"android":"levelo://app?vid=de1393c6-645a-4c09-88ee-219d55ff03a0","ios":"levelo://app?vid=de1393c6-645a-4c09-88ee-219d55ff03a0"},"vehicle_type_id":"4","last_reported":1706040465,"current_range_meters":12400,"station_id":"ce4bh0p2rcd13ifvqd80","pricing_plan_id":"free"},{"bike_id":"5bcaab63-0b7d-42eb-97c6-9e3cf6d639ed","system_id":"levelo_inurba_marseille","lat":43.305994,"lon":5.393687,"is_reserved":false,"is_disabled":false,"rental_uris":{"android":"levelo://app?vid=5bcaab63-0b7d-42eb-97c6-9e3cf6d639ed","ios":"levelo://app?vid=5bcaab63-0b7d-42eb-97c6-9e3cf6d639ed"},"vehicle_type_id":"4","last_reported":1706040465,"current_range_meters":9600,"station_id":"ce4bh0p2rcd13ifvqd80","pricing_plan_id":"free"},{"bike_id":"77207433-070c-488b-9266-26f9529cf742","system_id":"levelo_inurba_marseille","lat":43.297124,"lon":5.385454,"is_reserved":false,"is_disabled":false,"rental_uris":{"android":"levelo://app?vid=77207433-070c-488b-9266-26f9529cf742","ios":"levelo://app?vid=77207433-070c-488b-9266-26f9529cf742"},"vehicle_type_id":"4","last_reported":1706040465,"current_range_meters":0,"station_id":"","pricing_plan_id":"free"},{"bike_id":"6b5f276f-3958-4675-9efb-ef134986b50d","system_id":"levelo_inurba_marseille","lat":43.2936,"lon":5.37835,"is_reserved":false,"is_disabled":false,"rental_uris":{"android":"levelo://app?vid=6b5f276f-3958-4675-9efb-ef134986b50d","ios":"levelo://app?vid=6b5f276f-3958-4675-9efb-ef134986b50d"},"vehicle_type_id":"4","last_reported":1706040465,"current_range_meters":1200,"station_id":"ce4bgjh2rcd13ifvqbf0","pricing_plan_id":"free"},{"bike_id":"108559eb-0086-4b88-8a12-331a614a5a79","system_id":"levelo_inurba_marseille","lat":43.29438,"lon":5.380335,"is_reserved":false,"is_disabled":false,"rental_uris":{"android":"levelo://app?vid=108559eb-0086-4b88-8a12-331a614a5a79","ios":"levelo://app?vid=108559eb-0086-4b88-8a12-331a614a5a79"},"vehicle_type_id":"4","last_reported":1706040465,"current_range_meters":13200,"station_id":"","pricing_plan_id":"free"},{"bike_id":"9002b701-070e-4f11-8b31-ab499ca1a7df","system_id":"levelo_inurba_marseille","lat":43.292311,"lon":5.360731,"is_reserved":false,"is_disabled":false,"rental_uris":{"android":"levelo://app?vid=9002b701-070e-4f11-8b31-ab499ca1a7df","ios":"levelo://app?vid=9002b701-070e-4f11-8b31-ab499ca1a7df"},"vehicle_type_id":"4","last_reported":1706040465,"current_range_meters":16800,"station_id":"ce4bhbh2rcd13ifvqeqg","pricing_plan_id":"free"},{"bike_id":"43f89ca0-4197-43fa-9169-be7d95335002","system_id":"levelo_inurba_marseille","lat":43.298764,"lon":5.388973,"is_reserved":false,"is_disabled":false,"rental_uris":{"android":"levelo://app?vid=43f89ca0-4197-43fa-9169-be7d95335002","ios":"levelo://app?vid=43f89ca0-4197-43fa-9169-be7d95335002"},"vehicle_type_id":"4","last_reported":1706040465,"current_range_meters":22800,"station_id":"ce4bh392rcd13ifvqdl0","pricing_plan_id":"free"},{"bike_id":"59dc4548-1c5c-4afa-88bf-58d0fbbd3c29","system_id":"levelo_inurba_marseille","lat":43.291671,"lon":5.371575,"is_reserved":false,"is_disabled":false,"rental_uris":{"android":"levelo://app?vid=59dc4548-1c5c-4afa-88bf-58d0fbbd3c29","ios":"levelo://app?vid=59dc4548-1c5c-4afa-88bf-58d0fbbd3c29"},"vehicle_type_id":"4","last_reported":1706040465,"current_range_meters":16400,"station_id":"ce4bha92rcd13ifvqeh0","pricing_plan_id":"free"},{"bike_id":"9e184aff-7e24-4c1c-9dc6-879f33088cbb","system_id":"levelo_inurba_marseille","lat":43.298764,"lon":5.388973,"is_reserved":false,"is_disabled":false,"rental_uris":{"android":"levelo://app?vid=9e184aff-7e24-4c1c-9dc6-879f33088cbb","ios":"levelo://app?vid=9e184aff-7e24-4c1c-9dc6-879f33088cbb"},"vehicle_type_id":"4","last_reported":1706040465,"current_range_meters":18400,"station_id":"ce4bh392rcd13ifvqdl0","pricing_plan_id":"free"},{"bike_id":"80be8dc2-b2d4-45e9-a58a-607ce69f1450","system_id":"levelo_inurba_marseille","lat":43.298764,"lon":5.388973,"is_reserved":false,"is_disabled":false,"rental_uris":{"android":"levelo://app?vid=80be8dc2-b2d4-45e9-a58a-607ce69f1450","ios":"levelo://app?vid=80be8dc2-b2d4-45e9-a58a-607ce69f1450"},"vehicle_type_id":"4","last_reported":1706040465,"current_range_meters":0,"station_id":"ce4bh392rcd13ifvqdl0","pricing_plan_id":"free"},{"bike_id":"1c3684a5-4e4c-4929-9460-3d99be34492e","system_id":"levelo_inurba_marseille","lat":43.298696,"lon":5.389154,"is_reserved":false,"is_disabled":false,"rental_uris":{"android":"levelo://app?vid=1c3684a5-4e4c-4929-9460-3d99be34492e","ios":"levelo://app?vid=1c3684a5-4e4c-4929-9460-3d99be34492e"},"vehicle_type_id":"4","last_reported":1706040465,"current_range_meters":0,"station_id":"ce4bh392rcd13ifvqdl0","pricing_plan_id":"free"},{"bike_id":"b84e9270-4a17-4301-8bba-8665768dd7af","system_id":"levelo_inurba_marseille","lat":43.291994,"lon":5.357886,"is_reserved":false,"is_disabled":false,"rental_uris":{"android":"levelo://app?vid=b84e9270-4a17-4301-8bba-8665768dd7af","ios":"levelo://app?vid=b84e9270-4a17-4301-8bba-8665768dd7af"},"vehicle_type_id":"4","last_reported":1706040465,"current_range_meters":17600,"station_id":"ce4bhb12rcd13ifvqel0","pricing_plan_id":"free"},{"bike_id":"9ceb9abd-65fb-43f8-93fe-cd68cb282130","system_id":"levelo_inurba_marseille","lat":43.291994,"lon":5.357886,"is_reserved":false,"is_disabled":false,"rental_uris":{"android":"levelo://app?vid=9ceb9abd-65fb-43f8-93fe-cd68cb282130","ios":"levelo://app?vid=9ceb9abd-65fb-43f8-93fe-cd68cb282130"},"vehicle_type_id":"4","last_reported":1706040465,"current_range_meters":19600,"station_id":"ce4bhb12rcd13ifvqel0","pricing_plan_id":"free"},{"bike_id":"2378141d-6fe9-4791-9657-29fcf004c61d","system_id":"levelo_inurba_marseille","lat":43.29195,"lon":5.35801,"is_reserved":false,"is_disabled":false,"rental_uris":{"android":"levelo://app?vid=2378141d-6fe9-4791-9657-29fcf004c61d","ios":"levelo://app?vid=2378141d-6fe9-4791-9657-29fcf004c61d"},"vehicle_type_id":"4","last_reported":1706040465,"current_range_meters":400,"station_id":"ce4bhb12rcd13ifvqel0","pricing_plan_id":"free"},{"bike_id":"ee570c37-7e5b-4f34-854d-9f0e3f694527","system_id":"levelo_inurba_marseille","lat":43.313291,"lon":5.396838,"is_reserved":false,"is_disabled":false,"rental_uris":{"android":"levelo://app?vid=ee570c37-7e5b-4f34-854d-9f0e3f694527","ios":"levelo://app?vid=ee570c37-7e5b-4f34-854d-9f0e3f694527"},"vehicle_type_id":"4","last_reported":1706040465,"current_range_meters":15200,"station_id":"ce4bgvp2rcd13ifvqcu0","pricing_plan_id":"free"},{"bike_id":"86f516b8-f84c-4efe-9cdc-1ce35f94c9a7","system_id":"levelo_inurba_marseille","lat":43.313291,"lon":5.396838,"is_reserved":false,"is_disabled":false,"rental_uris":{"android":"levelo://app?vid=86f516b8-f84c-4efe-9cdc-1ce35f94c9a7","ios":"levelo://app?vid=86f516b8-f84c-4efe-9cdc-1ce35f94c9a7"},"vehicle_type_id":"4","last_reported":1706040465,"current_range_meters":29600,"station_id":"ce4bgvp2rcd13ifvqcu0","pricing_plan_id":"free"},{"bike_id":"ff875ee0-73df-4939-8475-9ffd332fd686","system_id":"levelo_inurba_marseille","lat":43.313291,"lon":5.396838,"is_reserved":false,"is_disabled":false,"rental_uris":{"android":"levelo://app?vid=ff875ee0-73df-4939-8475-9ffd332fd686","ios":"levelo://app?vid=ff875ee0-73df-4939-8475-9ffd332fd686"},"vehicle_type_id":"4","last_reported":1706040465,"current_range_meters":0,"station_id":"ce4bgvp2rcd13ifvqcu0","pricing_plan_id":"free"},{"bike_id":"bc644ae6-eb7d-454d-a7db-8136cce30ad1","system_id":"levelo_inurba_marseille","lat":43.313291,"lon":5.396838,"is_reserved":false,"is_disabled":false,"rental_uris":{"android":"levelo://app?vid=bc644ae6-eb7d-454d-a7db-8136cce30ad1","ios":"levelo://app?vid=bc644ae6-eb7d-454d-a7db-8136cce30ad1"},"vehicle_type_id":"4","last_reported":1706040465,"current_range_meters":22800,"station_id":"ce4bgvp2rcd13ifvqcu0","pricing_plan_id":"free"},{"bike_id":"f86ebd68-9122-4d86-a216-3c5c78ff71c9","system_id":"levelo_inurba_marseille","lat":43.29529,"lon":5.385581,"is_reserved":false,"is_disabled":false,"rental_uris":{"android":"levelo://app?vid=f86ebd68-9122-4d86-a216-3c5c78ff71c9","ios":"levelo://app?vid=f86ebd68-9122-4d86-a216-3c5c78ff71c9"},"vehicle_type_id":"4","last_reported":1706040465,"current_range_meters":7200,"station_id":"ce4bgih2rcd13ifvqba0","pricing_plan_id":"free"},{"bike_id":"af2d124a-7840-4dfc-9937-692ad675833f","system_id":"levelo_inurba_marseille","lat":43.29529,"lon":5.385581,"is_reserved":false,"is_disabled":false,"rental_uris":{"android":"levelo://app?vid=af2d124a-7840-4dfc-9937-692ad675833f","ios":"levelo://app?vid=af2d124a-7840-4dfc-9937-692ad675833f"},"vehicle_type_id":"4","last_reported":1706040465,"current_range_meters":24800,"station_id":"ce4bgih2rcd13ifvqba0","pricing_plan_id":"free"},{"bike_id":"829384ac-20be-437b-8cdb-9c89f7587bee","system_id":"levelo_inurba_marseille","lat":43.302008,"lon":5.394694,"is_reserved":false,"is_disabled":false,"rental_uris":{"android":"levelo://app?vid=829384ac-20be-437b-8cdb-9c89f7587bee","ios":"levelo://app?vid=829384ac-20be-437b-8cdb-9c89f7587bee"},"vehicle_type_id":"4","last_reported":1706040465,"current_range_meters":11600,"station_id":"ce4bh0p2rcd13ifvqd70","pricing_plan_id":"free"},{"bike_id":"e285ff4c-708a-4e53-aa30-50aab2c9ec6a","system_id":"levelo_inurba_marseille","lat":43.302008,"lon":5.394694,"is_reserved":false,"is_disabled":false,"rental_uris":{"android":"levelo://app?vid=e285ff4c-708a-4e53-aa30-50aab2c9ec6a","ios":"levelo://app?vid=e285ff4c-708a-4e53-aa30-50aab2c9ec6a"},"vehicle_type_id":"4","last_reported":1706040465,"current_range_meters":23200,"station_id":"ce4bh0p2rcd13ifvqd70","pricing_plan_id":"free"},{"bike_id":"98871879-4f99-4ce3-91ad-e20e99753d70","system_id":"levelo_inurba_marseille","lat":43.290631,"lon":5.359244,"is_reserved":false,"is_disabled":false,"rental_uris":{"android":"levelo://app?vid=98871879-4f99-4ce3-91ad-e20e99753d70","ios":"levelo://app?vid=98871879-4f99-4ce3-91ad-e20e99753d70"},"vehicle_type_id":"4","last_reported":1706040465,"current_range_meters":25200,"station_id":"ce4bha92rcd13ifvqeg0","pricing_plan_id":"free"},{"bike_id":"88b07f89-0aa6-4fb8-8a7f-7e4bd1f65587","system_id":"levelo_inurba_marseille","lat":43.290345,"lon":5.359245,"is_reserved":false,"is_disabled":false,"rental_uris":{"android":"levelo://app?vid=88b07f89-0aa6-4fb8-8a7f-7e4bd1f65587","ios":"levelo://app?vid=88b07f89-0aa6-4fb8-8a7f-7e4bd1f65587"},"vehicle_type_id":"4","last_reported":1706040465,"current_range_meters":0,"station_id":"ce4bha92rcd13ifvqeg0","pricing_plan_id":"free"},{"bike_id":"979bed7b-1f72-4bd9-b6b9-7cac400a5d60","system_id":"levelo_inurba_marseille","lat":43.294153,"lon":5.386305,"is_reserved":false,"is_disabled":false,"rental_uris":{"android":"levelo://app?vid=979bed7b-1f72-4bd9-b6b9-7cac400a5d60","ios":"levelo://app?vid=979bed7b-1f72-4bd9-b6b9-7cac400a5d60"},"vehicle_type_id":"4","last_reported":1706040465,"current_range_meters":12400,"station_id":"ce4bh2h2rcd13ifvqdh0","pricing_plan_id":"free"},{"bike_id":"62066744-3a1e-4d99-899a-146bcb4989a4","system_id":"levelo_inurba_marseille","lat":43.294162,"lon":5.386292,"is_reserved":false,"is_disabled":false,"rental_uris":{"android":"levelo://app?vid=62066744-3a1e-4d99-899a-146bcb4989a4","ios":"levelo://app?vid=62066744-3a1e-4d99-899a-146bcb4989a4"},"vehicle_type_id":"4","last_reported":1706040465,"current_range_meters":13600,"station_id":"ce4bh2h2rcd13ifvqdh0","pricing_plan_id":"free"},{"bike_id":"97bc7881-f43e-4797-a643-43688f80e500","system_id":"levelo_inurba_marseille","lat":43.294162,"lon":5.386292,"is_reserved":false,"is_disabled":false,"rental_uris":{"android":"levelo://app?vid=97bc7881-f43e-4797-a643-43688f80e500","ios":"levelo://app?vid=97bc7881-f43e-4797-a643-43688f80e500"},"vehicle_type_id":"4","last_reported":1706040465,"current_range_meters":6800,"station_id":"ce4bh2h2rcd13ifvqdh0","pricing_plan_id":"free"},{"bike_id":"342fff2d-dce6-4fb6-820d-89db2f8d03d3","system_id":"levelo_inurba_marseille","lat":43.294162,"lon":5.386292,"is_reserved":false,"is_disabled":false,"rental_uris":{"android":"levelo://app?vid=342fff2d-dce6-4fb6-820d-89db2f8d03d3","ios":"levelo://app?vid=342fff2d-dce6-4fb6-820d-89db2f8d03d3"},"vehicle_type_id":"4","last_reported":1706040465,"current_range_meters":11600,"station_id":"ce4bh2h2rcd13ifvqdh0","pricing_plan_id":"free"},{"bike_id":"7e372fb0-19a7-4eb4-a5df-ac8145d4b723","system_id":"levelo_inurba_marseille","lat":43.289184,"lon":5.366408,"is_reserved":false,"is_disabled":false,"rental_uris":{"android":"levelo://app?vid=7e372fb0-19a7-4eb4-a5df-ac8145d4b723","ios":"levelo://app?vid=7e372fb0-19a7-4eb4-a5df-ac8145d4b723"},"vehicle_type_id":"4","last_reported":1706040465,"current_range_meters":22800,"station_id":"ce4bhap2rcd13ifvqek0","pricing_plan_id":"free"},{"bike_id":"7e1869f3-c3d1-4d8f-bd92-f77291c77d88","system_id":"levelo_inurba_marseille","lat":43.289184,"lon":5.366408,"is_reserved":false,"is_disabled":false,"rental_uris":{"android":"levelo://app?vid=7e1869f3-c3d1-4d8f-bd92-f77291c77d88","ios":"levelo://app?vid=7e1869f3-c3d1-4d8f-bd92-f77291c77d88"},"vehicle_type_id":"4","last_reported":1706040465,"current_range_meters":21200,"station_id":"ce4bhap2rcd13ifvqek0","pricing_plan_id":"free"},{"bike_id":"f0a0277f-a2ac-4db8-8b98-f672afdc1c26","system_id":"levelo_inurba_marseille","lat":43.289184,"lon":5.366408,"is_reserved":false,"is_disabled":false,"rental_uris":{"android":"levelo://app?vid=f0a0277f-a2ac-4db8-8b98-f672afdc1c26","ios":"levelo://app?vid=f0a0277f-a2ac-4db8-8b98-f672afdc1c26"},"vehicle_type_id":"4","last_reported":1706040465,"current_range_meters":26000,"station_id":"ce4bhap2rcd13ifvqek0","pricing_plan_id":"free"},{"bike_id":"cfca06c8-7e6f-415f-abae-cb0ba2a70443","system_id":"levelo_inurba_marseille","lat":43.289184,"lon":5.366408,"is_reserved":false,"is_disabled":false,"rental_uris":{"android":"levelo://app?vid=cfca06c8-7e6f-415f-abae-cb0ba2a70443","ios":"levelo://app?vid=cfca06c8-7e6f-415f-abae-cb0ba2a70443"},"vehicle_type_id":"4","last_reported":1706040465,"current_range_meters":4000,"station_id":"ce4bhap2rcd13ifvqek0","pricing_plan_id":"free"},{"bike_id":"37255525-1597-4ee3-ba49-9b83c7fa1a76","system_id":"levelo_inurba_marseille","lat":43.289184,"lon":5.366408,"is_reserved":false,"is_disabled":false,"rental_uris":{"android":"levelo://app?vid=37255525-1597-4ee3-ba49-9b83c7fa1a76","ios":"levelo://app?vid=37255525-1597-4ee3-ba49-9b83c7fa1a76"},"vehicle_type_id":"4","last_reported":1706040465,"current_range_meters":31200,"station_id":"ce4bhap2rcd13ifvqek0","pricing_plan_id":"free"},{"bike_id":"2dd6f75d-c82e-4a49-85ba-cfe2dc8b9967","system_id":"levelo_inurba_marseille","lat":43.289184,"lon":5.366408,"is_reserved":false,"is_disabled":false,"rental_uris":{"android":"levelo://app?vid=2dd6f75d-c82e-4a49-85ba-cfe2dc8b9967","ios":"levelo://app?vid=2dd6f75d-c82e-4a49-85ba-cfe2dc8b9967"},"vehicle_type_id":"4","last_reported":1706040465,"current_range_meters":22400,"station_id":"ce4bhap2rcd13ifvqek0","pricing_plan_id":"free"},{"bike_id":"6c067683-26f8-4d5e-980d-4647ff4e93ea","system_id":"levelo_inurba_marseille","lat":43.289468,"lon":5.363719,"is_reserved":false,"is_disabled":false,"rental_uris":{"android":"levelo://app?vid=6c067683-26f8-4d5e-980d-4647ff4e93ea","ios":"levelo://app?vid=6c067683-26f8-4d5e-980d-4647ff4e93ea"},"vehicle_type_id":"4","last_reported":1706040465,"current_range_meters":4000,"station_id":"ce4bhc92rcd13ifvqetg","pricing_plan_id":"free"},{"bike_id":"b73913ed-7738-4043-bd40-21d334b745c6","system_id":"levelo_inurba_marseille","lat":43.28935,"lon":5.36645,"is_reserved":false,"is_disabled":false,"rental_uris":{"android":"levelo://app?vid=b73913ed-7738-4043-bd40-21d334b745c6","ios":"levelo://app?vid=b73913ed-7738-4043-bd40-21d334b745c6"},"vehicle_type_id":"4","last_reported":1706040465,"current_range_meters":14800,"station_id":"ce4bhap2rcd13ifvqek0","pricing_plan_id":"free"},{"bike_id":"6b460e1f-335b-4458-920c-020a1aef63a9","system_id":"levelo_inurba_marseille","lat":43.289468,"lon":5.363719,"is_reserved":false,"is_disabled":false,"rental_uris":{"android":"levelo://app?vid=6b460e1f-335b-4458-920c-020a1aef63a9","ios":"levelo://app?vid=6b460e1f-335b-4458-920c-020a1aef63a9"},"vehicle_type_id":"4","last_reported":1706040465,"current_range_meters":3200,"station_id":"ce4bhc92rcd13ifvqetg","pricing_plan_id":"free"},{"bike_id":"6ed23ca5-ecbb-4de3-8983-7774f1d8a8ae","system_id":"levelo_inurba_marseille","lat":43.28932,"lon":5.36639,"is_reserved":false,"is_disabled":false,"rental_uris":{"android":"levelo://app?vid=6ed23ca5-ecbb-4de3-8983-7774f1d8a8ae","ios":"levelo://app?vid=6ed23ca5-ecbb-4de3-8983-7774f1d8a8ae"},"vehicle_type_id":"4","last_reported":1706040465,"current_range_meters":4800,"station_id":"ce4bhap2rcd13ifvqek0","pricing_plan_id":"free"},{"bike_id":"c0485b0b-71df-4a4d-8f69-e3ab0436ab3c","system_id":"levelo_inurba_marseille","lat":43.292642,"lon":5.384254,"is_reserved":false,"is_disabled":false,"rental_uris":{"android":"levelo://app?vid=c0485b0b-71df-4a4d-8f69-e3ab0436ab3c","ios":"levelo://app?vid=c0485b0b-71df-4a4d-8f69-e3ab0436ab3c"},"vehicle_type_id":"4","last_reported":1706040465,"current_range_meters":8000,"station_id":"ce4bh692rcd13ifvqea0","pricing_plan_id":"free"},{"bike_id":"d91b90fe-0353-4c62-9ad6-c244803c9d6b","system_id":"levelo_inurba_marseille","lat":43.292728,"lon":5.38441,"is_reserved":false,"is_disabled":false,"rental_uris":{"android":"levelo://app?vid=d91b90fe-0353-4c62-9ad6-c244803c9d6b","ios":"levelo://app?vid=d91b90fe-0353-4c62-9ad6-c244803c9d6b"},"vehicle_type_id":"4","last_reported":1706040465,"current_range_meters":16000,"station_id":"ce4bh692rcd13ifvqea0","pricing_plan_id":"free"},{"bike_id":"cda24d23-2445-4858-9333-3f5d3639344f","system_id":"levelo_inurba_marseille","lat":43.292642,"lon":5.384254,"is_reserved":false,"is_disabled":false,"rental_uris":{"android":"levelo://app?vid=cda24d23-2445-4858-9333-3f5d3639344f","ios":"levelo://app?vid=cda24d23-2445-4858-9333-3f5d3639344f"},"vehicle_type_id":"4","last_reported":1706040465,"current_range_meters":2800,"station_id":"ce4bh692rcd13ifvqea0","pricing_plan_id":"free"},{"bike_id":"0efdca84-6015-43f1-b269-12178155da61","system_id":"levelo_inurba_marseille","lat":43.29268,"lon":5.38441,"is_reserved":false,"is_disabled":false,"rental_uris":{"android":"levelo://app?vid=0efdca84-6015-43f1-b269-12178155da61","ios":"levelo://app?vid=0efdca84-6015-43f1-b269-12178155da61"},"vehicle_type_id":"4","last_reported":1706040465,"current_range_meters":13600,"station_id":"ce4bh692rcd13ifvqea0","pricing_plan_id":"free"},{"bike_id":"e8984268-3479-4e9e-85a1-cd33bb713128","system_id":"levelo_inurba_marseille","lat":43.292642,"lon":5.384254,"is_reserved":false,"is_disabled":false,"rental_uris":{"android":"levelo://app?vid=e8984268-3479-4e9e-85a1-cd33bb713128","ios":"levelo://app?vid=e8984268-3479-4e9e-85a1-cd33bb713128"},"vehicle_type_id":"4","last_reported":1706040465,"current_range_meters":400,"station_id":"ce4bh692rcd13ifvqea0","pricing_plan_id":"free"},{"bike_id":"255fc61c-343f-437b-84c5-1e9f0e78c7dd","system_id":"levelo_inurba_marseille","lat":43.292642,"lon":5.384254,"is_reserved":false,"is_disabled":false,"rental_uris":{"android":"levelo://app?vid=255fc61c-343f-437b-84c5-1e9f0e78c7dd","ios":"levelo://app?vid=255fc61c-343f-437b-84c5-1e9f0e78c7dd"},"vehicle_type_id":"4","last_reported":1706040465,"current_range_meters":2000,"station_id":"ce4bh692rcd13ifvqea0","pricing_plan_id":"free"},{"bike_id":"9744fb78-a6cc-497b-abf6-bfb7c50ea311","system_id":"levelo_inurba_marseille","lat":43.292642,"lon":5.384254,"is_reserved":false,"is_disabled":false,"rental_uris":{"android":"levelo://app?vid=9744fb78-a6cc-497b-abf6-bfb7c50ea311","ios":"levelo://app?vid=9744fb78-a6cc-497b-abf6-bfb7c50ea311"},"vehicle_type_id":"4","last_reported":1706040465,"current_range_meters":1600,"station_id":"ce4bh692rcd13ifvqea0","pricing_plan_id":"free"},{"bike_id":"dd29ee12-7104-49a8-819b-6a0a6daf4789","system_id":"levelo_inurba_marseille","lat":43.29262,"lon":5.38449,"is_reserved":false,"is_disabled":false,"rental_uris":{"android":"levelo://app?vid=dd29ee12-7104-49a8-819b-6a0a6daf4789","ios":"levelo://app?vid=dd29ee12-7104-49a8-819b-6a0a6daf4789"},"vehicle_type_id":"4","last_reported":1706040465,"current_range_meters":26000,"station_id":"ce4bh692rcd13ifvqea0","pricing_plan_id":"free"},{"bike_id":"e17f83ca-1764-42b9-bd74-3e89e686fe33","system_id":"levelo_inurba_marseille","lat":43.292642,"lon":5.384254,"is_reserved":false,"is_disabled":false,"rental_uris":{"android":"levelo://app?vid=e17f83ca-1764-42b9-bd74-3e89e686fe33","ios":"levelo://app?vid=e17f83ca-1764-42b9-bd74-3e89e686fe33"},"vehicle_type_id":"4","last_reported":1706040465,"current_range_meters":5600,"station_id":"ce4bh692rcd13ifvqea0","pricing_plan_id":"free"},{"bike_id":"1c686242-fd94-496e-98c6-a1aee990e632","system_id":"levelo_inurba_marseille","lat":43.292564,"lon":5.384503,"is_reserved":false,"is_disabled":false,"rental_uris":{"android":"levelo://app?vid=1c686242-fd94-496e-98c6-a1aee990e632","ios":"levelo://app?vid=1c686242-fd94-496e-98c6-a1aee990e632"},"vehicle_type_id":"4","last_reported":1706040465,"current_range_meters":0,"station_id":"","pricing_plan_id":"free"},{"bike_id":"ae7160bd-ce53-4c80-82c2-c61d2415a7c9","system_id":"levelo_inurba_marseille","lat":43.29008,"lon":5.35614,"is_reserved":false,"is_disabled":false,"rental_uris":{"android":"levelo://app?vid=ae7160bd-ce53-4c80-82c2-c61d2415a7c9","ios":"levelo://app?vid=ae7160bd-ce53-4c80-82c2-c61d2415a7c9"},"vehicle_type_id":"4","last_reported":1706040465,"current_range_meters":0,"station_id":"ce4bhb92rcd13ifvqen0","pricing_plan_id":"free"},{"bike_id":"f80c0bbd-f809-4868-bc97-a6ae7843c94d","system_id":"levelo_inurba_marseille","lat":43.290104,"lon":5.356111,"is_reserved":false,"is_disabled":false,"rental_uris":{"android":"levelo://app?vid=f80c0bbd-f809-4868-bc97-a6ae7843c94d","ios":"levelo://app?vid=f80c0bbd-f809-4868-bc97-a6ae7843c94d"},"vehicle_type_id":"4","last_reported":1706040465,"current_range_meters":0,"station_id":"ce4bhb92rcd13ifvqen0","pricing_plan_id":"free"},{"bike_id":"2fedfe57-a9c5-4168-a122-32439a79b7f7","system_id":"levelo_inurba_marseille","lat":43.290103,"lon":5.356114,"is_reserved":false,"is_disabled":false,"rental_uris":{"android":"levelo://app?vid=2fedfe57-a9c5-4168-a122-32439a79b7f7","ios":"levelo://app?vid=2fedfe57-a9c5-4168-a122-32439a79b7f7"},"vehicle_type_id":"4","last_reported":1706040465,"current_range_meters":14000,"station_id":"ce4bhb92rcd13ifvqen0","pricing_plan_id":"free"},{"bike_id":"85e70da8-2ffe-437f-826a-be80d7f20f63","system_id":"levelo_inurba_marseille","lat":43.297734,"lon":5.392864,"is_reserved":false,"is_disabled":false,"rental_uris":{"android":"levelo://app?vid=85e70da8-2ffe-437f-826a-be80d7f20f63","ios":"levelo://app?vid=85e70da8-2ffe-437f-826a-be80d7f20f63"},"vehicle_type_id":"4","last_reported":1706040465,"current_range_meters":11600,"station_id":"ce4bgup2rcd13ifvqcn0","pricing_plan_id":"free"},{"bike_id":"7e3b44a0-6518-4173-8fd1-e575b28a3580","system_id":"levelo_inurba_marseille","lat":43.29789,"lon":5.39333,"is_reserved":false,"is_disabled":false,"rental_uris":{"android":"levelo://app?vid=7e3b44a0-6518-4173-8fd1-e575b28a3580","ios":"levelo://app?vid=7e3b44a0-6518-4173-8fd1-e575b28a3580"},"vehicle_type_id":"4","last_reported":1706040465,"current_range_meters":20000,"station_id":"chh1huq6cuj3fo74tm60","pricing_plan_id":"free"},{"bike_id":"7bea473a-ffca-428b-b3d5-b9bceb5843df","system_id":"levelo_inurba_marseille","lat":43.29783,"lon":5.39327,"is_reserved":false,"is_disabled":false,"rental_uris":{"android":"levelo://app?vid=7bea473a-ffca-428b-b3d5-b9bceb5843df","ios":"levelo://app?vid=7bea473a-ffca-428b-b3d5-b9bceb5843df"},"vehicle_type_id":"4","last_reported":1706040465,"current_range_meters":16400,"station_id":"chh1huq6cuj3fo74tm60","pricing_plan_id":"free"},{"bike_id":"88f1f9e0-5542-4f2c-a2bd-453ddefd1eef","system_id":"levelo_inurba_marseille","lat":43.2979,"lon":5.393345,"is_reserved":false,"is_disabled":false,"rental_uris":{"android":"levelo://app?vid=88f1f9e0-5542-4f2c-a2bd-453ddefd1eef","ios":"levelo://app?vid=88f1f9e0-5542-4f2c-a2bd-453ddefd1eef"},"vehicle_type_id":"4","last_reported":1706040465,"current_range_meters":31600,"station_id":"chh1huq6cuj3fo74tm60","pricing_plan_id":"free"},{"bike_id":"a854f462-3472-47bf-84c4-789d10af92a0","system_id":"levelo_inurba_marseille","lat":43.297885,"lon":5.393385,"is_reserved":false,"is_disabled":false,"rental_uris":{"android":"levelo://app?vid=a854f462-3472-47bf-84c4-789d10af92a0","ios":"levelo://app?vid=a854f462-3472-47bf-84c4-789d10af92a0"},"vehicle_type_id":"4","last_reported":1706040465,"current_range_meters":15600,"station_id":"chh1huq6cuj3fo74tm60","pricing_plan_id":"free"},{"bike_id":"aadf3741-df5b-4dc3-a623-3a98b6ec6724","system_id":"levelo_inurba_marseille","lat":43.29794,"lon":5.39347,"is_reserved":false,"is_disabled":false,"rental_uris":{"android":"levelo://app?vid=aadf3741-df5b-4dc3-a623-3a98b6ec6724","ios":"levelo://app?vid=aadf3741-df5b-4dc3-a623-3a98b6ec6724"},"vehicle_type_id":"4","last_reported":1706040465,"current_range_meters":28000,"station_id":"chh1huq6cuj3fo74tm60","pricing_plan_id":"free"},{"bike_id":"812712cd-ab4e-4eb5-a583-f8bfe592f71d","system_id":"levelo_inurba_marseille","lat":43.297876,"lon":5.393462,"is_reserved":false,"is_disabled":false,"rental_uris":{"android":"levelo://app?vid=812712cd-ab4e-4eb5-a583-f8bfe592f71d","ios":"levelo://app?vid=812712cd-ab4e-4eb5-a583-f8bfe592f71d"},"vehicle_type_id":"4","last_reported":1706040465,"current_range_meters":2400,"station_id":"chh1huq6cuj3fo74tm60","pricing_plan_id":"free"},{"bike_id":"d52baf28-50ef-4220-9c27-8a655062a064","system_id":"levelo_inurba_marseille","lat":43.297856,"lon":5.393474,"is_reserved":false,"is_disabled":false,"rental_uris":{"android":"levelo://app?vid=d52baf28-50ef-4220-9c27-8a655062a064","ios":"levelo://app?vid=d52baf28-50ef-4220-9c27-8a655062a064"},"vehicle_type_id":"4","last_reported":1706040465,"current_range_meters":18800,"station_id":"chh1huq6cuj3fo74tm60","pricing_plan_id":"free"},{"bike_id":"8beb18ab-307a-4d80-9564-4648ffd8d475","system_id":"levelo_inurba_marseille","lat":43.330442,"lon":5.389148,"is_reserved":false,"is_disabled":false,"rental_uris":{"android":"levelo://app?vid=8beb18ab-307a-4d80-9564-4648ffd8d475","ios":"levelo://app?vid=8beb18ab-307a-4d80-9564-4648ffd8d475"},"vehicle_type_id":"4","last_reported":1706040465,"current_range_meters":18400,"station_id":"ce4bhr92rcd13ifvqhrg","pricing_plan_id":"free"},{"bike_id":"67c380de-ab9c-4162-b94f-c63800b63578","system_id":"levelo_inurba_marseille","lat":43.330255,"lon":5.390402,"is_reserved":false,"is_disabled":false,"rental_uris":{"android":"levelo://app?vid=67c380de-ab9c-4162-b94f-c63800b63578","ios":"levelo://app?vid=67c380de-ab9c-4162-b94f-c63800b63578"},"vehicle_type_id":"4","last_reported":1706040465,"current_range_meters":8800,"station_id":"","pricing_plan_id":"free"},{"bike_id":"395c82f9-55ab-4c66-8db3-c361ea2ce031","system_id":"levelo_inurba_marseille","lat":43.330442,"lon":5.389148,"is_reserved":false,"is_disabled":false,"rental_uris":{"android":"levelo://app?vid=395c82f9-55ab-4c66-8db3-c361ea2ce031","ios":"levelo://app?vid=395c82f9-55ab-4c66-8db3-c361ea2ce031"},"vehicle_type_id":"4","last_reported":1706040465,"current_range_meters":13600,"station_id":"ce4bhr92rcd13ifvqhrg","pricing_plan_id":"free"},{"bike_id":"acb7ac40-2d0f-496c-87a2-095502ed748c","system_id":"levelo_inurba_marseille","lat":43.28856,"lon":5.358371,"is_reserved":false,"is_disabled":false,"rental_uris":{"android":"levelo://app?vid=acb7ac40-2d0f-496c-87a2-095502ed748c","ios":"levelo://app?vid=acb7ac40-2d0f-496c-87a2-095502ed748c"},"vehicle_type_id":"4","last_reported":1706040465,"current_range_meters":16400,"station_id":"ce4bhb12rcd13ifvqem0","pricing_plan_id":"free"},{"bike_id":"7e350033-17c9-42c2-b62f-617a96d712ca","system_id":"levelo_inurba_marseille","lat":43.28856,"lon":5.358371,"is_reserved":false,"is_disabled":false,"rental_uris":{"android":"levelo://app?vid=7e350033-17c9-42c2-b62f-617a96d712ca","ios":"levelo://app?vid=7e350033-17c9-42c2-b62f-617a96d712ca"},"vehicle_type_id":"4","last_reported":1706040465,"current_range_meters":5600,"station_id":"ce4bhb12rcd13ifvqem0","pricing_plan_id":"free"},{"bike_id":"803f435c-f72f-4aca-a707-644537ea2758","system_id":"levelo_inurba_marseille","lat":43.28845,"lon":5.35846,"is_reserved":false,"is_disabled":false,"rental_uris":{"android":"levelo://app?vid=803f435c-f72f-4aca-a707-644537ea2758","ios":"levelo://app?vid=803f435c-f72f-4aca-a707-644537ea2758"},"vehicle_type_id":"4","last_reported":1706040465,"current_range_meters":14000,"station_id":"","pricing_plan_id":"free"},{"bike_id":"5bef1e8d-c238-463f-b1fd-da1b33b8f919","system_id":"levelo_inurba_marseille","lat":43.312609,"lon":5.401662,"is_reserved":false,"is_disabled":false,"rental_uris":{"android":"levelo://app?vid=5bef1e8d-c238-463f-b1fd-da1b33b8f919","ios":"levelo://app?vid=5bef1e8d-c238-463f-b1fd-da1b33b8f919"},"vehicle_type_id":"4","last_reported":1706040465,"current_range_meters":0,"station_id":"ce4bh092rcd13ifvqd30","pricing_plan_id":"free"},{"bike_id":"66fff7a6-b42c-43ed-a95e-2a6313453dfe","system_id":"levelo_inurba_marseille","lat":43.312609,"lon":5.401662,"is_reserved":false,"is_disabled":false,"rental_uris":{"android":"levelo://app?vid=66fff7a6-b42c-43ed-a95e-2a6313453dfe","ios":"levelo://app?vid=66fff7a6-b42c-43ed-a95e-2a6313453dfe"},"vehicle_type_id":"4","last_reported":1706040465,"current_range_meters":31600,"station_id":"ce4bh092rcd13ifvqd30","pricing_plan_id":"free"},{"bike_id":"f8989e1b-3c72-47bf-84d9-aefffe979383","system_id":"levelo_inurba_marseille","lat":43.31271,"lon":5.40165,"is_reserved":false,"is_disabled":false,"rental_uris":{"android":"levelo://app?vid=f8989e1b-3c72-47bf-84d9-aefffe979383","ios":"levelo://app?vid=f8989e1b-3c72-47bf-84d9-aefffe979383"},"vehicle_type_id":"4","last_reported":1706040465,"current_range_meters":7600,"station_id":"ce4bh092rcd13ifvqd30","pricing_plan_id":"free"},{"bike_id":"1f8dff7a-291a-4552-8703-18b2aa0e5697","system_id":"levelo_inurba_marseille","lat":43.312609,"lon":5.401662,"is_reserved":false,"is_disabled":false,"rental_uris":{"android":"levelo://app?vid=1f8dff7a-291a-4552-8703-18b2aa0e5697","ios":"levelo://app?vid=1f8dff7a-291a-4552-8703-18b2aa0e5697"},"vehicle_type_id":"4","last_reported":1706040465,"current_range_meters":6000,"station_id":"ce4bh092rcd13ifvqd30","pricing_plan_id":"free"},{"bike_id":"22ebb342-e9b1-472d-9bc6-674213140877","system_id":"levelo_inurba_marseille","lat":43.312803,"lon":5.40166,"is_reserved":false,"is_disabled":false,"rental_uris":{"android":"levelo://app?vid=22ebb342-e9b1-472d-9bc6-674213140877","ios":"levelo://app?vid=22ebb342-e9b1-472d-9bc6-674213140877"},"vehicle_type_id":"4","last_reported":1706040465,"current_range_meters":0,"station_id":"ce4bh092rcd13ifvqd30","pricing_plan_id":"free"},{"bike_id":"f1e54114-eede-43d7-a8ae-8a20b521de0a","system_id":"levelo_inurba_marseille","lat":43.306412,"lon":5.401035,"is_reserved":false,"is_disabled":false,"rental_uris":{"android":"levelo://app?vid=f1e54114-eede-43d7-a8ae-8a20b521de0a","ios":"levelo://app?vid=f1e54114-eede-43d7-a8ae-8a20b521de0a"},"vehicle_type_id":"4","last_reported":1706040465,"current_range_meters":24000,"station_id":"ce4bh112rcd13ifvqda0","pricing_plan_id":"free"},{"bike_id":"c4bce579-e593-411a-a243-d0cda52af56f","system_id":"levelo_inurba_marseille","lat":43.309371,"lon":5.401449,"is_reserved":false,"is_disabled":false,"rental_uris":{"android":"levelo://app?vid=c4bce579-e593-411a-a243-d0cda52af56f","ios":"levelo://app?vid=c4bce579-e593-411a-a243-d0cda52af56f"},"vehicle_type_id":"4","last_reported":1706040465,"current_range_meters":23200,"station_id":"ce4bgvp2rcd13ifvqct0","pricing_plan_id":"free"},{"bike_id":"19f51fbb-06a9-4724-97c1-b02c1b65ffde","system_id":"levelo_inurba_marseille","lat":43.33746,"lon":5.37456,"is_reserved":false,"is_disabled":false,"rental_uris":{"android":"levelo://app?vid=19f51fbb-06a9-4724-97c1-b02c1b65ffde","ios":"levelo://app?vid=19f51fbb-06a9-4724-97c1-b02c1b65ffde"},"vehicle_type_id":"4","last_reported":1706040465,"current_range_meters":22000,"station_id":"","pricing_plan_id":"free"},{"bike_id":"37dad68e-b345-4e83-b18e-e1bcafca61b9","system_id":"levelo_inurba_marseille","lat":43.312609,"lon":5.401662,"is_reserved":false,"is_disabled":false,"rental_uris":{"android":"levelo://app?vid=37dad68e-b345-4e83-b18e-e1bcafca61b9","ios":"levelo://app?vid=37dad68e-b345-4e83-b18e-e1bcafca61b9"},"vehicle_type_id":"4","last_reported":1706040465,"current_range_meters":23600,"station_id":"ce4bh092rcd13ifvqd30","pricing_plan_id":"free"},{"bike_id":"e0b1f52d-62de-49ab-98a6-03db78831238","system_id":"levelo_inurba_marseille","lat":43.33748,"lon":5.3746,"is_reserved":false,"is_disabled":false,"rental_uris":{"android":"levelo://app?vid=e0b1f52d-62de-49ab-98a6-03db78831238","ios":"levelo://app?vid=e0b1f52d-62de-49ab-98a6-03db78831238"},"vehicle_type_id":"4","last_reported":1706040465,"current_range_meters":24800,"station_id":"","pricing_plan_id":"free"},{"bike_id":"d13ed38d-1338-4715-b3a8-e7cc2cbae523","system_id":"levelo_inurba_marseille","lat":43.33756,"lon":5.37453,"is_reserved":false,"is_disabled":false,"rental_uris":{"android":"levelo://app?vid=d13ed38d-1338-4715-b3a8-e7cc2cbae523","ios":"levelo://app?vid=d13ed38d-1338-4715-b3a8-e7cc2cbae523"},"vehicle_type_id":"4","last_reported":1706040465,"current_range_meters":26800,"station_id":"","pricing_plan_id":"free"},{"bike_id":"17081a1f-9f97-4e9d-a26c-47c34541bc95","system_id":"levelo_inurba_marseille","lat":43.30642,"lon":5.401031,"is_reserved":false,"is_disabled":false,"rental_uris":{"android":"levelo://app?vid=17081a1f-9f97-4e9d-a26c-47c34541bc95","ios":"levelo://app?vid=17081a1f-9f97-4e9d-a26c-47c34541bc95"},"vehicle_type_id":"4","last_reported":1706040465,"current_range_meters":8800,"station_id":"ce4bh112rcd13ifvqda0","pricing_plan_id":"free"},{"bike_id":"8b894521-1a30-4078-ab48-f86b65b9874e","system_id":"levelo_inurba_marseille","lat":43.33761,"lon":5.37472,"is_reserved":false,"is_disabled":false,"rental_uris":{"android":"levelo://app?vid=8b894521-1a30-4078-ab48-f86b65b9874e","ios":"levelo://app?vid=8b894521-1a30-4078-ab48-f86b65b9874e"},"vehicle_type_id":"4","last_reported":1706040465,"current_range_meters":24000,"station_id":"","pricing_plan_id":"free"},{"bike_id":"c2303150-601c-4748-92f0-c72e020bc095","system_id":"levelo_inurba_marseille","lat":43.301117,"lon":5.398795,"is_reserved":false,"is_disabled":false,"rental_uris":{"android":"levelo://app?vid=c2303150-601c-4748-92f0-c72e020bc095","ios":"levelo://app?vid=c2303150-601c-4748-92f0-c72e020bc095"},"vehicle_type_id":"4","last_reported":1706040465,"current_range_meters":6400,"station_id":"ce4bh0h2rcd13ifvqd40","pricing_plan_id":"free"},{"bike_id":"9ccd64a4-071b-45a2-b409-77b7cd74ba22","system_id":"levelo_inurba_marseille","lat":43.301117,"lon":5.398795,"is_reserved":false,"is_disabled":false,"rental_uris":{"android":"levelo://app?vid=9ccd64a4-071b-45a2-b409-77b7cd74ba22","ios":"levelo://app?vid=9ccd64a4-071b-45a2-b409-77b7cd74ba22"},"vehicle_type_id":"4","last_reported":1706040465,"current_range_meters":4800,"station_id":"ce4bh0h2rcd13ifvqd40","pricing_plan_id":"free"},{"bike_id":"0f0ce538-6fa3-4bbb-ac5f-b7ce79a04aaf","system_id":"levelo_inurba_marseille","lat":43.301117,"lon":5.398795,"is_reserved":false,"is_disabled":false,"rental_uris":{"android":"levelo://app?vid=0f0ce538-6fa3-4bbb-ac5f-b7ce79a04aaf","ios":"levelo://app?vid=0f0ce538-6fa3-4bbb-ac5f-b7ce79a04aaf"},"vehicle_type_id":"4","last_reported":1706040465,"current_range_meters":6000,"station_id":"ce4bh0h2rcd13ifvqd40","pricing_plan_id":"free"},{"bike_id":"6bba64e4-7a41-49b3-88ef-e0daea3f3248","system_id":"levelo_inurba_marseille","lat":43.301117,"lon":5.398795,"is_reserved":false,"is_disabled":false,"rental_uris":{"android":"levelo://app?vid=6bba64e4-7a41-49b3-88ef-e0daea3f3248","ios":"levelo://app?vid=6bba64e4-7a41-49b3-88ef-e0daea3f3248"},"vehicle_type_id":"4","last_reported":1706040465,"current_range_meters":21600,"station_id":"ce4bh0h2rcd13ifvqd40","pricing_plan_id":"free"},{"bike_id":"c0826c06-002c-4390-9f82-cf174a3bed05","system_id":"levelo_inurba_marseille","lat":43.28727,"lon":5.36078,"is_reserved":false,"is_disabled":false,"rental_uris":{"android":"levelo://app?vid=c0826c06-002c-4390-9f82-cf174a3bed05","ios":"levelo://app?vid=c0826c06-002c-4390-9f82-cf174a3bed05"},"vehicle_type_id":"4","last_reported":1706040465,"current_range_meters":6800,"station_id":"cki0cbj6b192h4jlfktg","pricing_plan_id":"free"},{"bike_id":"98278856-d083-43fc-a3dc-b34347b41bda","system_id":"levelo_inurba_marseille","lat":43.28727,"lon":5.36078,"is_reserved":false,"is_disabled":false,"rental_uris":{"android":"levelo://app?vid=98278856-d083-43fc-a3dc-b34347b41bda","ios":"levelo://app?vid=98278856-d083-43fc-a3dc-b34347b41bda"},"vehicle_type_id":"4","last_reported":1706040465,"current_range_meters":7200,"station_id":"cki0cbj6b192h4jlfktg","pricing_plan_id":"free"},{"bike_id":"a6490e37-6081-425f-ad11-d2421ce22e99","system_id":"levelo_inurba_marseille","lat":43.28727,"lon":5.36078,"is_reserved":false,"is_disabled":false,"rental_uris":{"android":"levelo://app?vid=a6490e37-6081-425f-ad11-d2421ce22e99","ios":"levelo://app?vid=a6490e37-6081-425f-ad11-d2421ce22e99"},"vehicle_type_id":"4","last_reported":1706040465,"current_range_meters":20400,"station_id":"cki0cbj6b192h4jlfktg","pricing_plan_id":"free"},{"bike_id":"38344fa7-f60d-4904-88e1-73eaf3e53887","system_id":"levelo_inurba_marseille","lat":43.28727,"lon":5.36078,"is_reserved":false,"is_disabled":false,"rental_uris":{"android":"levelo://app?vid=38344fa7-f60d-4904-88e1-73eaf3e53887","ios":"levelo://app?vid=38344fa7-f60d-4904-88e1-73eaf3e53887"},"vehicle_type_id":"4","last_reported":1706040465,"current_range_meters":8800,"station_id":"cki0cbj6b192h4jlfktg","pricing_plan_id":"free"},{"bike_id":"0c8ea0d4-8699-45e8-9f5b-6d299875192f","system_id":"levelo_inurba_marseille","lat":43.28727,"lon":5.36078,"is_reserved":false,"is_disabled":false,"rental_uris":{"android":"levelo://app?vid=0c8ea0d4-8699-45e8-9f5b-6d299875192f","ios":"levelo://app?vid=0c8ea0d4-8699-45e8-9f5b-6d299875192f"},"vehicle_type_id":"4","last_reported":1706040465,"current_range_meters":8800,"station_id":"cki0cbj6b192h4jlfktg","pricing_plan_id":"free"},{"bike_id":"5d5e716e-af5c-476e-a250-c81d170c08b4","system_id":"levelo_inurba_marseille","lat":43.301117,"lon":5.398795,"is_reserved":false,"is_disabled":false,"rental_uris":{"android":"levelo://app?vid=5d5e716e-af5c-476e-a250-c81d170c08b4","ios":"levelo://app?vid=5d5e716e-af5c-476e-a250-c81d170c08b4"},"vehicle_type_id":"4","last_reported":1706040465,"current_range_meters":0,"station_id":"ce4bh0h2rcd13ifvqd40","pricing_plan_id":"free"},{"bike_id":"94c51eae-a55d-41cc-a11f-0610a5c25685","system_id":"levelo_inurba_marseille","lat":43.28723,"lon":5.36079,"is_reserved":false,"is_disabled":false,"rental_uris":{"android":"levelo://app?vid=94c51eae-a55d-41cc-a11f-0610a5c25685","ios":"levelo://app?vid=94c51eae-a55d-41cc-a11f-0610a5c25685"},"vehicle_type_id":"4","last_reported":1706040465,"current_range_meters":0,"station_id":"cki0cbj6b192h4jlfktg","pricing_plan_id":"free"},{"bike_id":"badd1cb2-1cf5-4513-b016-6b69513340c1","system_id":"levelo_inurba_marseille","lat":43.298681,"lon":5.397225,"is_reserved":false,"is_disabled":false,"rental_uris":{"android":"levelo://app?vid=badd1cb2-1cf5-4513-b016-6b69513340c1","ios":"levelo://app?vid=badd1cb2-1cf5-4513-b016-6b69513340c1"},"vehicle_type_id":"4","last_reported":1706040465,"current_range_meters":20800,"station_id":"ce4bh0h2rcd13ifvqd50","pricing_plan_id":"free"},{"bike_id":"19ffc743-5767-458d-a1ec-a7c46f57abc1","system_id":"levelo_inurba_marseille","lat":43.286591,"lon":5.363346,"is_reserved":false,"is_disabled":false,"rental_uris":{"android":"levelo://app?vid=19ffc743-5767-458d-a1ec-a7c46f57abc1","ios":"levelo://app?vid=19ffc743-5767-458d-a1ec-a7c46f57abc1"},"vehicle_type_id":"4","last_reported":1706040465,"current_range_meters":16400,"station_id":"ce4bhah2rcd13ifvqej0","pricing_plan_id":"free"},{"bike_id":"cb00a1a8-2274-48fe-ab1c-d71d9e89889e","system_id":"levelo_inurba_marseille","lat":43.286591,"lon":5.363346,"is_reserved":false,"is_disabled":false,"rental_uris":{"android":"levelo://app?vid=cb00a1a8-2274-48fe-ab1c-d71d9e89889e","ios":"levelo://app?vid=cb00a1a8-2274-48fe-ab1c-d71d9e89889e"},"vehicle_type_id":"4","last_reported":1706040465,"current_range_meters":1600,"station_id":"ce4bhah2rcd13ifvqej0","pricing_plan_id":"free"},{"bike_id":"51573c6e-d598-4584-be99-6187578a54ed","system_id":"levelo_inurba_marseille","lat":43.286591,"lon":5.363346,"is_reserved":false,"is_disabled":false,"rental_uris":{"android":"levelo://app?vid=51573c6e-d598-4584-be99-6187578a54ed","ios":"levelo://app?vid=51573c6e-d598-4584-be99-6187578a54ed"},"vehicle_type_id":"4","last_reported":1706040465,"current_range_meters":10000,"station_id":"ce4bhah2rcd13ifvqej0","pricing_plan_id":"free"},{"bike_id":"1dcc87b0-b1a6-4ffe-845f-937b8f493392","system_id":"levelo_inurba_marseille","lat":43.286591,"lon":5.363346,"is_reserved":false,"is_disabled":false,"rental_uris":{"android":"levelo://app?vid=1dcc87b0-b1a6-4ffe-845f-937b8f493392","ios":"levelo://app?vid=1dcc87b0-b1a6-4ffe-845f-937b8f493392"},"vehicle_type_id":"4","last_reported":1706040465,"current_range_meters":12400,"station_id":"ce4bhah2rcd13ifvqej0","pricing_plan_id":"free"},{"bike_id":"4ff0019a-17d2-4c5d-b9e0-701b63e93346","system_id":"levelo_inurba_marseille","lat":43.286591,"lon":5.363346,"is_reserved":false,"is_disabled":false,"rental_uris":{"android":"levelo://app?vid=4ff0019a-17d2-4c5d-b9e0-701b63e93346","ios":"levelo://app?vid=4ff0019a-17d2-4c5d-b9e0-701b63e93346"},"vehicle_type_id":"4","last_reported":1706040465,"current_range_meters":4800,"station_id":"ce4bhah2rcd13ifvqej0","pricing_plan_id":"free"},{"bike_id":"1ca4ae02-789e-4877-8988-8b4228c58335","system_id":"levelo_inurba_marseille","lat":43.286593,"lon":5.363346,"is_reserved":false,"is_disabled":false,"rental_uris":{"android":"levelo://app?vid=1ca4ae02-789e-4877-8988-8b4228c58335","ios":"levelo://app?vid=1ca4ae02-789e-4877-8988-8b4228c58335"},"vehicle_type_id":"4","last_reported":1706040465,"current_range_meters":18400,"station_id":"ce4bhah2rcd13ifvqej0","pricing_plan_id":"free"},{"bike_id":"df57f9d3-c1aa-47a7-ab60-1d083b963db1","system_id":"levelo_inurba_marseille","lat":43.298681,"lon":5.397225,"is_reserved":false,"is_disabled":false,"rental_uris":{"android":"levelo://app?vid=df57f9d3-c1aa-47a7-ab60-1d083b963db1","ios":"levelo://app?vid=df57f9d3-c1aa-47a7-ab60-1d083b963db1"},"vehicle_type_id":"4","last_reported":1706040465,"current_range_meters":14400,"station_id":"ce4bh0h2rcd13ifvqd50","pricing_plan_id":"free"},{"bike_id":"9102473f-9c79-41f0-b318-80d31a6a4425","system_id":"levelo_inurba_marseille","lat":43.286593,"lon":5.363346,"is_reserved":false,"is_disabled":false,"rental_uris":{"android":"levelo://app?vid=9102473f-9c79-41f0-b318-80d31a6a4425","ios":"levelo://app?vid=9102473f-9c79-41f0-b318-80d31a6a4425"},"vehicle_type_id":"4","last_reported":1706040465,"current_range_meters":11600,"station_id":"ce4bhah2rcd13ifvqej0","pricing_plan_id":"free"},{"bike_id":"69c32e18-571c-4b95-b5de-2f94894e4be9","system_id":"levelo_inurba_marseille","lat":43.298681,"lon":5.397225,"is_reserved":false,"is_disabled":false,"rental_uris":{"android":"levelo://app?vid=69c32e18-571c-4b95-b5de-2f94894e4be9","ios":"levelo://app?vid=69c32e18-571c-4b95-b5de-2f94894e4be9"},"vehicle_type_id":"4","last_reported":1706040465,"current_range_meters":28000,"station_id":"ce4bh0h2rcd13ifvqd50","pricing_plan_id":"free"},{"bike_id":"2fe45e97-34bb-4974-b109-a39267d6385c","system_id":"levelo_inurba_marseille","lat":43.295194,"lon":5.39397,"is_reserved":false,"is_disabled":false,"rental_uris":{"android":"levelo://app?vid=2fe45e97-34bb-4974-b109-a39267d6385c","ios":"levelo://app?vid=2fe45e97-34bb-4974-b109-a39267d6385c"},"vehicle_type_id":"4","last_reported":1706040465,"current_range_meters":9200,"station_id":"ce4bh292rcd13ifvqdf0","pricing_plan_id":"free"},{"bike_id":"e3a4de88-4760-4074-81b8-305782c0d2b7","system_id":"levelo_inurba_marseille","lat":43.28689,"lon":5.37392,"is_reserved":false,"is_disabled":false,"rental_uris":{"android":"levelo://app?vid=e3a4de88-4760-4074-81b8-305782c0d2b7","ios":"levelo://app?vid=e3a4de88-4760-4074-81b8-305782c0d2b7"},"vehicle_type_id":"4","last_reported":1706040465,"current_range_meters":1200,"station_id":"ce4bh3p2rcd13ifvqdq0","pricing_plan_id":"free"},{"bike_id":"f3dcd3e1-b91a-4be7-a6ea-b0f2a4ae0175","system_id":"levelo_inurba_marseille","lat":43.298588,"lon":5.397468,"is_reserved":false,"is_disabled":false,"rental_uris":{"android":"levelo://app?vid=f3dcd3e1-b91a-4be7-a6ea-b0f2a4ae0175","ios":"levelo://app?vid=f3dcd3e1-b91a-4be7-a6ea-b0f2a4ae0175"},"vehicle_type_id":"4","last_reported":1706040465,"current_range_meters":400,"station_id":"ce4bh0h2rcd13ifvqd50","pricing_plan_id":"free"},{"bike_id":"29b9b779-a96d-470c-8d85-727bfe9000ef","system_id":"levelo_inurba_marseille","lat":43.295196,"lon":5.39397,"is_reserved":false,"is_disabled":false,"rental_uris":{"android":"levelo://app?vid=29b9b779-a96d-470c-8d85-727bfe9000ef","ios":"levelo://app?vid=29b9b779-a96d-470c-8d85-727bfe9000ef"},"vehicle_type_id":"4","last_reported":1706040465,"current_range_meters":18400,"station_id":"ce4bh292rcd13ifvqdf0","pricing_plan_id":"free"},{"bike_id":"83ec5584-03dc-4fa9-bbca-162f71ee1e0c","system_id":"levelo_inurba_marseille","lat":43.295196,"lon":5.39397,"is_reserved":false,"is_disabled":false,"rental_uris":{"android":"levelo://app?vid=83ec5584-03dc-4fa9-bbca-162f71ee1e0c","ios":"levelo://app?vid=83ec5584-03dc-4fa9-bbca-162f71ee1e0c"},"vehicle_type_id":"4","last_reported":1706040465,"current_range_meters":16000,"station_id":"ce4bh292rcd13ifvqdf0","pricing_plan_id":"free"},{"bike_id":"1f2208ee-244c-451c-b58d-5dbb0b3a1dc4","system_id":"levelo_inurba_marseille","lat":43.295194,"lon":5.39397,"is_reserved":false,"is_disabled":false,"rental_uris":{"android":"levelo://app?vid=1f2208ee-244c-451c-b58d-5dbb0b3a1dc4","ios":"levelo://app?vid=1f2208ee-244c-451c-b58d-5dbb0b3a1dc4"},"vehicle_type_id":"4","last_reported":1706040465,"current_range_meters":13200,"station_id":"ce4bh292rcd13ifvqdf0","pricing_plan_id":"free"},{"bike_id":"2238f2a8-372a-4eb9-af3d-904a8d87f07b","system_id":"levelo_inurba_marseille","lat":43.29516,"lon":5.39407,"is_reserved":false,"is_disabled":false,"rental_uris":{"android":"levelo://app?vid=2238f2a8-372a-4eb9-af3d-904a8d87f07b","ios":"levelo://app?vid=2238f2a8-372a-4eb9-af3d-904a8d87f07b"},"vehicle_type_id":"4","last_reported":1706040465,"current_range_meters":0,"station_id":"","pricing_plan_id":"free"},{"bike_id":"df29c85a-00ed-4c35-92e3-88c6805faed3","system_id":"levelo_inurba_marseille","lat":43.295194,"lon":5.39397,"is_reserved":false,"is_disabled":false,"rental_uris":{"android":"levelo://app?vid=df29c85a-00ed-4c35-92e3-88c6805faed3","ios":"levelo://app?vid=df29c85a-00ed-4c35-92e3-88c6805faed3"},"vehicle_type_id":"4","last_reported":1706040465,"current_range_meters":3200,"station_id":"ce4bh292rcd13ifvqdf0","pricing_plan_id":"free"},{"bike_id":"62334620-a44a-4231-ac9d-7f741adce2c0","system_id":"levelo_inurba_marseille","lat":43.290345,"lon":5.38646,"is_reserved":false,"is_disabled":false,"rental_uris":{"android":"levelo://app?vid=62334620-a44a-4231-ac9d-7f741adce2c0","ios":"levelo://app?vid=62334620-a44a-4231-ac9d-7f741adce2c0"},"vehicle_type_id":"4","last_reported":1706040465,"current_range_meters":10400,"station_id":"ce4bh4p2rcd13ifvqe0g","pricing_plan_id":"free"},{"bike_id":"9926118d-a1c6-459d-bf57-a6d4eaaa41f5","system_id":"levelo_inurba_marseille","lat":43.290336,"lon":5.386425,"is_reserved":false,"is_disabled":false,"rental_uris":{"android":"levelo://app?vid=9926118d-a1c6-459d-bf57-a6d4eaaa41f5","ios":"levelo://app?vid=9926118d-a1c6-459d-bf57-a6d4eaaa41f5"},"vehicle_type_id":"4","last_reported":1706040465,"current_range_meters":9600,"station_id":"ce4bh4p2rcd13ifvqe0g","pricing_plan_id":"free"},{"bike_id":"5c972b78-a7b8-48da-80af-900bc3575b1d","system_id":"levelo_inurba_marseille","lat":43.29035,"lon":5.38656,"is_reserved":false,"is_disabled":false,"rental_uris":{"android":"levelo://app?vid=5c972b78-a7b8-48da-80af-900bc3575b1d","ios":"levelo://app?vid=5c972b78-a7b8-48da-80af-900bc3575b1d"},"vehicle_type_id":"4","last_reported":1706040465,"current_range_meters":26400,"station_id":"ce4bh4p2rcd13ifvqe0g","pricing_plan_id":"free"},{"bike_id":"6fd27eeb-bc96-4b01-896f-953065c7f0cf","system_id":"levelo_inurba_marseille","lat":43.29026,"lon":5.38639,"is_reserved":false,"is_disabled":false,"rental_uris":{"android":"levelo://app?vid=6fd27eeb-bc96-4b01-896f-953065c7f0cf","ios":"levelo://app?vid=6fd27eeb-bc96-4b01-896f-953065c7f0cf"},"vehicle_type_id":"4","last_reported":1706040465,"current_range_meters":11600,"station_id":"ce4bh4p2rcd13ifvqe0g","pricing_plan_id":"free"},{"bike_id":"566df9e2-9bc9-4771-a943-91af09abb504","system_id":"levelo_inurba_marseille","lat":43.290336,"lon":5.386425,"is_reserved":false,"is_disabled":false,"rental_uris":{"android":"levelo://app?vid=566df9e2-9bc9-4771-a943-91af09abb504","ios":"levelo://app?vid=566df9e2-9bc9-4771-a943-91af09abb504"},"vehicle_type_id":"4","last_reported":1706040465,"current_range_meters":15600,"station_id":"ce4bh4p2rcd13ifvqe0g","pricing_plan_id":"free"},{"bike_id":"db5f0046-5bdf-4728-a824-99ce17b5499d","system_id":"levelo_inurba_marseille","lat":43.289307,"lon":5.38406,"is_reserved":false,"is_disabled":false,"rental_uris":{"android":"levelo://app?vid=db5f0046-5bdf-4728-a824-99ce17b5499d","ios":"levelo://app?vid=db5f0046-5bdf-4728-a824-99ce17b5499d"},"vehicle_type_id":"4","last_reported":1706040465,"current_range_meters":17600,"station_id":"ce4bh612rcd13ifvqe6g","pricing_plan_id":"free"},{"bike_id":"79fe65b6-6e33-4364-97a1-9cd48a5c964d","system_id":"levelo_inurba_marseille","lat":43.302759,"lon":5.400793,"is_reserved":false,"is_disabled":false,"rental_uris":{"android":"levelo://app?vid=79fe65b6-6e33-4364-97a1-9cd48a5c964d","ios":"levelo://app?vid=79fe65b6-6e33-4364-97a1-9cd48a5c964d"},"vehicle_type_id":"4","last_reported":1706040465,"current_range_meters":26000,"station_id":"ce4bgvh2rcd13ifvqcs0","pricing_plan_id":"free"},{"bike_id":"51cb0144-e378-4030-a91a-90d41fc54f20","system_id":"levelo_inurba_marseille","lat":43.290336,"lon":5.386425,"is_reserved":false,"is_disabled":false,"rental_uris":{"android":"levelo://app?vid=51cb0144-e378-4030-a91a-90d41fc54f20","ios":"levelo://app?vid=51cb0144-e378-4030-a91a-90d41fc54f20"},"vehicle_type_id":"4","last_reported":1706040465,"current_range_meters":8400,"station_id":"ce4bh4p2rcd13ifvqe0g","pricing_plan_id":"free"},{"bike_id":"6b408f0e-4475-4e0b-a46a-29e054adbf4f","system_id":"levelo_inurba_marseille","lat":43.290279,"lon":5.386512,"is_reserved":false,"is_disabled":false,"rental_uris":{"android":"levelo://app?vid=6b408f0e-4475-4e0b-a46a-29e054adbf4f","ios":"levelo://app?vid=6b408f0e-4475-4e0b-a46a-29e054adbf4f"},"vehicle_type_id":"4","last_reported":1706040465,"current_range_meters":0,"station_id":"ce4bh4p2rcd13ifvqe0g","pricing_plan_id":"free"},{"bike_id":"a660ca89-c1ec-4f6e-9d23-282f6cdb470c","system_id":"levelo_inurba_marseille","lat":43.302759,"lon":5.400793,"is_reserved":false,"is_disabled":false,"rental_uris":{"android":"levelo://app?vid=a660ca89-c1ec-4f6e-9d23-282f6cdb470c","ios":"levelo://app?vid=a660ca89-c1ec-4f6e-9d23-282f6cdb470c"},"vehicle_type_id":"4","last_reported":1706040465,"current_range_meters":24800,"station_id":"ce4bgvh2rcd13ifvqcs0","pricing_plan_id":"free"},{"bike_id":"e4fdabd1-7509-4c48-bd05-2faffc4c5d20","system_id":"levelo_inurba_marseille","lat":43.304296,"lon":5.397513,"is_reserved":false,"is_disabled":false,"rental_uris":{"android":"levelo://app?vid=e4fdabd1-7509-4c48-bd05-2faffc4c5d20","ios":"levelo://app?vid=e4fdabd1-7509-4c48-bd05-2faffc4c5d20"},"vehicle_type_id":"4","last_reported":1706040465,"current_range_meters":16000,"station_id":"ce4bh092rcd13ifvqd20","pricing_plan_id":"free"},{"bike_id":"cf897115-b4ba-4988-852a-5becfe4528a3","system_id":"levelo_inurba_marseille","lat":43.29018,"lon":5.38642,"is_reserved":false,"is_disabled":false,"rental_uris":{"android":"levelo://app?vid=cf897115-b4ba-4988-852a-5becfe4528a3","ios":"levelo://app?vid=cf897115-b4ba-4988-852a-5becfe4528a3"},"vehicle_type_id":"4","last_reported":1706040465,"current_range_meters":19200,"station_id":"ce4bh4p2rcd13ifvqe0g","pricing_plan_id":"free"},{"bike_id":"c9c77e5e-7367-4f2b-a32c-bee720142213","system_id":"levelo_inurba_marseille","lat":43.30262,"lon":5.40087,"is_reserved":false,"is_disabled":false,"rental_uris":{"android":"levelo://app?vid=c9c77e5e-7367-4f2b-a32c-bee720142213","ios":"levelo://app?vid=c9c77e5e-7367-4f2b-a32c-bee720142213"},"vehicle_type_id":"4","last_reported":1706040465,"current_range_meters":11600,"station_id":"ce4bgvh2rcd13ifvqcs0","pricing_plan_id":"free"},{"bike_id":"d104f3b4-c3f7-46b5-8b4c-df93c3365b43","system_id":"levelo_inurba_marseille","lat":43.286039,"lon":5.370679,"is_reserved":false,"is_disabled":false,"rental_uris":{"android":"levelo://app?vid=d104f3b4-c3f7-46b5-8b4c-df93c3365b43","ios":"levelo://app?vid=d104f3b4-c3f7-46b5-8b4c-df93c3365b43"},"vehicle_type_id":"4","last_reported":1706040465,"current_range_meters":18400,"station_id":"ce4bht12rcd13ifvqi60","pricing_plan_id":"free"},{"bike_id":"4b8292d5-1ef8-48e8-a9fe-938c15e38956","system_id":"levelo_inurba_marseille","lat":43.286039,"lon":5.370679,"is_reserved":false,"is_disabled":false,"rental_uris":{"android":"levelo://app?vid=4b8292d5-1ef8-48e8-a9fe-938c15e38956","ios":"levelo://app?vid=4b8292d5-1ef8-48e8-a9fe-938c15e38956"},"vehicle_type_id":"4","last_reported":1706040465,"current_range_meters":22400,"station_id":"ce4bht12rcd13ifvqi60","pricing_plan_id":"free"},{"bike_id":"3655f821-97f2-43b0-8583-eb8a32af0530","system_id":"levelo_inurba_marseille","lat":43.286039,"lon":5.370679,"is_reserved":false,"is_disabled":false,"rental_uris":{"android":"levelo://app?vid=3655f821-97f2-43b0-8583-eb8a32af0530","ios":"levelo://app?vid=3655f821-97f2-43b0-8583-eb8a32af0530"},"vehicle_type_id":"4","last_reported":1706040465,"current_range_meters":13600,"station_id":"ce4bht12rcd13ifvqi60","pricing_plan_id":"free"},{"bike_id":"56f818e3-b5a7-4e34-83b4-3029db4bea7e","system_id":"levelo_inurba_marseille","lat":43.287184,"lon":5.37937,"is_reserved":false,"is_disabled":false,"rental_uris":{"android":"levelo://app?vid=56f818e3-b5a7-4e34-83b4-3029db4bea7e","ios":"levelo://app?vid=56f818e3-b5a7-4e34-83b4-3029db4bea7e"},"vehicle_type_id":"4","last_reported":1706040465,"current_range_meters":6400,"station_id":"ce4bh9p2rcd13ifvqec0","pricing_plan_id":"free"},{"bike_id":"ddcf175c-9fe6-4ad7-a1e3-acbbc7e7cdba","system_id":"levelo_inurba_marseille","lat":43.290851,"lon":5.390184,"is_reserved":false,"is_disabled":false,"rental_uris":{"android":"levelo://app?vid=ddcf175c-9fe6-4ad7-a1e3-acbbc7e7cdba","ios":"levelo://app?vid=ddcf175c-9fe6-4ad7-a1e3-acbbc7e7cdba"},"vehicle_type_id":"4","last_reported":1706040465,"current_range_meters":5600,"station_id":"","pricing_plan_id":"free"},{"bike_id":"70948f58-0c20-4cf4-9409-38f435a8fe8c","system_id":"levelo_inurba_marseille","lat":43.291994,"lon":5.392907,"is_reserved":false,"is_disabled":false,"rental_uris":{"android":"levelo://app?vid=70948f58-0c20-4cf4-9409-38f435a8fe8c","ios":"levelo://app?vid=70948f58-0c20-4cf4-9409-38f435a8fe8c"},"vehicle_type_id":"4","last_reported":1706040465,"current_range_meters":2000,"station_id":"ce4bh192rcd13ifvqdd0","pricing_plan_id":"free"},{"bike_id":"1372a274-f72b-41d3-a0b9-b741a687307d","system_id":"levelo_inurba_marseille","lat":43.291994,"lon":5.392907,"is_reserved":false,"is_disabled":false,"rental_uris":{"android":"levelo://app?vid=1372a274-f72b-41d3-a0b9-b741a687307d","ios":"levelo://app?vid=1372a274-f72b-41d3-a0b9-b741a687307d"},"vehicle_type_id":"4","last_reported":1706040465,"current_range_meters":18800,"station_id":"ce4bh192rcd13ifvqdd0","pricing_plan_id":"free"},{"bike_id":"6e93c2b9-4080-4cff-a85d-1f143d588969","system_id":"levelo_inurba_marseille","lat":43.291994,"lon":5.392907,"is_reserved":false,"is_disabled":false,"rental_uris":{"android":"levelo://app?vid=6e93c2b9-4080-4cff-a85d-1f143d588969","ios":"levelo://app?vid=6e93c2b9-4080-4cff-a85d-1f143d588969"},