{"last_updated":1748352320,"ttl":60,"version":"2.2","data":{"bikes":[{"bike_id":"793ac92d-5ce6-42cd-b041-baf4f0b15d97","system_id":"levelo_inurba_marseille","lat":43.22936,"lon":5.35372,"is_reserved":false,"is_disabled":false,"rental_uris":{"android":"levelo://app?vid=793ac92d-5ce6-42cd-b041-baf4f0b15d97","ios":"levelo://app?vid=793ac92d-5ce6-42cd-b041-baf4f0b15d97"},"vehicle_type_id":"4","last_reported":1748352320,"current_range_meters":2800,"station_id":"cpo3532slgdg3j2ikp40","pricing_plan_id":"cebpf4jnsgd1na2vs0mg"},{"bike_id":"1f055a4b-621e-478c-8c4a-43a56e0ff762","system_id":"levelo_inurba_marseille","lat":43.22921,"lon":5.35386,"is_reserved":false,"is_disabled":false,"rental_uris":{"android":"levelo://app?vid=1f055a4b-621e-478c-8c4a-43a56e0ff762","ios":"levelo://app?vid=1f055a4b-621e-478c-8c4a-43a56e0ff762"},"vehicle_type_id":"4","last_reported":1748352320,"current_range_meters":2800,"station_id":"cpo3532slgdg3j2ikp40","pricing_plan_id":"cebpf4jnsgd1na2vs0mg"},{"bike_id":"a523329a-2bdd-40db-af4b-30423193cc65","system_id":"levelo_inurba_marseille","lat":43.26058,"lon":5.39399,"is_reserved":false,"is_disabled":false,"rental_uris":{"android":"levelo://app?vid=a523329a-2bdd-40db-af4b-30423193cc65","ios":"levelo://app?vid=a523329a-2bdd-40db-af4b-30423193cc65"},"vehicle_type_id":"4","last_reported":1748352320,"current_range_meters":2800,"station_id":"ce4bhh92rcd13ifvqfj0","pricing_plan_id":"cebpf4jnsgd1na2vs0mg"},{"bike_id":"36bc4eae-6090-4d8e-b1a0-194eadad677d","system_id":"levelo_inurba_marseille","lat":43.30661,"lon":5.38134,"is_reserved":false,"is_disabled":false,"rental_uris":{"android":"levelo://app?vid=36bc4eae-6090-4d8e-b1a0-194eadad677d","ios":"levelo://app?vid=36bc4eae-6090-4d8e-b1a0-194eadad677d"},"vehicle_type_id":"4","last_reported":1748352320,"current_range_meters":2800,"station_id":"","pricing_plan_id":"cebpf4jnsgd1na2vs0mg"},{"bike_id":"54d87015-4b01-48ab-afe9-86a02647542c","system_id":"levelo_inurba_marseille","lat":43.24437,"lon":5.37017,"is_reserved":false,"is_disabled":false,"rental_uris":{"android":"levelo://app?vid=54d87015-4b01-48ab-afe9-86a02647542c","ios":"levelo://app?vid=54d87015-4b01-48ab-afe9-86a02647542c"},"vehicle_type_id":"4","last_reported":1748352320,"current_range_meters":3200,"station_id":"","pricing_plan_id":"cebpf4jnsgd1na2vs0mg"},{"bike_id":"7bde4c82-8279-4fa4-9438-6d58a6be7114","system_id":"levelo_inurba_marseille","lat":43.29531,"lon":5.39401,"is_reserved":false,"is_disabled":false,"rental_uris":{"android":"levelo://app?vid=7bde4c82-8279-4fa4-9438-6d58a6be7114","ios":"levelo://app?vid=7bde4c82-8279-4fa4-9438-6d58a6be7114"},"vehicle_type_id":"4","last_reported":1748352320,"current_range_meters":2800,"station_id":"ce4bh292rcd13ifvqdf0","pricing_plan_id":"cebpf4jnsgd1na2vs0mg"},{"bike_id":"dcf90d3b-1b04-4a1a-aa0f-51f327100869","system_id":"levelo_inurba_marseille","lat":43.26208,"lon":5.37443,"is_reserved":false,"is_disabled":false,"rental_uris":{"android":"levelo://app?vid=dcf90d3b-1b04-4a1a-aa0f-51f327100869","ios":"levelo://app?vid=dcf90d3b-1b04-4a1a-aa0f-51f327100869"},"vehicle_type_id":"4","last_reported":1748352320,"current_range_meters":3200,"station_id":"ce4bhgp2rcd13ifvqfc0","pricing_plan_id":"cebpf4jnsgd1na2vs0mg"},{"bike_id":"845417e2-d7d8-40a0-b290-1b0dc5e6e24e","system_id":"levelo_inurba_marseille","lat":43.26562,"lon":5.37283,"is_reserved":false,"is_disabled":false,"rental_uris":{"android":"levelo://app?vid=845417e2-d7d8-40a0-b290-1b0dc5e6e24e","ios":"levelo://app?vid=845417e2-d7d8-40a0-b290-1b0dc5e6e24e"},"vehicle_type_id":"4","last_reported":1748352320,"current_range_meters":3200,"station_id":"ce4bhg12rcd13ifvqf70","pricing_plan_id":"cebpf4jnsgd1na2vs0mg"},{"bike_id":"afb650af-3dde-49f5-add1-cfd93063925e","system_id":"levelo_inurba_marseille","lat":43.2455,"lon":5.39524,"is_reserved":false,"is_disabled":false,"rental_uris":{"android":"levelo://app?vid=afb650af-3dde-49f5-add1-cfd93063925e","ios":"levelo://app?vid=afb650af-3dde-49f5-add1-cfd93063925e"},"vehicle_type_id":"4","last_reported":1748352320,"current_range_meters":2800,"station_id":"ce4bhlp2rcd13ifvqgjg","pricing_plan_id":"cebpf4jnsgd1na2vs0mg"},{"bike_id":"d82f563f-9115-4c79-b574-653640ac311a","system_id":"levelo_inurba_marseille","lat":43.28444,"lon":5.39204,"is_reserved":false,"is_disabled":false,"rental_uris":{"android":"levelo://app?vid=d82f563f-9115-4c79-b574-653640ac311a","ios":"levelo://app?vid=d82f563f-9115-4c79-b574-653640ac311a"},"vehicle_type_id":"4","last_reported":1748352320,"current_range_meters":3200,"station_id":"ce4bhoh2rcd13ifvqh5g","pricing_plan_id":"cebpf4jnsgd1na2vs0mg"},{"bike_id":"ab485184-dee6-4278-8ed8-78cb97c31dd5","system_id":"levelo_inurba_marseille","lat":43.2921,"lon":5.35824,"is_reserved":false,"is_disabled":false,"rental_uris":{"android":"levelo://app?vid=ab485184-dee6-4278-8ed8-78cb97c31dd5","ios":"levelo://app?vid=ab485184-dee6-4278-8ed8-78cb97c31dd5"},"vehicle_type_id":"4","last_reported":1748352320,"current_range_meters":3600,"station_id":"","pricing_plan_id":"cebpf4jnsgd1na2vs0mg"},{"bike_id":"821a871b-940c-42aa-9d2f-25ec9e99d1e5","system_id":"levelo_inurba_marseille","lat":43.30892,"lon":5.37184,"is_reserved":false,"is_disabled":false,"rental_uris":{"android":"levelo://app?vid=821a871b-940c-42aa-9d2f-25ec9e99d1e5","ios":"levelo://app?vid=821a871b-940c-42aa-9d2f-25ec9e99d1e5"},"vehicle_type_id":"4","last_reported":1748352320,"current_range_meters":3600,"station_id":"ce4bguh2rcd13ifvqckg","pricing_plan_id":"cebpf4jnsgd1na2vs0mg"},{"bike_id":"c8734c2c-95a4-4d81-92ea-64948e04fd3a","system_id":"levelo_inurba_marseille","lat":43.29194,"lon":5.35804,"is_reserved":false,"is_disabled":false,"rental_uris":{"android":"levelo://app?vid=c8734c2c-95a4-4d81-92ea-64948e04fd3a","ios":"levelo://app?vid=c8734c2c-95a4-4d81-92ea-64948e04fd3a"},"vehicle_type_id":"4","last_reported":1748352320,"current_range_meters":3600,"station_id":"ce4bhb12rcd13ifvqel0","pricing_plan_id":"cebpf4jnsgd1na2vs0mg"},{"bike_id":"2b6a7037-8cef-4d2d-a099-22df4ff71809","system_id":"levelo_inurba_marseille","lat":43.2481,"lon":5.37464,"is_reserved":false,"is_disabled":false,"rental_uris":{"android":"levelo://app?vid=2b6a7037-8cef-4d2d-a099-22df4ff71809","ios":"levelo://app?vid=2b6a7037-8cef-4d2d-a099-22df4ff71809"},"vehicle_type_id":"4","last_reported":1748352320,"current_range_meters":4000,"station_id":"ce4bhgh2rcd13ifvqfb0","pricing_plan_id":"cebpf4jnsgd1na2vs0mg"},{"bike_id":"e9496718-b841-4999-823d-28c5bee5d6f1","system_id":"levelo_inurba_marseille","lat":43.26539,"lon":5.38984,"is_reserved":false,"is_disabled":false,"rental_uris":{"android":"levelo://app?vid=e9496718-b841-4999-823d-28c5bee5d6f1","ios":"levelo://app?vid=e9496718-b841-4999-823d-28c5bee5d6f1"},"vehicle_type_id":"4","last_reported":1748352320,"current_range_meters":4000,"station_id":"ce4bhe12rcd13ifvqf30","pricing_plan_id":"cebpf4jnsgd1na2vs0mg"},{"bike_id":"013b29b5-910d-4547-b953-a122dcc791ff","system_id":"levelo_inurba_marseille","lat":43.24694,"lon":5.38159,"is_reserved":false,"is_disabled":false,"rental_uris":{"android":"levelo://app?vid=013b29b5-910d-4547-b953-a122dcc791ff","ios":"levelo://app?vid=013b29b5-910d-4547-b953-a122dcc791ff"},"vehicle_type_id":"4","last_reported":1748352320,"current_range_meters":4000,"station_id":"ce4bhih2rcd13ifvqfr0","pricing_plan_id":"cebpf4jnsgd1na2vs0mg"},{"bike_id":"a96d904f-bcc5-4565-95b5-34e8ad94d624","system_id":"levelo_inurba_marseille","lat":43.23967,"lon":5.36635,"is_reserved":false,"is_disabled":false,"rental_uris":{"android":"levelo://app?vid=a96d904f-bcc5-4565-95b5-34e8ad94d624","ios":"levelo://app?vid=a96d904f-bcc5-4565-95b5-34e8ad94d624"},"vehicle_type_id":"4","last_reported":1748352320,"current_range_meters":4000,"station_id":"ce4bhi12rcd13ifvqfp0","pricing_plan_id":"cebpf4jnsgd1na2vs0mg"},{"bike_id":"513700e9-e125-4261-bfdd-b0ed8a4bf091","system_id":"levelo_inurba_marseille","lat":43.3415,"lon":5.40912,"is_reserved":false,"is_disabled":false,"rental_uris":{"android":"levelo://app?vid=513700e9-e125-4261-bfdd-b0ed8a4bf091","ios":"levelo://app?vid=513700e9-e125-4261-bfdd-b0ed8a4bf091"},"vehicle_type_id":"4","last_reported":1748352320,"current_range_meters":4000,"station_id":"ce4bhqh2rcd13ifvqhlg","pricing_plan_id":"cebpf4jnsgd1na2vs0mg"},{"bike_id":"e13930bc-2034-4190-932a-d5a95410f0dc","system_id":"levelo_inurba_marseille","lat":43.26489,"lon":5.39547,"is_reserved":false,"is_disabled":false,"rental_uris":{"android":"levelo://app?vid=e13930bc-2034-4190-932a-d5a95410f0dc","ios":"levelo://app?vid=e13930bc-2034-4190-932a-d5a95410f0dc"},"vehicle_type_id":"4","last_reported":1748352320,"current_range_meters":4400,"station_id":"ce4bhi12rcd13ifvqfq0","pricing_plan_id":"cebpf4jnsgd1na2vs0mg"},{"bike_id":"b9c441a5-8beb-4e0c-962a-d3e0905d590e","system_id":"levelo_inurba_marseille","lat":43.23182,"lon":5.3999,"is_reserved":false,"is_disabled":false,"rental_uris":{"android":"levelo://app?vid=b9c441a5-8beb-4e0c-962a-d3e0905d590e","ios":"levelo://app?vid=b9c441a5-8beb-4e0c-962a-d3e0905d590e"},"vehicle_type_id":"4","last_reported":1748352320,"current_range_meters":4000,"station_id":"ce4bhn12rcd13ifvqgqg","pricing_plan_id":"cebpf4jnsgd1na2vs0mg"},{"bike_id":"7cbdda4d-2703-416e-b6e5-eed687d7b0e1","system_id":"levelo_inurba_marseille","lat":43.29571,"lon":5.37533,"is_reserved":false,"is_disabled":false,"rental_uris":{"android":"levelo://app?vid=7cbdda4d-2703-416e-b6e5-eed687d7b0e1","ios":"levelo://app?vid=7cbdda4d-2703-416e-b6e5-eed687d7b0e1"},"vehicle_type_id":"4","last_reported":1748352320,"current_range_meters":4400,"station_id":"ce4bgh92rcd13ifvqb50","pricing_plan_id":"cebpf4jnsgd1na2vs0mg"},{"bike_id":"2261df32-f606-4205-97f2-411e879713c9","system_id":"levelo_inurba_marseille","lat":43.30139,"lon":5.38823,"is_reserved":false,"is_disabled":false,"rental_uris":{"android":"levelo://app?vid=2261df32-f606-4205-97f2-411e879713c9","ios":"levelo://app?vid=2261df32-f606-4205-97f2-411e879713c9"},"vehicle_type_id":"4","last_reported":1748352320,"current_range_meters":4800,"station_id":"ce4bghh2rcd13ifvqb60","pricing_plan_id":"cebpf4jnsgd1na2vs0mg"},{"bike_id":"9dba8239-6956-4394-b88b-f67913567de3","system_id":"levelo_inurba_marseille","lat":43.265675,"lon":5.403261,"is_reserved":false,"is_disabled":false,"rental_uris":{"android":"levelo://app?vid=9dba8239-6956-4394-b88b-f67913567de3","ios":"levelo://app?vid=9dba8239-6956-4394-b88b-f67913567de3"},"vehicle_type_id":"4","last_reported":1748352320,"current_range_meters":4800,"station_id":"","pricing_plan_id":"cebpf4jnsgd1na2vs0mg"},{"bike_id":"fd88e1a3-b8ea-45ac-85d8-b5b06e0ad76a","system_id":"levelo_inurba_marseille","lat":43.25489,"lon":5.37645,"is_reserved":false,"is_disabled":false,"rental_uris":{"android":"levelo://app?vid=fd88e1a3-b8ea-45ac-85d8-b5b06e0ad76a","ios":"levelo://app?vid=fd88e1a3-b8ea-45ac-85d8-b5b06e0ad76a"},"vehicle_type_id":"4","last_reported":1748352320,"current_range_meters":4800,"station_id":"ce4bhh12rcd13ifvqff0","pricing_plan_id":"cebpf4jnsgd1na2vs0mg"},{"bike_id":"4b15c05b-7a78-452b-b2ef-7de72be20910","system_id":"levelo_inurba_marseille","lat":43.27905,"lon":5.38056,"is_reserved":false,"is_disabled":false,"rental_uris":{"android":"levelo://app?vid=4b15c05b-7a78-452b-b2ef-7de72be20910","ios":"levelo://app?vid=4b15c05b-7a78-452b-b2ef-7de72be20910"},"vehicle_type_id":"4","last_reported":1748352320,"current_range_meters":4800,"station_id":"ce4bhf92rcd13ifvqf50","pricing_plan_id":"cebpf4jnsgd1na2vs0mg"},{"bike_id":"fc56555b-396d-4667-b896-0ad86036e39e","system_id":"levelo_inurba_marseille","lat":43.259109,"lon":5.38037,"is_reserved":false,"is_disabled":false,"rental_uris":{"android":"levelo://app?vid=fc56555b-396d-4667-b896-0ad86036e39e","ios":"levelo://app?vid=fc56555b-396d-4667-b896-0ad86036e39e"},"vehicle_type_id":"4","last_reported":1748352320,"current_range_meters":5600,"station_id":"","pricing_plan_id":"cebpf4jnsgd1na2vs0mg"},{"bike_id":"a4aef2b9-b7e8-4e2d-8340-592d28bc6c85","system_id":"levelo_inurba_marseille","lat":43.337654,"lon":5.37434,"is_reserved":false,"is_disabled":false,"rental_uris":{"android":"levelo://app?vid=a4aef2b9-b7e8-4e2d-8340-592d28bc6c85","ios":"levelo://app?vid=a4aef2b9-b7e8-4e2d-8340-592d28bc6c85"},"vehicle_type_id":"4","last_reported":1748352320,"current_range_meters":5600,"station_id":"","pricing_plan_id":"cebpf4jnsgd1na2vs0mg"},{"bike_id":"05b92379-4b47-4e4b-8d66-cf9a0dea4304","system_id":"levelo_inurba_marseille","lat":43.3136,"lon":5.38494,"is_reserved":false,"is_disabled":false,"rental_uris":{"android":"levelo://app?vid=05b92379-4b47-4e4b-8d66-cf9a0dea4304","ios":"levelo://app?vid=05b92379-4b47-4e4b-8d66-cf9a0dea4304"},"vehicle_type_id":"4","last_reported":1748352320,"current_range_meters":5600,"station_id":"ce4bgt92rcd13ifvqcf0","pricing_plan_id":"cebpf4jnsgd1na2vs0mg"},{"bike_id":"cca23434-1324-4d3a-aaa0-82b1c7cdb067","system_id":"levelo_inurba_marseille","lat":43.273129,"lon":5.39075,"is_reserved":false,"is_disabled":false,"rental_uris":{"android":"levelo://app?vid=cca23434-1324-4d3a-aaa0-82b1c7cdb067","ios":"levelo://app?vid=cca23434-1324-4d3a-aaa0-82b1c7cdb067"},"vehicle_type_id":"4","last_reported":1748352320,"current_range_meters":5600,"station_id":"ce4bhi12rcd13ifvqfo0","pricing_plan_id":"cebpf4jnsgd1na2vs0mg"},{"bike_id":"9cc02171-4fb3-4e13-9244-4ec7d07ff470","system_id":"levelo_inurba_marseille","lat":43.24183,"lon":5.39743,"is_reserved":false,"is_disabled":false,"rental_uris":{"android":"levelo://app?vid=9cc02171-4fb3-4e13-9244-4ec7d07ff470","ios":"levelo://app?vid=9cc02171-4fb3-4e13-9244-4ec7d07ff470"},"vehicle_type_id":"4","last_reported":1748352320,"current_range_meters":6000,"station_id":"ce4bhn12rcd13ifvqgpg","pricing_plan_id":"cebpf4jnsgd1na2vs0mg"},{"bike_id":"3df0a723-70f1-45cf-bff9-5628e9d27574","system_id":"levelo_inurba_marseille","lat":43.22934,"lon":5.35376,"is_reserved":false,"is_disabled":false,"rental_uris":{"android":"levelo://app?vid=3df0a723-70f1-45cf-bff9-5628e9d27574","ios":"levelo://app?vid=3df0a723-70f1-45cf-bff9-5628e9d27574"},"vehicle_type_id":"4","last_reported":1748352320,"current_range_meters":6000,"station_id":"cpo3532slgdg3j2ikp40","pricing_plan_id":"cebpf4jnsgd1na2vs0mg"},{"bike_id":"a3fdfab4-cb8b-4639-a8f9-ac99f398c758","system_id":"levelo_inurba_marseille","lat":43.24171,"lon":5.36403,"is_reserved":false,"is_disabled":false,"rental_uris":{"android":"levelo://app?vid=a3fdfab4-cb8b-4639-a8f9-ac99f398c758","ios":"levelo://app?vid=a3fdfab4-cb8b-4639-a8f9-ac99f398c758"},"vehicle_type_id":"4","last_reported":1748352320,"current_range_meters":6000,"station_id":"cpo36qri1sfpv3e86is0","pricing_plan_id":"cebpf4jnsgd1na2vs0mg"},{"bike_id":"c0d59c09-8002-4303-86f5-d7d9a1df7120","system_id":"levelo_inurba_marseille","lat":43.308938,"lon":5.396638,"is_reserved":false,"is_disabled":false,"rental_uris":{"android":"levelo://app?vid=c0d59c09-8002-4303-86f5-d7d9a1df7120","ios":"levelo://app?vid=c0d59c09-8002-4303-86f5-d7d9a1df7120"},"vehicle_type_id":"4","last_reported":1748352320,"current_range_meters":6000,"station_id":"ce4bh012rcd13ifvqcv0","pricing_plan_id":"cebpf4jnsgd1na2vs0mg"},{"bike_id":"e7148af7-a139-4f3c-868b-37affcabd2f7","system_id":"levelo_inurba_marseille","lat":43.23963,"lon":5.36631,"is_reserved":false,"is_disabled":false,"rental_uris":{"android":"levelo://app?vid=e7148af7-a139-4f3c-868b-37affcabd2f7","ios":"levelo://app?vid=e7148af7-a139-4f3c-868b-37affcabd2f7"},"vehicle_type_id":"4","last_reported":1748352320,"current_range_meters":6000,"station_id":"ce4bhi12rcd13ifvqfp0","pricing_plan_id":"cebpf4jnsgd1na2vs0mg"},{"bike_id":"2b73315a-ee87-4d8e-8a09-44cb343862e1","system_id":"levelo_inurba_marseille","lat":43.27989,"lon":5.4166,"is_reserved":false,"is_disabled":false,"rental_uris":{"android":"levelo://app?vid=2b73315a-ee87-4d8e-8a09-44cb343862e1","ios":"levelo://app?vid=2b73315a-ee87-4d8e-8a09-44cb343862e1"},"vehicle_type_id":"4","last_reported":1748352320,"current_range_meters":6400,"station_id":"ce4bho12rcd13ifvqh1g","pricing_plan_id":"cebpf4jnsgd1na2vs0mg"},{"bike_id":"b744080c-dd77-486d-9609-00c9cf60c1ad","system_id":"levelo_inurba_marseille","lat":43.23618,"lon":5.39188,"is_reserved":false,"is_disabled":false,"rental_uris":{"android":"levelo://app?vid=b744080c-dd77-486d-9609-00c9cf60c1ad","ios":"levelo://app?vid=b744080c-dd77-486d-9609-00c9cf60c1ad"},"vehicle_type_id":"4","last_reported":1748352320,"current_range_meters":6400,"station_id":"","pricing_plan_id":"cebpf4jnsgd1na2vs0mg"},{"bike_id":"d83e089f-2a40-4aff-8d7c-bf1a2a2bd08a","system_id":"levelo_inurba_marseille","lat":43.23966,"lon":5.36624,"is_reserved":false,"is_disabled":false,"rental_uris":{"android":"levelo://app?vid=d83e089f-2a40-4aff-8d7c-bf1a2a2bd08a","ios":"levelo://app?vid=d83e089f-2a40-4aff-8d7c-bf1a2a2bd08a"},"vehicle_type_id":"4","last_reported":1748352320,"current_range_meters":6400,"station_id":"ce4bhi12rcd13ifvqfp0","pricing_plan_id":"cebpf4jnsgd1na2vs0mg"},{"bike_id":"ad0fd1aa-c804-438c-9251-a5058f125ac5","system_id":"levelo_inurba_marseille","lat":43.28166,"lon":5.42664,"is_reserved":false,"is_disabled":false,"rental_uris":{"android":"levelo://app?vid=ad0fd1aa-c804-438c-9251-a5058f125ac5","ios":"levelo://app?vid=ad0fd1aa-c804-438c-9251-a5058f125ac5"},"vehicle_type_id":"4","last_reported":1748352320,"current_range_meters":6400,"station_id":"ce4bhnh2rcd13ifvqgug","pricing_plan_id":"cebpf4jnsgd1na2vs0mg"},{"bike_id":"835db8c0-5a24-46a4-8840-2bdf70763083","system_id":"levelo_inurba_marseille","lat":43.28262,"lon":5.35073,"is_reserved":false,"is_disabled":false,"rental_uris":{"android":"levelo://app?vid=835db8c0-5a24-46a4-8840-2bdf70763083","ios":"levelo://app?vid=835db8c0-5a24-46a4-8840-2bdf70763083"},"vehicle_type_id":"4","last_reported":1748352320,"current_range_meters":6400,"station_id":"ce4bhbp2rcd13ifvqerg","pricing_plan_id":"cebpf4jnsgd1na2vs0mg"},{"bike_id":"7f084a2f-1f14-4a9d-a54e-ba80f7017537","system_id":"levelo_inurba_marseille","lat":43.3014,"lon":5.37419,"is_reserved":false,"is_disabled":false,"rental_uris":{"android":"levelo://app?vid=7f084a2f-1f14-4a9d-a54e-ba80f7017537","ios":"levelo://app?vid=7f084a2f-1f14-4a9d-a54e-ba80f7017537"},"vehicle_type_id":"4","last_reported":1748352320,"current_range_meters":6800,"station_id":"ce4bgs92rcd13ifvqcc0","pricing_plan_id":"cebpf4jnsgd1na2vs0mg"},{"bike_id":"15895a4c-6504-4c01-aecb-996f77f1a3b5","system_id":"levelo_inurba_marseille","lat":43.32111,"lon":5.36813,"is_reserved":false,"is_disabled":false,"rental_uris":{"android":"levelo://app?vid=15895a4c-6504-4c01-aecb-996f77f1a3b5","ios":"levelo://app?vid=15895a4c-6504-4c01-aecb-996f77f1a3b5"},"vehicle_type_id":"4","last_reported":1748352320,"current_range_meters":6800,"station_id":"ce4bhrh2rcd13ifvqhug","pricing_plan_id":"cebpf4jnsgd1na2vs0mg"},{"bike_id":"aed03d0a-eaa6-4d76-b5c9-e69467d8c7a2","system_id":"levelo_inurba_marseille","lat":43.25507,"lon":5.37649,"is_reserved":false,"is_disabled":false,"rental_uris":{"android":"levelo://app?vid=aed03d0a-eaa6-4d76-b5c9-e69467d8c7a2","ios":"levelo://app?vid=aed03d0a-eaa6-4d76-b5c9-e69467d8c7a2"},"vehicle_type_id":"4","last_reported":1748352320,"current_range_meters":6800,"station_id":"ce4bhh12rcd13ifvqff0","pricing_plan_id":"cebpf4jnsgd1na2vs0mg"},{"bike_id":"2ec3c1ab-f731-420e-be73-810c4409ee8e","system_id":"levelo_inurba_marseille","lat":43.31763,"lon":5.39015,"is_reserved":false,"is_disabled":false,"rental_uris":{"android":"levelo://app?vid=2ec3c1ab-f731-420e-be73-810c4409ee8e","ios":"levelo://app?vid=2ec3c1ab-f731-420e-be73-810c4409ee8e"},"vehicle_type_id":"4","last_reported":1748352320,"current_range_meters":7200,"station_id":"ce4bhqp2rcd13ifvqhng","pricing_plan_id":"cebpf4jnsgd1na2vs0mg"},{"bike_id":"cdda480d-d104-4393-bc9d-38f9f4ec61a1","system_id":"levelo_inurba_marseille","lat":43.30935,"lon":5.40153,"is_reserved":false,"is_disabled":false,"rental_uris":{"android":"levelo://app?vid=cdda480d-d104-4393-bc9d-38f9f4ec61a1","ios":"levelo://app?vid=cdda480d-d104-4393-bc9d-38f9f4ec61a1"},"vehicle_type_id":"4","last_reported":1748352320,"current_range_meters":7200,"station_id":"ce4bgvp2rcd13ifvqct0","pricing_plan_id":"cebpf4jnsgd1na2vs0mg"},{"bike_id":"179f87c5-653e-4929-8615-1f36854f464c","system_id":"levelo_inurba_marseille","lat":43.28155,"lon":5.42642,"is_reserved":false,"is_disabled":false,"rental_uris":{"android":"levelo://app?vid=179f87c5-653e-4929-8615-1f36854f464c","ios":"levelo://app?vid=179f87c5-653e-4929-8615-1f36854f464c"},"vehicle_type_id":"4","last_reported":1748352320,"current_range_meters":7200,"station_id":"ce4bhnh2rcd13ifvqgug","pricing_plan_id":"cebpf4jnsgd1na2vs0mg"},{"bike_id":"95a2b232-b912-4658-aa77-ceebce924afd","system_id":"levelo_inurba_marseille","lat":43.31489,"lon":5.37311,"is_reserved":false,"is_disabled":false,"rental_uris":{"android":"levelo://app?vid=95a2b232-b912-4658-aa77-ceebce924afd","ios":"levelo://app?vid=95a2b232-b912-4658-aa77-ceebce924afd"},"vehicle_type_id":"4","last_reported":1748352320,"current_range_meters":7200,"station_id":"ce4bgt12rcd13ifvqcd0","pricing_plan_id":"cebpf4jnsgd1na2vs0mg"},{"bike_id":"2073790f-a665-438a-8a46-81510ad945ef","system_id":"levelo_inurba_marseille","lat":43.29313,"lon":5.403,"is_reserved":false,"is_disabled":false,"rental_uris":{"android":"levelo://app?vid=2073790f-a665-438a-8a46-81510ad945ef","ios":"levelo://app?vid=2073790f-a665-438a-8a46-81510ad945ef"},"vehicle_type_id":"4","last_reported":1748352320,"current_range_meters":7200,"station_id":"ce4bh312rcd13ifvqdk0","pricing_plan_id":"cebpf4jnsgd1na2vs0mg"},{"bike_id":"d1b04229-5ae5-4d40-af12-6abd6d26145d","system_id":"levelo_inurba_marseille","lat":43.25822,"lon":5.39438,"is_reserved":false,"is_disabled":false,"rental_uris":{"android":"levelo://app?vid=d1b04229-5ae5-4d40-af12-6abd6d26145d","ios":"levelo://app?vid=d1b04229-5ae5-4d40-af12-6abd6d26145d"},"vehicle_type_id":"4","last_reported":1748352320,"current_range_meters":7200,"station_id":"ce4bhip2rcd13ifvqft0","pricing_plan_id":"cebpf4jnsgd1na2vs0mg"},{"bike_id":"d7856b08-f389-43aa-b6bf-e150a34681d9","system_id":"levelo_inurba_marseille","lat":43.31391,"lon":5.36743,"is_reserved":false,"is_disabled":false,"rental_uris":{"android":"levelo://app?vid=d7856b08-f389-43aa-b6bf-e150a34681d9","ios":"levelo://app?vid=d7856b08-f389-43aa-b6bf-e150a34681d9"},"vehicle_type_id":"4","last_reported":1748352320,"current_range_meters":7200,"station_id":"ce4bgr92rcd13ifvqc6g","pricing_plan_id":"cebpf4jnsgd1na2vs0mg"},{"bike_id":"80e173fe-dd4c-4504-acc2-c0a4506a953b","system_id":"levelo_inurba_marseille","lat":43.29073,"lon":5.37158,"is_reserved":false,"is_disabled":false,"rental_uris":{"android":"levelo://app?vid=80e173fe-dd4c-4504-acc2-c0a4506a953b","ios":"levelo://app?vid=80e173fe-dd4c-4504-acc2-c0a4506a953b"},"vehicle_type_id":"4","last_reported":1748352320,"current_range_meters":7200,"station_id":"ce4bh5p2rcd13ifvqe4g","pricing_plan_id":"cebpf4jnsgd1na2vs0mg"},{"bike_id":"39b9e6f9-7f50-4c15-865f-e83796dd4da6","system_id":"levelo_inurba_marseille","lat":43.28665,"lon":5.36356,"is_reserved":false,"is_disabled":false,"rental_uris":{"android":"levelo://app?vid=39b9e6f9-7f50-4c15-865f-e83796dd4da6","ios":"levelo://app?vid=39b9e6f9-7f50-4c15-865f-e83796dd4da6"},"vehicle_type_id":"4","last_reported":1748352320,"current_range_meters":7200,"station_id":"ce4bhah2rcd13ifvqej0","pricing_plan_id":"cebpf4jnsgd1na2vs0mg"},{"bike_id":"f3c3b5f7-75cf-4913-b2f1-34713927867b","system_id":"levelo_inurba_marseille","lat":43.254969,"lon":5.37649,"is_reserved":false,"is_disabled":false,"rental_uris":{"android":"levelo://app?vid=f3c3b5f7-75cf-4913-b2f1-34713927867b","ios":"levelo://app?vid=f3c3b5f7-75cf-4913-b2f1-34713927867b"},"vehicle_type_id":"4","last_reported":1748352320,"current_range_meters":8000,"station_id":"","pricing_plan_id":"cebpf4jnsgd1na2vs0mg"},{"bike_id":"4de9b7e5-eeb0-4157-a33c-ea0bec568ecd","system_id":"levelo_inurba_marseille","lat":43.26204,"lon":5.37934,"is_reserved":false,"is_disabled":false,"rental_uris":{"android":"levelo://app?vid=4de9b7e5-eeb0-4157-a33c-ea0bec568ecd","ios":"levelo://app?vid=4de9b7e5-eeb0-4157-a33c-ea0bec568ecd"},"vehicle_type_id":"4","last_reported":1748352320,"current_range_meters":8000,"station_id":"ce4bhjp2rcd13ifvqg90","pricing_plan_id":"cebpf4jnsgd1na2vs0mg"},{"bike_id":"ce774b24-e1b1-46f4-ac51-05d81ca0ea34","system_id":"levelo_inurba_marseille","lat":43.27894,"lon":5.38031,"is_reserved":false,"is_disabled":false,"rental_uris":{"android":"levelo://app?vid=ce774b24-e1b1-46f4-ac51-05d81ca0ea34","ios":"levelo://app?vid=ce774b24-e1b1-46f4-ac51-05d81ca0ea34"},"vehicle_type_id":"4","last_reported":1748352320,"current_range_meters":8000,"station_id":"ce4bhf92rcd13ifvqf50","pricing_plan_id":"cebpf4jnsgd1na2vs0mg"},{"bike_id":"6e37d84b-0136-4bd4-a1ae-bc58fa2f7419","system_id":"levelo_inurba_marseille","lat":43.31518,"lon":5.37282,"is_reserved":false,"is_disabled":false,"rental_uris":{"android":"levelo://app?vid=6e37d84b-0136-4bd4-a1ae-bc58fa2f7419","ios":"levelo://app?vid=6e37d84b-0136-4bd4-a1ae-bc58fa2f7419"},"vehicle_type_id":"4","last_reported":1748352320,"current_range_meters":8400,"station_id":"ce4bgt12rcd13ifvqcd0","pricing_plan_id":"cebpf4jnsgd1na2vs0mg"},{"bike_id":"acf36cb4-d623-4d6b-b4ca-ebe6206aa64c","system_id":"levelo_inurba_marseille","lat":43.284,"lon":5.37522,"is_reserved":false,"is_disabled":false,"rental_uris":{"android":"levelo://app?vid=acf36cb4-d623-4d6b-b4ca-ebe6206aa64c","ios":"levelo://app?vid=acf36cb4-d623-4d6b-b4ca-ebe6206aa64c"},"vehicle_type_id":"4","last_reported":1748352320,"current_range_meters":8400,"station_id":"ce4bh412rcd13ifvqds0","pricing_plan_id":"cebpf4jnsgd1na2vs0mg"},{"bike_id":"c8562305-561a-4a6c-953f-d90f9e96f21d","system_id":"levelo_inurba_marseille","lat":43.25577,"lon":5.38233,"is_reserved":false,"is_disabled":false,"rental_uris":{"android":"levelo://app?vid=c8562305-561a-4a6c-953f-d90f9e96f21d","ios":"levelo://app?vid=c8562305-561a-4a6c-953f-d90f9e96f21d"},"vehicle_type_id":"4","last_reported":1748352320,"current_range_meters":8400,"station_id":"","pricing_plan_id":"cebpf4jnsgd1na2vs0mg"},{"bike_id":"4e3a6c84-3034-477f-a251-8b284d794b30","system_id":"levelo_inurba_marseille","lat":43.25939,"lon":5.40901,"is_reserved":false,"is_disabled":false,"rental_uris":{"android":"levelo://app?vid=4e3a6c84-3034-477f-a251-8b284d794b30","ios":"levelo://app?vid=4e3a6c84-3034-477f-a251-8b284d794b30"},"vehicle_type_id":"4","last_reported":1748352320,"current_range_meters":8400,"station_id":"ce4bhm92rcd13ifvqglg","pricing_plan_id":"cebpf4jnsgd1na2vs0mg"},{"bike_id":"fb1a3b4e-0be5-4550-bfd4-854affb491cd","system_id":"levelo_inurba_marseille","lat":43.2593,"lon":5.409,"is_reserved":false,"is_disabled":false,"rental_uris":{"android":"levelo://app?vid=fb1a3b4e-0be5-4550-bfd4-854affb491cd","ios":"levelo://app?vid=fb1a3b4e-0be5-4550-bfd4-854affb491cd"},"vehicle_type_id":"4","last_reported":1748352320,"current_range_meters":8400,"station_id":"ce4bhm92rcd13ifvqglg","pricing_plan_id":"cebpf4jnsgd1na2vs0mg"},{"bike_id":"679c99eb-2d72-4998-8e48-e0d4f822ab73","system_id":"levelo_inurba_marseille","lat":43.28614,"lon":5.35099,"is_reserved":false,"is_disabled":false,"rental_uris":{"android":"levelo://app?vid=679c99eb-2d72-4998-8e48-e0d4f822ab73","ios":"levelo://app?vid=679c99eb-2d72-4998-8e48-e0d4f822ab73"},"vehicle_type_id":"4","last_reported":1748352320,"current_range_meters":8400,"station_id":"ce4bhch2rcd13ifvqeug","pricing_plan_id":"cebpf4jnsgd1na2vs0mg"},{"bike_id":"0ea1364f-a3c5-4d46-bf3b-c276bc324dce","system_id":"levelo_inurba_marseille","lat":43.30316,"lon":5.39206,"is_reserved":false,"is_disabled":false,"rental_uris":{"android":"levelo://app?vid=0ea1364f-a3c5-4d46-bf3b-c276bc324dce","ios":"levelo://app?vid=0ea1364f-a3c5-4d46-bf3b-c276bc324dce"},"vehicle_type_id":"4","last_reported":1748352320,"current_range_meters":8000,"station_id":"ce4bgkh2rcd13ifvqbk0","pricing_plan_id":"cebpf4jnsgd1na2vs0mg"},{"bike_id":"9c8ab5ff-7a98-4cff-9fc1-ebfa4504dbaf","system_id":"levelo_inurba_marseille","lat":43.31489,"lon":5.37278,"is_reserved":false,"is_disabled":false,"rental_uris":{"android":"levelo://app?vid=9c8ab5ff-7a98-4cff-9fc1-ebfa4504dbaf","ios":"levelo://app?vid=9c8ab5ff-7a98-4cff-9fc1-ebfa4504dbaf"},"vehicle_type_id":"4","last_reported":1748352320,"current_range_meters":8800,"station_id":"ce4bgt12rcd13ifvqcd0","pricing_plan_id":"cebpf4jnsgd1na2vs0mg"},{"bike_id":"25613195-24ff-4f8d-98b6-cb9c30bdccad","system_id":"levelo_inurba_marseille","lat":43.26214,"lon":5.37431,"is_reserved":false,"is_disabled":false,"rental_uris":{"android":"levelo://app?vid=25613195-24ff-4f8d-98b6-cb9c30bdccad","ios":"levelo://app?vid=25613195-24ff-4f8d-98b6-cb9c30bdccad"},"vehicle_type_id":"4","last_reported":1748352320,"current_range_meters":8800,"station_id":"ce4bhgp2rcd13ifvqfc0","pricing_plan_id":"cebpf4jnsgd1na2vs0mg"},{"bike_id":"ae6e6868-2635-4f49-b7c1-b03759c58ec7","system_id":"levelo_inurba_marseille","lat":43.272791,"lon":5.415849,"is_reserved":false,"is_disabled":false,"rental_uris":{"android":"levelo://app?vid=ae6e6868-2635-4f49-b7c1-b03759c58ec7","ios":"levelo://app?vid=ae6e6868-2635-4f49-b7c1-b03759c58ec7"},"vehicle_type_id":"4","last_reported":1748352320,"current_range_meters":8800,"station_id":"","pricing_plan_id":"cebpf4jnsgd1na2vs0mg"},{"bike_id":"d1906da6-5b1d-4f04-aee2-db651e02f89c","system_id":"levelo_inurba_marseille","lat":43.26685,"lon":5.38272,"is_reserved":false,"is_disabled":false,"rental_uris":{"android":"levelo://app?vid=d1906da6-5b1d-4f04-aee2-db651e02f89c","ios":"levelo://app?vid=d1906da6-5b1d-4f04-aee2-db651e02f89c"},"vehicle_type_id":"4","last_reported":1748352320,"current_range_meters":8800,"station_id":"ce4bhg92rcd13ifvqf90","pricing_plan_id":"cebpf4jnsgd1na2vs0mg"},{"bike_id":"a6e14aa0-8dc5-4b8c-b730-7c9ef40dc64b","system_id":"levelo_inurba_marseille","lat":43.29581,"lon":5.37519,"is_reserved":false,"is_disabled":false,"rental_uris":{"android":"levelo://app?vid=a6e14aa0-8dc5-4b8c-b730-7c9ef40dc64b","ios":"levelo://app?vid=a6e14aa0-8dc5-4b8c-b730-7c9ef40dc64b"},"vehicle_type_id":"4","last_reported":1748352320,"current_range_meters":8400,"station_id":"ce4bgh92rcd13ifvqb50","pricing_plan_id":"cebpf4jnsgd1na2vs0mg"},{"bike_id":"03ba385a-aa61-4b41-8ed3-0257cdc85f5d","system_id":"levelo_inurba_marseille","lat":43.29604,"lon":5.38107,"is_reserved":false,"is_disabled":false,"rental_uris":{"android":"levelo://app?vid=03ba385a-aa61-4b41-8ed3-0257cdc85f5d","ios":"levelo://app?vid=03ba385a-aa61-4b41-8ed3-0257cdc85f5d"},"vehicle_type_id":"4","last_reported":1748352320,"current_range_meters":8800,"station_id":"ce4bgl12rcd13ifvqbo0","pricing_plan_id":"cebpf4jnsgd1na2vs0mg"},{"bike_id":"f6a291c8-009c-4799-858f-3d0684b35fea","system_id":"levelo_inurba_marseille","lat":43.23151,"lon":5.43703,"is_reserved":false,"is_disabled":false,"rental_uris":{"android":"levelo://app?vid=f6a291c8-009c-4799-858f-3d0684b35fea","ios":"levelo://app?vid=f6a291c8-009c-4799-858f-3d0684b35fea"},"vehicle_type_id":"4","last_reported":1748352320,"current_range_meters":8800,"station_id":"ce4bhmp2rcd13ifvqgog","pricing_plan_id":"cebpf4jnsgd1na2vs0mg"},{"bike_id":"96479421-6d03-48b9-b32e-c212271c064b","system_id":"levelo_inurba_marseille","lat":43.29259,"lon":5.37627,"is_reserved":false,"is_disabled":false,"rental_uris":{"android":"levelo://app?vid=96479421-6d03-48b9-b32e-c212271c064b","ios":"levelo://app?vid=96479421-6d03-48b9-b32e-c212271c064b"},"vehicle_type_id":"4","last_reported":1748352320,"current_range_meters":8800,"station_id":"","pricing_plan_id":"cebpf4jnsgd1na2vs0mg"},{"bike_id":"25853d19-5d1f-494a-a293-243ec360eb47","system_id":"levelo_inurba_marseille","lat":43.24169,"lon":5.39757,"is_reserved":false,"is_disabled":false,"rental_uris":{"android":"levelo://app?vid=25853d19-5d1f-494a-a293-243ec360eb47","ios":"levelo://app?vid=25853d19-5d1f-494a-a293-243ec360eb47"},"vehicle_type_id":"4","last_reported":1748352320,"current_range_meters":8800,"station_id":"ce4bhn12rcd13ifvqgpg","pricing_plan_id":"cebpf4jnsgd1na2vs0mg"},{"bike_id":"1a0998e5-8bb9-474f-a827-53cad24c9e8f","system_id":"levelo_inurba_marseille","lat":43.3204,"lon":5.44952,"is_reserved":false,"is_disabled":false,"rental_uris":{"android":"levelo://app?vid=1a0998e5-8bb9-474f-a827-53cad24c9e8f","ios":"levelo://app?vid=1a0998e5-8bb9-474f-a827-53cad24c9e8f"},"vehicle_type_id":"4","last_reported":1748352320,"current_range_meters":9200,"station_id":"","pricing_plan_id":"cebpf4jnsgd1na2vs0mg"},{"bike_id":"32a2585a-2721-48f1-9be2-519c980b10dd","system_id":"levelo_inurba_marseille","lat":43.26203,"lon":5.3794,"is_reserved":false,"is_disabled":false,"rental_uris":{"android":"levelo://app?vid=32a2585a-2721-48f1-9be2-519c980b10dd","ios":"levelo://app?vid=32a2585a-2721-48f1-9be2-519c980b10dd"},"vehicle_type_id":"4","last_reported":1748352320,"current_range_meters":9200,"station_id":"ce4bhjp2rcd13ifvqg90","pricing_plan_id":"cebpf4jnsgd1na2vs0mg"},{"bike_id":"d4b9bdc7-705a-489f-b62e-36c8e01c9b06","system_id":"levelo_inurba_marseille","lat":43.27674,"lon":5.38881,"is_reserved":false,"is_disabled":false,"rental_uris":{"android":"levelo://app?vid=d4b9bdc7-705a-489f-b62e-36c8e01c9b06","ios":"levelo://app?vid=d4b9bdc7-705a-489f-b62e-36c8e01c9b06"},"vehicle_type_id":"4","last_reported":1748352320,"current_range_meters":9200,"station_id":"ce4bhi12rcd13ifvqfo0","pricing_plan_id":"cebpf4jnsgd1na2vs0mg"},{"bike_id":"1c339989-0793-4fc1-8a8c-8e3a7c64a86c","system_id":"levelo_inurba_marseille","lat":43.23057,"lon":5.35491,"is_reserved":false,"is_disabled":false,"rental_uris":{"android":"levelo://app?vid=1c339989-0793-4fc1-8a8c-8e3a7c64a86c","ios":"levelo://app?vid=1c339989-0793-4fc1-8a8c-8e3a7c64a86c"},"vehicle_type_id":"4","last_reported":1748352320,"current_range_meters":9200,"station_id":"cpo3342slgdg3j2ifvpg","pricing_plan_id":"cebpf4jnsgd1na2vs0mg"},{"bike_id":"fba8127b-83b0-49e9-8ab8-d68600238eaa","system_id":"levelo_inurba_marseille","lat":43.31486,"lon":5.37312,"is_reserved":false,"is_disabled":false,"rental_uris":{"android":"levelo://app?vid=fba8127b-83b0-49e9-8ab8-d68600238eaa","ios":"levelo://app?vid=fba8127b-83b0-49e9-8ab8-d68600238eaa"},"vehicle_type_id":"4","last_reported":1748352320,"current_range_meters":9200,"station_id":"ce4bgt12rcd13ifvqcd0","pricing_plan_id":"cebpf4jnsgd1na2vs0mg"},{"bike_id":"dc0745af-da34-4142-9733-f68f2ae13a20","system_id":"levelo_inurba_marseille","lat":43.29049,"lon":5.35898,"is_reserved":false,"is_disabled":false,"rental_uris":{"android":"levelo://app?vid=dc0745af-da34-4142-9733-f68f2ae13a20","ios":"levelo://app?vid=dc0745af-da34-4142-9733-f68f2ae13a20"},"vehicle_type_id":"4","last_reported":1748352320,"current_range_meters":9200,"station_id":"ce4bha92rcd13ifvqeg0","pricing_plan_id":"cebpf4jnsgd1na2vs0mg"},{"bike_id":"179e670b-338a-4c35-90c1-db1256311ade","system_id":"levelo_inurba_marseille","lat":43.25823,"lon":5.39431,"is_reserved":false,"is_disabled":false,"rental_uris":{"android":"levelo://app?vid=179e670b-338a-4c35-90c1-db1256311ade","ios":"levelo://app?vid=179e670b-338a-4c35-90c1-db1256311ade"},"vehicle_type_id":"4","last_reported":1748352320,"current_range_meters":9200,"station_id":"ce4bhip2rcd13ifvqft0","pricing_plan_id":"cebpf4jnsgd1na2vs0mg"},{"bike_id":"de7de93d-7329-426c-a55a-9e1f5b37f3bc","system_id":"levelo_inurba_marseille","lat":43.30218,"lon":5.3747,"is_reserved":false,"is_disabled":false,"rental_uris":{"android":"levelo://app?vid=de7de93d-7329-426c-a55a-9e1f5b37f3bc","ios":"levelo://app?vid=de7de93d-7329-426c-a55a-9e1f5b37f3bc"},"vehicle_type_id":"4","last_reported":1748352320,"current_range_meters":9600,"station_id":"","pricing_plan_id":"cebpf4jnsgd1na2vs0mg"},{"bike_id":"338e7c30-d3e4-4ff7-8a09-0d9ecba9eb8f","system_id":"levelo_inurba_marseille","lat":43.29967,"lon":5.384969,"is_reserved":false,"is_disabled":true,"rental_uris":{"android":"levelo://app?vid=338e7c30-d3e4-4ff7-8a09-0d9ecba9eb8f","ios":"levelo://app?vid=338e7c30-d3e4-4ff7-8a09-0d9ecba9eb8f"},"vehicle_type_id":"4","last_reported":1748352320,"current_range_meters":9600,"station_id":"ce4bgj92rcd13ifvqbd0","pricing_plan_id":"cebpf4jnsgd1na2vs0mg"},{"bike_id":"19d2420d-6934-47ed-bd13-3997559b9b5c","system_id":"levelo_inurba_marseille","lat":43.304686,"lon":5.378998,"is_reserved":false,"is_disabled":false,"rental_uris":{"android":"levelo://app?vid=19d2420d-6934-47ed-bd13-3997559b9b5c","ios":"levelo://app?vid=19d2420d-6934-47ed-bd13-3997559b9b5c"},"vehicle_type_id":"4","last_reported":1748352320,"current_range_meters":10000,"station_id":"ce4bgup2rcd13ifvqcn0","pricing_plan_id":"cebpf4jnsgd1na2vs0mg"},{"bike_id":"22a8a8c7-985d-4ebc-b770-e85d65e0e62f","system_id":"levelo_inurba_marseille","lat":43.25721,"lon":5.41115,"is_reserved":false,"is_disabled":false,"rental_uris":{"android":"levelo://app?vid=22a8a8c7-985d-4ebc-b770-e85d65e0e62f","ios":"levelo://app?vid=22a8a8c7-985d-4ebc-b770-e85d65e0e62f"},"vehicle_type_id":"4","last_reported":1748352320,"current_range_meters":9600,"station_id":"ce4bhkp2rcd13ifvqgd0","pricing_plan_id":"cebpf4jnsgd1na2vs0mg"},{"bike_id":"22679e76-19d3-4e23-a847-2ea8e527436e","system_id":"levelo_inurba_marseille","lat":43.30548,"lon":5.36565,"is_reserved":false,"is_disabled":false,"rental_uris":{"android":"levelo://app?vid=22679e76-19d3-4e23-a847-2ea8e527436e","ios":"levelo://app?vid=22679e76-19d3-4e23-a847-2ea8e527436e"},"vehicle_type_id":"4","last_reported":1748352320,"current_range_meters":10000,"station_id":"ce4bgs12rcd13ifvqcag","pricing_plan_id":"cebpf4jnsgd1na2vs0mg"},{"bike_id":"cd431521-2266-4f45-ac9a-95e56b6903c9","system_id":"levelo_inurba_marseille","lat":43.24158,"lon":5.39762,"is_reserved":false,"is_disabled":false,"rental_uris":{"android":"levelo://app?vid=cd431521-2266-4f45-ac9a-95e56b6903c9","ios":"levelo://app?vid=cd431521-2266-4f45-ac9a-95e56b6903c9"},"vehicle_type_id":"4","last_reported":1748352320,"current_range_meters":10000,"station_id":"ce4bhn12rcd13ifvqgpg","pricing_plan_id":"cebpf4jnsgd1na2vs0mg"},{"bike_id":"bcefadfb-8149-4625-9b8c-23d7d2312507","system_id":"levelo_inurba_marseille","lat":43.29579,"lon":5.37524,"is_reserved":false,"is_disabled":false,"rental_uris":{"android":"levelo://app?vid=bcefadfb-8149-4625-9b8c-23d7d2312507","ios":"levelo://app?vid=bcefadfb-8149-4625-9b8c-23d7d2312507"},"vehicle_type_id":"4","last_reported":1748352320,"current_range_meters":10000,"station_id":"ce4bgh92rcd13ifvqb50","pricing_plan_id":"cebpf4jnsgd1na2vs0mg"},{"bike_id":"db5bdb38-6890-40c1-bae7-79defdb5d6cd","system_id":"levelo_inurba_marseille","lat":43.32097,"lon":5.36782,"is_reserved":false,"is_disabled":true,"rental_uris":{"android":"levelo://app?vid=db5bdb38-6890-40c1-bae7-79defdb5d6cd","ios":"levelo://app?vid=db5bdb38-6890-40c1-bae7-79defdb5d6cd"},"vehicle_type_id":"4","last_reported":1748352320,"current_range_meters":10000,"station_id":"ce4bhrh2rcd13ifvqhug","pricing_plan_id":"cebpf4jnsgd1na2vs0mg"},{"bike_id":"e40d6a0a-5d60-4237-99a6-3e1c5eefc794","system_id":"levelo_inurba_marseille","lat":43.295249,"lon":5.390716,"is_reserved":false,"is_disabled":false,"rental_uris":{"android":"levelo://app?vid=e40d6a0a-5d60-4237-99a6-3e1c5eefc794","ios":"levelo://app?vid=e40d6a0a-5d60-4237-99a6-3e1c5eefc794"},"vehicle_type_id":"4","last_reported":1748352320,"current_range_meters":10000,"station_id":"ce4bh3p2rcd13ifvqdp0","pricing_plan_id":"cebpf4jnsgd1na2vs0mg"},{"bike_id":"58de4e8f-073d-4f96-9392-63c1cfc472ce","system_id":"levelo_inurba_marseille","lat":43.251007,"lon":5.39515,"is_reserved":false,"is_disabled":false,"rental_uris":{"android":"levelo://app?vid=58de4e8f-073d-4f96-9392-63c1cfc472ce","ios":"levelo://app?vid=58de4e8f-073d-4f96-9392-63c1cfc472ce"},"vehicle_type_id":"4","last_reported":1748352320,"current_range_meters":10800,"station_id":"ce4bhm12rcd13ifvqgkg","pricing_plan_id":"cebpf4jnsgd1na2vs0mg"},{"bike_id":"52b5b118-122f-4853-96dc-c2da0a1b15ff","system_id":"levelo_inurba_marseille","lat":43.3054,"lon":5.36549,"is_reserved":false,"is_disabled":false,"rental_uris":{"android":"levelo://app?vid=52b5b118-122f-4853-96dc-c2da0a1b15ff","ios":"levelo://app?vid=52b5b118-122f-4853-96dc-c2da0a1b15ff"},"vehicle_type_id":"4","last_reported":1748352320,"current_range_meters":10800,"station_id":"ce4bgs12rcd13ifvqcag","pricing_plan_id":"cebpf4jnsgd1na2vs0mg"},{"bike_id":"6ef27e84-462a-46f9-afe5-e09b209cc7f0","system_id":"levelo_inurba_marseille","lat":43.331149,"lon":5.362049,"is_reserved":false,"is_disabled":false,"rental_uris":{"android":"levelo://app?vid=6ef27e84-462a-46f9-afe5-e09b209cc7f0","ios":"levelo://app?vid=6ef27e84-462a-46f9-afe5-e09b209cc7f0"},"vehicle_type_id":"4","last_reported":1748352320,"current_range_meters":10800,"station_id":"","pricing_plan_id":"cebpf4jnsgd1na2vs0mg"},{"bike_id":"df4117c0-9f6f-452a-ac57-62defae140ef","system_id":"levelo_inurba_marseille","lat":43.24184,"lon":5.39715,"is_reserved":false,"is_disabled":false,"rental_uris":{"android":"levelo://app?vid=df4117c0-9f6f-452a-ac57-62defae140ef","ios":"levelo://app?vid=df4117c0-9f6f-452a-ac57-62defae140ef"},"vehicle_type_id":"4","last_reported":1748352320,"current_range_meters":10800,"station_id":"ce4bhn12rcd13ifvqgpg","pricing_plan_id":"cebpf4jnsgd1na2vs0mg"},{"bike_id":"5f9391d7-2924-464d-abdc-d40ada4b1c07","system_id":"levelo_inurba_marseille","lat":43.3014,"lon":5.37421,"is_reserved":false,"is_disabled":false,"rental_uris":{"android":"levelo://app?vid=5f9391d7-2924-464d-abdc-d40ada4b1c07","ios":"levelo://app?vid=5f9391d7-2924-464d-abdc-d40ada4b1c07"},"vehicle_type_id":"4","last_reported":1748352320,"current_range_meters":10800,"station_id":"ce4bgs92rcd13ifvqcc0","pricing_plan_id":"cebpf4jnsgd1na2vs0mg"},{"bike_id":"fbe3ea93-07f3-40b1-837d-9cc1cb2ad872","system_id":"levelo_inurba_marseille","lat":43.313581,"lon":5.367119,"is_reserved":false,"is_disabled":false,"rental_uris":{"android":"levelo://app?vid=fbe3ea93-07f3-40b1-837d-9cc1cb2ad872","ios":"levelo://app?vid=fbe3ea93-07f3-40b1-837d-9cc1cb2ad872"},"vehicle_type_id":"4","last_reported":1748352320,"current_range_meters":10800,"station_id":"ce4bgr92rcd13ifvqc6g","pricing_plan_id":"cebpf4jnsgd1na2vs0mg"},{"bike_id":"2a046dee-b3af-48c9-9659-b7d30ba20af5","system_id":"levelo_inurba_marseille","lat":43.24327,"lon":5.37982,"is_reserved":false,"is_disabled":false,"rental_uris":{"android":"levelo://app?vid=2a046dee-b3af-48c9-9659-b7d30ba20af5","ios":"levelo://app?vid=2a046dee-b3af-48c9-9659-b7d30ba20af5"},"vehicle_type_id":"4","last_reported":1748352320,"current_range_meters":10800,"station_id":"","pricing_plan_id":"cebpf4jnsgd1na2vs0mg"},{"bike_id":"707e7389-2b7b-4964-a3fc-b3e452aabdc9","system_id":"levelo_inurba_marseille","lat":43.24667,"lon":5.38165,"is_reserved":false,"is_disabled":false,"rental_uris":{"android":"levelo://app?vid=707e7389-2b7b-4964-a3fc-b3e452aabdc9","ios":"levelo://app?vid=707e7389-2b7b-4964-a3fc-b3e452aabdc9"},"vehicle_type_id":"4","last_reported":1748352320,"current_range_meters":10800,"station_id":"ce4bhih2rcd13ifvqfr0","pricing_plan_id":"cebpf4jnsgd1na2vs0mg"},{"bike_id":"e6c65de3-7d92-4979-809c-6677188473c0","system_id":"levelo_inurba_marseille","lat":43.337598,"lon":5.374632,"is_reserved":false,"is_disabled":false,"rental_uris":{"android":"levelo://app?vid=e6c65de3-7d92-4979-809c-6677188473c0","ios":"levelo://app?vid=e6c65de3-7d92-4979-809c-6677188473c0"},"vehicle_type_id":"4","last_reported":1748352320,"current_range_meters":11200,"station_id":"","pricing_plan_id":"cebpf4jnsgd1na2vs0mg"},{"bike_id":"7abc3d1b-2e34-48fe-a5a7-7476765eda75","system_id":"levelo_inurba_marseille","lat":43.260305,"lon":5.375489,"is_reserved":false,"is_disabled":false,"rental_uris":{"android":"levelo://app?vid=7abc3d1b-2e34-48fe-a5a7-7476765eda75","ios":"levelo://app?vid=7abc3d1b-2e34-48fe-a5a7-7476765eda75"},"vehicle_type_id":"4","last_reported":1748352320,"current_range_meters":11200,"station_id":"ce4bhgh2rcd13ifvqfa0","pricing_plan_id":"cebpf4jnsgd1na2vs0mg"},{"bike_id":"6a763caa-db62-44e2-8846-a6ba89cc4736","system_id":"levelo_inurba_marseille","lat":43.30173,"lon":5.37447,"is_reserved":false,"is_disabled":false,"rental_uris":{"android":"levelo://app?vid=6a763caa-db62-44e2-8846-a6ba89cc4736","ios":"levelo://app?vid=6a763caa-db62-44e2-8846-a6ba89cc4736"},"vehicle_type_id":"4","last_reported":1748352320,"current_range_meters":11200,"station_id":"ce4bgs92rcd13ifvqcc0","pricing_plan_id":"cebpf4jnsgd1na2vs0mg"},{"bike_id":"54e49108-09a9-44f8-8161-9f6b0bb673fb","system_id":"levelo_inurba_marseille","lat":43.27492,"lon":5.42452,"is_reserved":false,"is_disabled":false,"rental_uris":{"android":"levelo://app?vid=54e49108-09a9-44f8-8161-9f6b0bb673fb","ios":"levelo://app?vid=54e49108-09a9-44f8-8161-9f6b0bb673fb"},"vehicle_type_id":"4","last_reported":1748352320,"current_range_meters":11200,"station_id":"ce4bhn92rcd13ifvqgrg","pricing_plan_id":"cebpf4jnsgd1na2vs0mg"},{"bike_id":"35657823-8cda-44f5-a555-1f769cf1fe31","system_id":"levelo_inurba_marseille","lat":43.2717,"lon":5.41038,"is_reserved":false,"is_disabled":false,"rental_uris":{"android":"levelo://app?vid=35657823-8cda-44f5-a555-1f769cf1fe31","ios":"levelo://app?vid=35657823-8cda-44f5-a555-1f769cf1fe31"},"vehicle_type_id":"4","last_reported":1748352320,"current_range_meters":11200,"station_id":"ce4bhl12rcd13ifvqgf0","pricing_plan_id":"cebpf4jnsgd1na2vs0mg"},{"bike_id":"4a2dbe82-d714-4998-850d-b5bae31c19ec","system_id":"levelo_inurba_marseille","lat":43.27376,"lon":5.3625,"is_reserved":false,"is_disabled":false,"rental_uris":{"android":"levelo://app?vid=4a2dbe82-d714-4998-850d-b5bae31c19ec","ios":"levelo://app?vid=4a2dbe82-d714-4998-850d-b5bae31c19ec"},"vehicle_type_id":"4","last_reported":1748352320,"current_range_meters":11200,"station_id":"ce4bhbh2rcd13ifvqeo0","pricing_plan_id":"cebpf4jnsgd1na2vs0mg"},{"bike_id":"7d99356f-9436-4da5-82c8-3f93315283b5","system_id":"levelo_inurba_marseille","lat":43.21754,"lon":5.346,"is_reserved":false,"is_disabled":false,"rental_uris":{"android":"levelo://app?vid=7d99356f-9436-4da5-82c8-3f93315283b5","ios":"levelo://app?vid=7d99356f-9436-4da5-82c8-3f93315283b5"},"vehicle_type_id":"4","last_reported":1748352320,"current_range_meters":11200,"station_id":"st_cvj6r9ubvosntc0bgbag","pricing_plan_id":"cebpf4jnsgd1na2vs0mg"},{"bike_id":"3f855aa9-a03a-4d28-bbc8-2f3b26d07315","system_id":"levelo_inurba_marseille","lat":43.22928,"lon":5.35406,"is_reserved":false,"is_disabled":false,"rental_uris":{"android":"levelo://app?vid=3f855aa9-a03a-4d28-bbc8-2f3b26d07315","ios":"levelo://app?vid=3f855aa9-a03a-4d28-bbc8-2f3b26d07315"},"vehicle_type_id":"4","last_reported":1748352320,"current_range_meters":11200,"station_id":"cpo3532slgdg3j2ikp40","pricing_plan_id":"cebpf4jnsgd1na2vs0mg"},{"bike_id":"2a9b9f6f-e086-4a48-b343-0410abb19aae","system_id":"levelo_inurba_marseille","lat":43.25941,"lon":5.40913,"is_reserved":false,"is_disabled":false,"rental_uris":{"android":"levelo://app?vid=2a9b9f6f-e086-4a48-b343-0410abb19aae","ios":"levelo://app?vid=2a9b9f6f-e086-4a48-b343-0410abb19aae"},"vehicle_type_id":"4","last_reported":1748352320,"current_range_meters":11600,"station_id":"ce4bhm92rcd13ifvqglg","pricing_plan_id":"cebpf4jnsgd1na2vs0mg"},{"bike_id":"11ae6d36-0657-4f3c-91b4-b999e42e8e1a","system_id":"levelo_inurba_marseille","lat":43.27622,"lon":5.36108,"is_reserved":false,"is_disabled":false,"rental_uris":{"android":"levelo://app?vid=11ae6d36-0657-4f3c-91b4-b999e42e8e1a","ios":"levelo://app?vid=11ae6d36-0657-4f3c-91b4-b999e42e8e1a"},"vehicle_type_id":"4","last_reported":1748352320,"current_range_meters":11200,"station_id":"ce4bgj92rcd13ifvqbe0","pricing_plan_id":"cebpf4jnsgd1na2vs0mg"},{"bike_id":"26a64de0-d606-4897-98d5-4f0987c87483","system_id":"levelo_inurba_marseille","lat":43.28624,"lon":5.35093,"is_reserved":false,"is_disabled":false,"rental_uris":{"android":"levelo://app?vid=26a64de0-d606-4897-98d5-4f0987c87483","ios":"levelo://app?vid=26a64de0-d606-4897-98d5-4f0987c87483"},"vehicle_type_id":"4","last_reported":1748352320,"current_range_meters":11600,"station_id":"ce4bhch2rcd13ifvqeug","pricing_plan_id":"cebpf4jnsgd1na2vs0mg"},{"bike_id":"17b0d8ff-aa28-408b-9628-4a545be2c769","system_id":"levelo_inurba_marseille","lat":43.31925,"lon":5.38016,"is_reserved":false,"is_disabled":false,"rental_uris":{"android":"levelo://app?vid=17b0d8ff-aa28-408b-9628-4a545be2c769","ios":"levelo://app?vid=17b0d8ff-aa28-408b-9628-4a545be2c769"},"vehicle_type_id":"4","last_reported":1748352320,"current_range_meters":11600,"station_id":"","pricing_plan_id":"cebpf4jnsgd1na2vs0mg"},{"bike_id":"6b482028-512e-4dbe-b943-3138dd0f6f46","system_id":"levelo_inurba_marseille","lat":43.29657,"lon":5.36901,"is_reserved":false,"is_disabled":false,"rental_uris":{"android":"levelo://app?vid=6b482028-512e-4dbe-b943-3138dd0f6f46","ios":"levelo://app?vid=6b482028-512e-4dbe-b943-3138dd0f6f46"},"vehicle_type_id":"4","last_reported":1748352320,"current_range_meters":11600,"station_id":"","pricing_plan_id":"cebpf4jnsgd1na2vs0mg"},{"bike_id":"721b5872-c684-41c3-a519-3e9b34842e0d","system_id":"levelo_inurba_marseille","lat":43.31715,"lon":5.43706,"is_reserved":false,"is_disabled":false,"rental_uris":{"android":"levelo://app?vid=721b5872-c684-41c3-a519-3e9b34842e0d","ios":"levelo://app?vid=721b5872-c684-41c3-a519-3e9b34842e0d"},"vehicle_type_id":"4","last_reported":1748352320,"current_range_meters":12000,"station_id":"ce4bhp92rcd13ifvqhcg","pricing_plan_id":"cebpf4jnsgd1na2vs0mg"},{"bike_id":"400be29c-158f-4ae5-8a01-670fe68dbf7b","system_id":"levelo_inurba_marseille","lat":43.24169,"lon":5.36404,"is_reserved":false,"is_disabled":false,"rental_uris":{"android":"levelo://app?vid=400be29c-158f-4ae5-8a01-670fe68dbf7b","ios":"levelo://app?vid=400be29c-158f-4ae5-8a01-670fe68dbf7b"},"vehicle_type_id":"4","last_reported":1748352320,"current_range_meters":12000,"station_id":"cpo36qri1sfpv3e86is0","pricing_plan_id":"cebpf4jnsgd1na2vs0mg"},{"bike_id":"26cefabb-6a16-41aa-96ef-b636f51d675a","system_id":"levelo_inurba_marseille","lat":43.23147,"lon":5.43708,"is_reserved":false,"is_disabled":false,"rental_uris":{"android":"levelo://app?vid=26cefabb-6a16-41aa-96ef-b636f51d675a","ios":"levelo://app?vid=26cefabb-6a16-41aa-96ef-b636f51d675a"},"vehicle_type_id":"4","last_reported":1748352320,"current_range_meters":12000,"station_id":"ce4bhmp2rcd13ifvqgog","pricing_plan_id":"cebpf4jnsgd1na2vs0mg"},{"bike_id":"051dd74a-f3b8-4171-a105-7f58deed8f88","system_id":"levelo_inurba_marseille","lat":43.26212,"lon":5.37445,"is_reserved":false,"is_disabled":false,"rental_uris":{"android":"levelo://app?vid=051dd74a-f3b8-4171-a105-7f58deed8f88","ios":"levelo://app?vid=051dd74a-f3b8-4171-a105-7f58deed8f88"},"vehicle_type_id":"4","last_reported":1748352320,"current_range_meters":12000,"station_id":"ce4bhgp2rcd13ifvqfc0","pricing_plan_id":"cebpf4jnsgd1na2vs0mg"},{"bike_id":"36d7f1e8-83a6-4cf0-a3da-a84ce71950e9","system_id":"levelo_inurba_marseille","lat":43.28035,"lon":5.36932,"is_reserved":false,"is_disabled":false,"rental_uris":{"android":"levelo://app?vid=36d7f1e8-83a6-4cf0-a3da-a84ce71950e9","ios":"levelo://app?vid=36d7f1e8-83a6-4cf0-a3da-a84ce71950e9"},"vehicle_type_id":"4","last_reported":1748352320,"current_range_meters":12000,"station_id":"ce4bha12rcd13ifvqef0","pricing_plan_id":"cebpf4jnsgd1na2vs0mg"},{"bike_id":"77c59fca-7ea3-4da6-99e0-ee9df529ee73","system_id":"levelo_inurba_marseille","lat":43.27817,"lon":5.40716,"is_reserved":false,"is_disabled":false,"rental_uris":{"android":"levelo://app?vid=77c59fca-7ea3-4da6-99e0-ee9df529ee73","ios":"levelo://app?vid=77c59fca-7ea3-4da6-99e0-ee9df529ee73"},"vehicle_type_id":"4","last_reported":1748352320,"current_range_meters":12000,"station_id":"ce4bhnh2rcd13ifvqgtg","pricing_plan_id":"cebpf4jnsgd1na2vs0mg"},{"bike_id":"97efe6fd-c94f-4fa7-86f5-7e199013c59f","system_id":"levelo_inurba_marseille","lat":43.27569,"lon":5.38422,"is_reserved":false,"is_disabled":false,"rental_uris":{"android":"levelo://app?vid=97efe6fd-c94f-4fa7-86f5-7e199013c59f","ios":"levelo://app?vid=97efe6fd-c94f-4fa7-86f5-7e199013c59f"},"vehicle_type_id":"4","last_reported":1748352320,"current_range_meters":12000,"station_id":"ce4bhh92rcd13ifvqfi0","pricing_plan_id":"cebpf4jnsgd1na2vs0mg"},{"bike_id":"a3a1e2f8-c082-4657-9cf8-ceb282e14a71","system_id":"levelo_inurba_marseille","lat":43.23199,"lon":5.4,"is_reserved":false,"is_disabled":false,"rental_uris":{"android":"levelo://app?vid=a3a1e2f8-c082-4657-9cf8-ceb282e14a71","ios":"levelo://app?vid=a3a1e2f8-c082-4657-9cf8-ceb282e14a71"},"vehicle_type_id":"4","last_reported":1748352320,"current_range_meters":12000,"station_id":"ce4bhn12rcd13ifvqgqg","pricing_plan_id":"cebpf4jnsgd1na2vs0mg"},{"bike_id":"cc8c69e1-af15-4ea5-a121-5f2b3d5d20a4","system_id":"levelo_inurba_marseille","lat":43.26215,"lon":5.37439,"is_reserved":false,"is_disabled":false,"rental_uris":{"android":"levelo://app?vid=cc8c69e1-af15-4ea5-a121-5f2b3d5d20a4","ios":"levelo://app?vid=cc8c69e1-af15-4ea5-a121-5f2b3d5d20a4"},"vehicle_type_id":"4","last_reported":1748352320,"current_range_meters":12000,"station_id":"ce4bhgp2rcd13ifvqfc0","pricing_plan_id":"cebpf4jnsgd1na2vs0mg"},{"bike_id":"2447e726-02f2-4707-a232-a209224dd9ad","system_id":"levelo_inurba_marseille","lat":43.33024,"lon":5.39069,"is_reserved":false,"is_disabled":false,"rental_uris":{"android":"levelo://app?vid=2447e726-02f2-4707-a232-a209224dd9ad","ios":"levelo://app?vid=2447e726-02f2-4707-a232-a209224dd9ad"},"vehicle_type_id":"4","last_reported":1748352320,"current_range_meters":12000,"station_id":"ce4bhr92rcd13ifvqhrg","pricing_plan_id":"cebpf4jnsgd1na2vs0mg"},{"bike_id":"ceb81090-b40e-47dd-bc35-8598d269ef58","system_id":"levelo_inurba_marseille","lat":43.26663,"lon":5.38431,"is_reserved":false,"is_disabled":false,"rental_uris":{"android":"levelo://app?vid=ceb81090-b40e-47dd-bc35-8598d269ef58","ios":"levelo://app?vid=ceb81090-b40e-47dd-bc35-8598d269ef58"},"vehicle_type_id":"4","last_reported":1748352320,"current_range_meters":12400,"station_id":"","pricing_plan_id":"cebpf4jnsgd1na2vs0mg"},{"bike_id":"e5c82b4c-e30f-487a-ae65-76f66da567ea","system_id":"levelo_inurba_marseille","lat":43.3237,"lon":5.36741,"is_reserved":false,"is_disabled":false,"rental_uris":{"android":"levelo://app?vid=e5c82b4c-e30f-487a-ae65-76f66da567ea","ios":"levelo://app?vid=e5c82b4c-e30f-487a-ae65-76f66da567ea"},"vehicle_type_id":"4","last_reported":1748352320,"current_range_meters":12400,"station_id":"ce4bhsh2rcd13ifvqi2g","pricing_plan_id":"cebpf4jnsgd1na2vs0mg"},{"bike_id":"bbb284bb-ce4a-4036-afc6-2bd9019fddef","system_id":"levelo_inurba_marseille","lat":43.2979,"lon":5.38092,"is_reserved":false,"is_disabled":false,"rental_uris":{"android":"levelo://app?vid=bbb284bb-ce4a-4036-afc6-2bd9019fddef","ios":"levelo://app?vid=bbb284bb-ce4a-4036-afc6-2bd9019fddef"},"vehicle_type_id":"4","last_reported":1748352320,"current_range_meters":12400,"station_id":"ce4bgip2rcd13ifvqbb0","pricing_plan_id":"cebpf4jnsgd1na2vs0mg"},{"bike_id":"14a70475-292e-4b7c-89ce-1544da68de32","system_id":"levelo_inurba_marseille","lat":43.279071,"lon":5.380122,"is_reserved":false,"is_disabled":false,"rental_uris":{"android":"levelo://app?vid=14a70475-292e-4b7c-89ce-1544da68de32","ios":"levelo://app?vid=14a70475-292e-4b7c-89ce-1544da68de32"},"vehicle_type_id":"4","last_reported":1748352320,"current_range_meters":12400,"station_id":"ce4bhf92rcd13ifvqf50","pricing_plan_id":"cebpf4jnsgd1na2vs0mg"},{"bike_id":"5d7005a8-b9be-48af-b092-82efcb713fb0","system_id":"levelo_inurba_marseille","lat":43.29867,"lon":5.39718,"is_reserved":false,"is_disabled":false,"rental_uris":{"android":"levelo://app?vid=5d7005a8-b9be-48af-b092-82efcb713fb0","ios":"levelo://app?vid=5d7005a8-b9be-48af-b092-82efcb713fb0"},"vehicle_type_id":"4","last_reported":1748352320,"current_range_meters":12400,"station_id":"ce4bh0h2rcd13ifvqd50","pricing_plan_id":"cebpf4jnsgd1na2vs0mg"},{"bike_id":"ce736754-6cbf-4c93-8ec6-396bb7c44a98","system_id":"levelo_inurba_marseille","lat":43.26235,"lon":5.40454,"is_reserved":false,"is_disabled":false,"rental_uris":{"android":"levelo://app?vid=ce736754-6cbf-4c93-8ec6-396bb7c44a98","ios":"levelo://app?vid=ce736754-6cbf-4c93-8ec6-396bb7c44a98"},"vehicle_type_id":"4","last_reported":1748352320,"current_range_meters":12800,"station_id":"ce4bhmh2rcd13ifvqgmg","pricing_plan_id":"cebpf4jnsgd1na2vs0mg"},{"bike_id":"652c25bc-0239-4629-b980-249f4e931461","system_id":"levelo_inurba_marseille","lat":43.23965,"lon":5.36629,"is_reserved":false,"is_disabled":false,"rental_uris":{"android":"levelo://app?vid=652c25bc-0239-4629-b980-249f4e931461","ios":"levelo://app?vid=652c25bc-0239-4629-b980-249f4e931461"},"vehicle_type_id":"4","last_reported":1748352320,"current_range_meters":12400,"station_id":"ce4bhi12rcd13ifvqfp0","pricing_plan_id":"cebpf4jnsgd1na2vs0mg"},{"bike_id":"6d2977b8-b405-496c-bf31-3eacba5c9601","system_id":"levelo_inurba_marseille","lat":43.284267,"lon":5.349797,"is_reserved":false,"is_disabled":true,"rental_uris":{"android":"levelo://app?vid=6d2977b8-b405-496c-bf31-3eacba5c9601","ios":"levelo://app?vid=6d2977b8-b405-496c-bf31-3eacba5c9601"},"vehicle_type_id":"4","last_reported":1748352320,"current_range_meters":12800,"station_id":"ce4bhbh2rcd13ifvqepg","pricing_plan_id":"cebpf4jnsgd1na2vs0mg"},{"bike_id":"8cd23309-5551-4519-ab81-4b86ceac5311","system_id":"levelo_inurba_marseille","lat":43.25068,"lon":5.39552,"is_reserved":false,"is_disabled":false,"rental_uris":{"android":"levelo://app?vid=8cd23309-5551-4519-ab81-4b86ceac5311","ios":"levelo://app?vid=8cd23309-5551-4519-ab81-4b86ceac5311"},"vehicle_type_id":"4","last_reported":1748352320,"current_range_meters":12800,"station_id":"ce4bhm12rcd13ifvqgkg","pricing_plan_id":"cebpf4jnsgd1na2vs0mg"},{"bike_id":"03a878d5-7464-43c2-bb12-8804355fff55","system_id":"levelo_inurba_marseille","lat":43.25582,"lon":5.38254,"is_reserved":false,"is_disabled":false,"rental_uris":{"android":"levelo://app?vid=03a878d5-7464-43c2-bb12-8804355fff55","ios":"levelo://app?vid=03a878d5-7464-43c2-bb12-8804355fff55"},"vehicle_type_id":"4","last_reported":1748352320,"current_range_meters":12800,"station_id":"ce4bhih2rcd13ifvqfs0","pricing_plan_id":"cebpf4jnsgd1na2vs0mg"},{"bike_id":"bd2b203c-a206-4485-b08f-76285927bcad","system_id":"levelo_inurba_marseille","lat":43.28468,"lon":5.35884,"is_reserved":false,"is_disabled":false,"rental_uris":{"android":"levelo://app?vid=bd2b203c-a206-4485-b08f-76285927bcad","ios":"levelo://app?vid=bd2b203c-a206-4485-b08f-76285927bcad"},"vehicle_type_id":"4","last_reported":1748352320,"current_range_meters":12800,"station_id":"ce4bhah2rcd13ifvqei0","pricing_plan_id":"cebpf4jnsgd1na2vs0mg"},{"bike_id":"e4accec2-6d1f-4e02-8d1a-140f5d54f8f2","system_id":"levelo_inurba_marseille","lat":43.28232,"lon":5.39071,"is_reserved":false,"is_disabled":false,"rental_uris":{"android":"levelo://app?vid=e4accec2-6d1f-4e02-8d1a-140f5d54f8f2","ios":"levelo://app?vid=e4accec2-6d1f-4e02-8d1a-140f5d54f8f2"},"vehicle_type_id":"4","last_reported":1748352320,"current_range_meters":12800,"station_id":"","pricing_plan_id":"cebpf4jnsgd1na2vs0mg"},{"bike_id":"91778dc6-5ac3-4d73-a11f-9b1ddc717184","system_id":"levelo_inurba_marseille","lat":43.2319,"lon":5.39988,"is_reserved":false,"is_disabled":false,"rental_uris":{"android":"levelo://app?vid=91778dc6-5ac3-4d73-a11f-9b1ddc717184","ios":"levelo://app?vid=91778dc6-5ac3-4d73-a11f-9b1ddc717184"},"vehicle_type_id":"4","last_reported":1748352320,"current_range_meters":12800,"station_id":"ce4bhn12rcd13ifvqgqg","pricing_plan_id":"cebpf4jnsgd1na2vs0mg"},{"bike_id":"644063da-e312-4ab1-9e7f-09b75a858b33","system_id":"levelo_inurba_marseille","lat":43.28415,"lon":5.34986,"is_reserved":false,"is_disabled":false,"rental_uris":{"android":"levelo://app?vid=644063da-e312-4ab1-9e7f-09b75a858b33","ios":"levelo://app?vid=644063da-e312-4ab1-9e7f-09b75a858b33"},"vehicle_type_id":"4","last_reported":1748352320,"current_range_meters":12800,"station_id":"ce4bhbh2rcd13ifvqepg","pricing_plan_id":"cebpf4jnsgd1na2vs0mg"},{"bike_id":"5a5d3cd9-43c9-4580-afc1-94b3cc3c8454","system_id":"levelo_inurba_marseille","lat":43.23161,"lon":5.43713,"is_reserved":false,"is_disabled":false,"rental_uris":{"android":"levelo://app?vid=5a5d3cd9-43c9-4580-afc1-94b3cc3c8454","ios":"levelo://app?vid=5a5d3cd9-43c9-4580-afc1-94b3cc3c8454"},"vehicle_type_id":"4","last_reported":1748352320,"current_range_meters":12800,"station_id":"ce4bhmp2rcd13ifvqgog","pricing_plan_id":"cebpf4jnsgd1na2vs0mg"},{"bike_id":"fd9dfc07-934e-4488-b917-6cbeeee6ac1e","system_id":"levelo_inurba_marseille","lat":43.24654,"lon":5.38886,"is_reserved":false,"is_disabled":false,"rental_uris":{"android":"levelo://app?vid=fd9dfc07-934e-4488-b917-6cbeeee6ac1e","ios":"levelo://app?vid=fd9dfc07-934e-4488-b917-6cbeeee6ac1e"},"vehicle_type_id":"4","last_reported":1748352320,"current_range_meters":13600,"station_id":"ce4bhg12rcd13ifvqf60","pricing_plan_id":"cebpf4jnsgd1na2vs0mg"},{"bike_id":"dec632fe-0e8a-483d-aab8-925982090a9e","system_id":"levelo_inurba_marseille","lat":43.30936,"lon":5.40143,"is_reserved":false,"is_disabled":false,"rental_uris":{"android":"levelo://app?vid=dec632fe-0e8a-483d-aab8-925982090a9e","ios":"levelo://app?vid=dec632fe-0e8a-483d-aab8-925982090a9e"},"vehicle_type_id":"4","last_reported":1748352320,"current_range_meters":13600,"station_id":"ce4bgvp2rcd13ifvqct0","pricing_plan_id":"cebpf4jnsgd1na2vs0mg"},{"bike_id":"1fbd130b-cb94-49d6-9bd3-bb418fe725b4","system_id":"levelo_inurba_marseille","lat":43.28425,"lon":5.34979,"is_reserved":false,"is_disabled":false,"rental_uris":{"android":"levelo://app?vid=1fbd130b-cb94-49d6-9bd3-bb418fe725b4","ios":"levelo://app?vid=1fbd130b-cb94-49d6-9bd3-bb418fe725b4"},"vehicle_type_id":"4","last_reported":1748352320,"current_range_meters":13600,"station_id":"ce4bhbh2rcd13ifvqepg","pricing_plan_id":"cebpf4jnsgd1na2vs0mg"},{"bike_id":"0e1f03c6-d1a0-427d-8c24-657e6ece3870","system_id":"levelo_inurba_marseille","lat":43.30148,"lon":5.38082,"is_reserved":false,"is_disabled":false,"rental_uris":{"android":"levelo://app?vid=0e1f03c6-d1a0-427d-8c24-657e6ece3870","ios":"levelo://app?vid=0e1f03c6-d1a0-427d-8c24-657e6ece3870"},"vehicle_type_id":"4","last_reported":1748352320,"current_range_meters":13600,"station_id":"ce4bgjp2rcd13ifvqbh0","pricing_plan_id":"cebpf4jnsgd1na2vs0mg"},{"bike_id":"33f9a5a8-8980-4b56-83ed-84a00daa4b9d","system_id":"levelo_inurba_marseille","lat":43.28706,"lon":5.37389,"is_reserved":false,"is_disabled":true,"rental_uris":{"android":"levelo://app?vid=33f9a5a8-8980-4b56-83ed-84a00daa4b9d","ios":"levelo://app?vid=33f9a5a8-8980-4b56-83ed-84a00daa4b9d"},"vehicle_type_id":"4","last_reported":1748352320,"current_range_meters":13600,"station_id":"ce4bh3p2rcd13ifvqdq0","pricing_plan_id":"cebpf4jnsgd1na2vs0mg"},{"bike_id":"0a34896a-ecf4-4133-b259-48302d8209b0","system_id":"levelo_inurba_marseille","lat":43.26687,"lon":5.38264,"is_reserved":false,"is_disabled":false,"rental_uris":{"android":"levelo://app?vid=0a34896a-ecf4-4133-b259-48302d8209b0","ios":"levelo://app?vid=0a34896a-ecf4-4133-b259-48302d8209b0"},"vehicle_type_id":"4","last_reported":1748352320,"current_range_meters":13600,"station_id":"ce4bhg92rcd13ifvqf90","pricing_plan_id":"cebpf4jnsgd1na2vs0mg"},{"bike_id":"a40588ee-00f9-4620-a7e7-03b577ebbb6e","system_id":"levelo_inurba_marseille","lat":43.23188,"lon":5.399917,"is_reserved":false,"is_disabled":false,"rental_uris":{"android":"levelo://app?vid=a40588ee-00f9-4620-a7e7-03b577ebbb6e","ios":"levelo://app?vid=a40588ee-00f9-4620-a7e7-03b577ebbb6e"},"vehicle_type_id":"4","last_reported":1748352320,"current_range_meters":13600,"station_id":"ce4bhn12rcd13ifvqgqg","pricing_plan_id":"cebpf4jnsgd1na2vs0mg"},{"bike_id":"064e6fa0-0d7c-4ec8-b1ad-7f69178c75b7","system_id":"levelo_inurba_marseille","lat":43.29899,"lon":5.43672,"is_reserved":false,"is_disabled":false,"rental_uris":{"android":"levelo://app?vid=064e6fa0-0d7c-4ec8-b1ad-7f69178c75b7","ios":"levelo://app?vid=064e6fa0-0d7c-4ec8-b1ad-7f69178c75b7"},"vehicle_type_id":"4","last_reported":1748352320,"current_range_meters":13600,"station_id":"ce4bhpp2rcd13ifvqhfg","pricing_plan_id":"cebpf4jnsgd1na2vs0mg"},{"bike_id":"dae3fc33-4b95-47d2-a716-b028de3acbc1","system_id":"levelo_inurba_marseille","lat":43.28624,"lon":5.35104,"is_reserved":false,"is_disabled":false,"rental_uris":{"android":"levelo://app?vid=dae3fc33-4b95-47d2-a716-b028de3acbc1","ios":"levelo://app?vid=dae3fc33-4b95-47d2-a716-b028de3acbc1"},"vehicle_type_id":"4","last_reported":1748352320,"current_range_meters":14000,"station_id":"ce4bhch2rcd13ifvqeug","pricing_plan_id":"cebpf4jnsgd1na2vs0mg"},{"bike_id":"c359ce31-503c-4864-81a4-8b7ff30ded70","system_id":"levelo_inurba_marseille","lat":43.324787,"lon":5.36571,"is_reserved":false,"is_disabled":false,"rental_uris":{"android":"levelo://app?vid=c359ce31-503c-4864-81a4-8b7ff30ded70","ios":"levelo://app?vid=c359ce31-503c-4864-81a4-8b7ff30ded70"},"vehicle_type_id":"4","last_reported":1748352320,"current_range_meters":14000,"station_id":"ce4bhs12rcd13ifvqhvg","pricing_plan_id":"cebpf4jnsgd1na2vs0mg"},{"bike_id":"ee113a00-aac2-4ff0-aa7e-34633cc0d023","system_id":"levelo_inurba_marseille","lat":43.26484,"lon":5.39548,"is_reserved":false,"is_disabled":false,"rental_uris":{"android":"levelo://app?vid=ee113a00-aac2-4ff0-aa7e-34633cc0d023","ios":"levelo://app?vid=ee113a00-aac2-4ff0-aa7e-34633cc0d023"},"vehicle_type_id":"4","last_reported":1748352320,"current_range_meters":14000,"station_id":"ce4bhi12rcd13ifvqfq0","pricing_plan_id":"cebpf4jnsgd1na2vs0mg"},{"bike_id":"aac0837e-6188-4ab3-9c27-e5492404eeee","system_id":"levelo_inurba_marseille","lat":43.29261,"lon":5.40901,"is_reserved":false,"is_disabled":false,"rental_uris":{"android":"levelo://app?vid=aac0837e-6188-4ab3-9c27-e5492404eeee","ios":"levelo://app?vid=aac0837e-6188-4ab3-9c27-e5492404eeee"},"vehicle_type_id":"4","last_reported":1748352320,"current_range_meters":14000,"station_id":"ce4bh192rcd13ifvqdc0","pricing_plan_id":"cebpf4jnsgd1na2vs0mg"},{"bike_id":"0faa77cd-73c9-4445-b2e2-e790c9db7859","system_id":"levelo_inurba_marseille","lat":43.28471,"lon":5.35969,"is_reserved":false,"is_disabled":false,"rental_uris":{"android":"levelo://app?vid=0faa77cd-73c9-4445-b2e2-e790c9db7859","ios":"levelo://app?vid=0faa77cd-73c9-4445-b2e2-e790c9db7859"},"vehicle_type_id":"4","last_reported":1748352320,"current_range_meters":13600,"station_id":"ce4bhah2rcd13ifvqej0","pricing_plan_id":"cebpf4jnsgd1na2vs0mg"},{"bike_id":"84f20522-6fe9-4131-aa99-7e652947bcde","system_id":"levelo_inurba_marseille","lat":43.2842,"lon":5.34992,"is_reserved":false,"is_disabled":false,"rental_uris":{"android":"levelo://app?vid=84f20522-6fe9-4131-aa99-7e652947bcde","ios":"levelo://app?vid=84f20522-6fe9-4131-aa99-7e652947bcde"},"vehicle_type_id":"4","last_reported":1748352320,"current_range_meters":14000,"station_id":"ce4bhbh2rcd13ifvqepg","pricing_plan_id":"cebpf4jnsgd1na2vs0mg"},{"bike_id":"01fb0934-c8b9-4fd3-a118-fc6aab7694f9","system_id":"levelo_inurba_marseille","lat":43.305341,"lon":5.365392,"is_reserved":false,"is_disabled":false,"rental_uris":{"android":"levelo://app?vid=01fb0934-c8b9-4fd3-a118-fc6aab7694f9","ios":"levelo://app?vid=01fb0934-c8b9-4fd3-a118-fc6aab7694f9"},"vehicle_type_id":"4","last_reported":1748352320,"current_range_meters":14000,"station_id":"ce4bgs12rcd13ifvqcag","pricing_plan_id":"cebpf4jnsgd1na2vs0mg"},{"bike_id":"ea0e3a3e-700c-49c8-801d-c49cd7082405","system_id":"levelo_inurba_marseille","lat":43.29202,"lon":5.35811,"is_reserved":false,"is_disabled":false,"rental_uris":{"android":"levelo://app?vid=ea0e3a3e-700c-49c8-801d-c49cd7082405","ios":"levelo://app?vid=ea0e3a3e-700c-49c8-801d-c49cd7082405"},"vehicle_type_id":"4","last_reported":1748352320,"current_range_meters":14000,"station_id":"ce4bhb12rcd13ifvqel0","pricing_plan_id":"cebpf4jnsgd1na2vs0mg"},{"bike_id":"4060ac1b-90cc-4212-871d-8d5e20ea5080","system_id":"levelo_inurba_marseille","lat":43.2175,"lon":5.34608,"is_reserved":false,"is_disabled":false,"rental_uris":{"android":"levelo://app?vid=4060ac1b-90cc-4212-871d-8d5e20ea5080","ios":"levelo://app?vid=4060ac1b-90cc-4212-871d-8d5e20ea5080"},"vehicle_type_id":"4","last_reported":1748352320,"current_range_meters":14400,"station_id":"st_cvj6r9ubvosntc0bgbag","pricing_plan_id":"cebpf4jnsgd1na2vs0mg"},{"bike_id":"9198b550-c5cf-463c-bb76-767cf162342b","system_id":"levelo_inurba_marseille","lat":43.28669,"lon":5.36346,"is_reserved":false,"is_disabled":false,"rental_uris":{"android":"levelo://app?vid=9198b550-c5cf-463c-bb76-767cf162342b","ios":"levelo://app?vid=9198b550-c5cf-463c-bb76-767cf162342b"},"vehicle_type_id":"4","last_reported":1748352320,"current_range_meters":14400,"station_id":"ce4bhah2rcd13ifvqej0","pricing_plan_id":"cebpf4jnsgd1na2vs0mg"},{"bike_id":"1bb587ea-66cd-4e33-aaf6-0c3188fcc65a","system_id":"levelo_inurba_marseille","lat":43.31884,"lon":5.40732,"is_reserved":false,"is_disabled":false,"rental_uris":{"android":"levelo://app?vid=1bb587ea-66cd-4e33-aaf6-0c3188fcc65a","ios":"levelo://app?vid=1bb587ea-66cd-4e33-aaf6-0c3188fcc65a"},"vehicle_type_id":"4","last_reported":1748352320,"current_range_meters":14000,"station_id":"ce4bhq12rcd13ifvqhig","pricing_plan_id":"cebpf4jnsgd1na2vs0mg"},{"bike_id":"56303e41-2b27-4d35-8ea7-4c7f6f219c1a","system_id":"levelo_inurba_marseille","lat":43.21753,"lon":5.34603,"is_reserved":false,"is_disabled":false,"rental_uris":{"android":"levelo://app?vid=56303e41-2b27-4d35-8ea7-4c7f6f219c1a","ios":"levelo://app?vid=56303e41-2b27-4d35-8ea7-4c7f6f219c1a"},"vehicle_type_id":"4","last_reported":1748352320,"current_range_meters":14400,"station_id":"","pricing_plan_id":"cebpf4jnsgd1na2vs0mg"},{"bike_id":"aafabf1c-f19b-441e-ba6e-f7d36c05405e","system_id":"levelo_inurba_marseille","lat":43.29946,"lon":5.36548,"is_reserved":false,"is_disabled":false,"rental_uris":{"android":"levelo://app?vid=aafabf1c-f19b-441e-ba6e-f7d36c05405e","ios":"levelo://app?vid=aafabf1c-f19b-441e-ba6e-f7d36c05405e"},"vehicle_type_id":"4","last_reported":1748352320,"current_range_meters":14400,"station_id":"ce4bgm92rcd13ifvqbr0","pricing_plan_id":"cebpf4jnsgd1na2vs0mg"},{"bike_id":"e5c41bcc-15b4-4856-a15a-1d642ce07776","system_id":"levelo_inurba_marseille","lat":43.29854,"lon":5.36279,"is_reserved":false,"is_disabled":false,"rental_uris":{"android":"levelo://app?vid=e5c41bcc-15b4-4856-a15a-1d642ce07776","ios":"levelo://app?vid=e5c41bcc-15b4-4856-a15a-1d642ce07776"},"vehicle_type_id":"4","last_reported":1748352320,"current_range_meters":14400,"station_id":"ce4bgpp2rcd13ifvqc3g","pricing_plan_id":"cebpf4jnsgd1na2vs0mg"},{"bike_id":"daa8a49f-122c-4d26-bdef-9f4f3e827bca","system_id":"levelo_inurba_marseille","lat":43.28425,"lon":5.35016,"is_reserved":false,"is_disabled":false,"rental_uris":{"android":"levelo://app?vid=daa8a49f-122c-4d26-bdef-9f4f3e827bca","ios":"levelo://app?vid=daa8a49f-122c-4d26-bdef-9f4f3e827bca"},"vehicle_type_id":"4","last_reported":1748352320,"current_range_meters":14400,"station_id":"ce4bhbh2rcd13ifvqepg","pricing_plan_id":"cebpf4jnsgd1na2vs0mg"},{"bike_id":"55ea50a0-faa8-42b0-812e-aa23d1b50f58","system_id":"levelo_inurba_marseille","lat":43.28412,"lon":5.34984,"is_reserved":false,"is_disabled":false,"rental_uris":{"android":"levelo://app?vid=55ea50a0-faa8-42b0-812e-aa23d1b50f58","ios":"levelo://app?vid=55ea50a0-faa8-42b0-812e-aa23d1b50f58"},"vehicle_type_id":"4","last_reported":1748352320,"current_range_meters":14400,"station_id":"ce4bhbh2rcd13ifvqepg","pricing_plan_id":"cebpf4jnsgd1na2vs0mg"},{"bike_id":"a66155bb-577b-41ae-81cc-e591f264e2f6","system_id":"levelo_inurba_marseille","lat":43.29274,"lon":5.38446,"is_reserved":false,"is_disabled":false,"rental_uris":{"android":"levelo://app?vid=a66155bb-577b-41ae-81cc-e591f264e2f6","ios":"levelo://app?vid=a66155bb-577b-41ae-81cc-e591f264e2f6"},"vehicle_type_id":"4","last_reported":1748352320,"current_range_meters":14400,"station_id":"ce4bh692rcd13ifvqea0","pricing_plan_id":"cebpf4jnsgd1na2vs0mg"},{"bike_id":"03ef6ddd-8352-4018-a026-59ae3ff98d65","system_id":"levelo_inurba_marseille","lat":43.27492,"lon":5.42443,"is_reserved":false,"is_disabled":false,"rental_uris":{"android":"levelo://app?vid=03ef6ddd-8352-4018-a026-59ae3ff98d65","ios":"levelo://app?vid=03ef6ddd-8352-4018-a026-59ae3ff98d65"},"vehicle_type_id":"4","last_reported":1748352320,"current_range_meters":14400,"station_id":"ce4bhn92rcd13ifvqgrg","pricing_plan_id":"cebpf4jnsgd1na2vs0mg"},{"bike_id":"e572f301-b2c7-42f5-af5c-379ca5457f2b","system_id":"levelo_inurba_marseille","lat":43.22935,"lon":5.35375,"is_reserved":false,"is_disabled":false,"rental_uris":{"android":"levelo://app?vid=e572f301-b2c7-42f5-af5c-379ca5457f2b","ios":"levelo://app?vid=e572f301-b2c7-42f5-af5c-379ca5457f2b"},"vehicle_type_id":"4","last_reported":1748352320,"current_range_meters":14800,"station_id":"cpo3532slgdg3j2ikp40","pricing_plan_id":"cebpf4jnsgd1na2vs0mg"},{"bike_id":"f1344b95-4890-4bd8-be3b-7f6fe2a94f56","system_id":"levelo_inurba_marseille","lat":43.30556,"lon":5.36528,"is_reserved":false,"is_disabled":false,"rental_uris":{"android":"levelo://app?vid=f1344b95-4890-4bd8-be3b-7f6fe2a94f56","ios":"levelo://app?vid=f1344b95-4890-4bd8-be3b-7f6fe2a94f56"},"vehicle_type_id":"4","last_reported":1748352320,"current_range_meters":14800,"station_id":"ce4bgs12rcd13ifvqcag","pricing_plan_id":"cebpf4jnsgd1na2vs0mg"},{"bike_id":"edc4b93f-a730-41c4-a6f4-9855f7478447","system_id":"levelo_inurba_marseille","lat":43.31383,"lon":5.36702,"is_reserved":false,"is_disabled":false,"rental_uris":{"android":"levelo://app?vid=edc4b93f-a730-41c4-a6f4-9855f7478447","ios":"levelo://app?vid=edc4b93f-a730-41c4-a6f4-9855f7478447"},"vehicle_type_id":"4","last_reported":1748352320,"current_range_meters":14800,"station_id":"ce4bgr92rcd13ifvqc6g","pricing_plan_id":"cebpf4jnsgd1na2vs0mg"},{"bike_id":"7e31f5c7-044b-47c8-9fc9-70ce34aeda1e","system_id":"levelo_inurba_marseille","lat":43.217498,"lon":5.346056,"is_reserved":false,"is_disabled":false,"rental_uris":{"android":"levelo://app?vid=7e31f5c7-044b-47c8-9fc9-70ce34aeda1e","ios":"levelo://app?vid=7e31f5c7-044b-47c8-9fc9-70ce34aeda1e"},"vehicle_type_id":"4","last_reported":1748352320,"current_range_meters":15200,"station_id":"st_cvj6r9ubvosntc0bgbag","pricing_plan_id":"cebpf4jnsgd1na2vs0mg"},{"bike_id":"d1844141-bbf9-4af9-a8cb-9124dbc03530","system_id":"levelo_inurba_marseille","lat":43.23128,"lon":5.43736,"is_reserved":false,"is_disabled":false,"rental_uris":{"android":"levelo://app?vid=d1844141-bbf9-4af9-a8cb-9124dbc03530","ios":"levelo://app?vid=d1844141-bbf9-4af9-a8cb-9124dbc03530"},"vehicle_type_id":"4","last_reported":1748352320,"current_range_meters":15200,"station_id":"ce4bhmp2rcd13ifvqgog","pricing_plan_id":"cebpf4jnsgd1na2vs0mg"},{"bike_id":"f87b6a31-04fd-4a5e-aeae-f44ec75968a0","system_id":"levelo_inurba_marseille","lat":43.2988,"lon":5.39729,"is_reserved":false,"is_disabled":true,"rental_uris":{"android":"levelo://app?vid=f87b6a31-04fd-4a5e-aeae-f44ec75968a0","ios":"levelo://app?vid=f87b6a31-04fd-4a5e-aeae-f44ec75968a0"},"vehicle_type_id":"4","last_reported":1748352320,"current_range_meters":15200,"station_id":"ce4bh0h2rcd13ifvqd50","pricing_plan_id":"cebpf4jnsgd1na2vs0mg"},{"bike_id":"69ac8acb-6816-4e3d-b61e-e01a1548e4df","system_id":"levelo_inurba_marseille","lat":43.23153,"lon":5.43762,"is_reserved":false,"is_disabled":false,"rental_uris":{"android":"levelo://app?vid=69ac8acb-6816-4e3d-b61e-e01a1548e4df","ios":"levelo://app?vid=69ac8acb-6816-4e3d-b61e-e01a1548e4df"},"vehicle_type_id":"4","last_reported":1748352320,"current_range_meters":15200,"station_id":"ce4bhmp2rcd13ifvqgog","pricing_plan_id":"cebpf4jnsgd1na2vs0mg"},{"bike_id":"8b8f4ddc-5f2d-41ad-9613-91a528fd4361","system_id":"levelo_inurba_marseille","lat":43.22934,"lon":5.35378,"is_reserved":false,"is_disabled":false,"rental_uris":{"android":"levelo://app?vid=8b8f4ddc-5f2d-41ad-9613-91a528fd4361","ios":"levelo://app?vid=8b8f4ddc-5f2d-41ad-9613-91a528fd4361"},"vehicle_type_id":"4","last_reported":1748352320,"current_range_meters":15200,"station_id":"cpo3532slgdg3j2ikp40","pricing_plan_id":"cebpf4jnsgd1na2vs0mg"},{"bike_id":"17b1cf40-157b-43fa-a073-a242ea5effd0","system_id":"levelo_inurba_marseille","lat":43.23963,"lon":5.36624,"is_reserved":false,"is_disabled":false,"rental_uris":{"android":"levelo://app?vid=17b1cf40-157b-43fa-a073-a242ea5effd0","ios":"levelo://app?vid=17b1cf40-157b-43fa-a073-a242ea5effd0"},"vehicle_type_id":"4","last_reported":1748352320,"current_range_meters":15200,"station_id":"ce4bhi12rcd13ifvqfp0","pricing_plan_id":"cebpf4jnsgd1na2vs0mg"},{"bike_id":"30c39c5c-dc03-4d6d-aad2-cce114adeea2","system_id":"levelo_inurba_marseille","lat":43.31486,"lon":5.37287,"is_reserved":false,"is_disabled":false,"rental_uris":{"android":"levelo://app?vid=30c39c5c-dc03-4d6d-aad2-cce114adeea2","ios":"levelo://app?vid=30c39c5c-dc03-4d6d-aad2-cce114adeea2"},"vehicle_type_id":"4","last_reported":1748352320,"current_range_meters":15200,"station_id":"ce4bgt12rcd13ifvqcd0","pricing_plan_id":"cebpf4jnsgd1na2vs0mg"},{"bike_id":"f3fe3d7e-7a67-41be-b571-0d1115dce981","system_id":"levelo_inurba_marseille","lat":43.255729,"lon":5.382428,"is_reserved":false,"is_disabled":false,"rental_uris":{"android":"levelo://app?vid=f3fe3d7e-7a67-41be-b571-0d1115dce981","ios":"levelo://app?vid=f3fe3d7e-7a67-41be-b571-0d1115dce981"},"vehicle_type_id":"4","last_reported":1748352320,"current_range_meters":15200,"station_id":"","pricing_plan_id":"cebpf4jnsgd1na2vs0mg"},{"bike_id":"b9feece3-8db7-4d9c-b5c4-3d592ac61b90","system_id":"levelo_inurba_marseille","lat":43.291848,"lon":5.358085,"is_reserved":false,"is_disabled":false,"rental_uris":{"android":"levelo://app?vid=b9feece3-8db7-4d9c-b5c4-3d592ac61b90","ios":"levelo://app?vid=b9feece3-8db7-4d9c-b5c4-3d592ac61b90"},"vehicle_type_id":"4","last_reported":1748352320,"current_range_meters":15200,"station_id":"","pricing_plan_id":"cebpf4jnsgd1na2vs0mg"},{"bike_id":"69c0fd55-cd72-4f90-a33e-0ecbe62d3f06","system_id":"levelo_inurba_marseille","lat":43.28409,"lon":5.35015,"is_reserved":false,"is_disabled":false,"rental_uris":{"android":"levelo://app?vid=69c0fd55-cd72-4f90-a33e-0ecbe62d3f06","ios":"levelo://app?vid=69c0fd55-cd72-4f90-a33e-0ecbe62d3f06"},"vehicle_type_id":"4","last_reported":1748352320,"current_range_meters":16000,"station_id":"ce4bhbh2rcd13ifvqepg","pricing_plan_id":"cebpf4jnsgd1na2vs0mg"},{"bike_id":"7fcacb75-289c-4f7e-896e-c503cc4fb902","system_id":"levelo_inurba_marseille","lat":43.21191,"lon":5.35072,"is_reserved":false,"is_disabled":true,"rental_uris":{"android":"levelo://app?vid=7fcacb75-289c-4f7e-896e-c503cc4fb902","ios":"levelo://app?vid=7fcacb75-289c-4f7e-896e-c503cc4fb902"},"vehicle_type_id":"4","last_reported":1748352320,"current_range_meters":16000,"station_id":"st_cvj6sg6p6f1abm77japg","pricing_plan_id":"cebpf4jnsgd1na2vs0mg"},{"bike_id":"14d4e8f4-a500-460d-87bc-39ccb785c7b3","system_id":"levelo_inurba_marseille","lat":43.29002,"lon":5.35595,"is_reserved":false,"is_disabled":false,"rental_uris":{"android":"levelo://app?vid=14d4e8f4-a500-460d-87bc-39ccb785c7b3","ios":"levelo://app?vid=14d4e8f4-a500-460d-87bc-39ccb785c7b3"},"vehicle_type_id":"4","last_reported":1748352320,"current_range_meters":16000,"station_id":"ce4bhb92rcd13ifvqen0","pricing_plan_id":"cebpf4jnsgd1na2vs0mg"},{"bike_id":"4807cc62-6a9b-4bb6-9a64-b3c1da7dd454","system_id":"levelo_inurba_marseille","lat":43.3053,"lon":5.36539,"is_reserved":false,"is_disabled":false,"rental_uris":{"android":"levelo://app?vid=4807cc62-6a9b-4bb6-9a64-b3c1da7dd454","ios":"levelo://app?vid=4807cc62-6a9b-4bb6-9a64-b3c1da7dd454"},"vehicle_type_id":"4","last_reported":1748352320,"current_range_meters":16000,"station_id":"ce4bgs12rcd13ifvqcag","pricing_plan_id":"cebpf4jnsgd1na2vs0mg"},{"bike_id":"58ed21bb-c1eb-4517-97b4-9ee0d4db9f9d","system_id":"levelo_inurba_marseille","lat":43.301551,"lon":5.374025,"is_reserved":false,"is_disabled":false,"rental_uris":{"android":"levelo://app?vid=58ed21bb-c1eb-4517-97b4-9ee0d4db9f9d","ios":"levelo://app?vid=58ed21bb-c1eb-4517-97b4-9ee0d4db9f9d"},"vehicle_type_id":"4","last_reported":1748352320,"current_range_meters":16000,"station_id":"ce4bgs92rcd13ifvqcc0","pricing_plan_id":"cebpf4jnsgd1na2vs0mg"},{"bike_id":"b022cf3a-ed71-4b84-a8d7-575675b7a40f","system_id":"levelo_inurba_marseille","lat":43.25927,"lon":5.40938,"is_reserved":false,"is_disabled":false,"rental_uris":{"android":"levelo://app?vid=b022cf3a-ed71-4b84-a8d7-575675b7a40f","ios":"levelo://app?vid=b022cf3a-ed71-4b84-a8d7-575675b7a40f"},"vehicle_type_id":"4","last_reported":1748352320,"current_range_meters":16000,"station_id":"ce4bhm92rcd13ifvqglg","pricing_plan_id":"cebpf4jnsgd1na2vs0mg"},{"bike_id":"9718e1e0-9e84-4be8-ae44-6a7a8fb5f0bd","system_id":"levelo_inurba_marseille","lat":43.33768,"lon":5.37428,"is_reserved":false,"is_disabled":false,"rental_uris":{"android":"levelo://app?vid=9718e1e0-9e84-4be8-ae44-6a7a8fb5f0bd","ios":"levelo://app?vid=9718e1e0-9e84-4be8-ae44-6a7a8fb5f0bd"},"vehicle_type_id":"4","last_reported":1748352320,"current_range_meters":16000,"station_id":"","pricing_plan_id":"cebpf4jnsgd1na2vs0mg"},{"bike_id":"9cd6b724-2436-4b16-ab1a-357fe442c71c","system_id":"levelo_inurba_marseille","lat":43.25724,"lon":5.41114,"is_reserved":false,"is_disabled":false,"rental_uris":{"android":"levelo://app?vid=9cd6b724-2436-4b16-ab1a-357fe442c71c","ios":"levelo://app?vid=9cd6b724-2436-4b16-ab1a-357fe442c71c"},"vehicle_type_id":"4","last_reported":1748352320,"current_range_meters":16000,"station_id":"ce4bhkp2rcd13ifvqgd0","pricing_plan_id":"cebpf4jnsgd1na2vs0mg"},{"bike_id":"46f1e1a2-421d-4288-9b19-22918bc7cc7f","system_id":"levelo_inurba_marseille","lat":43.23195,"lon":5.35553,"is_reserved":false,"is_disabled":false,"rental_uris":{"android":"levelo://app?vid=46f1e1a2-421d-4288-9b19-22918bc7cc7f","ios":"levelo://app?vid=46f1e1a2-421d-4288-9b19-22918bc7cc7f"},"vehicle_type_id":"4","last_reported":1748352320,"current_range_meters":16000,"station_id":"ce4bhu92rcd13ifvqi70","pricing_plan_id":"cebpf4jnsgd1na2vs0mg"},{"bike_id":"13710dea-0040-4603-b3c5-c6afee81c6b7","system_id":"levelo_inurba_marseille","lat":43.29068,"lon":5.37172,"is_reserved":false,"is_disabled":false,"rental_uris":{"android":"levelo://app?vid=13710dea-0040-4603-b3c5-c6afee81c6b7","ios":"levelo://app?vid=13710dea-0040-4603-b3c5-c6afee81c6b7"},"vehicle_type_id":"4","last_reported":1748352320,"current_range_meters":15200,"station_id":"ce4bh5p2rcd13ifvqe4g","pricing_plan_id":"cebpf4jnsgd1na2vs0mg"},{"bike_id":"e55e7ff5-1b3d-4ccc-9d83-a423e60334bc","system_id":"levelo_inurba_marseille","lat":43.21754,"lon":5.34617,"is_reserved":false,"is_disabled":false,"rental_uris":{"android":"levelo://app?vid=e55e7ff5-1b3d-4ccc-9d83-a423e60334bc","ios":"levelo://app?vid=e55e7ff5-1b3d-4ccc-9d83-a423e60334bc"},"vehicle_type_id":"4","last_reported":1748352320,"current_range_meters":16000,"station_id":"st_cvj6r9ubvosntc0bgbag","pricing_plan_id":"cebpf4jnsgd1na2vs0mg"},{"bike_id":"01cb83a2-56f3-422f-84ff-03ee58762c3e","system_id":"levelo_inurba_marseille","lat":43.30742,"lon":5.36847,"is_reserved":false,"is_disabled":false,"rental_uris":{"android":"levelo://app?vid=01cb83a2-56f3-422f-84ff-03ee58762c3e","ios":"levelo://app?vid=01cb83a2-56f3-422f-84ff-03ee58762c3e"},"vehicle_type_id":"4","last_reported":1748352320,"current_range_meters":16800,"station_id":"","pricing_plan_id":"cebpf4jnsgd1na2vs0mg"},{"bike_id":"0f5374e3-ade9-4839-9224-f355b5e70b2e","system_id":"levelo_inurba_marseille","lat":43.297277,"lon":5.376853,"is_reserved":false,"is_disabled":false,"rental_uris":{"android":"levelo://app?vid=0f5374e3-ade9-4839-9224-f355b5e70b2e","ios":"levelo://app?vid=0f5374e3-ade9-4839-9224-f355b5e70b2e"},"vehicle_type_id":"4","last_reported":1748352320,"current_range_meters":16400,"station_id":"ce4bgkh2rcd13ifvqbl0","pricing_plan_id":"cebpf4jnsgd1na2vs0mg"},{"bike_id":"f9497d8a-7a6b-4c55-bdc6-1f7f83f95b9a","system_id":"levelo_inurba_marseille","lat":43.29058,"lon":5.37563,"is_reserved":false,"is_disabled":true,"rental_uris":{"android":"levelo://app?vid=f9497d8a-7a6b-4c55-bdc6-1f7f83f95b9a","ios":"levelo://app?vid=f9497d8a-7a6b-4c55-bdc6-1f7f83f95b9a"},"vehicle_type_id":"4","last_reported":1748352320,"current_range_meters":16400,"station_id":"ce4bh692rcd13ifvqe90","pricing_plan_id":"cebpf4jnsgd1na2vs0mg"},{"bike_id":"920be628-8bb6-4abf-8cd2-9431b9177f5a","system_id":"levelo_inurba_marseille","lat":43.23144,"lon":5.43713,"is_reserved":false,"is_disabled":false,"rental_uris":{"android":"levelo://app?vid=920be628-8bb6-4abf-8cd2-9431b9177f5a","ios":"levelo://app?vid=920be628-8bb6-4abf-8cd2-9431b9177f5a"},"vehicle_type_id":"4","last_reported":1748352320,"current_range_meters":16400,"station_id":"ce4bhmp2rcd13ifvqgog","pricing_plan_id":"cebpf4jnsgd1na2vs0mg"},{"bike_id":"1565905c-f85d-4b76-b070-765faa050ab5","system_id":"levelo_inurba_marseille","lat":43.24804,"lon":5.37451,"is_reserved":false,"is_disabled":false,"rental_uris":{"android":"levelo://app?vid=1565905c-f85d-4b76-b070-765faa050ab5","ios":"levelo://app?vid=1565905c-f85d-4b76-b070-765faa050ab5"},"vehicle_type_id":"4","last_reported":1748352320,"current_range_meters":16400,"station_id":"ce4bhgh2rcd13ifvqfb0","pricing_plan_id":"cebpf4jnsgd1na2vs0mg"},{"bike_id":"0feb5fc7-c1f1-435d-b268-924592d7b8a0","system_id":"levelo_inurba_marseille","lat":43.30572,"lon":5.3675,"is_reserved":false,"is_disabled":false,"rental_uris":{"android":"levelo://app?vid=0feb5fc7-c1f1-435d-b268-924592d7b8a0","ios":"levelo://app?vid=0feb5fc7-c1f1-435d-b268-924592d7b8a0"},"vehicle_type_id":"4","last_reported":1748352320,"current_range_meters":16400,"station_id":"ce4bgrp2rcd13ifvqc9g","pricing_plan_id":"cebpf4jnsgd1na2vs0mg"},{"bike_id":"c816ad93-8fc1-443f-ac7d-1033d47dc2a7","system_id":"levelo_inurba_marseille","lat":43.295428,"lon":5.374998,"is_reserved":false,"is_disabled":true,"rental_uris":{"android":"levelo://app?vid=c816ad93-8fc1-443f-ac7d-1033d47dc2a7","ios":"levelo://app?vid=c816ad93-8fc1-443f-ac7d-1033d47dc2a7"},"vehicle_type_id":"4","last_reported":1748352320,"current_range_meters":16400,"station_id":"ce4bgh92rcd13ifvqb50","pricing_plan_id":"cebpf4jnsgd1na2vs0mg"},{"bike_id":"2cb6acb1-9dd8-4683-82b0-104eada3fbc9","system_id":"levelo_inurba_marseille","lat":43.30923,"lon":5.40233,"is_reserved":false,"is_disabled":false,"rental_uris":{"android":"levelo://app?vid=2cb6acb1-9dd8-4683-82b0-104eada3fbc9","ios":"levelo://app?vid=2cb6acb1-9dd8-4683-82b0-104eada3fbc9"},"vehicle_type_id":"4","last_reported":1748352320,"current_range_meters":16400,"station_id":"ce4bgvp2rcd13ifvqct0","pricing_plan_id":"cebpf4jnsgd1na2vs0mg"},{"bike_id":"134c70cc-46f1-414c-ba60-b99ba2b4a992","system_id":"levelo_inurba_marseille","lat":43.34814,"lon":5.35109,"is_reserved":false,"is_disabled":false,"rental_uris":{"android":"levelo://app?vid=134c70cc-46f1-414c-ba60-b99ba2b4a992","ios":"levelo://app?vid=134c70cc-46f1-414c-ba60-b99ba2b4a992"},"vehicle_type_id":"4","last_reported":1748352320,"current_range_meters":16400,"station_id":"","pricing_plan_id":"cebpf4jnsgd1na2vs0mg"},{"bike_id":"3158ed97-171e-4f6d-b654-271885e2dbac","system_id":"levelo_inurba_marseille","lat":43.26199,"lon":5.37447,"is_reserved":false,"is_disabled":false,"rental_uris":{"android":"levelo://app?vid=3158ed97-171e-4f6d-b654-271885e2dbac","ios":"levelo://app?vid=3158ed97-171e-4f6d-b654-271885e2dbac"},"vehicle_type_id":"4","last_reported":1748352320,"current_range_meters":16800,"station_id":"ce4bhgp2rcd13ifvqfc0","pricing_plan_id":"cebpf4jnsgd1na2vs0mg"},{"bike_id":"db534f2e-558f-4938-a255-680044c6e0fa","system_id":"levelo_inurba_marseille","lat":43.243878,"lon":5.370528,"is_reserved":false,"is_disabled":false,"rental_uris":{"android":"levelo://app?vid=db534f2e-558f-4938-a255-680044c6e0fa","ios":"levelo://app?vid=db534f2e-558f-4938-a255-680044c6e0fa"},"vehicle_type_id":"4","last_reported":1748352320,"current_range_meters":16800,"station_id":"ce4bhhh2rcd13ifvqfk0","pricing_plan_id":"cebpf4jnsgd1na2vs0mg"},{"bike_id":"1dafdf51-656d-4975-819b-79ae74d93918","system_id":"levelo_inurba_marseille","lat":43.231625,"lon":5.436847,"is_reserved":false,"is_disabled":false,"rental_uris":{"android":"levelo://app?vid=1dafdf51-656d-4975-819b-79ae74d93918","ios":"levelo://app?vid=1dafdf51-656d-4975-819b-79ae74d93918"},"vehicle_type_id":"4","last_reported":1748352320,"current_range_meters":16800,"station_id":"ce4bhmp2rcd13ifvqgog","pricing_plan_id":"cebpf4jnsgd1na2vs0mg"},{"bike_id":"b3a14d16-45ac-4204-8d88-3a2acecc260d","system_id":"levelo_inurba_marseille","lat":43.28415,"lon":5.34986,"is_reserved":false,"is_disabled":false,"rental_uris":{"android":"levelo://app?vid=b3a14d16-45ac-4204-8d88-3a2acecc260d","ios":"levelo://app?vid=b3a14d16-45ac-4204-8d88-3a2acecc260d"},"vehicle_type_id":"4","last_reported":1748352320,"current_range_meters":16800,"station_id":"ce4bhbh2rcd13ifvqepg","pricing_plan_id":"cebpf4jnsgd1na2vs0mg"},{"bike_id":"d4bcc636-6bd2-4d89-a14b-857f593b977a","system_id":"levelo_inurba_marseille","lat":43.28664,"lon":5.36339,"is_reserved":false,"is_disabled":false,"rental_uris":{"android":"levelo://app?vid=d4bcc636-6bd2-4d89-a14b-857f593b977a","ios":"levelo://app?vid=d4bcc636-6bd2-4d89-a14b-857f593b977a"},"vehicle_type_id":"4","last_reported":1748352320,"current_range_meters":16800,"station_id":"ce4bhah2rcd13ifvqej0","pricing_plan_id":"cebpf4jnsgd1na2vs0mg"},{"bike_id":"4eb67d38-fc5c-4252-b077-a80464f0020a","system_id":"levelo_inurba_marseille","lat":43.3054,"lon":5.36611,"is_reserved":false,"is_disabled":false,"rental_uris":{"android":"levelo://app?vid=4eb67d38-fc5c-4252-b077-a80464f0020a","ios":"levelo://app?vid=4eb67d38-fc5c-4252-b077-a80464f0020a"},"vehicle_type_id":"4","last_reported":1748352320,"current_range_meters":16800,"station_id":"ce4bgs12rcd13ifvqcag","pricing_plan_id":"cebpf4jnsgd1na2vs0mg"},{"bike_id":"b4a36e5e-245a-41cc-a9cf-03d5c03f3457","system_id":"levelo_inurba_marseille","lat":43.23158,"lon":5.43743,"is_reserved":false,"is_disabled":false,"rental_uris":{"android":"levelo://app?vid=b4a36e5e-245a-41cc-a9cf-03d5c03f3457","ios":"levelo://app?vid=b4a36e5e-245a-41cc-a9cf-03d5c03f3457"},"vehicle_type_id":"4","last_reported":1748352320,"current_range_meters":16800,"station_id":"ce4bhmp2rcd13ifvqgog","pricing_plan_id":"cebpf4jnsgd1na2vs0mg"},{"bike_id":"e8264270-6e82-48a0-9de5-a3f73f59db95","system_id":"levelo_inurba_marseille","lat":43.23174,"lon":5.40042,"is_reserved":false,"is_disabled":false,"rental_uris":{"android":"levelo://app?vid=e8264270-6e82-48a0-9de5-a3f73f59db95","ios":"levelo://app?vid=e8264270-6e82-48a0-9de5-a3f73f59db95"},"vehicle_type_id":"4","last_reported":1748352320,"current_range_meters":16800,"station_id":"ce4bhn12rcd13ifvqgqg","pricing_plan_id":"cebpf4jnsgd1na2vs0mg"},{"bike_id":"1d2db00d-657d-461e-b5c4-20cac6f4ffc9","system_id":"levelo_inurba_marseille","lat":43.24182,"lon":5.39728,"is_reserved":false,"is_disabled":false,"rental_uris":{"android":"levelo://app?vid=1d2db00d-657d-461e-b5c4-20cac6f4ffc9","ios":"levelo://app?vid=1d2db00d-657d-461e-b5c4-20cac6f4ffc9"},"vehicle_type_id":"4","last_reported":1748352320,"current_range_meters":16800,"station_id":"ce4bhn12rcd13ifvqgpg","pricing_plan_id":"cebpf4jnsgd1na2vs0mg"},{"bike_id":"53b5a3f4-731c-4f3e-ae19-9a2d7c970ad3","system_id":"levelo_inurba_marseille","lat":43.312339,"lon":5.368541,"is_reserved":false,"is_disabled":false,"rental_uris":{"android":"levelo://app?vid=53b5a3f4-731c-4f3e-ae19-9a2d7c970ad3","ios":"levelo://app?vid=53b5a3f4-731c-4f3e-ae19-9a2d7c970ad3"},"vehicle_type_id":"4","last_reported":1748352320,"current_range_meters":17200,"station_id":"ce4bgl92rcd13ifvqbq0","pricing_plan_id":"cebpf4jnsgd1na2vs0mg"},{"bike_id":"94004fcd-16e5-45bb-a3b1-a3a41297d76d","system_id":"levelo_inurba_marseille","lat":43.31233,"lon":5.36861,"is_reserved":false,"is_disabled":false,"rental_uris":{"android":"levelo://app?vid=94004fcd-16e5-45bb-a3b1-a3a41297d76d","ios":"levelo://app?vid=94004fcd-16e5-45bb-a3b1-a3a41297d76d"},"vehicle_type_id":"4","last_reported":1748352320,"current_range_meters":17200,"station_id":"ce4bgl92rcd13ifvqbq0","pricing_plan_id":"cebpf4jnsgd1na2vs0mg"},{"bike_id":"095a1188-4e42-408e-b00b-427b37118f68","system_id":"levelo_inurba_marseille","lat":43.231517,"lon":5.43701,"is_reserved":false,"is_disabled":false,"rental_uris":{"android":"levelo://app?vid=095a1188-4e42-408e-b00b-427b37118f68","ios":"levelo://app?vid=095a1188-4e42-408e-b00b-427b37118f68"},"vehicle_type_id":"4","last_reported":1748352320,"current_range_meters":17200,"station_id":"ce4bhmp2rcd13ifvqgog","pricing_plan_id":"cebpf4jnsgd1na2vs0mg"},{"bike_id":"659cfb2d-9fa6-476d-b135-1d1da7c0d60e","system_id":"levelo_inurba_marseille","lat":43.31762,"lon":5.39017,"is_reserved":false,"is_disabled":false,"rental_uris":{"android":"levelo://app?vid=659cfb2d-9fa6-476d-b135-1d1da7c0d60e","ios":"levelo://app?vid=659cfb2d-9fa6-476d-b135-1d1da7c0d60e"},"vehicle_type_id":"4","last_reported":1748352320,"current_range_meters":16800,"station_id":"ce4bhqp2rcd13ifvqhng","pricing_plan_id":"cebpf4jnsgd1na2vs0mg"},{"bike_id":"5ce0f054-0973-45cd-bb35-bf44900abf7d","system_id":"levelo_inurba_marseille","lat":43.286973,"lon":5.373822,"is_reserved":false,"is_disabled":false,"rental_uris":{"android":"levelo://app?vid=5ce0f054-0973-45cd-bb35-bf44900abf7d","ios":"levelo://app?vid=5ce0f054-0973-45cd-bb35-bf44900abf7d"},"vehicle_type_id":"4","last_reported":1748352320,"current_range_meters":17200,"station_id":"ce4bh3p2rcd13ifvqdq0","pricing_plan_id":"cebpf4jnsgd1na2vs0mg"},{"bike_id":"0643f289-f879-4db0-91e1-78db01fdc43a","system_id":"levelo_inurba_marseille","lat":43.2862,"lon":5.35103,"is_reserved":false,"is_disabled":false,"rental_uris":{"android":"levelo://app?vid=0643f289-f879-4db0-91e1-78db01fdc43a","ios":"levelo://app?vid=0643f289-f879-4db0-91e1-78db01fdc43a"},"vehicle_type_id":"4","last_reported":1748352320,"current_range_meters":17200,"station_id":"ce4bhch2rcd13ifvqeug","pricing_plan_id":"cebpf4jnsgd1na2vs0mg"},{"bike_id":"a597634c-caeb-4dfc-adca-1445d16bb410","system_id":"levelo_inurba_marseille","lat":43.31492,"lon":5.37308,"is_reserved":false,"is_disabled":false,"rental_uris":{"android":"levelo://app?vid=a597634c-caeb-4dfc-adca-1445d16bb410","ios":"levelo://app?vid=a597634c-caeb-4dfc-adca-1445d16bb410"},"vehicle_type_id":"4","last_reported":1748352320,"current_range_meters":17200,"station_id":"ce4bgt12rcd13ifvqcd0","pricing_plan_id":"cebpf4jnsgd1na2vs0mg"},{"bike_id":"98cbf70d-d9f6-4b71-bf03-63425172bed7","system_id":"levelo_inurba_marseille","lat":43.23156,"lon":5.43756,"is_reserved":false,"is_disabled":false,"rental_uris":{"android":"levelo://app?vid=98cbf70d-d9f6-4b71-bf03-63425172bed7","ios":"levelo://app?vid=98cbf70d-d9f6-4b71-bf03-63425172bed7"},"vehicle_type_id":"4","last_reported":1748352320,"current_range_meters":17200,"station_id":"","pricing_plan_id":"cebpf4jnsgd1na2vs0mg"},{"bike_id":"5d1c283e-24a5-4bc7-9a93-ab0513046706","system_id":"levelo_inurba_marseille","lat":43.28984,"lon":5.37827,"is_reserved":false,"is_disabled":false,"rental_uris":{"android":"levelo://app?vid=5d1c283e-24a5-4bc7-9a93-ab0513046706","ios":"levelo://app?vid=5d1c283e-24a5-4bc7-9a93-ab0513046706"},"vehicle_type_id":"4","last_reported":1748352320,"current_range_meters":17200,"station_id":"ce4bh9p2rcd13ifvqed0","pricing_plan_id":"cebpf4jnsgd1na2vs0mg"},{"bike_id":"21cfc9c5-a4c6-455e-a00d-7da2980d4b6e","system_id":"levelo_inurba_marseille","lat":43.30411,"lon":5.41287,"is_reserved":false,"is_disabled":false,"rental_uris":{"android":"levelo://app?vid=21cfc9c5-a4c6-455e-a00d-7da2980d4b6e","ios":"levelo://app?vid=21cfc9c5-a4c6-455e-a00d-7da2980d4b6e"},"vehicle_type_id":"4","last_reported":1748352320,"current_range_meters":17600,"station_id":"ce4bhop2rcd13ifvqh8g","pricing_plan_id":"cebpf4jnsgd1na2vs0mg"},{"bike_id":"dde48ba7-14c0-4d94-b0cb-cf6edbcb19b4","system_id":"levelo_inurba_marseille","lat":43.24664,"lon":5.38162,"is_reserved":false,"is_disabled":false,"rental_uris":{"android":"levelo://app?vid=dde48ba7-14c0-4d94-b0cb-cf6edbcb19b4","ios":"levelo://app?vid=dde48ba7-14c0-4d94-b0cb-cf6edbcb19b4"},"vehicle_type_id":"4","last_reported":1748352320,"current_range_meters":17600,"station_id":"ce4bhih2rcd13ifvqfr0","pricing_plan_id":"cebpf4jnsgd1na2vs0mg"},{"bike_id":"f2fc1692-01b9-4b02-8b2c-252289992f8e","system_id":"levelo_inurba_marseille","lat":43.28427,"lon":5.34979,"is_reserved":false,"is_disabled":false,"rental_uris":{"android":"levelo://app?vid=f2fc1692-01b9-4b02-8b2c-252289992f8e","ios":"levelo://app?vid=f2fc1692-01b9-4b02-8b2c-252289992f8e"},"vehicle_type_id":"4","last_reported":1748352320,"current_range_meters":17600,"station_id":"ce4bhbh2rcd13ifvqepg","pricing_plan_id":"cebpf4jnsgd1na2vs0mg"},{"bike_id":"329a6f0a-1f73-4e11-92f5-cd0525da8dd9","system_id":"levelo_inurba_marseille","lat":43.30137,"lon":5.37427,"is_reserved":false,"is_disabled":false,"rental_uris":{"android":"levelo://app?vid=329a6f0a-1f73-4e11-92f5-cd0525da8dd9","ios":"levelo://app?vid=329a6f0a-1f73-4e11-92f5-cd0525da8dd9"},"vehicle_type_id":"4","last_reported":1748352320,"current_range_meters":17600,"station_id":"ce4bgs92rcd13ifvqcc0","pricing_plan_id":"cebpf4jnsgd1na2vs0mg"},{"bike_id":"ed165672-9d9e-4ba7-ad6d-80d0e9db44ba","system_id":"levelo_inurba_marseille","lat":43.28424,"lon":5.34998,"is_reserved":false,"is_disabled":false,"rental_uris":{"android":"levelo://app?vid=ed165672-9d9e-4ba7-ad6d-80d0e9db44ba","ios":"levelo://app?vid=ed165672-9d9e-4ba7-ad6d-80d0e9db44ba"},"vehicle_type_id":"4","last_reported":1748352320,"current_range_meters":17600,"station_id":"ce4bhbh2rcd13ifvqepg","pricing_plan_id":"cebpf4jnsgd1na2vs0mg"},{"bike_id":"69af4c7a-acaa-4e50-9849-93b13f3931db","system_id":"levelo_inurba_marseille","lat":43.32552,"lon":5.41453,"is_reserved":false,"is_disabled":false,"rental_uris":{"android":"levelo://app?vid=69af4c7a-acaa-4e50-9849-93b13f3931db","ios":"levelo://app?vid=69af4c7a-acaa-4e50-9849-93b13f3931db"},"vehicle_type_id":"4","last_reported":1748352320,"current_range_meters":17600,"station_id":"ce4bhq12rcd13ifvqhhg","pricing_plan_id":"cebpf4jnsgd1na2vs0mg"},{"bike_id":"481ebb4b-9361-4b29-bac4-0fc6c196218c","system_id":"levelo_inurba_marseille","lat":43.26208,"lon":5.37452,"is_reserved":false,"is_disabled":false,"rental_uris":{"android":"levelo://app?vid=481ebb4b-9361-4b29-bac4-0fc6c196218c","ios":"levelo://app?vid=481ebb4b-9361-4b29-bac4-0fc6c196218c"},"vehicle_type_id":"4","last_reported":1748352320,"current_range_meters":17600,"station_id":"ce4bhgp2rcd13ifvqfc0","pricing_plan_id":"cebpf4jnsgd1na2vs0mg"},{"bike_id":"315376bd-f483-4330-a6bb-fb43c2030792","system_id":"levelo_inurba_marseille","lat":43.2466,"lon":5.38163,"is_reserved":false,"is_disabled":false,"rental_uris":{"android":"levelo://app?vid=315376bd-f483-4330-a6bb-fb43c2030792","ios":"levelo://app?vid=315376bd-f483-4330-a6bb-fb43c2030792"},"vehicle_type_id":"4","last_reported":1748352320,"current_range_meters":17600,"station_id":"ce4bhih2rcd13ifvqfr0","pricing_plan_id":"cebpf4jnsgd1na2vs0mg"},{"bike_id":"57b93429-ead7-474a-9118-46311b07448d","system_id":"levelo_inurba_marseille","lat":43.29922,"lon":5.36362,"is_reserved":false,"is_disabled":false,"rental_uris":{"android":"levelo://app?vid=57b93429-ead7-474a-9118-46311b07448d","ios":"levelo://app?vid=57b93429-ead7-474a-9118-46311b07448d"},"vehicle_type_id":"4","last_reported":1748352320,"current_range_meters":18000,"station_id":"","pricing_plan_id":"cebpf4jnsgd1na2vs0mg"},{"bike_id":"799d75e0-088b-4441-bd94-28f251fa8a3d","system_id":"levelo_inurba_marseille","lat":43.23152,"lon":5.437171,"is_reserved":false,"is_disabled":false,"rental_uris":{"android":"levelo://app?vid=799d75e0-088b-4441-bd94-28f251fa8a3d","ios":"levelo://app?vid=799d75e0-088b-4441-bd94-28f251fa8a3d"},"vehicle_type_id":"4","last_reported":1748352320,"current_range_meters":18000,"station_id":"ce4bhmp2rcd13ifvqgog","pricing_plan_id":"cebpf4jnsgd1na2vs0mg"},{"bike_id":"694826cd-19a1-499c-af7c-83a7fd9a0111","system_id":"levelo_inurba_marseille","lat":43.28629,"lon":5.35142,"is_reserved":false,"is_disabled":false,"rental_uris":{"android":"levelo://app?vid=694826cd-19a1-499c-af7c-83a7fd9a0111","ios":"levelo://app?vid=694826cd-19a1-499c-af7c-83a7fd9a0111"},"vehicle_type_id":"4","last_reported":1748352320,"current_range_meters":18000,"station_id":"ce4bhch2rcd13ifvqeug","pricing_plan_id":"cebpf4jnsgd1na2vs0mg"},{"bike_id":"74ff17c3-7b35-4adb-bf1e-c1b519b553a9","system_id":"levelo_inurba_marseille","lat":43.28413,"lon":5.34977,"is_reserved":false,"is_disabled":false,"rental_uris":{"android":"levelo://app?vid=74ff17c3-7b35-4adb-bf1e-c1b519b553a9","ios":"levelo://app?vid=74ff17c3-7b35-4adb-bf1e-c1b519b553a9"},"vehicle_type_id":"4","last_reported":1748352320,"current_range_meters":18000,"station_id":"ce4bhbh2rcd13ifvqepg","pricing_plan_id":"cebpf4jnsgd1na2vs0mg"},