{"last_updated":1717708114,"ttl":30,"version":"2.2","data":{"bikes":[{"bike_id":"aa0a3189-6ea8-456b-975f-f94e38aebec0","system_id":"levelo_inurba_marseille","lat":43.313391,"lon":5.36706,"is_reserved":false,"is_disabled":false,"rental_uris":{"android":"levelo://app?vid=aa0a3189-6ea8-456b-975f-f94e38aebec0","ios":"levelo://app?vid=aa0a3189-6ea8-456b-975f-f94e38aebec0"},"vehicle_type_id":"4","last_reported":1717708114,"current_range_meters":26000,"station_id":"ce4bgr92rcd13ifvqc6g","pricing_plan_id":"cebpf4jnsgd1na2vs0mg"},{"bike_id":"1ac76864-6a5e-4a58-aa9a-55a060b3dffb","system_id":"levelo_inurba_marseille","lat":43.31228,"lon":5.36848,"is_reserved":false,"is_disabled":false,"rental_uris":{"android":"levelo://app?vid=1ac76864-6a5e-4a58-aa9a-55a060b3dffb","ios":"levelo://app?vid=1ac76864-6a5e-4a58-aa9a-55a060b3dffb"},"vehicle_type_id":"4","last_reported":1717708114,"current_range_meters":8000,"station_id":"ce4bgl92rcd13ifvqbq0","pricing_plan_id":"cebpf4jnsgd1na2vs0mg"},{"bike_id":"a66ab8f0-72ac-4518-96ad-5e7e9f835a86","system_id":"levelo_inurba_marseille","lat":43.31225,"lon":5.36854,"is_reserved":false,"is_disabled":false,"rental_uris":{"android":"levelo://app?vid=a66ab8f0-72ac-4518-96ad-5e7e9f835a86","ios":"levelo://app?vid=a66ab8f0-72ac-4518-96ad-5e7e9f835a86"},"vehicle_type_id":"4","last_reported":1717708114,"current_range_meters":19600,"station_id":"ce4bgl92rcd13ifvqbq0","pricing_plan_id":"cebpf4jnsgd1na2vs0mg"},{"bike_id":"4c6deb40-171e-483d-85ef-cd683ef960a4","system_id":"levelo_inurba_marseille","lat":43.31223,"lon":5.36868,"is_reserved":false,"is_disabled":false,"rental_uris":{"android":"levelo://app?vid=4c6deb40-171e-483d-85ef-cd683ef960a4","ios":"levelo://app?vid=4c6deb40-171e-483d-85ef-cd683ef960a4"},"vehicle_type_id":"4","last_reported":1717708114,"current_range_meters":19200,"station_id":"ce4bgl92rcd13ifvqbq0","pricing_plan_id":"cebpf4jnsgd1na2vs0mg"},{"bike_id":"e570bcce-6269-400b-b8cb-f289a430f1b0","system_id":"levelo_inurba_marseille","lat":43.3169,"lon":5.36909,"is_reserved":false,"is_disabled":false,"rental_uris":{"android":"levelo://app?vid=e570bcce-6269-400b-b8cb-f289a430f1b0","ios":"levelo://app?vid=e570bcce-6269-400b-b8cb-f289a430f1b0"},"vehicle_type_id":"4","last_reported":1717708114,"current_range_meters":0,"station_id":"","pricing_plan_id":"cebpf4jnsgd1na2vs0mg"},{"bike_id":"f11f5a9d-b8c6-41cc-9e87-5d62e659f8de","system_id":"levelo_inurba_marseille","lat":43.314811,"lon":5.373103,"is_reserved":false,"is_disabled":false,"rental_uris":{"android":"levelo://app?vid=f11f5a9d-b8c6-41cc-9e87-5d62e659f8de","ios":"levelo://app?vid=f11f5a9d-b8c6-41cc-9e87-5d62e659f8de"},"vehicle_type_id":"4","last_reported":1717708114,"current_range_meters":12000,"station_id":"ce4bgt12rcd13ifvqcd0","pricing_plan_id":"cebpf4jnsgd1na2vs0mg"},{"bike_id":"38f7fb98-91ef-4faf-b5c8-d4849563bcd1","system_id":"levelo_inurba_marseille","lat":43.309034,"lon":5.371783,"is_reserved":false,"is_disabled":false,"rental_uris":{"android":"levelo://app?vid=38f7fb98-91ef-4faf-b5c8-d4849563bcd1","ios":"levelo://app?vid=38f7fb98-91ef-4faf-b5c8-d4849563bcd1"},"vehicle_type_id":"4","last_reported":1717708114,"current_range_meters":27200,"station_id":"ce4bguh2rcd13ifvqckg","pricing_plan_id":"cebpf4jnsgd1na2vs0mg"},{"bike_id":"ee7383d4-fdd8-46f9-ad27-c5193471fa6d","system_id":"levelo_inurba_marseille","lat":43.3158,"lon":5.37483,"is_reserved":false,"is_disabled":false,"rental_uris":{"android":"levelo://app?vid=ee7383d4-fdd8-46f9-ad27-c5193471fa6d","ios":"levelo://app?vid=ee7383d4-fdd8-46f9-ad27-c5193471fa6d"},"vehicle_type_id":"4","last_reported":1717708114,"current_range_meters":1600,"station_id":"","pricing_plan_id":"cebpf4jnsgd1na2vs0mg"},{"bike_id":"493ac242-04f7-4c68-bda9-c234e97214fd","system_id":"levelo_inurba_marseille","lat":43.305989,"lon":5.37225,"is_reserved":false,"is_disabled":false,"rental_uris":{"android":"levelo://app?vid=493ac242-04f7-4c68-bda9-c234e97214fd","ios":"levelo://app?vid=493ac242-04f7-4c68-bda9-c234e97214fd"},"vehicle_type_id":"4","last_reported":1717708114,"current_range_meters":21200,"station_id":"ce4bgqh2rcd13ifvqc4g","pricing_plan_id":"cebpf4jnsgd1na2vs0mg"},{"bike_id":"bfa977cf-7677-45a7-a11c-7d14bd2c7527","system_id":"levelo_inurba_marseille","lat":43.305989,"lon":5.37225,"is_reserved":false,"is_disabled":false,"rental_uris":{"android":"levelo://app?vid=bfa977cf-7677-45a7-a11c-7d14bd2c7527","ios":"levelo://app?vid=bfa977cf-7677-45a7-a11c-7d14bd2c7527"},"vehicle_type_id":"4","last_reported":1717708114,"current_range_meters":23200,"station_id":"ce4bgqh2rcd13ifvqc4g","pricing_plan_id":"cebpf4jnsgd1na2vs0mg"},{"bike_id":"4bc03470-e4c4-460e-8fd8-6e98ef867483","system_id":"levelo_inurba_marseille","lat":43.311131,"lon":5.377651,"is_reserved":false,"is_disabled":false,"rental_uris":{"android":"levelo://app?vid=4bc03470-e4c4-460e-8fd8-6e98ef867483","ios":"levelo://app?vid=4bc03470-e4c4-460e-8fd8-6e98ef867483"},"vehicle_type_id":"4","last_reported":1717708114,"current_range_meters":24400,"station_id":"ce4bgt92rcd13ifvqcg0","pricing_plan_id":"cebpf4jnsgd1na2vs0mg"},{"bike_id":"148ed6d6-fcc1-405c-bd10-d28e2e84c0db","system_id":"levelo_inurba_marseille","lat":43.311131,"lon":5.377651,"is_reserved":false,"is_disabled":false,"rental_uris":{"android":"levelo://app?vid=148ed6d6-fcc1-405c-bd10-d28e2e84c0db","ios":"levelo://app?vid=148ed6d6-fcc1-405c-bd10-d28e2e84c0db"},"vehicle_type_id":"4","last_reported":1717708114,"current_range_meters":20400,"station_id":"ce4bgt92rcd13ifvqcg0","pricing_plan_id":"cebpf4jnsgd1na2vs0mg"},{"bike_id":"8e758522-3f15-4182-bf69-33cb6e417774","system_id":"levelo_inurba_marseille","lat":43.311125,"lon":5.377624,"is_reserved":false,"is_disabled":false,"rental_uris":{"android":"levelo://app?vid=8e758522-3f15-4182-bf69-33cb6e417774","ios":"levelo://app?vid=8e758522-3f15-4182-bf69-33cb6e417774"},"vehicle_type_id":"4","last_reported":1717708114,"current_range_meters":6800,"station_id":"ce4bgt92rcd13ifvqcg0","pricing_plan_id":"cebpf4jnsgd1na2vs0mg"},{"bike_id":"f97dee06-6562-45ed-a665-4098bf96875b","system_id":"levelo_inurba_marseille","lat":43.31107,"lon":5.37785,"is_reserved":false,"is_disabled":false,"rental_uris":{"android":"levelo://app?vid=f97dee06-6562-45ed-a665-4098bf96875b","ios":"levelo://app?vid=f97dee06-6562-45ed-a665-4098bf96875b"},"vehicle_type_id":"4","last_reported":1717708114,"current_range_meters":0,"station_id":"ce4bgt92rcd13ifvqcg0","pricing_plan_id":"cebpf4jnsgd1na2vs0mg"},{"bike_id":"6e07428d-a03e-4112-a2f2-b4ee4e358ab0","system_id":"levelo_inurba_marseille","lat":43.307945,"lon":5.376487,"is_reserved":false,"is_disabled":false,"rental_uris":{"android":"levelo://app?vid=6e07428d-a03e-4112-a2f2-b4ee4e358ab0","ios":"levelo://app?vid=6e07428d-a03e-4112-a2f2-b4ee4e358ab0"},"vehicle_type_id":"4","last_reported":1717708114,"current_range_meters":11600,"station_id":"ce4bgv92rcd13ifvqcq0","pricing_plan_id":"cebpf4jnsgd1na2vs0mg"},{"bike_id":"118dd2a8-2281-439a-878f-5005c5960e80","system_id":"levelo_inurba_marseille","lat":43.307945,"lon":5.376487,"is_reserved":false,"is_disabled":false,"rental_uris":{"android":"levelo://app?vid=118dd2a8-2281-439a-878f-5005c5960e80","ios":"levelo://app?vid=118dd2a8-2281-439a-878f-5005c5960e80"},"vehicle_type_id":"4","last_reported":1717708114,"current_range_meters":25600,"station_id":"ce4bgv92rcd13ifvqcq0","pricing_plan_id":"cebpf4jnsgd1na2vs0mg"},{"bike_id":"421244a0-9d01-4f6c-9186-0c43881ca279","system_id":"levelo_inurba_marseille","lat":43.307945,"lon":5.376487,"is_reserved":false,"is_disabled":false,"rental_uris":{"android":"levelo://app?vid=421244a0-9d01-4f6c-9186-0c43881ca279","ios":"levelo://app?vid=421244a0-9d01-4f6c-9186-0c43881ca279"},"vehicle_type_id":"4","last_reported":1717708114,"current_range_meters":22800,"station_id":"ce4bgv92rcd13ifvqcq0","pricing_plan_id":"cebpf4jnsgd1na2vs0mg"},{"bike_id":"e2d5783a-eaee-4c86-afdc-51f319dc629a","system_id":"levelo_inurba_marseille","lat":43.307945,"lon":5.376487,"is_reserved":false,"is_disabled":false,"rental_uris":{"android":"levelo://app?vid=e2d5783a-eaee-4c86-afdc-51f319dc629a","ios":"levelo://app?vid=e2d5783a-eaee-4c86-afdc-51f319dc629a"},"vehicle_type_id":"4","last_reported":1717708114,"current_range_meters":26400,"station_id":"ce4bgv92rcd13ifvqcq0","pricing_plan_id":"cebpf4jnsgd1na2vs0mg"},{"bike_id":"c82c5691-1b2e-49fe-8f67-efdb5589acb0","system_id":"levelo_inurba_marseille","lat":43.307945,"lon":5.376487,"is_reserved":false,"is_disabled":false,"rental_uris":{"android":"levelo://app?vid=c82c5691-1b2e-49fe-8f67-efdb5589acb0","ios":"levelo://app?vid=c82c5691-1b2e-49fe-8f67-efdb5589acb0"},"vehicle_type_id":"4","last_reported":1717708114,"current_range_meters":27600,"station_id":"ce4bgv92rcd13ifvqcq0","pricing_plan_id":"cebpf4jnsgd1na2vs0mg"},{"bike_id":"bfe33d00-22be-4fcb-b412-bf8809def526","system_id":"levelo_inurba_marseille","lat":43.321987,"lon":5.36862,"is_reserved":false,"is_disabled":false,"rental_uris":{"android":"levelo://app?vid=bfe33d00-22be-4fcb-b412-bf8809def526","ios":"levelo://app?vid=bfe33d00-22be-4fcb-b412-bf8809def526"},"vehicle_type_id":"4","last_reported":1717708114,"current_range_meters":25200,"station_id":"","pricing_plan_id":"cebpf4jnsgd1na2vs0mg"},{"bike_id":"c63c4f78-78a6-42f2-87a8-52bbc326fd9b","system_id":"levelo_inurba_marseille","lat":43.303046,"lon":5.368981,"is_reserved":false,"is_disabled":false,"rental_uris":{"android":"levelo://app?vid=c63c4f78-78a6-42f2-87a8-52bbc326fd9b","ios":"levelo://app?vid=c63c4f78-78a6-42f2-87a8-52bbc326fd9b"},"vehicle_type_id":"4","last_reported":1717708114,"current_range_meters":24800,"station_id":"ce4bgqh2rcd13ifvqc5g","pricing_plan_id":"cebpf4jnsgd1na2vs0mg"},{"bike_id":"60fe5638-ba85-43f7-9106-783097ccb262","system_id":"levelo_inurba_marseille","lat":43.303046,"lon":5.368981,"is_reserved":false,"is_disabled":false,"rental_uris":{"android":"levelo://app?vid=60fe5638-ba85-43f7-9106-783097ccb262","ios":"levelo://app?vid=60fe5638-ba85-43f7-9106-783097ccb262"},"vehicle_type_id":"4","last_reported":1717708114,"current_range_meters":0,"station_id":"ce4bgqh2rcd13ifvqc5g","pricing_plan_id":"cebpf4jnsgd1na2vs0mg"},{"bike_id":"43e013f1-b504-42ae-9662-ad47d8a15219","system_id":"levelo_inurba_marseille","lat":43.303046,"lon":5.368981,"is_reserved":false,"is_disabled":false,"rental_uris":{"android":"levelo://app?vid=43e013f1-b504-42ae-9662-ad47d8a15219","ios":"levelo://app?vid=43e013f1-b504-42ae-9662-ad47d8a15219"},"vehicle_type_id":"4","last_reported":1717708114,"current_range_meters":18800,"station_id":"ce4bgqh2rcd13ifvqc5g","pricing_plan_id":"cebpf4jnsgd1na2vs0mg"},{"bike_id":"303b73df-2015-4b88-bcc1-f0dcf0e38e9b","system_id":"levelo_inurba_marseille","lat":43.323205,"lon":5.36672,"is_reserved":false,"is_disabled":false,"rental_uris":{"android":"levelo://app?vid=303b73df-2015-4b88-bcc1-f0dcf0e38e9b","ios":"levelo://app?vid=303b73df-2015-4b88-bcc1-f0dcf0e38e9b"},"vehicle_type_id":"4","last_reported":1717708114,"current_range_meters":24000,"station_id":"ce4bhs12rcd13ifvqhvg","pricing_plan_id":"cebpf4jnsgd1na2vs0mg"},{"bike_id":"1e57b91c-b7c9-48e5-84e5-f912dc954da4","system_id":"levelo_inurba_marseille","lat":43.308012,"lon":5.381511,"is_reserved":false,"is_disabled":false,"rental_uris":{"android":"levelo://app?vid=1e57b91c-b7c9-48e5-84e5-f912dc954da4","ios":"levelo://app?vid=1e57b91c-b7c9-48e5-84e5-f912dc954da4"},"vehicle_type_id":"4","last_reported":1717708114,"current_range_meters":30000,"station_id":"ce4bgt12rcd13ifvqce0","pricing_plan_id":"cebpf4jnsgd1na2vs0mg"},{"bike_id":"340962b0-fbaa-4676-a517-1ae6a5a78770","system_id":"levelo_inurba_marseille","lat":43.308012,"lon":5.381511,"is_reserved":false,"is_disabled":false,"rental_uris":{"android":"levelo://app?vid=340962b0-fbaa-4676-a517-1ae6a5a78770","ios":"levelo://app?vid=340962b0-fbaa-4676-a517-1ae6a5a78770"},"vehicle_type_id":"4","last_reported":1717708114,"current_range_meters":1600,"station_id":"ce4bgt12rcd13ifvqce0","pricing_plan_id":"cebpf4jnsgd1na2vs0mg"},{"bike_id":"56ae910e-f6a2-4760-9774-b517e6340577","system_id":"levelo_inurba_marseille","lat":43.308012,"lon":5.381511,"is_reserved":false,"is_disabled":false,"rental_uris":{"android":"levelo://app?vid=56ae910e-f6a2-4760-9774-b517e6340577","ios":"levelo://app?vid=56ae910e-f6a2-4760-9774-b517e6340577"},"vehicle_type_id":"4","last_reported":1717708114,"current_range_meters":8000,"station_id":"ce4bgt12rcd13ifvqce0","pricing_plan_id":"cebpf4jnsgd1na2vs0mg"},{"bike_id":"0840f740-4875-47d4-b2d7-305444e6ed5b","system_id":"levelo_inurba_marseille","lat":43.308012,"lon":5.381511,"is_reserved":false,"is_disabled":false,"rental_uris":{"android":"levelo://app?vid=0840f740-4875-47d4-b2d7-305444e6ed5b","ios":"levelo://app?vid=0840f740-4875-47d4-b2d7-305444e6ed5b"},"vehicle_type_id":"4","last_reported":1717708114,"current_range_meters":19600,"station_id":"ce4bgt12rcd13ifvqce0","pricing_plan_id":"cebpf4jnsgd1na2vs0mg"},{"bike_id":"b0b0e8ea-cd75-4875-8783-0651aa255201","system_id":"levelo_inurba_marseille","lat":43.308012,"lon":5.381511,"is_reserved":false,"is_disabled":false,"rental_uris":{"android":"levelo://app?vid=b0b0e8ea-cd75-4875-8783-0651aa255201","ios":"levelo://app?vid=b0b0e8ea-cd75-4875-8783-0651aa255201"},"vehicle_type_id":"4","last_reported":1717708114,"current_range_meters":9200,"station_id":"ce4bgt12rcd13ifvqce0","pricing_plan_id":"cebpf4jnsgd1na2vs0mg"},{"bike_id":"1d5ad2be-66f6-42b5-846d-80ebdef20b89","system_id":"levelo_inurba_marseille","lat":43.304606,"lon":5.379026,"is_reserved":false,"is_disabled":false,"rental_uris":{"android":"levelo://app?vid=1d5ad2be-66f6-42b5-846d-80ebdef20b89","ios":"levelo://app?vid=1d5ad2be-66f6-42b5-846d-80ebdef20b89"},"vehicle_type_id":"4","last_reported":1717708114,"current_range_meters":16000,"station_id":"ce4bgup2rcd13ifvqcn0","pricing_plan_id":"cebpf4jnsgd1na2vs0mg"},{"bike_id":"5b66dd6c-af2c-446a-9765-41adae1976be","system_id":"levelo_inurba_marseille","lat":43.304606,"lon":5.379026,"is_reserved":false,"is_disabled":false,"rental_uris":{"android":"levelo://app?vid=5b66dd6c-af2c-446a-9765-41adae1976be","ios":"levelo://app?vid=5b66dd6c-af2c-446a-9765-41adae1976be"},"vehicle_type_id":"4","last_reported":1717708114,"current_range_meters":13200,"station_id":"ce4bgup2rcd13ifvqcn0","pricing_plan_id":"cebpf4jnsgd1na2vs0mg"},{"bike_id":"2c637f50-8eb8-4b90-955b-ca40fd8785ab","system_id":"levelo_inurba_marseille","lat":43.304606,"lon":5.379026,"is_reserved":false,"is_disabled":false,"rental_uris":{"android":"levelo://app?vid=2c637f50-8eb8-4b90-955b-ca40fd8785ab","ios":"levelo://app?vid=2c637f50-8eb8-4b90-955b-ca40fd8785ab"},"vehicle_type_id":"4","last_reported":1717708114,"current_range_meters":16400,"station_id":"ce4bgup2rcd13ifvqcn0","pricing_plan_id":"cebpf4jnsgd1na2vs0mg"},{"bike_id":"65ad21de-f647-490e-a53c-6bb3b2339424","system_id":"levelo_inurba_marseille","lat":43.324771,"lon":5.36557,"is_reserved":false,"is_disabled":false,"rental_uris":{"android":"levelo://app?vid=65ad21de-f647-490e-a53c-6bb3b2339424","ios":"levelo://app?vid=65ad21de-f647-490e-a53c-6bb3b2339424"},"vehicle_type_id":"4","last_reported":1717708114,"current_range_meters":0,"station_id":"ce4bhs12rcd13ifvqhvg","pricing_plan_id":"cebpf4jnsgd1na2vs0mg"},{"bike_id":"44909558-9a5c-41b5-858f-7d4cc8905f6a","system_id":"levelo_inurba_marseille","lat":43.324771,"lon":5.36557,"is_reserved":false,"is_disabled":false,"rental_uris":{"android":"levelo://app?vid=44909558-9a5c-41b5-858f-7d4cc8905f6a","ios":"levelo://app?vid=44909558-9a5c-41b5-858f-7d4cc8905f6a"},"vehicle_type_id":"4","last_reported":1717708114,"current_range_meters":800,"station_id":"ce4bhs12rcd13ifvqhvg","pricing_plan_id":"cebpf4jnsgd1na2vs0mg"},{"bike_id":"f93b7c7f-02bf-4a2d-9d3f-fae8aa53fa68","system_id":"levelo_inurba_marseille","lat":43.3107,"lon":5.38346,"is_reserved":false,"is_disabled":false,"rental_uris":{"android":"levelo://app?vid=f93b7c7f-02bf-4a2d-9d3f-fae8aa53fa68","ios":"levelo://app?vid=f93b7c7f-02bf-4a2d-9d3f-fae8aa53fa68"},"vehicle_type_id":"4","last_reported":1717708114,"current_range_meters":26400,"station_id":"ce4bgv92rcd13ifvqcr0","pricing_plan_id":"cebpf4jnsgd1na2vs0mg"},{"bike_id":"01e48859-9477-442e-be1a-367d912962fc","system_id":"levelo_inurba_marseille","lat":43.31074,"lon":5.38359,"is_reserved":false,"is_disabled":false,"rental_uris":{"android":"levelo://app?vid=01e48859-9477-442e-be1a-367d912962fc","ios":"levelo://app?vid=01e48859-9477-442e-be1a-367d912962fc"},"vehicle_type_id":"4","last_reported":1717708114,"current_range_meters":8800,"station_id":"ce4bgv92rcd13ifvqcr0","pricing_plan_id":"cebpf4jnsgd1na2vs0mg"},{"bike_id":"bffc5d6f-9f28-4b38-8745-ab550a517ce3","system_id":"levelo_inurba_marseille","lat":43.302784,"lon":5.377158,"is_reserved":false,"is_disabled":false,"rental_uris":{"android":"levelo://app?vid=bffc5d6f-9f28-4b38-8745-ab550a517ce3","ios":"levelo://app?vid=bffc5d6f-9f28-4b38-8745-ab550a517ce3"},"vehicle_type_id":"4","last_reported":1717708114,"current_range_meters":10400,"station_id":"ce4bguh2rcd13ifvqcj0","pricing_plan_id":"cebpf4jnsgd1na2vs0mg"},{"bike_id":"3afc2cda-129f-461a-bbf7-d8f69ce6aec8","system_id":"levelo_inurba_marseille","lat":43.302784,"lon":5.377158,"is_reserved":false,"is_disabled":false,"rental_uris":{"android":"levelo://app?vid=3afc2cda-129f-461a-bbf7-d8f69ce6aec8","ios":"levelo://app?vid=3afc2cda-129f-461a-bbf7-d8f69ce6aec8"},"vehicle_type_id":"4","last_reported":1717708114,"current_range_meters":23200,"station_id":"ce4bguh2rcd13ifvqcj0","pricing_plan_id":"cebpf4jnsgd1na2vs0mg"},{"bike_id":"e8eb4099-7d57-4aba-89e9-91ba739b42c7","system_id":"levelo_inurba_marseille","lat":43.301429,"lon":5.37413,"is_reserved":false,"is_disabled":false,"rental_uris":{"android":"levelo://app?vid=e8eb4099-7d57-4aba-89e9-91ba739b42c7","ios":"levelo://app?vid=e8eb4099-7d57-4aba-89e9-91ba739b42c7"},"vehicle_type_id":"4","last_reported":1717708114,"current_range_meters":27600,"station_id":"ce4bgs92rcd13ifvqcc0","pricing_plan_id":"cebpf4jnsgd1na2vs0mg"},{"bike_id":"c2048b96-2591-433c-85bf-a5f0f6282aab","system_id":"levelo_inurba_marseille","lat":43.319935,"lon":5.381699,"is_reserved":false,"is_disabled":false,"rental_uris":{"android":"levelo://app?vid=c2048b96-2591-433c-85bf-a5f0f6282aab","ios":"levelo://app?vid=c2048b96-2591-433c-85bf-a5f0f6282aab"},"vehicle_type_id":"4","last_reported":1717708114,"current_range_meters":2800,"station_id":"ce4bhr12rcd13ifvqhpg","pricing_plan_id":"cebpf4jnsgd1na2vs0mg"},{"bike_id":"3d24971d-47a4-4dc3-a909-8e90c37bdbe2","system_id":"levelo_inurba_marseille","lat":43.319935,"lon":5.381699,"is_reserved":false,"is_disabled":false,"rental_uris":{"android":"levelo://app?vid=3d24971d-47a4-4dc3-a909-8e90c37bdbe2","ios":"levelo://app?vid=3d24971d-47a4-4dc3-a909-8e90c37bdbe2"},"vehicle_type_id":"4","last_reported":1717708114,"current_range_meters":0,"station_id":"ce4bhr12rcd13ifvqhpg","pricing_plan_id":"cebpf4jnsgd1na2vs0mg"},{"bike_id":"31f0ed2b-3977-425f-90e9-c0d82f0c3433","system_id":"levelo_inurba_marseille","lat":43.319935,"lon":5.381699,"is_reserved":false,"is_disabled":false,"rental_uris":{"android":"levelo://app?vid=31f0ed2b-3977-425f-90e9-c0d82f0c3433","ios":"levelo://app?vid=31f0ed2b-3977-425f-90e9-c0d82f0c3433"},"vehicle_type_id":"4","last_reported":1717708114,"current_range_meters":16000,"station_id":"ce4bhr12rcd13ifvqhpg","pricing_plan_id":"cebpf4jnsgd1na2vs0mg"},{"bike_id":"0848dcff-23b4-4efb-88f8-11b72a57e153","system_id":"levelo_inurba_marseille","lat":43.319935,"lon":5.381699,"is_reserved":false,"is_disabled":false,"rental_uris":{"android":"levelo://app?vid=0848dcff-23b4-4efb-88f8-11b72a57e153","ios":"levelo://app?vid=0848dcff-23b4-4efb-88f8-11b72a57e153"},"vehicle_type_id":"4","last_reported":1717708114,"current_range_meters":8000,"station_id":"ce4bhr12rcd13ifvqhpg","pricing_plan_id":"cebpf4jnsgd1na2vs0mg"},{"bike_id":"ea55f068-be11-4fd9-9446-8418ce713c13","system_id":"levelo_inurba_marseille","lat":43.319935,"lon":5.381699,"is_reserved":false,"is_disabled":false,"rental_uris":{"android":"levelo://app?vid=ea55f068-be11-4fd9-9446-8418ce713c13","ios":"levelo://app?vid=ea55f068-be11-4fd9-9446-8418ce713c13"},"vehicle_type_id":"4","last_reported":1717708114,"current_range_meters":4400,"station_id":"ce4bhr12rcd13ifvqhpg","pricing_plan_id":"cebpf4jnsgd1na2vs0mg"},{"bike_id":"d68a76c8-7a7c-437e-9310-c51d3ae38407","system_id":"levelo_inurba_marseille","lat":43.319935,"lon":5.381699,"is_reserved":false,"is_disabled":false,"rental_uris":{"android":"levelo://app?vid=d68a76c8-7a7c-437e-9310-c51d3ae38407","ios":"levelo://app?vid=d68a76c8-7a7c-437e-9310-c51d3ae38407"},"vehicle_type_id":"4","last_reported":1717708114,"current_range_meters":21600,"station_id":"ce4bhr12rcd13ifvqhpg","pricing_plan_id":"cebpf4jnsgd1na2vs0mg"},{"bike_id":"8f020f1d-b1dd-4b90-b576-85c7b0a21458","system_id":"levelo_inurba_marseille","lat":43.319935,"lon":5.381699,"is_reserved":false,"is_disabled":false,"rental_uris":{"android":"levelo://app?vid=8f020f1d-b1dd-4b90-b576-85c7b0a21458","ios":"levelo://app?vid=8f020f1d-b1dd-4b90-b576-85c7b0a21458"},"vehicle_type_id":"4","last_reported":1717708114,"current_range_meters":29600,"station_id":"ce4bhr12rcd13ifvqhpg","pricing_plan_id":"cebpf4jnsgd1na2vs0mg"},{"bike_id":"3c25b725-16e7-47e2-8053-ffd319515850","system_id":"levelo_inurba_marseille","lat":43.319935,"lon":5.381699,"is_reserved":false,"is_disabled":false,"rental_uris":{"android":"levelo://app?vid=3c25b725-16e7-47e2-8053-ffd319515850","ios":"levelo://app?vid=3c25b725-16e7-47e2-8053-ffd319515850"},"vehicle_type_id":"4","last_reported":1717708114,"current_range_meters":14000,"station_id":"ce4bhr12rcd13ifvqhpg","pricing_plan_id":"cebpf4jnsgd1na2vs0mg"},{"bike_id":"8f447597-cfa2-49b2-a791-04777bad3c85","system_id":"levelo_inurba_marseille","lat":43.31369,"lon":5.38491,"is_reserved":false,"is_disabled":false,"rental_uris":{"android":"levelo://app?vid=8f447597-cfa2-49b2-a791-04777bad3c85","ios":"levelo://app?vid=8f447597-cfa2-49b2-a791-04777bad3c85"},"vehicle_type_id":"4","last_reported":1717708114,"current_range_meters":0,"station_id":"ce4bgt92rcd13ifvqcf0","pricing_plan_id":"cebpf4jnsgd1na2vs0mg"},{"bike_id":"b93564ce-5929-41df-a1c8-62c06756f348","system_id":"levelo_inurba_marseille","lat":43.313571,"lon":5.384829,"is_reserved":false,"is_disabled":false,"rental_uris":{"android":"levelo://app?vid=b93564ce-5929-41df-a1c8-62c06756f348","ios":"levelo://app?vid=b93564ce-5929-41df-a1c8-62c06756f348"},"vehicle_type_id":"4","last_reported":1717708114,"current_range_meters":22800,"station_id":"ce4bgt92rcd13ifvqcf0","pricing_plan_id":"cebpf4jnsgd1na2vs0mg"},{"bike_id":"98bb9e12-955b-4175-9fa2-5bd9528ff281","system_id":"levelo_inurba_marseille","lat":43.313571,"lon":5.384829,"is_reserved":false,"is_disabled":false,"rental_uris":{"android":"levelo://app?vid=98bb9e12-955b-4175-9fa2-5bd9528ff281","ios":"levelo://app?vid=98bb9e12-955b-4175-9fa2-5bd9528ff281"},"vehicle_type_id":"4","last_reported":1717708114,"current_range_meters":7200,"station_id":"ce4bgt92rcd13ifvqcf0","pricing_plan_id":"cebpf4jnsgd1na2vs0mg"},{"bike_id":"2854f17c-daa0-4a3c-a0e1-8e221c9e7eea","system_id":"levelo_inurba_marseille","lat":43.313571,"lon":5.384829,"is_reserved":false,"is_disabled":false,"rental_uris":{"android":"levelo://app?vid=2854f17c-daa0-4a3c-a0e1-8e221c9e7eea","ios":"levelo://app?vid=2854f17c-daa0-4a3c-a0e1-8e221c9e7eea"},"vehicle_type_id":"4","last_reported":1717708114,"current_range_meters":12800,"station_id":"ce4bgt92rcd13ifvqcf0","pricing_plan_id":"cebpf4jnsgd1na2vs0mg"},{"bike_id":"294693c1-cba8-4278-8b1b-7d85e7ebac18","system_id":"levelo_inurba_marseille","lat":43.31368,"lon":5.38497,"is_reserved":false,"is_disabled":false,"rental_uris":{"android":"levelo://app?vid=294693c1-cba8-4278-8b1b-7d85e7ebac18","ios":"levelo://app?vid=294693c1-cba8-4278-8b1b-7d85e7ebac18"},"vehicle_type_id":"4","last_reported":1717708114,"current_range_meters":0,"station_id":"ce4bgt92rcd13ifvqcf0","pricing_plan_id":"cebpf4jnsgd1na2vs0mg"},{"bike_id":"09697f01-05e2-4a1d-b0ad-52404a007e12","system_id":"levelo_inurba_marseille","lat":43.313571,"lon":5.384829,"is_reserved":false,"is_disabled":false,"rental_uris":{"android":"levelo://app?vid=09697f01-05e2-4a1d-b0ad-52404a007e12","ios":"levelo://app?vid=09697f01-05e2-4a1d-b0ad-52404a007e12"},"vehicle_type_id":"4","last_reported":1717708114,"current_range_meters":8000,"station_id":"ce4bgt92rcd13ifvqcf0","pricing_plan_id":"cebpf4jnsgd1na2vs0mg"},{"bike_id":"642e8060-379a-479a-88da-2ab1512b01e1","system_id":"levelo_inurba_marseille","lat":43.299724,"lon":5.371829,"is_reserved":false,"is_disabled":false,"rental_uris":{"android":"levelo://app?vid=642e8060-379a-479a-88da-2ab1512b01e1","ios":"levelo://app?vid=642e8060-379a-479a-88da-2ab1512b01e1"},"vehicle_type_id":"4","last_reported":1717708114,"current_range_meters":28000,"station_id":"ce4bgr92rcd13ifvqc7g","pricing_plan_id":"cebpf4jnsgd1na2vs0mg"},{"bike_id":"09228939-e061-4c17-9fd6-6406494c60d8","system_id":"levelo_inurba_marseille","lat":43.299724,"lon":5.371829,"is_reserved":false,"is_disabled":false,"rental_uris":{"android":"levelo://app?vid=09228939-e061-4c17-9fd6-6406494c60d8","ios":"levelo://app?vid=09228939-e061-4c17-9fd6-6406494c60d8"},"vehicle_type_id":"4","last_reported":1717708114,"current_range_meters":14800,"station_id":"ce4bgr92rcd13ifvqc7g","pricing_plan_id":"cebpf4jnsgd1na2vs0mg"},{"bike_id":"fbdecf9d-fce5-4456-9b06-ac18f8d42b7d","system_id":"levelo_inurba_marseille","lat":43.299724,"lon":5.371829,"is_reserved":false,"is_disabled":false,"rental_uris":{"android":"levelo://app?vid=fbdecf9d-fce5-4456-9b06-ac18f8d42b7d","ios":"levelo://app?vid=fbdecf9d-fce5-4456-9b06-ac18f8d42b7d"},"vehicle_type_id":"4","last_reported":1717708114,"current_range_meters":25200,"station_id":"ce4bgr92rcd13ifvqc7g","pricing_plan_id":"cebpf4jnsgd1na2vs0mg"},{"bike_id":"a2cb0cbf-6fb2-478c-adc9-1222f39f6918","system_id":"levelo_inurba_marseille","lat":43.30539,"lon":5.38419,"is_reserved":false,"is_disabled":false,"rental_uris":{"android":"levelo://app?vid=a2cb0cbf-6fb2-478c-adc9-1222f39f6918","ios":"levelo://app?vid=a2cb0cbf-6fb2-478c-adc9-1222f39f6918"},"vehicle_type_id":"4","last_reported":1717708114,"current_range_meters":3600,"station_id":"ce4bgg92rcd13ifvqb30","pricing_plan_id":"cebpf4jnsgd1na2vs0mg"},{"bike_id":"5a338867-9824-40c7-ba32-36ed767e4d14","system_id":"levelo_inurba_marseille","lat":43.298433,"lon":5.362774,"is_reserved":false,"is_disabled":false,"rental_uris":{"android":"levelo://app?vid=5a338867-9824-40c7-ba32-36ed767e4d14","ios":"levelo://app?vid=5a338867-9824-40c7-ba32-36ed767e4d14"},"vehicle_type_id":"4","last_reported":1717708114,"current_range_meters":28000,"station_id":"ce4bgpp2rcd13ifvqc3g","pricing_plan_id":"cebpf4jnsgd1na2vs0mg"},{"bike_id":"cd2ea8a5-be74-45f5-b8d7-dad7eb71c88b","system_id":"levelo_inurba_marseille","lat":43.3054,"lon":5.38428,"is_reserved":false,"is_disabled":false,"rental_uris":{"android":"levelo://app?vid=cd2ea8a5-be74-45f5-b8d7-dad7eb71c88b","ios":"levelo://app?vid=cd2ea8a5-be74-45f5-b8d7-dad7eb71c88b"},"vehicle_type_id":"4","last_reported":1717708114,"current_range_meters":9200,"station_id":"ce4bgg92rcd13ifvqb30","pricing_plan_id":"cebpf4jnsgd1na2vs0mg"},{"bike_id":"2a88262f-ec86-41b3-b5c7-a893bc1a2ed9","system_id":"levelo_inurba_marseille","lat":43.30532,"lon":5.38422,"is_reserved":false,"is_disabled":false,"rental_uris":{"android":"levelo://app?vid=2a88262f-ec86-41b3-b5c7-a893bc1a2ed9","ios":"levelo://app?vid=2a88262f-ec86-41b3-b5c7-a893bc1a2ed9"},"vehicle_type_id":"4","last_reported":1717708114,"current_range_meters":20000,"station_id":"ce4bgg92rcd13ifvqb30","pricing_plan_id":"cebpf4jnsgd1na2vs0mg"},{"bike_id":"91ad4713-012b-4e59-a707-842b2cc292a0","system_id":"levelo_inurba_marseille","lat":43.3118,"lon":5.38716,"is_reserved":false,"is_disabled":false,"rental_uris":{"android":"levelo://app?vid=91ad4713-012b-4e59-a707-842b2cc292a0","ios":"levelo://app?vid=91ad4713-012b-4e59-a707-842b2cc292a0"},"vehicle_type_id":"4","last_reported":1717708114,"current_range_meters":14000,"station_id":"ce4bgv12rcd13ifvqcp0","pricing_plan_id":"cebpf4jnsgd1na2vs0mg"},{"bike_id":"c3dd6be0-2ce8-44ec-822a-417f7293b8dd","system_id":"levelo_inurba_marseille","lat":43.3117,"lon":5.38716,"is_reserved":false,"is_disabled":false,"rental_uris":{"android":"levelo://app?vid=c3dd6be0-2ce8-44ec-822a-417f7293b8dd","ios":"levelo://app?vid=c3dd6be0-2ce8-44ec-822a-417f7293b8dd"},"vehicle_type_id":"4","last_reported":1717708114,"current_range_meters":11200,"station_id":"ce4bgv12rcd13ifvqcp0","pricing_plan_id":"cebpf4jnsgd1na2vs0mg"},{"bike_id":"1d3b32a4-13fb-471d-9a4b-21e2f98dbbe3","system_id":"levelo_inurba_marseille","lat":43.299243,"lon":5.374807,"is_reserved":false,"is_disabled":false,"rental_uris":{"android":"levelo://app?vid=1d3b32a4-13fb-471d-9a4b-21e2f98dbbe3","ios":"levelo://app?vid=1d3b32a4-13fb-471d-9a4b-21e2f98dbbe3"},"vehicle_type_id":"4","last_reported":1717708114,"current_range_meters":16400,"station_id":"ce4bgjh2rcd13ifvqbg0","pricing_plan_id":"cebpf4jnsgd1na2vs0mg"},{"bike_id":"23f7d586-dbc2-48e8-b500-0e7921230d53","system_id":"levelo_inurba_marseille","lat":43.300153,"lon":5.378143,"is_reserved":false,"is_disabled":false,"rental_uris":{"android":"levelo://app?vid=23f7d586-dbc2-48e8-b500-0e7921230d53","ios":"levelo://app?vid=23f7d586-dbc2-48e8-b500-0e7921230d53"},"vehicle_type_id":"4","last_reported":1717708114,"current_range_meters":4800,"station_id":"","pricing_plan_id":"cebpf4jnsgd1na2vs0mg"},{"bike_id":"88f46b03-1fbf-418d-8062-bce63215c58a","system_id":"levelo_inurba_marseille","lat":43.322872,"lon":5.382756,"is_reserved":false,"is_disabled":false,"rental_uris":{"android":"levelo://app?vid=88f46b03-1fbf-418d-8062-bce63215c58a","ios":"levelo://app?vid=88f46b03-1fbf-418d-8062-bce63215c58a"},"vehicle_type_id":"4","last_reported":1717708114,"current_range_meters":26800,"station_id":"ce4bhr12rcd13ifvqhqg","pricing_plan_id":"cebpf4jnsgd1na2vs0mg"},{"bike_id":"0a1576b4-529e-45ef-83c8-610d0c773abd","system_id":"levelo_inurba_marseille","lat":43.297794,"lon":5.370888,"is_reserved":false,"is_disabled":false,"rental_uris":{"android":"levelo://app?vid=0a1576b4-529e-45ef-83c8-610d0c773abd","ios":"levelo://app?vid=0a1576b4-529e-45ef-83c8-610d0c773abd"},"vehicle_type_id":"4","last_reported":1717708114,"current_range_meters":25200,"station_id":"ce4bgop2rcd13ifvqc1g","pricing_plan_id":"cebpf4jnsgd1na2vs0mg"},{"bike_id":"d05070e6-69d1-4259-a68e-d422b88c22d7","system_id":"levelo_inurba_marseille","lat":43.322867,"lon":5.382704,"is_reserved":false,"is_disabled":false,"rental_uris":{"android":"levelo://app?vid=d05070e6-69d1-4259-a68e-d422b88c22d7","ios":"levelo://app?vid=d05070e6-69d1-4259-a68e-d422b88c22d7"},"vehicle_type_id":"4","last_reported":1717708114,"current_range_meters":25600,"station_id":"ce4bhr12rcd13ifvqhqg","pricing_plan_id":"cebpf4jnsgd1na2vs0mg"},{"bike_id":"4704dceb-a94b-46d4-b35f-5e1e82b8a106","system_id":"levelo_inurba_marseille","lat":43.322872,"lon":5.382756,"is_reserved":false,"is_disabled":false,"rental_uris":{"android":"levelo://app?vid=4704dceb-a94b-46d4-b35f-5e1e82b8a106","ios":"levelo://app?vid=4704dceb-a94b-46d4-b35f-5e1e82b8a106"},"vehicle_type_id":"4","last_reported":1717708114,"current_range_meters":31200,"station_id":"ce4bhr12rcd13ifvqhqg","pricing_plan_id":"cebpf4jnsgd1na2vs0mg"},{"bike_id":"fbac4e32-df3e-47a6-906f-f55b105eb4c7","system_id":"levelo_inurba_marseille","lat":43.3229,"lon":5.38272,"is_reserved":false,"is_disabled":false,"rental_uris":{"android":"levelo://app?vid=fbac4e32-df3e-47a6-906f-f55b105eb4c7","ios":"levelo://app?vid=fbac4e32-df3e-47a6-906f-f55b105eb4c7"},"vehicle_type_id":"4","last_reported":1717708114,"current_range_meters":0,"station_id":"ce4bhr12rcd13ifvqhqg","pricing_plan_id":"cebpf4jnsgd1na2vs0mg"},{"bike_id":"491ac8bd-89a4-4aa1-8d8a-708e6fdf50e8","system_id":"levelo_inurba_marseille","lat":43.32291,"lon":5.38275,"is_reserved":false,"is_disabled":false,"rental_uris":{"android":"levelo://app?vid=491ac8bd-89a4-4aa1-8d8a-708e6fdf50e8","ios":"levelo://app?vid=491ac8bd-89a4-4aa1-8d8a-708e6fdf50e8"},"vehicle_type_id":"4","last_reported":1717708114,"current_range_meters":15600,"station_id":"ce4bhr12rcd13ifvqhqg","pricing_plan_id":"cebpf4jnsgd1na2vs0mg"},{"bike_id":"f3d88f8e-b16f-49b0-bd58-a9a47ab31fd5","system_id":"levelo_inurba_marseille","lat":43.2968,"lon":5.37291,"is_reserved":false,"is_disabled":false,"rental_uris":{"android":"levelo://app?vid=f3d88f8e-b16f-49b0-bd58-a9a47ab31fd5","ios":"levelo://app?vid=f3d88f8e-b16f-49b0-bd58-a9a47ab31fd5"},"vehicle_type_id":"4","last_reported":1717708114,"current_range_meters":25200,"station_id":"ce4bgk12rcd13ifvqbj0","pricing_plan_id":"cebpf4jnsgd1na2vs0mg"},{"bike_id":"0630808b-b6d9-4138-8f3d-e0a6375eb3c1","system_id":"levelo_inurba_marseille","lat":43.32126,"lon":5.386762,"is_reserved":false,"is_disabled":false,"rental_uris":{"android":"levelo://app?vid=0630808b-b6d9-4138-8f3d-e0a6375eb3c1","ios":"levelo://app?vid=0630808b-b6d9-4138-8f3d-e0a6375eb3c1"},"vehicle_type_id":"4","last_reported":1717708114,"current_range_meters":6800,"station_id":"","pricing_plan_id":"cebpf4jnsgd1na2vs0mg"},{"bike_id":"52cb1f58-e2a9-46f7-8b73-e25f7db5cf41","system_id":"levelo_inurba_marseille","lat":43.296131,"lon":5.370773,"is_reserved":false,"is_disabled":false,"rental_uris":{"android":"levelo://app?vid=52cb1f58-e2a9-46f7-8b73-e25f7db5cf41","ios":"levelo://app?vid=52cb1f58-e2a9-46f7-8b73-e25f7db5cf41"},"vehicle_type_id":"4","last_reported":1717708114,"current_range_meters":23600,"station_id":"ce4bgnh2rcd13ifvqc0g","pricing_plan_id":"cebpf4jnsgd1na2vs0mg"},{"bike_id":"319ad54b-1557-4cb8-bd6d-dbfd7f4035ba","system_id":"levelo_inurba_marseille","lat":43.29573,"lon":5.367355,"is_reserved":false,"is_disabled":false,"rental_uris":{"android":"levelo://app?vid=319ad54b-1557-4cb8-bd6d-dbfd7f4035ba","ios":"levelo://app?vid=319ad54b-1557-4cb8-bd6d-dbfd7f4035ba"},"vehicle_type_id":"4","last_reported":1717708114,"current_range_meters":23200,"station_id":"ce4bgph2rcd13ifvqc2g","pricing_plan_id":"cebpf4jnsgd1na2vs0mg"},{"bike_id":"6998707e-4ec2-4450-9c31-b282e4963c6e","system_id":"levelo_inurba_marseille","lat":43.29573,"lon":5.367355,"is_reserved":false,"is_disabled":false,"rental_uris":{"android":"levelo://app?vid=6998707e-4ec2-4450-9c31-b282e4963c6e","ios":"levelo://app?vid=6998707e-4ec2-4450-9c31-b282e4963c6e"},"vehicle_type_id":"4","last_reported":1717708114,"current_range_meters":23200,"station_id":"ce4bgph2rcd13ifvqc2g","pricing_plan_id":"cebpf4jnsgd1na2vs0mg"},{"bike_id":"8301a7b1-08cf-4324-bb91-901cd093a71d","system_id":"levelo_inurba_marseille","lat":43.299028,"lon":5.381509,"is_reserved":false,"is_disabled":false,"rental_uris":{"android":"levelo://app?vid=8301a7b1-08cf-4324-bb91-901cd093a71d","ios":"levelo://app?vid=8301a7b1-08cf-4324-bb91-901cd093a71d"},"vehicle_type_id":"4","last_reported":1717708114,"current_range_meters":21600,"station_id":"ce4bgj12rcd13ifvqbc0","pricing_plan_id":"cebpf4jnsgd1na2vs0mg"},{"bike_id":"3bb6ea90-9b47-4f2f-804c-ad38f7c7186f","system_id":"levelo_inurba_marseille","lat":43.299028,"lon":5.381509,"is_reserved":false,"is_disabled":false,"rental_uris":{"android":"levelo://app?vid=3bb6ea90-9b47-4f2f-804c-ad38f7c7186f","ios":"levelo://app?vid=3bb6ea90-9b47-4f2f-804c-ad38f7c7186f"},"vehicle_type_id":"4","last_reported":1717708114,"current_range_meters":20000,"station_id":"ce4bgj12rcd13ifvqbc0","pricing_plan_id":"cebpf4jnsgd1na2vs0mg"},{"bike_id":"19d854e7-8889-401c-aa96-663a0ef3ca03","system_id":"levelo_inurba_marseille","lat":43.309589,"lon":5.390258,"is_reserved":false,"is_disabled":false,"rental_uris":{"android":"levelo://app?vid=19d854e7-8889-401c-aa96-663a0ef3ca03","ios":"levelo://app?vid=19d854e7-8889-401c-aa96-663a0ef3ca03"},"vehicle_type_id":"4","last_reported":1717708114,"current_range_meters":800,"station_id":"ce4bgup2rcd13ifvqco0","pricing_plan_id":"cebpf4jnsgd1na2vs0mg"},{"bike_id":"c485db6c-d40f-4def-85ad-aef08f31dec5","system_id":"levelo_inurba_marseille","lat":43.29689,"lon":5.37701,"is_reserved":false,"is_disabled":false,"rental_uris":{"android":"levelo://app?vid=c485db6c-d40f-4def-85ad-aef08f31dec5","ios":"levelo://app?vid=c485db6c-d40f-4def-85ad-aef08f31dec5"},"vehicle_type_id":"4","last_reported":1717708114,"current_range_meters":23600,"station_id":"","pricing_plan_id":"cebpf4jnsgd1na2vs0mg"},{"bike_id":"1ea4c1cc-0b40-4114-9e1f-82af17fb5aa8","system_id":"levelo_inurba_marseille","lat":43.317557,"lon":5.390173,"is_reserved":false,"is_disabled":false,"rental_uris":{"android":"levelo://app?vid=1ea4c1cc-0b40-4114-9e1f-82af17fb5aa8","ios":"levelo://app?vid=1ea4c1cc-0b40-4114-9e1f-82af17fb5aa8"},"vehicle_type_id":"4","last_reported":1717708114,"current_range_meters":29200,"station_id":"ce4bhqp2rcd13ifvqhng","pricing_plan_id":"cebpf4jnsgd1na2vs0mg"},{"bike_id":"12ef160c-8ab0-4c6a-8694-185a0a01cdea","system_id":"levelo_inurba_marseille","lat":43.317557,"lon":5.390173,"is_reserved":false,"is_disabled":false,"rental_uris":{"android":"levelo://app?vid=12ef160c-8ab0-4c6a-8694-185a0a01cdea","ios":"levelo://app?vid=12ef160c-8ab0-4c6a-8694-185a0a01cdea"},"vehicle_type_id":"4","last_reported":1717708114,"current_range_meters":23600,"station_id":"ce4bhqp2rcd13ifvqhng","pricing_plan_id":"cebpf4jnsgd1na2vs0mg"},{"bike_id":"a01bd849-4366-4c87-8db8-874d8fe57458","system_id":"levelo_inurba_marseille","lat":43.317557,"lon":5.390173,"is_reserved":false,"is_disabled":false,"rental_uris":{"android":"levelo://app?vid=a01bd849-4366-4c87-8db8-874d8fe57458","ios":"levelo://app?vid=a01bd849-4366-4c87-8db8-874d8fe57458"},"vehicle_type_id":"4","last_reported":1717708114,"current_range_meters":10000,"station_id":"ce4bhqp2rcd13ifvqhng","pricing_plan_id":"cebpf4jnsgd1na2vs0mg"},{"bike_id":"61c7e497-9a02-4810-b03f-845d804ba14a","system_id":"levelo_inurba_marseille","lat":43.304274,"lon":5.388873,"is_reserved":false,"is_disabled":false,"rental_uris":{"android":"levelo://app?vid=61c7e497-9a02-4810-b03f-845d804ba14a","ios":"levelo://app?vid=61c7e497-9a02-4810-b03f-845d804ba14a"},"vehicle_type_id":"4","last_reported":1717708114,"current_range_meters":8000,"station_id":"ce4bgk12rcd13ifvqbi0","pricing_plan_id":"cebpf4jnsgd1na2vs0mg"},{"bike_id":"6f61ce21-6307-4bed-9803-af265241687d","system_id":"levelo_inurba_marseille","lat":43.295748,"lon":5.37522,"is_reserved":false,"is_disabled":false,"rental_uris":{"android":"levelo://app?vid=6f61ce21-6307-4bed-9803-af265241687d","ios":"levelo://app?vid=6f61ce21-6307-4bed-9803-af265241687d"},"vehicle_type_id":"4","last_reported":1717708114,"current_range_meters":30800,"station_id":"ce4bgh92rcd13ifvqb50","pricing_plan_id":"cebpf4jnsgd1na2vs0mg"},{"bike_id":"506e203c-4470-4042-a4bd-545416d94e41","system_id":"levelo_inurba_marseille","lat":43.298037,"lon":5.381066,"is_reserved":false,"is_disabled":false,"rental_uris":{"android":"levelo://app?vid=506e203c-4470-4042-a4bd-545416d94e41","ios":"levelo://app?vid=506e203c-4470-4042-a4bd-545416d94e41"},"vehicle_type_id":"4","last_reported":1717708114,"current_range_meters":23600,"station_id":"ce4bgip2rcd13ifvqbb0","pricing_plan_id":"cebpf4jnsgd1na2vs0mg"},{"bike_id":"e07a7f84-bc7e-4c0b-a831-a7c078fc7e8e","system_id":"levelo_inurba_marseille","lat":43.294778,"lon":5.36304,"is_reserved":false,"is_disabled":false,"rental_uris":{"android":"levelo://app?vid=e07a7f84-bc7e-4c0b-a831-a7c078fc7e8e","ios":"levelo://app?vid=e07a7f84-bc7e-4c0b-a831-a7c078fc7e8e"},"vehicle_type_id":"4","last_reported":1717708114,"current_range_meters":12800,"station_id":"","pricing_plan_id":"cebpf4jnsgd1na2vs0mg"},{"bike_id":"26ea7994-35c1-4013-9fbf-f6eb6ffbf907","system_id":"levelo_inurba_marseille","lat":43.296263,"lon":5.377094,"is_reserved":false,"is_disabled":false,"rental_uris":{"android":"levelo://app?vid=26ea7994-35c1-4013-9fbf-f6eb6ffbf907","ios":"levelo://app?vid=26ea7994-35c1-4013-9fbf-f6eb6ffbf907"},"vehicle_type_id":"4","last_reported":1717708114,"current_range_meters":800,"station_id":"ce4bgi92rcd13ifvqb90","pricing_plan_id":"cebpf4jnsgd1na2vs0mg"},{"bike_id":"79661df5-12ce-472a-9d35-334260bd8e3d","system_id":"levelo_inurba_marseille","lat":43.295279,"lon":5.375048,"is_reserved":false,"is_disabled":false,"rental_uris":{"android":"levelo://app?vid=79661df5-12ce-472a-9d35-334260bd8e3d","ios":"levelo://app?vid=79661df5-12ce-472a-9d35-334260bd8e3d"},"vehicle_type_id":"4","last_reported":1717708114,"current_range_meters":12000,"station_id":"ce4bgkp2rcd13ifvqbmg","pricing_plan_id":"cebpf4jnsgd1na2vs0mg"},{"bike_id":"2294c9ff-7852-49a5-9d3d-6616ad406be7","system_id":"levelo_inurba_marseille","lat":43.29967,"lon":5.38494,"is_reserved":false,"is_disabled":false,"rental_uris":{"android":"levelo://app?vid=2294c9ff-7852-49a5-9d3d-6616ad406be7","ios":"levelo://app?vid=2294c9ff-7852-49a5-9d3d-6616ad406be7"},"vehicle_type_id":"4","last_reported":1717708114,"current_range_meters":1600,"station_id":"ce4bgj92rcd13ifvqbd0","pricing_plan_id":"cebpf4jnsgd1na2vs0mg"},{"bike_id":"fe309c42-bbc5-4f53-8f42-596161822a90","system_id":"levelo_inurba_marseille","lat":43.29967,"lon":5.38497,"is_reserved":false,"is_disabled":false,"rental_uris":{"android":"levelo://app?vid=fe309c42-bbc5-4f53-8f42-596161822a90","ios":"levelo://app?vid=fe309c42-bbc5-4f53-8f42-596161822a90"},"vehicle_type_id":"4","last_reported":1717708114,"current_range_meters":16800,"station_id":"ce4bgj92rcd13ifvqbd0","pricing_plan_id":"cebpf4jnsgd1na2vs0mg"},{"bike_id":"3ecb9ecd-bd88-473f-be19-ff5c6fada253","system_id":"levelo_inurba_marseille","lat":43.299724,"lon":5.384848,"is_reserved":false,"is_disabled":false,"rental_uris":{"android":"levelo://app?vid=3ecb9ecd-bd88-473f-be19-ff5c6fada253","ios":"levelo://app?vid=3ecb9ecd-bd88-473f-be19-ff5c6fada253"},"vehicle_type_id":"4","last_reported":1717708114,"current_range_meters":5200,"station_id":"ce4bgj92rcd13ifvqbd0","pricing_plan_id":"cebpf4jnsgd1na2vs0mg"},{"bike_id":"30d2ea15-6c60-4f87-b9ea-8587723f2f36","system_id":"levelo_inurba_marseille","lat":43.297151,"lon":5.381214,"is_reserved":false,"is_disabled":false,"rental_uris":{"android":"levelo://app?vid=30d2ea15-6c60-4f87-b9ea-8587723f2f36","ios":"levelo://app?vid=30d2ea15-6c60-4f87-b9ea-8587723f2f36"},"vehicle_type_id":"4","last_reported":1717708114,"current_range_meters":17600,"station_id":"","pricing_plan_id":"cebpf4jnsgd1na2vs0mg"},{"bike_id":"e2f3307d-8d64-40e5-8e85-ebad7f8487a9","system_id":"levelo_inurba_marseille","lat":43.29727,"lon":5.38165,"is_reserved":false,"is_disabled":false,"rental_uris":{"android":"levelo://app?vid=e2f3307d-8d64-40e5-8e85-ebad7f8487a9","ios":"levelo://app?vid=e2f3307d-8d64-40e5-8e85-ebad7f8487a9"},"vehicle_type_id":"4","last_reported":1717708114,"current_range_meters":11600,"station_id":"ce4bh192rcd13ifvqdb0","pricing_plan_id":"cebpf4jnsgd1na2vs0mg"},{"bike_id":"140bf91a-95f0-4072-93d7-54f0344ac2cb","system_id":"levelo_inurba_marseille","lat":43.297205,"lon":5.382398,"is_reserved":false,"is_disabled":false,"rental_uris":{"android":"levelo://app?vid=140bf91a-95f0-4072-93d7-54f0344ac2cb","ios":"levelo://app?vid=140bf91a-95f0-4072-93d7-54f0344ac2cb"},"vehicle_type_id":"4","last_reported":1717708114,"current_range_meters":12800,"station_id":"","pricing_plan_id":"cebpf4jnsgd1na2vs0mg"},{"bike_id":"1d431262-5c97-4bac-85c9-2d4689fa9eb6","system_id":"levelo_inurba_marseille","lat":43.32367,"lon":5.388836,"is_reserved":false,"is_disabled":false,"rental_uris":{"android":"levelo://app?vid=1d431262-5c97-4bac-85c9-2d4689fa9eb6","ios":"levelo://app?vid=1d431262-5c97-4bac-85c9-2d4689fa9eb6"},"vehicle_type_id":"4","last_reported":1717708114,"current_range_meters":5600,"station_id":"ce4bhqp2rcd13ifvqhog","pricing_plan_id":"cebpf4jnsgd1na2vs0mg"},{"bike_id":"1d17a19b-99bd-48dd-b035-6621cf88dda4","system_id":"levelo_inurba_marseille","lat":43.32367,"lon":5.38886,"is_reserved":false,"is_disabled":false,"rental_uris":{"android":"levelo://app?vid=1d17a19b-99bd-48dd-b035-6621cf88dda4","ios":"levelo://app?vid=1d17a19b-99bd-48dd-b035-6621cf88dda4"},"vehicle_type_id":"4","last_reported":1717708114,"current_range_meters":400,"station_id":"ce4bhqp2rcd13ifvqhog","pricing_plan_id":"cebpf4jnsgd1na2vs0mg"},{"bike_id":"18e2a8bf-9bb9-4a75-9a28-14556db92131","system_id":"levelo_inurba_marseille","lat":43.32367,"lon":5.388836,"is_reserved":false,"is_disabled":false,"rental_uris":{"android":"levelo://app?vid=18e2a8bf-9bb9-4a75-9a28-14556db92131","ios":"levelo://app?vid=18e2a8bf-9bb9-4a75-9a28-14556db92131"},"vehicle_type_id":"4","last_reported":1717708114,"current_range_meters":0,"station_id":"ce4bhqp2rcd13ifvqhog","pricing_plan_id":"cebpf4jnsgd1na2vs0mg"},{"bike_id":"f14cf460-9b18-434b-9fdd-80d64136e2a6","system_id":"levelo_inurba_marseille","lat":43.29595,"lon":5.38106,"is_reserved":false,"is_disabled":false,"rental_uris":{"android":"levelo://app?vid=f14cf460-9b18-434b-9fdd-80d64136e2a6","ios":"levelo://app?vid=f14cf460-9b18-434b-9fdd-80d64136e2a6"},"vehicle_type_id":"4","last_reported":1717708114,"current_range_meters":12800,"station_id":"ce4bgl12rcd13ifvqbo0","pricing_plan_id":"cebpf4jnsgd1na2vs0mg"},{"bike_id":"f0463d0d-8026-4cf4-9c7d-6056cf714188","system_id":"levelo_inurba_marseille","lat":43.292749,"lon":5.368402,"is_reserved":false,"is_disabled":false,"rental_uris":{"android":"levelo://app?vid=f0463d0d-8026-4cf4-9c7d-6056cf714188","ios":"levelo://app?vid=f0463d0d-8026-4cf4-9c7d-6056cf714188"},"vehicle_type_id":"4","last_reported":1717708114,"current_range_meters":4000,"station_id":"ce4bhbp2rcd13ifvqesg","pricing_plan_id":"cebpf4jnsgd1na2vs0mg"},{"bike_id":"eaf9126f-9260-4738-82fd-c2324783b73b","system_id":"levelo_inurba_marseille","lat":43.292749,"lon":5.368402,"is_reserved":false,"is_disabled":false,"rental_uris":{"android":"levelo://app?vid=eaf9126f-9260-4738-82fd-c2324783b73b","ios":"levelo://app?vid=eaf9126f-9260-4738-82fd-c2324783b73b"},"vehicle_type_id":"4","last_reported":1717708114,"current_range_meters":26800,"station_id":"ce4bhbp2rcd13ifvqesg","pricing_plan_id":"cebpf4jnsgd1na2vs0mg"},{"bike_id":"095b41e4-f5b0-4af2-8292-9a0061722441","system_id":"levelo_inurba_marseille","lat":43.29302,"lon":5.37461,"is_reserved":false,"is_disabled":false,"rental_uris":{"android":"levelo://app?vid=095b41e4-f5b0-4af2-8292-9a0061722441","ios":"levelo://app?vid=095b41e4-f5b0-4af2-8292-9a0061722441"},"vehicle_type_id":"4","last_reported":1717708114,"current_range_meters":20400,"station_id":"ce4bgi12rcd13ifvqb70","pricing_plan_id":"cebpf4jnsgd1na2vs0mg"},{"bike_id":"42cb3c87-7cbc-4009-9e7a-0fddca537677","system_id":"levelo_inurba_marseille","lat":43.293009,"lon":5.374584,"is_reserved":false,"is_disabled":false,"rental_uris":{"android":"levelo://app?vid=42cb3c87-7cbc-4009-9e7a-0fddca537677","ios":"levelo://app?vid=42cb3c87-7cbc-4009-9e7a-0fddca537677"},"vehicle_type_id":"4","last_reported":1717708114,"current_range_meters":18400,"station_id":"ce4bgi12rcd13ifvqb70","pricing_plan_id":"cebpf4jnsgd1na2vs0mg"},{"bike_id":"838650b9-8b3f-4b74-8a34-48b091f772ed","system_id":"levelo_inurba_marseille","lat":43.305994,"lon":5.393687,"is_reserved":false,"is_disabled":false,"rental_uris":{"android":"levelo://app?vid=838650b9-8b3f-4b74-8a34-48b091f772ed","ios":"levelo://app?vid=838650b9-8b3f-4b74-8a34-48b091f772ed"},"vehicle_type_id":"4","last_reported":1717708114,"current_range_meters":0,"station_id":"ce4bh0p2rcd13ifvqd80","pricing_plan_id":"cebpf4jnsgd1na2vs0mg"},{"bike_id":"7b2f91b3-4d88-4443-ba18-6036f1092df1","system_id":"levelo_inurba_marseille","lat":43.293009,"lon":5.374584,"is_reserved":false,"is_disabled":false,"rental_uris":{"android":"levelo://app?vid=7b2f91b3-4d88-4443-ba18-6036f1092df1","ios":"levelo://app?vid=7b2f91b3-4d88-4443-ba18-6036f1092df1"},"vehicle_type_id":"4","last_reported":1717708114,"current_range_meters":16400,"station_id":"ce4bgi12rcd13ifvqb70","pricing_plan_id":"cebpf4jnsgd1na2vs0mg"},{"bike_id":"a414094f-e7be-4325-9548-6a41684daa61","system_id":"levelo_inurba_marseille","lat":43.29294,"lon":5.37453,"is_reserved":false,"is_disabled":false,"rental_uris":{"android":"levelo://app?vid=a414094f-e7be-4325-9548-6a41684daa61","ios":"levelo://app?vid=a414094f-e7be-4325-9548-6a41684daa61"},"vehicle_type_id":"4","last_reported":1717708114,"current_range_meters":0,"station_id":"ce4bgi12rcd13ifvqb70","pricing_plan_id":"cebpf4jnsgd1na2vs0mg"},{"bike_id":"0ef1ecdb-ddc8-42a4-bf92-ffdc90212f2d","system_id":"levelo_inurba_marseille","lat":43.303002,"lon":5.392142,"is_reserved":false,"is_disabled":false,"rental_uris":{"android":"levelo://app?vid=0ef1ecdb-ddc8-42a4-bf92-ffdc90212f2d","ios":"levelo://app?vid=0ef1ecdb-ddc8-42a4-bf92-ffdc90212f2d"},"vehicle_type_id":"4","last_reported":1717708114,"current_range_meters":27600,"station_id":"ce4bgkh2rcd13ifvqbk0","pricing_plan_id":"cebpf4jnsgd1na2vs0mg"},{"bike_id":"af687120-2947-456d-807f-02eafa6a867e","system_id":"levelo_inurba_marseille","lat":43.302992,"lon":5.392136,"is_reserved":false,"is_disabled":false,"rental_uris":{"android":"levelo://app?vid=af687120-2947-456d-807f-02eafa6a867e","ios":"levelo://app?vid=af687120-2947-456d-807f-02eafa6a867e"},"vehicle_type_id":"4","last_reported":1717708114,"current_range_meters":19200,"station_id":"ce4bgkh2rcd13ifvqbk0","pricing_plan_id":"cebpf4jnsgd1na2vs0mg"},{"bike_id":"7033d094-bbca-496f-a7fe-189a6bfcdd25","system_id":"levelo_inurba_marseille","lat":43.292311,"lon":5.360731,"is_reserved":false,"is_disabled":false,"rental_uris":{"android":"levelo://app?vid=7033d094-bbca-496f-a7fe-189a6bfcdd25","ios":"levelo://app?vid=7033d094-bbca-496f-a7fe-189a6bfcdd25"},"vehicle_type_id":"4","last_reported":1717708114,"current_range_meters":800,"station_id":"ce4bhbh2rcd13ifvqeqg","pricing_plan_id":"cebpf4jnsgd1na2vs0mg"},{"bike_id":"f4bc127b-7ab2-45e6-940f-56f17441ff1b","system_id":"levelo_inurba_marseille","lat":43.30087,"lon":5.39074,"is_reserved":false,"is_disabled":false,"rental_uris":{"android":"levelo://app?vid=f4bc127b-7ab2-45e6-940f-56f17441ff1b","ios":"levelo://app?vid=f4bc127b-7ab2-45e6-940f-56f17441ff1b"},"vehicle_type_id":"4","last_reported":1717708114,"current_range_meters":10400,"station_id":"ce4bh192rcd13ifvqdb0","pricing_plan_id":"cebpf4jnsgd1na2vs0mg"},{"bike_id":"6cceabfb-4eec-41b8-8e46-4cbb5a8a5506","system_id":"levelo_inurba_marseille","lat":43.29225,"lon":5.3605,"is_reserved":false,"is_disabled":false,"rental_uris":{"android":"levelo://app?vid=6cceabfb-4eec-41b8-8e46-4cbb5a8a5506","ios":"levelo://app?vid=6cceabfb-4eec-41b8-8e46-4cbb5a8a5506"},"vehicle_type_id":"4","last_reported":1717708114,"current_range_meters":0,"station_id":"ce4bhbh2rcd13ifvqeqg","pricing_plan_id":"cebpf4jnsgd1na2vs0mg"},{"bike_id":"f553e157-c699-443c-b980-7ad268decba3","system_id":"levelo_inurba_marseille","lat":43.30075,"lon":5.39065,"is_reserved":false,"is_disabled":false,"rental_uris":{"android":"levelo://app?vid=f553e157-c699-443c-b980-7ad268decba3","ios":"levelo://app?vid=f553e157-c699-443c-b980-7ad268decba3"},"vehicle_type_id":"4","last_reported":1717708114,"current_range_meters":8400,"station_id":"ce4bh192rcd13ifvqdb0","pricing_plan_id":"cebpf4jnsgd1na2vs0mg"},{"bike_id":"6224aedf-3fbc-4985-9c87-92f5629c6705","system_id":"levelo_inurba_marseille","lat":43.300843,"lon":5.390743,"is_reserved":false,"is_disabled":false,"rental_uris":{"android":"levelo://app?vid=6224aedf-3fbc-4985-9c87-92f5629c6705","ios":"levelo://app?vid=6224aedf-3fbc-4985-9c87-92f5629c6705"},"vehicle_type_id":"4","last_reported":1717708114,"current_range_meters":20400,"station_id":"ce4bh192rcd13ifvqdb0","pricing_plan_id":"cebpf4jnsgd1na2vs0mg"},{"bike_id":"ce309dd4-2e42-4209-835f-ac96d6436457","system_id":"levelo_inurba_marseille","lat":43.30085,"lon":5.390856,"is_reserved":false,"is_disabled":false,"rental_uris":{"android":"levelo://app?vid=ce309dd4-2e42-4209-835f-ac96d6436457","ios":"levelo://app?vid=ce309dd4-2e42-4209-835f-ac96d6436457"},"vehicle_type_id":"4","last_reported":1717708114,"current_range_meters":22800,"station_id":"ce4bh192rcd13ifvqdb0","pricing_plan_id":"cebpf4jnsgd1na2vs0mg"},{"bike_id":"51090f3d-c212-4de3-8309-a6f6b8082057","system_id":"levelo_inurba_marseille","lat":43.292311,"lon":5.360731,"is_reserved":false,"is_disabled":false,"rental_uris":{"android":"levelo://app?vid=51090f3d-c212-4de3-8309-a6f6b8082057","ios":"levelo://app?vid=51090f3d-c212-4de3-8309-a6f6b8082057"},"vehicle_type_id":"4","last_reported":1717708114,"current_range_meters":0,"station_id":"ce4bhbh2rcd13ifvqeqg","pricing_plan_id":"cebpf4jnsgd1na2vs0mg"},{"bike_id":"26e7097e-23d8-4c60-8dae-8b5ce986776a","system_id":"levelo_inurba_marseille","lat":43.293009,"lon":5.374584,"is_reserved":false,"is_disabled":false,"rental_uris":{"android":"levelo://app?vid=26e7097e-23d8-4c60-8dae-8b5ce986776a","ios":"levelo://app?vid=26e7097e-23d8-4c60-8dae-8b5ce986776a"},"vehicle_type_id":"4","last_reported":1717708114,"current_range_meters":8000,"station_id":"ce4bgi12rcd13ifvqb70","pricing_plan_id":"cebpf4jnsgd1na2vs0mg"},{"bike_id":"4d4536bf-78c6-492d-98eb-85a52b858a10","system_id":"levelo_inurba_marseille","lat":43.292311,"lon":5.360731,"is_reserved":false,"is_disabled":false,"rental_uris":{"android":"levelo://app?vid=4d4536bf-78c6-492d-98eb-85a52b858a10","ios":"levelo://app?vid=4d4536bf-78c6-492d-98eb-85a52b858a10"},"vehicle_type_id":"4","last_reported":1717708114,"current_range_meters":0,"station_id":"ce4bhbh2rcd13ifvqeqg","pricing_plan_id":"cebpf4jnsgd1na2vs0mg"},{"bike_id":"3c2d9471-51ca-4fc6-bb83-52cf9b2a3167","system_id":"levelo_inurba_marseille","lat":43.298764,"lon":5.388973,"is_reserved":false,"is_disabled":false,"rental_uris":{"android":"levelo://app?vid=3c2d9471-51ca-4fc6-bb83-52cf9b2a3167","ios":"levelo://app?vid=3c2d9471-51ca-4fc6-bb83-52cf9b2a3167"},"vehicle_type_id":"4","last_reported":1717708114,"current_range_meters":12000,"station_id":"ce4bh392rcd13ifvqdl0","pricing_plan_id":"cebpf4jnsgd1na2vs0mg"},{"bike_id":"f8d4ba12-16ee-4144-84e5-24eb5abf4270","system_id":"levelo_inurba_marseille","lat":43.293173,"lon":5.378532,"is_reserved":false,"is_disabled":false,"rental_uris":{"android":"levelo://app?vid=f8d4ba12-16ee-4144-84e5-24eb5abf4270","ios":"levelo://app?vid=f8d4ba12-16ee-4144-84e5-24eb5abf4270"},"vehicle_type_id":"4","last_reported":1717708114,"current_range_meters":17200,"station_id":"ce4bgjh2rcd13ifvqbf0","pricing_plan_id":"cebpf4jnsgd1na2vs0mg"},{"bike_id":"68ba9fa4-5cc7-4781-a444-d95941f7dc95","system_id":"levelo_inurba_marseille","lat":43.298764,"lon":5.388973,"is_reserved":false,"is_disabled":false,"rental_uris":{"android":"levelo://app?vid=68ba9fa4-5cc7-4781-a444-d95941f7dc95","ios":"levelo://app?vid=68ba9fa4-5cc7-4781-a444-d95941f7dc95"},"vehicle_type_id":"4","last_reported":1717708114,"current_range_meters":12000,"station_id":"ce4bh392rcd13ifvqdl0","pricing_plan_id":"cebpf4jnsgd1na2vs0mg"},{"bike_id":"69fad3a9-d534-4072-be42-bc97f6b23355","system_id":"levelo_inurba_marseille","lat":43.309038,"lon":5.396546,"is_reserved":false,"is_disabled":false,"rental_uris":{"android":"levelo://app?vid=69fad3a9-d534-4072-be42-bc97f6b23355","ios":"levelo://app?vid=69fad3a9-d534-4072-be42-bc97f6b23355"},"vehicle_type_id":"4","last_reported":1717708114,"current_range_meters":12000,"station_id":"ce4bh012rcd13ifvqcv0","pricing_plan_id":"cebpf4jnsgd1na2vs0mg"},{"bike_id":"b23ef93e-5876-4ce6-8343-1ac08351fd56","system_id":"levelo_inurba_marseille","lat":43.30889,"lon":5.39628,"is_reserved":false,"is_disabled":false,"rental_uris":{"android":"levelo://app?vid=b23ef93e-5876-4ce6-8343-1ac08351fd56","ios":"levelo://app?vid=b23ef93e-5876-4ce6-8343-1ac08351fd56"},"vehicle_type_id":"4","last_reported":1717708114,"current_range_meters":3200,"station_id":"ce4bh012rcd13ifvqcv0","pricing_plan_id":"cebpf4jnsgd1na2vs0mg"},{"bike_id":"7fc19205-a3a1-45d3-8d3d-39a25e35c902","system_id":"levelo_inurba_marseille","lat":43.309038,"lon":5.396546,"is_reserved":false,"is_disabled":false,"rental_uris":{"android":"levelo://app?vid=7fc19205-a3a1-45d3-8d3d-39a25e35c902","ios":"levelo://app?vid=7fc19205-a3a1-45d3-8d3d-39a25e35c902"},"vehicle_type_id":"4","last_reported":1717708114,"current_range_meters":400,"station_id":"ce4bh012rcd13ifvqcv0","pricing_plan_id":"cebpf4jnsgd1na2vs0mg"},{"bike_id":"9f866d4e-53cf-4887-ad7c-dcbf818f01b2","system_id":"levelo_inurba_marseille","lat":43.309038,"lon":5.396546,"is_reserved":false,"is_disabled":false,"rental_uris":{"android":"levelo://app?vid=9f866d4e-53cf-4887-ad7c-dcbf818f01b2","ios":"levelo://app?vid=9f866d4e-53cf-4887-ad7c-dcbf818f01b2"},"vehicle_type_id":"4","last_reported":1717708114,"current_range_meters":2000,"station_id":"ce4bh012rcd13ifvqcv0","pricing_plan_id":"cebpf4jnsgd1na2vs0mg"},{"bike_id":"d03ee9a8-10c4-4c23-8290-096a5300142b","system_id":"levelo_inurba_marseille","lat":43.30884,"lon":5.39632,"is_reserved":false,"is_disabled":false,"rental_uris":{"android":"levelo://app?vid=d03ee9a8-10c4-4c23-8290-096a5300142b","ios":"levelo://app?vid=d03ee9a8-10c4-4c23-8290-096a5300142b"},"vehicle_type_id":"4","last_reported":1717708114,"current_range_meters":3600,"station_id":"ce4bh012rcd13ifvqcv0","pricing_plan_id":"cebpf4jnsgd1na2vs0mg"},{"bike_id":"cf50c8b5-b6ad-4486-bffa-1882e3313788","system_id":"levelo_inurba_marseille","lat":43.309038,"lon":5.396546,"is_reserved":false,"is_disabled":false,"rental_uris":{"android":"levelo://app?vid=cf50c8b5-b6ad-4486-bffa-1882e3313788","ios":"levelo://app?vid=cf50c8b5-b6ad-4486-bffa-1882e3313788"},"vehicle_type_id":"4","last_reported":1717708114,"current_range_meters":19200,"station_id":"ce4bh012rcd13ifvqcv0","pricing_plan_id":"cebpf4jnsgd1na2vs0mg"},{"bike_id":"db601dc2-7510-4be5-aad9-ec6af3942d80","system_id":"levelo_inurba_marseille","lat":43.309038,"lon":5.396546,"is_reserved":false,"is_disabled":false,"rental_uris":{"android":"levelo://app?vid=db601dc2-7510-4be5-aad9-ec6af3942d80","ios":"levelo://app?vid=db601dc2-7510-4be5-aad9-ec6af3942d80"},"vehicle_type_id":"4","last_reported":1717708114,"current_range_meters":25600,"station_id":"ce4bh012rcd13ifvqcv0","pricing_plan_id":"cebpf4jnsgd1na2vs0mg"},{"bike_id":"bd35ac11-5a42-48e4-b724-982a709a87d7","system_id":"levelo_inurba_marseille","lat":43.309038,"lon":5.396546,"is_reserved":false,"is_disabled":false,"rental_uris":{"android":"levelo://app?vid=bd35ac11-5a42-48e4-b724-982a709a87d7","ios":"levelo://app?vid=bd35ac11-5a42-48e4-b724-982a709a87d7"},"vehicle_type_id":"4","last_reported":1717708114,"current_range_meters":12000,"station_id":"ce4bh012rcd13ifvqcv0","pricing_plan_id":"cebpf4jnsgd1na2vs0mg"},{"bike_id":"164a7e9b-4f2c-4964-aebf-6c8f741c41ab","system_id":"levelo_inurba_marseille","lat":43.309038,"lon":5.396546,"is_reserved":false,"is_disabled":false,"rental_uris":{"android":"levelo://app?vid=164a7e9b-4f2c-4964-aebf-6c8f741c41ab","ios":"levelo://app?vid=164a7e9b-4f2c-4964-aebf-6c8f741c41ab"},"vehicle_type_id":"4","last_reported":1717708114,"current_range_meters":17600,"station_id":"ce4bh012rcd13ifvqcv0","pricing_plan_id":"cebpf4jnsgd1na2vs0mg"},{"bike_id":"acd685fa-3fbf-4fc7-9d7c-0b1f2f5ef4ea","system_id":"levelo_inurba_marseille","lat":43.30883,"lon":5.39637,"is_reserved":false,"is_disabled":false,"rental_uris":{"android":"levelo://app?vid=acd685fa-3fbf-4fc7-9d7c-0b1f2f5ef4ea","ios":"levelo://app?vid=acd685fa-3fbf-4fc7-9d7c-0b1f2f5ef4ea"},"vehicle_type_id":"4","last_reported":1717708114,"current_range_meters":23600,"station_id":"ce4bh012rcd13ifvqcv0","pricing_plan_id":"cebpf4jnsgd1na2vs0mg"},{"bike_id":"55b6bdc5-c802-48cc-b2c6-5ed4ef7b3e6f","system_id":"levelo_inurba_marseille","lat":43.313272,"lon":5.396853,"is_reserved":false,"is_disabled":false,"rental_uris":{"android":"levelo://app?vid=55b6bdc5-c802-48cc-b2c6-5ed4ef7b3e6f","ios":"levelo://app?vid=55b6bdc5-c802-48cc-b2c6-5ed4ef7b3e6f"},"vehicle_type_id":"4","last_reported":1717708114,"current_range_meters":31200,"station_id":"ce4bgvp2rcd13ifvqcu0","pricing_plan_id":"cebpf4jnsgd1na2vs0mg"},{"bike_id":"10673254-4533-49da-82c8-ca4ca86b52bc","system_id":"levelo_inurba_marseille","lat":43.309038,"lon":5.396546,"is_reserved":false,"is_disabled":false,"rental_uris":{"android":"levelo://app?vid=10673254-4533-49da-82c8-ca4ca86b52bc","ios":"levelo://app?vid=10673254-4533-49da-82c8-ca4ca86b52bc"},"vehicle_type_id":"4","last_reported":1717708114,"current_range_meters":0,"station_id":"ce4bh012rcd13ifvqcv0","pricing_plan_id":"cebpf4jnsgd1na2vs0mg"},{"bike_id":"8d15ab3e-b038-4724-ab34-4ff019ee4784","system_id":"levelo_inurba_marseille","lat":43.313291,"lon":5.396838,"is_reserved":false,"is_disabled":false,"rental_uris":{"android":"levelo://app?vid=8d15ab3e-b038-4724-ab34-4ff019ee4784","ios":"levelo://app?vid=8d15ab3e-b038-4724-ab34-4ff019ee4784"},"vehicle_type_id":"4","last_reported":1717708114,"current_range_meters":8800,"station_id":"ce4bgvp2rcd13ifvqcu0","pricing_plan_id":"cebpf4jnsgd1na2vs0mg"},{"bike_id":"4d116458-4bfd-43ed-9673-ed852ab1b2ed","system_id":"levelo_inurba_marseille","lat":43.309038,"lon":5.396546,"is_reserved":false,"is_disabled":false,"rental_uris":{"android":"levelo://app?vid=4d116458-4bfd-43ed-9673-ed852ab1b2ed","ios":"levelo://app?vid=4d116458-4bfd-43ed-9673-ed852ab1b2ed"},"vehicle_type_id":"4","last_reported":1717708114,"current_range_meters":23200,"station_id":"ce4bh012rcd13ifvqcv0","pricing_plan_id":"cebpf4jnsgd1na2vs0mg"},{"bike_id":"c64baf0e-0806-4404-bd7c-a582ae52a8b4","system_id":"levelo_inurba_marseille","lat":43.313291,"lon":5.396838,"is_reserved":false,"is_disabled":false,"rental_uris":{"android":"levelo://app?vid=c64baf0e-0806-4404-bd7c-a582ae52a8b4","ios":"levelo://app?vid=c64baf0e-0806-4404-bd7c-a582ae52a8b4"},"vehicle_type_id":"4","last_reported":1717708114,"current_range_meters":8800,"station_id":"ce4bgvp2rcd13ifvqcu0","pricing_plan_id":"cebpf4jnsgd1na2vs0mg"},{"bike_id":"b0303c23-d214-4919-85f9-8319412eb6ae","system_id":"levelo_inurba_marseille","lat":43.313291,"lon":5.396838,"is_reserved":false,"is_disabled":false,"rental_uris":{"android":"levelo://app?vid=b0303c23-d214-4919-85f9-8319412eb6ae","ios":"levelo://app?vid=b0303c23-d214-4919-85f9-8319412eb6ae"},"vehicle_type_id":"4","last_reported":1717708114,"current_range_meters":31600,"station_id":"ce4bgvp2rcd13ifvqcu0","pricing_plan_id":"cebpf4jnsgd1na2vs0mg"},{"bike_id":"3d6cc610-92e4-4c6e-827a-47615bdeb1e0","system_id":"levelo_inurba_marseille","lat":43.313291,"lon":5.396838,"is_reserved":false,"is_disabled":false,"rental_uris":{"android":"levelo://app?vid=3d6cc610-92e4-4c6e-827a-47615bdeb1e0","ios":"levelo://app?vid=3d6cc610-92e4-4c6e-827a-47615bdeb1e0"},"vehicle_type_id":"4","last_reported":1717708114,"current_range_meters":25200,"station_id":"ce4bgvp2rcd13ifvqcu0","pricing_plan_id":"cebpf4jnsgd1na2vs0mg"},{"bike_id":"f3d0e6f9-f225-439e-97b2-742935660ddd","system_id":"levelo_inurba_marseille","lat":43.292005,"lon":5.357875,"is_reserved":false,"is_disabled":false,"rental_uris":{"android":"levelo://app?vid=f3d0e6f9-f225-439e-97b2-742935660ddd","ios":"levelo://app?vid=f3d0e6f9-f225-439e-97b2-742935660ddd"},"vehicle_type_id":"4","last_reported":1717708114,"current_range_meters":29600,"station_id":"ce4bhb12rcd13ifvqel0","pricing_plan_id":"cebpf4jnsgd1na2vs0mg"},{"bike_id":"cebf9036-f37e-420d-adc3-ca1dcff5fcaf","system_id":"levelo_inurba_marseille","lat":43.31329,"lon":5.39691,"is_reserved":false,"is_disabled":false,"rental_uris":{"android":"levelo://app?vid=cebf9036-f37e-420d-adc3-ca1dcff5fcaf","ios":"levelo://app?vid=cebf9036-f37e-420d-adc3-ca1dcff5fcaf"},"vehicle_type_id":"4","last_reported":1717708114,"current_range_meters":31200,"station_id":"ce4bgvp2rcd13ifvqcu0","pricing_plan_id":"cebpf4jnsgd1na2vs0mg"},{"bike_id":"7773233d-2a5b-4320-9b77-eccb870c7e47","system_id":"levelo_inurba_marseille","lat":43.313291,"lon":5.396838,"is_reserved":false,"is_disabled":false,"rental_uris":{"android":"levelo://app?vid=7773233d-2a5b-4320-9b77-eccb870c7e47","ios":"levelo://app?vid=7773233d-2a5b-4320-9b77-eccb870c7e47"},"vehicle_type_id":"4","last_reported":1717708114,"current_range_meters":31600,"station_id":"ce4bgvp2rcd13ifvqcu0","pricing_plan_id":"cebpf4jnsgd1na2vs0mg"},{"bike_id":"ab194202-5c41-4b59-8a9a-0158cf1abd3d","system_id":"levelo_inurba_marseille","lat":43.313291,"lon":5.396838,"is_reserved":false,"is_disabled":false,"rental_uris":{"android":"levelo://app?vid=ab194202-5c41-4b59-8a9a-0158cf1abd3d","ios":"levelo://app?vid=ab194202-5c41-4b59-8a9a-0158cf1abd3d"},"vehicle_type_id":"4","last_reported":1717708114,"current_range_meters":31600,"station_id":"ce4bgvp2rcd13ifvqcu0","pricing_plan_id":"cebpf4jnsgd1na2vs0mg"},{"bike_id":"789bd50f-d23d-4ca6-b754-73f2aec0748a","system_id":"levelo_inurba_marseille","lat":43.313291,"lon":5.396838,"is_reserved":false,"is_disabled":false,"rental_uris":{"android":"levelo://app?vid=789bd50f-d23d-4ca6-b754-73f2aec0748a","ios":"levelo://app?vid=789bd50f-d23d-4ca6-b754-73f2aec0748a"},"vehicle_type_id":"4","last_reported":1717708114,"current_range_meters":22800,"station_id":"ce4bgvp2rcd13ifvqcu0","pricing_plan_id":"cebpf4jnsgd1na2vs0mg"},{"bike_id":"77b47291-eedc-4670-a197-3f472d77df97","system_id":"levelo_inurba_marseille","lat":43.31326,"lon":5.39694,"is_reserved":false,"is_disabled":false,"rental_uris":{"android":"levelo://app?vid=77b47291-eedc-4670-a197-3f472d77df97","ios":"levelo://app?vid=77b47291-eedc-4670-a197-3f472d77df97"},"vehicle_type_id":"4","last_reported":1717708114,"current_range_meters":16400,"station_id":"ce4bgvp2rcd13ifvqcu0","pricing_plan_id":"cebpf4jnsgd1na2vs0mg"},{"bike_id":"7c7adaba-1a3c-4ac3-a36d-4cc1002b4632","system_id":"levelo_inurba_marseille","lat":43.313291,"lon":5.396838,"is_reserved":false,"is_disabled":false,"rental_uris":{"android":"levelo://app?vid=7c7adaba-1a3c-4ac3-a36d-4cc1002b4632","ios":"levelo://app?vid=7c7adaba-1a3c-4ac3-a36d-4cc1002b4632"},"vehicle_type_id":"4","last_reported":1717708114,"current_range_meters":31600,"station_id":"ce4bgvp2rcd13ifvqcu0","pricing_plan_id":"cebpf4jnsgd1na2vs0mg"},{"bike_id":"9dbf1a7c-3c20-44b1-bc74-91111bae1e9a","system_id":"levelo_inurba_marseille","lat":43.313291,"lon":5.396838,"is_reserved":false,"is_disabled":false,"rental_uris":{"android":"levelo://app?vid=9dbf1a7c-3c20-44b1-bc74-91111bae1e9a","ios":"levelo://app?vid=9dbf1a7c-3c20-44b1-bc74-91111bae1e9a"},"vehicle_type_id":"4","last_reported":1717708114,"current_range_meters":29600,"station_id":"ce4bgvp2rcd13ifvqcu0","pricing_plan_id":"cebpf4jnsgd1na2vs0mg"},{"bike_id":"5b94a206-f736-4271-9c2f-19d787f92c33","system_id":"levelo_inurba_marseille","lat":43.313291,"lon":5.396838,"is_reserved":false,"is_disabled":false,"rental_uris":{"android":"levelo://app?vid=5b94a206-f736-4271-9c2f-19d787f92c33","ios":"levelo://app?vid=5b94a206-f736-4271-9c2f-19d787f92c33"},"vehicle_type_id":"4","last_reported":1717708114,"current_range_meters":17600,"station_id":"ce4bgvp2rcd13ifvqcu0","pricing_plan_id":"cebpf4jnsgd1na2vs0mg"},{"bike_id":"60f1a277-25aa-404c-bf95-595037589d32","system_id":"levelo_inurba_marseille","lat":43.30883,"lon":5.39648,"is_reserved":false,"is_disabled":false,"rental_uris":{"android":"levelo://app?vid=60f1a277-25aa-404c-bf95-595037589d32","ios":"levelo://app?vid=60f1a277-25aa-404c-bf95-595037589d32"},"vehicle_type_id":"4","last_reported":1717708114,"current_range_meters":20400,"station_id":"ce4bh012rcd13ifvqcv0","pricing_plan_id":"cebpf4jnsgd1na2vs0mg"},{"bike_id":"144d072a-826e-4ee6-8a7f-db1b11d71436","system_id":"levelo_inurba_marseille","lat":43.309038,"lon":5.396546,"is_reserved":false,"is_disabled":false,"rental_uris":{"android":"levelo://app?vid=144d072a-826e-4ee6-8a7f-db1b11d71436","ios":"levelo://app?vid=144d072a-826e-4ee6-8a7f-db1b11d71436"},"vehicle_type_id":"4","last_reported":1717708114,"current_range_meters":1600,"station_id":"ce4bh012rcd13ifvqcv0","pricing_plan_id":"cebpf4jnsgd1na2vs0mg"},{"bike_id":"4d3c82a3-c6c6-4d5c-a61a-301f82f9bcdc","system_id":"levelo_inurba_marseille","lat":43.313291,"lon":5.396838,"is_reserved":false,"is_disabled":false,"rental_uris":{"android":"levelo://app?vid=4d3c82a3-c6c6-4d5c-a61a-301f82f9bcdc","ios":"levelo://app?vid=4d3c82a3-c6c6-4d5c-a61a-301f82f9bcdc"},"vehicle_type_id":"4","last_reported":1717708114,"current_range_meters":28400,"station_id":"ce4bgvp2rcd13ifvqcu0","pricing_plan_id":"cebpf4jnsgd1na2vs0mg"},{"bike_id":"c2dac748-1c8e-4b06-86b6-5f1e9b2c3481","system_id":"levelo_inurba_marseille","lat":43.31326,"lon":5.39696,"is_reserved":false,"is_disabled":false,"rental_uris":{"android":"levelo://app?vid=c2dac748-1c8e-4b06-86b6-5f1e9b2c3481","ios":"levelo://app?vid=c2dac748-1c8e-4b06-86b6-5f1e9b2c3481"},"vehicle_type_id":"4","last_reported":1717708114,"current_range_meters":31200,"station_id":"ce4bgvp2rcd13ifvqcu0","pricing_plan_id":"cebpf4jnsgd1na2vs0mg"},{"bike_id":"22f581fc-b69f-412f-9811-763ff65a3099","system_id":"levelo_inurba_marseille","lat":43.313291,"lon":5.396838,"is_reserved":false,"is_disabled":false,"rental_uris":{"android":"levelo://app?vid=22f581fc-b69f-412f-9811-763ff65a3099","ios":"levelo://app?vid=22f581fc-b69f-412f-9811-763ff65a3099"},"vehicle_type_id":"4","last_reported":1717708114,"current_range_meters":27200,"station_id":"ce4bgvp2rcd13ifvqcu0","pricing_plan_id":"cebpf4jnsgd1na2vs0mg"},{"bike_id":"24a302f5-c4b4-4c81-8614-f0b9eba21a90","system_id":"levelo_inurba_marseille","lat":43.313291,"lon":5.396838,"is_reserved":false,"is_disabled":false,"rental_uris":{"android":"levelo://app?vid=24a302f5-c4b4-4c81-8614-f0b9eba21a90","ios":"levelo://app?vid=24a302f5-c4b4-4c81-8614-f0b9eba21a90"},"vehicle_type_id":"4","last_reported":1717708114,"current_range_meters":12400,"station_id":"ce4bgvp2rcd13ifvqcu0","pricing_plan_id":"cebpf4jnsgd1na2vs0mg"},{"bike_id":"3c2047cc-4b3c-42aa-9076-46f05a01d1b9","system_id":"levelo_inurba_marseille","lat":43.313291,"lon":5.396838,"is_reserved":false,"is_disabled":false,"rental_uris":{"android":"levelo://app?vid=3c2047cc-4b3c-42aa-9076-46f05a01d1b9","ios":"levelo://app?vid=3c2047cc-4b3c-42aa-9076-46f05a01d1b9"},"vehicle_type_id":"4","last_reported":1717708114,"current_range_meters":12400,"station_id":"ce4bgvp2rcd13ifvqcu0","pricing_plan_id":"cebpf4jnsgd1na2vs0mg"},{"bike_id":"98febe2e-784e-4167-b08e-7b7e71ac9ab0","system_id":"levelo_inurba_marseille","lat":43.31331,"lon":5.39698,"is_reserved":false,"is_disabled":false,"rental_uris":{"android":"levelo://app?vid=98febe2e-784e-4167-b08e-7b7e71ac9ab0","ios":"levelo://app?vid=98febe2e-784e-4167-b08e-7b7e71ac9ab0"},"vehicle_type_id":"4","last_reported":1717708114,"current_range_meters":400,"station_id":"ce4bgvp2rcd13ifvqcu0","pricing_plan_id":"cebpf4jnsgd1na2vs0mg"},{"bike_id":"5d08bfea-e81b-4f2c-894e-4f2764a30f7c","system_id":"levelo_inurba_marseille","lat":43.313291,"lon":5.396838,"is_reserved":false,"is_disabled":false,"rental_uris":{"android":"levelo://app?vid=5d08bfea-e81b-4f2c-894e-4f2764a30f7c","ios":"levelo://app?vid=5d08bfea-e81b-4f2c-894e-4f2764a30f7c"},"vehicle_type_id":"4","last_reported":1717708114,"current_range_meters":22000,"station_id":"ce4bgvp2rcd13ifvqcu0","pricing_plan_id":"cebpf4jnsgd1na2vs0mg"},{"bike_id":"0cc9be4c-9c76-4f9a-b216-9f4d00d394a0","system_id":"levelo_inurba_marseille","lat":43.29538,"lon":5.38546,"is_reserved":false,"is_disabled":false,"rental_uris":{"android":"levelo://app?vid=0cc9be4c-9c76-4f9a-b216-9f4d00d394a0","ios":"levelo://app?vid=0cc9be4c-9c76-4f9a-b216-9f4d00d394a0"},"vehicle_type_id":"4","last_reported":1717708114,"current_range_meters":15600,"station_id":"ce4bgih2rcd13ifvqba0","pricing_plan_id":"cebpf4jnsgd1na2vs0mg"},{"bike_id":"d8574b40-a9b2-47f1-a43d-eaeee7a53024","system_id":"levelo_inurba_marseille","lat":43.309038,"lon":5.396546,"is_reserved":false,"is_disabled":false,"rental_uris":{"android":"levelo://app?vid=d8574b40-a9b2-47f1-a43d-eaeee7a53024","ios":"levelo://app?vid=d8574b40-a9b2-47f1-a43d-eaeee7a53024"},"vehicle_type_id":"4","last_reported":1717708114,"current_range_meters":10000,"station_id":"ce4bh012rcd13ifvqcv0","pricing_plan_id":"cebpf4jnsgd1na2vs0mg"},{"bike_id":"2e2b9085-bba9-4491-87fe-d6efb1ca821b","system_id":"levelo_inurba_marseille","lat":43.29471,"lon":5.38425,"is_reserved":false,"is_disabled":false,"rental_uris":{"android":"levelo://app?vid=2e2b9085-bba9-4491-87fe-d6efb1ca821b","ios":"levelo://app?vid=2e2b9085-bba9-4491-87fe-d6efb1ca821b"},"vehicle_type_id":"4","last_reported":1717708114,"current_range_meters":1200,"station_id":"","pricing_plan_id":"cebpf4jnsgd1na2vs0mg"},{"bike_id":"11531316-db70-4de3-95f1-48fc6a0a6fa9","system_id":"levelo_inurba_marseille","lat":43.29529,"lon":5.385581,"is_reserved":false,"is_disabled":false,"rental_uris":{"android":"levelo://app?vid=11531316-db70-4de3-95f1-48fc6a0a6fa9","ios":"levelo://app?vid=11531316-db70-4de3-95f1-48fc6a0a6fa9"},"vehicle_type_id":"4","last_reported":1717708114,"current_range_meters":400,"station_id":"ce4bgih2rcd13ifvqba0","pricing_plan_id":"cebpf4jnsgd1na2vs0mg"},{"bike_id":"59f447b2-0adb-4c6c-bcdd-8a02cf8504dd","system_id":"levelo_inurba_marseille","lat":43.29529,"lon":5.38538,"is_reserved":false,"is_disabled":false,"rental_uris":{"android":"levelo://app?vid=59f447b2-0adb-4c6c-bcdd-8a02cf8504dd","ios":"levelo://app?vid=59f447b2-0adb-4c6c-bcdd-8a02cf8504dd"},"vehicle_type_id":"4","last_reported":1717708114,"current_range_meters":5600,"station_id":"ce4bgih2rcd13ifvqba0","pricing_plan_id":"cebpf4jnsgd1na2vs0mg"},{"bike_id":"4fba0403-e594-4c18-aa4d-ac91537b19fa","system_id":"levelo_inurba_marseille","lat":43.29529,"lon":5.385581,"is_reserved":false,"is_disabled":false,"rental_uris":{"android":"levelo://app?vid=4fba0403-e594-4c18-aa4d-ac91537b19fa","ios":"levelo://app?vid=4fba0403-e594-4c18-aa4d-ac91537b19fa"},"vehicle_type_id":"4","last_reported":1717708114,"current_range_meters":28000,"station_id":"ce4bgih2rcd13ifvqba0","pricing_plan_id":"cebpf4jnsgd1na2vs0mg"},{"bike_id":"2c9c3dfe-b13c-4b3b-971e-43f3ee8ff5ac","system_id":"levelo_inurba_marseille","lat":43.29064,"lon":5.37165,"is_reserved":false,"is_disabled":false,"rental_uris":{"android":"levelo://app?vid=2c9c3dfe-b13c-4b3b-971e-43f3ee8ff5ac","ios":"levelo://app?vid=2c9c3dfe-b13c-4b3b-971e-43f3ee8ff5ac"},"vehicle_type_id":"4","last_reported":1717708114,"current_range_meters":18800,"station_id":"ce4bh5p2rcd13ifvqe4g","pricing_plan_id":"cebpf4jnsgd1na2vs0mg"},{"bike_id":"35752745-568e-48f6-8432-6d24d785d4c4","system_id":"levelo_inurba_marseille","lat":43.29879,"lon":5.3915,"is_reserved":false,"is_disabled":false,"rental_uris":{"android":"levelo://app?vid=35752745-568e-48f6-8432-6d24d785d4c4","ios":"levelo://app?vid=35752745-568e-48f6-8432-6d24d785d4c4"},"vehicle_type_id":"4","last_reported":1717708114,"current_range_meters":24400,"station_id":"","pricing_plan_id":"cebpf4jnsgd1na2vs0mg"},{"bike_id":"4222bd69-e5a1-4ee6-93e5-c654ecf3668e","system_id":"levelo_inurba_marseille","lat":43.302008,"lon":5.394694,"is_reserved":false,"is_disabled":false,"rental_uris":{"android":"levelo://app?vid=4222bd69-e5a1-4ee6-93e5-c654ecf3668e","ios":"levelo://app?vid=4222bd69-e5a1-4ee6-93e5-c654ecf3668e"},"vehicle_type_id":"4","last_reported":1717708114,"current_range_meters":18400,"station_id":"ce4bh0p2rcd13ifvqd70","pricing_plan_id":"cebpf4jnsgd1na2vs0mg"},{"bike_id":"318d0526-77d8-41dc-bec2-5087c95fb3d5","system_id":"levelo_inurba_marseille","lat":43.302008,"lon":5.394694,"is_reserved":false,"is_disabled":false,"rental_uris":{"android":"levelo://app?vid=318d0526-77d8-41dc-bec2-5087c95fb3d5","ios":"levelo://app?vid=318d0526-77d8-41dc-bec2-5087c95fb3d5"},"vehicle_type_id":"4","last_reported":1717708114,"current_range_meters":4000,"station_id":"ce4bh0p2rcd13ifvqd70","pricing_plan_id":"cebpf4jnsgd1na2vs0mg"},{"bike_id":"481690a1-70f9-48b7-8049-a1ce1dad857b","system_id":"levelo_inurba_marseille","lat":43.302008,"lon":5.394694,"is_reserved":false,"is_disabled":false,"rental_uris":{"android":"levelo://app?vid=481690a1-70f9-48b7-8049-a1ce1dad857b","ios":"levelo://app?vid=481690a1-70f9-48b7-8049-a1ce1dad857b"},"vehicle_type_id":"4","last_reported":1717708114,"current_range_meters":5600,"station_id":"ce4bh0p2rcd13ifvqd70","pricing_plan_id":"cebpf4jnsgd1na2vs0mg"},{"bike_id":"b31daf51-d1ae-47a4-a9c4-93a31b52eb62","system_id":"levelo_inurba_marseille","lat":43.294153,"lon":5.386305,"is_reserved":false,"is_disabled":false,"rental_uris":{"android":"levelo://app?vid=b31daf51-d1ae-47a4-a9c4-93a31b52eb62","ios":"levelo://app?vid=b31daf51-d1ae-47a4-a9c4-93a31b52eb62"},"vehicle_type_id":"4","last_reported":1717708114,"current_range_meters":24000,"station_id":"ce4bh2h2rcd13ifvqdh0","pricing_plan_id":"cebpf4jnsgd1na2vs0mg"},{"bike_id":"9313e8f6-c980-4110-bc45-347553e19811","system_id":"levelo_inurba_marseille","lat":43.29429,"lon":5.38632,"is_reserved":false,"is_disabled":false,"rental_uris":{"android":"levelo://app?vid=9313e8f6-c980-4110-bc45-347553e19811","ios":"levelo://app?vid=9313e8f6-c980-4110-bc45-347553e19811"},"vehicle_type_id":"4","last_reported":1717708114,"current_range_meters":24000,"station_id":"ce4bh2h2rcd13ifvqdh0","pricing_plan_id":"cebpf4jnsgd1na2vs0mg"},{"bike_id":"2b9aa721-c5f0-4063-b92c-d0688859915b","system_id":"levelo_inurba_marseille","lat":43.294153,"lon":5.386305,"is_reserved":false,"is_disabled":false,"rental_uris":{"android":"levelo://app?vid=2b9aa721-c5f0-4063-b92c-d0688859915b","ios":"levelo://app?vid=2b9aa721-c5f0-4063-b92c-d0688859915b"},"vehicle_type_id":"4","last_reported":1717708114,"current_range_meters":21600,"station_id":"ce4bh2h2rcd13ifvqdh0","pricing_plan_id":"cebpf4jnsgd1na2vs0mg"},{"bike_id":"273542c4-41c7-4810-95d5-e045d2681f06","system_id":"levelo_inurba_marseille","lat":43.294153,"lon":5.386305,"is_reserved":false,"is_disabled":false,"rental_uris":{"android":"levelo://app?vid=273542c4-41c7-4810-95d5-e045d2681f06","ios":"levelo://app?vid=273542c4-41c7-4810-95d5-e045d2681f06"},"vehicle_type_id":"4","last_reported":1717708114,"current_range_meters":2400,"station_id":"ce4bh2h2rcd13ifvqdh0","pricing_plan_id":"cebpf4jnsgd1na2vs0mg"},{"bike_id":"5066772d-4e72-46bb-93b1-f886536448fa","system_id":"levelo_inurba_marseille","lat":43.29421,"lon":5.38625,"is_reserved":false,"is_disabled":false,"rental_uris":{"android":"levelo://app?vid=5066772d-4e72-46bb-93b1-f886536448fa","ios":"levelo://app?vid=5066772d-4e72-46bb-93b1-f886536448fa"},"vehicle_type_id":"4","last_reported":1717708114,"current_range_meters":12000,"station_id":"ce4bh2h2rcd13ifvqdh0","pricing_plan_id":"cebpf4jnsgd1na2vs0mg"},{"bike_id":"4318b3ca-43fe-486a-9480-93cae22cac59","system_id":"levelo_inurba_marseille","lat":43.294153,"lon":5.386305,"is_reserved":false,"is_disabled":false,"rental_uris":{"android":"levelo://app?vid=4318b3ca-43fe-486a-9480-93cae22cac59","ios":"levelo://app?vid=4318b3ca-43fe-486a-9480-93cae22cac59"},"vehicle_type_id":"4","last_reported":1717708114,"current_range_meters":25600,"station_id":"ce4bh2h2rcd13ifvqdh0","pricing_plan_id":"cebpf4jnsgd1na2vs0mg"},{"bike_id":"cef1599b-616c-4fff-843a-64bd8010b106","system_id":"levelo_inurba_marseille","lat":43.294153,"lon":5.386305,"is_reserved":false,"is_disabled":false,"rental_uris":{"android":"levelo://app?vid=cef1599b-616c-4fff-843a-64bd8010b106","ios":"levelo://app?vid=cef1599b-616c-4fff-843a-64bd8010b106"},"vehicle_type_id":"4","last_reported":1717708114,"current_range_meters":27600,"station_id":"ce4bh2h2rcd13ifvqdh0","pricing_plan_id":"cebpf4jnsgd1na2vs0mg"},{"bike_id":"e3327763-7901-4f0f-9865-a8895368f303","system_id":"levelo_inurba_marseille","lat":43.294153,"lon":5.386305,"is_reserved":false,"is_disabled":false,"rental_uris":{"android":"levelo://app?vid=e3327763-7901-4f0f-9865-a8895368f303","ios":"levelo://app?vid=e3327763-7901-4f0f-9865-a8895368f303"},"vehicle_type_id":"4","last_reported":1717708114,"current_range_meters":800,"station_id":"ce4bh2h2rcd13ifvqdh0","pricing_plan_id":"cebpf4jnsgd1na2vs0mg"},{"bike_id":"ec6156e0-7f8c-4e46-b027-688cc8765b30","system_id":"levelo_inurba_marseille","lat":43.290327,"lon":5.375711,"is_reserved":false,"is_disabled":false,"rental_uris":{"android":"levelo://app?vid=ec6156e0-7f8c-4e46-b027-688cc8765b30","ios":"levelo://app?vid=ec6156e0-7f8c-4e46-b027-688cc8765b30"},"vehicle_type_id":"4","last_reported":1717708114,"current_range_meters":16400,"station_id":"ce4bh692rcd13ifvqe90","pricing_plan_id":"cebpf4jnsgd1na2vs0mg"},{"bike_id":"ed461bbd-a6a5-4913-b0e2-86b176c66397","system_id":"levelo_inurba_marseille","lat":43.294162,"lon":5.386292,"is_reserved":false,"is_disabled":false,"rental_uris":{"android":"levelo://app?vid=ed461bbd-a6a5-4913-b0e2-86b176c66397","ios":"levelo://app?vid=ed461bbd-a6a5-4913-b0e2-86b176c66397"},"vehicle_type_id":"4","last_reported":1717708114,"current_range_meters":15200,"station_id":"ce4bh2h2rcd13ifvqdh0","pricing_plan_id":"cebpf4jnsgd1na2vs0mg"},{"bike_id":"99ceba3c-3867-4d7c-a12b-59b289cf6a41","system_id":"levelo_inurba_marseille","lat":43.294153,"lon":5.386305,"is_reserved":false,"is_disabled":false,"rental_uris":{"android":"levelo://app?vid=99ceba3c-3867-4d7c-a12b-59b289cf6a41","ios":"levelo://app?vid=99ceba3c-3867-4d7c-a12b-59b289cf6a41"},"vehicle_type_id":"4","last_reported":1717708114,"current_range_meters":0,"station_id":"ce4bh2h2rcd13ifvqdh0","pricing_plan_id":"cebpf4jnsgd1na2vs0mg"},{"bike_id":"4796f5fc-5fb5-4189-80f7-1aaccf4cab86","system_id":"levelo_inurba_marseille","lat":43.294153,"lon":5.386305,"is_reserved":false,"is_disabled":false,"rental_uris":{"android":"levelo://app?vid=4796f5fc-5fb5-4189-80f7-1aaccf4cab86","ios":"levelo://app?vid=4796f5fc-5fb5-4189-80f7-1aaccf4cab86"},"vehicle_type_id":"4","last_reported":1717708114,"current_range_meters":4400,"station_id":"ce4bh2h2rcd13ifvqdh0","pricing_plan_id":"cebpf4jnsgd1na2vs0mg"},{"bike_id":"981e0766-08d1-41b0-a14d-90928edf404b","system_id":"levelo_inurba_marseille","lat":43.29416,"lon":5.38629,"is_reserved":false,"is_disabled":false,"rental_uris":{"android":"levelo://app?vid=981e0766-08d1-41b0-a14d-90928edf404b","ios":"levelo://app?vid=981e0766-08d1-41b0-a14d-90928edf404b"},"vehicle_type_id":"4","last_reported":1717708114,"current_range_meters":10000,"station_id":"ce4bh2h2rcd13ifvqdh0","pricing_plan_id":"cebpf4jnsgd1na2vs0mg"},{"bike_id":"38e80a67-6645-434d-b6b4-786d5735f943","system_id":"levelo_inurba_marseille","lat":43.294162,"lon":5.386292,"is_reserved":false,"is_disabled":false,"rental_uris":{"android":"levelo://app?vid=38e80a67-6645-434d-b6b4-786d5735f943","ios":"levelo://app?vid=38e80a67-6645-434d-b6b4-786d5735f943"},"vehicle_type_id":"4","last_reported":1717708114,"current_range_meters":8000,"station_id":"ce4bh2h2rcd13ifvqdh0","pricing_plan_id":"cebpf4jnsgd1na2vs0mg"},{"bike_id":"c402639e-a543-4919-8c3a-4fa18ea35c7a","system_id":"levelo_inurba_marseille","lat":43.289412,"lon":5.366307,"is_reserved":false,"is_disabled":false,"rental_uris":{"android":"levelo://app?vid=c402639e-a543-4919-8c3a-4fa18ea35c7a","ios":"levelo://app?vid=c402639e-a543-4919-8c3a-4fa18ea35c7a"},"vehicle_type_id":"4","last_reported":1717708114,"current_range_meters":31200,"station_id":"ce4bhap2rcd13ifvqek0","pricing_plan_id":"cebpf4jnsgd1na2vs0mg"},{"bike_id":"4a681d7b-567d-4a4e-8036-b3c5182b4515","system_id":"levelo_inurba_marseille","lat":43.289377,"lon":5.36639,"is_reserved":false,"is_disabled":false,"rental_uris":{"android":"levelo://app?vid=4a681d7b-567d-4a4e-8036-b3c5182b4515","ios":"levelo://app?vid=4a681d7b-567d-4a4e-8036-b3c5182b4515"},"vehicle_type_id":"4","last_reported":1717708114,"current_range_meters":16400,"station_id":"ce4bhap2rcd13ifvqek0","pricing_plan_id":"cebpf4jnsgd1na2vs0mg"},{"bike_id":"1ce8c515-ba09-4412-a533-379ef47b852b","system_id":"levelo_inurba_marseille","lat":43.28936,"lon":5.36632,"is_reserved":false,"is_disabled":false,"rental_uris":{"android":"levelo://app?vid=1ce8c515-ba09-4412-a533-379ef47b852b","ios":"levelo://app?vid=1ce8c515-ba09-4412-a533-379ef47b852b"},"vehicle_type_id":"4","last_reported":1717708114,"current_range_meters":12400,"station_id":"ce4bhap2rcd13ifvqek0","pricing_plan_id":"cebpf4jnsgd1na2vs0mg"},{"bike_id":"92dcfaca-bf2a-4318-9c14-3a2c21e84099","system_id":"levelo_inurba_marseille","lat":43.29265,"lon":5.38434,"is_reserved":false,"is_disabled":false,"rental_uris":{"android":"levelo://app?vid=92dcfaca-bf2a-4318-9c14-3a2c21e84099","ios":"levelo://app?vid=92dcfaca-bf2a-4318-9c14-3a2c21e84099"},"vehicle_type_id":"4","last_reported":1717708114,"current_range_meters":15600,"station_id":"ce4bh692rcd13ifvqea0","pricing_plan_id":"cebpf4jnsgd1na2vs0mg"},{"bike_id":"1fd5d40b-bb6d-46a8-8d4c-557cc48ca101","system_id":"levelo_inurba_marseille","lat":43.29775,"lon":5.39225,"is_reserved":false,"is_disabled":false,"rental_uris":{"android":"levelo://app?vid=1fd5d40b-bb6d-46a8-8d4c-557cc48ca101","ios":"levelo://app?vid=1fd5d40b-bb6d-46a8-8d4c-557cc48ca101"},"vehicle_type_id":"4","last_reported":1717708114,"current_range_meters":22800,"station_id":"chh1huq6cuj3fo74tm60","pricing_plan_id":"cebpf4jnsgd1na2vs0mg"},{"bike_id":"db54c9d9-eca8-4d9e-bd96-f6e643573334","system_id":"levelo_inurba_marseille","lat":43.29263,"lon":5.38438,"is_reserved":false,"is_disabled":false,"rental_uris":{"android":"levelo://app?vid=db54c9d9-eca8-4d9e-bd96-f6e643573334","ios":"levelo://app?vid=db54c9d9-eca8-4d9e-bd96-f6e643573334"},"vehicle_type_id":"4","last_reported":1717708114,"current_range_meters":18000,"station_id":"ce4bh692rcd13ifvqea0","pricing_plan_id":"cebpf4jnsgd1na2vs0mg"},{"bike_id":"e2147445-80d7-482e-bbe6-22001511e30f","system_id":"levelo_inurba_marseille","lat":43.29573,"lon":5.367355,"is_reserved":false,"is_disabled":false,"rental_uris":{"android":"levelo://app?vid=e2147445-80d7-482e-bbe6-22001511e30f","ios":"levelo://app?vid=e2147445-80d7-482e-bbe6-22001511e30f"},"vehicle_type_id":"4","last_reported":1717708114,"current_range_meters":6400,"station_id":"ce4bgph2rcd13ifvqc2g","pricing_plan_id":"cebpf4jnsgd1na2vs0mg"},{"bike_id":"cc2e5fc3-8e3b-48f0-8d94-e2e6e5313366","system_id":"levelo_inurba_marseille","lat":43.2926,"lon":5.38433,"is_reserved":false,"is_disabled":false,"rental_uris":{"android":"levelo://app?vid=cc2e5fc3-8e3b-48f0-8d94-e2e6e5313366","ios":"levelo://app?vid=cc2e5fc3-8e3b-48f0-8d94-e2e6e5313366"},"vehicle_type_id":"4","last_reported":1717708114,"current_range_meters":2000,"station_id":"ce4bh692rcd13ifvqea0","pricing_plan_id":"cebpf4jnsgd1na2vs0mg"},{"bike_id":"f3b805de-960e-439e-b6eb-64ad6263ea1b","system_id":"levelo_inurba_marseille","lat":43.292644,"lon":5.384257,"is_reserved":false,"is_disabled":false,"rental_uris":{"android":"levelo://app?vid=f3b805de-960e-439e-b6eb-64ad6263ea1b","ios":"levelo://app?vid=f3b805de-960e-439e-b6eb-64ad6263ea1b"},"vehicle_type_id":"4","last_reported":1717708114,"current_range_meters":4400,"station_id":"ce4bh692rcd13ifvqea0","pricing_plan_id":"cebpf4jnsgd1na2vs0mg"},{"bike_id":"c762df4e-c755-48a3-b68e-f52e262b464b","system_id":"levelo_inurba_marseille","lat":43.29257,"lon":5.38431,"is_reserved":false,"is_disabled":false,"rental_uris":{"android":"levelo://app?vid=c762df4e-c755-48a3-b68e-f52e262b464b","ios":"levelo://app?vid=c762df4e-c755-48a3-b68e-f52e262b464b"},"vehicle_type_id":"4","last_reported":1717708114,"current_range_meters":24800,"station_id":"ce4bh692rcd13ifvqea0","pricing_plan_id":"cebpf4jnsgd1na2vs0mg"},{"bike_id":"e375e4b8-2b86-45f0-b07a-9771c06c87ae","system_id":"levelo_inurba_marseille","lat":43.29262,"lon":5.38442,"is_reserved":false,"is_disabled":false,"rental_uris":{"android":"levelo://app?vid=e375e4b8-2b86-45f0-b07a-9771c06c87ae","ios":"levelo://app?vid=e375e4b8-2b86-45f0-b07a-9771c06c87ae"},"vehicle_type_id":"4","last_reported":1717708114,"current_range_meters":0,"station_id":"ce4bh692rcd13ifvqea0","pricing_plan_id":"cebpf4jnsgd1na2vs0mg"},{"bike_id":"331a0a4d-e5ea-471b-9d1e-2fabd97023a9","system_id":"levelo_inurba_marseille","lat":43.2926,"lon":5.38438,"is_reserved":false,"is_disabled":false,"rental_uris":{"android":"levelo://app?vid=331a0a4d-e5ea-471b-9d1e-2fabd97023a9","ios":"levelo://app?vid=331a0a4d-e5ea-471b-9d1e-2fabd97023a9"},"vehicle_type_id":"4","last_reported":1717708114,"current_range_meters":6400,"station_id":"ce4bh692rcd13ifvqea0","pricing_plan_id":"cebpf4jnsgd1na2vs0mg"},{"bike_id":"c45d49f3-19c5-4283-bab3-e23652994085","system_id":"levelo_inurba_marseille","lat":43.29259,"lon":5.38436,"is_reserved":false,"is_disabled":false,"rental_uris":{"android":"levelo://app?vid=c45d49f3-19c5-4283-bab3-e23652994085","ios":"levelo://app?vid=c45d49f3-19c5-4283-bab3-e23652994085"},"vehicle_type_id":"4","last_reported":1717708114,"current_range_meters":0,"station_id":"ce4bh692rcd13ifvqea0","pricing_plan_id":"cebpf4jnsgd1na2vs0mg"},{"bike_id":"87bb2ef5-18b2-49f3-b961-ce1e0de8d65f","system_id":"levelo_inurba_marseille","lat":43.29258,"lon":5.38435,"is_reserved":false,"is_disabled":false,"rental_uris":{"android":"levelo://app?vid=87bb2ef5-18b2-49f3-b961-ce1e0de8d65f","ios":"levelo://app?vid=87bb2ef5-18b2-49f3-b961-ce1e0de8d65f"},"vehicle_type_id":"4","last_reported":1717708114,"current_range_meters":5600,"station_id":"ce4bh692rcd13ifvqea0","pricing_plan_id":"cebpf4jnsgd1na2vs0mg"},{"bike_id":"d32b8c73-4675-4a73-9702-2d53d2b51918","system_id":"levelo_inurba_marseille","lat":43.29258,"lon":5.38437,"is_reserved":false,"is_disabled":false,"rental_uris":{"android":"levelo://app?vid=d32b8c73-4675-4a73-9702-2d53d2b51918","ios":"levelo://app?vid=d32b8c73-4675-4a73-9702-2d53d2b51918"},"vehicle_type_id":"4","last_reported":1717708114,"current_range_meters":0,"station_id":"ce4bh692rcd13ifvqea0","pricing_plan_id":"cebpf4jnsgd1na2vs0mg"},{"bike_id":"c1fba98c-b807-483c-9482-bc7b49605096","system_id":"levelo_inurba_marseille","lat":43.292642,"lon":5.384254,"is_reserved":false,"is_disabled":false,"rental_uris":{"android":"levelo://app?vid=c1fba98c-b807-483c-9482-bc7b49605096","ios":"levelo://app?vid=c1fba98c-b807-483c-9482-bc7b49605096"},"vehicle_type_id":"4","last_reported":1717708114,"current_range_meters":9200,"station_id":"ce4bh692rcd13ifvqea0","pricing_plan_id":"cebpf4jnsgd1na2vs0mg"},{"bike_id":"6bde3a53-f523-416d-a706-27914f613881","system_id":"levelo_inurba_marseille","lat":43.29264,"lon":5.38452,"is_reserved":false,"is_disabled":false,"rental_uris":{"android":"levelo://app?vid=6bde3a53-f523-416d-a706-27914f613881","ios":"levelo://app?vid=6bde3a53-f523-416d-a706-27914f613881"},"vehicle_type_id":"4","last_reported":1717708114,"current_range_meters":31200,"station_id":"ce4bh692rcd13ifvqea0","pricing_plan_id":"cebpf4jnsgd1na2vs0mg"},{"bike_id":"1da1ab94-a513-44a1-af9c-bf0147024a10","system_id":"levelo_inurba_marseille","lat":43.29262,"lon":5.38448,"is_reserved":false,"is_disabled":false,"rental_uris":{"android":"levelo://app?vid=1da1ab94-a513-44a1-af9c-bf0147024a10","ios":"levelo://app?vid=1da1ab94-a513-44a1-af9c-bf0147024a10"},"vehicle_type_id":"4","last_reported":1717708114,"current_range_meters":10800,"station_id":"ce4bh692rcd13ifvqea0","pricing_plan_id":"cebpf4jnsgd1na2vs0mg"},{"bike_id":"b187cf3e-f11a-400a-9026-4c0df612faac","system_id":"levelo_inurba_marseille","lat":43.29262,"lon":5.38448,"is_reserved":false,"is_disabled":false,"rental_uris":{"android":"levelo://app?vid=b187cf3e-f11a-400a-9026-4c0df612faac","ios":"levelo://app?vid=b187cf3e-f11a-400a-9026-4c0df612faac"},"vehicle_type_id":"4","last_reported":1717708114,"current_range_meters":14800,"station_id":"ce4bh692rcd13ifvqea0","pricing_plan_id":"cebpf4jnsgd1na2vs0mg"},{"bike_id":"0b901416-e5a6-45ca-88ea-8e849be12ecf","system_id":"levelo_inurba_marseille","lat":43.292642,"lon":5.384254,"is_reserved":false,"is_disabled":false,"rental_uris":{"android":"levelo://app?vid=0b901416-e5a6-45ca-88ea-8e849be12ecf","ios":"levelo://app?vid=0b901416-e5a6-45ca-88ea-8e849be12ecf"},"vehicle_type_id":"4","last_reported":1717708114,"current_range_meters":20800,"station_id":"ce4bh692rcd13ifvqea0","pricing_plan_id":"cebpf4jnsgd1na2vs0mg"},{"bike_id":"fd31f46a-884c-4465-ba4e-1a5b11d3f146","system_id":"levelo_inurba_marseille","lat":43.30305,"lon":5.39687,"is_reserved":false,"is_disabled":false,"rental_uris":{"android":"levelo://app?vid=fd31f46a-884c-4465-ba4e-1a5b11d3f146","ios":"levelo://app?vid=fd31f46a-884c-4465-ba4e-1a5b11d3f146"},"vehicle_type_id":"4","last_reported":1717708114,"current_range_meters":15200,"station_id":"","pricing_plan_id":"cebpf4jnsgd1na2vs0mg"},{"bike_id":"9bfc5555-c8bd-40c1-b95d-227c8d60d4fb","system_id":"levelo_inurba_marseille","lat":43.304274,"lon":5.397513,"is_reserved":false,"is_disabled":false,"rental_uris":{"android":"levelo://app?vid=9bfc5555-c8bd-40c1-b95d-227c8d60d4fb","ios":"levelo://app?vid=9bfc5555-c8bd-40c1-b95d-227c8d60d4fb"},"vehicle_type_id":"4","last_reported":1717708114,"current_range_meters":26000,"station_id":"ce4bh092rcd13ifvqd20","pricing_plan_id":"cebpf4jnsgd1na2vs0mg"},{"bike_id":"d3653141-e74a-41d5-bdcb-effadd708279","system_id":"levelo_inurba_marseille","lat":43.29255,"lon":5.38438,"is_reserved":false,"is_disabled":false,"rental_uris":{"android":"levelo://app?vid=d3653141-e74a-41d5-bdcb-effadd708279","ios":"levelo://app?vid=d3653141-e74a-41d5-bdcb-effadd708279"},"vehicle_type_id":"4","last_reported":1717708114,"current_range_meters":4000,"station_id":"ce4bh692rcd13ifvqea0","pricing_plan_id":"cebpf4jnsgd1na2vs0mg"},{"bike_id":"fff8da3a-c449-4420-b2ea-fd0df92f96d0","system_id":"levelo_inurba_marseille","lat":43.304274,"lon":5.397513,"is_reserved":false,"is_disabled":false,"rental_uris":{"android":"levelo://app?vid=fff8da3a-c449-4420-b2ea-fd0df92f96d0","ios":"levelo://app?vid=fff8da3a-c449-4420-b2ea-fd0df92f96d0"},"vehicle_type_id":"4","last_reported":1717708114,"current_range_meters":14800,"station_id":"ce4bh092rcd13ifvqd20","pricing_plan_id":"cebpf4jnsgd1na2vs0mg"},{"bike_id":"b382ed6d-3cfc-4c74-86c7-68ce08f6fd97","system_id":"levelo_inurba_marseille","lat":43.292567,"lon":5.38449,"is_reserved":false,"is_disabled":false,"rental_uris":{"android":"levelo://app?vid=b382ed6d-3cfc-4c74-86c7-68ce08f6fd97","ios":"levelo://app?vid=b382ed6d-3cfc-4c74-86c7-68ce08f6fd97"},"vehicle_type_id":"4","last_reported":1717708114,"current_range_meters":2000,"station_id":"ce4bh692rcd13ifvqea0","pricing_plan_id":"cebpf4jnsgd1na2vs0mg"},{"bike_id":"a25177b5-111a-4db9-9e96-8c8cd831c8aa","system_id":"levelo_inurba_marseille","lat":43.290103,"lon":5.356114,"is_reserved":false,"is_disabled":false,"rental_uris":{"android":"levelo://app?vid=a25177b5-111a-4db9-9e96-8c8cd831c8aa","ios":"levelo://app?vid=a25177b5-111a-4db9-9e96-8c8cd831c8aa"},"vehicle_type_id":"4","last_reported":1717708114,"current_range_meters":0,"station_id":"ce4bhb92rcd13ifvqen0","pricing_plan_id":"cebpf4jnsgd1na2vs0mg"},{"bike_id":"6eb49d47-3ce3-4fb7-97e6-7c69a314346d","system_id":"levelo_inurba_marseille","lat":43.29249,"lon":5.38446,"is_reserved":false,"is_disabled":false,"rental_uris":{"android":"levelo://app?vid=6eb49d47-3ce3-4fb7-97e6-7c69a314346d","ios":"levelo://app?vid=6eb49d47-3ce3-4fb7-97e6-7c69a314346d"},"vehicle_type_id":"4","last_reported":1717708114,"current_range_meters":8800,"station_id":"ce4bh692rcd13ifvqea0","pricing_plan_id":"cebpf4jnsgd1na2vs0mg"},{"bike_id":"72ad3d43-d207-4b0a-bc18-36e5bc98585a","system_id":"levelo_inurba_marseille","lat":43.290103,"lon":5.356114,"is_reserved":false,"is_disabled":false,"rental_uris":{"android":"levelo://app?vid=72ad3d43-d207-4b0a-bc18-36e5bc98585a","ios":"levelo://app?vid=72ad3d43-d207-4b0a-bc18-36e5bc98585a"},"vehicle_type_id":"4","last_reported":1717708114,"current_range_meters":20000,"station_id":"ce4bhb92rcd13ifvqen0","pricing_plan_id":"cebpf4jnsgd1na2vs0mg"},{"bike_id":"f29865db-d7f5-48b2-b32f-d1ea1b473fe2","system_id":"levelo_inurba_marseille","lat":43.284538,"lon":5.358657,"is_reserved":false,"is_disabled":false,"rental_uris":{"android":"levelo://app?vid=f29865db-d7f5-48b2-b32f-d1ea1b473fe2","ios":"levelo://app?vid=f29865db-d7f5-48b2-b32f-d1ea1b473fe2"},"vehicle_type_id":"4","last_reported":1717708114,"current_range_meters":14000,"station_id":"ce4bhah2rcd13ifvqei0","pricing_plan_id":"cebpf4jnsgd1na2vs0mg"},{"bike_id":"b497b087-f78d-49f9-9101-4c4ea481de04","system_id":"levelo_inurba_marseille","lat":43.295169,"lon":5.390426,"is_reserved":false,"is_disabled":false,"rental_uris":{"android":"levelo://app?vid=b497b087-f78d-49f9-9101-4c4ea481de04","ios":"levelo://app?vid=b497b087-f78d-49f9-9101-4c4ea481de04"},"vehicle_type_id":"4","last_reported":1717708114,"current_range_meters":18800,"station_id":"ce4bh3p2rcd13ifvqdp0","pricing_plan_id":"cebpf4jnsgd1na2vs0mg"},{"bike_id":"daeeaf0e-8fbf-4e67-afbd-27038f54b19b","system_id":"levelo_inurba_marseille","lat":43.29792,"lon":5.39339,"is_reserved":false,"is_disabled":false,"rental_uris":{"android":"levelo://app?vid=daeeaf0e-8fbf-4e67-afbd-27038f54b19b","ios":"levelo://app?vid=daeeaf0e-8fbf-4e67-afbd-27038f54b19b"},"vehicle_type_id":"4","last_reported":1717708114,"current_range_meters":28400,"station_id":"chh1huq6cuj3fo74tm60","pricing_plan_id":"cebpf4jnsgd1na2vs0mg"},{"bike_id":"742c4861-879e-4b1c-add5-4ba6c5e3445a","system_id":"levelo_inurba_marseille","lat":43.28994,"lon":5.3786,"is_reserved":false,"is_disabled":false,"rental_uris":{"android":"levelo://app?vid=742c4861-879e-4b1c-add5-4ba6c5e3445a","ios":"levelo://app?vid=742c4861-879e-4b1c-add5-4ba6c5e3445a"},"vehicle_type_id":"4","last_reported":1717708114,"current_range_meters":0,"station_id":"ce4bh9p2rcd13ifvqed0","pricing_plan_id":"cebpf4jnsgd1na2vs0mg"},{"bike_id":"627c0445-0bcd-4237-bac0-c8126f71a1c1","system_id":"levelo_inurba_marseille","lat":43.297815,"lon":5.393548,"is_reserved":false,"is_disabled":false,"rental_uris":{"android":"levelo://app?vid=627c0445-0bcd-4237-bac0-c8126f71a1c1","ios":"levelo://app?vid=627c0445-0bcd-4237-bac0-c8126f71a1c1"},"vehicle_type_id":"4","last_reported":1717708114,"current_range_meters":30400,"station_id":"chh1huq6cuj3fo74tm60","pricing_plan_id":"cebpf4jnsgd1na2vs0mg"},{"bike_id":"1790e7d9-ef8b-46a9-8344-c937b8c53e1d","system_id":"levelo_inurba_marseille","lat":43.297815,"lon":5.393548,"is_reserved":false,"is_disabled":false,"rental_uris":{"android":"levelo://app?vid=1790e7d9-ef8b-46a9-8344-c937b8c53e1d","ios":"levelo://app?vid=1790e7d9-ef8b-46a9-8344-c937b8c53e1d"},"vehicle_type_id":"4","last_reported":1717708114,"current_range_meters":26000,"station_id":"chh1huq6cuj3fo74tm60","pricing_plan_id":"cebpf4jnsgd1na2vs0mg"},{"bike_id":"11408865-2d3c-40fc-baab-ce037e1f9df5","system_id":"levelo_inurba_marseille","lat":43.330442,"lon":5.389148,"is_reserved":false,"is_disabled":false,"rental_uris":{"android":"levelo://app?vid=11408865-2d3c-40fc-baab-ce037e1f9df5","ios":"levelo://app?vid=11408865-2d3c-40fc-baab-ce037e1f9df5"},"vehicle_type_id":"4","last_reported":1717708114,"current_range_meters":18400,"station_id":"ce4bhr92rcd13ifvqhrg","pricing_plan_id":"cebpf4jnsgd1na2vs0mg"},{"bike_id":"2abb25e8-62bf-4ed3-b69c-4c38a92ae870","system_id":"levelo_inurba_marseille","lat":43.295169,"lon":5.390426,"is_reserved":false,"is_disabled":false,"rental_uris":{"android":"levelo://app?vid=2abb25e8-62bf-4ed3-b69c-4c38a92ae870","ios":"levelo://app?vid=2abb25e8-62bf-4ed3-b69c-4c38a92ae870"},"vehicle_type_id":"4","last_reported":1717708114,"current_range_meters":28000,"station_id":"ce4bh3p2rcd13ifvqdp0","pricing_plan_id":"cebpf4jnsgd1na2vs0mg"},{"bike_id":"aebf64da-c2c5-4a91-90fd-3a080c8a4e15","system_id":"levelo_inurba_marseille","lat":43.29776,"lon":5.39341,"is_reserved":false,"is_disabled":false,"rental_uris":{"android":"levelo://app?vid=aebf64da-c2c5-4a91-90fd-3a080c8a4e15","ios":"levelo://app?vid=aebf64da-c2c5-4a91-90fd-3a080c8a4e15"},"vehicle_type_id":"4","last_reported":1717708114,"current_range_meters":20000,"station_id":"chh1huq6cuj3fo74tm60","pricing_plan_id":"cebpf4jnsgd1na2vs0mg"},{"bike_id":"89c1da97-12fb-4eb3-898a-a6a1215dbdb8","system_id":"levelo_inurba_marseille","lat":43.33021,"lon":5.390393,"is_reserved":false,"is_disabled":false,"rental_uris":{"android":"levelo://app?vid=89c1da97-12fb-4eb3-898a-a6a1215dbdb8","ios":"levelo://app?vid=89c1da97-12fb-4eb3-898a-a6a1215dbdb8"},"vehicle_type_id":"4","last_reported":1717708114,"current_range_meters":0,"station_id":"ce4bhr92rcd13ifvqhrg","pricing_plan_id":"cebpf4jnsgd1na2vs0mg"},{"bike_id":"5f29331c-d6a3-4c97-a14f-f7355faa8d03","system_id":"levelo_inurba_marseille","lat":43.330442,"lon":5.389148,"is_reserved":false,"is_disabled":false,"rental_uris":{"android":"levelo://app?vid=5f29331c-d6a3-4c97-a14f-f7355faa8d03","ios":"levelo://app?vid=5f29331c-d6a3-4c97-a14f-f7355faa8d03"},"vehicle_type_id":"4","last_reported":1717708114,"current_range_meters":30800,"station_id":"ce4bhr92rcd13ifvqhrg","pricing_plan_id":"cebpf4jnsgd1na2vs0mg"},{"bike_id":"d5d6ef5b-09bd-45ae-840a-b8dfa2f8c500","system_id":"levelo_inurba_marseille","lat":43.295169,"lon":5.390426,"is_reserved":false,"is_disabled":false,"rental_uris":{"android":"levelo://app?vid=d5d6ef5b-09bd-45ae-840a-b8dfa2f8c500","ios":"levelo://app?vid=d5d6ef5b-09bd-45ae-840a-b8dfa2f8c500"},