{"last_updated":1745662149,"ttl":60,"version":"2.2","data":{"bikes":[{"bike_id":"d1ff7e34-d25d-4063-9648-2bd4db47424f","system_id":"levelo_inurba_marseille","lat":43.32368,"lon":5.38885,"is_reserved":false,"is_disabled":false,"rental_uris":{"android":"levelo://app?vid=d1ff7e34-d25d-4063-9648-2bd4db47424f","ios":"levelo://app?vid=d1ff7e34-d25d-4063-9648-2bd4db47424f"},"vehicle_type_id":"4","last_reported":1745662149,"current_range_meters":2800,"station_id":"ce4bhqp2rcd13ifvqhog","pricing_plan_id":"cebpf4jnsgd1na2vs0mg"},{"bike_id":"46374c49-3adc-4c5a-8966-e00f056c0d57","system_id":"levelo_inurba_marseille","lat":43.27846,"lon":5.35442,"is_reserved":false,"is_disabled":false,"rental_uris":{"android":"levelo://app?vid=46374c49-3adc-4c5a-8966-e00f056c0d57","ios":"levelo://app?vid=46374c49-3adc-4c5a-8966-e00f056c0d57"},"vehicle_type_id":"4","last_reported":1745662149,"current_range_meters":3200,"station_id":"","pricing_plan_id":"cebpf4jnsgd1na2vs0mg"},{"bike_id":"3767ba54-0ee2-464a-8805-d28bad95405b","system_id":"levelo_inurba_marseille","lat":43.2595,"lon":5.37538,"is_reserved":false,"is_disabled":false,"rental_uris":{"android":"levelo://app?vid=3767ba54-0ee2-464a-8805-d28bad95405b","ios":"levelo://app?vid=3767ba54-0ee2-464a-8805-d28bad95405b"},"vehicle_type_id":"4","last_reported":1745662149,"current_range_meters":3200,"station_id":"","pricing_plan_id":"cebpf4jnsgd1na2vs0mg"},{"bike_id":"60fdba7e-e2e5-4e89-a181-b3d0cbe05159","system_id":"levelo_inurba_marseille","lat":43.30413,"lon":5.41282,"is_reserved":false,"is_disabled":false,"rental_uris":{"android":"levelo://app?vid=60fdba7e-e2e5-4e89-a181-b3d0cbe05159","ios":"levelo://app?vid=60fdba7e-e2e5-4e89-a181-b3d0cbe05159"},"vehicle_type_id":"4","last_reported":1745662149,"current_range_meters":3200,"station_id":"ce4bhop2rcd13ifvqh8g","pricing_plan_id":"cebpf4jnsgd1na2vs0mg"},{"bike_id":"ecdd0875-7d56-4cd2-a14a-671f78e26c97","system_id":"levelo_inurba_marseille","lat":43.23059,"lon":5.35509,"is_reserved":false,"is_disabled":true,"rental_uris":{"android":"levelo://app?vid=ecdd0875-7d56-4cd2-a14a-671f78e26c97","ios":"levelo://app?vid=ecdd0875-7d56-4cd2-a14a-671f78e26c97"},"vehicle_type_id":"4","last_reported":1745662149,"current_range_meters":3600,"station_id":"cpo3342slgdg3j2ifvpg","pricing_plan_id":"cebpf4jnsgd1na2vs0mg"},{"bike_id":"4fe5eada-8da5-43b9-869a-a6d0d8129875","system_id":"levelo_inurba_marseille","lat":43.27367,"lon":5.36244,"is_reserved":false,"is_disabled":false,"rental_uris":{"android":"levelo://app?vid=4fe5eada-8da5-43b9-869a-a6d0d8129875","ios":"levelo://app?vid=4fe5eada-8da5-43b9-869a-a6d0d8129875"},"vehicle_type_id":"4","last_reported":1745662149,"current_range_meters":3600,"station_id":"ce4bhbh2rcd13ifvqeo0","pricing_plan_id":"cebpf4jnsgd1na2vs0mg"},{"bike_id":"e615b763-b9b6-4cb5-a1c0-003a03d00de1","system_id":"levelo_inurba_marseille","lat":43.298,"lon":5.40912,"is_reserved":false,"is_disabled":false,"rental_uris":{"android":"levelo://app?vid=e615b763-b9b6-4cb5-a1c0-003a03d00de1","ios":"levelo://app?vid=e615b763-b9b6-4cb5-a1c0-003a03d00de1"},"vehicle_type_id":"4","last_reported":1745662149,"current_range_meters":3600,"station_id":"","pricing_plan_id":"cebpf4jnsgd1na2vs0mg"},{"bike_id":"9d2e93b0-556c-47c6-8ba2-e87be281335f","system_id":"levelo_inurba_marseille","lat":43.21668,"lon":5.34649,"is_reserved":false,"is_disabled":false,"rental_uris":{"android":"levelo://app?vid=9d2e93b0-556c-47c6-8ba2-e87be281335f","ios":"levelo://app?vid=9d2e93b0-556c-47c6-8ba2-e87be281335f"},"vehicle_type_id":"4","last_reported":1745662149,"current_range_meters":3600,"station_id":"","pricing_plan_id":"cebpf4jnsgd1na2vs0mg"},{"bike_id":"f8546583-4b1f-461d-8f16-996c31dd0471","system_id":"levelo_inurba_marseille","lat":43.21194,"lon":5.35058,"is_reserved":false,"is_disabled":false,"rental_uris":{"android":"levelo://app?vid=f8546583-4b1f-461d-8f16-996c31dd0471","ios":"levelo://app?vid=f8546583-4b1f-461d-8f16-996c31dd0471"},"vehicle_type_id":"4","last_reported":1745662149,"current_range_meters":4000,"station_id":"st_cvj6sg6p6f1abm77japg","pricing_plan_id":"cebpf4jnsgd1na2vs0mg"},{"bike_id":"b1c1670b-94f0-4bbd-930a-31c7a3a89ef9","system_id":"levelo_inurba_marseille","lat":43.29535,"lon":5.38556,"is_reserved":false,"is_disabled":false,"rental_uris":{"android":"levelo://app?vid=b1c1670b-94f0-4bbd-930a-31c7a3a89ef9","ios":"levelo://app?vid=b1c1670b-94f0-4bbd-930a-31c7a3a89ef9"},"vehicle_type_id":"4","last_reported":1745662149,"current_range_meters":4000,"station_id":"ce4bgih2rcd13ifvqba0","pricing_plan_id":"cebpf4jnsgd1na2vs0mg"},{"bike_id":"f1a9f5db-d774-4f36-a0be-69b289d14fd1","system_id":"levelo_inurba_marseille","lat":43.21201,"lon":5.35072,"is_reserved":false,"is_disabled":false,"rental_uris":{"android":"levelo://app?vid=f1a9f5db-d774-4f36-a0be-69b289d14fd1","ios":"levelo://app?vid=f1a9f5db-d774-4f36-a0be-69b289d14fd1"},"vehicle_type_id":"4","last_reported":1745662149,"current_range_meters":4400,"station_id":"st_cvj6sg6p6f1abm77japg","pricing_plan_id":"cebpf4jnsgd1na2vs0mg"},{"bike_id":"49362cd8-0cc1-428e-bd69-89f1745293ce","system_id":"levelo_inurba_marseille","lat":43.25143,"lon":5.40312,"is_reserved":false,"is_disabled":false,"rental_uris":{"android":"levelo://app?vid=49362cd8-0cc1-428e-bd69-89f1745293ce","ios":"levelo://app?vid=49362cd8-0cc1-428e-bd69-89f1745293ce"},"vehicle_type_id":"4","last_reported":1745662149,"current_range_meters":4800,"station_id":"ce4bhlh2rcd13ifvqgig","pricing_plan_id":"cebpf4jnsgd1na2vs0mg"},{"bike_id":"f50d806e-9e64-4bdf-889e-2e411727291d","system_id":"levelo_inurba_marseille","lat":43.251223,"lon":5.403248,"is_reserved":false,"is_disabled":false,"rental_uris":{"android":"levelo://app?vid=f50d806e-9e64-4bdf-889e-2e411727291d","ios":"levelo://app?vid=f50d806e-9e64-4bdf-889e-2e411727291d"},"vehicle_type_id":"4","last_reported":1745662149,"current_range_meters":5600,"station_id":"ce4bhlh2rcd13ifvqgig","pricing_plan_id":"cebpf4jnsgd1na2vs0mg"},{"bike_id":"7f14b422-b8c5-48e4-a81b-7bbee1c3a503","system_id":"levelo_inurba_marseille","lat":43.2396,"lon":5.3663,"is_reserved":false,"is_disabled":false,"rental_uris":{"android":"levelo://app?vid=7f14b422-b8c5-48e4-a81b-7bbee1c3a503","ios":"levelo://app?vid=7f14b422-b8c5-48e4-a81b-7bbee1c3a503"},"vehicle_type_id":"4","last_reported":1745662149,"current_range_meters":5600,"station_id":"ce4bhi12rcd13ifvqfp0","pricing_plan_id":"cebpf4jnsgd1na2vs0mg"},{"bike_id":"79d247de-4f4d-4ea7-aa22-126a418beb2d","system_id":"levelo_inurba_marseille","lat":43.28155,"lon":5.42653,"is_reserved":false,"is_disabled":false,"rental_uris":{"android":"levelo://app?vid=79d247de-4f4d-4ea7-aa22-126a418beb2d","ios":"levelo://app?vid=79d247de-4f4d-4ea7-aa22-126a418beb2d"},"vehicle_type_id":"4","last_reported":1745662149,"current_range_meters":4800,"station_id":"ce4bhnh2rcd13ifvqgug","pricing_plan_id":"cebpf4jnsgd1na2vs0mg"},{"bike_id":"e9ab448f-ff65-4aac-a5a6-febcb20f7369","system_id":"levelo_inurba_marseille","lat":43.27065,"lon":5.42283,"is_reserved":false,"is_disabled":false,"rental_uris":{"android":"levelo://app?vid=e9ab448f-ff65-4aac-a5a6-febcb20f7369","ios":"levelo://app?vid=e9ab448f-ff65-4aac-a5a6-febcb20f7369"},"vehicle_type_id":"4","last_reported":1745662149,"current_range_meters":5600,"station_id":"ce4bhk92rcd13ifvqgb0","pricing_plan_id":"cebpf4jnsgd1na2vs0mg"},{"bike_id":"62561881-c4d3-4a05-930b-c4ea5f9798f4","system_id":"levelo_inurba_marseille","lat":43.243885,"lon":5.370565,"is_reserved":false,"is_disabled":false,"rental_uris":{"android":"levelo://app?vid=62561881-c4d3-4a05-930b-c4ea5f9798f4","ios":"levelo://app?vid=62561881-c4d3-4a05-930b-c4ea5f9798f4"},"vehicle_type_id":"4","last_reported":1745662149,"current_range_meters":5600,"station_id":"ce4bhhh2rcd13ifvqfk0","pricing_plan_id":"cebpf4jnsgd1na2vs0mg"},{"bike_id":"1746265e-27ad-4913-8a06-b6dc5372d844","system_id":"levelo_inurba_marseille","lat":43.26,"lon":5.3749,"is_reserved":false,"is_disabled":false,"rental_uris":{"android":"levelo://app?vid=1746265e-27ad-4913-8a06-b6dc5372d844","ios":"levelo://app?vid=1746265e-27ad-4913-8a06-b6dc5372d844"},"vehicle_type_id":"4","last_reported":1745662149,"current_range_meters":6400,"station_id":"","pricing_plan_id":"cebpf4jnsgd1na2vs0mg"},{"bike_id":"f5aa8802-0e0e-447a-b76e-1dc33ca4fa73","system_id":"levelo_inurba_marseille","lat":43.26676,"lon":5.38275,"is_reserved":false,"is_disabled":false,"rental_uris":{"android":"levelo://app?vid=f5aa8802-0e0e-447a-b76e-1dc33ca4fa73","ios":"levelo://app?vid=f5aa8802-0e0e-447a-b76e-1dc33ca4fa73"},"vehicle_type_id":"4","last_reported":1745662149,"current_range_meters":6400,"station_id":"ce4bhg92rcd13ifvqf90","pricing_plan_id":"cebpf4jnsgd1na2vs0mg"},{"bike_id":"a84dda67-2771-448f-9f2c-69a47019d774","system_id":"levelo_inurba_marseille","lat":43.33616,"lon":5.41043,"is_reserved":false,"is_disabled":true,"rental_uris":{"android":"levelo://app?vid=a84dda67-2771-448f-9f2c-69a47019d774","ios":"levelo://app?vid=a84dda67-2771-448f-9f2c-69a47019d774"},"vehicle_type_id":"4","last_reported":1745662149,"current_range_meters":6400,"station_id":"ce4bhqh2rcd13ifvqhmg","pricing_plan_id":"cebpf4jnsgd1na2vs0mg"},{"bike_id":"af22e109-08fb-48e4-8221-27cd4aef96ee","system_id":"levelo_inurba_marseille","lat":43.21194,"lon":5.35069,"is_reserved":false,"is_disabled":false,"rental_uris":{"android":"levelo://app?vid=af22e109-08fb-48e4-8221-27cd4aef96ee","ios":"levelo://app?vid=af22e109-08fb-48e4-8221-27cd4aef96ee"},"vehicle_type_id":"4","last_reported":1745662149,"current_range_meters":6400,"station_id":"st_cvj6sg6p6f1abm77japg","pricing_plan_id":"cebpf4jnsgd1na2vs0mg"},{"bike_id":"1ce85376-2451-48ad-a613-13496958e69b","system_id":"levelo_inurba_marseille","lat":43.295734,"lon":5.375047,"is_reserved":false,"is_disabled":false,"rental_uris":{"android":"levelo://app?vid=1ce85376-2451-48ad-a613-13496958e69b","ios":"levelo://app?vid=1ce85376-2451-48ad-a613-13496958e69b"},"vehicle_type_id":"4","last_reported":1745662149,"current_range_meters":6800,"station_id":"ce4bha12rcd13ifvqee0","pricing_plan_id":"cebpf4jnsgd1na2vs0mg"},{"bike_id":"d62fb115-7ac9-475a-893e-d528d1ceb925","system_id":"levelo_inurba_marseille","lat":43.30138,"lon":5.37411,"is_reserved":false,"is_disabled":false,"rental_uris":{"android":"levelo://app?vid=d62fb115-7ac9-475a-893e-d528d1ceb925","ios":"levelo://app?vid=d62fb115-7ac9-475a-893e-d528d1ceb925"},"vehicle_type_id":"4","last_reported":1745662149,"current_range_meters":6800,"station_id":"ce4bgs92rcd13ifvqcc0","pricing_plan_id":"cebpf4jnsgd1na2vs0mg"},{"bike_id":"4751c42c-df70-44f1-921f-311585e43c28","system_id":"levelo_inurba_marseille","lat":43.28056,"lon":5.35634,"is_reserved":false,"is_disabled":false,"rental_uris":{"android":"levelo://app?vid=4751c42c-df70-44f1-921f-311585e43c28","ios":"levelo://app?vid=4751c42c-df70-44f1-921f-311585e43c28"},"vehicle_type_id":"4","last_reported":1745662149,"current_range_meters":6800,"station_id":"","pricing_plan_id":"cebpf4jnsgd1na2vs0mg"},{"bike_id":"0d60ef48-ddb9-4f7c-911b-885bc055da8c","system_id":"levelo_inurba_marseille","lat":43.28916,"lon":5.36396,"is_reserved":false,"is_disabled":false,"rental_uris":{"android":"levelo://app?vid=0d60ef48-ddb9-4f7c-911b-885bc055da8c","ios":"levelo://app?vid=0d60ef48-ddb9-4f7c-911b-885bc055da8c"},"vehicle_type_id":"4","last_reported":1745662149,"current_range_meters":6800,"station_id":"ce4bhc92rcd13ifvqetg","pricing_plan_id":"cebpf4jnsgd1na2vs0mg"},{"bike_id":"2c2e5bcc-b9ff-41a6-be9a-7733528f3bfa","system_id":"levelo_inurba_marseille","lat":43.27502,"lon":5.42435,"is_reserved":false,"is_disabled":false,"rental_uris":{"android":"levelo://app?vid=2c2e5bcc-b9ff-41a6-be9a-7733528f3bfa","ios":"levelo://app?vid=2c2e5bcc-b9ff-41a6-be9a-7733528f3bfa"},"vehicle_type_id":"4","last_reported":1745662149,"current_range_meters":7200,"station_id":"ce4bhn92rcd13ifvqgrg","pricing_plan_id":"cebpf4jnsgd1na2vs0mg"},{"bike_id":"436867c6-8789-4109-99de-9d973c12ad1c","system_id":"levelo_inurba_marseille","lat":43.27208,"lon":5.39178,"is_reserved":false,"is_disabled":false,"rental_uris":{"android":"levelo://app?vid=436867c6-8789-4109-99de-9d973c12ad1c","ios":"levelo://app?vid=436867c6-8789-4109-99de-9d973c12ad1c"},"vehicle_type_id":"4","last_reported":1745662149,"current_range_meters":8000,"station_id":"ce4bhhp2rcd13ifvqfm0","pricing_plan_id":"cebpf4jnsgd1na2vs0mg"},{"bike_id":"e8bbf66e-8b2a-4c18-b56f-b383bc297541","system_id":"levelo_inurba_marseille","lat":43.27955,"lon":5.41025,"is_reserved":false,"is_disabled":false,"rental_uris":{"android":"levelo://app?vid=e8bbf66e-8b2a-4c18-b56f-b383bc297541","ios":"levelo://app?vid=e8bbf66e-8b2a-4c18-b56f-b383bc297541"},"vehicle_type_id":"4","last_reported":1745662149,"current_range_meters":8000,"station_id":"ce4bhnp2rcd13ifvqh0g","pricing_plan_id":"cebpf4jnsgd1na2vs0mg"},{"bike_id":"4d8eaa42-48ac-4ccd-8d89-0a9c02df0357","system_id":"levelo_inurba_marseille","lat":43.29421,"lon":5.38623,"is_reserved":false,"is_disabled":false,"rental_uris":{"android":"levelo://app?vid=4d8eaa42-48ac-4ccd-8d89-0a9c02df0357","ios":"levelo://app?vid=4d8eaa42-48ac-4ccd-8d89-0a9c02df0357"},"vehicle_type_id":"4","last_reported":1745662149,"current_range_meters":8000,"station_id":"ce4bh2h2rcd13ifvqdh0","pricing_plan_id":"cebpf4jnsgd1na2vs0mg"},{"bike_id":"422b5989-c8b6-43aa-b2b9-3bfeb2e1ddc0","system_id":"levelo_inurba_marseille","lat":43.24774,"lon":5.41203,"is_reserved":false,"is_disabled":false,"rental_uris":{"android":"levelo://app?vid=422b5989-c8b6-43aa-b2b9-3bfeb2e1ddc0","ios":"levelo://app?vid=422b5989-c8b6-43aa-b2b9-3bfeb2e1ddc0"},"vehicle_type_id":"4","last_reported":1745662149,"current_range_meters":8400,"station_id":"","pricing_plan_id":"cebpf4jnsgd1na2vs0mg"},{"bike_id":"a45396b4-6a30-4907-9c08-e415b6011144","system_id":"levelo_inurba_marseille","lat":43.24073,"lon":5.37762,"is_reserved":false,"is_disabled":false,"rental_uris":{"android":"levelo://app?vid=a45396b4-6a30-4907-9c08-e415b6011144","ios":"levelo://app?vid=a45396b4-6a30-4907-9c08-e415b6011144"},"vehicle_type_id":"4","last_reported":1745662149,"current_range_meters":8400,"station_id":"ce4bhnp2rcd13ifvqgvg","pricing_plan_id":"cebpf4jnsgd1na2vs0mg"},{"bike_id":"9c410178-c3bc-42bb-8dd3-0a040d943734","system_id":"levelo_inurba_marseille","lat":43.30592,"lon":5.39359,"is_reserved":false,"is_disabled":false,"rental_uris":{"android":"levelo://app?vid=9c410178-c3bc-42bb-8dd3-0a040d943734","ios":"levelo://app?vid=9c410178-c3bc-42bb-8dd3-0a040d943734"},"vehicle_type_id":"4","last_reported":1745662149,"current_range_meters":8400,"station_id":"ce4bh0p2rcd13ifvqd80","pricing_plan_id":"cebpf4jnsgd1na2vs0mg"},{"bike_id":"4036edec-5cdf-418e-baac-5dc506e226d9","system_id":"levelo_inurba_marseille","lat":43.28427,"lon":5.3499,"is_reserved":false,"is_disabled":false,"rental_uris":{"android":"levelo://app?vid=4036edec-5cdf-418e-baac-5dc506e226d9","ios":"levelo://app?vid=4036edec-5cdf-418e-baac-5dc506e226d9"},"vehicle_type_id":"4","last_reported":1745662149,"current_range_meters":8400,"station_id":"ce4bhbh2rcd13ifvqepg","pricing_plan_id":"cebpf4jnsgd1na2vs0mg"},{"bike_id":"4f944775-57ad-4dfe-887f-1080686cb12e","system_id":"levelo_inurba_marseille","lat":43.2938,"lon":5.37882,"is_reserved":false,"is_disabled":true,"rental_uris":{"android":"levelo://app?vid=4f944775-57ad-4dfe-887f-1080686cb12e","ios":"levelo://app?vid=4f944775-57ad-4dfe-887f-1080686cb12e"},"vehicle_type_id":"4","last_reported":1745662149,"current_range_meters":8400,"station_id":"ce4bgjh2rcd13ifvqbf0","pricing_plan_id":"cebpf4jnsgd1na2vs0mg"},{"bike_id":"18ae1d78-8d9e-4697-bc48-a39d36035c1d","system_id":"levelo_inurba_marseille","lat":43.2397,"lon":5.36617,"is_reserved":false,"is_disabled":false,"rental_uris":{"android":"levelo://app?vid=18ae1d78-8d9e-4697-bc48-a39d36035c1d","ios":"levelo://app?vid=18ae1d78-8d9e-4697-bc48-a39d36035c1d"},"vehicle_type_id":"4","last_reported":1745662149,"current_range_meters":8400,"station_id":"ce4bhi12rcd13ifvqfp0","pricing_plan_id":"cebpf4jnsgd1na2vs0mg"},{"bike_id":"f997f3a2-6ef7-4d7a-931e-8083cf2fa70c","system_id":"levelo_inurba_marseille","lat":43.26837,"lon":5.40215,"is_reserved":false,"is_disabled":false,"rental_uris":{"android":"levelo://app?vid=f997f3a2-6ef7-4d7a-931e-8083cf2fa70c","ios":"levelo://app?vid=f997f3a2-6ef7-4d7a-931e-8083cf2fa70c"},"vehicle_type_id":"4","last_reported":1745662149,"current_range_meters":8400,"station_id":"","pricing_plan_id":"cebpf4jnsgd1na2vs0mg"},{"bike_id":"51376682-930e-45ed-90e0-b53d931ddc33","system_id":"levelo_inurba_marseille","lat":43.27496,"lon":5.42447,"is_reserved":false,"is_disabled":false,"rental_uris":{"android":"levelo://app?vid=51376682-930e-45ed-90e0-b53d931ddc33","ios":"levelo://app?vid=51376682-930e-45ed-90e0-b53d931ddc33"},"vehicle_type_id":"4","last_reported":1745662149,"current_range_meters":8800,"station_id":"ce4bhn92rcd13ifvqgrg","pricing_plan_id":"cebpf4jnsgd1na2vs0mg"},{"bike_id":"2caabd85-5cc1-4ca7-a844-64b24181d23e","system_id":"levelo_inurba_marseille","lat":43.26568,"lon":5.39013,"is_reserved":false,"is_disabled":false,"rental_uris":{"android":"levelo://app?vid=2caabd85-5cc1-4ca7-a844-64b24181d23e","ios":"levelo://app?vid=2caabd85-5cc1-4ca7-a844-64b24181d23e"},"vehicle_type_id":"4","last_reported":1745662149,"current_range_meters":8800,"station_id":"ce4bhe12rcd13ifvqf30","pricing_plan_id":"cebpf4jnsgd1na2vs0mg"},{"bike_id":"6104de1b-83a6-4912-bfa1-49d35364e6af","system_id":"levelo_inurba_marseille","lat":43.23955,"lon":5.36637,"is_reserved":false,"is_disabled":false,"rental_uris":{"android":"levelo://app?vid=6104de1b-83a6-4912-bfa1-49d35364e6af","ios":"levelo://app?vid=6104de1b-83a6-4912-bfa1-49d35364e6af"},"vehicle_type_id":"4","last_reported":1745662149,"current_range_meters":9200,"station_id":"ce4bhi12rcd13ifvqfp0","pricing_plan_id":"cebpf4jnsgd1na2vs0mg"},{"bike_id":"2b074d0d-1596-4229-bf21-c1bbdd57bd0c","system_id":"levelo_inurba_marseille","lat":43.231448,"lon":5.43715,"is_reserved":false,"is_disabled":false,"rental_uris":{"android":"levelo://app?vid=2b074d0d-1596-4229-bf21-c1bbdd57bd0c","ios":"levelo://app?vid=2b074d0d-1596-4229-bf21-c1bbdd57bd0c"},"vehicle_type_id":"4","last_reported":1745662149,"current_range_meters":9200,"station_id":"ce4bhmp2rcd13ifvqgog","pricing_plan_id":"cebpf4jnsgd1na2vs0mg"},{"bike_id":"8ee8ddcf-b329-40ae-aad8-a703f60c6f36","system_id":"levelo_inurba_marseille","lat":43.27368,"lon":5.36263,"is_reserved":false,"is_disabled":false,"rental_uris":{"android":"levelo://app?vid=8ee8ddcf-b329-40ae-aad8-a703f60c6f36","ios":"levelo://app?vid=8ee8ddcf-b329-40ae-aad8-a703f60c6f36"},"vehicle_type_id":"4","last_reported":1745662149,"current_range_meters":9200,"station_id":"ce4bhbh2rcd13ifvqeo0","pricing_plan_id":"cebpf4jnsgd1na2vs0mg"},{"bike_id":"93ceafa2-9232-49f1-a316-a28bd7524269","system_id":"levelo_inurba_marseille","lat":43.29098,"lon":5.38117,"is_reserved":false,"is_disabled":false,"rental_uris":{"android":"levelo://app?vid=93ceafa2-9232-49f1-a316-a28bd7524269","ios":"levelo://app?vid=93ceafa2-9232-49f1-a316-a28bd7524269"},"vehicle_type_id":"4","last_reported":1745662149,"current_range_meters":9600,"station_id":"ce4bh512rcd13ifvqe2g","pricing_plan_id":"cebpf4jnsgd1na2vs0mg"},{"bike_id":"4c11ff0f-a579-4f78-9960-a443174b0bdd","system_id":"levelo_inurba_marseille","lat":43.21192,"lon":5.35065,"is_reserved":false,"is_disabled":false,"rental_uris":{"android":"levelo://app?vid=4c11ff0f-a579-4f78-9960-a443174b0bdd","ios":"levelo://app?vid=4c11ff0f-a579-4f78-9960-a443174b0bdd"},"vehicle_type_id":"4","last_reported":1745662149,"current_range_meters":9600,"station_id":"st_cvj6sg6p6f1abm77japg","pricing_plan_id":"cebpf4jnsgd1na2vs0mg"},{"bike_id":"1c34b467-aa8f-499c-8094-34a6b8d35e87","system_id":"levelo_inurba_marseille","lat":43.30143,"lon":5.38083,"is_reserved":false,"is_disabled":false,"rental_uris":{"android":"levelo://app?vid=1c34b467-aa8f-499c-8094-34a6b8d35e87","ios":"levelo://app?vid=1c34b467-aa8f-499c-8094-34a6b8d35e87"},"vehicle_type_id":"4","last_reported":1745662149,"current_range_meters":9600,"station_id":"ce4bgjp2rcd13ifvqbh0","pricing_plan_id":"cebpf4jnsgd1na2vs0mg"},{"bike_id":"34e973a3-63e7-4b9c-8f56-03b947e86936","system_id":"levelo_inurba_marseille","lat":43.241841,"lon":5.364588,"is_reserved":false,"is_disabled":false,"rental_uris":{"android":"levelo://app?vid=34e973a3-63e7-4b9c-8f56-03b947e86936","ios":"levelo://app?vid=34e973a3-63e7-4b9c-8f56-03b947e86936"},"vehicle_type_id":"4","last_reported":1745662149,"current_range_meters":10000,"station_id":"cpo36qri1sfpv3e86is0","pricing_plan_id":"cebpf4jnsgd1na2vs0mg"},{"bike_id":"474db17b-a53d-41ce-a5e5-e2507730de87","system_id":"levelo_inurba_marseille","lat":43.27921,"lon":5.39576,"is_reserved":false,"is_disabled":false,"rental_uris":{"android":"levelo://app?vid=474db17b-a53d-41ce-a5e5-e2507730de87","ios":"levelo://app?vid=474db17b-a53d-41ce-a5e5-e2507730de87"},"vehicle_type_id":"4","last_reported":1745662149,"current_range_meters":10000,"station_id":"ce4bhf92rcd13ifvqf40","pricing_plan_id":"cebpf4jnsgd1na2vs0mg"},{"bike_id":"df0b8811-c710-4d22-b90a-084596f0d513","system_id":"levelo_inurba_marseille","lat":43.29089,"lon":5.38145,"is_reserved":false,"is_disabled":false,"rental_uris":{"android":"levelo://app?vid=df0b8811-c710-4d22-b90a-084596f0d513","ios":"levelo://app?vid=df0b8811-c710-4d22-b90a-084596f0d513"},"vehicle_type_id":"4","last_reported":1745662149,"current_range_meters":10000,"station_id":"ce4bh512rcd13ifvqe2g","pricing_plan_id":"cebpf4jnsgd1na2vs0mg"},{"bike_id":"218c94c5-e028-4aa3-81d2-276afc924773","system_id":"levelo_inurba_marseille","lat":43.27372,"lon":5.36255,"is_reserved":false,"is_disabled":false,"rental_uris":{"android":"levelo://app?vid=218c94c5-e028-4aa3-81d2-276afc924773","ios":"levelo://app?vid=218c94c5-e028-4aa3-81d2-276afc924773"},"vehicle_type_id":"4","last_reported":1745662149,"current_range_meters":10000,"station_id":"ce4bhbh2rcd13ifvqeo0","pricing_plan_id":"cebpf4jnsgd1na2vs0mg"},{"bike_id":"72a2ecab-78ba-4933-8f0e-a1e7d9156f2b","system_id":"levelo_inurba_marseille","lat":43.21183,"lon":5.35073,"is_reserved":false,"is_disabled":false,"rental_uris":{"android":"levelo://app?vid=72a2ecab-78ba-4933-8f0e-a1e7d9156f2b","ios":"levelo://app?vid=72a2ecab-78ba-4933-8f0e-a1e7d9156f2b"},"vehicle_type_id":"4","last_reported":1745662149,"current_range_meters":10800,"station_id":"st_cvj6sg6p6f1abm77japg","pricing_plan_id":"cebpf4jnsgd1na2vs0mg"},{"bike_id":"e7f0edfb-1784-4296-b436-45f081824e97","system_id":"levelo_inurba_marseille","lat":43.23188,"lon":5.35565,"is_reserved":false,"is_disabled":false,"rental_uris":{"android":"levelo://app?vid=e7f0edfb-1784-4296-b436-45f081824e97","ios":"levelo://app?vid=e7f0edfb-1784-4296-b436-45f081824e97"},"vehicle_type_id":"4","last_reported":1745662149,"current_range_meters":10800,"station_id":"ce4bhu92rcd13ifvqi70","pricing_plan_id":"cebpf4jnsgd1na2vs0mg"},{"bike_id":"ee4c36cb-c492-4552-ba80-5494b966c738","system_id":"levelo_inurba_marseille","lat":43.24431,"lon":5.37013,"is_reserved":false,"is_disabled":false,"rental_uris":{"android":"levelo://app?vid=ee4c36cb-c492-4552-ba80-5494b966c738","ios":"levelo://app?vid=ee4c36cb-c492-4552-ba80-5494b966c738"},"vehicle_type_id":"4","last_reported":1745662149,"current_range_meters":10800,"station_id":"","pricing_plan_id":"cebpf4jnsgd1na2vs0mg"},{"bike_id":"350e2a1c-b656-4551-9cbc-c862dedef604","system_id":"levelo_inurba_marseille","lat":43.24071,"lon":5.37764,"is_reserved":false,"is_disabled":false,"rental_uris":{"android":"levelo://app?vid=350e2a1c-b656-4551-9cbc-c862dedef604","ios":"levelo://app?vid=350e2a1c-b656-4551-9cbc-c862dedef604"},"vehicle_type_id":"4","last_reported":1745662149,"current_range_meters":10800,"station_id":"ce4bhnp2rcd13ifvqgvg","pricing_plan_id":"cebpf4jnsgd1na2vs0mg"},{"bike_id":"caf6f827-1ffa-4068-bd89-83da064a94af","system_id":"levelo_inurba_marseille","lat":43.29225,"lon":5.36061,"is_reserved":false,"is_disabled":false,"rental_uris":{"android":"levelo://app?vid=caf6f827-1ffa-4068-bd89-83da064a94af","ios":"levelo://app?vid=caf6f827-1ffa-4068-bd89-83da064a94af"},"vehicle_type_id":"4","last_reported":1745662149,"current_range_meters":10800,"station_id":"ce4bhbh2rcd13ifvqeqg","pricing_plan_id":"cebpf4jnsgd1na2vs0mg"},{"bike_id":"f77a929f-13ce-4ad3-b37b-030e100178ba","system_id":"levelo_inurba_marseille","lat":43.25925,"lon":5.40874,"is_reserved":false,"is_disabled":false,"rental_uris":{"android":"levelo://app?vid=f77a929f-13ce-4ad3-b37b-030e100178ba","ios":"levelo://app?vid=f77a929f-13ce-4ad3-b37b-030e100178ba"},"vehicle_type_id":"4","last_reported":1745662149,"current_range_meters":10800,"station_id":"ce4bhm92rcd13ifvqglg","pricing_plan_id":"cebpf4jnsgd1na2vs0mg"},{"bike_id":"a3a027e0-1929-41a4-a1f8-fcf0a442dc00","system_id":"levelo_inurba_marseille","lat":43.2928,"lon":5.36844,"is_reserved":false,"is_disabled":false,"rental_uris":{"android":"levelo://app?vid=a3a027e0-1929-41a4-a1f8-fcf0a442dc00","ios":"levelo://app?vid=a3a027e0-1929-41a4-a1f8-fcf0a442dc00"},"vehicle_type_id":"4","last_reported":1745662149,"current_range_meters":10800,"station_id":"ce4bgkh2rcd13ifvqbk0","pricing_plan_id":"cebpf4jnsgd1na2vs0mg"},{"bike_id":"3fc005ee-b160-4f11-b2bd-07f706585277","system_id":"levelo_inurba_marseille","lat":43.29006,"lon":5.35616,"is_reserved":false,"is_disabled":false,"rental_uris":{"android":"levelo://app?vid=3fc005ee-b160-4f11-b2bd-07f706585277","ios":"levelo://app?vid=3fc005ee-b160-4f11-b2bd-07f706585277"},"vehicle_type_id":"4","last_reported":1745662149,"current_range_meters":10800,"station_id":"ce4bhb92rcd13ifvqen0","pricing_plan_id":"cebpf4jnsgd1na2vs0mg"},{"bike_id":"c2935531-51cb-4c58-bcbe-95a7046089ee","system_id":"levelo_inurba_marseille","lat":43.28425,"lon":5.34983,"is_reserved":false,"is_disabled":false,"rental_uris":{"android":"levelo://app?vid=c2935531-51cb-4c58-bcbe-95a7046089ee","ios":"levelo://app?vid=c2935531-51cb-4c58-bcbe-95a7046089ee"},"vehicle_type_id":"4","last_reported":1745662149,"current_range_meters":10800,"station_id":"ce4bhbh2rcd13ifvqepg","pricing_plan_id":"cebpf4jnsgd1na2vs0mg"},{"bike_id":"64374f0a-82e3-4361-ada4-2216cbc83d84","system_id":"levelo_inurba_marseille","lat":43.29569,"lon":5.39978,"is_reserved":false,"is_disabled":false,"rental_uris":{"android":"levelo://app?vid=64374f0a-82e3-4361-ada4-2216cbc83d84","ios":"levelo://app?vid=64374f0a-82e3-4361-ada4-2216cbc83d84"},"vehicle_type_id":"4","last_reported":1745662149,"current_range_meters":11200,"station_id":"ce4bh312rcd13ifvqdj0","pricing_plan_id":"cebpf4jnsgd1na2vs0mg"},{"bike_id":"568053e1-9183-4cee-acca-959027493876","system_id":"levelo_inurba_marseille","lat":43.30894,"lon":5.36843,"is_reserved":false,"is_disabled":false,"rental_uris":{"android":"levelo://app?vid=568053e1-9183-4cee-acca-959027493876","ios":"levelo://app?vid=568053e1-9183-4cee-acca-959027493876"},"vehicle_type_id":"4","last_reported":1745662149,"current_range_meters":11200,"station_id":"ce4bgn92rcd13ifvqbvg","pricing_plan_id":"cebpf4jnsgd1na2vs0mg"},{"bike_id":"70dec994-1a09-489e-95f0-e8ea21ad169c","system_id":"levelo_inurba_marseille","lat":43.28409,"lon":5.37514,"is_reserved":false,"is_disabled":false,"rental_uris":{"android":"levelo://app?vid=70dec994-1a09-489e-95f0-e8ea21ad169c","ios":"levelo://app?vid=70dec994-1a09-489e-95f0-e8ea21ad169c"},"vehicle_type_id":"4","last_reported":1745662149,"current_range_meters":11200,"station_id":"ce4bh412rcd13ifvqds0","pricing_plan_id":"cebpf4jnsgd1na2vs0mg"},{"bike_id":"aa7c7898-f0da-4c01-aae9-d9a2f1145bf5","system_id":"levelo_inurba_marseille","lat":43.24093,"lon":5.368282,"is_reserved":false,"is_disabled":false,"rental_uris":{"android":"levelo://app?vid=aa7c7898-f0da-4c01-aae9-d9a2f1145bf5","ios":"levelo://app?vid=aa7c7898-f0da-4c01-aae9-d9a2f1145bf5"},"vehicle_type_id":"4","last_reported":1745662149,"current_range_meters":11200,"station_id":"ce4bhi12rcd13ifvqfp0","pricing_plan_id":"cebpf4jnsgd1na2vs0mg"},{"bike_id":"df63c525-ee18-4e9a-b2a8-a4c1c3fd001a","system_id":"levelo_inurba_marseille","lat":43.31086,"lon":5.42424,"is_reserved":false,"is_disabled":false,"rental_uris":{"android":"levelo://app?vid=df63c525-ee18-4e9a-b2a8-a4c1c3fd001a","ios":"levelo://app?vid=df63c525-ee18-4e9a-b2a8-a4c1c3fd001a"},"vehicle_type_id":"4","last_reported":1745662149,"current_range_meters":11200,"station_id":"ce4bhp92rcd13ifvqhag","pricing_plan_id":"cebpf4jnsgd1na2vs0mg"},{"bike_id":"b337b47e-e0c0-40c3-878a-37e58bb44305","system_id":"levelo_inurba_marseille","lat":43.3117,"lon":5.40774,"is_reserved":false,"is_disabled":false,"rental_uris":{"android":"levelo://app?vid=b337b47e-e0c0-40c3-878a-37e58bb44305","ios":"levelo://app?vid=b337b47e-e0c0-40c3-878a-37e58bb44305"},"vehicle_type_id":"4","last_reported":1745662149,"current_range_meters":11600,"station_id":"","pricing_plan_id":"cebpf4jnsgd1na2vs0mg"},{"bike_id":"b9609a57-4a7b-4789-86ca-7eeb3c38bfec","system_id":"levelo_inurba_marseille","lat":43.29308,"lon":5.37448,"is_reserved":false,"is_disabled":false,"rental_uris":{"android":"levelo://app?vid=b9609a57-4a7b-4789-86ca-7eeb3c38bfec","ios":"levelo://app?vid=b9609a57-4a7b-4789-86ca-7eeb3c38bfec"},"vehicle_type_id":"4","last_reported":1745662149,"current_range_meters":8800,"station_id":"ce4bgi12rcd13ifvqb70","pricing_plan_id":"cebpf4jnsgd1na2vs0mg"},{"bike_id":"14c09a31-848b-46c3-8fea-76e3738bd541","system_id":"levelo_inurba_marseille","lat":43.30156,"lon":5.38094,"is_reserved":false,"is_disabled":false,"rental_uris":{"android":"levelo://app?vid=14c09a31-848b-46c3-8fea-76e3738bd541","ios":"levelo://app?vid=14c09a31-848b-46c3-8fea-76e3738bd541"},"vehicle_type_id":"4","last_reported":1745662149,"current_range_meters":11600,"station_id":"ce4bgjp2rcd13ifvqbh0","pricing_plan_id":"cebpf4jnsgd1na2vs0mg"},{"bike_id":"7c799cf1-9919-4f59-bde2-ea860bf8d95f","system_id":"levelo_inurba_marseille","lat":43.2319,"lon":5.35563,"is_reserved":false,"is_disabled":true,"rental_uris":{"android":"levelo://app?vid=7c799cf1-9919-4f59-bde2-ea860bf8d95f","ios":"levelo://app?vid=7c799cf1-9919-4f59-bde2-ea860bf8d95f"},"vehicle_type_id":"4","last_reported":1745662149,"current_range_meters":11600,"station_id":"ce4bhu92rcd13ifvqi70","pricing_plan_id":"cebpf4jnsgd1na2vs0mg"},{"bike_id":"03a3e930-e2fe-42c4-a993-bd8e729eb225","system_id":"levelo_inurba_marseille","lat":43.29846,"lon":5.36262,"is_reserved":false,"is_disabled":false,"rental_uris":{"android":"levelo://app?vid=03a3e930-e2fe-42c4-a993-bd8e729eb225","ios":"levelo://app?vid=03a3e930-e2fe-42c4-a993-bd8e729eb225"},"vehicle_type_id":"4","last_reported":1745662149,"current_range_meters":11600,"station_id":"ce4bgpp2rcd13ifvqc3g","pricing_plan_id":"cebpf4jnsgd1na2vs0mg"},{"bike_id":"9df9f6ac-6519-42f4-a16d-1e9ef635e1cb","system_id":"levelo_inurba_marseille","lat":43.21194,"lon":5.35067,"is_reserved":false,"is_disabled":false,"rental_uris":{"android":"levelo://app?vid=9df9f6ac-6519-42f4-a16d-1e9ef635e1cb","ios":"levelo://app?vid=9df9f6ac-6519-42f4-a16d-1e9ef635e1cb"},"vehicle_type_id":"4","last_reported":1745662149,"current_range_meters":12000,"station_id":"st_cvj6sg6p6f1abm77japg","pricing_plan_id":"cebpf4jnsgd1na2vs0mg"},{"bike_id":"af6af1ea-83a0-4448-a6b9-d143557f7290","system_id":"levelo_inurba_marseille","lat":43.27038,"lon":5.40227,"is_reserved":false,"is_disabled":true,"rental_uris":{"android":"levelo://app?vid=af6af1ea-83a0-4448-a6b9-d143557f7290","ios":"levelo://app?vid=af6af1ea-83a0-4448-a6b9-d143557f7290"},"vehicle_type_id":"4","last_reported":1745662149,"current_range_meters":12000,"station_id":"ce4bhk92rcd13ifvqgc0","pricing_plan_id":"cebpf4jnsgd1na2vs0mg"},{"bike_id":"2bf8911a-f919-4c48-9d9b-2442858e4592","system_id":"levelo_inurba_marseille","lat":43.29925,"lon":5.37466,"is_reserved":false,"is_disabled":false,"rental_uris":{"android":"levelo://app?vid=2bf8911a-f919-4c48-9d9b-2442858e4592","ios":"levelo://app?vid=2bf8911a-f919-4c48-9d9b-2442858e4592"},"vehicle_type_id":"4","last_reported":1745662149,"current_range_meters":12000,"station_id":"ce4bgjh2rcd13ifvqbg0","pricing_plan_id":"cebpf4jnsgd1na2vs0mg"},{"bike_id":"13f83d69-19fe-4415-9968-e262ae035ed8","system_id":"levelo_inurba_marseille","lat":43.279963,"lon":5.400108,"is_reserved":false,"is_disabled":false,"rental_uris":{"android":"levelo://app?vid=13f83d69-19fe-4415-9968-e262ae035ed8","ios":"levelo://app?vid=13f83d69-19fe-4415-9968-e262ae035ed8"},"vehicle_type_id":"4","last_reported":1745662149,"current_range_meters":12000,"station_id":"ce4bho92rcd13ifvqh4g","pricing_plan_id":"cebpf4jnsgd1na2vs0mg"},{"bike_id":"b2511a21-a10e-4a23-a72f-37faa4d8515c","system_id":"levelo_inurba_marseille","lat":43.21751,"lon":5.34611,"is_reserved":false,"is_disabled":false,"rental_uris":{"android":"levelo://app?vid=b2511a21-a10e-4a23-a72f-37faa4d8515c","ios":"levelo://app?vid=b2511a21-a10e-4a23-a72f-37faa4d8515c"},"vehicle_type_id":"4","last_reported":1745662149,"current_range_meters":12400,"station_id":"st_cvj6r9ubvosntc0bgbag","pricing_plan_id":"cebpf4jnsgd1na2vs0mg"},{"bike_id":"987d7900-bb2a-45cb-bed7-6d69f6fd4fa3","system_id":"levelo_inurba_marseille","lat":43.28495,"lon":5.38467,"is_reserved":false,"is_disabled":false,"rental_uris":{"android":"levelo://app?vid=987d7900-bb2a-45cb-bed7-6d69f6fd4fa3","ios":"levelo://app?vid=987d7900-bb2a-45cb-bed7-6d69f6fd4fa3"},"vehicle_type_id":"4","last_reported":1745662149,"current_range_meters":12400,"station_id":"ce4bh512rcd13ifvqe3g","pricing_plan_id":"cebpf4jnsgd1na2vs0mg"},{"bike_id":"02e954c4-523e-479a-ba63-47eb0603531a","system_id":"levelo_inurba_marseille","lat":43.23155,"lon":5.437,"is_reserved":false,"is_disabled":false,"rental_uris":{"android":"levelo://app?vid=02e954c4-523e-479a-ba63-47eb0603531a","ios":"levelo://app?vid=02e954c4-523e-479a-ba63-47eb0603531a"},"vehicle_type_id":"4","last_reported":1745662149,"current_range_meters":12800,"station_id":"ce4bhmp2rcd13ifvqgog","pricing_plan_id":"cebpf4jnsgd1na2vs0mg"},{"bike_id":"86082c5a-74ec-45ee-9bbd-681fdfc8da73","system_id":"levelo_inurba_marseille","lat":43.23959,"lon":5.36637,"is_reserved":false,"is_disabled":false,"rental_uris":{"android":"levelo://app?vid=86082c5a-74ec-45ee-9bbd-681fdfc8da73","ios":"levelo://app?vid=86082c5a-74ec-45ee-9bbd-681fdfc8da73"},"vehicle_type_id":"4","last_reported":1745662149,"current_range_meters":13600,"station_id":"ce4bhi12rcd13ifvqfp0","pricing_plan_id":"cebpf4jnsgd1na2vs0mg"},{"bike_id":"51a4b1f4-4cfb-4b9e-b7e6-50254ee4c796","system_id":"levelo_inurba_marseille","lat":43.28615,"lon":5.37064,"is_reserved":false,"is_disabled":false,"rental_uris":{"android":"levelo://app?vid=51a4b1f4-4cfb-4b9e-b7e6-50254ee4c796","ios":"levelo://app?vid=51a4b1f4-4cfb-4b9e-b7e6-50254ee4c796"},"vehicle_type_id":"4","last_reported":1745662149,"current_range_meters":13600,"station_id":"ce4bht12rcd13ifvqi60","pricing_plan_id":"cebpf4jnsgd1na2vs0mg"},{"bike_id":"575b2d3d-742f-4838-a3e6-a6a9e4ccb307","system_id":"levelo_inurba_marseille","lat":43.2985,"lon":5.36279,"is_reserved":false,"is_disabled":false,"rental_uris":{"android":"levelo://app?vid=575b2d3d-742f-4838-a3e6-a6a9e4ccb307","ios":"levelo://app?vid=575b2d3d-742f-4838-a3e6-a6a9e4ccb307"},"vehicle_type_id":"4","last_reported":1745662149,"current_range_meters":14000,"station_id":"ce4bgpp2rcd13ifvqc3g","pricing_plan_id":"cebpf4jnsgd1na2vs0mg"},{"bike_id":"e6dd51ac-2075-47cd-ad99-bcf7ffe96cb9","system_id":"levelo_inurba_marseille","lat":43.21679,"lon":5.3465,"is_reserved":false,"is_disabled":false,"rental_uris":{"android":"levelo://app?vid=e6dd51ac-2075-47cd-ad99-bcf7ffe96cb9","ios":"levelo://app?vid=e6dd51ac-2075-47cd-ad99-bcf7ffe96cb9"},"vehicle_type_id":"4","last_reported":1745662149,"current_range_meters":14000,"station_id":"","pricing_plan_id":"cebpf4jnsgd1na2vs0mg"},{"bike_id":"886f774b-b172-4ee0-8af6-2a328933c394","system_id":"levelo_inurba_marseille","lat":43.24398,"lon":5.37034,"is_reserved":false,"is_disabled":false,"rental_uris":{"android":"levelo://app?vid=886f774b-b172-4ee0-8af6-2a328933c394","ios":"levelo://app?vid=886f774b-b172-4ee0-8af6-2a328933c394"},"vehicle_type_id":"4","last_reported":1745662149,"current_range_meters":14000,"station_id":"ce4bhhh2rcd13ifvqfk0","pricing_plan_id":"cebpf4jnsgd1na2vs0mg"},{"bike_id":"f0ff19c2-cbf5-4852-bfe8-1207ae67f84f","system_id":"levelo_inurba_marseille","lat":43.2418,"lon":5.364,"is_reserved":false,"is_disabled":false,"rental_uris":{"android":"levelo://app?vid=f0ff19c2-cbf5-4852-bfe8-1207ae67f84f","ios":"levelo://app?vid=f0ff19c2-cbf5-4852-bfe8-1207ae67f84f"},"vehicle_type_id":"4","last_reported":1745662149,"current_range_meters":14400,"station_id":"cpo36qri1sfpv3e86is0","pricing_plan_id":"cebpf4jnsgd1na2vs0mg"},{"bike_id":"ca376395-5bab-49ac-a88b-03ed7986b1fc","system_id":"levelo_inurba_marseille","lat":43.25903,"lon":5.40896,"is_reserved":false,"is_disabled":false,"rental_uris":{"android":"levelo://app?vid=ca376395-5bab-49ac-a88b-03ed7986b1fc","ios":"levelo://app?vid=ca376395-5bab-49ac-a88b-03ed7986b1fc"},"vehicle_type_id":"4","last_reported":1745662149,"current_range_meters":14800,"station_id":"ce4bhm92rcd13ifvqglg","pricing_plan_id":"cebpf4jnsgd1na2vs0mg"},{"bike_id":"540e73f3-f5fe-4af6-8cf8-7c93cbc816e3","system_id":"levelo_inurba_marseille","lat":43.30074,"lon":5.39049,"is_reserved":false,"is_disabled":false,"rental_uris":{"android":"levelo://app?vid=540e73f3-f5fe-4af6-8cf8-7c93cbc816e3","ios":"levelo://app?vid=540e73f3-f5fe-4af6-8cf8-7c93cbc816e3"},"vehicle_type_id":"4","last_reported":1745662149,"current_range_meters":14800,"station_id":"ce4bh192rcd13ifvqdb0","pricing_plan_id":"cebpf4jnsgd1na2vs0mg"},{"bike_id":"dc6a6c97-9525-413d-9de5-13313fcc93c6","system_id":"levelo_inurba_marseille","lat":43.21193,"lon":5.35071,"is_reserved":false,"is_disabled":false,"rental_uris":{"android":"levelo://app?vid=dc6a6c97-9525-413d-9de5-13313fcc93c6","ios":"levelo://app?vid=dc6a6c97-9525-413d-9de5-13313fcc93c6"},"vehicle_type_id":"4","last_reported":1745662149,"current_range_meters":14800,"station_id":"st_cvj6sg6p6f1abm77japg","pricing_plan_id":"cebpf4jnsgd1na2vs0mg"},{"bike_id":"4046a82f-66e8-4b55-bd0a-356edea772d8","system_id":"levelo_inurba_marseille","lat":43.31571,"lon":5.3691,"is_reserved":false,"is_disabled":false,"rental_uris":{"android":"levelo://app?vid=4046a82f-66e8-4b55-bd0a-356edea772d8","ios":"levelo://app?vid=4046a82f-66e8-4b55-bd0a-356edea772d8"},"vehicle_type_id":"4","last_reported":1745662149,"current_range_meters":15200,"station_id":"","pricing_plan_id":"cebpf4jnsgd1na2vs0mg"},{"bike_id":"be33aa2d-800c-4b13-b8a0-7befb5713ac3","system_id":"levelo_inurba_marseille","lat":43.262273,"lon":5.404442,"is_reserved":false,"is_disabled":false,"rental_uris":{"android":"levelo://app?vid=be33aa2d-800c-4b13-b8a0-7befb5713ac3","ios":"levelo://app?vid=be33aa2d-800c-4b13-b8a0-7befb5713ac3"},"vehicle_type_id":"4","last_reported":1745662149,"current_range_meters":15200,"station_id":"ce4bhmh2rcd13ifvqgmg","pricing_plan_id":"cebpf4jnsgd1na2vs0mg"},{"bike_id":"a3be6cac-32ae-447e-b167-4aae2d1ab4ab","system_id":"levelo_inurba_marseille","lat":43.23179,"lon":5.39986,"is_reserved":false,"is_disabled":false,"rental_uris":{"android":"levelo://app?vid=a3be6cac-32ae-447e-b167-4aae2d1ab4ab","ios":"levelo://app?vid=a3be6cac-32ae-447e-b167-4aae2d1ab4ab"},"vehicle_type_id":"4","last_reported":1745662149,"current_range_meters":15200,"station_id":"ce4bhn12rcd13ifvqgqg","pricing_plan_id":"cebpf4jnsgd1na2vs0mg"},{"bike_id":"4101bfec-b2a6-4403-a9c3-cd4721ad203a","system_id":"levelo_inurba_marseille","lat":43.29911,"lon":5.37451,"is_reserved":false,"is_disabled":false,"rental_uris":{"android":"levelo://app?vid=4101bfec-b2a6-4403-a9c3-cd4721ad203a","ios":"levelo://app?vid=4101bfec-b2a6-4403-a9c3-cd4721ad203a"},"vehicle_type_id":"4","last_reported":1745662149,"current_range_meters":15200,"station_id":"ce4bgjh2rcd13ifvqbg0","pricing_plan_id":"cebpf4jnsgd1na2vs0mg"},{"bike_id":"50ba4410-93af-493a-b7fb-1a8ebf58f10c","system_id":"levelo_inurba_marseille","lat":43.29094,"lon":5.38143,"is_reserved":false,"is_disabled":false,"rental_uris":{"android":"levelo://app?vid=50ba4410-93af-493a-b7fb-1a8ebf58f10c","ios":"levelo://app?vid=50ba4410-93af-493a-b7fb-1a8ebf58f10c"},"vehicle_type_id":"4","last_reported":1745662149,"current_range_meters":15200,"station_id":"ce4bh512rcd13ifvqe2g","pricing_plan_id":"cebpf4jnsgd1na2vs0mg"},{"bike_id":"08361f15-a042-435d-b65b-7568cb2fed56","system_id":"levelo_inurba_marseille","lat":43.25941,"lon":5.40908,"is_reserved":false,"is_disabled":false,"rental_uris":{"android":"levelo://app?vid=08361f15-a042-435d-b65b-7568cb2fed56","ios":"levelo://app?vid=08361f15-a042-435d-b65b-7568cb2fed56"},"vehicle_type_id":"4","last_reported":1745662149,"current_range_meters":16000,"station_id":"ce4bhm92rcd13ifvqglg","pricing_plan_id":"cebpf4jnsgd1na2vs0mg"},{"bike_id":"e8b62835-a84e-47ec-ae17-92ed9baa736d","system_id":"levelo_inurba_marseille","lat":43.21751,"lon":5.34602,"is_reserved":false,"is_disabled":false,"rental_uris":{"android":"levelo://app?vid=e8b62835-a84e-47ec-ae17-92ed9baa736d","ios":"levelo://app?vid=e8b62835-a84e-47ec-ae17-92ed9baa736d"},"vehicle_type_id":"4","last_reported":1745662149,"current_range_meters":16000,"station_id":"st_cvj6r9ubvosntc0bgbag","pricing_plan_id":"cebpf4jnsgd1na2vs0mg"},{"bike_id":"0abb145a-12ac-4105-b164-8feb4fb022b8","system_id":"levelo_inurba_marseille","lat":43.21187,"lon":5.35077,"is_reserved":false,"is_disabled":false,"rental_uris":{"android":"levelo://app?vid=0abb145a-12ac-4105-b164-8feb4fb022b8","ios":"levelo://app?vid=0abb145a-12ac-4105-b164-8feb4fb022b8"},"vehicle_type_id":"4","last_reported":1745662149,"current_range_meters":16000,"station_id":"st_cvj6sg6p6f1abm77japg","pricing_plan_id":"cebpf4jnsgd1na2vs0mg"},{"bike_id":"c5841a88-5ed1-4c50-b05b-6f4272c67bbd","system_id":"levelo_inurba_marseille","lat":43.24075,"lon":5.37759,"is_reserved":false,"is_disabled":false,"rental_uris":{"android":"levelo://app?vid=c5841a88-5ed1-4c50-b05b-6f4272c67bbd","ios":"levelo://app?vid=c5841a88-5ed1-4c50-b05b-6f4272c67bbd"},"vehicle_type_id":"4","last_reported":1745662149,"current_range_meters":14000,"station_id":"ce4bhnp2rcd13ifvqgvg","pricing_plan_id":"cebpf4jnsgd1na2vs0mg"},{"bike_id":"30620f58-200e-4f8e-8eed-5278352ba38f","system_id":"levelo_inurba_marseille","lat":43.29851,"lon":5.36283,"is_reserved":false,"is_disabled":false,"rental_uris":{"android":"levelo://app?vid=30620f58-200e-4f8e-8eed-5278352ba38f","ios":"levelo://app?vid=30620f58-200e-4f8e-8eed-5278352ba38f"},"vehicle_type_id":"4","last_reported":1745662149,"current_range_meters":16000,"station_id":"ce4bgpp2rcd13ifvqc3g","pricing_plan_id":"cebpf4jnsgd1na2vs0mg"},{"bike_id":"817017a8-06d7-4168-a9c7-63b6ced6925a","system_id":"levelo_inurba_marseille","lat":43.31485,"lon":5.37294,"is_reserved":false,"is_disabled":false,"rental_uris":{"android":"levelo://app?vid=817017a8-06d7-4168-a9c7-63b6ced6925a","ios":"levelo://app?vid=817017a8-06d7-4168-a9c7-63b6ced6925a"},"vehicle_type_id":"4","last_reported":1745662149,"current_range_meters":16000,"station_id":"ce4bgt12rcd13ifvqcd0","pricing_plan_id":"cebpf4jnsgd1na2vs0mg"},{"bike_id":"e2982129-0a81-4346-98bc-974c80e409ff","system_id":"levelo_inurba_marseille","lat":43.21181,"lon":5.35066,"is_reserved":false,"is_disabled":false,"rental_uris":{"android":"levelo://app?vid=e2982129-0a81-4346-98bc-974c80e409ff","ios":"levelo://app?vid=e2982129-0a81-4346-98bc-974c80e409ff"},"vehicle_type_id":"4","last_reported":1745662149,"current_range_meters":16000,"station_id":"st_cvj6sg6p6f1abm77japg","pricing_plan_id":"cebpf4jnsgd1na2vs0mg"},{"bike_id":"3e1ad8a3-a958-4d00-9a56-262625ea8d0f","system_id":"levelo_inurba_marseille","lat":43.28042,"lon":5.36938,"is_reserved":false,"is_disabled":false,"rental_uris":{"android":"levelo://app?vid=3e1ad8a3-a958-4d00-9a56-262625ea8d0f","ios":"levelo://app?vid=3e1ad8a3-a958-4d00-9a56-262625ea8d0f"},"vehicle_type_id":"4","last_reported":1745662149,"current_range_meters":16000,"station_id":"ce4bha12rcd13ifvqef0","pricing_plan_id":"cebpf4jnsgd1na2vs0mg"},{"bike_id":"fa849b1f-6d39-4933-ac9a-fe926d88e013","system_id":"levelo_inurba_marseille","lat":43.23961,"lon":5.36625,"is_reserved":false,"is_disabled":false,"rental_uris":{"android":"levelo://app?vid=fa849b1f-6d39-4933-ac9a-fe926d88e013","ios":"levelo://app?vid=fa849b1f-6d39-4933-ac9a-fe926d88e013"},"vehicle_type_id":"4","last_reported":1745662149,"current_range_meters":16000,"station_id":"ce4bhi12rcd13ifvqfp0","pricing_plan_id":"cebpf4jnsgd1na2vs0mg"},{"bike_id":"1153cc30-939c-4389-a9ca-ceff2d9a97ee","system_id":"levelo_inurba_marseille","lat":43.30166,"lon":5.38079,"is_reserved":false,"is_disabled":false,"rental_uris":{"android":"levelo://app?vid=1153cc30-939c-4389-a9ca-ceff2d9a97ee","ios":"levelo://app?vid=1153cc30-939c-4389-a9ca-ceff2d9a97ee"},"vehicle_type_id":"4","last_reported":1745662149,"current_range_meters":16400,"station_id":"ce4bgjp2rcd13ifvqbh0","pricing_plan_id":"cebpf4jnsgd1na2vs0mg"},{"bike_id":"5cb5fa24-52ea-420d-ba8f-f3e9de6bfd03","system_id":"levelo_inurba_marseille","lat":43.26688,"lon":5.38277,"is_reserved":false,"is_disabled":false,"rental_uris":{"android":"levelo://app?vid=5cb5fa24-52ea-420d-ba8f-f3e9de6bfd03","ios":"levelo://app?vid=5cb5fa24-52ea-420d-ba8f-f3e9de6bfd03"},"vehicle_type_id":"4","last_reported":1745662149,"current_range_meters":16400,"station_id":"ce4bhg92rcd13ifvqf90","pricing_plan_id":"cebpf4jnsgd1na2vs0mg"},{"bike_id":"bc2652db-32ee-450e-8cc0-005a02c1f054","system_id":"levelo_inurba_marseille","lat":43.21207,"lon":5.35052,"is_reserved":false,"is_disabled":false,"rental_uris":{"android":"levelo://app?vid=bc2652db-32ee-450e-8cc0-005a02c1f054","ios":"levelo://app?vid=bc2652db-32ee-450e-8cc0-005a02c1f054"},"vehicle_type_id":"4","last_reported":1745662149,"current_range_meters":16400,"station_id":"st_cvj6sg6p6f1abm77japg","pricing_plan_id":"cebpf4jnsgd1na2vs0mg"},{"bike_id":"4741e6af-20c0-42f4-b950-4d85a1b8cba0","system_id":"levelo_inurba_marseille","lat":43.30847,"lon":5.379,"is_reserved":false,"is_disabled":false,"rental_uris":{"android":"levelo://app?vid=4741e6af-20c0-42f4-b950-4d85a1b8cba0","ios":"levelo://app?vid=4741e6af-20c0-42f4-b950-4d85a1b8cba0"},"vehicle_type_id":"4","last_reported":1745662149,"current_range_meters":16400,"station_id":"","pricing_plan_id":"cebpf4jnsgd1na2vs0mg"},{"bike_id":"53e0fd33-9903-4f8a-a3a3-f84836cb9f5b","system_id":"levelo_inurba_marseille","lat":43.23961,"lon":5.36636,"is_reserved":false,"is_disabled":false,"rental_uris":{"android":"levelo://app?vid=53e0fd33-9903-4f8a-a3a3-f84836cb9f5b","ios":"levelo://app?vid=53e0fd33-9903-4f8a-a3a3-f84836cb9f5b"},"vehicle_type_id":"4","last_reported":1745662149,"current_range_meters":16400,"station_id":"ce4bhi12rcd13ifvqfp0","pricing_plan_id":"cebpf4jnsgd1na2vs0mg"},{"bike_id":"4d70b616-d17d-4574-abd2-67bf390981a5","system_id":"levelo_inurba_marseille","lat":43.24075,"lon":5.37759,"is_reserved":false,"is_disabled":false,"rental_uris":{"android":"levelo://app?vid=4d70b616-d17d-4574-abd2-67bf390981a5","ios":"levelo://app?vid=4d70b616-d17d-4574-abd2-67bf390981a5"},"vehicle_type_id":"4","last_reported":1745662149,"current_range_meters":16800,"station_id":"ce4bhnp2rcd13ifvqgvg","pricing_plan_id":"cebpf4jnsgd1na2vs0mg"},{"bike_id":"b1c9db00-e3b6-4644-a6ed-281db3cb6a30","system_id":"levelo_inurba_marseille","lat":43.30204,"lon":5.43796,"is_reserved":false,"is_disabled":false,"rental_uris":{"android":"levelo://app?vid=b1c9db00-e3b6-4644-a6ed-281db3cb6a30","ios":"levelo://app?vid=b1c9db00-e3b6-4644-a6ed-281db3cb6a30"},"vehicle_type_id":"4","last_reported":1745662149,"current_range_meters":16800,"station_id":"","pricing_plan_id":"cebpf4jnsgd1na2vs0mg"},{"bike_id":"294d3d1e-392b-4be8-b92c-1e0d2b9bb46a","system_id":"levelo_inurba_marseille","lat":43.29936,"lon":5.36553,"is_reserved":false,"is_disabled":false,"rental_uris":{"android":"levelo://app?vid=294d3d1e-392b-4be8-b92c-1e0d2b9bb46a","ios":"levelo://app?vid=294d3d1e-392b-4be8-b92c-1e0d2b9bb46a"},"vehicle_type_id":"4","last_reported":1745662149,"current_range_meters":16800,"station_id":"ce4bgm92rcd13ifvqbr0","pricing_plan_id":"cebpf4jnsgd1na2vs0mg"},{"bike_id":"a6497b2b-9b5c-491c-a064-fb55509dc4e3","system_id":"levelo_inurba_marseille","lat":43.24384,"lon":5.37064,"is_reserved":false,"is_disabled":false,"rental_uris":{"android":"levelo://app?vid=a6497b2b-9b5c-491c-a064-fb55509dc4e3","ios":"levelo://app?vid=a6497b2b-9b5c-491c-a064-fb55509dc4e3"},"vehicle_type_id":"4","last_reported":1745662149,"current_range_meters":17200,"station_id":"ce4bhhh2rcd13ifvqfk0","pricing_plan_id":"cebpf4jnsgd1na2vs0mg"},{"bike_id":"d2104fc5-a6be-4cd3-b31e-1dbae208e027","system_id":"levelo_inurba_marseille","lat":43.29005,"lon":5.35609,"is_reserved":false,"is_disabled":false,"rental_uris":{"android":"levelo://app?vid=d2104fc5-a6be-4cd3-b31e-1dbae208e027","ios":"levelo://app?vid=d2104fc5-a6be-4cd3-b31e-1dbae208e027"},"vehicle_type_id":"4","last_reported":1745662149,"current_range_meters":17200,"station_id":"ce4bhb92rcd13ifvqen0","pricing_plan_id":"cebpf4jnsgd1na2vs0mg"},{"bike_id":"1504a7b4-3c2b-41cd-85cd-57aa88641e7e","system_id":"levelo_inurba_marseille","lat":43.29779,"lon":5.37113,"is_reserved":false,"is_disabled":false,"rental_uris":{"android":"levelo://app?vid=1504a7b4-3c2b-41cd-85cd-57aa88641e7e","ios":"levelo://app?vid=1504a7b4-3c2b-41cd-85cd-57aa88641e7e"},"vehicle_type_id":"4","last_reported":1745662149,"current_range_meters":17200,"station_id":"ce4bgop2rcd13ifvqc1g","pricing_plan_id":"cebpf4jnsgd1na2vs0mg"},{"bike_id":"88fa99dd-fd7b-4bb4-b03f-46bf99b7e41b","system_id":"levelo_inurba_marseille","lat":43.29848,"lon":5.36283,"is_reserved":false,"is_disabled":false,"rental_uris":{"android":"levelo://app?vid=88fa99dd-fd7b-4bb4-b03f-46bf99b7e41b","ios":"levelo://app?vid=88fa99dd-fd7b-4bb4-b03f-46bf99b7e41b"},"vehicle_type_id":"4","last_reported":1745662149,"current_range_meters":17200,"station_id":"ce4bgpp2rcd13ifvqc3g","pricing_plan_id":"cebpf4jnsgd1na2vs0mg"},{"bike_id":"0390a7f6-5047-40d7-9591-67284edda013","system_id":"levelo_inurba_marseille","lat":43.29846,"lon":5.3626,"is_reserved":false,"is_disabled":false,"rental_uris":{"android":"levelo://app?vid=0390a7f6-5047-40d7-9591-67284edda013","ios":"levelo://app?vid=0390a7f6-5047-40d7-9591-67284edda013"},"vehicle_type_id":"4","last_reported":1745662149,"current_range_meters":17200,"station_id":"ce4bgpp2rcd13ifvqc3g","pricing_plan_id":"cebpf4jnsgd1na2vs0mg"},{"bike_id":"de251673-6d28-4830-9fed-15225d6886c9","system_id":"levelo_inurba_marseille","lat":43.29523,"lon":5.39035,"is_reserved":false,"is_disabled":false,"rental_uris":{"android":"levelo://app?vid=de251673-6d28-4830-9fed-15225d6886c9","ios":"levelo://app?vid=de251673-6d28-4830-9fed-15225d6886c9"},"vehicle_type_id":"4","last_reported":1745662149,"current_range_meters":17600,"station_id":"ce4bh3p2rcd13ifvqdp0","pricing_plan_id":"cebpf4jnsgd1na2vs0mg"},{"bike_id":"0c1a8f1d-bce0-453d-94fa-148cd68f14bd","system_id":"levelo_inurba_marseille","lat":43.229348,"lon":5.353733,"is_reserved":false,"is_disabled":false,"rental_uris":{"android":"levelo://app?vid=0c1a8f1d-bce0-453d-94fa-148cd68f14bd","ios":"levelo://app?vid=0c1a8f1d-bce0-453d-94fa-148cd68f14bd"},"vehicle_type_id":"4","last_reported":1745662149,"current_range_meters":18000,"station_id":"cpo3532slgdg3j2ikp40","pricing_plan_id":"cebpf4jnsgd1na2vs0mg"},{"bike_id":"766a032b-f230-4add-a58c-c300af43533a","system_id":"levelo_inurba_marseille","lat":43.292158,"lon":5.38521,"is_reserved":false,"is_disabled":false,"rental_uris":{"android":"levelo://app?vid=766a032b-f230-4add-a58c-c300af43533a","ios":"levelo://app?vid=766a032b-f230-4add-a58c-c300af43533a"},"vehicle_type_id":"4","last_reported":1745662149,"current_range_meters":17200,"station_id":"ce4bgih2rcd13ifvqba0","pricing_plan_id":"cebpf4jnsgd1na2vs0mg"},{"bike_id":"0c920c40-b1bd-42f3-9531-87b0d8611c22","system_id":"levelo_inurba_marseille","lat":43.28005,"lon":5.4,"is_reserved":false,"is_disabled":false,"rental_uris":{"android":"levelo://app?vid=0c920c40-b1bd-42f3-9531-87b0d8611c22","ios":"levelo://app?vid=0c920c40-b1bd-42f3-9531-87b0d8611c22"},"vehicle_type_id":"4","last_reported":1745662149,"current_range_meters":17600,"station_id":"ce4bho92rcd13ifvqh4g","pricing_plan_id":"cebpf4jnsgd1na2vs0mg"},{"bike_id":"d6e41e93-1359-46e8-bfef-ed1fee730adb","system_id":"levelo_inurba_marseille","lat":43.28629,"lon":5.36306,"is_reserved":false,"is_disabled":true,"rental_uris":{"android":"levelo://app?vid=d6e41e93-1359-46e8-bfef-ed1fee730adb","ios":"levelo://app?vid=d6e41e93-1359-46e8-bfef-ed1fee730adb"},"vehicle_type_id":"4","last_reported":1745662149,"current_range_meters":17600,"station_id":"ce4bhah2rcd13ifvqej0","pricing_plan_id":"cebpf4jnsgd1na2vs0mg"},{"bike_id":"f338b586-c95c-4003-961b-4ab2c50263be","system_id":"levelo_inurba_marseille","lat":43.31493,"lon":5.37306,"is_reserved":false,"is_disabled":false,"rental_uris":{"android":"levelo://app?vid=f338b586-c95c-4003-961b-4ab2c50263be","ios":"levelo://app?vid=f338b586-c95c-4003-961b-4ab2c50263be"},"vehicle_type_id":"4","last_reported":1745662149,"current_range_meters":17600,"station_id":"ce4bgt12rcd13ifvqcd0","pricing_plan_id":"cebpf4jnsgd1na2vs0mg"},{"bike_id":"ab9ca741-ac35-44c0-ac65-cbf6f4d3a24d","system_id":"levelo_inurba_marseille","lat":43.29407,"lon":5.38637,"is_reserved":false,"is_disabled":false,"rental_uris":{"android":"levelo://app?vid=ab9ca741-ac35-44c0-ac65-cbf6f4d3a24d","ios":"levelo://app?vid=ab9ca741-ac35-44c0-ac65-cbf6f4d3a24d"},"vehicle_type_id":"4","last_reported":1745662149,"current_range_meters":18000,"station_id":"ce4bh2h2rcd13ifvqdh0","pricing_plan_id":"cebpf4jnsgd1na2vs0mg"},{"bike_id":"e10849ab-f14c-42eb-bf35-8ad4ea47ec28","system_id":"levelo_inurba_marseille","lat":43.303,"lon":5.40442,"is_reserved":false,"is_disabled":false,"rental_uris":{"android":"levelo://app?vid=e10849ab-f14c-42eb-bf35-8ad4ea47ec28","ios":"levelo://app?vid=e10849ab-f14c-42eb-bf35-8ad4ea47ec28"},"vehicle_type_id":"4","last_reported":1745662149,"current_range_meters":18800,"station_id":"ce4bh012rcd13ifvqd10","pricing_plan_id":"cebpf4jnsgd1na2vs0mg"},{"bike_id":"1e0ac60b-e244-4f1a-948d-7791c5fa98da","system_id":"levelo_inurba_marseille","lat":43.21187,"lon":5.35076,"is_reserved":false,"is_disabled":true,"rental_uris":{"android":"levelo://app?vid=1e0ac60b-e244-4f1a-948d-7791c5fa98da","ios":"levelo://app?vid=1e0ac60b-e244-4f1a-948d-7791c5fa98da"},"vehicle_type_id":"4","last_reported":1745662149,"current_range_meters":18800,"station_id":"st_cvj6sg6p6f1abm77japg","pricing_plan_id":"cebpf4jnsgd1na2vs0mg"},{"bike_id":"6ce5551c-0908-483c-ab12-75aa02d76657","system_id":"levelo_inurba_marseille","lat":43.24385,"lon":5.37066,"is_reserved":false,"is_disabled":false,"rental_uris":{"android":"levelo://app?vid=6ce5551c-0908-483c-ab12-75aa02d76657","ios":"levelo://app?vid=6ce5551c-0908-483c-ab12-75aa02d76657"},"vehicle_type_id":"4","last_reported":1745662149,"current_range_meters":18800,"station_id":"ce4bhhh2rcd13ifvqfk0","pricing_plan_id":"cebpf4jnsgd1na2vs0mg"},{"bike_id":"990ba1b5-0045-4223-9650-54157aa26ebe","system_id":"levelo_inurba_marseille","lat":43.29575,"lon":5.37511,"is_reserved":false,"is_disabled":false,"rental_uris":{"android":"levelo://app?vid=990ba1b5-0045-4223-9650-54157aa26ebe","ios":"levelo://app?vid=990ba1b5-0045-4223-9650-54157aa26ebe"},"vehicle_type_id":"4","last_reported":1745662149,"current_range_meters":19200,"station_id":"ce4bgh92rcd13ifvqb50","pricing_plan_id":"cebpf4jnsgd1na2vs0mg"},{"bike_id":"82617b79-37f1-4bbd-80a1-be8b0e2a18fb","system_id":"levelo_inurba_marseille","lat":43.30138,"lon":5.37422,"is_reserved":false,"is_disabled":false,"rental_uris":{"android":"levelo://app?vid=82617b79-37f1-4bbd-80a1-be8b0e2a18fb","ios":"levelo://app?vid=82617b79-37f1-4bbd-80a1-be8b0e2a18fb"},"vehicle_type_id":"4","last_reported":1745662149,"current_range_meters":18800,"station_id":"ce4bgs92rcd13ifvqcc0","pricing_plan_id":"cebpf4jnsgd1na2vs0mg"},{"bike_id":"560f12bb-1614-4d7c-b78e-ccf5bdec9ea6","system_id":"levelo_inurba_marseille","lat":43.28449,"lon":5.35902,"is_reserved":false,"is_disabled":true,"rental_uris":{"android":"levelo://app?vid=560f12bb-1614-4d7c-b78e-ccf5bdec9ea6","ios":"levelo://app?vid=560f12bb-1614-4d7c-b78e-ccf5bdec9ea6"},"vehicle_type_id":"4","last_reported":1745662149,"current_range_meters":18800,"station_id":"ce4bhah2rcd13ifvqei0","pricing_plan_id":"cebpf4jnsgd1na2vs0mg"},{"bike_id":"aa0a0acb-a19a-4569-9f7e-6c492cc43a49","system_id":"levelo_inurba_marseille","lat":43.28469,"lon":5.3843,"is_reserved":false,"is_disabled":true,"rental_uris":{"android":"levelo://app?vid=aa0a0acb-a19a-4569-9f7e-6c492cc43a49","ios":"levelo://app?vid=aa0a0acb-a19a-4569-9f7e-6c492cc43a49"},"vehicle_type_id":"4","last_reported":1745662149,"current_range_meters":18800,"station_id":"ce4bh512rcd13ifvqe3g","pricing_plan_id":"cebpf4jnsgd1na2vs0mg"},{"bike_id":"4ce65a6a-f243-4ae1-9de6-ae75daa34efe","system_id":"levelo_inurba_marseille","lat":43.23152,"lon":5.43716,"is_reserved":false,"is_disabled":false,"rental_uris":{"android":"levelo://app?vid=4ce65a6a-f243-4ae1-9de6-ae75daa34efe","ios":"levelo://app?vid=4ce65a6a-f243-4ae1-9de6-ae75daa34efe"},"vehicle_type_id":"4","last_reported":1745662149,"current_range_meters":18800,"station_id":"ce4bhmp2rcd13ifvqgog","pricing_plan_id":"cebpf4jnsgd1na2vs0mg"},{"bike_id":"0e96c8db-53ec-48cc-9089-e715927f4e1f","system_id":"levelo_inurba_marseille","lat":43.23969,"lon":5.36619,"is_reserved":false,"is_disabled":false,"rental_uris":{"android":"levelo://app?vid=0e96c8db-53ec-48cc-9089-e715927f4e1f","ios":"levelo://app?vid=0e96c8db-53ec-48cc-9089-e715927f4e1f"},"vehicle_type_id":"4","last_reported":1745662149,"current_range_meters":19200,"station_id":"ce4bhi12rcd13ifvqfp0","pricing_plan_id":"cebpf4jnsgd1na2vs0mg"},{"bike_id":"a68832a3-6a8d-4141-b0b4-58243202c906","system_id":"levelo_inurba_marseille","lat":43.30273,"lon":5.37714,"is_reserved":false,"is_disabled":false,"rental_uris":{"android":"levelo://app?vid=a68832a3-6a8d-4141-b0b4-58243202c906","ios":"levelo://app?vid=a68832a3-6a8d-4141-b0b4-58243202c906"},"vehicle_type_id":"4","last_reported":1745662149,"current_range_meters":18800,"station_id":"ce4bguh2rcd13ifvqcj0","pricing_plan_id":"cebpf4jnsgd1na2vs0mg"},{"bike_id":"ceaf7cf9-6b79-40e4-b50b-c0f7cf539812","system_id":"levelo_inurba_marseille","lat":43.29897,"lon":5.37585,"is_reserved":false,"is_disabled":false,"rental_uris":{"android":"levelo://app?vid=ceaf7cf9-6b79-40e4-b50b-c0f7cf539812","ios":"levelo://app?vid=ceaf7cf9-6b79-40e4-b50b-c0f7cf539812"},"vehicle_type_id":"4","last_reported":1745662149,"current_range_meters":19200,"station_id":"","pricing_plan_id":"cebpf4jnsgd1na2vs0mg"},{"bike_id":"93f5cc7b-361a-44a4-bb01-09b55687fccc","system_id":"levelo_inurba_marseille","lat":43.281579,"lon":5.426467,"is_reserved":false,"is_disabled":false,"rental_uris":{"android":"levelo://app?vid=93f5cc7b-361a-44a4-bb01-09b55687fccc","ios":"levelo://app?vid=93f5cc7b-361a-44a4-bb01-09b55687fccc"},"vehicle_type_id":"4","last_reported":1745662149,"current_range_meters":19200,"station_id":"ce4bhkp2rcd13ifvqgd0","pricing_plan_id":"cebpf4jnsgd1na2vs0mg"},{"bike_id":"e7caf4cd-945d-418c-8941-fe804ba57b84","system_id":"levelo_inurba_marseille","lat":43.27906,"lon":5.40526,"is_reserved":false,"is_disabled":true,"rental_uris":{"android":"levelo://app?vid=e7caf4cd-945d-418c-8941-fe804ba57b84","ios":"levelo://app?vid=e7caf4cd-945d-418c-8941-fe804ba57b84"},"vehicle_type_id":"4","last_reported":1745662149,"current_range_meters":19600,"station_id":"","pricing_plan_id":"cebpf4jnsgd1na2vs0mg"},{"bike_id":"8a3265c5-a5f2-4243-ad15-b96ec6ab5f1d","system_id":"levelo_inurba_marseille","lat":43.262304,"lon":5.404494,"is_reserved":false,"is_disabled":false,"rental_uris":{"android":"levelo://app?vid=8a3265c5-a5f2-4243-ad15-b96ec6ab5f1d","ios":"levelo://app?vid=8a3265c5-a5f2-4243-ad15-b96ec6ab5f1d"},"vehicle_type_id":"4","last_reported":1745662149,"current_range_meters":19600,"station_id":"ce4bhmh2rcd13ifvqgmg","pricing_plan_id":"cebpf4jnsgd1na2vs0mg"},{"bike_id":"c2afd97f-df2b-4bbd-a07b-2b7b9d12cbfb","system_id":"levelo_inurba_marseille","lat":43.29481,"lon":5.3953,"is_reserved":false,"is_disabled":false,"rental_uris":{"android":"levelo://app?vid=c2afd97f-df2b-4bbd-a07b-2b7b9d12cbfb","ios":"levelo://app?vid=c2afd97f-df2b-4bbd-a07b-2b7b9d12cbfb"},"vehicle_type_id":"4","last_reported":1745662149,"current_range_meters":19600,"station_id":"","pricing_plan_id":"cebpf4jnsgd1na2vs0mg"},{"bike_id":"2b7bc971-a91b-47fa-901a-73688b92cf20","system_id":"levelo_inurba_marseille","lat":43.24071,"lon":5.37767,"is_reserved":false,"is_disabled":false,"rental_uris":{"android":"levelo://app?vid=2b7bc971-a91b-47fa-901a-73688b92cf20","ios":"levelo://app?vid=2b7bc971-a91b-47fa-901a-73688b92cf20"},"vehicle_type_id":"4","last_reported":1745662149,"current_range_meters":19600,"station_id":"ce4bhnp2rcd13ifvqgvg","pricing_plan_id":"cebpf4jnsgd1na2vs0mg"},{"bike_id":"ac4c4173-35f2-480f-a156-1e96630b45e8","system_id":"levelo_inurba_marseille","lat":43.24087,"lon":5.37748,"is_reserved":false,"is_disabled":false,"rental_uris":{"android":"levelo://app?vid=ac4c4173-35f2-480f-a156-1e96630b45e8","ios":"levelo://app?vid=ac4c4173-35f2-480f-a156-1e96630b45e8"},"vehicle_type_id":"4","last_reported":1745662149,"current_range_meters":20000,"station_id":"ce4bhnp2rcd13ifvqgvg","pricing_plan_id":"cebpf4jnsgd1na2vs0mg"},{"bike_id":"bda21fce-c58a-412a-a029-2dce3a0c8062","system_id":"levelo_inurba_marseille","lat":43.30804,"lon":5.43516,"is_reserved":false,"is_disabled":false,"rental_uris":{"android":"levelo://app?vid=bda21fce-c58a-412a-a029-2dce3a0c8062","ios":"levelo://app?vid=bda21fce-c58a-412a-a029-2dce3a0c8062"},"vehicle_type_id":"4","last_reported":1745662149,"current_range_meters":20000,"station_id":"ce4bhph2rcd13ifvqheg","pricing_plan_id":"cebpf4jnsgd1na2vs0mg"},{"bike_id":"01db406d-6dae-4fd3-96c3-6d0f32cb219f","system_id":"levelo_inurba_marseille","lat":43.32084,"lon":5.36793,"is_reserved":false,"is_disabled":false,"rental_uris":{"android":"levelo://app?vid=01db406d-6dae-4fd3-96c3-6d0f32cb219f","ios":"levelo://app?vid=01db406d-6dae-4fd3-96c3-6d0f32cb219f"},"vehicle_type_id":"4","last_reported":1745662149,"current_range_meters":20000,"station_id":"ce4bhrh2rcd13ifvqhug","pricing_plan_id":"cebpf4jnsgd1na2vs0mg"},{"bike_id":"8980ce58-94c3-49b9-925a-c5952f8da45a","system_id":"levelo_inurba_marseille","lat":43.21193,"lon":5.35069,"is_reserved":false,"is_disabled":false,"rental_uris":{"android":"levelo://app?vid=8980ce58-94c3-49b9-925a-c5952f8da45a","ios":"levelo://app?vid=8980ce58-94c3-49b9-925a-c5952f8da45a"},"vehicle_type_id":"4","last_reported":1745662149,"current_range_meters":20000,"station_id":"st_cvj6sg6p6f1abm77japg","pricing_plan_id":"cebpf4jnsgd1na2vs0mg"},{"bike_id":"ca226576-a3e0-4b7f-a208-8c8bcdb5874e","system_id":"levelo_inurba_marseille","lat":43.25958,"lon":5.40828,"is_reserved":false,"is_disabled":false,"rental_uris":{"android":"levelo://app?vid=ca226576-a3e0-4b7f-a208-8c8bcdb5874e","ios":"levelo://app?vid=ca226576-a3e0-4b7f-a208-8c8bcdb5874e"},"vehicle_type_id":"4","last_reported":1745662149,"current_range_meters":20000,"station_id":"","pricing_plan_id":"cebpf4jnsgd1na2vs0mg"},{"bike_id":"0eb8d1d3-6ec9-45a1-aed8-2fa1447ab481","system_id":"levelo_inurba_marseille","lat":43.29843,"lon":5.36275,"is_reserved":false,"is_disabled":false,"rental_uris":{"android":"levelo://app?vid=0eb8d1d3-6ec9-45a1-aed8-2fa1447ab481","ios":"levelo://app?vid=0eb8d1d3-6ec9-45a1-aed8-2fa1447ab481"},"vehicle_type_id":"4","last_reported":1745662149,"current_range_meters":20000,"station_id":"ce4bgpp2rcd13ifvqc3g","pricing_plan_id":"cebpf4jnsgd1na2vs0mg"},{"bike_id":"8b6beffd-3a6d-4856-a5c4-15348976c99b","system_id":"levelo_inurba_marseille","lat":43.23178,"lon":5.3999,"is_reserved":false,"is_disabled":false,"rental_uris":{"android":"levelo://app?vid=8b6beffd-3a6d-4856-a5c4-15348976c99b","ios":"levelo://app?vid=8b6beffd-3a6d-4856-a5c4-15348976c99b"},"vehicle_type_id":"4","last_reported":1745662149,"current_range_meters":20000,"station_id":"ce4bhn12rcd13ifvqgqg","pricing_plan_id":"cebpf4jnsgd1na2vs0mg"},{"bike_id":"0d777af5-4166-475a-a6b9-6a0197032592","system_id":"levelo_inurba_marseille","lat":43.23265,"lon":5.35212,"is_reserved":false,"is_disabled":false,"rental_uris":{"android":"levelo://app?vid=0d777af5-4166-475a-a6b9-6a0197032592","ios":"levelo://app?vid=0d777af5-4166-475a-a6b9-6a0197032592"},"vehicle_type_id":"4","last_reported":1745662149,"current_range_meters":20400,"station_id":"","pricing_plan_id":"cebpf4jnsgd1na2vs0mg"},{"bike_id":"48ca9be8-0527-40a5-acd5-f73ef97d607e","system_id":"levelo_inurba_marseille","lat":43.24082,"lon":5.37748,"is_reserved":false,"is_disabled":false,"rental_uris":{"android":"levelo://app?vid=48ca9be8-0527-40a5-acd5-f73ef97d607e","ios":"levelo://app?vid=48ca9be8-0527-40a5-acd5-f73ef97d607e"},"vehicle_type_id":"4","last_reported":1745662149,"current_range_meters":20400,"station_id":"ce4bhnp2rcd13ifvqgvg","pricing_plan_id":"cebpf4jnsgd1na2vs0mg"},{"bike_id":"429a2824-25d3-4e87-8865-ec398d90ebca","system_id":"levelo_inurba_marseille","lat":43.21229,"lon":5.35054,"is_reserved":false,"is_disabled":false,"rental_uris":{"android":"levelo://app?vid=429a2824-25d3-4e87-8865-ec398d90ebca","ios":"levelo://app?vid=429a2824-25d3-4e87-8865-ec398d90ebca"},"vehicle_type_id":"4","last_reported":1745662149,"current_range_meters":20400,"station_id":"","pricing_plan_id":"cebpf4jnsgd1na2vs0mg"},{"bike_id":"c2f619a8-183a-4010-89ab-3b37af6e3cb0","system_id":"levelo_inurba_marseille","lat":43.292741,"lon":5.38438,"is_reserved":false,"is_disabled":false,"rental_uris":{"android":"levelo://app?vid=c2f619a8-183a-4010-89ab-3b37af6e3cb0","ios":"levelo://app?vid=c2f619a8-183a-4010-89ab-3b37af6e3cb0"},"vehicle_type_id":"4","last_reported":1745662149,"current_range_meters":20400,"station_id":"ce4bh692rcd13ifvqea0","pricing_plan_id":"cebpf4jnsgd1na2vs0mg"},{"bike_id":"3ad35c25-d89f-4ea6-848b-393a00786d79","system_id":"levelo_inurba_marseille","lat":43.299,"lon":5.42074,"is_reserved":false,"is_disabled":false,"rental_uris":{"android":"levelo://app?vid=3ad35c25-d89f-4ea6-848b-393a00786d79","ios":"levelo://app?vid=3ad35c25-d89f-4ea6-848b-393a00786d79"},"vehicle_type_id":"4","last_reported":1745662149,"current_range_meters":20400,"station_id":"","pricing_plan_id":"cebpf4jnsgd1na2vs0mg"},{"bike_id":"75ed342a-9a0d-46bc-8852-312166e3d922","system_id":"levelo_inurba_marseille","lat":43.21185,"lon":5.35066,"is_reserved":false,"is_disabled":false,"rental_uris":{"android":"levelo://app?vid=75ed342a-9a0d-46bc-8852-312166e3d922","ios":"levelo://app?vid=75ed342a-9a0d-46bc-8852-312166e3d922"},"vehicle_type_id":"4","last_reported":1745662149,"current_range_meters":20400,"station_id":"st_cvj6sg6p6f1abm77japg","pricing_plan_id":"cebpf4jnsgd1na2vs0mg"},{"bike_id":"f815ac98-ed77-424b-acb4-2f11680a91cc","system_id":"levelo_inurba_marseille","lat":43.21197,"lon":5.35066,"is_reserved":false,"is_disabled":false,"rental_uris":{"android":"levelo://app?vid=f815ac98-ed77-424b-acb4-2f11680a91cc","ios":"levelo://app?vid=f815ac98-ed77-424b-acb4-2f11680a91cc"},"vehicle_type_id":"4","last_reported":1745662149,"current_range_meters":20800,"station_id":"st_cvj6sg6p6f1abm77japg","pricing_plan_id":"cebpf4jnsgd1na2vs0mg"},{"bike_id":"f31a57ce-0340-40a5-94bb-aa4e8e281423","system_id":"levelo_inurba_marseille","lat":43.23197,"lon":5.35548,"is_reserved":false,"is_disabled":false,"rental_uris":{"android":"levelo://app?vid=f31a57ce-0340-40a5-94bb-aa4e8e281423","ios":"levelo://app?vid=f31a57ce-0340-40a5-94bb-aa4e8e281423"},"vehicle_type_id":"4","last_reported":1745662149,"current_range_meters":20800,"station_id":"ce4bhu92rcd13ifvqi70","pricing_plan_id":"cebpf4jnsgd1na2vs0mg"},{"bike_id":"32ba8f35-407a-40af-9582-22a18ce8b929","system_id":"levelo_inurba_marseille","lat":43.2894,"lon":5.36637,"is_reserved":false,"is_disabled":false,"rental_uris":{"android":"levelo://app?vid=32ba8f35-407a-40af-9582-22a18ce8b929","ios":"levelo://app?vid=32ba8f35-407a-40af-9582-22a18ce8b929"},"vehicle_type_id":"4","last_reported":1745662149,"current_range_meters":20800,"station_id":"ce4bhap2rcd13ifvqek0","pricing_plan_id":"cebpf4jnsgd1na2vs0mg"},{"bike_id":"bc356e07-c6ac-43e7-a3c5-5552446665e5","system_id":"levelo_inurba_marseille","lat":43.30979,"lon":5.41737,"is_reserved":false,"is_disabled":false,"rental_uris":{"android":"levelo://app?vid=bc356e07-c6ac-43e7-a3c5-5552446665e5","ios":"levelo://app?vid=bc356e07-c6ac-43e7-a3c5-5552446665e5"},"vehicle_type_id":"4","last_reported":1745662149,"current_range_meters":20800,"station_id":"","pricing_plan_id":"cebpf4jnsgd1na2vs0mg"},{"bike_id":"3ee52dd6-ee76-4da1-bbf0-da3ef76cb155","system_id":"levelo_inurba_marseille","lat":43.30541,"lon":5.36523,"is_reserved":false,"is_disabled":false,"rental_uris":{"android":"levelo://app?vid=3ee52dd6-ee76-4da1-bbf0-da3ef76cb155","ios":"levelo://app?vid=3ee52dd6-ee76-4da1-bbf0-da3ef76cb155"},"vehicle_type_id":"4","last_reported":1745662149,"current_range_meters":20800,"station_id":"ce4bgs12rcd13ifvqcag","pricing_plan_id":"cebpf4jnsgd1na2vs0mg"},{"bike_id":"389fa13e-9fb8-4551-94cc-3437e858ed36","system_id":"levelo_inurba_marseille","lat":43.241686,"lon":5.364,"is_reserved":false,"is_disabled":false,"rental_uris":{"android":"levelo://app?vid=389fa13e-9fb8-4551-94cc-3437e858ed36","ios":"levelo://app?vid=389fa13e-9fb8-4551-94cc-3437e858ed36"},"vehicle_type_id":"4","last_reported":1745662149,"current_range_meters":20800,"station_id":"cpo36qri1sfpv3e86is0","pricing_plan_id":"cebpf4jnsgd1na2vs0mg"},{"bike_id":"588217eb-80a6-423e-b138-35c0ab521a91","system_id":"levelo_inurba_marseille","lat":43.30202,"lon":5.39464,"is_reserved":false,"is_disabled":false,"rental_uris":{"android":"levelo://app?vid=588217eb-80a6-423e-b138-35c0ab521a91","ios":"levelo://app?vid=588217eb-80a6-423e-b138-35c0ab521a91"},"vehicle_type_id":"4","last_reported":1745662149,"current_range_meters":20800,"station_id":"ce4bh0p2rcd13ifvqd70","pricing_plan_id":"cebpf4jnsgd1na2vs0mg"},{"bike_id":"c96dca77-5277-4a69-8181-773cef0a61bf","system_id":"levelo_inurba_marseille","lat":43.286125,"lon":5.351016,"is_reserved":false,"is_disabled":false,"rental_uris":{"android":"levelo://app?vid=c96dca77-5277-4a69-8181-773cef0a61bf","ios":"levelo://app?vid=c96dca77-5277-4a69-8181-773cef0a61bf"},"vehicle_type_id":"4","last_reported":1745662149,"current_range_meters":20800,"station_id":"ce4bhch2rcd13ifvqeug","pricing_plan_id":"cebpf4jnsgd1na2vs0mg"},{"bike_id":"b329f5b9-ec8d-4beb-8ce8-be6404952a34","system_id":"levelo_inurba_marseille","lat":43.26679,"lon":5.38272,"is_reserved":false,"is_disabled":false,"rental_uris":{"android":"levelo://app?vid=b329f5b9-ec8d-4beb-8ce8-be6404952a34","ios":"levelo://app?vid=b329f5b9-ec8d-4beb-8ce8-be6404952a34"},"vehicle_type_id":"4","last_reported":1745662149,"current_range_meters":21600,"station_id":"ce4bhg92rcd13ifvqf90","pricing_plan_id":"cebpf4jnsgd1na2vs0mg"},{"bike_id":"e355f3c4-8df4-43e2-8d6a-100a40b72736","system_id":"levelo_inurba_marseille","lat":43.29872,"lon":5.39728,"is_reserved":false,"is_disabled":false,"rental_uris":{"android":"levelo://app?vid=e355f3c4-8df4-43e2-8d6a-100a40b72736","ios":"levelo://app?vid=e355f3c4-8df4-43e2-8d6a-100a40b72736"},"vehicle_type_id":"4","last_reported":1745662149,"current_range_meters":21600,"station_id":"ce4bh0h2rcd13ifvqd50","pricing_plan_id":"cebpf4jnsgd1na2vs0mg"},{"bike_id":"17067abb-fe70-4870-b63d-827b0ccd0979","system_id":"levelo_inurba_marseille","lat":43.2168,"lon":5.34646,"is_reserved":false,"is_disabled":false,"rental_uris":{"android":"levelo://app?vid=17067abb-fe70-4870-b63d-827b0ccd0979","ios":"levelo://app?vid=17067abb-fe70-4870-b63d-827b0ccd0979"},"vehicle_type_id":"4","last_reported":1745662149,"current_range_meters":21600,"station_id":"","pricing_plan_id":"cebpf4jnsgd1na2vs0mg"},{"bike_id":"29f4ef60-1cde-424b-9c53-80bd08d30c50","system_id":"levelo_inurba_marseille","lat":43.297648,"lon":5.381359,"is_reserved":false,"is_disabled":false,"rental_uris":{"android":"levelo://app?vid=29f4ef60-1cde-424b-9c53-80bd08d30c50","ios":"levelo://app?vid=29f4ef60-1cde-424b-9c53-80bd08d30c50"},"vehicle_type_id":"4","last_reported":1745662149,"current_range_meters":21600,"station_id":"","pricing_plan_id":"cebpf4jnsgd1na2vs0mg"},{"bike_id":"76533ac7-5be9-495e-9282-eec0efdf9a97","system_id":"levelo_inurba_marseille","lat":43.29932,"lon":5.36552,"is_reserved":false,"is_disabled":false,"rental_uris":{"android":"levelo://app?vid=76533ac7-5be9-495e-9282-eec0efdf9a97","ios":"levelo://app?vid=76533ac7-5be9-495e-9282-eec0efdf9a97"},"vehicle_type_id":"4","last_reported":1745662149,"current_range_meters":21600,"station_id":"ce4bgm92rcd13ifvqbr0","pricing_plan_id":"cebpf4jnsgd1na2vs0mg"},{"bike_id":"1ac86526-45ef-4bf3-bee1-11fb3920e13e","system_id":"levelo_inurba_marseille","lat":43.29656,"lon":5.37272,"is_reserved":false,"is_disabled":false,"rental_uris":{"android":"levelo://app?vid=1ac86526-45ef-4bf3-bee1-11fb3920e13e","ios":"levelo://app?vid=1ac86526-45ef-4bf3-bee1-11fb3920e13e"},"vehicle_type_id":"4","last_reported":1745662149,"current_range_meters":20800,"station_id":"ce4bgk12rcd13ifvqbj0","pricing_plan_id":"cebpf4jnsgd1na2vs0mg"},{"bike_id":"4d69b997-d744-4728-be76-f96d0d03571d","system_id":"levelo_inurba_marseille","lat":43.299355,"lon":5.365132,"is_reserved":false,"is_disabled":false,"rental_uris":{"android":"levelo://app?vid=4d69b997-d744-4728-be76-f96d0d03571d","ios":"levelo://app?vid=4d69b997-d744-4728-be76-f96d0d03571d"},"vehicle_type_id":"4","last_reported":1745662149,"current_range_meters":21600,"station_id":"ce4bgm92rcd13ifvqbr0","pricing_plan_id":"cebpf4jnsgd1na2vs0mg"},{"bike_id":"a389e4b5-843a-4b14-90e3-6977dda482c3","system_id":"levelo_inurba_marseille","lat":43.282747,"lon":5.386011,"is_reserved":false,"is_disabled":false,"rental_uris":{"android":"levelo://app?vid=a389e4b5-843a-4b14-90e3-6977dda482c3","ios":"levelo://app?vid=a389e4b5-843a-4b14-90e3-6977dda482c3"},"vehicle_type_id":"4","last_reported":1745662149,"current_range_meters":22000,"station_id":"ce4bhf92rcd13ifvqf50","pricing_plan_id":"cebpf4jnsgd1na2vs0mg"},{"bike_id":"ee696d87-e7d6-4c39-91b8-dd13e5f590f1","system_id":"levelo_inurba_marseille","lat":43.299043,"lon":5.383241,"is_reserved":false,"is_disabled":false,"rental_uris":{"android":"levelo://app?vid=ee696d87-e7d6-4c39-91b8-dd13e5f590f1","ios":"levelo://app?vid=ee696d87-e7d6-4c39-91b8-dd13e5f590f1"},"vehicle_type_id":"4","last_reported":1745662149,"current_range_meters":22000,"station_id":"","pricing_plan_id":"cebpf4jnsgd1na2vs0mg"},{"bike_id":"3c31e25e-0742-4d12-89f5-cb9ba44656c5","system_id":"levelo_inurba_marseille","lat":43.21197,"lon":5.35065,"is_reserved":false,"is_disabled":false,"rental_uris":{"android":"levelo://app?vid=3c31e25e-0742-4d12-89f5-cb9ba44656c5","ios":"levelo://app?vid=3c31e25e-0742-4d12-89f5-cb9ba44656c5"},"vehicle_type_id":"4","last_reported":1745662149,"current_range_meters":22000,"station_id":"st_cvj6sg6p6f1abm77japg","pricing_plan_id":"cebpf4jnsgd1na2vs0mg"},{"bike_id":"1b266067-11c3-4545-a2fc-78ee26482698","system_id":"levelo_inurba_marseille","lat":43.28278,"lon":5.35069,"is_reserved":false,"is_disabled":false,"rental_uris":{"android":"levelo://app?vid=1b266067-11c3-4545-a2fc-78ee26482698","ios":"levelo://app?vid=1b266067-11c3-4545-a2fc-78ee26482698"},"vehicle_type_id":"4","last_reported":1745662149,"current_range_meters":21600,"station_id":"ce4bhbp2rcd13ifvqerg","pricing_plan_id":"cebpf4jnsgd1na2vs0mg"},{"bike_id":"832e69d1-4152-47b4-b97f-ad732ea10333","system_id":"levelo_inurba_marseille","lat":43.212,"lon":5.3506,"is_reserved":false,"is_disabled":false,"rental_uris":{"android":"levelo://app?vid=832e69d1-4152-47b4-b97f-ad732ea10333","ios":"levelo://app?vid=832e69d1-4152-47b4-b97f-ad732ea10333"},"vehicle_type_id":"4","last_reported":1745662149,"current_range_meters":24000,"station_id":"st_cvj6sg6p6f1abm77japg","pricing_plan_id":"cebpf4jnsgd1na2vs0mg"},{"bike_id":"e2cf9de0-458d-4994-a25d-84845fed4e98","system_id":"levelo_inurba_marseille","lat":43.27054,"lon":5.4026,"is_reserved":false,"is_disabled":false,"rental_uris":{"android":"levelo://app?vid=e2cf9de0-458d-4994-a25d-84845fed4e98","ios":"levelo://app?vid=e2cf9de0-458d-4994-a25d-84845fed4e98"},"vehicle_type_id":"4","last_reported":1745662149,"current_range_meters":22000,"station_id":"ce4bhk92rcd13ifvqgc0","pricing_plan_id":"cebpf4jnsgd1na2vs0mg"},{"bike_id":"84ea7169-3f8c-4e22-ab17-8117015aa3b2","system_id":"levelo_inurba_marseille","lat":43.29912,"lon":5.37462,"is_reserved":false,"is_disabled":false,"rental_uris":{"android":"levelo://app?vid=84ea7169-3f8c-4e22-ab17-8117015aa3b2","ios":"levelo://app?vid=84ea7169-3f8c-4e22-ab17-8117015aa3b2"},"vehicle_type_id":"4","last_reported":1745662149,"current_range_meters":22000,"station_id":"ce4bgjh2rcd13ifvqbg0","pricing_plan_id":"cebpf4jnsgd1na2vs0mg"},{"bike_id":"7b36c50d-f76f-442f-8b83-66cb42948d8d","system_id":"levelo_inurba_marseille","lat":43.29197,"lon":5.35801,"is_reserved":false,"is_disabled":false,"rental_uris":{"android":"levelo://app?vid=7b36c50d-f76f-442f-8b83-66cb42948d8d","ios":"levelo://app?vid=7b36c50d-f76f-442f-8b83-66cb42948d8d"},"vehicle_type_id":"4","last_reported":1745662149,"current_range_meters":22000,"station_id":"ce4bhb12rcd13ifvqel0","pricing_plan_id":"cebpf4jnsgd1na2vs0mg"},{"bike_id":"afa12ab5-1d27-462c-b794-d554aed85f1b","system_id":"levelo_inurba_marseille","lat":43.25115,"lon":5.40326,"is_reserved":false,"is_disabled":false,"rental_uris":{"android":"levelo://app?vid=afa12ab5-1d27-462c-b794-d554aed85f1b","ios":"levelo://app?vid=afa12ab5-1d27-462c-b794-d554aed85f1b"},"vehicle_type_id":"4","last_reported":1745662149,"current_range_meters":22400,"station_id":"ce4bhlh2rcd13ifvqgig","pricing_plan_id":"cebpf4jnsgd1na2vs0mg"},{"bike_id":"ef0f4566-8c31-4857-a3bb-8d00d9519f53","system_id":"levelo_inurba_marseille","lat":43.30927,"lon":5.40144,"is_reserved":false,"is_disabled":false,"rental_uris":{"android":"levelo://app?vid=ef0f4566-8c31-4857-a3bb-8d00d9519f53","ios":"levelo://app?vid=ef0f4566-8c31-4857-a3bb-8d00d9519f53"},"vehicle_type_id":"4","last_reported":1745662149,"current_range_meters":22000,"station_id":"ce4bgvp2rcd13ifvqct0","pricing_plan_id":"cebpf4jnsgd1na2vs0mg"},{"bike_id":"3edf4337-5538-4dd7-a8c4-b2e06de67ea6","system_id":"levelo_inurba_marseille","lat":43.29845,"lon":5.36267,"is_reserved":false,"is_disabled":false,"rental_uris":{"android":"levelo://app?vid=3edf4337-5538-4dd7-a8c4-b2e06de67ea6","ios":"levelo://app?vid=3edf4337-5538-4dd7-a8c4-b2e06de67ea6"},"vehicle_type_id":"4","last_reported":1745662149,"current_range_meters":22800,"station_id":"ce4bgpp2rcd13ifvqc3g","pricing_plan_id":"cebpf4jnsgd1na2vs0mg"},{"bike_id":"5b7ec4ef-d423-41c4-96cb-1ca7bceef233","system_id":"levelo_inurba_marseille","lat":43.29924,"lon":5.36517,"is_reserved":false,"is_disabled":false,"rental_uris":{"android":"levelo://app?vid=5b7ec4ef-d423-41c4-96cb-1ca7bceef233","ios":"levelo://app?vid=5b7ec4ef-d423-41c4-96cb-1ca7bceef233"},"vehicle_type_id":"4","last_reported":1745662149,"current_range_meters":22800,"station_id":"ce4bgm92rcd13ifvqbr0","pricing_plan_id":"cebpf4jnsgd1na2vs0mg"},{"bike_id":"6560f058-53db-4cc4-bb1f-56d6f7f6a4cd","system_id":"levelo_inurba_marseille","lat":43.21192,"lon":5.35068,"is_reserved":false,"is_disabled":false,"rental_uris":{"android":"levelo://app?vid=6560f058-53db-4cc4-bb1f-56d6f7f6a4cd","ios":"levelo://app?vid=6560f058-53db-4cc4-bb1f-56d6f7f6a4cd"},"vehicle_type_id":"4","last_reported":1745662149,"current_range_meters":22800,"station_id":"st_cvj6sg6p6f1abm77japg","pricing_plan_id":"cebpf4jnsgd1na2vs0mg"},{"bike_id":"a0aa2b4c-da5b-420a-bd7f-cedf4cb834f0","system_id":"levelo_inurba_marseille","lat":43.29854,"lon":5.36284,"is_reserved":false,"is_disabled":false,"rental_uris":{"android":"levelo://app?vid=a0aa2b4c-da5b-420a-bd7f-cedf4cb834f0","ios":"levelo://app?vid=a0aa2b4c-da5b-420a-bd7f-cedf4cb834f0"},"vehicle_type_id":"4","last_reported":1745662149,"current_range_meters":22800,"station_id":"ce4bgpp2rcd13ifvqc3g","pricing_plan_id":"cebpf4jnsgd1na2vs0mg"},{"bike_id":"7a6457b2-8cf5-4271-bd9b-887d42e000a9","system_id":"levelo_inurba_marseille","lat":43.290052,"lon":5.356147,"is_reserved":false,"is_disabled":false,"rental_uris":{"android":"levelo://app?vid=7a6457b2-8cf5-4271-bd9b-887d42e000a9","ios":"levelo://app?vid=7a6457b2-8cf5-4271-bd9b-887d42e000a9"},"vehicle_type_id":"4","last_reported":1745662149,"current_range_meters":22800,"station_id":"ce4bhb92rcd13ifvqen0","pricing_plan_id":"cebpf4jnsgd1na2vs0mg"},{"bike_id":"7223f9ed-9d66-4580-a350-ca28c74a1898","system_id":"levelo_inurba_marseille","lat":43.29575,"lon":5.37487,"is_reserved":false,"is_disabled":false,"rental_uris":{"android":"levelo://app?vid=7223f9ed-9d66-4580-a350-ca28c74a1898","ios":"levelo://app?vid=7223f9ed-9d66-4580-a350-ca28c74a1898"},"vehicle_type_id":"4","last_reported":1745662149,"current_range_meters":23200,"station_id":"ce4bgh92rcd13ifvqb50","pricing_plan_id":"cebpf4jnsgd1na2vs0mg"},{"bike_id":"d6999195-178c-4476-a936-af0075db78bc","system_id":"levelo_inurba_marseille","lat":43.21675,"lon":5.34652,"is_reserved":false,"is_disabled":false,"rental_uris":{"android":"levelo://app?vid=d6999195-178c-4476-a936-af0075db78bc","ios":"levelo://app?vid=d6999195-178c-4476-a936-af0075db78bc"},"vehicle_type_id":"4","last_reported":1745662149,"current_range_meters":23200,"station_id":"","pricing_plan_id":"cebpf4jnsgd1na2vs0mg"},{"bike_id":"30995996-8c0f-4f54-b3be-695b1256be70","system_id":"levelo_inurba_marseille","lat":43.29845,"lon":5.36271,"is_reserved":false,"is_disabled":false,"rental_uris":{"android":"levelo://app?vid=30995996-8c0f-4f54-b3be-695b1256be70","ios":"levelo://app?vid=30995996-8c0f-4f54-b3be-695b1256be70"},"vehicle_type_id":"4","last_reported":1745662149,"current_range_meters":23200,"station_id":"ce4bgpp2rcd13ifvqc3g","pricing_plan_id":"cebpf4jnsgd1na2vs0mg"},{"bike_id":"864f0b9a-7091-4244-adac-728b3a4586ed","system_id":"levelo_inurba_marseille","lat":43.23185,"lon":5.35576,"is_reserved":false,"is_disabled":false,"rental_uris":{"android":"levelo://app?vid=864f0b9a-7091-4244-adac-728b3a4586ed","ios":"levelo://app?vid=864f0b9a-7091-4244-adac-728b3a4586ed"},"vehicle_type_id":"4","last_reported":1745662149,"current_range_meters":23200,"station_id":"ce4bhu92rcd13ifvqi70","pricing_plan_id":"cebpf4jnsgd1na2vs0mg"},{"bike_id":"dccf8318-29b6-4fb5-94cb-7502af5aba3d","system_id":"levelo_inurba_marseille","lat":43.21202,"lon":5.35048,"is_reserved":false,"is_disabled":false,"rental_uris":{"android":"levelo://app?vid=dccf8318-29b6-4fb5-94cb-7502af5aba3d","ios":"levelo://app?vid=dccf8318-29b6-4fb5-94cb-7502af5aba3d"},"vehicle_type_id":"4","last_reported":1745662149,"current_range_meters":23200,"station_id":"st_cvj6sg6p6f1abm77japg","pricing_plan_id":"cebpf4jnsgd1na2vs0mg"},{"bike_id":"f20e5883-6cde-4b8b-956d-3d05b83060fe","system_id":"levelo_inurba_marseille","lat":43.26934,"lon":5.38917,"is_reserved":false,"is_disabled":false,"rental_uris":{"android":"levelo://app?vid=f20e5883-6cde-4b8b-956d-3d05b83060fe","ios":"levelo://app?vid=f20e5883-6cde-4b8b-956d-3d05b83060fe"},"vehicle_type_id":"4","last_reported":1745662149,"current_range_meters":22800,"station_id":"ce4bhhh2rcd13ifvqfl0","pricing_plan_id":"cebpf4jnsgd1na2vs0mg"},{"bike_id":"7523e7ae-9b93-442d-8c9c-c8f592359d5b","system_id":"levelo_inurba_marseille","lat":43.28002,"lon":5.41665,"is_reserved":false,"is_disabled":false,"rental_uris":{"android":"levelo://app?vid=7523e7ae-9b93-442d-8c9c-c8f592359d5b","ios":"levelo://app?vid=7523e7ae-9b93-442d-8c9c-c8f592359d5b"},"vehicle_type_id":"4","last_reported":1745662149,"current_range_meters":22800,"station_id":"ce4bho12rcd13ifvqh1g","pricing_plan_id":"cebpf4jnsgd1na2vs0mg"},{"bike_id":"97fd7a4c-36e8-401d-b12d-1b4015a01ebe","system_id":"levelo_inurba_marseille","lat":43.26548,"lon":5.42101,"is_reserved":false,"is_disabled":false,"rental_uris":{"android":"levelo://app?vid=97fd7a4c-36e8-401d-b12d-1b4015a01ebe","ios":"levelo://app?vid=97fd7a4c-36e8-401d-b12d-1b4015a01ebe"},"vehicle_type_id":"4","last_reported":1745662149,"current_range_meters":23200,"station_id":"","pricing_plan_id":"cebpf4jnsgd1na2vs0mg"},{"bike_id":"350f984d-80bf-4965-931f-7c68f14da2ef","system_id":"levelo_inurba_marseille","lat":43.24073,"lon":5.37759,"is_reserved":false,"is_disabled":false,"rental_uris":{"android":"levelo://app?vid=350f984d-80bf-4965-931f-7c68f14da2ef","ios":"levelo://app?vid=350f984d-80bf-4965-931f-7c68f14da2ef"},"vehicle_type_id":"4","last_reported":1745662149,"current_range_meters":23200,"station_id":"ce4bhnp2rcd13ifvqgvg","pricing_plan_id":"cebpf4jnsgd1na2vs0mg"},{"bike_id":"fb619f33-96ce-4552-9637-fb9e4188a3a8","system_id":"levelo_inurba_marseille","lat":43.24382,"lon":5.37056,"is_reserved":false,"is_disabled":false,"rental_uris":{"android":"levelo://app?vid=fb619f33-96ce-4552-9637-fb9e4188a3a8","ios":"levelo://app?vid=fb619f33-96ce-4552-9637-fb9e4188a3a8"},"vehicle_type_id":"4","last_reported":1745662149,"current_range_meters":23200,"station_id":"ce4bhhh2rcd13ifvqfk0","pricing_plan_id":"cebpf4jnsgd1na2vs0mg"},{"bike_id":"1402c1de-de06-4a20-9869-46a6e4252a53","system_id":"levelo_inurba_marseille","lat":43.23197,"lon":5.35559,"is_reserved":false,"is_disabled":false,"rental_uris":{"android":"levelo://app?vid=1402c1de-de06-4a20-9869-46a6e4252a53","ios":"levelo://app?vid=1402c1de-de06-4a20-9869-46a6e4252a53"},"vehicle_type_id":"4","last_reported":1745662149,"current_range_meters":23200,"station_id":"ce4bhu92rcd13ifvqi70","pricing_plan_id":"cebpf4jnsgd1na2vs0mg"},{"bike_id":"2b90adc1-44b0-48de-9496-d27723c6263e","system_id":"levelo_inurba_marseille","lat":43.21539,"lon":5.34742,"is_reserved":false,"is_disabled":false,"rental_uris":{"android":"levelo://app?vid=2b90adc1-44b0-48de-9496-d27723c6263e","ios":"levelo://app?vid=2b90adc1-44b0-48de-9496-d27723c6263e"},"vehicle_type_id":"4","last_reported":1745662149,"current_range_meters":24000,"station_id":"","pricing_plan_id":"cebpf4jnsgd1na2vs0mg"},{"bike_id":"2a9e9f19-a63e-4aeb-a891-8931571503f6","system_id":"levelo_inurba_marseille","lat":43.292723,"lon":5.384334,"is_reserved":false,"is_disabled":false,"rental_uris":{"android":"levelo://app?vid=2a9e9f19-a63e-4aeb-a891-8931571503f6","ios":"levelo://app?vid=2a9e9f19-a63e-4aeb-a891-8931571503f6"},"vehicle_type_id":"4","last_reported":1745662149,"current_range_meters":24800,"station_id":"ce4bh692rcd13ifvqea0","pricing_plan_id":"cebpf4jnsgd1na2vs0mg"},{"bike_id":"3eb19749-67ba-48c2-91f4-cb0e169501ca","system_id":"levelo_inurba_marseille","lat":43.29965,"lon":5.37192,"is_reserved":false,"is_disabled":false,"rental_uris":{"android":"levelo://app?vid=3eb19749-67ba-48c2-91f4-cb0e169501ca","ios":"levelo://app?vid=3eb19749-67ba-48c2-91f4-cb0e169501ca"},"vehicle_type_id":"4","last_reported":1745662149,"current_range_meters":24000,"station_id":"ce4bgr92rcd13ifvqc7g","pricing_plan_id":"cebpf4jnsgd1na2vs0mg"},{"bike_id":"782a14d2-759f-497d-ae09-8808575eab35","system_id":"levelo_inurba_marseille","lat":43.29861,"lon":5.36284,"is_reserved":false,"is_disabled":false,"rental_uris":{"android":"levelo://app?vid=782a14d2-759f-497d-ae09-8808575eab35","ios":"levelo://app?vid=782a14d2-759f-497d-ae09-8808575eab35"},"vehicle_type_id":"4","last_reported":1745662149,"current_range_meters":24000,"station_id":"ce4bgpp2rcd13ifvqc3g","pricing_plan_id":"cebpf4jnsgd1na2vs0mg"},{"bike_id":"4b248c7f-5f4c-4f0b-abd2-7d3e38cdb6a0","system_id":"levelo_inurba_marseille","lat":43.231934,"lon":5.355507,"is_reserved":false,"is_disabled":false,"rental_uris":{"android":"levelo://app?vid=4b248c7f-5f4c-4f0b-abd2-7d3e38cdb6a0","ios":"levelo://app?vid=4b248c7f-5f4c-4f0b-abd2-7d3e38cdb6a0"},"vehicle_type_id":"4","last_reported":1745662149,"current_range_meters":24400,"station_id":"ce4bhah2rcd13ifvqei0","pricing_plan_id":"cebpf4jnsgd1na2vs0mg"},{"bike_id":"2d8e6e0f-83c8-4793-8a36-e7159a5addb1","system_id":"levelo_inurba_marseille","lat":43.266757,"lon":5.382536,"is_reserved":false,"is_disabled":false,"rental_uris":{"android":"levelo://app?vid=2d8e6e0f-83c8-4793-8a36-e7159a5addb1","ios":"levelo://app?vid=2d8e6e0f-83c8-4793-8a36-e7159a5addb1"},"vehicle_type_id":"4","last_reported":1745662149,"current_range_meters":24400,"station_id":"ce4bhg92rcd13ifvqf90","pricing_plan_id":"cebpf4jnsgd1na2vs0mg"},{"bike_id":"8eada09a-fc38-4d97-8c50-1083a6c1c370","system_id":"levelo_inurba_marseille","lat":43.31235,"lon":5.36854,"is_reserved":false,"is_disabled":true,"rental_uris":{"android":"levelo://app?vid=8eada09a-fc38-4d97-8c50-1083a6c1c370","ios":"levelo://app?vid=8eada09a-fc38-4d97-8c50-1083a6c1c370"},"vehicle_type_id":"4","last_reported":1745662149,"current_range_meters":24400,"station_id":"ce4bgl92rcd13ifvqbq0","pricing_plan_id":"cebpf4jnsgd1na2vs0mg"},{"bike_id":"889eaa09-9675-43c7-b70a-aa04181f595e","system_id":"levelo_inurba_marseille","lat":43.217522,"lon":5.345988,"is_reserved":false,"is_disabled":false,"rental_uris":{"android":"levelo://app?vid=889eaa09-9675-43c7-b70a-aa04181f595e","ios":"levelo://app?vid=889eaa09-9675-43c7-b70a-aa04181f595e"},"vehicle_type_id":"4","last_reported":1745662149,"current_range_meters":24400,"station_id":"st_cvj6r9ubvosntc0bgbag","pricing_plan_id":"cebpf4jnsgd1na2vs0mg"},{"bike_id":"d31c52e4-d011-4981-b272-ec08a9177319","system_id":"levelo_inurba_marseille","lat":43.29782,"lon":5.37108,"is_reserved":false,"is_disabled":false,"rental_uris":{"android":"levelo://app?vid=d31c52e4-d011-4981-b272-ec08a9177319","ios":"levelo://app?vid=d31c52e4-d011-4981-b272-ec08a9177319"},"vehicle_type_id":"4","last_reported":1745662149,"current_range_meters":24400,"station_id":"ce4bgop2rcd13ifvqc1g","pricing_plan_id":"cebpf4jnsgd1na2vs0mg"},{"bike_id":"14750af9-52a2-4031-998b-a1cb9e34d139","system_id":"levelo_inurba_marseille","lat":43.2738,"lon":5.36245,"is_reserved":false,"is_disabled":true,"rental_uris":{"android":"levelo://app?vid=14750af9-52a2-4031-998b-a1cb9e34d139","ios":"levelo://app?vid=14750af9-52a2-4031-998b-a1cb9e34d139"},"vehicle_type_id":"4","last_reported":1745662149,"current_range_meters":24800,"station_id":"ce4bhbh2rcd13ifvqeo0","pricing_plan_id":"cebpf4jnsgd1na2vs0mg"},{"bike_id":"340fc6c9-452c-402d-bc42-1c4a0fc05e1f","system_id":"levelo_inurba_marseille","lat":43.23971,"lon":5.36617,"is_reserved":false,"is_disabled":false,"rental_uris":{"android":"levelo://app?vid=340fc6c9-452c-402d-bc42-1c4a0fc05e1f","ios":"levelo://app?vid=340fc6c9-452c-402d-bc42-1c4a0fc05e1f"},"vehicle_type_id":"4","last_reported":1745662149,"current_range_meters":24800,"station_id":"ce4bhi12rcd13ifvqfp0","pricing_plan_id":"cebpf4jnsgd1na2vs0mg"},{"bike_id":"0d9a728d-872b-4bae-af78-38b6c62cc8db","system_id":"levelo_inurba_marseille","lat":43.3081,"lon":5.37664,"is_reserved":false,"is_disabled":false,"rental_uris":{"android":"levelo://app?vid=0d9a728d-872b-4bae-af78-38b6c62cc8db","ios":"levelo://app?vid=0d9a728d-872b-4bae-af78-38b6c62cc8db"},"vehicle_type_id":"4","last_reported":1745662149,"current_range_meters":24800,"station_id":"ce4bgv92rcd13ifvqcq0","pricing_plan_id":"cebpf4jnsgd1na2vs0mg"},{"bike_id":"53143828-ddf8-4092-aff9-44779cf56402","system_id":"levelo_inurba_marseille","lat":43.26791,"lon":5.40259,"is_reserved":false,"is_disabled":false,"rental_uris":{"android":"levelo://app?vid=53143828-ddf8-4092-aff9-44779cf56402","ios":"levelo://app?vid=53143828-ddf8-4092-aff9-44779cf56402"},"vehicle_type_id":"4","last_reported":1745662149,"current_range_meters":24800,"station_id":"ce501612rcd8frsf0b60","pricing_plan_id":"cebpf4jnsgd1na2vs0mg"},{"bike_id":"4ca1bb01-2898-471f-8dab-259a33b980aa","system_id":"levelo_inurba_marseille","lat":43.29858,"lon":5.3972,"is_reserved":false,"is_disabled":false,"rental_uris":{"android":"levelo://app?vid=4ca1bb01-2898-471f-8dab-259a33b980aa","ios":"levelo://app?vid=4ca1bb01-2898-471f-8dab-259a33b980aa"},"vehicle_type_id":"4","last_reported":1745662149,"current_range_meters":24800,"station_id":"ce4bh0h2rcd13ifvqd50","pricing_plan_id":"cebpf4jnsgd1na2vs0mg"},{"bike_id":"7e0bb274-7e5d-45bb-b8f3-a3f32c7e67f4","system_id":"levelo_inurba_marseille","lat":43.21187,"lon":5.35067,"is_reserved":false,"is_disabled":false,"rental_uris":{"android":"levelo://app?vid=7e0bb274-7e5d-45bb-b8f3-a3f32c7e67f4","ios":"levelo://app?vid=7e0bb274-7e5d-45bb-b8f3-a3f32c7e67f4"},"vehicle_type_id":"4","last_reported":1745662149,"current_range_meters":24800,"station_id":"st_cvj6sg6p6f1abm77japg","pricing_plan_id":"cebpf4jnsgd1na2vs0mg"},{"bike_id":"78564899-39c4-4039-89d3-55c569b1a89d","system_id":"levelo_inurba_marseille","lat":43.21188,"lon":5.35079,"is_reserved":false,"is_disabled":false,"rental_uris":{"android":"levelo://app?vid=78564899-39c4-4039-89d3-55c569b1a89d","ios":"levelo://app?vid=78564899-39c4-4039-89d3-55c569b1a89d"},"vehicle_type_id":"4","last_reported":1745662149,"current_range_meters":24800,"station_id":"st_cvj6sg6p6f1abm77japg","pricing_plan_id":"cebpf4jnsgd1na2vs0mg"},{"bike_id":"8584a61d-19dc-451d-9632-3074c5587f94","system_id":"levelo_inurba_marseille","lat":43.29851,"lon":5.36288,"is_reserved":false,"is_disabled":false,"rental_uris":{"android":"levelo://app?vid=8584a61d-19dc-451d-9632-3074c5587f94","ios":"levelo://app?vid=8584a61d-19dc-451d-9632-3074c5587f94"},"vehicle_type_id":"4","last_reported":1745662149,"current_range_meters":25200,"station_id":"ce4bgpp2rcd13ifvqc3g","pricing_plan_id":"cebpf4jnsgd1na2vs0mg"},{"bike_id":"bcf8e3ca-8df1-46c0-8140-13038ddc93fd","system_id":"levelo_inurba_marseille","lat":43.24797,"lon":5.41183,"is_reserved":false,"is_disabled":false,"rental_uris":{"android":"levelo://app?vid=bcf8e3ca-8df1-46c0-8140-13038ddc93fd","ios":"levelo://app?vid=bcf8e3ca-8df1-46c0-8140-13038ddc93fd"},"vehicle_type_id":"4","last_reported":1745662149,"current_range_meters":25200,"station_id":"","pricing_plan_id":"cebpf4jnsgd1na2vs0mg"},{"bike_id":"59bf536a-a18e-4002-bcd9-3801cf5b720b","system_id":"levelo_inurba_marseille","lat":43.286679,"lon":5.386771,"is_reserved":false,"is_disabled":false,"rental_uris":{"android":"levelo://app?vid=59bf536a-a18e-4002-bcd9-3801cf5b720b","ios":"levelo://app?vid=59bf536a-a18e-4002-bcd9-3801cf5b720b"},"vehicle_type_id":"4","last_reported":1745662149,"current_range_meters":25200,"station_id":"ce4bh492rcd13ifvqdug","pricing_plan_id":"cebpf4jnsgd1na2vs0mg"},{"bike_id":"42266903-a36e-42f7-9a98-b59fa1668115","system_id":"levelo_inurba_marseille","lat":43.2827,"lon":5.35065,"is_reserved":false,"is_disabled":false,"rental_uris":{"android":"levelo://app?vid=42266903-a36e-42f7-9a98-b59fa1668115","ios":"levelo://app?vid=42266903-a36e-42f7-9a98-b59fa1668115"},"vehicle_type_id":"4","last_reported":1745662149,"current_range_meters":25200,"station_id":"ce4bhbp2rcd13ifvqerg","pricing_plan_id":"cebpf4jnsgd1na2vs0mg"},{"bike_id":"eae67fea-597b-44ad-b411-534db4296cd5","system_id":"levelo_inurba_marseille","lat":43.299321,"lon":5.365482,"is_reserved":false,"is_disabled":false,"rental_uris":{"android":"levelo://app?vid=eae67fea-597b-44ad-b411-534db4296cd5","ios":"levelo://app?vid=eae67fea-597b-44ad-b411-534db4296cd5"},"vehicle_type_id":"4","last_reported":1745662149,"current_range_meters":25200,"station_id":"ce4bgop2rcd13ifvqc1g","pricing_plan_id":"cebpf4jnsgd1na2vs0mg"},{"bike_id":"9c5cc6e4-3700-4428-92a2-7c90f1255056","system_id":"levelo_inurba_marseille","lat":43.31017,"lon":5.37099,"is_reserved":false,"is_disabled":false,"rental_uris":{"android":"levelo://app?vid=9c5cc6e4-3700-4428-92a2-7c90f1255056","ios":"levelo://app?vid=9c5cc6e4-3700-4428-92a2-7c90f1255056"},"vehicle_type_id":"4","last_reported":1745662149,"current_range_meters":25200,"station_id":"","pricing_plan_id":"cebpf4jnsgd1na2vs0mg"},{"bike_id":"69e3329e-ae18-4bf1-8b16-f2667cb87823","system_id":"levelo_inurba_marseille","lat":43.32129,"lon":5.36785,"is_reserved":false,"is_disabled":false,"rental_uris":{"android":"levelo://app?vid=69e3329e-ae18-4bf1-8b16-f2667cb87823","ios":"levelo://app?vid=69e3329e-ae18-4bf1-8b16-f2667cb87823"},"vehicle_type_id":"4","last_reported":1745662149,"current_range_meters":25200,"station_id":"ce4bhrh2rcd13ifvqhug","pricing_plan_id":"cebpf4jnsgd1na2vs0mg"},{"bike_id":"f9843b51-8532-4ae1-9133-60899c848700","system_id":"levelo_inurba_marseille","lat":43.2749,"lon":5.42389,"is_reserved":false,"is_disabled":false,"rental_uris":{"android":"levelo://app?vid=f9843b51-8532-4ae1-9133-60899c848700","ios":"levelo://app?vid=f9843b51-8532-4ae1-9133-60899c848700"},"vehicle_type_id":"4","last_reported":1745662149,"current_range_meters":25600,"station_id":"ce4bhn92rcd13ifvqgrg","pricing_plan_id":"cebpf4jnsgd1na2vs0mg"},{"bike_id":"1b3dc60a-e2a0-4e2b-b753-736de2cdb529","system_id":"levelo_inurba_marseille","lat":43.2175,"lon":5.34603,"is_reserved":false,"is_disabled":false,"rental_uris":{"android":"levelo://app?vid=1b3dc60a-e2a0-4e2b-b753-736de2cdb529","ios":"levelo://app?vid=1b3dc60a-e2a0-4e2b-b753-736de2cdb529"},"vehicle_type_id":"4","last_reported":1745662149,"current_range_meters":25600,"station_id":"st_cvj6r9ubvosntc0bgbag","pricing_plan_id":"cebpf4jnsgd1na2vs0mg"},{"bike_id":"3c2cee3d-5da9-4b64-afa8-1408db51ca58","system_id":"levelo_inurba_marseille","lat":43.30476,"lon":5.37899,"is_reserved":false,"is_disabled":false,"rental_uris":{"android":"levelo://app?vid=3c2cee3d-5da9-4b64-afa8-1408db51ca58","ios":"levelo://app?vid=3c2cee3d-5da9-4b64-afa8-1408db51ca58"},"vehicle_type_id":"4","last_reported":1745662149,"current_range_meters":25600,"station_id":"ce4bgup2rcd13ifvqcn0","pricing_plan_id":"cebpf4jnsgd1na2vs0mg"},{"bike_id":"f2ad548a-b885-49f7-802c-6af835d45ebe","system_id":"levelo_inurba_marseille","lat":43.23966,"lon":5.36626,"is_reserved":false,"is_disabled":false,"rental_uris":{"android":"levelo://app?vid=f2ad548a-b885-49f7-802c-6af835d45ebe","ios":"levelo://app?vid=f2ad548a-b885-49f7-802c-6af835d45ebe"},"vehicle_type_id":"4","last_reported":1745662149,"current_range_meters":25600,"station_id":"ce4bhi12rcd13ifvqfp0","pricing_plan_id":"cebpf4jnsgd1na2vs0mg"},{"bike_id":"10e7d9a9-d3f8-4265-8e3d-dfec16f1c3fd","system_id":"levelo_inurba_marseille","lat":43.21193,"lon":5.35069,"is_reserved":false,"is_disabled":false,"rental_uris":{"android":"levelo://app?vid=10e7d9a9-d3f8-4265-8e3d-dfec16f1c3fd","ios":"levelo://app?vid=10e7d9a9-d3f8-4265-8e3d-dfec16f1c3fd"},"vehicle_type_id":"4","last_reported":1745662149,"current_range_meters":25600,"station_id":"st_cvj6sg6p6f1abm77japg","pricing_plan_id":"cebpf4jnsgd1na2vs0mg"},{"bike_id":"be3cfa32-b5e9-44e8-be60-2a7178b889d0","system_id":"levelo_inurba_marseille","lat":43.24397,"lon":5.37054,"is_reserved":false,"is_disabled":false,"rental_uris":{"android":"levelo://app?vid=be3cfa32-b5e9-44e8-be60-2a7178b889d0","ios":"levelo://app?vid=be3cfa32-b5e9-44e8-be60-2a7178b889d0"},"vehicle_type_id":"4","last_reported":1745662149,"current_range_meters":25600,"station_id":"ce4bhhh2rcd13ifvqfk0","pricing_plan_id":"cebpf4jnsgd1na2vs0mg"},{"bike_id":"a4a864d7-cb49-4be5-847b-ad74af043310","system_id":"levelo_inurba_marseille","lat":43.29006,"lon":5.35614,"is_reserved":false,"is_disabled":false,"rental_uris":{"android":"levelo://app?vid=a4a864d7-cb49-4be5-847b-ad74af043310","ios":"levelo://app?vid=a4a864d7-cb49-4be5-847b-ad74af043310"},"vehicle_type_id":"4","last_reported":1745662149,"current_range_meters":25600,"station_id":"ce4bhb92rcd13ifvqen0","pricing_plan_id":"cebpf4jnsgd1na2vs0mg"},{"bike_id":"6bb26f34-6ad3-49b8-942e-2db1f05232ab","system_id":"levelo_inurba_marseille","lat":43.270398,"lon":5.363716,"is_reserved":false,"is_disabled":false,"rental_uris":{"android":"levelo://app?vid=6bb26f34-6ad3-49b8-942e-2db1f05232ab","ios":"levelo://app?vid=6bb26f34-6ad3-49b8-942e-2db1f05232ab"},"vehicle_type_id":"4","last_reported":1745662149,"current_range_meters":25600,"station_id":"ce4bhg92rcd13ifvqf90","pricing_plan_id":"cebpf4jnsgd1na2vs0mg"},{"bike_id":"24cdc6b3-81bd-4edd-a5d9-ebcf2696338c","system_id":"levelo_inurba_marseille","lat":43.29091,"lon":5.38133,"is_reserved":false,"is_disabled":false,"rental_uris":{"android":"levelo://app?vid=24cdc6b3-81bd-4edd-a5d9-ebcf2696338c","ios":"levelo://app?vid=24cdc6b3-81bd-4edd-a5d9-ebcf2696338c"},"vehicle_type_id":"4","last_reported":1745662149,"current_range_meters":26000,"station_id":"ce4bh512rcd13ifvqe2g","pricing_plan_id":"cebpf4jnsgd1na2vs0mg"},{"bike_id":"24bbe4cd-c4d8-470b-84b5-c63833062eb6","system_id":"levelo_inurba_marseille","lat":43.211926,"lon":5.350753,"is_reserved":false,"is_disabled":false,"rental_uris":{"android":"levelo://app?vid=24bbe4cd-c4d8-470b-84b5-c63833062eb6","ios":"levelo://app?vid=24bbe4cd-c4d8-470b-84b5-c63833062eb6"},