{"last_updated":1744978717,"ttl":60,"version":"2.2","data":{"bikes":[{"bike_id":"afc325bc-0110-44a5-b722-ca9578c86f0b","system_id":"levelo_inurba_marseille","lat":43.28418,"lon":5.34977,"is_reserved":false,"is_disabled":false,"rental_uris":{"android":"levelo://app?vid=afc325bc-0110-44a5-b722-ca9578c86f0b","ios":"levelo://app?vid=afc325bc-0110-44a5-b722-ca9578c86f0b"},"vehicle_type_id":"4","last_reported":1744978717,"current_range_meters":2800,"station_id":"ce4bhbh2rcd13ifvqepg","pricing_plan_id":"cebpf4jnsgd1na2vs0mg"},{"bike_id":"5620608f-f71f-477b-9dbb-2d5528e3fa79","system_id":"levelo_inurba_marseille","lat":43.29006,"lon":5.35612,"is_reserved":false,"is_disabled":false,"rental_uris":{"android":"levelo://app?vid=5620608f-f71f-477b-9dbb-2d5528e3fa79","ios":"levelo://app?vid=5620608f-f71f-477b-9dbb-2d5528e3fa79"},"vehicle_type_id":"4","last_reported":1744978717,"current_range_meters":3200,"station_id":"ce4bhb92rcd13ifvqen0","pricing_plan_id":"cebpf4jnsgd1na2vs0mg"},{"bike_id":"d319ddc1-f2b9-4f12-85a6-e9ba8614a99d","system_id":"levelo_inurba_marseille","lat":43.217468,"lon":5.346043,"is_reserved":false,"is_disabled":false,"rental_uris":{"android":"levelo://app?vid=d319ddc1-f2b9-4f12-85a6-e9ba8614a99d","ios":"levelo://app?vid=d319ddc1-f2b9-4f12-85a6-e9ba8614a99d"},"vehicle_type_id":"4","last_reported":1744978717,"current_range_meters":3600,"station_id":"st_cvj6r9ubvosntc0bgbag","pricing_plan_id":"cebpf4jnsgd1na2vs0mg"},{"bike_id":"593f200f-acc6-4515-9b2c-377663e6c433","system_id":"levelo_inurba_marseille","lat":43.21754,"lon":5.34591,"is_reserved":false,"is_disabled":true,"rental_uris":{"android":"levelo://app?vid=593f200f-acc6-4515-9b2c-377663e6c433","ios":"levelo://app?vid=593f200f-acc6-4515-9b2c-377663e6c433"},"vehicle_type_id":"4","last_reported":1744978717,"current_range_meters":3600,"station_id":"st_cvj6r9ubvosntc0bgbag","pricing_plan_id":"cebpf4jnsgd1na2vs0mg"},{"bike_id":"2e93ca96-4d48-4800-ba61-feaf760b88c5","system_id":"levelo_inurba_marseille","lat":43.21751,"lon":5.34613,"is_reserved":false,"is_disabled":false,"rental_uris":{"android":"levelo://app?vid=2e93ca96-4d48-4800-ba61-feaf760b88c5","ios":"levelo://app?vid=2e93ca96-4d48-4800-ba61-feaf760b88c5"},"vehicle_type_id":"4","last_reported":1744978717,"current_range_meters":4000,"station_id":"st_cvj6r9ubvosntc0bgbag","pricing_plan_id":"cebpf4jnsgd1na2vs0mg"},{"bike_id":"278fe024-b2fb-4554-9012-d8a068f313f3","system_id":"levelo_inurba_marseille","lat":43.26025,"lon":5.37565,"is_reserved":false,"is_disabled":false,"rental_uris":{"android":"levelo://app?vid=278fe024-b2fb-4554-9012-d8a068f313f3","ios":"levelo://app?vid=278fe024-b2fb-4554-9012-d8a068f313f3"},"vehicle_type_id":"4","last_reported":1744978717,"current_range_meters":4000,"station_id":"ce4bhgh2rcd13ifvqfa0","pricing_plan_id":"cebpf4jnsgd1na2vs0mg"},{"bike_id":"d0c7dc1c-fff8-42ec-bb6c-20a4bb640b62","system_id":"levelo_inurba_marseille","lat":43.3064,"lon":5.40104,"is_reserved":false,"is_disabled":false,"rental_uris":{"android":"levelo://app?vid=d0c7dc1c-fff8-42ec-bb6c-20a4bb640b62","ios":"levelo://app?vid=d0c7dc1c-fff8-42ec-bb6c-20a4bb640b62"},"vehicle_type_id":"4","last_reported":1744978717,"current_range_meters":4000,"station_id":"ce4bh112rcd13ifvqda0","pricing_plan_id":"cebpf4jnsgd1na2vs0mg"},{"bike_id":"82323769-0d3c-4546-91b3-68bd9f682745","system_id":"levelo_inurba_marseille","lat":43.27055,"lon":5.40261,"is_reserved":false,"is_disabled":false,"rental_uris":{"android":"levelo://app?vid=82323769-0d3c-4546-91b3-68bd9f682745","ios":"levelo://app?vid=82323769-0d3c-4546-91b3-68bd9f682745"},"vehicle_type_id":"4","last_reported":1744978717,"current_range_meters":4000,"station_id":"ce4bhk92rcd13ifvqgc0","pricing_plan_id":"cebpf4jnsgd1na2vs0mg"},{"bike_id":"983dc928-c8a8-4143-9cfa-507cac334f72","system_id":"levelo_inurba_marseille","lat":43.2511,"lon":5.40334,"is_reserved":false,"is_disabled":false,"rental_uris":{"android":"levelo://app?vid=983dc928-c8a8-4143-9cfa-507cac334f72","ios":"levelo://app?vid=983dc928-c8a8-4143-9cfa-507cac334f72"},"vehicle_type_id":"4","last_reported":1744978717,"current_range_meters":4400,"station_id":"ce4bhlh2rcd13ifvqgig","pricing_plan_id":"cebpf4jnsgd1na2vs0mg"},{"bike_id":"50dc23ed-5e19-46ee-92cf-f2ca4c445852","system_id":"levelo_inurba_marseille","lat":43.33736,"lon":5.39192,"is_reserved":false,"is_disabled":false,"rental_uris":{"android":"levelo://app?vid=50dc23ed-5e19-46ee-92cf-f2ca4c445852","ios":"levelo://app?vid=50dc23ed-5e19-46ee-92cf-f2ca4c445852"},"vehicle_type_id":"4","last_reported":1744978717,"current_range_meters":4400,"station_id":"ce4bhr92rcd13ifvqhsg","pricing_plan_id":"cebpf4jnsgd1na2vs0mg"},{"bike_id":"206e6eed-90ee-4177-ab5a-4bcb1810ce02","system_id":"levelo_inurba_marseille","lat":43.323613,"lon":5.367644,"is_reserved":false,"is_disabled":false,"rental_uris":{"android":"levelo://app?vid=206e6eed-90ee-4177-ab5a-4bcb1810ce02","ios":"levelo://app?vid=206e6eed-90ee-4177-ab5a-4bcb1810ce02"},"vehicle_type_id":"4","last_reported":1744978717,"current_range_meters":4800,"station_id":"ce4bhsh2rcd13ifvqi2g","pricing_plan_id":"cebpf4jnsgd1na2vs0mg"},{"bike_id":"da22cb33-b60e-4271-8cdd-03cb2ab83476","system_id":"levelo_inurba_marseille","lat":43.274198,"lon":5.394217,"is_reserved":false,"is_disabled":false,"rental_uris":{"android":"levelo://app?vid=da22cb33-b60e-4271-8cdd-03cb2ab83476","ios":"levelo://app?vid=da22cb33-b60e-4271-8cdd-03cb2ab83476"},"vehicle_type_id":"4","last_reported":1744978717,"current_range_meters":4800,"station_id":"ce4bhdp2rcd13ifvqf20","pricing_plan_id":"cebpf4jnsgd1na2vs0mg"},{"bike_id":"d3455303-ad12-477a-98fb-6b1ea11029e4","system_id":"levelo_inurba_marseille","lat":43.30374,"lon":5.42483,"is_reserved":false,"is_disabled":false,"rental_uris":{"android":"levelo://app?vid=d3455303-ad12-477a-98fb-6b1ea11029e4","ios":"levelo://app?vid=d3455303-ad12-477a-98fb-6b1ea11029e4"},"vehicle_type_id":"4","last_reported":1744978717,"current_range_meters":5600,"station_id":"ce4bhoh2rcd13ifvqh6g","pricing_plan_id":"cebpf4jnsgd1na2vs0mg"},{"bike_id":"bde58608-2a99-4568-a23c-bbf0211f9ec4","system_id":"levelo_inurba_marseille","lat":43.27199,"lon":5.3919,"is_reserved":false,"is_disabled":false,"rental_uris":{"android":"levelo://app?vid=bde58608-2a99-4568-a23c-bbf0211f9ec4","ios":"levelo://app?vid=bde58608-2a99-4568-a23c-bbf0211f9ec4"},"vehicle_type_id":"4","last_reported":1744978717,"current_range_meters":5600,"station_id":"ce4bhhp2rcd13ifvqfm0","pricing_plan_id":"cebpf4jnsgd1na2vs0mg"},{"bike_id":"feb647ca-7a8f-4f1a-b97c-2b80e6d0277d","system_id":"levelo_inurba_marseille","lat":43.30352,"lon":5.42428,"is_reserved":false,"is_disabled":false,"rental_uris":{"android":"levelo://app?vid=feb647ca-7a8f-4f1a-b97c-2b80e6d0277d","ios":"levelo://app?vid=feb647ca-7a8f-4f1a-b97c-2b80e6d0277d"},"vehicle_type_id":"4","last_reported":1744978717,"current_range_meters":5600,"station_id":"ce4bhoh2rcd13ifvqh6g","pricing_plan_id":"cebpf4jnsgd1na2vs0mg"},{"bike_id":"2df22311-bac1-4b8f-abff-11893969de63","system_id":"levelo_inurba_marseille","lat":43.31085,"lon":5.37835,"is_reserved":false,"is_disabled":false,"rental_uris":{"android":"levelo://app?vid=2df22311-bac1-4b8f-abff-11893969de63","ios":"levelo://app?vid=2df22311-bac1-4b8f-abff-11893969de63"},"vehicle_type_id":"4","last_reported":1744978717,"current_range_meters":6000,"station_id":"","pricing_plan_id":"cebpf4jnsgd1na2vs0mg"},{"bike_id":"e76672c6-c6b2-46e2-9da9-d51fcefc6261","system_id":"levelo_inurba_marseille","lat":43.24067,"lon":5.37752,"is_reserved":false,"is_disabled":false,"rental_uris":{"android":"levelo://app?vid=e76672c6-c6b2-46e2-9da9-d51fcefc6261","ios":"levelo://app?vid=e76672c6-c6b2-46e2-9da9-d51fcefc6261"},"vehicle_type_id":"4","last_reported":1744978717,"current_range_meters":6000,"station_id":"ce4bhnp2rcd13ifvqgvg","pricing_plan_id":"cebpf4jnsgd1na2vs0mg"},{"bike_id":"a57ce5d9-459b-45fb-992f-b3c24896c726","system_id":"levelo_inurba_marseille","lat":43.262021,"lon":5.37934,"is_reserved":false,"is_disabled":false,"rental_uris":{"android":"levelo://app?vid=a57ce5d9-459b-45fb-992f-b3c24896c726","ios":"levelo://app?vid=a57ce5d9-459b-45fb-992f-b3c24896c726"},"vehicle_type_id":"4","last_reported":1744978717,"current_range_meters":6000,"station_id":"ce4bhh12rcd13ifvqfg0","pricing_plan_id":"cebpf4jnsgd1na2vs0mg"},{"bike_id":"4b399adb-73bc-432e-be56-80e441b9d2f7","system_id":"levelo_inurba_marseille","lat":43.2827,"lon":5.35065,"is_reserved":false,"is_disabled":false,"rental_uris":{"android":"levelo://app?vid=4b399adb-73bc-432e-be56-80e441b9d2f7","ios":"levelo://app?vid=4b399adb-73bc-432e-be56-80e441b9d2f7"},"vehicle_type_id":"4","last_reported":1744978717,"current_range_meters":6400,"station_id":"ce4bhbp2rcd13ifvqerg","pricing_plan_id":"cebpf4jnsgd1na2vs0mg"},{"bike_id":"2a297b53-e6c9-4a44-8832-a1535085da75","system_id":"levelo_inurba_marseille","lat":43.31987,"lon":5.38145,"is_reserved":false,"is_disabled":true,"rental_uris":{"android":"levelo://app?vid=2a297b53-e6c9-4a44-8832-a1535085da75","ios":"levelo://app?vid=2a297b53-e6c9-4a44-8832-a1535085da75"},"vehicle_type_id":"4","last_reported":1744978717,"current_range_meters":6400,"station_id":"ce4bhr12rcd13ifvqhpg","pricing_plan_id":"cebpf4jnsgd1na2vs0mg"},{"bike_id":"756c473e-18db-4cb6-a7f4-a6f9fa1708a4","system_id":"levelo_inurba_marseille","lat":43.292044,"lon":5.393171,"is_reserved":false,"is_disabled":false,"rental_uris":{"android":"levelo://app?vid=756c473e-18db-4cb6-a7f4-a6f9fa1708a4","ios":"levelo://app?vid=756c473e-18db-4cb6-a7f4-a6f9fa1708a4"},"vehicle_type_id":"4","last_reported":1744978717,"current_range_meters":6400,"station_id":"ce4bh2p2rcd13ifvqdi0","pricing_plan_id":"cebpf4jnsgd1na2vs0mg"},{"bike_id":"9d8b11c2-1c63-4ecc-889b-73c59fedb4b8","system_id":"levelo_inurba_marseille","lat":43.27619,"lon":5.36098,"is_reserved":false,"is_disabled":false,"rental_uris":{"android":"levelo://app?vid=9d8b11c2-1c63-4ecc-889b-73c59fedb4b8","ios":"levelo://app?vid=9d8b11c2-1c63-4ecc-889b-73c59fedb4b8"},"vehicle_type_id":"4","last_reported":1744978717,"current_range_meters":6000,"station_id":"ce4bgj92rcd13ifvqbe0","pricing_plan_id":"cebpf4jnsgd1na2vs0mg"},{"bike_id":"b5e16c44-c6cc-4253-b466-143426aa0017","system_id":"levelo_inurba_marseille","lat":43.31334,"lon":5.3671,"is_reserved":false,"is_disabled":false,"rental_uris":{"android":"levelo://app?vid=b5e16c44-c6cc-4253-b466-143426aa0017","ios":"levelo://app?vid=b5e16c44-c6cc-4253-b466-143426aa0017"},"vehicle_type_id":"4","last_reported":1744978717,"current_range_meters":6400,"station_id":"ce4bgr92rcd13ifvqc6g","pricing_plan_id":"cebpf4jnsgd1na2vs0mg"},{"bike_id":"683727aa-af5c-4a30-b620-923da0da034b","system_id":"levelo_inurba_marseille","lat":43.26852,"lon":5.40483,"is_reserved":false,"is_disabled":false,"rental_uris":{"android":"levelo://app?vid=683727aa-af5c-4a30-b620-923da0da034b","ios":"levelo://app?vid=683727aa-af5c-4a30-b620-923da0da034b"},"vehicle_type_id":"4","last_reported":1744978717,"current_range_meters":6400,"station_id":"cjm6bp8fraef2m0cb0m0","pricing_plan_id":"cebpf4jnsgd1na2vs0mg"},{"bike_id":"4041ec3b-fea6-41ef-b276-291a43b2dc05","system_id":"levelo_inurba_marseille","lat":43.26772,"lon":5.39425,"is_reserved":false,"is_disabled":false,"rental_uris":{"android":"levelo://app?vid=4041ec3b-fea6-41ef-b276-291a43b2dc05","ios":"levelo://app?vid=4041ec3b-fea6-41ef-b276-291a43b2dc05"},"vehicle_type_id":"4","last_reported":1744978717,"current_range_meters":6400,"station_id":"ce4bhh12rcd13ifvqfg0","pricing_plan_id":"cebpf4jnsgd1na2vs0mg"},{"bike_id":"3dae6117-e2b9-49fd-8709-a51e473e1c2a","system_id":"levelo_inurba_marseille","lat":43.29202,"lon":5.35804,"is_reserved":false,"is_disabled":false,"rental_uris":{"android":"levelo://app?vid=3dae6117-e2b9-49fd-8709-a51e473e1c2a","ios":"levelo://app?vid=3dae6117-e2b9-49fd-8709-a51e473e1c2a"},"vehicle_type_id":"4","last_reported":1744978717,"current_range_meters":6400,"station_id":"ce4bhb12rcd13ifvqel0","pricing_plan_id":"cebpf4jnsgd1na2vs0mg"},{"bike_id":"1a2cafee-c5af-4b1e-bb21-73b2e6abc0af","system_id":"levelo_inurba_marseille","lat":43.32475,"lon":5.36567,"is_reserved":false,"is_disabled":false,"rental_uris":{"android":"levelo://app?vid=1a2cafee-c5af-4b1e-bb21-73b2e6abc0af","ios":"levelo://app?vid=1a2cafee-c5af-4b1e-bb21-73b2e6abc0af"},"vehicle_type_id":"4","last_reported":1744978717,"current_range_meters":6800,"station_id":"ce4bhs12rcd13ifvqhvg","pricing_plan_id":"cebpf4jnsgd1na2vs0mg"},{"bike_id":"3e1bbdc2-9d83-45b0-9a7e-60db3703cca1","system_id":"levelo_inurba_marseille","lat":43.24178,"lon":5.39738,"is_reserved":false,"is_disabled":false,"rental_uris":{"android":"levelo://app?vid=3e1bbdc2-9d83-45b0-9a7e-60db3703cca1","ios":"levelo://app?vid=3e1bbdc2-9d83-45b0-9a7e-60db3703cca1"},"vehicle_type_id":"4","last_reported":1744978717,"current_range_meters":6800,"station_id":"ce4bhn12rcd13ifvqgpg","pricing_plan_id":"cebpf4jnsgd1na2vs0mg"},{"bike_id":"42045253-f554-461d-b54d-e99d851a43b3","system_id":"levelo_inurba_marseille","lat":43.22507,"lon":5.34772,"is_reserved":false,"is_disabled":false,"rental_uris":{"android":"levelo://app?vid=42045253-f554-461d-b54d-e99d851a43b3","ios":"levelo://app?vid=42045253-f554-461d-b54d-e99d851a43b3"},"vehicle_type_id":"4","last_reported":1744978717,"current_range_meters":6800,"station_id":"st_cvj5dfep6f1abm77gieg","pricing_plan_id":"cebpf4jnsgd1na2vs0mg"},{"bike_id":"2314c44b-14c7-472b-b86c-68281eab5081","system_id":"levelo_inurba_marseille","lat":43.29257,"lon":5.40919,"is_reserved":false,"is_disabled":false,"rental_uris":{"android":"levelo://app?vid=2314c44b-14c7-472b-b86c-68281eab5081","ios":"levelo://app?vid=2314c44b-14c7-472b-b86c-68281eab5081"},"vehicle_type_id":"4","last_reported":1744978717,"current_range_meters":6800,"station_id":"ce4bh192rcd13ifvqdc0","pricing_plan_id":"cebpf4jnsgd1na2vs0mg"},{"bike_id":"97d758ae-f4cd-4ca2-a59f-a917c4dc14ef","system_id":"levelo_inurba_marseille","lat":43.29294,"lon":5.37466,"is_reserved":false,"is_disabled":false,"rental_uris":{"android":"levelo://app?vid=97d758ae-f4cd-4ca2-a59f-a917c4dc14ef","ios":"levelo://app?vid=97d758ae-f4cd-4ca2-a59f-a917c4dc14ef"},"vehicle_type_id":"4","last_reported":1744978717,"current_range_meters":7200,"station_id":"ce4bgi12rcd13ifvqb70","pricing_plan_id":"cebpf4jnsgd1na2vs0mg"},{"bike_id":"a95f5b70-fc3a-4f2f-83c3-82dea2a9ffc6","system_id":"levelo_inurba_marseille","lat":43.22924,"lon":5.35378,"is_reserved":false,"is_disabled":false,"rental_uris":{"android":"levelo://app?vid=a95f5b70-fc3a-4f2f-83c3-82dea2a9ffc6","ios":"levelo://app?vid=a95f5b70-fc3a-4f2f-83c3-82dea2a9ffc6"},"vehicle_type_id":"4","last_reported":1744978717,"current_range_meters":7200,"station_id":"cpo3532slgdg3j2ikp40","pricing_plan_id":"cebpf4jnsgd1na2vs0mg"},{"bike_id":"ba5c584e-338b-4639-ae1b-1ce0447acfa1","system_id":"levelo_inurba_marseille","lat":43.286372,"lon":5.393038,"is_reserved":false,"is_disabled":false,"rental_uris":{"android":"levelo://app?vid=ba5c584e-338b-4639-ae1b-1ce0447acfa1","ios":"levelo://app?vid=ba5c584e-338b-4639-ae1b-1ce0447acfa1"},"vehicle_type_id":"4","last_reported":1744978717,"current_range_meters":7200,"station_id":"","pricing_plan_id":"cebpf4jnsgd1na2vs0mg"},{"bike_id":"1a2eea39-a419-498b-8340-174c0c51a46e","system_id":"levelo_inurba_marseille","lat":43.23064,"lon":5.3549,"is_reserved":false,"is_disabled":false,"rental_uris":{"android":"levelo://app?vid=1a2eea39-a419-498b-8340-174c0c51a46e","ios":"levelo://app?vid=1a2eea39-a419-498b-8340-174c0c51a46e"},"vehicle_type_id":"4","last_reported":1744978717,"current_range_meters":7200,"station_id":"cpo3342slgdg3j2ifvpg","pricing_plan_id":"cebpf4jnsgd1na2vs0mg"},{"bike_id":"91b61a45-4bdb-43e0-b310-5853fc238be2","system_id":"levelo_inurba_marseille","lat":43.21189,"lon":5.35076,"is_reserved":false,"is_disabled":false,"rental_uris":{"android":"levelo://app?vid=91b61a45-4bdb-43e0-b310-5853fc238be2","ios":"levelo://app?vid=91b61a45-4bdb-43e0-b310-5853fc238be2"},"vehicle_type_id":"4","last_reported":1744978717,"current_range_meters":7200,"station_id":"st_cvj6sg6p6f1abm77japg","pricing_plan_id":"cebpf4jnsgd1na2vs0mg"},{"bike_id":"79590eca-7d6f-414e-8732-96ddc9516ec2","system_id":"levelo_inurba_marseille","lat":43.23061,"lon":5.35483,"is_reserved":false,"is_disabled":false,"rental_uris":{"android":"levelo://app?vid=79590eca-7d6f-414e-8732-96ddc9516ec2","ios":"levelo://app?vid=79590eca-7d6f-414e-8732-96ddc9516ec2"},"vehicle_type_id":"4","last_reported":1744978717,"current_range_meters":7200,"station_id":"cpo3342slgdg3j2ifvpg","pricing_plan_id":"cebpf4jnsgd1na2vs0mg"},{"bike_id":"a5a9bcc6-4676-4f74-a698-4e787e8ec975","system_id":"levelo_inurba_marseille","lat":43.26506,"lon":5.39536,"is_reserved":false,"is_disabled":false,"rental_uris":{"android":"levelo://app?vid=a5a9bcc6-4676-4f74-a698-4e787e8ec975","ios":"levelo://app?vid=a5a9bcc6-4676-4f74-a698-4e787e8ec975"},"vehicle_type_id":"4","last_reported":1744978717,"current_range_meters":8000,"station_id":"ce4bhi12rcd13ifvqfq0","pricing_plan_id":"cebpf4jnsgd1na2vs0mg"},{"bike_id":"a2450382-2e25-4650-a4cf-ba798c2be667","system_id":"levelo_inurba_marseille","lat":43.2985,"lon":5.3629,"is_reserved":false,"is_disabled":false,"rental_uris":{"android":"levelo://app?vid=a2450382-2e25-4650-a4cf-ba798c2be667","ios":"levelo://app?vid=a2450382-2e25-4650-a4cf-ba798c2be667"},"vehicle_type_id":"4","last_reported":1744978717,"current_range_meters":7200,"station_id":"ce4bgpp2rcd13ifvqc3g","pricing_plan_id":"cebpf4jnsgd1na2vs0mg"},{"bike_id":"691fc563-2043-48e3-bcb0-0c950507c3af","system_id":"levelo_inurba_marseille","lat":43.27628,"lon":5.36102,"is_reserved":false,"is_disabled":false,"rental_uris":{"android":"levelo://app?vid=691fc563-2043-48e3-bcb0-0c950507c3af","ios":"levelo://app?vid=691fc563-2043-48e3-bcb0-0c950507c3af"},"vehicle_type_id":"4","last_reported":1744978717,"current_range_meters":8000,"station_id":"ce4bgj92rcd13ifvqbe0","pricing_plan_id":"cebpf4jnsgd1na2vs0mg"},{"bike_id":"76483e71-7d28-401c-8e0b-de284cbe4cb8","system_id":"levelo_inurba_marseille","lat":43.25498,"lon":5.37657,"is_reserved":false,"is_disabled":false,"rental_uris":{"android":"levelo://app?vid=76483e71-7d28-401c-8e0b-de284cbe4cb8","ios":"levelo://app?vid=76483e71-7d28-401c-8e0b-de284cbe4cb8"},"vehicle_type_id":"4","last_reported":1744978717,"current_range_meters":8400,"station_id":"ce4bhh12rcd13ifvqff0","pricing_plan_id":"cebpf4jnsgd1na2vs0mg"},{"bike_id":"a0b4cf4a-2e34-40c8-86b9-f6305de99cfe","system_id":"levelo_inurba_marseille","lat":43.31686,"lon":5.40477,"is_reserved":false,"is_disabled":false,"rental_uris":{"android":"levelo://app?vid=a0b4cf4a-2e34-40c8-86b9-f6305de99cfe","ios":"levelo://app?vid=a0b4cf4a-2e34-40c8-86b9-f6305de99cfe"},"vehicle_type_id":"4","last_reported":1744978717,"current_range_meters":8000,"station_id":"ce4bh012rcd13ifvqd00","pricing_plan_id":"cebpf4jnsgd1na2vs0mg"},{"bike_id":"c94f1dfb-f571-451c-a8e8-08f6b87547ab","system_id":"levelo_inurba_marseille","lat":43.27211,"lon":5.39178,"is_reserved":false,"is_disabled":false,"rental_uris":{"android":"levelo://app?vid=c94f1dfb-f571-451c-a8e8-08f6b87547ab","ios":"levelo://app?vid=c94f1dfb-f571-451c-a8e8-08f6b87547ab"},"vehicle_type_id":"4","last_reported":1744978717,"current_range_meters":8400,"station_id":"ce4bhhp2rcd13ifvqfm0","pricing_plan_id":"cebpf4jnsgd1na2vs0mg"},{"bike_id":"3737cb74-761b-429f-9d2d-1c31624faab3","system_id":"levelo_inurba_marseille","lat":43.21188,"lon":5.35068,"is_reserved":false,"is_disabled":false,"rental_uris":{"android":"levelo://app?vid=3737cb74-761b-429f-9d2d-1c31624faab3","ios":"levelo://app?vid=3737cb74-761b-429f-9d2d-1c31624faab3"},"vehicle_type_id":"4","last_reported":1744978717,"current_range_meters":8800,"station_id":"st_cvj6sg6p6f1abm77japg","pricing_plan_id":"cebpf4jnsgd1na2vs0mg"},{"bike_id":"41fb0398-f2fe-4abb-ae37-a38f47615ea9","system_id":"levelo_inurba_marseille","lat":43.3236,"lon":5.36753,"is_reserved":false,"is_disabled":true,"rental_uris":{"android":"levelo://app?vid=41fb0398-f2fe-4abb-ae37-a38f47615ea9","ios":"levelo://app?vid=41fb0398-f2fe-4abb-ae37-a38f47615ea9"},"vehicle_type_id":"4","last_reported":1744978717,"current_range_meters":8800,"station_id":"ce4bhsh2rcd13ifvqi2g","pricing_plan_id":"cebpf4jnsgd1na2vs0mg"},{"bike_id":"73cfe0cd-75ff-4398-b286-6e0191b2ebce","system_id":"levelo_inurba_marseille","lat":43.24081,"lon":5.37748,"is_reserved":false,"is_disabled":false,"rental_uris":{"android":"levelo://app?vid=73cfe0cd-75ff-4398-b286-6e0191b2ebce","ios":"levelo://app?vid=73cfe0cd-75ff-4398-b286-6e0191b2ebce"},"vehicle_type_id":"4","last_reported":1744978717,"current_range_meters":8800,"station_id":"ce4bhnp2rcd13ifvqgvg","pricing_plan_id":"cebpf4jnsgd1na2vs0mg"},{"bike_id":"3a398695-a5b8-4357-88e1-a9057a4d75cb","system_id":"levelo_inurba_marseille","lat":43.29046,"lon":5.35924,"is_reserved":false,"is_disabled":false,"rental_uris":{"android":"levelo://app?vid=3a398695-a5b8-4357-88e1-a9057a4d75cb","ios":"levelo://app?vid=3a398695-a5b8-4357-88e1-a9057a4d75cb"},"vehicle_type_id":"4","last_reported":1744978717,"current_range_meters":8800,"station_id":"ce4bha92rcd13ifvqeg0","pricing_plan_id":"cebpf4jnsgd1na2vs0mg"},{"bike_id":"a423f1a9-8af9-48ef-a903-717441ee4eb6","system_id":"levelo_inurba_marseille","lat":43.23196,"lon":5.35557,"is_reserved":false,"is_disabled":false,"rental_uris":{"android":"levelo://app?vid=a423f1a9-8af9-48ef-a903-717441ee4eb6","ios":"levelo://app?vid=a423f1a9-8af9-48ef-a903-717441ee4eb6"},"vehicle_type_id":"4","last_reported":1744978717,"current_range_meters":8800,"station_id":"ce4bhu92rcd13ifvqi70","pricing_plan_id":"cebpf4jnsgd1na2vs0mg"},{"bike_id":"c028cd54-65d9-403d-b29a-b55a170a6cea","system_id":"levelo_inurba_marseille","lat":43.23153,"lon":5.43707,"is_reserved":false,"is_disabled":false,"rental_uris":{"android":"levelo://app?vid=c028cd54-65d9-403d-b29a-b55a170a6cea","ios":"levelo://app?vid=c028cd54-65d9-403d-b29a-b55a170a6cea"},"vehicle_type_id":"4","last_reported":1744978717,"current_range_meters":8800,"station_id":"ce4bhmp2rcd13ifvqgog","pricing_plan_id":"cebpf4jnsgd1na2vs0mg"},{"bike_id":"24f02b9d-dbb4-4e9e-8441-397a4ec866ea","system_id":"levelo_inurba_marseille","lat":43.28486,"lon":5.38423,"is_reserved":false,"is_disabled":false,"rental_uris":{"android":"levelo://app?vid=24f02b9d-dbb4-4e9e-8441-397a4ec866ea","ios":"levelo://app?vid=24f02b9d-dbb4-4e9e-8441-397a4ec866ea"},"vehicle_type_id":"4","last_reported":1744978717,"current_range_meters":9200,"station_id":"ce4bh512rcd13ifvqe3g","pricing_plan_id":"cebpf4jnsgd1na2vs0mg"},{"bike_id":"2f10d732-9534-46d1-96fa-941117787f89","system_id":"levelo_inurba_marseille","lat":43.23148,"lon":5.43717,"is_reserved":false,"is_disabled":false,"rental_uris":{"android":"levelo://app?vid=2f10d732-9534-46d1-96fa-941117787f89","ios":"levelo://app?vid=2f10d732-9534-46d1-96fa-941117787f89"},"vehicle_type_id":"4","last_reported":1744978717,"current_range_meters":9200,"station_id":"ce4bhmp2rcd13ifvqgog","pricing_plan_id":"cebpf4jnsgd1na2vs0mg"},{"bike_id":"a836461e-46f5-444f-889b-59666986b6a7","system_id":"levelo_inurba_marseille","lat":43.32361,"lon":5.367647,"is_reserved":false,"is_disabled":false,"rental_uris":{"android":"levelo://app?vid=a836461e-46f5-444f-889b-59666986b6a7","ios":"levelo://app?vid=a836461e-46f5-444f-889b-59666986b6a7"},"vehicle_type_id":"4","last_reported":1744978717,"current_range_meters":9200,"station_id":"ce4bhsh2rcd13ifvqi2g","pricing_plan_id":"cebpf4jnsgd1na2vs0mg"},{"bike_id":"ec8c9ac7-1e95-4171-97f3-226ce1e3c951","system_id":"levelo_inurba_marseille","lat":43.32108,"lon":5.36791,"is_reserved":false,"is_disabled":false,"rental_uris":{"android":"levelo://app?vid=ec8c9ac7-1e95-4171-97f3-226ce1e3c951","ios":"levelo://app?vid=ec8c9ac7-1e95-4171-97f3-226ce1e3c951"},"vehicle_type_id":"4","last_reported":1744978717,"current_range_meters":9600,"station_id":"ce4bhrh2rcd13ifvqhug","pricing_plan_id":"cebpf4jnsgd1na2vs0mg"},{"bike_id":"4c8e2139-8553-47cb-8dbd-4c210b1e0a3f","system_id":"levelo_inurba_marseille","lat":43.25507,"lon":5.37654,"is_reserved":false,"is_disabled":false,"rental_uris":{"android":"levelo://app?vid=4c8e2139-8553-47cb-8dbd-4c210b1e0a3f","ios":"levelo://app?vid=4c8e2139-8553-47cb-8dbd-4c210b1e0a3f"},"vehicle_type_id":"4","last_reported":1744978717,"current_range_meters":9600,"station_id":"ce4bhh12rcd13ifvqff0","pricing_plan_id":"cebpf4jnsgd1na2vs0mg"},{"bike_id":"cf4db056-d3f7-4001-aa54-c43d57090a49","system_id":"levelo_inurba_marseille","lat":43.23191,"lon":5.35555,"is_reserved":false,"is_disabled":false,"rental_uris":{"android":"levelo://app?vid=cf4db056-d3f7-4001-aa54-c43d57090a49","ios":"levelo://app?vid=cf4db056-d3f7-4001-aa54-c43d57090a49"},"vehicle_type_id":"4","last_reported":1744978717,"current_range_meters":9600,"station_id":"ce4bhu92rcd13ifvqi70","pricing_plan_id":"cebpf4jnsgd1na2vs0mg"},{"bike_id":"1044d2dd-886d-4a99-8c5d-65864d7eee24","system_id":"levelo_inurba_marseille","lat":43.288359,"lon":5.352947,"is_reserved":false,"is_disabled":false,"rental_uris":{"android":"levelo://app?vid=1044d2dd-886d-4a99-8c5d-65864d7eee24","ios":"levelo://app?vid=1044d2dd-886d-4a99-8c5d-65864d7eee24"},"vehicle_type_id":"4","last_reported":1744978717,"current_range_meters":9600,"station_id":"ce4bgj92rcd13ifvqbe0","pricing_plan_id":"cebpf4jnsgd1na2vs0mg"},{"bike_id":"d1149058-1d8e-4ecc-a2a9-f1837203df84","system_id":"levelo_inurba_marseille","lat":43.21191,"lon":5.35068,"is_reserved":false,"is_disabled":false,"rental_uris":{"android":"levelo://app?vid=d1149058-1d8e-4ecc-a2a9-f1837203df84","ios":"levelo://app?vid=d1149058-1d8e-4ecc-a2a9-f1837203df84"},"vehicle_type_id":"4","last_reported":1744978717,"current_range_meters":9600,"station_id":"st_cvj6sg6p6f1abm77japg","pricing_plan_id":"cebpf4jnsgd1na2vs0mg"},{"bike_id":"d7e9d8be-e49c-45a8-80f8-1f65bfb83645","system_id":"levelo_inurba_marseille","lat":43.23584,"lon":5.40347,"is_reserved":false,"is_disabled":false,"rental_uris":{"android":"levelo://app?vid=d7e9d8be-e49c-45a8-80f8-1f65bfb83645","ios":"levelo://app?vid=d7e9d8be-e49c-45a8-80f8-1f65bfb83645"},"vehicle_type_id":"4","last_reported":1744978717,"current_range_meters":9600,"station_id":"","pricing_plan_id":"cebpf4jnsgd1na2vs0mg"},{"bike_id":"2f15cdb9-af8d-42e9-bcc1-72a8ae94c91a","system_id":"levelo_inurba_marseille","lat":43.29959,"lon":5.41323,"is_reserved":false,"is_disabled":false,"rental_uris":{"android":"levelo://app?vid=2f15cdb9-af8d-42e9-bcc1-72a8ae94c91a","ios":"levelo://app?vid=2f15cdb9-af8d-42e9-bcc1-72a8ae94c91a"},"vehicle_type_id":"4","last_reported":1744978717,"current_range_meters":10000,"station_id":"ce4bhp12rcd13ifvqh9g","pricing_plan_id":"cebpf4jnsgd1na2vs0mg"},{"bike_id":"fcad5b93-ab2f-4704-9653-3d8c68efdea6","system_id":"levelo_inurba_marseille","lat":43.30552,"lon":5.36558,"is_reserved":false,"is_disabled":false,"rental_uris":{"android":"levelo://app?vid=fcad5b93-ab2f-4704-9653-3d8c68efdea6","ios":"levelo://app?vid=fcad5b93-ab2f-4704-9653-3d8c68efdea6"},"vehicle_type_id":"4","last_reported":1744978717,"current_range_meters":10000,"station_id":"ce4bgs12rcd13ifvqcag","pricing_plan_id":"cebpf4jnsgd1na2vs0mg"},{"bike_id":"70b6b133-6705-4dfd-b4a7-6e88067904e8","system_id":"levelo_inurba_marseille","lat":43.24167,"lon":5.36411,"is_reserved":false,"is_disabled":false,"rental_uris":{"android":"levelo://app?vid=70b6b133-6705-4dfd-b4a7-6e88067904e8","ios":"levelo://app?vid=70b6b133-6705-4dfd-b4a7-6e88067904e8"},"vehicle_type_id":"4","last_reported":1744978717,"current_range_meters":10000,"station_id":"cpo36qri1sfpv3e86is0","pricing_plan_id":"cebpf4jnsgd1na2vs0mg"},{"bike_id":"5fddd535-ab4d-402f-9080-0ad0b96c0735","system_id":"levelo_inurba_marseille","lat":43.30943,"lon":5.367428,"is_reserved":false,"is_disabled":false,"rental_uris":{"android":"levelo://app?vid=5fddd535-ab4d-402f-9080-0ad0b96c0735","ios":"levelo://app?vid=5fddd535-ab4d-402f-9080-0ad0b96c0735"},"vehicle_type_id":"4","last_reported":1744978717,"current_range_meters":10000,"station_id":"","pricing_plan_id":"cebpf4jnsgd1na2vs0mg"},{"bike_id":"5e08de35-3e0c-4d5f-b69b-a662212c4dac","system_id":"levelo_inurba_marseille","lat":43.241809,"lon":5.397338,"is_reserved":false,"is_disabled":false,"rental_uris":{"android":"levelo://app?vid=5e08de35-3e0c-4d5f-b69b-a662212c4dac","ios":"levelo://app?vid=5e08de35-3e0c-4d5f-b69b-a662212c4dac"},"vehicle_type_id":"4","last_reported":1744978717,"current_range_meters":10000,"station_id":"ce4bhn12rcd13ifvqgpg","pricing_plan_id":"cebpf4jnsgd1na2vs0mg"},{"bike_id":"6edae6e8-68d1-447b-bc9a-f33f449be267","system_id":"levelo_inurba_marseille","lat":43.23963,"lon":5.36629,"is_reserved":false,"is_disabled":false,"rental_uris":{"android":"levelo://app?vid=6edae6e8-68d1-447b-bc9a-f33f449be267","ios":"levelo://app?vid=6edae6e8-68d1-447b-bc9a-f33f449be267"},"vehicle_type_id":"4","last_reported":1744978717,"current_range_meters":10000,"station_id":"ce4bhi12rcd13ifvqfp0","pricing_plan_id":"cebpf4jnsgd1na2vs0mg"},{"bike_id":"faf6f6f9-3884-46b8-87cd-5a5e53e99bef","system_id":"levelo_inurba_marseille","lat":43.21189,"lon":5.35069,"is_reserved":false,"is_disabled":false,"rental_uris":{"android":"levelo://app?vid=faf6f6f9-3884-46b8-87cd-5a5e53e99bef","ios":"levelo://app?vid=faf6f6f9-3884-46b8-87cd-5a5e53e99bef"},"vehicle_type_id":"4","last_reported":1744978717,"current_range_meters":10800,"station_id":"st_cvj6sg6p6f1abm77japg","pricing_plan_id":"cebpf4jnsgd1na2vs0mg"},{"bike_id":"1e954ebd-6f87-4cd4-8c0c-e1f08423f7c4","system_id":"levelo_inurba_marseille","lat":43.29937,"lon":5.36553,"is_reserved":false,"is_disabled":false,"rental_uris":{"android":"levelo://app?vid=1e954ebd-6f87-4cd4-8c0c-e1f08423f7c4","ios":"levelo://app?vid=1e954ebd-6f87-4cd4-8c0c-e1f08423f7c4"},"vehicle_type_id":"4","last_reported":1744978717,"current_range_meters":10800,"station_id":"ce4bgm92rcd13ifvqbr0","pricing_plan_id":"cebpf4jnsgd1na2vs0mg"},{"bike_id":"4bc41d9b-514e-4000-9eae-6ce45a535ece","system_id":"levelo_inurba_marseille","lat":43.27615,"lon":5.36101,"is_reserved":false,"is_disabled":false,"rental_uris":{"android":"levelo://app?vid=4bc41d9b-514e-4000-9eae-6ce45a535ece","ios":"levelo://app?vid=4bc41d9b-514e-4000-9eae-6ce45a535ece"},"vehicle_type_id":"4","last_reported":1744978717,"current_range_meters":10800,"station_id":"ce4bgj92rcd13ifvqbe0","pricing_plan_id":"cebpf4jnsgd1na2vs0mg"},{"bike_id":"9221d683-5312-42c1-b5c1-70abf032af11","system_id":"levelo_inurba_marseille","lat":43.31167,"lon":5.38707,"is_reserved":false,"is_disabled":false,"rental_uris":{"android":"levelo://app?vid=9221d683-5312-42c1-b5c1-70abf032af11","ios":"levelo://app?vid=9221d683-5312-42c1-b5c1-70abf032af11"},"vehicle_type_id":"4","last_reported":1744978717,"current_range_meters":10800,"station_id":"ce4bgv12rcd13ifvqcp0","pricing_plan_id":"cebpf4jnsgd1na2vs0mg"},{"bike_id":"97c13cc5-07d1-4f82-9a50-c643b742de26","system_id":"levelo_inurba_marseille","lat":43.23195,"lon":5.35556,"is_reserved":false,"is_disabled":false,"rental_uris":{"android":"levelo://app?vid=97c13cc5-07d1-4f82-9a50-c643b742de26","ios":"levelo://app?vid=97c13cc5-07d1-4f82-9a50-c643b742de26"},"vehicle_type_id":"4","last_reported":1744978717,"current_range_meters":10800,"station_id":"ce4bhu92rcd13ifvqi70","pricing_plan_id":"cebpf4jnsgd1na2vs0mg"},{"bike_id":"e81d0e01-d93b-4029-afba-25d1b81a1851","system_id":"levelo_inurba_marseille","lat":43.23151,"lon":5.43709,"is_reserved":false,"is_disabled":false,"rental_uris":{"android":"levelo://app?vid=e81d0e01-d93b-4029-afba-25d1b81a1851","ios":"levelo://app?vid=e81d0e01-d93b-4029-afba-25d1b81a1851"},"vehicle_type_id":"4","last_reported":1744978717,"current_range_meters":10800,"station_id":"ce4bhmp2rcd13ifvqgog","pricing_plan_id":"cebpf4jnsgd1na2vs0mg"},{"bike_id":"1210dc72-37b8-49f7-b249-6faa54daba28","system_id":"levelo_inurba_marseille","lat":43.32348,"lon":5.36735,"is_reserved":false,"is_disabled":false,"rental_uris":{"android":"levelo://app?vid=1210dc72-37b8-49f7-b249-6faa54daba28","ios":"levelo://app?vid=1210dc72-37b8-49f7-b249-6faa54daba28"},"vehicle_type_id":"4","last_reported":1744978717,"current_range_meters":11200,"station_id":"ce4bhsh2rcd13ifvqi2g","pricing_plan_id":"cebpf4jnsgd1na2vs0mg"},{"bike_id":"c1bbdf95-8043-42f6-8a43-4418a8907019","system_id":"levelo_inurba_marseille","lat":43.30324,"lon":5.40437,"is_reserved":false,"is_disabled":false,"rental_uris":{"android":"levelo://app?vid=c1bbdf95-8043-42f6-8a43-4418a8907019","ios":"levelo://app?vid=c1bbdf95-8043-42f6-8a43-4418a8907019"},"vehicle_type_id":"4","last_reported":1744978717,"current_range_meters":11200,"station_id":"ce4bh012rcd13ifvqd10","pricing_plan_id":"cebpf4jnsgd1na2vs0mg"},{"bike_id":"1e1a3267-c6f4-414e-b449-233780beb263","system_id":"levelo_inurba_marseille","lat":43.25862,"lon":5.39897,"is_reserved":false,"is_disabled":false,"rental_uris":{"android":"levelo://app?vid=1e1a3267-c6f4-414e-b449-233780beb263","ios":"levelo://app?vid=1e1a3267-c6f4-414e-b449-233780beb263"},"vehicle_type_id":"4","last_reported":1744978717,"current_range_meters":11600,"station_id":"ce4bhl92rcd13ifvqghg","pricing_plan_id":"cebpf4jnsgd1na2vs0mg"},{"bike_id":"922bec6c-5bc5-41b7-ad3c-966a1e6b239b","system_id":"levelo_inurba_marseille","lat":43.28952,"lon":5.36405,"is_reserved":false,"is_disabled":false,"rental_uris":{"android":"levelo://app?vid=922bec6c-5bc5-41b7-ad3c-966a1e6b239b","ios":"levelo://app?vid=922bec6c-5bc5-41b7-ad3c-966a1e6b239b"},"vehicle_type_id":"4","last_reported":1744978717,"current_range_meters":11600,"station_id":"ce4bhc92rcd13ifvqetg","pricing_plan_id":"cebpf4jnsgd1na2vs0mg"},{"bike_id":"91b0f96d-1a6e-4e28-98b9-2c86f2485aee","system_id":"levelo_inurba_marseille","lat":43.32416,"lon":5.39048,"is_reserved":false,"is_disabled":false,"rental_uris":{"android":"levelo://app?vid=91b0f96d-1a6e-4e28-98b9-2c86f2485aee","ios":"levelo://app?vid=91b0f96d-1a6e-4e28-98b9-2c86f2485aee"},"vehicle_type_id":"4","last_reported":1744978717,"current_range_meters":11600,"station_id":"","pricing_plan_id":"cebpf4jnsgd1na2vs0mg"},{"bike_id":"7ed91d22-3d5b-4254-83bf-64eb2a7d5481","system_id":"levelo_inurba_marseille","lat":43.22499,"lon":5.34781,"is_reserved":false,"is_disabled":false,"rental_uris":{"android":"levelo://app?vid=7ed91d22-3d5b-4254-83bf-64eb2a7d5481","ios":"levelo://app?vid=7ed91d22-3d5b-4254-83bf-64eb2a7d5481"},"vehicle_type_id":"4","last_reported":1744978717,"current_range_meters":11600,"station_id":"","pricing_plan_id":"cebpf4jnsgd1na2vs0mg"},{"bike_id":"c6ddde62-0b74-4239-a515-05bb71eb437e","system_id":"levelo_inurba_marseille","lat":43.29034,"lon":5.39958,"is_reserved":false,"is_disabled":false,"rental_uris":{"android":"levelo://app?vid=c6ddde62-0b74-4239-a515-05bb71eb437e","ios":"levelo://app?vid=c6ddde62-0b74-4239-a515-05bb71eb437e"},"vehicle_type_id":"4","last_reported":1744978717,"current_range_meters":11600,"station_id":"ce4bh392rcd13ifvqdm0","pricing_plan_id":"cebpf4jnsgd1na2vs0mg"},{"bike_id":"397aa98a-9e95-44d5-b872-9acc43faf340","system_id":"levelo_inurba_marseille","lat":43.28625,"lon":5.35105,"is_reserved":false,"is_disabled":false,"rental_uris":{"android":"levelo://app?vid=397aa98a-9e95-44d5-b872-9acc43faf340","ios":"levelo://app?vid=397aa98a-9e95-44d5-b872-9acc43faf340"},"vehicle_type_id":"4","last_reported":1744978717,"current_range_meters":11600,"station_id":"ce4bhch2rcd13ifvqeug","pricing_plan_id":"cebpf4jnsgd1na2vs0mg"},{"bike_id":"2b1fa1fa-2874-4948-b2f7-77568c278fb7","system_id":"levelo_inurba_marseille","lat":43.306484,"lon":5.400939,"is_reserved":false,"is_disabled":false,"rental_uris":{"android":"levelo://app?vid=2b1fa1fa-2874-4948-b2f7-77568c278fb7","ios":"levelo://app?vid=2b1fa1fa-2874-4948-b2f7-77568c278fb7"},"vehicle_type_id":"4","last_reported":1744978717,"current_range_meters":11200,"station_id":"ce4bh112rcd13ifvqda0","pricing_plan_id":"cebpf4jnsgd1na2vs0mg"},{"bike_id":"7570665f-381b-4cc4-a642-4c4acd5e475f","system_id":"levelo_inurba_marseille","lat":43.30534,"lon":5.36552,"is_reserved":false,"is_disabled":false,"rental_uris":{"android":"levelo://app?vid=7570665f-381b-4cc4-a642-4c4acd5e475f","ios":"levelo://app?vid=7570665f-381b-4cc4-a642-4c4acd5e475f"},"vehicle_type_id":"4","last_reported":1744978717,"current_range_meters":12000,"station_id":"ce4bgs12rcd13ifvqcag","pricing_plan_id":"cebpf4jnsgd1na2vs0mg"},{"bike_id":"9d8d8db6-8000-4daf-92e7-c37ba5b66391","system_id":"levelo_inurba_marseille","lat":43.225119,"lon":5.347891,"is_reserved":false,"is_disabled":false,"rental_uris":{"android":"levelo://app?vid=9d8d8db6-8000-4daf-92e7-c37ba5b66391","ios":"levelo://app?vid=9d8d8db6-8000-4daf-92e7-c37ba5b66391"},"vehicle_type_id":"4","last_reported":1744978717,"current_range_meters":12000,"station_id":"st_cvj5dfep6f1abm77gieg","pricing_plan_id":"cebpf4jnsgd1na2vs0mg"},{"bike_id":"9ccc1250-0ff6-4acc-bd2f-67431ef76582","system_id":"levelo_inurba_marseille","lat":43.28402,"lon":5.34977,"is_reserved":false,"is_disabled":false,"rental_uris":{"android":"levelo://app?vid=9ccc1250-0ff6-4acc-bd2f-67431ef76582","ios":"levelo://app?vid=9ccc1250-0ff6-4acc-bd2f-67431ef76582"},"vehicle_type_id":"4","last_reported":1744978717,"current_range_meters":12000,"station_id":"ce4bhbh2rcd13ifvqepg","pricing_plan_id":"cebpf4jnsgd1na2vs0mg"},{"bike_id":"7dc07401-a4cf-4642-8cb7-881a55ef2790","system_id":"levelo_inurba_marseille","lat":43.31164,"lon":5.38717,"is_reserved":false,"is_disabled":false,"rental_uris":{"android":"levelo://app?vid=7dc07401-a4cf-4642-8cb7-881a55ef2790","ios":"levelo://app?vid=7dc07401-a4cf-4642-8cb7-881a55ef2790"},"vehicle_type_id":"4","last_reported":1744978717,"current_range_meters":12000,"station_id":"ce4bgv12rcd13ifvqcp0","pricing_plan_id":"cebpf4jnsgd1na2vs0mg"},{"bike_id":"99396e7f-3ba7-4141-936a-d4efe45d6611","system_id":"levelo_inurba_marseille","lat":43.26501,"lon":5.39538,"is_reserved":false,"is_disabled":false,"rental_uris":{"android":"levelo://app?vid=99396e7f-3ba7-4141-936a-d4efe45d6611","ios":"levelo://app?vid=99396e7f-3ba7-4141-936a-d4efe45d6611"},"vehicle_type_id":"4","last_reported":1744978717,"current_range_meters":11600,"station_id":"ce4bhi12rcd13ifvqfq0","pricing_plan_id":"cebpf4jnsgd1na2vs0mg"},{"bike_id":"bc711c05-bdbf-436a-8787-7f896f5e5f87","system_id":"levelo_inurba_marseille","lat":43.3137,"lon":5.36702,"is_reserved":false,"is_disabled":false,"rental_uris":{"android":"levelo://app?vid=bc711c05-bdbf-436a-8787-7f896f5e5f87","ios":"levelo://app?vid=bc711c05-bdbf-436a-8787-7f896f5e5f87"},"vehicle_type_id":"4","last_reported":1744978717,"current_range_meters":12000,"station_id":"ce4bgr92rcd13ifvqc6g","pricing_plan_id":"cebpf4jnsgd1na2vs0mg"},{"bike_id":"effb955a-fc18-4ef6-a97e-9417186c15b9","system_id":"levelo_inurba_marseille","lat":43.21744,"lon":5.34596,"is_reserved":false,"is_disabled":false,"rental_uris":{"android":"levelo://app?vid=effb955a-fc18-4ef6-a97e-9417186c15b9","ios":"levelo://app?vid=effb955a-fc18-4ef6-a97e-9417186c15b9"},"vehicle_type_id":"4","last_reported":1744978717,"current_range_meters":12000,"station_id":"st_cvj6r9ubvosntc0bgbag","pricing_plan_id":"cebpf4jnsgd1na2vs0mg"},{"bike_id":"8af9083f-40cd-4479-9aff-b06462b56f05","system_id":"levelo_inurba_marseille","lat":43.28409,"lon":5.34992,"is_reserved":false,"is_disabled":false,"rental_uris":{"android":"levelo://app?vid=8af9083f-40cd-4479-9aff-b06462b56f05","ios":"levelo://app?vid=8af9083f-40cd-4479-9aff-b06462b56f05"},"vehicle_type_id":"4","last_reported":1744978717,"current_range_meters":12400,"station_id":"ce4bhbh2rcd13ifvqepg","pricing_plan_id":"cebpf4jnsgd1na2vs0mg"},{"bike_id":"fd9a17f0-a3e3-4759-a6f8-d11be5131d23","system_id":"levelo_inurba_marseille","lat":43.27381,"lon":5.36253,"is_reserved":false,"is_disabled":true,"rental_uris":{"android":"levelo://app?vid=fd9a17f0-a3e3-4759-a6f8-d11be5131d23","ios":"levelo://app?vid=fd9a17f0-a3e3-4759-a6f8-d11be5131d23"},"vehicle_type_id":"4","last_reported":1744978717,"current_range_meters":12400,"station_id":"ce4bhbh2rcd13ifvqeo0","pricing_plan_id":"cebpf4jnsgd1na2vs0mg"},{"bike_id":"41973c41-6751-45db-8e1d-958404c2c639","system_id":"levelo_inurba_marseille","lat":43.23148,"lon":5.43708,"is_reserved":false,"is_disabled":false,"rental_uris":{"android":"levelo://app?vid=41973c41-6751-45db-8e1d-958404c2c639","ios":"levelo://app?vid=41973c41-6751-45db-8e1d-958404c2c639"},"vehicle_type_id":"4","last_reported":1744978717,"current_range_meters":12400,"station_id":"ce4bhmp2rcd13ifvqgog","pricing_plan_id":"cebpf4jnsgd1na2vs0mg"},{"bike_id":"1eaca8f5-0017-418a-9bfc-52185bf67513","system_id":"levelo_inurba_marseille","lat":43.33738,"lon":5.39185,"is_reserved":false,"is_disabled":false,"rental_uris":{"android":"levelo://app?vid=1eaca8f5-0017-418a-9bfc-52185bf67513","ios":"levelo://app?vid=1eaca8f5-0017-418a-9bfc-52185bf67513"},"vehicle_type_id":"4","last_reported":1744978717,"current_range_meters":12800,"station_id":"ce4bhr92rcd13ifvqhsg","pricing_plan_id":"cebpf4jnsgd1na2vs0mg"},{"bike_id":"934a8fc0-98f8-4aaf-a145-d485dee937c7","system_id":"levelo_inurba_marseille","lat":43.32348,"lon":5.36744,"is_reserved":false,"is_disabled":false,"rental_uris":{"android":"levelo://app?vid=934a8fc0-98f8-4aaf-a145-d485dee937c7","ios":"levelo://app?vid=934a8fc0-98f8-4aaf-a145-d485dee937c7"},"vehicle_type_id":"4","last_reported":1744978717,"current_range_meters":12800,"station_id":"ce4bhsh2rcd13ifvqi2g","pricing_plan_id":"cebpf4jnsgd1na2vs0mg"},{"bike_id":"a0ddb0a5-f7f0-4281-aa27-9e82747cc573","system_id":"levelo_inurba_marseille","lat":43.33754,"lon":5.37491,"is_reserved":false,"is_disabled":false,"rental_uris":{"android":"levelo://app?vid=a0ddb0a5-f7f0-4281-aa27-9e82747cc573","ios":"levelo://app?vid=a0ddb0a5-f7f0-4281-aa27-9e82747cc573"},"vehicle_type_id":"4","last_reported":1744978717,"current_range_meters":12800,"station_id":"","pricing_plan_id":"cebpf4jnsgd1na2vs0mg"},{"bike_id":"168c3876-9335-43bf-bce2-0560f915aedf","system_id":"levelo_inurba_marseille","lat":43.28859,"lon":5.3585,"is_reserved":false,"is_disabled":false,"rental_uris":{"android":"levelo://app?vid=168c3876-9335-43bf-bce2-0560f915aedf","ios":"levelo://app?vid=168c3876-9335-43bf-bce2-0560f915aedf"},"vehicle_type_id":"4","last_reported":1744978717,"current_range_meters":13600,"station_id":"ce4bhb12rcd13ifvqem0","pricing_plan_id":"cebpf4jnsgd1na2vs0mg"},{"bike_id":"bbb1c662-cc65-4c72-8489-de78d2f0f12f","system_id":"levelo_inurba_marseille","lat":43.23058,"lon":5.35492,"is_reserved":false,"is_disabled":false,"rental_uris":{"android":"levelo://app?vid=bbb1c662-cc65-4c72-8489-de78d2f0f12f","ios":"levelo://app?vid=bbb1c662-cc65-4c72-8489-de78d2f0f12f"},"vehicle_type_id":"4","last_reported":1744978717,"current_range_meters":13600,"station_id":"cpo3342slgdg3j2ifvpg","pricing_plan_id":"cebpf4jnsgd1na2vs0mg"},{"bike_id":"bd492354-2d79-4427-82ee-84e4a12dea30","system_id":"levelo_inurba_marseille","lat":43.211954,"lon":5.35072,"is_reserved":false,"is_disabled":false,"rental_uris":{"android":"levelo://app?vid=bd492354-2d79-4427-82ee-84e4a12dea30","ios":"levelo://app?vid=bd492354-2d79-4427-82ee-84e4a12dea30"},"vehicle_type_id":"4","last_reported":1744978717,"current_range_meters":13600,"station_id":"st_cvj6sg6p6f1abm77japg","pricing_plan_id":"cebpf4jnsgd1na2vs0mg"},{"bike_id":"875aa746-9da9-4769-990b-463510bc6916","system_id":"levelo_inurba_marseille","lat":43.21185,"lon":5.35082,"is_reserved":false,"is_disabled":false,"rental_uris":{"android":"levelo://app?vid=875aa746-9da9-4769-990b-463510bc6916","ios":"levelo://app?vid=875aa746-9da9-4769-990b-463510bc6916"},"vehicle_type_id":"4","last_reported":1744978717,"current_range_meters":13600,"station_id":"st_cvj6sg6p6f1abm77japg","pricing_plan_id":"cebpf4jnsgd1na2vs0mg"},{"bike_id":"700edbf2-5da8-48e2-b029-6eef31ec5415","system_id":"levelo_inurba_marseille","lat":43.281628,"lon":5.391551,"is_reserved":false,"is_disabled":false,"rental_uris":{"android":"levelo://app?vid=700edbf2-5da8-48e2-b029-6eef31ec5415","ios":"levelo://app?vid=700edbf2-5da8-48e2-b029-6eef31ec5415"},"vehicle_type_id":"4","last_reported":1744978717,"current_range_meters":13600,"station_id":"ce4bh492rcd13ifvqdvg","pricing_plan_id":"cebpf4jnsgd1na2vs0mg"},{"bike_id":"0412a1ca-4def-4ac7-bfaa-effc8cbb5510","system_id":"levelo_inurba_marseille","lat":43.22935,"lon":5.35376,"is_reserved":false,"is_disabled":false,"rental_uris":{"android":"levelo://app?vid=0412a1ca-4def-4ac7-bfaa-effc8cbb5510","ios":"levelo://app?vid=0412a1ca-4def-4ac7-bfaa-effc8cbb5510"},"vehicle_type_id":"4","last_reported":1744978717,"current_range_meters":13600,"station_id":"cpo3532slgdg3j2ikp40","pricing_plan_id":"cebpf4jnsgd1na2vs0mg"},{"bike_id":"25e59276-234c-4a11-b734-292e871fbab1","system_id":"levelo_inurba_marseille","lat":43.23147,"lon":5.43716,"is_reserved":false,"is_disabled":false,"rental_uris":{"android":"levelo://app?vid=25e59276-234c-4a11-b734-292e871fbab1","ios":"levelo://app?vid=25e59276-234c-4a11-b734-292e871fbab1"},"vehicle_type_id":"4","last_reported":1744978717,"current_range_meters":13600,"station_id":"ce4bhmp2rcd13ifvqgog","pricing_plan_id":"cebpf4jnsgd1na2vs0mg"},{"bike_id":"1cea5ba0-6958-4cd2-bd38-e64cc3131a08","system_id":"levelo_inurba_marseille","lat":43.29185,"lon":5.38044,"is_reserved":false,"is_disabled":false,"rental_uris":{"android":"levelo://app?vid=1cea5ba0-6958-4cd2-bd38-e64cc3131a08","ios":"levelo://app?vid=1cea5ba0-6958-4cd2-bd38-e64cc3131a08"},"vehicle_type_id":"4","last_reported":1744978717,"current_range_meters":14000,"station_id":"","pricing_plan_id":"cebpf4jnsgd1na2vs0mg"},{"bike_id":"e7eb679e-144b-45bd-9083-ac76238d827e","system_id":"levelo_inurba_marseille","lat":43.27373,"lon":5.3626,"is_reserved":false,"is_disabled":false,"rental_uris":{"android":"levelo://app?vid=e7eb679e-144b-45bd-9083-ac76238d827e","ios":"levelo://app?vid=e7eb679e-144b-45bd-9083-ac76238d827e"},"vehicle_type_id":"4","last_reported":1744978717,"current_range_meters":14000,"station_id":"ce4bhbh2rcd13ifvqeo0","pricing_plan_id":"cebpf4jnsgd1na2vs0mg"},{"bike_id":"266d2f1b-90ab-44a3-8a1a-02c97d8585b7","system_id":"levelo_inurba_marseille","lat":43.231791,"lon":5.39983,"is_reserved":false,"is_disabled":false,"rental_uris":{"android":"levelo://app?vid=266d2f1b-90ab-44a3-8a1a-02c97d8585b7","ios":"levelo://app?vid=266d2f1b-90ab-44a3-8a1a-02c97d8585b7"},"vehicle_type_id":"4","last_reported":1744978717,"current_range_meters":14000,"station_id":"ce4bhn12rcd13ifvqgqg","pricing_plan_id":"cebpf4jnsgd1na2vs0mg"},{"bike_id":"4cc47366-1a3e-4dde-b2f8-f27895fe8d90","system_id":"levelo_inurba_marseille","lat":43.24178,"lon":5.39734,"is_reserved":false,"is_disabled":false,"rental_uris":{"android":"levelo://app?vid=4cc47366-1a3e-4dde-b2f8-f27895fe8d90","ios":"levelo://app?vid=4cc47366-1a3e-4dde-b2f8-f27895fe8d90"},"vehicle_type_id":"4","last_reported":1744978717,"current_range_meters":14400,"station_id":"ce4bhn12rcd13ifvqgpg","pricing_plan_id":"cebpf4jnsgd1na2vs0mg"},{"bike_id":"b6c4e1d2-7e94-4812-9ae9-afa2b8e0cebd","system_id":"levelo_inurba_marseille","lat":43.30878,"lon":5.37194,"is_reserved":false,"is_disabled":false,"rental_uris":{"android":"levelo://app?vid=b6c4e1d2-7e94-4812-9ae9-afa2b8e0cebd","ios":"levelo://app?vid=b6c4e1d2-7e94-4812-9ae9-afa2b8e0cebd"},"vehicle_type_id":"4","last_reported":1744978717,"current_range_meters":14400,"station_id":"ce4bguh2rcd13ifvqckg","pricing_plan_id":"cebpf4jnsgd1na2vs0mg"},{"bike_id":"d47ec2a9-421b-4916-a3eb-3ac8fb7e4622","system_id":"levelo_inurba_marseille","lat":43.29039,"lon":5.35913,"is_reserved":false,"is_disabled":false,"rental_uris":{"android":"levelo://app?vid=d47ec2a9-421b-4916-a3eb-3ac8fb7e4622","ios":"levelo://app?vid=d47ec2a9-421b-4916-a3eb-3ac8fb7e4622"},"vehicle_type_id":"4","last_reported":1744978717,"current_range_meters":14400,"station_id":"ce4bha92rcd13ifvqeg0","pricing_plan_id":"cebpf4jnsgd1na2vs0mg"},{"bike_id":"a5576019-43e7-4c3f-9b3f-bda5c803876a","system_id":"levelo_inurba_marseille","lat":43.24196,"lon":5.3975,"is_reserved":false,"is_disabled":false,"rental_uris":{"android":"levelo://app?vid=a5576019-43e7-4c3f-9b3f-bda5c803876a","ios":"levelo://app?vid=a5576019-43e7-4c3f-9b3f-bda5c803876a"},"vehicle_type_id":"4","last_reported":1744978717,"current_range_meters":14400,"station_id":"ce4bhn12rcd13ifvqgpg","pricing_plan_id":"cebpf4jnsgd1na2vs0mg"},{"bike_id":"0d5d7404-98dd-4d53-8fde-1b51985dd2d0","system_id":"levelo_inurba_marseille","lat":43.21749,"lon":5.34589,"is_reserved":false,"is_disabled":false,"rental_uris":{"android":"levelo://app?vid=0d5d7404-98dd-4d53-8fde-1b51985dd2d0","ios":"levelo://app?vid=0d5d7404-98dd-4d53-8fde-1b51985dd2d0"},"vehicle_type_id":"4","last_reported":1744978717,"current_range_meters":14400,"station_id":"st_cvj6r9ubvosntc0bgbag","pricing_plan_id":"cebpf4jnsgd1na2vs0mg"},{"bike_id":"3d48f6f2-161b-4037-9ca6-b1a220e72e09","system_id":"levelo_inurba_marseille","lat":43.27369,"lon":5.36254,"is_reserved":false,"is_disabled":false,"rental_uris":{"android":"levelo://app?vid=3d48f6f2-161b-4037-9ca6-b1a220e72e09","ios":"levelo://app?vid=3d48f6f2-161b-4037-9ca6-b1a220e72e09"},"vehicle_type_id":"4","last_reported":1744978717,"current_range_meters":14800,"station_id":"ce4bhbh2rcd13ifvqeo0","pricing_plan_id":"cebpf4jnsgd1na2vs0mg"},{"bike_id":"470a599c-c83a-4c95-820f-e9905bae4791","system_id":"levelo_inurba_marseille","lat":43.225141,"lon":5.347887,"is_reserved":false,"is_disabled":false,"rental_uris":{"android":"levelo://app?vid=470a599c-c83a-4c95-820f-e9905bae4791","ios":"levelo://app?vid=470a599c-c83a-4c95-820f-e9905bae4791"},"vehicle_type_id":"4","last_reported":1744978717,"current_range_meters":14800,"station_id":"","pricing_plan_id":"cebpf4jnsgd1na2vs0mg"},{"bike_id":"5ea3100f-c34b-4bbd-b4ea-bf9621895fc6","system_id":"levelo_inurba_marseille","lat":43.29549,"lon":5.42291,"is_reserved":false,"is_disabled":false,"rental_uris":{"android":"levelo://app?vid=5ea3100f-c34b-4bbd-b4ea-bf9621895fc6","ios":"levelo://app?vid=5ea3100f-c34b-4bbd-b4ea-bf9621895fc6"},"vehicle_type_id":"4","last_reported":1744978717,"current_range_meters":14800,"station_id":"ce4bhph2rcd13ifvqhdg","pricing_plan_id":"cebpf4jnsgd1na2vs0mg"},{"bike_id":"1df07e3f-3e36-47f8-87dc-ffc7a192995a","system_id":"levelo_inurba_marseille","lat":43.21746,"lon":5.34602,"is_reserved":false,"is_disabled":false,"rental_uris":{"android":"levelo://app?vid=1df07e3f-3e36-47f8-87dc-ffc7a192995a","ios":"levelo://app?vid=1df07e3f-3e36-47f8-87dc-ffc7a192995a"},"vehicle_type_id":"4","last_reported":1744978717,"current_range_meters":14800,"station_id":"st_cvj6r9ubvosntc0bgbag","pricing_plan_id":"cebpf4jnsgd1na2vs0mg"},{"bike_id":"50d4a2c6-4a96-473e-8d34-d513024f852d","system_id":"levelo_inurba_marseille","lat":43.239613,"lon":5.366404,"is_reserved":false,"is_disabled":false,"rental_uris":{"android":"levelo://app?vid=50d4a2c6-4a96-473e-8d34-d513024f852d","ios":"levelo://app?vid=50d4a2c6-4a96-473e-8d34-d513024f852d"},"vehicle_type_id":"4","last_reported":1744978717,"current_range_meters":14800,"station_id":"ce4bhi12rcd13ifvqfp0","pricing_plan_id":"cebpf4jnsgd1na2vs0mg"},{"bike_id":"ef6e9c6f-8f69-4fcf-9727-b556a001e5bc","system_id":"levelo_inurba_marseille","lat":43.29557,"lon":5.42285,"is_reserved":false,"is_disabled":false,"rental_uris":{"android":"levelo://app?vid=ef6e9c6f-8f69-4fcf-9727-b556a001e5bc","ios":"levelo://app?vid=ef6e9c6f-8f69-4fcf-9727-b556a001e5bc"},"vehicle_type_id":"4","last_reported":1744978717,"current_range_meters":14800,"station_id":"ce4bhph2rcd13ifvqhdg","pricing_plan_id":"cebpf4jnsgd1na2vs0mg"},{"bike_id":"33efbe4e-e642-4271-be29-4926b421ca5b","system_id":"levelo_inurba_marseille","lat":43.24167,"lon":5.36388,"is_reserved":false,"is_disabled":false,"rental_uris":{"android":"levelo://app?vid=33efbe4e-e642-4271-be29-4926b421ca5b","ios":"levelo://app?vid=33efbe4e-e642-4271-be29-4926b421ca5b"},"vehicle_type_id":"4","last_reported":1744978717,"current_range_meters":14800,"station_id":"cpo36qri1sfpv3e86is0","pricing_plan_id":"cebpf4jnsgd1na2vs0mg"},{"bike_id":"1531deab-213b-4d12-9375-720d8dc063cf","system_id":"levelo_inurba_marseille","lat":43.30787,"lon":5.37644,"is_reserved":false,"is_disabled":false,"rental_uris":{"android":"levelo://app?vid=1531deab-213b-4d12-9375-720d8dc063cf","ios":"levelo://app?vid=1531deab-213b-4d12-9375-720d8dc063cf"},"vehicle_type_id":"4","last_reported":1744978717,"current_range_meters":14800,"station_id":"ce4bgv92rcd13ifvqcq0","pricing_plan_id":"cebpf4jnsgd1na2vs0mg"},{"bike_id":"e4e3b38d-6a05-4651-9b02-52c7201e11e2","system_id":"levelo_inurba_marseille","lat":43.2738,"lon":5.36258,"is_reserved":false,"is_disabled":false,"rental_uris":{"android":"levelo://app?vid=e4e3b38d-6a05-4651-9b02-52c7201e11e2","ios":"levelo://app?vid=e4e3b38d-6a05-4651-9b02-52c7201e11e2"},"vehicle_type_id":"4","last_reported":1744978717,"current_range_meters":14800,"station_id":"","pricing_plan_id":"cebpf4jnsgd1na2vs0mg"},{"bike_id":"36ab45f2-4fe6-46ca-be07-c254b02b64ef","system_id":"levelo_inurba_marseille","lat":43.2841,"lon":5.34991,"is_reserved":false,"is_disabled":false,"rental_uris":{"android":"levelo://app?vid=36ab45f2-4fe6-46ca-be07-c254b02b64ef","ios":"levelo://app?vid=36ab45f2-4fe6-46ca-be07-c254b02b64ef"},"vehicle_type_id":"4","last_reported":1744978717,"current_range_meters":15200,"station_id":"ce4bhbh2rcd13ifvqepg","pricing_plan_id":"cebpf4jnsgd1na2vs0mg"},{"bike_id":"68342d9f-f0b6-47e7-b690-b27078e67a77","system_id":"levelo_inurba_marseille","lat":43.24166,"lon":5.3642,"is_reserved":false,"is_disabled":false,"rental_uris":{"android":"levelo://app?vid=68342d9f-f0b6-47e7-b690-b27078e67a77","ios":"levelo://app?vid=68342d9f-f0b6-47e7-b690-b27078e67a77"},"vehicle_type_id":"4","last_reported":1744978717,"current_range_meters":15200,"station_id":"cpo36qri1sfpv3e86is0","pricing_plan_id":"cebpf4jnsgd1na2vs0mg"},{"bike_id":"ea2a52ec-6278-4db2-9d32-19def1f84a0c","system_id":"levelo_inurba_marseille","lat":43.2922,"lon":5.36071,"is_reserved":false,"is_disabled":false,"rental_uris":{"android":"levelo://app?vid=ea2a52ec-6278-4db2-9d32-19def1f84a0c","ios":"levelo://app?vid=ea2a52ec-6278-4db2-9d32-19def1f84a0c"},"vehicle_type_id":"4","last_reported":1744978717,"current_range_meters":15200,"station_id":"ce4bhbh2rcd13ifvqeqg","pricing_plan_id":"cebpf4jnsgd1na2vs0mg"},{"bike_id":"7eb8853e-3665-40f5-8308-1299f0674652","system_id":"levelo_inurba_marseille","lat":43.30375,"lon":5.42489,"is_reserved":false,"is_disabled":false,"rental_uris":{"android":"levelo://app?vid=7eb8853e-3665-40f5-8308-1299f0674652","ios":"levelo://app?vid=7eb8853e-3665-40f5-8308-1299f0674652"},"vehicle_type_id":"4","last_reported":1744978717,"current_range_meters":15200,"station_id":"ce4bhoh2rcd13ifvqh6g","pricing_plan_id":"cebpf4jnsgd1na2vs0mg"},{"bike_id":"f9d3fbe6-73e5-424e-af02-f446d5b07152","system_id":"levelo_inurba_marseille","lat":43.21748,"lon":5.34601,"is_reserved":false,"is_disabled":false,"rental_uris":{"android":"levelo://app?vid=f9d3fbe6-73e5-424e-af02-f446d5b07152","ios":"levelo://app?vid=f9d3fbe6-73e5-424e-af02-f446d5b07152"},"vehicle_type_id":"4","last_reported":1744978717,"current_range_meters":15200,"station_id":"st_cvj6r9ubvosntc0bgbag","pricing_plan_id":"cebpf4jnsgd1na2vs0mg"},{"bike_id":"fa82dc31-6c45-4831-8dcc-f8766c061d48","system_id":"levelo_inurba_marseille","lat":43.29871,"lon":5.39728,"is_reserved":false,"is_disabled":false,"rental_uris":{"android":"levelo://app?vid=fa82dc31-6c45-4831-8dcc-f8766c061d48","ios":"levelo://app?vid=fa82dc31-6c45-4831-8dcc-f8766c061d48"},"vehicle_type_id":"4","last_reported":1744978717,"current_range_meters":15200,"station_id":"ce4bh0h2rcd13ifvqd50","pricing_plan_id":"cebpf4jnsgd1na2vs0mg"},{"bike_id":"079180a4-17a3-46c3-80d9-fe5f8b091fda","system_id":"levelo_inurba_marseille","lat":43.24169,"lon":5.36402,"is_reserved":false,"is_disabled":false,"rental_uris":{"android":"levelo://app?vid=079180a4-17a3-46c3-80d9-fe5f8b091fda","ios":"levelo://app?vid=079180a4-17a3-46c3-80d9-fe5f8b091fda"},"vehicle_type_id":"4","last_reported":1744978717,"current_range_meters":16000,"station_id":"cpo36qri1sfpv3e86is0","pricing_plan_id":"cebpf4jnsgd1na2vs0mg"},{"bike_id":"78558f54-6a69-4897-89aa-fb2354a7c673","system_id":"levelo_inurba_marseille","lat":43.21741,"lon":5.34606,"is_reserved":false,"is_disabled":true,"rental_uris":{"android":"levelo://app?vid=78558f54-6a69-4897-89aa-fb2354a7c673","ios":"levelo://app?vid=78558f54-6a69-4897-89aa-fb2354a7c673"},"vehicle_type_id":"4","last_reported":1744978717,"current_range_meters":16000,"station_id":"","pricing_plan_id":"cebpf4jnsgd1na2vs0mg"},{"bike_id":"51b95633-670a-4c09-bc14-2b0f1e6f6a22","system_id":"levelo_inurba_marseille","lat":43.2886,"lon":5.35854,"is_reserved":false,"is_disabled":false,"rental_uris":{"android":"levelo://app?vid=51b95633-670a-4c09-bc14-2b0f1e6f6a22","ios":"levelo://app?vid=51b95633-670a-4c09-bc14-2b0f1e6f6a22"},"vehicle_type_id":"4","last_reported":1744978717,"current_range_meters":16000,"station_id":"ce4bhb12rcd13ifvqem0","pricing_plan_id":"cebpf4jnsgd1na2vs0mg"},{"bike_id":"07006dad-1eac-4c5b-8e9f-977d282a6f86","system_id":"levelo_inurba_marseille","lat":43.30749,"lon":5.42442,"is_reserved":false,"is_disabled":false,"rental_uris":{"android":"levelo://app?vid=07006dad-1eac-4c5b-8e9f-977d282a6f86","ios":"levelo://app?vid=07006dad-1eac-4c5b-8e9f-977d282a6f86"},"vehicle_type_id":"4","last_reported":1744978717,"current_range_meters":16000,"station_id":"st_cvj6ca6bvosntc0bfgr0","pricing_plan_id":"cebpf4jnsgd1na2vs0mg"},{"bike_id":"782db3f8-bdab-4544-8575-27ef42251d0b","system_id":"levelo_inurba_marseille","lat":43.24161,"lon":5.36433,"is_reserved":false,"is_disabled":false,"rental_uris":{"android":"levelo://app?vid=782db3f8-bdab-4544-8575-27ef42251d0b","ios":"levelo://app?vid=782db3f8-bdab-4544-8575-27ef42251d0b"},"vehicle_type_id":"4","last_reported":1744978717,"current_range_meters":16000,"station_id":"cpo36qri1sfpv3e86is0","pricing_plan_id":"cebpf4jnsgd1na2vs0mg"},{"bike_id":"ccdb4e68-33f8-4e97-a274-d95e24776304","system_id":"levelo_inurba_marseille","lat":43.30536,"lon":5.36555,"is_reserved":false,"is_disabled":false,"rental_uris":{"android":"levelo://app?vid=ccdb4e68-33f8-4e97-a274-d95e24776304","ios":"levelo://app?vid=ccdb4e68-33f8-4e97-a274-d95e24776304"},"vehicle_type_id":"4","last_reported":1744978717,"current_range_meters":16000,"station_id":"ce4bgs12rcd13ifvqcag","pricing_plan_id":"cebpf4jnsgd1na2vs0mg"},{"bike_id":"54c18ae4-fb9e-4f9c-8e98-a792665bc160","system_id":"levelo_inurba_marseille","lat":43.32093,"lon":5.36803,"is_reserved":false,"is_disabled":false,"rental_uris":{"android":"levelo://app?vid=54c18ae4-fb9e-4f9c-8e98-a792665bc160","ios":"levelo://app?vid=54c18ae4-fb9e-4f9c-8e98-a792665bc160"},"vehicle_type_id":"4","last_reported":1744978717,"current_range_meters":16000,"station_id":"ce4bhrh2rcd13ifvqhug","pricing_plan_id":"cebpf4jnsgd1na2vs0mg"},{"bike_id":"f11c1877-2531-4187-8a4e-82f9bf9c66d8","system_id":"levelo_inurba_marseille","lat":43.250132,"lon":5.389188,"is_reserved":false,"is_disabled":false,"rental_uris":{"android":"levelo://app?vid=f11c1877-2531-4187-8a4e-82f9bf9c66d8","ios":"levelo://app?vid=f11c1877-2531-4187-8a4e-82f9bf9c66d8"},"vehicle_type_id":"4","last_reported":1744978717,"current_range_meters":16400,"station_id":"ce4bhgp2rcd13ifvqfd0","pricing_plan_id":"cebpf4jnsgd1na2vs0mg"},{"bike_id":"9f45b2bf-53d1-4e39-9a64-fb391bdbd395","system_id":"levelo_inurba_marseille","lat":43.33724,"lon":5.39186,"is_reserved":false,"is_disabled":false,"rental_uris":{"android":"levelo://app?vid=9f45b2bf-53d1-4e39-9a64-fb391bdbd395","ios":"levelo://app?vid=9f45b2bf-53d1-4e39-9a64-fb391bdbd395"},"vehicle_type_id":"4","last_reported":1744978717,"current_range_meters":16400,"station_id":"ce4bhr92rcd13ifvqhsg","pricing_plan_id":"cebpf4jnsgd1na2vs0mg"},{"bike_id":"789c3822-56ca-4769-bcd4-8845bdea2fda","system_id":"levelo_inurba_marseille","lat":43.241651,"lon":5.363963,"is_reserved":false,"is_disabled":false,"rental_uris":{"android":"levelo://app?vid=789c3822-56ca-4769-bcd4-8845bdea2fda","ios":"levelo://app?vid=789c3822-56ca-4769-bcd4-8845bdea2fda"},"vehicle_type_id":"4","last_reported":1744978717,"current_range_meters":16400,"station_id":"cpo36qri1sfpv3e86is0","pricing_plan_id":"cebpf4jnsgd1na2vs0mg"},{"bike_id":"e82968d1-d03e-4db3-8426-9c29161ae2cd","system_id":"levelo_inurba_marseille","lat":43.2826,"lon":5.35066,"is_reserved":false,"is_disabled":false,"rental_uris":{"android":"levelo://app?vid=e82968d1-d03e-4db3-8426-9c29161ae2cd","ios":"levelo://app?vid=e82968d1-d03e-4db3-8426-9c29161ae2cd"},"vehicle_type_id":"4","last_reported":1744978717,"current_range_meters":16400,"station_id":"ce4bhbp2rcd13ifvqerg","pricing_plan_id":"cebpf4jnsgd1na2vs0mg"},{"bike_id":"a1183122-2c11-405c-8c55-e035bd8761a2","system_id":"levelo_inurba_marseille","lat":43.27368,"lon":5.36251,"is_reserved":false,"is_disabled":false,"rental_uris":{"android":"levelo://app?vid=a1183122-2c11-405c-8c55-e035bd8761a2","ios":"levelo://app?vid=a1183122-2c11-405c-8c55-e035bd8761a2"},"vehicle_type_id":"4","last_reported":1744978717,"current_range_meters":16400,"station_id":"ce4bhbh2rcd13ifvqeo0","pricing_plan_id":"cebpf4jnsgd1na2vs0mg"},{"bike_id":"2b9159e8-005d-4d7e-bed1-4a0a8ac432f0","system_id":"levelo_inurba_marseille","lat":43.26211,"lon":5.37441,"is_reserved":false,"is_disabled":false,"rental_uris":{"android":"levelo://app?vid=2b9159e8-005d-4d7e-bed1-4a0a8ac432f0","ios":"levelo://app?vid=2b9159e8-005d-4d7e-bed1-4a0a8ac432f0"},"vehicle_type_id":"4","last_reported":1744978717,"current_range_meters":16400,"station_id":"ce4bhgp2rcd13ifvqfc0","pricing_plan_id":"cebpf4jnsgd1na2vs0mg"},{"bike_id":"d6471d1e-ea8a-4cf5-963a-5bd8d39a9d29","system_id":"levelo_inurba_marseille","lat":43.29913,"lon":5.38148,"is_reserved":false,"is_disabled":false,"rental_uris":{"android":"levelo://app?vid=d6471d1e-ea8a-4cf5-963a-5bd8d39a9d29","ios":"levelo://app?vid=d6471d1e-ea8a-4cf5-963a-5bd8d39a9d29"},"vehicle_type_id":"4","last_reported":1744978717,"current_range_meters":16400,"station_id":"ce4bgj12rcd13ifvqbc0","pricing_plan_id":"cebpf4jnsgd1na2vs0mg"},{"bike_id":"8bffca6c-7751-4f66-ab59-ab6c8e60b419","system_id":"levelo_inurba_marseille","lat":43.21187,"lon":5.35075,"is_reserved":false,"is_disabled":false,"rental_uris":{"android":"levelo://app?vid=8bffca6c-7751-4f66-ab59-ab6c8e60b419","ios":"levelo://app?vid=8bffca6c-7751-4f66-ab59-ab6c8e60b419"},"vehicle_type_id":"4","last_reported":1744978717,"current_range_meters":16800,"station_id":"st_cvj6sg6p6f1abm77japg","pricing_plan_id":"cebpf4jnsgd1na2vs0mg"},{"bike_id":"ed95b089-0e96-4bb5-ad36-a9c6b105b0ff","system_id":"levelo_inurba_marseille","lat":43.26953,"lon":5.38632,"is_reserved":false,"is_disabled":false,"rental_uris":{"android":"levelo://app?vid=ed95b089-0e96-4bb5-ad36-a9c6b105b0ff","ios":"levelo://app?vid=ed95b089-0e96-4bb5-ad36-a9c6b105b0ff"},"vehicle_type_id":"4","last_reported":1744978717,"current_range_meters":16800,"station_id":"ce4bhh92rcd13ifvqfh0","pricing_plan_id":"cebpf4jnsgd1na2vs0mg"},{"bike_id":"82ccb6ba-b577-4bf4-8cbe-8aa14bb95c87","system_id":"levelo_inurba_marseille","lat":43.27382,"lon":5.3625,"is_reserved":false,"is_disabled":false,"rental_uris":{"android":"levelo://app?vid=82ccb6ba-b577-4bf4-8cbe-8aa14bb95c87","ios":"levelo://app?vid=82ccb6ba-b577-4bf4-8cbe-8aa14bb95c87"},"vehicle_type_id":"4","last_reported":1744978717,"current_range_meters":16800,"station_id":"ce4bhbh2rcd13ifvqeo0","pricing_plan_id":"cebpf4jnsgd1na2vs0mg"},{"bike_id":"fd347819-bc5f-40e0-aad7-813fd717a636","system_id":"levelo_inurba_marseille","lat":43.2319,"lon":5.39989,"is_reserved":false,"is_disabled":false,"rental_uris":{"android":"levelo://app?vid=fd347819-bc5f-40e0-aad7-813fd717a636","ios":"levelo://app?vid=fd347819-bc5f-40e0-aad7-813fd717a636"},"vehicle_type_id":"4","last_reported":1744978717,"current_range_meters":16400,"station_id":"ce4bhn12rcd13ifvqgqg","pricing_plan_id":"cebpf4jnsgd1na2vs0mg"},{"bike_id":"d1d39195-7105-40ac-9e9f-412e283490af","system_id":"levelo_inurba_marseille","lat":43.26196,"lon":5.37451,"is_reserved":false,"is_disabled":false,"rental_uris":{"android":"levelo://app?vid=d1d39195-7105-40ac-9e9f-412e283490af","ios":"levelo://app?vid=d1d39195-7105-40ac-9e9f-412e283490af"},"vehicle_type_id":"4","last_reported":1744978717,"current_range_meters":16800,"station_id":"ce4bhgp2rcd13ifvqfc0","pricing_plan_id":"cebpf4jnsgd1na2vs0mg"},{"bike_id":"3cdbaf2c-fdb6-4846-930b-a20ae6c89f54","system_id":"levelo_inurba_marseille","lat":43.25502,"lon":5.37641,"is_reserved":false,"is_disabled":false,"rental_uris":{"android":"levelo://app?vid=3cdbaf2c-fdb6-4846-930b-a20ae6c89f54","ios":"levelo://app?vid=3cdbaf2c-fdb6-4846-930b-a20ae6c89f54"},"vehicle_type_id":"4","last_reported":1744978717,"current_range_meters":16800,"station_id":"ce4bhh12rcd13ifvqff0","pricing_plan_id":"cebpf4jnsgd1na2vs0mg"},{"bike_id":"b3db7714-dbf3-4bc4-a6f1-64ff1086c08f","system_id":"levelo_inurba_marseille","lat":43.21781,"lon":5.34618,"is_reserved":false,"is_disabled":false,"rental_uris":{"android":"levelo://app?vid=b3db7714-dbf3-4bc4-a6f1-64ff1086c08f","ios":"levelo://app?vid=b3db7714-dbf3-4bc4-a6f1-64ff1086c08f"},"vehicle_type_id":"4","last_reported":1744978717,"current_range_meters":16800,"station_id":"st_cvj6r9ubvosntc0bgbag","pricing_plan_id":"cebpf4jnsgd1na2vs0mg"},{"bike_id":"45d3a127-db90-42a8-ae04-34a544c52a79","system_id":"levelo_inurba_marseille","lat":43.21744,"lon":5.34608,"is_reserved":false,"is_disabled":false,"rental_uris":{"android":"levelo://app?vid=45d3a127-db90-42a8-ae04-34a544c52a79","ios":"levelo://app?vid=45d3a127-db90-42a8-ae04-34a544c52a79"},"vehicle_type_id":"4","last_reported":1744978717,"current_range_meters":16800,"station_id":"st_cvj6r9ubvosntc0bgbag","pricing_plan_id":"cebpf4jnsgd1na2vs0mg"},{"bike_id":"91aa591a-3e56-4092-a295-ecb6aebe69eb","system_id":"levelo_inurba_marseille","lat":43.22498,"lon":5.34799,"is_reserved":false,"is_disabled":false,"rental_uris":{"android":"levelo://app?vid=91aa591a-3e56-4092-a295-ecb6aebe69eb","ios":"levelo://app?vid=91aa591a-3e56-4092-a295-ecb6aebe69eb"},"vehicle_type_id":"4","last_reported":1744978717,"current_range_meters":17200,"station_id":"st_cvj5dfep6f1abm77gieg","pricing_plan_id":"cebpf4jnsgd1na2vs0mg"},{"bike_id":"3b4b2fa0-18dd-4f1b-a170-9839751538d5","system_id":"levelo_inurba_marseille","lat":43.27376,"lon":5.36258,"is_reserved":false,"is_disabled":false,"rental_uris":{"android":"levelo://app?vid=3b4b2fa0-18dd-4f1b-a170-9839751538d5","ios":"levelo://app?vid=3b4b2fa0-18dd-4f1b-a170-9839751538d5"},"vehicle_type_id":"4","last_reported":1744978717,"current_range_meters":17200,"station_id":"ce4bhbh2rcd13ifvqeo0","pricing_plan_id":"cebpf4jnsgd1na2vs0mg"},{"bike_id":"1ec381a3-471e-4b07-913a-615ea34927e0","system_id":"levelo_inurba_marseille","lat":43.2456,"lon":5.39526,"is_reserved":false,"is_disabled":false,"rental_uris":{"android":"levelo://app?vid=1ec381a3-471e-4b07-913a-615ea34927e0","ios":"levelo://app?vid=1ec381a3-471e-4b07-913a-615ea34927e0"},"vehicle_type_id":"4","last_reported":1744978717,"current_range_meters":17200,"station_id":"ce4bhlp2rcd13ifvqgjg","pricing_plan_id":"cebpf4jnsgd1na2vs0mg"},{"bike_id":"5fa0af9a-0311-4c7d-b2c7-d36686684e12","system_id":"levelo_inurba_marseille","lat":43.28699,"lon":5.37379,"is_reserved":false,"is_disabled":false,"rental_uris":{"android":"levelo://app?vid=5fa0af9a-0311-4c7d-b2c7-d36686684e12","ios":"levelo://app?vid=5fa0af9a-0311-4c7d-b2c7-d36686684e12"},"vehicle_type_id":"4","last_reported":1744978717,"current_range_meters":17200,"station_id":"","pricing_plan_id":"cebpf4jnsgd1na2vs0mg"},{"bike_id":"ecc7c7ae-a7c1-4c64-8e42-0e8a2e66b064","system_id":"levelo_inurba_marseille","lat":43.23182,"lon":5.39991,"is_reserved":false,"is_disabled":false,"rental_uris":{"android":"levelo://app?vid=ecc7c7ae-a7c1-4c64-8e42-0e8a2e66b064","ios":"levelo://app?vid=ecc7c7ae-a7c1-4c64-8e42-0e8a2e66b064"},"vehicle_type_id":"4","last_reported":1744978717,"current_range_meters":17200,"station_id":"ce4bhn12rcd13ifvqgqg","pricing_plan_id":"cebpf4jnsgd1na2vs0mg"},{"bike_id":"00180857-beb7-4386-8dbc-c6d7377a56a8","system_id":"levelo_inurba_marseille","lat":43.283997,"lon":5.384692,"is_reserved":false,"is_disabled":false,"rental_uris":{"android":"levelo://app?vid=00180857-beb7-4386-8dbc-c6d7377a56a8","ios":"levelo://app?vid=00180857-beb7-4386-8dbc-c6d7377a56a8"},"vehicle_type_id":"4","last_reported":1744978717,"current_range_meters":17200,"station_id":"ce4bh492rcd13ifvqdvg","pricing_plan_id":"cebpf4jnsgd1na2vs0mg"},{"bike_id":"f1d513e7-93f2-472b-b840-4c42490aad95","system_id":"levelo_inurba_marseille","lat":43.241643,"lon":5.363948,"is_reserved":false,"is_disabled":false,"rental_uris":{"android":"levelo://app?vid=f1d513e7-93f2-472b-b840-4c42490aad95","ios":"levelo://app?vid=f1d513e7-93f2-472b-b840-4c42490aad95"},"vehicle_type_id":"4","last_reported":1744978717,"current_range_meters":17200,"station_id":"cpo36qri1sfpv3e86is0","pricing_plan_id":"cebpf4jnsgd1na2vs0mg"},{"bike_id":"e07a8cb1-b6a3-42b7-bb66-fed2bd31b91e","system_id":"levelo_inurba_marseille","lat":43.28939,"lon":5.36646,"is_reserved":false,"is_disabled":false,"rental_uris":{"android":"levelo://app?vid=e07a8cb1-b6a3-42b7-bb66-fed2bd31b91e","ios":"levelo://app?vid=e07a8cb1-b6a3-42b7-bb66-fed2bd31b91e"},"vehicle_type_id":"4","last_reported":1744978717,"current_range_meters":16800,"station_id":"ce4bhap2rcd13ifvqek0","pricing_plan_id":"cebpf4jnsgd1na2vs0mg"},{"bike_id":"9e84da7d-229e-4b64-a5e6-05f39dab78b6","system_id":"levelo_inurba_marseille","lat":43.315257,"lon":5.380385,"is_reserved":false,"is_disabled":false,"rental_uris":{"android":"levelo://app?vid=9e84da7d-229e-4b64-a5e6-05f39dab78b6","ios":"levelo://app?vid=9e84da7d-229e-4b64-a5e6-05f39dab78b6"},"vehicle_type_id":"4","last_reported":1744978717,"current_range_meters":16800,"station_id":"ce4bhsp2rcd13ifvqi50","pricing_plan_id":"cebpf4jnsgd1na2vs0mg"},{"bike_id":"23cc3c21-39d5-401a-998d-6365ef24751a","system_id":"levelo_inurba_marseille","lat":43.22942,"lon":5.35374,"is_reserved":false,"is_disabled":false,"rental_uris":{"android":"levelo://app?vid=23cc3c21-39d5-401a-998d-6365ef24751a","ios":"levelo://app?vid=23cc3c21-39d5-401a-998d-6365ef24751a"},"vehicle_type_id":"4","last_reported":1744978717,"current_range_meters":17200,"station_id":"cpo3532slgdg3j2ikp40","pricing_plan_id":"cebpf4jnsgd1na2vs0mg"},{"bike_id":"6f868d52-4010-4181-82b9-bbdba3aa75f7","system_id":"levelo_inurba_marseille","lat":43.28622,"lon":5.35103,"is_reserved":false,"is_disabled":false,"rental_uris":{"android":"levelo://app?vid=6f868d52-4010-4181-82b9-bbdba3aa75f7","ios":"levelo://app?vid=6f868d52-4010-4181-82b9-bbdba3aa75f7"},"vehicle_type_id":"4","last_reported":1744978717,"current_range_meters":17200,"station_id":"ce4bhch2rcd13ifvqeug","pricing_plan_id":"cebpf4jnsgd1na2vs0mg"},{"bike_id":"246793c0-3fe4-486c-a048-42d6ed9575be","system_id":"levelo_inurba_marseille","lat":43.28272,"lon":5.35068,"is_reserved":false,"is_disabled":false,"rental_uris":{"android":"levelo://app?vid=246793c0-3fe4-486c-a048-42d6ed9575be","ios":"levelo://app?vid=246793c0-3fe4-486c-a048-42d6ed9575be"},"vehicle_type_id":"4","last_reported":1744978717,"current_range_meters":17600,"station_id":"ce4bhbp2rcd13ifvqerg","pricing_plan_id":"cebpf4jnsgd1na2vs0mg"},{"bike_id":"9021abae-9dc3-4a9b-bcfb-1e8340421c1f","system_id":"levelo_inurba_marseille","lat":43.28626,"lon":5.35106,"is_reserved":false,"is_disabled":false,"rental_uris":{"android":"levelo://app?vid=9021abae-9dc3-4a9b-bcfb-1e8340421c1f","ios":"levelo://app?vid=9021abae-9dc3-4a9b-bcfb-1e8340421c1f"},"vehicle_type_id":"4","last_reported":1744978717,"current_range_meters":17600,"station_id":"ce4bhch2rcd13ifvqeug","pricing_plan_id":"cebpf4jnsgd1na2vs0mg"},{"bike_id":"aea2afb6-112e-4c3a-968a-5eb5aa77e9be","system_id":"levelo_inurba_marseille","lat":43.21189,"lon":5.35081,"is_reserved":false,"is_disabled":false,"rental_uris":{"android":"levelo://app?vid=aea2afb6-112e-4c3a-968a-5eb5aa77e9be","ios":"levelo://app?vid=aea2afb6-112e-4c3a-968a-5eb5aa77e9be"},"vehicle_type_id":"4","last_reported":1744978717,"current_range_meters":17600,"station_id":"st_cvj6sg6p6f1abm77japg","pricing_plan_id":"cebpf4jnsgd1na2vs0mg"},{"bike_id":"82a001e1-327f-4a58-b355-bcf2e1a86bf6","system_id":"levelo_inurba_marseille","lat":43.30905,"lon":5.3669,"is_reserved":false,"is_disabled":false,"rental_uris":{"android":"levelo://app?vid=82a001e1-327f-4a58-b355-bcf2e1a86bf6","ios":"levelo://app?vid=82a001e1-327f-4a58-b355-bcf2e1a86bf6"},"vehicle_type_id":"4","last_reported":1744978717,"current_range_meters":17600,"station_id":"","pricing_plan_id":"cebpf4jnsgd1na2vs0mg"},{"bike_id":"f9481180-59ce-4a3e-a150-d1d156522483","system_id":"levelo_inurba_marseille","lat":43.285163,"lon":5.350891,"is_reserved":false,"is_disabled":false,"rental_uris":{"android":"levelo://app?vid=f9481180-59ce-4a3e-a150-d1d156522483","ios":"levelo://app?vid=f9481180-59ce-4a3e-a150-d1d156522483"},"vehicle_type_id":"4","last_reported":1744978717,"current_range_meters":17600,"station_id":"ce4bhbh2rcd13ifvqepg","pricing_plan_id":"cebpf4jnsgd1na2vs0mg"},{"bike_id":"beae55ab-1a39-49d3-9e51-9498979f641f","system_id":"levelo_inurba_marseille","lat":43.2993,"lon":5.36532,"is_reserved":false,"is_disabled":false,"rental_uris":{"android":"levelo://app?vid=beae55ab-1a39-49d3-9e51-9498979f641f","ios":"levelo://app?vid=beae55ab-1a39-49d3-9e51-9498979f641f"},"vehicle_type_id":"4","last_reported":1744978717,"current_range_meters":17600,"station_id":"ce4bgm92rcd13ifvqbr0","pricing_plan_id":"cebpf4jnsgd1na2vs0mg"},{"bike_id":"f964bc07-c566-46c7-9da2-b8cb74ddbf4d","system_id":"levelo_inurba_marseille","lat":43.23962,"lon":5.36629,"is_reserved":false,"is_disabled":false,"rental_uris":{"android":"levelo://app?vid=f964bc07-c566-46c7-9da2-b8cb74ddbf4d","ios":"levelo://app?vid=f964bc07-c566-46c7-9da2-b8cb74ddbf4d"},"vehicle_type_id":"4","last_reported":1744978717,"current_range_meters":17600,"station_id":"ce4bhi12rcd13ifvqfp0","pricing_plan_id":"cebpf4jnsgd1na2vs0mg"},{"bike_id":"9eb6738d-486c-4d0a-88f4-70b8d81983d1","system_id":"levelo_inurba_marseille","lat":43.21744,"lon":5.34615,"is_reserved":false,"is_disabled":false,"rental_uris":{"android":"levelo://app?vid=9eb6738d-486c-4d0a-88f4-70b8d81983d1","ios":"levelo://app?vid=9eb6738d-486c-4d0a-88f4-70b8d81983d1"},"vehicle_type_id":"4","last_reported":1744978717,"current_range_meters":17600,"station_id":"st_cvj6r9ubvosntc0bgbag","pricing_plan_id":"cebpf4jnsgd1na2vs0mg"},{"bike_id":"0513d50a-d6e4-4093-a8cf-4d32d2c45b4c","system_id":"levelo_inurba_marseille","lat":43.324933,"lon":5.365678,"is_reserved":false,"is_disabled":false,"rental_uris":{"android":"levelo://app?vid=0513d50a-d6e4-4093-a8cf-4d32d2c45b4c","ios":"levelo://app?vid=0513d50a-d6e4-4093-a8cf-4d32d2c45b4c"},"vehicle_type_id":"4","last_reported":1744978717,"current_range_meters":17600,"station_id":"ce4bhs12rcd13ifvqhvg","pricing_plan_id":"cebpf4jnsgd1na2vs0mg"},{"bike_id":"846231f6-6953-4ff8-b8a5-3a085f1dbb55","system_id":"levelo_inurba_marseille","lat":43.29931,"lon":5.43663,"is_reserved":false,"is_disabled":false,"rental_uris":{"android":"levelo://app?vid=846231f6-6953-4ff8-b8a5-3a085f1dbb55","ios":"levelo://app?vid=846231f6-6953-4ff8-b8a5-3a085f1dbb55"},"vehicle_type_id":"4","last_reported":1744978717,"current_range_meters":17600,"station_id":"","pricing_plan_id":"cebpf4jnsgd1na2vs0mg"},{"bike_id":"addbbe39-aa0d-4899-ac26-a436a72f2d32","system_id":"levelo_inurba_marseille","lat":43.2175,"lon":5.34604,"is_reserved":false,"is_disabled":false,"rental_uris":{"android":"levelo://app?vid=addbbe39-aa0d-4899-ac26-a436a72f2d32","ios":"levelo://app?vid=addbbe39-aa0d-4899-ac26-a436a72f2d32"},"vehicle_type_id":"4","last_reported":1744978717,"current_range_meters":18000,"station_id":"st_cvj6r9ubvosntc0bgbag","pricing_plan_id":"cebpf4jnsgd1na2vs0mg"},{"bike_id":"5c87a66e-a468-4c06-bf6a-016059f2b476","system_id":"levelo_inurba_marseille","lat":43.22938,"lon":5.35368,"is_reserved":false,"is_disabled":false,"rental_uris":{"android":"levelo://app?vid=5c87a66e-a468-4c06-bf6a-016059f2b476","ios":"levelo://app?vid=5c87a66e-a468-4c06-bf6a-016059f2b476"},"vehicle_type_id":"4","last_reported":1744978717,"current_range_meters":18000,"station_id":"cpo3532slgdg3j2ikp40","pricing_plan_id":"cebpf4jnsgd1na2vs0mg"},{"bike_id":"4dbdb663-6ae9-4416-abee-6e1482cfda69","system_id":"levelo_inurba_marseille","lat":43.29851,"lon":5.36285,"is_reserved":false,"is_disabled":false,"rental_uris":{"android":"levelo://app?vid=4dbdb663-6ae9-4416-abee-6e1482cfda69","ios":"levelo://app?vid=4dbdb663-6ae9-4416-abee-6e1482cfda69"},"vehicle_type_id":"4","last_reported":1744978717,"current_range_meters":18000,"station_id":"ce4bgpp2rcd13ifvqc3g","pricing_plan_id":"cebpf4jnsgd1na2vs0mg"},{"bike_id":"65b8d8f2-842e-4216-a1b1-237ace3c418e","system_id":"levelo_inurba_marseille","lat":43.23191,"lon":5.35558,"is_reserved":false,"is_disabled":false,"rental_uris":{"android":"levelo://app?vid=65b8d8f2-842e-4216-a1b1-237ace3c418e","ios":"levelo://app?vid=65b8d8f2-842e-4216-a1b1-237ace3c418e"},"vehicle_type_id":"4","last_reported":1744978717,"current_range_meters":18000,"station_id":"ce4bhu92rcd13ifvqi70","pricing_plan_id":"cebpf4jnsgd1na2vs0mg"},{"bike_id":"0c90ae3b-4e15-4f78-b6e2-a894ed4292ea","system_id":"levelo_inurba_marseille","lat":43.3135,"lon":5.36711,"is_reserved":false,"is_disabled":false,"rental_uris":{"android":"levelo://app?vid=0c90ae3b-4e15-4f78-b6e2-a894ed4292ea","ios":"levelo://app?vid=0c90ae3b-4e15-4f78-b6e2-a894ed4292ea"},"vehicle_type_id":"4","last_reported":1744978717,"current_range_meters":17600,"station_id":"ce4bgr92rcd13ifvqc6g","pricing_plan_id":"cebpf4jnsgd1na2vs0mg"},{"bike_id":"47ac335a-36e2-49e7-abe4-1428c8083e35","system_id":"levelo_inurba_marseille","lat":43.22931,"lon":5.35378,"is_reserved":false,"is_disabled":false,"rental_uris":{"android":"levelo://app?vid=47ac335a-36e2-49e7-abe4-1428c8083e35","ios":"levelo://app?vid=47ac335a-36e2-49e7-abe4-1428c8083e35"},"vehicle_type_id":"4","last_reported":1744978717,"current_range_meters":18000,"station_id":"cpo3532slgdg3j2ikp40","pricing_plan_id":"cebpf4jnsgd1na2vs0mg"},{"bike_id":"03e6865f-dbaf-4539-a2b2-d83ded6c6acc","system_id":"levelo_inurba_marseille","lat":43.29698,"lon":5.36618,"is_reserved":false,"is_disabled":false,"rental_uris":{"android":"levelo://app?vid=03e6865f-dbaf-4539-a2b2-d83ded6c6acc","ios":"levelo://app?vid=03e6865f-dbaf-4539-a2b2-d83ded6c6acc"},"vehicle_type_id":"4","last_reported":1744978717,"current_range_meters":18800,"station_id":"ce4bgn12rcd13ifvqbt0","pricing_plan_id":"cebpf4jnsgd1na2vs0mg"},{"bike_id":"bb9cc5b6-0c7a-4871-8383-15ba04455dec","system_id":"levelo_inurba_marseille","lat":43.299031,"lon":5.436722,"is_reserved":false,"is_disabled":false,"rental_uris":{"android":"levelo://app?vid=bb9cc5b6-0c7a-4871-8383-15ba04455dec","ios":"levelo://app?vid=bb9cc5b6-0c7a-4871-8383-15ba04455dec"},"vehicle_type_id":"4","last_reported":1744978717,"current_range_meters":18800,"station_id":"ce4bhpp2rcd13ifvqhfg","pricing_plan_id":"cebpf4jnsgd1na2vs0mg"},{"bike_id":"322cd8c1-4afd-4444-8756-d81641ac0274","system_id":"levelo_inurba_marseille","lat":43.23196,"lon":5.35555,"is_reserved":false,"is_disabled":false,"rental_uris":{"android":"levelo://app?vid=322cd8c1-4afd-4444-8756-d81641ac0274","ios":"levelo://app?vid=322cd8c1-4afd-4444-8756-d81641ac0274"},"vehicle_type_id":"4","last_reported":1744978717,"current_range_meters":18800,"station_id":"ce4bhu92rcd13ifvqi70","pricing_plan_id":"cebpf4jnsgd1na2vs0mg"},{"bike_id":"ee3e4ac7-b79f-4132-b39e-dfed12393c0a","system_id":"levelo_inurba_marseille","lat":43.23193,"lon":5.35555,"is_reserved":false,"is_disabled":false,"rental_uris":{"android":"levelo://app?vid=ee3e4ac7-b79f-4132-b39e-dfed12393c0a","ios":"levelo://app?vid=ee3e4ac7-b79f-4132-b39e-dfed12393c0a"},"vehicle_type_id":"4","last_reported":1744978717,"current_range_meters":18800,"station_id":"ce4bhu92rcd13ifvqi70","pricing_plan_id":"cebpf4jnsgd1na2vs0mg"},{"bike_id":"343406d9-08d9-46fe-b35a-6f875b542c07","system_id":"levelo_inurba_marseille","lat":43.23053,"lon":5.35491,"is_reserved":false,"is_disabled":true,"rental_uris":{"android":"levelo://app?vid=343406d9-08d9-46fe-b35a-6f875b542c07","ios":"levelo://app?vid=343406d9-08d9-46fe-b35a-6f875b542c07"},"vehicle_type_id":"4","last_reported":1744978717,"current_range_meters":18800,"station_id":"cpo3342slgdg3j2ifvpg","pricing_plan_id":"cebpf4jnsgd1na2vs0mg"},{"bike_id":"8e3a627a-3446-48ab-b116-d405a8a4f38e","system_id":"levelo_inurba_marseille","lat":43.28411,"lon":5.34982,"is_reserved":false,"is_disabled":false,"rental_uris":{"android":"levelo://app?vid=8e3a627a-3446-48ab-b116-d405a8a4f38e","ios":"levelo://app?vid=8e3a627a-3446-48ab-b116-d405a8a4f38e"},"vehicle_type_id":"4","last_reported":1744978717,"current_range_meters":18800,"station_id":"ce4bhbh2rcd13ifvqepg","pricing_plan_id":"cebpf4jnsgd1na2vs0mg"},{"bike_id":"24213b37-b766-4d9c-a174-f6bf34920497","system_id":"levelo_inurba_marseille","lat":43.28469,"lon":5.384178,"is_reserved":false,"is_disabled":false,"rental_uris":{"android":"levelo://app?vid=24213b37-b766-4d9c-a174-f6bf34920497","ios":"levelo://app?vid=24213b37-b766-4d9c-a174-f6bf34920497"},"vehicle_type_id":"4","last_reported":1744978717,"current_range_meters":18800,"station_id":"ce4bh512rcd13ifvqe3g","pricing_plan_id":"cebpf4jnsgd1na2vs0mg"},{"bike_id":"17de6571-3c1c-4621-995b-d445cb9c6f14","system_id":"levelo_inurba_marseille","lat":43.211942,"lon":5.350729,"is_reserved":false,"is_disabled":false,"rental_uris":{"android":"levelo://app?vid=17de6571-3c1c-4621-995b-d445cb9c6f14","ios":"levelo://app?vid=17de6571-3c1c-4621-995b-d445cb9c6f14"},"vehicle_type_id":"4","last_reported":1744978717,"current_range_meters":18800,"station_id":"st_cvj6sg6p6f1abm77japg","pricing_plan_id":"cebpf4jnsgd1na2vs0mg"},{"bike_id":"a3f4aebd-2358-420b-9f8b-e188129d0a3e","system_id":"levelo_inurba_marseille","lat":43.23192,"lon":5.35555,"is_reserved":false,"is_disabled":false,"rental_uris":{"android":"levelo://app?vid=a3f4aebd-2358-420b-9f8b-e188129d0a3e","ios":"levelo://app?vid=a3f4aebd-2358-420b-9f8b-e188129d0a3e"},"vehicle_type_id":"4","last_reported":1744978717,"current_range_meters":18800,"station_id":"ce4bhu92rcd13ifvqi70","pricing_plan_id":"cebpf4jnsgd1na2vs0mg"},{"bike_id":"38661a6f-f347-47f9-b622-62c4dcd6e0f3","system_id":"levelo_inurba_marseille","lat":43.31713,"lon":5.43692,"is_reserved":false,"is_disabled":false,"rental_uris":{"android":"levelo://app?vid=38661a6f-f347-47f9-b622-62c4dcd6e0f3","ios":"levelo://app?vid=38661a6f-f347-47f9-b622-62c4dcd6e0f3"},"vehicle_type_id":"4","last_reported":1744978717,"current_range_meters":18800,"station_id":"ce4bhp92rcd13ifvqhcg","pricing_plan_id":"cebpf4jnsgd1na2vs0mg"},{"bike_id":"d1990448-9bdd-4521-bb10-f40c10a4f43a","system_id":"levelo_inurba_marseille","lat":43.26788,"lon":5.39431,"is_reserved":false,"is_disabled":false,"rental_uris":{"android":"levelo://app?vid=d1990448-9bdd-4521-bb10-f40c10a4f43a","ios":"levelo://app?vid=d1990448-9bdd-4521-bb10-f40c10a4f43a"},"vehicle_type_id":"4","last_reported":1744978717,"current_range_meters":18000,"station_id":"ce4bhh12rcd13ifvqfg0","pricing_plan_id":"cebpf4jnsgd1na2vs0mg"},{"bike_id":"e8c35f53-33e9-4cc6-90e3-4f5913565f51","system_id":"levelo_inurba_marseille","lat":43.23156,"lon":5.43708,"is_reserved":false,"is_disabled":false,"rental_uris":{"android":"levelo://app?vid=e8c35f53-33e9-4cc6-90e3-4f5913565f51","ios":"levelo://app?vid=e8c35f53-33e9-4cc6-90e3-4f5913565f51"},"vehicle_type_id":"4","last_reported":1744978717,"current_range_meters":19200,"station_id":"ce4bhmp2rcd13ifvqgog","pricing_plan_id":"cebpf4jnsgd1na2vs0mg"},{"bike_id":"d05b7cc4-f88b-4d02-ae6c-c344f22c0e5c","system_id":"levelo_inurba_marseille","lat":43.29756,"lon":5.36525,"is_reserved":false,"is_disabled":false,"rental_uris":{"android":"levelo://app?vid=d05b7cc4-f88b-4d02-ae6c-c344f22c0e5c","ios":"levelo://app?vid=d05b7cc4-f88b-4d02-ae6c-c344f22c0e5c"},"vehicle_type_id":"4","last_reported":1744978717,"current_range_meters":19200,"station_id":"","pricing_plan_id":"cebpf4jnsgd1na2vs0mg"},{"bike_id":"57e4bf49-afd3-40be-be28-f9c625a8dbad","system_id":"levelo_inurba_marseille","lat":43.273546,"lon":5.362418,"is_reserved":false,"is_disabled":true,"rental_uris":{"android":"levelo://app?vid=57e4bf49-afd3-40be-be28-f9c625a8dbad","ios":"levelo://app?vid=57e4bf49-afd3-40be-be28-f9c625a8dbad"},"vehicle_type_id":"4","last_reported":1744978717,"current_range_meters":19200,"station_id":"ce4bhbh2rcd13ifvqeo0","pricing_plan_id":"cebpf4jnsgd1na2vs0mg"},{"bike_id":"0e1715ee-8792-4087-b8d1-a63db711d8c4","system_id":"levelo_inurba_marseille","lat":43.30914,"lon":5.36844,"is_reserved":false,"is_disabled":false,"rental_uris":{"android":"levelo://app?vid=0e1715ee-8792-4087-b8d1-a63db711d8c4","ios":"levelo://app?vid=0e1715ee-8792-4087-b8d1-a63db711d8c4"},"vehicle_type_id":"4","last_reported":1744978717,"current_range_meters":18800,"station_id":"ce4bgn92rcd13ifvqbvg","pricing_plan_id":"cebpf4jnsgd1na2vs0mg"},{"bike_id":"c48a22f1-0573-4cce-a7b4-727bf62fb2d0","system_id":"levelo_inurba_marseille","lat":43.2969,"lon":5.3729,"is_reserved":false,"is_disabled":false,"rental_uris":{"android":"levelo://app?vid=c48a22f1-0573-4cce-a7b4-727bf62fb2d0","ios":"levelo://app?vid=c48a22f1-0573-4cce-a7b4-727bf62fb2d0"},"vehicle_type_id":"4","last_reported":1744978717,"current_range_meters":18800,"station_id":"ce4bgk12rcd13ifvqbj0","pricing_plan_id":"cebpf4jnsgd1na2vs0mg"},{"bike_id":"ce02d5f0-6da3-49fd-98f5-0a7ac8ed6787","system_id":"levelo_inurba_marseille","lat":43.21181,"lon":5.35059,"is_reserved":false,"is_disabled":false,"rental_uris":{"android":"levelo://app?vid=ce02d5f0-6da3-49fd-98f5-0a7ac8ed6787","ios":"levelo://app?vid=ce02d5f0-6da3-49fd-98f5-0a7ac8ed6787"},"vehicle_type_id":"4","last_reported":1744978717,"current_range_meters":19200,"station_id":"st_cvj6sg6p6f1abm77japg","pricing_plan_id":"cebpf4jnsgd1na2vs0mg"},{"bike_id":"495ec7dc-d3f4-41e4-bf12-3060fa793f35","system_id":"levelo_inurba_marseille","lat":43.28407,"lon":5.34992,"is_reserved":false,"is_disabled":false,"rental_uris":{"android":"levelo://app?vid=495ec7dc-d3f4-41e4-bf12-3060fa793f35","ios":"levelo://app?vid=495ec7dc-d3f4-41e4-bf12-3060fa793f35"},"vehicle_type_id":"4","last_reported":1744978717,"current_range_meters":19200,"station_id":"ce4bhbh2rcd13ifvqepg","pricing_plan_id":"cebpf4jnsgd1na2vs0mg"},{"bike_id":"9fae2fe9-41f2-4764-b79f-dc7ef3bc540c","system_id":"levelo_inurba_marseille","lat":43.28408,"lon":5.34979,"is_reserved":false,"is_disabled":false,"rental_uris":{"android":"levelo://app?vid=9fae2fe9-41f2-4764-b79f-dc7ef3bc540c","ios":"levelo://app?vid=9fae2fe9-41f2-4764-b79f-dc7ef3bc540c"},"vehicle_type_id":"4","last_reported":1744978717,"current_range_meters":19600,"station_id":"ce4bhbh2rcd13ifvqepg","pricing_plan_id":"cebpf4jnsgd1na2vs0mg"},{"bike_id":"8de260b1-3032-43d3-9c8e-6ee21f4fdb6d","system_id":"levelo_inurba_marseille","lat":43.25492,"lon":5.37649,"is_reserved":false,"is_disabled":false,"rental_uris":{"android":"levelo://app?vid=8de260b1-3032-43d3-9c8e-6ee21f4fdb6d","ios":"levelo://app?vid=8de260b1-3032-43d3-9c8e-6ee21f4fdb6d"},"vehicle_type_id":"4","last_reported":1744978717,"current_range_meters":19600,"station_id":"ce4bhh12rcd13ifvqff0","pricing_plan_id":"cebpf4jnsgd1na2vs0mg"},{"bike_id":"a5cc93c8-ec6f-4dcb-aec5-73cb2eb9d4a1","system_id":"levelo_inurba_marseille","lat":43.31444,"lon":5.37384,"is_reserved":false,"is_disabled":false,"rental_uris":{"android":"levelo://app?vid=a5cc93c8-ec6f-4dcb-aec5-73cb2eb9d4a1","ios":"levelo://app?vid=a5cc93c8-ec6f-4dcb-aec5-73cb2eb9d4a1"},"vehicle_type_id":"4","last_reported":1744978717,"current_range_meters":18000,"station_id":"","pricing_plan_id":"cebpf4jnsgd1na2vs0mg"},{"bike_id":"20948b50-f31a-4ed1-9a38-7c34aa3def6f","system_id":"levelo_inurba_marseille","lat":43.25494,"lon":5.37652,"is_reserved":false,"is_disabled":false,"rental_uris":{"android":"levelo://app?vid=20948b50-f31a-4ed1-9a38-7c34aa3def6f","ios":"levelo://app?vid=20948b50-f31a-4ed1-9a38-7c34aa3def6f"},"vehicle_type_id":"4","last_reported":1744978717,"current_range_meters":19600,"station_id":"ce4bhh12rcd13ifvqff0","pricing_plan_id":"cebpf4jnsgd1na2vs0mg"},{"bike_id":"32e1baf6-f2a8-4876-8b0a-9cc13511ff65","system_id":"levelo_inurba_marseille","lat":43.24185,"lon":5.39728,"is_reserved":false,"is_disabled":false,"rental_uris":{"android":"levelo://app?vid=32e1baf6-f2a8-4876-8b0a-9cc13511ff65","ios":"levelo://app?vid=32e1baf6-f2a8-4876-8b0a-9cc13511ff65"},"vehicle_type_id":"4","last_reported":1744978717,"current_range_meters":19600,"station_id":"ce4bhn12rcd13ifvqgpg","pricing_plan_id":"cebpf4jnsgd1na2vs0mg"},{"bike_id":"08dab0fb-d5c5-494b-8e69-658e0428a624","system_id":"levelo_inurba_marseille","lat":43.25494,"lon":5.37648,"is_reserved":false,"is_disabled":false,"rental_uris":{"android":"levelo://app?vid=08dab0fb-d5c5-494b-8e69-658e0428a624","ios":"levelo://app?vid=08dab0fb-d5c5-494b-8e69-658e0428a624"},"vehicle_type_id":"4","last_reported":1744978717,"current_range_meters":19600,"station_id":"ce4bhh12rcd13ifvqff0","pricing_plan_id":"cebpf4jnsgd1na2vs0mg"},{"bike_id":"cb67d1ff-946c-4e13-8ff7-b5ad7665f64d","system_id":"levelo_inurba_marseille","lat":43.28716,"lon":5.37947,"is_reserved":false,"is_disabled":false,"rental_uris":{"android":"levelo://app?vid=cb67d1ff-946c-4e13-8ff7-b5ad7665f64d","ios":"levelo://app?vid=cb67d1ff-946c-4e13-8ff7-b5ad7665f64d"},"vehicle_type_id":"4","last_reported":1744978717,"current_range_meters":19600,"station_id":"ce4bh9p2rcd13ifvqec0","pricing_plan_id":"cebpf4jnsgd1na2vs0mg"},{"bike_id":"08b36402-73c5-41e6-a039-9cbfa932bbad","system_id":"levelo_inurba_marseille","lat":43.272186,"lon":5.391124,"is_reserved":false,"is_disabled":false,"rental_uris":{"android":"levelo://app?vid=08b36402-73c5-41e6-a039-9cbfa932bbad","ios":"levelo://app?vid=08b36402-73c5-41e6-a039-9cbfa932bbad"},"vehicle_type_id":"4","last_reported":1744978717,"current_range_meters":19600,"station_id":"ce4bhhp2rcd13ifvqfm0","pricing_plan_id":"cebpf4jnsgd1na2vs0mg"},{"bike_id":"8c9cb089-ecfb-4b82-a678-09b0f352f9b9","system_id":"levelo_inurba_marseille","lat":43.23149,"lon":5.43715,"is_reserved":false,"is_disabled":false,"rental_uris":{"android":"levelo://app?vid=8c9cb089-ecfb-4b82-a678-09b0f352f9b9","ios":"levelo://app?vid=8c9cb089-ecfb-4b82-a678-09b0f352f9b9"},"vehicle_type_id":"4","last_reported":1744978717,"current_range_meters":19600,"station_id":"ce4bhmp2rcd13ifvqgog","pricing_plan_id":"cebpf4jnsgd1na2vs0mg"},{"bike_id":"4d43fa23-f7db-4e36-b743-b0b96888746f","system_id":"levelo_inurba_marseille","lat":43.25498,"lon":5.37649,"is_reserved":false,"is_disabled":false,"rental_uris":{"android":"levelo://app?vid=4d43fa23-f7db-4e36-b743-b0b96888746f","ios":"levelo://app?vid=4d43fa23-f7db-4e36-b743-b0b96888746f"},"vehicle_type_id":"4","last_reported":1744978717,"current_range_meters":20000,"station_id":"ce4bhh12rcd13ifvqff0","pricing_plan_id":"cebpf4jnsgd1na2vs0mg"},{"bike_id":"fba57ab6-1513-424c-82d1-02949a465d4a","system_id":"levelo_inurba_marseille","lat":43.28412,"lon":5.34986,"is_reserved":false,"is_disabled":false,"rental_uris":{"android":"levelo://app?vid=fba57ab6-1513-424c-82d1-02949a465d4a","ios":"levelo://app?vid=fba57ab6-1513-424c-82d1-02949a465d4a"},"vehicle_type_id":"4","last_reported":1744978717,"current_range_meters":20000,"station_id":"ce4bhbh2rcd13ifvqepg","pricing_plan_id":"cebpf4jnsgd1na2vs0mg"},{"bike_id":"fd89e791-6df9-40dd-b37d-4f767bc63caf","system_id":"levelo_inurba_marseille","lat":43.29013,"lon":5.3561,"is_reserved":false,"is_disabled":false,"rental_uris":{"android":"levelo://app?vid=fd89e791-6df9-40dd-b37d-4f767bc63caf","ios":"levelo://app?vid=fd89e791-6df9-40dd-b37d-4f767bc63caf"},"vehicle_type_id":"4","last_reported":1744978717,"current_range_meters":20000,"station_id":"ce4bhb92rcd13ifvqen0","pricing_plan_id":"cebpf4jnsgd1na2vs0mg"},{"bike_id":"1fad1949-da2d-4b93-9386-de1f3dc78d1f","system_id":"levelo_inurba_marseille","lat":43.30603,"lon":5.39364,"is_reserved":false,"is_disabled":true,"rental_uris":{"android":"levelo://app?vid=1fad1949-da2d-4b93-9386-de1f3dc78d1f","ios":"levelo://app?vid=1fad1949-da2d-4b93-9386-de1f3dc78d1f"},"vehicle_type_id":"4","last_reported":1744978717,"current_range_meters":20000,"station_id":"ce4bh0p2rcd13ifvqd80","pricing_plan_id":"cebpf4jnsgd1na2vs0mg"},{"bike_id":"bbeb5cd8-8578-49c0-b3df-3af6ea88f078","system_id":"levelo_inurba_marseille","lat":43.24173,"lon":5.36386,"is_reserved":false,"is_disabled":false,"rental_uris":{"android":"levelo://app?vid=bbeb5cd8-8578-49c0-b3df-3af6ea88f078","ios":"levelo://app?vid=bbeb5cd8-8578-49c0-b3df-3af6ea88f078"},"vehicle_type_id":"4","last_reported":1744978717,"current_range_meters":20000,"station_id":"cpo36qri1sfpv3e86is0","pricing_plan_id":"cebpf4jnsgd1na2vs0mg"},{"bike_id":"3eab262d-44bd-47f2-8450-1e74c612cfc9","system_id":"levelo_inurba_marseille","lat":43.243922,"lon":5.370601,"is_reserved":false,"is_disabled":false,"rental_uris":{"android":"levelo://app?vid=3eab262d-44bd-47f2-8450-1e74c612cfc9","ios":"levelo://app?vid=3eab262d-44bd-47f2-8450-1e74c612cfc9"},"vehicle_type_id":"4","last_reported":1744978717,"current_range_meters":20000,"station_id":"ce4bhhh2rcd13ifvqfk0","pricing_plan_id":"cebpf4jnsgd1na2vs0mg"},{"bike_id":"937450ae-c12c-4fb3-903e-6c76624c5610","system_id":"levelo_inurba_marseille","lat":43.28416,"lon":5.34993,"is_reserved":false,"is_disabled":false,"rental_uris":{"android":"levelo://app?vid=937450ae-c12c-4fb3-903e-6c76624c5610","ios":"levelo://app?vid=937450ae-c12c-4fb3-903e-6c76624c5610"},"vehicle_type_id":"4","last_reported":1744978717,"current_range_meters":20000,"station_id":"ce4bhbh2rcd13ifvqepg","pricing_plan_id":"cebpf4jnsgd1na2vs0mg"},{"bike_id":"4e8aa868-9b32-4e03-a88e-3a2cf9f78311","system_id":"levelo_inurba_marseille","lat":43.21181,"lon":5.3507,"is_reserved":false,"is_disabled":false,"rental_uris":{"android":"levelo://app?vid=4e8aa868-9b32-4e03-a88e-3a2cf9f78311","ios":"levelo://app?vid=4e8aa868-9b32-4e03-a88e-3a2cf9f78311"},"vehicle_type_id":"4","last_reported":1744978717,"current_range_meters":20000,"station_id":"st_cvj6sg6p6f1abm77japg","pricing_plan_id":"cebpf4jnsgd1na2vs0mg"},{"bike_id":"1ed1c91d-e119-425e-a3a1-13d91f572da7","system_id":"levelo_inurba_marseille","lat":43.29624,"lon":5.37721,"is_reserved":false,"is_disabled":false,"rental_uris":{"android":"levelo://app?vid=1ed1c91d-e119-425e-a3a1-13d91f572da7","ios":"levelo://app?vid=1ed1c91d-e119-425e-a3a1-13d91f572da7"},"vehicle_type_id":"4","last_reported":1744978717,"current_range_meters":20000,"station_id":"ce4bgi92rcd13ifvqb90","pricing_plan_id":"cebpf4jnsgd1na2vs0mg"},{"bike_id":"70072762-cef7-458b-87ea-4171e62257b0","system_id":"levelo_inurba_marseille","lat":43.27958,"lon":5.38748,"is_reserved":false,"is_disabled":false,"rental_uris":{"android":"levelo://app?vid=70072762-cef7-458b-87ea-4171e62257b0","ios":"levelo://app?vid=70072762-cef7-458b-87ea-4171e62257b0"},"vehicle_type_id":"4","last_reported":1744978717,"current_range_meters":19600,"station_id":"ce4bhg12rcd13ifvqf80","pricing_plan_id":"cebpf4jnsgd1na2vs0mg"},{"bike_id":"154def0d-0d4f-486e-8308-5952a9e62ef1","system_id":"levelo_inurba_marseille","lat":43.229299,"lon":5.353874,"is_reserved":false,"is_disabled":false,"rental_uris":{"android":"levelo://app?vid=154def0d-0d4f-486e-8308-5952a9e62ef1","ios":"levelo://app?vid=154def0d-0d4f-486e-8308-5952a9e62ef1"},"vehicle_type_id":"4","last_reported":1744978717,"current_range_meters":20000,"station_id":"cpo3532slgdg3j2ikp40","pricing_plan_id":"cebpf4jnsgd1na2vs0mg"},{"bike_id":"9a603d4c-f749-4597-9b3d-74a0fa06aabd","system_id":"levelo_inurba_marseille","lat":43.30946,"lon":5.39035,"is_reserved":false,"is_disabled":false,"rental_uris":{"android":"levelo://app?vid=9a603d4c-f749-4597-9b3d-74a0fa06aabd","ios":"levelo://app?vid=9a603d4c-f749-4597-9b3d-74a0fa06aabd"},"vehicle_type_id":"4","last_reported":1744978717,"current_range_meters":20400,"station_id":"ce4bgup2rcd13ifvqco0","pricing_plan_id":"cebpf4jnsgd1na2vs0mg"},{"bike_id":"2c7763c2-4820-4121-ba08-c10f56dcd64f","system_id":"levelo_inurba_marseille","lat":43.32472,"lon":5.36548,"is_reserved":false,"is_disabled":false,"rental_uris":{"android":"levelo://app?vid=2c7763c2-4820-4121-ba08-c10f56dcd64f","ios":"levelo://app?vid=2c7763c2-4820-4121-ba08-c10f56dcd64f"},"vehicle_type_id":"4","last_reported":1744978717,"current_range_meters":20400,"station_id":"ce4bhs12rcd13ifvqhvg","pricing_plan_id":"cebpf4jnsgd1na2vs0mg"},{"bike_id":"625caf8d-0c30-4178-b98b-e24b4a4fa9d0","system_id":"levelo_inurba_marseille","lat":43.27371,"lon":5.36255,"is_reserved":false,"is_disabled":false,"rental_uris":{"android":"levelo://app?vid=625caf8d-0c30-4178-b98b-e24b4a4fa9d0","ios":"levelo://app?vid=625caf8d-0c30-4178-b98b-e24b4a4fa9d0"},"vehicle_type_id":"4","last_reported":1744978717,"current_range_meters":20400,"station_id":"ce4bhbh2rcd13ifvqeo0","pricing_plan_id":"cebpf4jnsgd1na2vs0mg"},{"bike_id":"3ab0fb41-bbe3-4216-8e79-8beee916d912","system_id":"levelo_inurba_marseille","lat":43.21758,"lon":5.34606,"is_reserved":false,"is_disabled":true,"rental_uris":{"android":"levelo://app?vid=3ab0fb41-bbe3-4216-8e79-8beee916d912","ios":"levelo://app?vid=3ab0fb41-bbe3-4216-8e79-8beee916d912"},"vehicle_type_id":"4","last_reported":1744978717,"current_range_meters":20400,"station_id":"st_cvj6r9ubvosntc0bgbag","pricing_plan_id":"cebpf4jnsgd1na2vs0mg"},{"bike_id":"9efbf3f2-2652-4025-af44-20797cdb097c","system_id":"levelo_inurba_marseille","lat":43.27615,"lon":5.36116,"is_reserved":false,"is_disabled":false,"rental_uris":{"android":"levelo://app?vid=9efbf3f2-2652-4025-af44-20797cdb097c","ios":"levelo://app?vid=9efbf3f2-2652-4025-af44-20797cdb097c"},"vehicle_type_id":"4","last_reported":1744978717,"current_range_meters":20400,"station_id":"ce4bgj92rcd13ifvqbe0","pricing_plan_id":"cebpf4jnsgd1na2vs0mg"},{"bike_id":"d0e2cda6-d2c6-4b7b-80aa-bb30d69233ed","system_id":"levelo_inurba_marseille","lat":43.23153,"lon":5.43714,"is_reserved":false,"is_disabled":false,"rental_uris":{"android":"levelo://app?vid=d0e2cda6-d2c6-4b7b-80aa-bb30d69233ed","ios":"levelo://app?vid=d0e2cda6-d2c6-4b7b-80aa-bb30d69233ed"},"vehicle_type_id":"4","last_reported":1744978717,"current_range_meters":20400,"station_id":"ce4bhmp2rcd13ifvqgog","pricing_plan_id":"cebpf4jnsgd1na2vs0mg"},{"bike_id":"7caea720-a621-434a-8738-29ceb5283d93","system_id":"levelo_inurba_marseille","lat":43.27366,"lon":5.36247,"is_reserved":false,"is_disabled":false,"rental_uris":{"android":"levelo://app?vid=7caea720-a621-434a-8738-29ceb5283d93","ios":"levelo://app?vid=7caea720-a621-434a-8738-29ceb5283d93"},"vehicle_type_id":"4","last_reported":1744978717,"current_range_meters":20400,"station_id":"ce4bhbh2rcd13ifvqeo0","pricing_plan_id":"cebpf4jnsgd1na2vs0mg"},{"bike_id":"e7c0cb4d-1c09-4e1e-88d1-64ab27cadb17","system_id":"levelo_inurba_marseille","lat":43.28266,"lon":5.35063,"is_reserved":false,"is_disabled":false,"rental_uris":{"android":"levelo://app?vid=e7c0cb4d-1c09-4e1e-88d1-64ab27cadb17","ios":"levelo://app?vid=e7c0cb4d-1c09-4e1e-88d1-64ab27cadb17"},"vehicle_type_id":"4","last_reported":1744978717,"current_range_meters":20400,"station_id":"ce4bhbp2rcd13ifvqerg","pricing_plan_id":"cebpf4jnsgd1na2vs0mg"},{"bike_id":"9f4ef015-87f8-4056-adcd-ac243818fae1","system_id":"levelo_inurba_marseille","lat":43.28078,"lon":5.39659,"is_reserved":false,"is_disabled":false,"rental_uris":{"android":"levelo://app?vid=9f4ef015-87f8-4056-adcd-ac243818fae1","ios":"levelo://app?vid=9f4ef015-87f8-4056-adcd-ac243818fae1"},"vehicle_type_id":"4","last_reported":1744978717,"current_range_meters":20800,"station_id":"ce4bho12rcd13ifvqh2g","pricing_plan_id":"cebpf4jnsgd1na2vs0mg"},{"bike_id":"75058f79-fd92-4715-b376-0b45c900c400","system_id":"levelo_inurba_marseille","lat":43.24392,"lon":5.37068,"is_reserved":false,"is_disabled":false,"rental_uris":{"android":"levelo://app?vid=75058f79-fd92-4715-b376-0b45c900c400","ios":"levelo://app?vid=75058f79-fd92-4715-b376-0b45c900c400"},"vehicle_type_id":"4","last_reported":1744978717,"current_range_meters":20800,"station_id":"ce4bhhh2rcd13ifvqfk0","pricing_plan_id":"cebpf4jnsgd1na2vs0mg"},{"bike_id":"d53e964c-f934-484c-a259-3e8f23cdd819","system_id":"levelo_inurba_marseille","lat":43.33718,"lon":5.39187,"is_reserved":false,"is_disabled":false,"rental_uris":{"android":"levelo://app?vid=d53e964c-f934-484c-a259-3e8f23cdd819","ios":"levelo://app?vid=d53e964c-f934-484c-a259-3e8f23cdd819"},"vehicle_type_id":"4","last_reported":1744978717,"current_range_meters":20800,"station_id":"ce4bhr92rcd13ifvqhsg","pricing_plan_id":"cebpf4jnsgd1na2vs0mg"},