{"last_updated":1731748131,"ttl":60,"version":"2.2","data":{"bikes":[{"bike_id":"c5077b66-9034-4041-878e-735d7b9a1eee","system_id":"levelo_inurba_marseille","lat":43.30591,"lon":5.3936,"is_reserved":false,"is_disabled":false,"rental_uris":{"android":"levelo://app?vid=c5077b66-9034-4041-878e-735d7b9a1eee","ios":"levelo://app?vid=c5077b66-9034-4041-878e-735d7b9a1eee"},"vehicle_type_id":"4","last_reported":1731748131,"current_range_meters":8800,"station_id":"ce4bh0p2rcd13ifvqd80","pricing_plan_id":"cebpf4jnsgd1na2vs0mg"},{"bike_id":"0ced7113-db48-4671-8b7b-648b43de37ab","system_id":"levelo_inurba_marseille","lat":43.27374,"lon":5.36257,"is_reserved":false,"is_disabled":false,"rental_uris":{"android":"levelo://app?vid=0ced7113-db48-4671-8b7b-648b43de37ab","ios":"levelo://app?vid=0ced7113-db48-4671-8b7b-648b43de37ab"},"vehicle_type_id":"4","last_reported":1731748131,"current_range_meters":39200,"station_id":"ce4bhbh2rcd13ifvqeo0","pricing_plan_id":"cebpf4jnsgd1na2vs0mg"},{"bike_id":"6449248c-ddbe-49f8-8a86-d7347eab10b2","system_id":"levelo_inurba_marseille","lat":43.30886,"lon":5.39631,"is_reserved":false,"is_disabled":false,"rental_uris":{"android":"levelo://app?vid=6449248c-ddbe-49f8-8a86-d7347eab10b2","ios":"levelo://app?vid=6449248c-ddbe-49f8-8a86-d7347eab10b2"},"vehicle_type_id":"4","last_reported":1731748131,"current_range_meters":39200,"station_id":"ce4bh012rcd13ifvqcv0","pricing_plan_id":"cebpf4jnsgd1na2vs0mg"},{"bike_id":"33aa33b4-dee5-46f1-836c-4d1622476d2c","system_id":"levelo_inurba_marseille","lat":43.29608,"lon":5.38103,"is_reserved":false,"is_disabled":false,"rental_uris":{"android":"levelo://app?vid=33aa33b4-dee5-46f1-836c-4d1622476d2c","ios":"levelo://app?vid=33aa33b4-dee5-46f1-836c-4d1622476d2c"},"vehicle_type_id":"4","last_reported":1731748131,"current_range_meters":36400,"station_id":"ce4bgl12rcd13ifvqbo0","pricing_plan_id":"cebpf4jnsgd1na2vs0mg"},{"bike_id":"31514e32-afb6-42c0-9d4e-52bc7623427d","system_id":"levelo_inurba_marseille","lat":43.31079,"lon":5.42427,"is_reserved":false,"is_disabled":false,"rental_uris":{"android":"levelo://app?vid=31514e32-afb6-42c0-9d4e-52bc7623427d","ios":"levelo://app?vid=31514e32-afb6-42c0-9d4e-52bc7623427d"},"vehicle_type_id":"4","last_reported":1731748131,"current_range_meters":40000,"station_id":"ce4bhp92rcd13ifvqhag","pricing_plan_id":"cebpf4jnsgd1na2vs0mg"},{"bike_id":"4aafe376-b9bc-4522-87a4-83d6ad5af617","system_id":"levelo_inurba_marseille","lat":43.27054,"lon":5.42272,"is_reserved":false,"is_disabled":false,"rental_uris":{"android":"levelo://app?vid=4aafe376-b9bc-4522-87a4-83d6ad5af617","ios":"levelo://app?vid=4aafe376-b9bc-4522-87a4-83d6ad5af617"},"vehicle_type_id":"4","last_reported":1731748131,"current_range_meters":38800,"station_id":"ce4bhk92rcd13ifvqgb0","pricing_plan_id":"cebpf4jnsgd1na2vs0mg"},{"bike_id":"5c4286bd-1930-490a-aaa8-98ba2c18cb0f","system_id":"levelo_inurba_marseille","lat":43.28,"lon":5.40015,"is_reserved":false,"is_disabled":false,"rental_uris":{"android":"levelo://app?vid=5c4286bd-1930-490a-aaa8-98ba2c18cb0f","ios":"levelo://app?vid=5c4286bd-1930-490a-aaa8-98ba2c18cb0f"},"vehicle_type_id":"4","last_reported":1731748131,"current_range_meters":38800,"station_id":"ce4bho92rcd13ifvqh4g","pricing_plan_id":"cebpf4jnsgd1na2vs0mg"},{"bike_id":"ab6dc4ee-6007-4de0-8391-e0c3a471920a","system_id":"levelo_inurba_marseille","lat":43.29612,"lon":5.37715,"is_reserved":false,"is_disabled":false,"rental_uris":{"android":"levelo://app?vid=ab6dc4ee-6007-4de0-8391-e0c3a471920a","ios":"levelo://app?vid=ab6dc4ee-6007-4de0-8391-e0c3a471920a"},"vehicle_type_id":"4","last_reported":1731748131,"current_range_meters":27600,"station_id":"ce4bgi92rcd13ifvqb90","pricing_plan_id":"cebpf4jnsgd1na2vs0mg"},{"bike_id":"2a4d0619-1af9-46f8-8f27-2f5bb3726a6d","system_id":"levelo_inurba_marseille","lat":43.24386,"lon":5.37054,"is_reserved":false,"is_disabled":false,"rental_uris":{"android":"levelo://app?vid=2a4d0619-1af9-46f8-8f27-2f5bb3726a6d","ios":"levelo://app?vid=2a4d0619-1af9-46f8-8f27-2f5bb3726a6d"},"vehicle_type_id":"4","last_reported":1731748131,"current_range_meters":40000,"station_id":"ce4bhhh2rcd13ifvqfk0","pricing_plan_id":"cebpf4jnsgd1na2vs0mg"},{"bike_id":"860f7f0f-99f3-49c9-8f27-d8f644f87c2f","system_id":"levelo_inurba_marseille","lat":43.27372,"lon":5.36262,"is_reserved":false,"is_disabled":false,"rental_uris":{"android":"levelo://app?vid=860f7f0f-99f3-49c9-8f27-d8f644f87c2f","ios":"levelo://app?vid=860f7f0f-99f3-49c9-8f27-d8f644f87c2f"},"vehicle_type_id":"4","last_reported":1731748131,"current_range_meters":22400,"station_id":"ce4bhbh2rcd13ifvqeo0","pricing_plan_id":"cebpf4jnsgd1na2vs0mg"},{"bike_id":"6c97f8ae-b935-4867-a293-7007489abd61","system_id":"levelo_inurba_marseille","lat":43.28696,"lon":5.37401,"is_reserved":false,"is_disabled":false,"rental_uris":{"android":"levelo://app?vid=6c97f8ae-b935-4867-a293-7007489abd61","ios":"levelo://app?vid=6c97f8ae-b935-4867-a293-7007489abd61"},"vehicle_type_id":"4","last_reported":1731748131,"current_range_meters":38400,"station_id":"ce4bh3p2rcd13ifvqdq0","pricing_plan_id":"cebpf4jnsgd1na2vs0mg"},{"bike_id":"7588c7d3-f5c9-4342-abf6-5df161530f71","system_id":"levelo_inurba_marseille","lat":43.30893,"lon":5.39633,"is_reserved":false,"is_disabled":false,"rental_uris":{"android":"levelo://app?vid=7588c7d3-f5c9-4342-abf6-5df161530f71","ios":"levelo://app?vid=7588c7d3-f5c9-4342-abf6-5df161530f71"},"vehicle_type_id":"4","last_reported":1731748131,"current_range_meters":38400,"station_id":"ce4bh012rcd13ifvqcv0","pricing_plan_id":"cebpf4jnsgd1na2vs0mg"},{"bike_id":"e6499734-b6a4-4e3c-b00e-07084e350e1a","system_id":"levelo_inurba_marseille","lat":43.27991,"lon":5.41664,"is_reserved":false,"is_disabled":false,"rental_uris":{"android":"levelo://app?vid=e6499734-b6a4-4e3c-b00e-07084e350e1a","ios":"levelo://app?vid=e6499734-b6a4-4e3c-b00e-07084e350e1a"},"vehicle_type_id":"4","last_reported":1731748131,"current_range_meters":34800,"station_id":"ce4bho12rcd13ifvqh1g","pricing_plan_id":"cebpf4jnsgd1na2vs0mg"},{"bike_id":"a774f1d5-d3e2-434c-a374-5093a6e1ad5e","system_id":"levelo_inurba_marseille","lat":43.24388,"lon":5.37059,"is_reserved":false,"is_disabled":false,"rental_uris":{"android":"levelo://app?vid=a774f1d5-d3e2-434c-a374-5093a6e1ad5e","ios":"levelo://app?vid=a774f1d5-d3e2-434c-a374-5093a6e1ad5e"},"vehicle_type_id":"4","last_reported":1731748131,"current_range_meters":39200,"station_id":"ce4bhhh2rcd13ifvqfk0","pricing_plan_id":"cebpf4jnsgd1na2vs0mg"},{"bike_id":"27473974-a8f9-4698-9a62-0f5501087c82","system_id":"levelo_inurba_marseille","lat":43.28279,"lon":5.35071,"is_reserved":false,"is_disabled":false,"rental_uris":{"android":"levelo://app?vid=27473974-a8f9-4698-9a62-0f5501087c82","ios":"levelo://app?vid=27473974-a8f9-4698-9a62-0f5501087c82"},"vehicle_type_id":"4","last_reported":1731748131,"current_range_meters":20800,"station_id":"ce4bhbp2rcd13ifvqerg","pricing_plan_id":"cebpf4jnsgd1na2vs0mg"},{"bike_id":"0b995606-4707-45f4-85a4-3e178ef5e44c","system_id":"levelo_inurba_marseille","lat":43.2811,"lon":5.37835,"is_reserved":false,"is_disabled":false,"rental_uris":{"android":"levelo://app?vid=0b995606-4707-45f4-85a4-3e178ef5e44c","ios":"levelo://app?vid=0b995606-4707-45f4-85a4-3e178ef5e44c"},"vehicle_type_id":"4","last_reported":1731748131,"current_range_meters":22400,"station_id":"ce4bha12rcd13ifvqee0","pricing_plan_id":"cebpf4jnsgd1na2vs0mg"},{"bike_id":"7ad6d164-9df8-493c-a6f3-fd4fcddb10d1","system_id":"levelo_inurba_marseille","lat":43.30553,"lon":5.36545,"is_reserved":false,"is_disabled":false,"rental_uris":{"android":"levelo://app?vid=7ad6d164-9df8-493c-a6f3-fd4fcddb10d1","ios":"levelo://app?vid=7ad6d164-9df8-493c-a6f3-fd4fcddb10d1"},"vehicle_type_id":"4","last_reported":1731748131,"current_range_meters":12000,"station_id":"ce4bgs12rcd13ifvqcag","pricing_plan_id":"cebpf4jnsgd1na2vs0mg"},{"bike_id":"60dfa2fd-02a9-404e-ab04-d5d71ff40670","system_id":"levelo_inurba_marseille","lat":43.337444,"lon":5.374475,"is_reserved":false,"is_disabled":false,"rental_uris":{"android":"levelo://app?vid=60dfa2fd-02a9-404e-ab04-d5d71ff40670","ios":"levelo://app?vid=60dfa2fd-02a9-404e-ab04-d5d71ff40670"},"vehicle_type_id":"4","last_reported":1731748131,"current_range_meters":38400,"station_id":"","pricing_plan_id":"cebpf4jnsgd1na2vs0mg"},{"bike_id":"906347f7-b857-4677-b3f3-7720e8dfadfc","system_id":"levelo_inurba_marseille","lat":43.26923,"lon":5.40274,"is_reserved":false,"is_disabled":false,"rental_uris":{"android":"levelo://app?vid=906347f7-b857-4677-b3f3-7720e8dfadfc","ios":"levelo://app?vid=906347f7-b857-4677-b3f3-7720e8dfadfc"},"vehicle_type_id":"4","last_reported":1731748131,"current_range_meters":39200,"station_id":"cjm6bp8fraef2m0cb0m0","pricing_plan_id":"cebpf4jnsgd1na2vs0mg"},{"bike_id":"5a3044f4-593f-4074-a525-5a20bb492102","system_id":"levelo_inurba_marseille","lat":43.28471,"lon":5.38414,"is_reserved":false,"is_disabled":false,"rental_uris":{"android":"levelo://app?vid=5a3044f4-593f-4074-a525-5a20bb492102","ios":"levelo://app?vid=5a3044f4-593f-4074-a525-5a20bb492102"},"vehicle_type_id":"4","last_reported":1731748131,"current_range_meters":35200,"station_id":"ce4bh512rcd13ifvqe3g","pricing_plan_id":"cebpf4jnsgd1na2vs0mg"},{"bike_id":"6b0ea79e-cb12-4a50-9845-e4686b3cacc8","system_id":"levelo_inurba_marseille","lat":43.295751,"lon":5.399791,"is_reserved":false,"is_disabled":false,"rental_uris":{"android":"levelo://app?vid=6b0ea79e-cb12-4a50-9845-e4686b3cacc8","ios":"levelo://app?vid=6b0ea79e-cb12-4a50-9845-e4686b3cacc8"},"vehicle_type_id":"4","last_reported":1731748131,"current_range_meters":14800,"station_id":"","pricing_plan_id":"cebpf4jnsgd1na2vs0mg"},{"bike_id":"1148ce9b-0811-46c8-9f1b-49ed227c94da","system_id":"levelo_inurba_marseille","lat":43.269485,"lon":5.386282,"is_reserved":false,"is_disabled":false,"rental_uris":{"android":"levelo://app?vid=1148ce9b-0811-46c8-9f1b-49ed227c94da","ios":"levelo://app?vid=1148ce9b-0811-46c8-9f1b-49ed227c94da"},"vehicle_type_id":"4","last_reported":1731748131,"current_range_meters":25200,"station_id":"ce4bhh92rcd13ifvqfh0","pricing_plan_id":"cebpf4jnsgd1na2vs0mg"},{"bike_id":"91f5d4da-bdc3-4062-a2de-d025c7b0accb","system_id":"levelo_inurba_marseille","lat":43.3035,"lon":5.41874,"is_reserved":false,"is_disabled":false,"rental_uris":{"android":"levelo://app?vid=91f5d4da-bdc3-4062-a2de-d025c7b0accb","ios":"levelo://app?vid=91f5d4da-bdc3-4062-a2de-d025c7b0accb"},"vehicle_type_id":"4","last_reported":1731748131,"current_range_meters":38000,"station_id":"ce4bhop2rcd13ifvqh7g","pricing_plan_id":"cebpf4jnsgd1na2vs0mg"},{"bike_id":"4a74f469-1d99-48ee-a8ca-9199898c00a4","system_id":"levelo_inurba_marseille","lat":43.23214,"lon":5.35516,"is_reserved":false,"is_disabled":false,"rental_uris":{"android":"levelo://app?vid=4a74f469-1d99-48ee-a8ca-9199898c00a4","ios":"levelo://app?vid=4a74f469-1d99-48ee-a8ca-9199898c00a4"},"vehicle_type_id":"4","last_reported":1731748131,"current_range_meters":9600,"station_id":"ce4bhu92rcd13ifvqi70","pricing_plan_id":"cebpf4jnsgd1na2vs0mg"},{"bike_id":"1a3a7b0c-c523-4c7a-80ba-30f75e51f53c","system_id":"levelo_inurba_marseille","lat":43.27312,"lon":5.39096,"is_reserved":false,"is_disabled":false,"rental_uris":{"android":"levelo://app?vid=1a3a7b0c-c523-4c7a-80ba-30f75e51f53c","ios":"levelo://app?vid=1a3a7b0c-c523-4c7a-80ba-30f75e51f53c"},"vehicle_type_id":"4","last_reported":1731748131,"current_range_meters":32800,"station_id":"ce4bhgp2rcd13ifvqfe0","pricing_plan_id":"cebpf4jnsgd1na2vs0mg"},{"bike_id":"fb45e9b3-f2de-4d82-a347-b901c1d517d2","system_id":"levelo_inurba_marseille","lat":43.25579,"lon":5.38237,"is_reserved":false,"is_disabled":false,"rental_uris":{"android":"levelo://app?vid=fb45e9b3-f2de-4d82-a347-b901c1d517d2","ios":"levelo://app?vid=fb45e9b3-f2de-4d82-a347-b901c1d517d2"},"vehicle_type_id":"4","last_reported":1731748131,"current_range_meters":11600,"station_id":"ce4bhih2rcd13ifvqfs0","pricing_plan_id":"cebpf4jnsgd1na2vs0mg"},{"bike_id":"c478ff06-0baa-4687-ac70-3188bd2aae0c","system_id":"levelo_inurba_marseille","lat":43.27615,"lon":5.36115,"is_reserved":false,"is_disabled":false,"rental_uris":{"android":"levelo://app?vid=c478ff06-0baa-4687-ac70-3188bd2aae0c","ios":"levelo://app?vid=c478ff06-0baa-4687-ac70-3188bd2aae0c"},"vehicle_type_id":"4","last_reported":1731748131,"current_range_meters":9200,"station_id":"ce4bgj92rcd13ifvqbe0","pricing_plan_id":"cebpf4jnsgd1na2vs0mg"},{"bike_id":"7b917398-baae-4151-8646-ee54ea27ce24","system_id":"levelo_inurba_marseille","lat":43.28274,"lon":5.3507,"is_reserved":false,"is_disabled":false,"rental_uris":{"android":"levelo://app?vid=7b917398-baae-4151-8646-ee54ea27ce24","ios":"levelo://app?vid=7b917398-baae-4151-8646-ee54ea27ce24"},"vehicle_type_id":"4","last_reported":1731748131,"current_range_meters":38800,"station_id":"ce4bhbp2rcd13ifvqerg","pricing_plan_id":"cebpf4jnsgd1na2vs0mg"},{"bike_id":"ad97446b-cba2-4020-9eb2-1e9e725bf9d3","system_id":"levelo_inurba_marseille","lat":43.27498,"lon":5.42455,"is_reserved":false,"is_disabled":false,"rental_uris":{"android":"levelo://app?vid=ad97446b-cba2-4020-9eb2-1e9e725bf9d3","ios":"levelo://app?vid=ad97446b-cba2-4020-9eb2-1e9e725bf9d3"},"vehicle_type_id":"4","last_reported":1731748131,"current_range_meters":32800,"station_id":"ce4bhn92rcd13ifvqgrg","pricing_plan_id":"cebpf4jnsgd1na2vs0mg"},{"bike_id":"61affbab-4b1e-4c74-9fab-1311cbd161b5","system_id":"levelo_inurba_marseille","lat":43.29842,"lon":5.36261,"is_reserved":false,"is_disabled":false,"rental_uris":{"android":"levelo://app?vid=61affbab-4b1e-4c74-9fab-1311cbd161b5","ios":"levelo://app?vid=61affbab-4b1e-4c74-9fab-1311cbd161b5"},"vehicle_type_id":"4","last_reported":1731748131,"current_range_meters":38800,"station_id":"ce4bgpp2rcd13ifvqc3g","pricing_plan_id":"cebpf4jnsgd1na2vs0mg"},{"bike_id":"36e3afb8-3490-4c62-84a6-7c3207ef5fff","system_id":"levelo_inurba_marseille","lat":43.2902,"lon":5.38133,"is_reserved":false,"is_disabled":false,"rental_uris":{"android":"levelo://app?vid=36e3afb8-3490-4c62-84a6-7c3207ef5fff","ios":"levelo://app?vid=36e3afb8-3490-4c62-84a6-7c3207ef5fff"},"vehicle_type_id":"4","last_reported":1731748131,"current_range_meters":30800,"station_id":"ce4bh4p2rcd13ifvqe1g","pricing_plan_id":"cebpf4jnsgd1na2vs0mg"},{"bike_id":"f73e8960-1682-4337-8274-395048efff0d","system_id":"levelo_inurba_marseille","lat":43.26773,"lon":5.39683,"is_reserved":false,"is_disabled":false,"rental_uris":{"android":"levelo://app?vid=f73e8960-1682-4337-8274-395048efff0d","ios":"levelo://app?vid=f73e8960-1682-4337-8274-395048efff0d"},"vehicle_type_id":"4","last_reported":1731748131,"current_range_meters":37600,"station_id":"","pricing_plan_id":"cebpf4jnsgd1na2vs0mg"},{"bike_id":"61dc5a72-902e-4195-9647-849b2eaa5d03","system_id":"levelo_inurba_marseille","lat":43.24668,"lon":5.38159,"is_reserved":false,"is_disabled":false,"rental_uris":{"android":"levelo://app?vid=61dc5a72-902e-4195-9647-849b2eaa5d03","ios":"levelo://app?vid=61dc5a72-902e-4195-9647-849b2eaa5d03"},"vehicle_type_id":"4","last_reported":1731748131,"current_range_meters":37600,"station_id":"ce4bhih2rcd13ifvqfr0","pricing_plan_id":"cebpf4jnsgd1na2vs0mg"},{"bike_id":"75fa4f2b-b147-40fd-a78a-0263ad21e532","system_id":"levelo_inurba_marseille","lat":43.28462,"lon":5.35902,"is_reserved":false,"is_disabled":false,"rental_uris":{"android":"levelo://app?vid=75fa4f2b-b147-40fd-a78a-0263ad21e532","ios":"levelo://app?vid=75fa4f2b-b147-40fd-a78a-0263ad21e532"},"vehicle_type_id":"4","last_reported":1731748131,"current_range_meters":28800,"station_id":"ce4bhah2rcd13ifvqei0","pricing_plan_id":"cebpf4jnsgd1na2vs0mg"},{"bike_id":"2e313c12-87da-4ef1-8513-b55667d9c77e","system_id":"levelo_inurba_marseille","lat":43.30352,"lon":5.41878,"is_reserved":false,"is_disabled":false,"rental_uris":{"android":"levelo://app?vid=2e313c12-87da-4ef1-8513-b55667d9c77e","ios":"levelo://app?vid=2e313c12-87da-4ef1-8513-b55667d9c77e"},"vehicle_type_id":"4","last_reported":1731748131,"current_range_meters":39200,"station_id":"ce4bhop2rcd13ifvqh7g","pricing_plan_id":"cebpf4jnsgd1na2vs0mg"},{"bike_id":"3f347a80-7c16-42de-9259-d1779710224b","system_id":"levelo_inurba_marseille","lat":43.30467,"lon":5.37912,"is_reserved":false,"is_disabled":false,"rental_uris":{"android":"levelo://app?vid=3f347a80-7c16-42de-9259-d1779710224b","ios":"levelo://app?vid=3f347a80-7c16-42de-9259-d1779710224b"},"vehicle_type_id":"4","last_reported":1731748131,"current_range_meters":39200,"station_id":"ce4bgup2rcd13ifvqcn0","pricing_plan_id":"cebpf4jnsgd1na2vs0mg"},{"bike_id":"6875c373-3a3e-464e-8826-15cf173d3295","system_id":"levelo_inurba_marseille","lat":43.24165,"lon":5.36398,"is_reserved":false,"is_disabled":false,"rental_uris":{"android":"levelo://app?vid=6875c373-3a3e-464e-8826-15cf173d3295","ios":"levelo://app?vid=6875c373-3a3e-464e-8826-15cf173d3295"},"vehicle_type_id":"4","last_reported":1731748131,"current_range_meters":38000,"station_id":"cpo36qri1sfpv3e86is0","pricing_plan_id":"cebpf4jnsgd1na2vs0mg"},{"bike_id":"1ae99609-546e-4ab9-93e4-24dbfce4c305","system_id":"levelo_inurba_marseille","lat":43.30532,"lon":5.36715,"is_reserved":false,"is_disabled":false,"rental_uris":{"android":"levelo://app?vid=1ae99609-546e-4ab9-93e4-24dbfce4c305","ios":"levelo://app?vid=1ae99609-546e-4ab9-93e4-24dbfce4c305"},"vehicle_type_id":"4","last_reported":1731748131,"current_range_meters":31200,"station_id":"ce4bgrp2rcd13ifvqc9g","pricing_plan_id":"cebpf4jnsgd1na2vs0mg"},{"bike_id":"6d37ae46-1aa0-445b-abb6-03c1eb4d13aa","system_id":"levelo_inurba_marseille","lat":43.30425,"lon":5.39749,"is_reserved":false,"is_disabled":false,"rental_uris":{"android":"levelo://app?vid=6d37ae46-1aa0-445b-abb6-03c1eb4d13aa","ios":"levelo://app?vid=6d37ae46-1aa0-445b-abb6-03c1eb4d13aa"},"vehicle_type_id":"4","last_reported":1731748131,"current_range_meters":33200,"station_id":"ce4bh092rcd13ifvqd20","pricing_plan_id":"cebpf4jnsgd1na2vs0mg"},{"bike_id":"551cfde0-7f42-4142-8506-e87e27d882a1","system_id":"levelo_inurba_marseille","lat":43.29901,"lon":5.38131,"is_reserved":false,"is_disabled":false,"rental_uris":{"android":"levelo://app?vid=551cfde0-7f42-4142-8506-e87e27d882a1","ios":"levelo://app?vid=551cfde0-7f42-4142-8506-e87e27d882a1"},"vehicle_type_id":"4","last_reported":1731748131,"current_range_meters":16000,"station_id":"ce4bgj12rcd13ifvqbc0","pricing_plan_id":"cebpf4jnsgd1na2vs0mg"},{"bike_id":"f1be1b21-bb29-4fee-996b-7e208af1ea1c","system_id":"levelo_inurba_marseille","lat":43.32339,"lon":5.40616,"is_reserved":false,"is_disabled":false,"rental_uris":{"android":"levelo://app?vid=f1be1b21-bb29-4fee-996b-7e208af1ea1c","ios":"levelo://app?vid=f1be1b21-bb29-4fee-996b-7e208af1ea1c"},"vehicle_type_id":"4","last_reported":1731748131,"current_range_meters":7200,"station_id":"ce4bhq92rcd13ifvqhjg","pricing_plan_id":"cebpf4jnsgd1na2vs0mg"},{"bike_id":"792ba918-f0aa-452f-8f68-1a7a13f87316","system_id":"levelo_inurba_marseille","lat":43.24667,"lon":5.38159,"is_reserved":false,"is_disabled":false,"rental_uris":{"android":"levelo://app?vid=792ba918-f0aa-452f-8f68-1a7a13f87316","ios":"levelo://app?vid=792ba918-f0aa-452f-8f68-1a7a13f87316"},"vehicle_type_id":"4","last_reported":1731748131,"current_range_meters":22000,"station_id":"ce4bhih2rcd13ifvqfr0","pricing_plan_id":"cebpf4jnsgd1na2vs0mg"},{"bike_id":"30aef06e-0b7a-450e-85ad-791c34b7e956","system_id":"levelo_inurba_marseille","lat":43.30546,"lon":5.36554,"is_reserved":false,"is_disabled":false,"rental_uris":{"android":"levelo://app?vid=30aef06e-0b7a-450e-85ad-791c34b7e956","ios":"levelo://app?vid=30aef06e-0b7a-450e-85ad-791c34b7e956"},"vehicle_type_id":"4","last_reported":1731748131,"current_range_meters":39200,"station_id":"ce4bgs12rcd13ifvqcag","pricing_plan_id":"cebpf4jnsgd1na2vs0mg"},{"bike_id":"c5ef27b7-a358-4b46-9301-cd2a31b688e9","system_id":"levelo_inurba_marseille","lat":43.27324,"lon":5.39064,"is_reserved":false,"is_disabled":false,"rental_uris":{"android":"levelo://app?vid=c5ef27b7-a358-4b46-9301-cd2a31b688e9","ios":"levelo://app?vid=c5ef27b7-a358-4b46-9301-cd2a31b688e9"},"vehicle_type_id":"4","last_reported":1731748131,"current_range_meters":10000,"station_id":"ce4bhgp2rcd13ifvqfe0","pricing_plan_id":"cebpf4jnsgd1na2vs0mg"},{"bike_id":"efcdfca3-e23a-481b-aa20-4b3e6e071df6","system_id":"levelo_inurba_marseille","lat":43.28262,"lon":5.37901,"is_reserved":false,"is_disabled":false,"rental_uris":{"android":"levelo://app?vid=efcdfca3-e23a-481b-aa20-4b3e6e071df6","ios":"levelo://app?vid=efcdfca3-e23a-481b-aa20-4b3e6e071df6"},"vehicle_type_id":"4","last_reported":1731748131,"current_range_meters":11600,"station_id":"","pricing_plan_id":"cebpf4jnsgd1na2vs0mg"},{"bike_id":"8b172e66-134a-4919-bee4-c08985295367","system_id":"levelo_inurba_marseille","lat":43.29041,"lon":5.39969,"is_reserved":false,"is_disabled":false,"rental_uris":{"android":"levelo://app?vid=8b172e66-134a-4919-bee4-c08985295367","ios":"levelo://app?vid=8b172e66-134a-4919-bee4-c08985295367"},"vehicle_type_id":"4","last_reported":1731748131,"current_range_meters":25200,"station_id":"ce4bh392rcd13ifvqdm0","pricing_plan_id":"cebpf4jnsgd1na2vs0mg"},{"bike_id":"ae0491f3-5d70-441c-acf0-3d1e976bcd0a","system_id":"levelo_inurba_marseille","lat":43.31654,"lon":5.37816,"is_reserved":false,"is_disabled":false,"rental_uris":{"android":"levelo://app?vid=ae0491f3-5d70-441c-acf0-3d1e976bcd0a","ios":"levelo://app?vid=ae0491f3-5d70-441c-acf0-3d1e976bcd0a"},"vehicle_type_id":"4","last_reported":1731748131,"current_range_meters":8400,"station_id":"","pricing_plan_id":"cebpf4jnsgd1na2vs0mg"},{"bike_id":"abd3bbaf-79f7-4579-9191-c7baa3b8349b","system_id":"levelo_inurba_marseille","lat":43.27492,"lon":5.42456,"is_reserved":false,"is_disabled":false,"rental_uris":{"android":"levelo://app?vid=abd3bbaf-79f7-4579-9191-c7baa3b8349b","ios":"levelo://app?vid=abd3bbaf-79f7-4579-9191-c7baa3b8349b"},"vehicle_type_id":"4","last_reported":1731748131,"current_range_meters":8000,"station_id":"ce4bhn92rcd13ifvqgrg","pricing_plan_id":"cebpf4jnsgd1na2vs0mg"},{"bike_id":"3b2f9214-f4a1-4af0-8ea4-725389312500","system_id":"levelo_inurba_marseille","lat":43.337444,"lon":5.374475,"is_reserved":false,"is_disabled":false,"rental_uris":{"android":"levelo://app?vid=3b2f9214-f4a1-4af0-8ea4-725389312500","ios":"levelo://app?vid=3b2f9214-f4a1-4af0-8ea4-725389312500"},"vehicle_type_id":"4","last_reported":1731748131,"current_range_meters":38000,"station_id":"","pricing_plan_id":"cebpf4jnsgd1na2vs0mg"},{"bike_id":"292ec6b9-529d-4ec1-b4f8-d3df413f2923","system_id":"levelo_inurba_marseille","lat":43.31717,"lon":5.43702,"is_reserved":false,"is_disabled":false,"rental_uris":{"android":"levelo://app?vid=292ec6b9-529d-4ec1-b4f8-d3df413f2923","ios":"levelo://app?vid=292ec6b9-529d-4ec1-b4f8-d3df413f2923"},"vehicle_type_id":"4","last_reported":1731748131,"current_range_meters":39200,"station_id":"ce4bhp92rcd13ifvqhcg","pricing_plan_id":"cebpf4jnsgd1na2vs0mg"},{"bike_id":"4cbd7226-43bc-4a1c-b31a-f299d9bf5ede","system_id":"levelo_inurba_marseille","lat":43.25504,"lon":5.37654,"is_reserved":false,"is_disabled":false,"rental_uris":{"android":"levelo://app?vid=4cbd7226-43bc-4a1c-b31a-f299d9bf5ede","ios":"levelo://app?vid=4cbd7226-43bc-4a1c-b31a-f299d9bf5ede"},"vehicle_type_id":"4","last_reported":1731748131,"current_range_meters":39200,"station_id":"ce4bhh12rcd13ifvqff0","pricing_plan_id":"cebpf4jnsgd1na2vs0mg"},{"bike_id":"76ada99b-13e5-4bb8-a67a-8c73c57f3f01","system_id":"levelo_inurba_marseille","lat":43.3206,"lon":5.41558,"is_reserved":false,"is_disabled":false,"rental_uris":{"android":"levelo://app?vid=76ada99b-13e5-4bb8-a67a-8c73c57f3f01","ios":"levelo://app?vid=76ada99b-13e5-4bb8-a67a-8c73c57f3f01"},"vehicle_type_id":"4","last_reported":1731748131,"current_range_meters":39200,"station_id":"ce4bhq92rcd13ifvqhkg","pricing_plan_id":"cebpf4jnsgd1na2vs0mg"},{"bike_id":"638ee7c2-fe87-45ad-9d30-192c05a964ea","system_id":"levelo_inurba_marseille","lat":43.26941,"lon":5.40245,"is_reserved":false,"is_disabled":false,"rental_uris":{"android":"levelo://app?vid=638ee7c2-fe87-45ad-9d30-192c05a964ea","ios":"levelo://app?vid=638ee7c2-fe87-45ad-9d30-192c05a964ea"},"vehicle_type_id":"4","last_reported":1731748131,"current_range_meters":30800,"station_id":"cjm6bp8fraef2m0cb0m0","pricing_plan_id":"cebpf4jnsgd1na2vs0mg"},{"bike_id":"f582f5b9-3aa7-46dd-af45-9af1734cd7d4","system_id":"levelo_inurba_marseille","lat":43.3015,"lon":5.38078,"is_reserved":false,"is_disabled":false,"rental_uris":{"android":"levelo://app?vid=f582f5b9-3aa7-46dd-af45-9af1734cd7d4","ios":"levelo://app?vid=f582f5b9-3aa7-46dd-af45-9af1734cd7d4"},"vehicle_type_id":"4","last_reported":1731748131,"current_range_meters":19600,"station_id":"ce4bgjp2rcd13ifvqbh0","pricing_plan_id":"cebpf4jnsgd1na2vs0mg"},{"bike_id":"5bac9782-313f-49fe-b265-9e8ca0c1a612","system_id":"levelo_inurba_marseille","lat":43.29789,"lon":5.38102,"is_reserved":false,"is_disabled":false,"rental_uris":{"android":"levelo://app?vid=5bac9782-313f-49fe-b265-9e8ca0c1a612","ios":"levelo://app?vid=5bac9782-313f-49fe-b265-9e8ca0c1a612"},"vehicle_type_id":"4","last_reported":1731748131,"current_range_meters":28000,"station_id":"ce4bgip2rcd13ifvqbb0","pricing_plan_id":"cebpf4jnsgd1na2vs0mg"},{"bike_id":"92d35909-5f09-44e4-9e0e-26443fc7d1e4","system_id":"levelo_inurba_marseille","lat":43.28852,"lon":5.39311,"is_reserved":false,"is_disabled":false,"rental_uris":{"android":"levelo://app?vid=92d35909-5f09-44e4-9e0e-26443fc7d1e4","ios":"levelo://app?vid=92d35909-5f09-44e4-9e0e-26443fc7d1e4"},"vehicle_type_id":"4","last_reported":1731748131,"current_range_meters":9200,"station_id":"ce4bh2p2rcd13ifvqdi0","pricing_plan_id":"cebpf4jnsgd1na2vs0mg"},{"bike_id":"bbdb866c-a538-40b1-afb6-edb9f4ddf289","system_id":"levelo_inurba_marseille","lat":43.3014,"lon":5.3987,"is_reserved":false,"is_disabled":false,"rental_uris":{"android":"levelo://app?vid=bbdb866c-a538-40b1-afb6-edb9f4ddf289","ios":"levelo://app?vid=bbdb866c-a538-40b1-afb6-edb9f4ddf289"},"vehicle_type_id":"4","last_reported":1731748131,"current_range_meters":33600,"station_id":"ce4bh0h2rcd13ifvqd40","pricing_plan_id":"cebpf4jnsgd1na2vs0mg"},{"bike_id":"82588854-e185-482e-a51c-801099d30d24","system_id":"levelo_inurba_marseille","lat":43.24672,"lon":5.38157,"is_reserved":false,"is_disabled":false,"rental_uris":{"android":"levelo://app?vid=82588854-e185-482e-a51c-801099d30d24","ios":"levelo://app?vid=82588854-e185-482e-a51c-801099d30d24"},"vehicle_type_id":"4","last_reported":1731748131,"current_range_meters":10000,"station_id":"ce4bhih2rcd13ifvqfr0","pricing_plan_id":"cebpf4jnsgd1na2vs0mg"},{"bike_id":"627befbe-ef81-4909-afe2-48970fe8987d","system_id":"levelo_inurba_marseille","lat":43.32338,"lon":5.40615,"is_reserved":false,"is_disabled":false,"rental_uris":{"android":"levelo://app?vid=627befbe-ef81-4909-afe2-48970fe8987d","ios":"levelo://app?vid=627befbe-ef81-4909-afe2-48970fe8987d"},"vehicle_type_id":"4","last_reported":1731748131,"current_range_meters":3200,"station_id":"ce4bhq92rcd13ifvqhjg","pricing_plan_id":"cebpf4jnsgd1na2vs0mg"},{"bike_id":"ba1c26a8-57eb-466e-81df-e976621621bc","system_id":"levelo_inurba_marseille","lat":43.3302,"lon":5.3903,"is_reserved":false,"is_disabled":false,"rental_uris":{"android":"levelo://app?vid=ba1c26a8-57eb-466e-81df-e976621621bc","ios":"levelo://app?vid=ba1c26a8-57eb-466e-81df-e976621621bc"},"vehicle_type_id":"4","last_reported":1731748131,"current_range_meters":18000,"station_id":"ce4bhr92rcd13ifvqhrg","pricing_plan_id":"cebpf4jnsgd1na2vs0mg"},{"bike_id":"20e9a85a-080a-4c58-84a1-bfdafb66d1ef","system_id":"levelo_inurba_marseille","lat":43.31368,"lon":5.38492,"is_reserved":false,"is_disabled":false,"rental_uris":{"android":"levelo://app?vid=20e9a85a-080a-4c58-84a1-bfdafb66d1ef","ios":"levelo://app?vid=20e9a85a-080a-4c58-84a1-bfdafb66d1ef"},"vehicle_type_id":"4","last_reported":1731748131,"current_range_meters":15200,"station_id":"ce4bgt92rcd13ifvqcf0","pricing_plan_id":"cebpf4jnsgd1na2vs0mg"},{"bike_id":"b41140b6-552a-4fac-81c3-2122c2ec4fd5","system_id":"levelo_inurba_marseille","lat":43.245454,"lon":5.395193,"is_reserved":false,"is_disabled":false,"rental_uris":{"android":"levelo://app?vid=b41140b6-552a-4fac-81c3-2122c2ec4fd5","ios":"levelo://app?vid=b41140b6-552a-4fac-81c3-2122c2ec4fd5"},"vehicle_type_id":"4","last_reported":1731748131,"current_range_meters":20000,"station_id":"ce4bhlp2rcd13ifvqgjg","pricing_plan_id":"cebpf4jnsgd1na2vs0mg"},{"bike_id":"b02cad58-3de4-410a-a29d-78e174a9d94a","system_id":"levelo_inurba_marseille","lat":43.23193,"lon":5.35548,"is_reserved":false,"is_disabled":false,"rental_uris":{"android":"levelo://app?vid=b02cad58-3de4-410a-a29d-78e174a9d94a","ios":"levelo://app?vid=b02cad58-3de4-410a-a29d-78e174a9d94a"},"vehicle_type_id":"4","last_reported":1731748131,"current_range_meters":38400,"station_id":"ce4bhu92rcd13ifvqi70","pricing_plan_id":"cebpf4jnsgd1na2vs0mg"},{"bike_id":"79bd3e8e-da62-49dc-8238-ef5ce8e8b5c1","system_id":"levelo_inurba_marseille","lat":43.29039,"lon":5.37569,"is_reserved":false,"is_disabled":false,"rental_uris":{"android":"levelo://app?vid=79bd3e8e-da62-49dc-8238-ef5ce8e8b5c1","ios":"levelo://app?vid=79bd3e8e-da62-49dc-8238-ef5ce8e8b5c1"},"vehicle_type_id":"4","last_reported":1731748131,"current_range_meters":28000,"station_id":"ce4bh692rcd13ifvqe90","pricing_plan_id":"cebpf4jnsgd1na2vs0mg"},{"bike_id":"980c2b64-5ae6-4e8e-ac4f-88eb697394b6","system_id":"levelo_inurba_marseille","lat":43.25932,"lon":5.40907,"is_reserved":false,"is_disabled":false,"rental_uris":{"android":"levelo://app?vid=980c2b64-5ae6-4e8e-ac4f-88eb697394b6","ios":"levelo://app?vid=980c2b64-5ae6-4e8e-ac4f-88eb697394b6"},"vehicle_type_id":"4","last_reported":1731748131,"current_range_meters":20000,"station_id":"ce4bhm92rcd13ifvqglg","pricing_plan_id":"cebpf4jnsgd1na2vs0mg"},{"bike_id":"e1501de1-4181-416d-8c53-6efce29ebe9e","system_id":"levelo_inurba_marseille","lat":43.25496,"lon":5.37648,"is_reserved":false,"is_disabled":false,"rental_uris":{"android":"levelo://app?vid=e1501de1-4181-416d-8c53-6efce29ebe9e","ios":"levelo://app?vid=e1501de1-4181-416d-8c53-6efce29ebe9e"},"vehicle_type_id":"4","last_reported":1731748131,"current_range_meters":30400,"station_id":"ce4bhh12rcd13ifvqff0","pricing_plan_id":"cebpf4jnsgd1na2vs0mg"},{"bike_id":"795e9ab1-1e07-425d-be3d-823466f4b6fd","system_id":"levelo_inurba_marseille","lat":43.29184,"lon":5.35784,"is_reserved":false,"is_disabled":false,"rental_uris":{"android":"levelo://app?vid=795e9ab1-1e07-425d-be3d-823466f4b6fd","ios":"levelo://app?vid=795e9ab1-1e07-425d-be3d-823466f4b6fd"},"vehicle_type_id":"4","last_reported":1731748131,"current_range_meters":32400,"station_id":"","pricing_plan_id":"cebpf4jnsgd1na2vs0mg"},{"bike_id":"29052b0b-0157-4673-8fda-e36ae29f9bed","system_id":"levelo_inurba_marseille","lat":43.30203,"lon":5.3947,"is_reserved":false,"is_disabled":false,"rental_uris":{"android":"levelo://app?vid=29052b0b-0157-4673-8fda-e36ae29f9bed","ios":"levelo://app?vid=29052b0b-0157-4673-8fda-e36ae29f9bed"},"vehicle_type_id":"4","last_reported":1731748131,"current_range_meters":32800,"station_id":"ce4bh0p2rcd13ifvqd70","pricing_plan_id":"cebpf4jnsgd1na2vs0mg"},{"bike_id":"418cf54f-0deb-430a-adaf-79e975807f2c","system_id":"levelo_inurba_marseille","lat":43.29684,"lon":5.373,"is_reserved":false,"is_disabled":false,"rental_uris":{"android":"levelo://app?vid=418cf54f-0deb-430a-adaf-79e975807f2c","ios":"levelo://app?vid=418cf54f-0deb-430a-adaf-79e975807f2c"},"vehicle_type_id":"4","last_reported":1731748131,"current_range_meters":35200,"station_id":"ce4bgk12rcd13ifvqbj0","pricing_plan_id":"cebpf4jnsgd1na2vs0mg"},{"bike_id":"d94748f8-40ee-4468-9ec9-f30930775c57","system_id":"levelo_inurba_marseille","lat":43.27179,"lon":5.40987,"is_reserved":false,"is_disabled":false,"rental_uris":{"android":"levelo://app?vid=d94748f8-40ee-4468-9ec9-f30930775c57","ios":"levelo://app?vid=d94748f8-40ee-4468-9ec9-f30930775c57"},"vehicle_type_id":"4","last_reported":1731748131,"current_range_meters":37600,"station_id":"ce4bhl12rcd13ifvqgf0","pricing_plan_id":"cebpf4jnsgd1na2vs0mg"},{"bike_id":"c7ad3112-6fa1-480b-b6f6-f0b1dce495ed","system_id":"levelo_inurba_marseille","lat":43.27381,"lon":5.3625,"is_reserved":false,"is_disabled":false,"rental_uris":{"android":"levelo://app?vid=c7ad3112-6fa1-480b-b6f6-f0b1dce495ed","ios":"levelo://app?vid=c7ad3112-6fa1-480b-b6f6-f0b1dce495ed"},"vehicle_type_id":"4","last_reported":1731748131,"current_range_meters":37600,"station_id":"ce4bhbh2rcd13ifvqeo0","pricing_plan_id":"cebpf4jnsgd1na2vs0mg"},{"bike_id":"3076a887-75d6-400b-a1d2-432d28392d1b","system_id":"levelo_inurba_marseille","lat":43.26027,"lon":5.37548,"is_reserved":false,"is_disabled":false,"rental_uris":{"android":"levelo://app?vid=3076a887-75d6-400b-a1d2-432d28392d1b","ios":"levelo://app?vid=3076a887-75d6-400b-a1d2-432d28392d1b"},"vehicle_type_id":"4","last_reported":1731748131,"current_range_meters":26000,"station_id":"ce4bhgh2rcd13ifvqfa0","pricing_plan_id":"cebpf4jnsgd1na2vs0mg"},{"bike_id":"d7c640cb-2a84-4400-9766-128530948093","system_id":"levelo_inurba_marseille","lat":43.31537,"lon":5.38021,"is_reserved":false,"is_disabled":false,"rental_uris":{"android":"levelo://app?vid=d7c640cb-2a84-4400-9766-128530948093","ios":"levelo://app?vid=d7c640cb-2a84-4400-9766-128530948093"},"vehicle_type_id":"4","last_reported":1731748131,"current_range_meters":38400,"station_id":"ce4bhsp2rcd13ifvqi50","pricing_plan_id":"cebpf4jnsgd1na2vs0mg"},{"bike_id":"decfdfa3-3c86-4a53-8dff-a825db127ec6","system_id":"levelo_inurba_marseille","lat":43.29106,"lon":5.41746,"is_reserved":false,"is_disabled":false,"rental_uris":{"android":"levelo://app?vid=decfdfa3-3c86-4a53-8dff-a825db127ec6","ios":"levelo://app?vid=decfdfa3-3c86-4a53-8dff-a825db127ec6"},"vehicle_type_id":"4","last_reported":1731748131,"current_range_meters":30400,"station_id":"","pricing_plan_id":"cebpf4jnsgd1na2vs0mg"},{"bike_id":"8efab477-8b08-4fc6-abf2-7ec9adb260a0","system_id":"levelo_inurba_marseille","lat":43.27947,"lon":5.41047,"is_reserved":false,"is_disabled":false,"rental_uris":{"android":"levelo://app?vid=8efab477-8b08-4fc6-abf2-7ec9adb260a0","ios":"levelo://app?vid=8efab477-8b08-4fc6-abf2-7ec9adb260a0"},"vehicle_type_id":"4","last_reported":1731748131,"current_range_meters":12400,"station_id":"ce4bhnp2rcd13ifvqh0g","pricing_plan_id":"cebpf4jnsgd1na2vs0mg"},{"bike_id":"231f4378-294e-4117-8fb0-630e80be8890","system_id":"levelo_inurba_marseille","lat":43.25722,"lon":5.41104,"is_reserved":false,"is_disabled":false,"rental_uris":{"android":"levelo://app?vid=231f4378-294e-4117-8fb0-630e80be8890","ios":"levelo://app?vid=231f4378-294e-4117-8fb0-630e80be8890"},"vehicle_type_id":"4","last_reported":1731748131,"current_range_meters":38000,"station_id":"ce4bhkp2rcd13ifvqgd0","pricing_plan_id":"cebpf4jnsgd1na2vs0mg"},{"bike_id":"46632805-d598-46ca-8978-4f5e71b702c6","system_id":"levelo_inurba_marseille","lat":43.28147,"lon":5.42635,"is_reserved":false,"is_disabled":false,"rental_uris":{"android":"levelo://app?vid=46632805-d598-46ca-8978-4f5e71b702c6","ios":"levelo://app?vid=46632805-d598-46ca-8978-4f5e71b702c6"},"vehicle_type_id":"4","last_reported":1731748131,"current_range_meters":38400,"station_id":"ce4bhnh2rcd13ifvqgug","pricing_plan_id":"cebpf4jnsgd1na2vs0mg"},{"bike_id":"b2495fbb-064c-415c-a969-4a1d895c0fe4","system_id":"levelo_inurba_marseille","lat":43.30478,"lon":5.37911,"is_reserved":false,"is_disabled":false,"rental_uris":{"android":"levelo://app?vid=b2495fbb-064c-415c-a969-4a1d895c0fe4","ios":"levelo://app?vid=b2495fbb-064c-415c-a969-4a1d895c0fe4"},"vehicle_type_id":"4","last_reported":1731748131,"current_range_meters":16400,"station_id":"ce4bgup2rcd13ifvqcn0","pricing_plan_id":"cebpf4jnsgd1na2vs0mg"},{"bike_id":"9594189e-ac8a-4c6b-9b48-c84cb595162b","system_id":"levelo_inurba_marseille","lat":43.3046,"lon":5.37916,"is_reserved":false,"is_disabled":false,"rental_uris":{"android":"levelo://app?vid=9594189e-ac8a-4c6b-9b48-c84cb595162b","ios":"levelo://app?vid=9594189e-ac8a-4c6b-9b48-c84cb595162b"},"vehicle_type_id":"4","last_reported":1731748131,"current_range_meters":31200,"station_id":"ce4bgup2rcd13ifvqcn0","pricing_plan_id":"cebpf4jnsgd1na2vs0mg"},{"bike_id":"a7759f52-43d8-4392-a4d7-50c3610b64f4","system_id":"levelo_inurba_marseille","lat":43.32485,"lon":5.36569,"is_reserved":false,"is_disabled":false,"rental_uris":{"android":"levelo://app?vid=a7759f52-43d8-4392-a4d7-50c3610b64f4","ios":"levelo://app?vid=a7759f52-43d8-4392-a4d7-50c3610b64f4"},"vehicle_type_id":"4","last_reported":1731748131,"current_range_meters":39200,"station_id":"ce4bhs12rcd13ifvqhvg","pricing_plan_id":"cebpf4jnsgd1na2vs0mg"},{"bike_id":"2c7da520-bf3f-4579-bbaf-d8bed38515fb","system_id":"levelo_inurba_marseille","lat":43.24647,"lon":5.38897,"is_reserved":false,"is_disabled":false,"rental_uris":{"android":"levelo://app?vid=2c7da520-bf3f-4579-bbaf-d8bed38515fb","ios":"levelo://app?vid=2c7da520-bf3f-4579-bbaf-d8bed38515fb"},"vehicle_type_id":"4","last_reported":1731748131,"current_range_meters":40000,"station_id":"ce4bhg12rcd13ifvqf60","pricing_plan_id":"cebpf4jnsgd1na2vs0mg"},{"bike_id":"f977c5f6-0664-4a1f-98cb-06e11ab740ff","system_id":"levelo_inurba_marseille","lat":43.275,"lon":5.42448,"is_reserved":false,"is_disabled":false,"rental_uris":{"android":"levelo://app?vid=f977c5f6-0664-4a1f-98cb-06e11ab740ff","ios":"levelo://app?vid=f977c5f6-0664-4a1f-98cb-06e11ab740ff"},"vehicle_type_id":"4","last_reported":1731748131,"current_range_meters":39200,"station_id":"ce4bhn92rcd13ifvqgrg","pricing_plan_id":"cebpf4jnsgd1na2vs0mg"},{"bike_id":"adba8857-00f9-4330-975b-e1bc617668c9","system_id":"levelo_inurba_marseille","lat":43.297,"lon":5.3662,"is_reserved":false,"is_disabled":false,"rental_uris":{"android":"levelo://app?vid=adba8857-00f9-4330-975b-e1bc617668c9","ios":"levelo://app?vid=adba8857-00f9-4330-975b-e1bc617668c9"},"vehicle_type_id":"4","last_reported":1731748131,"current_range_meters":14400,"station_id":"ce4bgn12rcd13ifvqbt0","pricing_plan_id":"cebpf4jnsgd1na2vs0mg"},{"bike_id":"d450545d-116d-4b19-a52c-b8eb7dcdcab9","system_id":"levelo_inurba_marseille","lat":43.25579,"lon":5.38241,"is_reserved":false,"is_disabled":false,"rental_uris":{"android":"levelo://app?vid=d450545d-116d-4b19-a52c-b8eb7dcdcab9","ios":"levelo://app?vid=d450545d-116d-4b19-a52c-b8eb7dcdcab9"},"vehicle_type_id":"4","last_reported":1731748131,"current_range_meters":18800,"station_id":"ce4bhih2rcd13ifvqfs0","pricing_plan_id":"cebpf4jnsgd1na2vs0mg"},{"bike_id":"f12abf05-c53d-4f50-9b6b-de0708c10382","system_id":"levelo_inurba_marseille","lat":43.31704,"lon":5.37767,"is_reserved":false,"is_disabled":false,"rental_uris":{"android":"levelo://app?vid=f12abf05-c53d-4f50-9b6b-de0708c10382","ios":"levelo://app?vid=f12abf05-c53d-4f50-9b6b-de0708c10382"},"vehicle_type_id":"4","last_reported":1731748131,"current_range_meters":39200,"station_id":"ce4bgth2rcd13ifvqch0","pricing_plan_id":"cebpf4jnsgd1na2vs0mg"},{"bike_id":"d11cdb8f-0972-4c2b-9ac5-37fdc5ae388a","system_id":"levelo_inurba_marseille","lat":43.29787,"lon":5.3809,"is_reserved":false,"is_disabled":false,"rental_uris":{"android":"levelo://app?vid=d11cdb8f-0972-4c2b-9ac5-37fdc5ae388a","ios":"levelo://app?vid=d11cdb8f-0972-4c2b-9ac5-37fdc5ae388a"},"vehicle_type_id":"4","last_reported":1731748131,"current_range_meters":37600,"station_id":"ce4bgip2rcd13ifvqbb0","pricing_plan_id":"cebpf4jnsgd1na2vs0mg"},{"bike_id":"a65a2419-69e6-4d19-b1e3-3abe61fd327b","system_id":"levelo_inurba_marseille","lat":43.24811,"lon":5.37458,"is_reserved":false,"is_disabled":false,"rental_uris":{"android":"levelo://app?vid=a65a2419-69e6-4d19-b1e3-3abe61fd327b","ios":"levelo://app?vid=a65a2419-69e6-4d19-b1e3-3abe61fd327b"},"vehicle_type_id":"4","last_reported":1731748131,"current_range_meters":36800,"station_id":"ce4bhgh2rcd13ifvqfb0","pricing_plan_id":"cebpf4jnsgd1na2vs0mg"},{"bike_id":"d206d41a-8ea1-48b7-8dea-76f005b54e28","system_id":"levelo_inurba_marseille","lat":43.33764,"lon":5.37435,"is_reserved":false,"is_disabled":false,"rental_uris":{"android":"levelo://app?vid=d206d41a-8ea1-48b7-8dea-76f005b54e28","ios":"levelo://app?vid=d206d41a-8ea1-48b7-8dea-76f005b54e28"},"vehicle_type_id":"4","last_reported":1731748131,"current_range_meters":27200,"station_id":"","pricing_plan_id":"cebpf4jnsgd1na2vs0mg"},{"bike_id":"833e03e1-4c2a-4d48-b02a-e51996b7b259","system_id":"levelo_inurba_marseille","lat":43.26493,"lon":5.39547,"is_reserved":false,"is_disabled":false,"rental_uris":{"android":"levelo://app?vid=833e03e1-4c2a-4d48-b02a-e51996b7b259","ios":"levelo://app?vid=833e03e1-4c2a-4d48-b02a-e51996b7b259"},"vehicle_type_id":"4","last_reported":1731748131,"current_range_meters":19200,"station_id":"ce4bhi12rcd13ifvqfq0","pricing_plan_id":"cebpf4jnsgd1na2vs0mg"},{"bike_id":"9ede65c6-d405-4329-a67a-f5896c7f8e35","system_id":"levelo_inurba_marseille","lat":43.3108,"lon":5.42429,"is_reserved":false,"is_disabled":false,"rental_uris":{"android":"levelo://app?vid=9ede65c6-d405-4329-a67a-f5896c7f8e35","ios":"levelo://app?vid=9ede65c6-d405-4329-a67a-f5896c7f8e35"},"vehicle_type_id":"4","last_reported":1731748131,"current_range_meters":25200,"station_id":"ce4bhp92rcd13ifvqhag","pricing_plan_id":"cebpf4jnsgd1na2vs0mg"},{"bike_id":"e47cfbc6-295d-4997-9bc6-0a75990e2b15","system_id":"levelo_inurba_marseille","lat":43.30936,"lon":5.40134,"is_reserved":false,"is_disabled":false,"rental_uris":{"android":"levelo://app?vid=e47cfbc6-295d-4997-9bc6-0a75990e2b15","ios":"levelo://app?vid=e47cfbc6-295d-4997-9bc6-0a75990e2b15"},"vehicle_type_id":"4","last_reported":1731748131,"current_range_meters":19200,"station_id":"ce4bgvp2rcd13ifvqct0","pricing_plan_id":"cebpf4jnsgd1na2vs0mg"},{"bike_id":"fd3c006c-0f80-4feb-af58-79ddefbce4bb","system_id":"levelo_inurba_marseille","lat":43.2931,"lon":5.37177,"is_reserved":false,"is_disabled":false,"rental_uris":{"android":"levelo://app?vid=fd3c006c-0f80-4feb-af58-79ddefbce4bb","ios":"levelo://app?vid=fd3c006c-0f80-4feb-af58-79ddefbce4bb"},"vehicle_type_id":"4","last_reported":1731748131,"current_range_meters":8800,"station_id":"ce4bgh92rcd13ifvqb40","pricing_plan_id":"cebpf4jnsgd1na2vs0mg"},{"bike_id":"14fb6a80-0412-42db-ab41-530cf252b118","system_id":"levelo_inurba_marseille","lat":43.272125,"lon":5.391824,"is_reserved":false,"is_disabled":false,"rental_uris":{"android":"levelo://app?vid=14fb6a80-0412-42db-ab41-530cf252b118","ios":"levelo://app?vid=14fb6a80-0412-42db-ab41-530cf252b118"},"vehicle_type_id":"4","last_reported":1731748131,"current_range_meters":6400,"station_id":"ce4bhhp2rcd13ifvqfm0","pricing_plan_id":"cebpf4jnsgd1na2vs0mg"},{"bike_id":"d8e46d64-e7a2-413e-92a8-72c1c4ab6e68","system_id":"levelo_inurba_marseille","lat":43.274234,"lon":5.394224,"is_reserved":false,"is_disabled":false,"rental_uris":{"android":"levelo://app?vid=d8e46d64-e7a2-413e-92a8-72c1c4ab6e68","ios":"levelo://app?vid=d8e46d64-e7a2-413e-92a8-72c1c4ab6e68"},"vehicle_type_id":"4","last_reported":1731748131,"current_range_meters":38400,"station_id":"ce4bhdp2rcd13ifvqf20","pricing_plan_id":"cebpf4jnsgd1na2vs0mg"},{"bike_id":"c1189ec1-c35f-4612-895e-f179eed881bb","system_id":"levelo_inurba_marseille","lat":43.26933,"lon":5.38913,"is_reserved":false,"is_disabled":false,"rental_uris":{"android":"levelo://app?vid=c1189ec1-c35f-4612-895e-f179eed881bb","ios":"levelo://app?vid=c1189ec1-c35f-4612-895e-f179eed881bb"},"vehicle_type_id":"4","last_reported":1731748131,"current_range_meters":38800,"station_id":"ce4bhhh2rcd13ifvqfl0","pricing_plan_id":"cebpf4jnsgd1na2vs0mg"},{"bike_id":"e442e41c-d68f-4096-a2cb-aa7e2616dded","system_id":"levelo_inurba_marseille","lat":43.30151,"lon":5.38076,"is_reserved":false,"is_disabled":false,"rental_uris":{"android":"levelo://app?vid=e442e41c-d68f-4096-a2cb-aa7e2616dded","ios":"levelo://app?vid=e442e41c-d68f-4096-a2cb-aa7e2616dded"},"vehicle_type_id":"4","last_reported":1731748131,"current_range_meters":28800,"station_id":"ce4bgjp2rcd13ifvqbh0","pricing_plan_id":"cebpf4jnsgd1na2vs0mg"},{"bike_id":"8cdbea35-8fef-495d-8852-e267a38a3329","system_id":"levelo_inurba_marseille","lat":43.28458,"lon":5.35889,"is_reserved":false,"is_disabled":false,"rental_uris":{"android":"levelo://app?vid=8cdbea35-8fef-495d-8852-e267a38a3329","ios":"levelo://app?vid=8cdbea35-8fef-495d-8852-e267a38a3329"},"vehicle_type_id":"4","last_reported":1731748131,"current_range_meters":38000,"station_id":"ce4bhah2rcd13ifvqei0","pricing_plan_id":"cebpf4jnsgd1na2vs0mg"},{"bike_id":"dd03836f-3f42-4c36-897f-2dc5c95a4923","system_id":"levelo_inurba_marseille","lat":43.27496,"lon":5.42454,"is_reserved":false,"is_disabled":false,"rental_uris":{"android":"levelo://app?vid=dd03836f-3f42-4c36-897f-2dc5c95a4923","ios":"levelo://app?vid=dd03836f-3f42-4c36-897f-2dc5c95a4923"},"vehicle_type_id":"4","last_reported":1731748131,"current_range_meters":35600,"station_id":"ce4bhn92rcd13ifvqgrg","pricing_plan_id":"cebpf4jnsgd1na2vs0mg"},{"bike_id":"afcb96cc-da56-41f7-8d2b-2ed6c81711b1","system_id":"levelo_inurba_marseille","lat":43.28029,"lon":5.3695,"is_reserved":false,"is_disabled":false,"rental_uris":{"android":"levelo://app?vid=afcb96cc-da56-41f7-8d2b-2ed6c81711b1","ios":"levelo://app?vid=afcb96cc-da56-41f7-8d2b-2ed6c81711b1"},"vehicle_type_id":"4","last_reported":1731748131,"current_range_meters":20400,"station_id":"ce4bha12rcd13ifvqef0","pricing_plan_id":"cebpf4jnsgd1na2vs0mg"},{"bike_id":"16ed5b5f-ccaf-4bc7-87d5-7e7e0536ca85","system_id":"levelo_inurba_marseille","lat":43.24998,"lon":5.38935,"is_reserved":false,"is_disabled":false,"rental_uris":{"android":"levelo://app?vid=16ed5b5f-ccaf-4bc7-87d5-7e7e0536ca85","ios":"levelo://app?vid=16ed5b5f-ccaf-4bc7-87d5-7e7e0536ca85"},"vehicle_type_id":"4","last_reported":1731748131,"current_range_meters":29600,"station_id":"ce4bhgp2rcd13ifvqfd0","pricing_plan_id":"cebpf4jnsgd1na2vs0mg"},{"bike_id":"a4ee2b5b-3111-4b2d-b349-e59fe350c07c","system_id":"levelo_inurba_marseille","lat":43.29803,"lon":5.38106,"is_reserved":false,"is_disabled":false,"rental_uris":{"android":"levelo://app?vid=a4ee2b5b-3111-4b2d-b349-e59fe350c07c","ios":"levelo://app?vid=a4ee2b5b-3111-4b2d-b349-e59fe350c07c"},"vehicle_type_id":"4","last_reported":1731748131,"current_range_meters":29600,"station_id":"ce4bgip2rcd13ifvqbb0","pricing_plan_id":"cebpf4jnsgd1na2vs0mg"},{"bike_id":"445add7d-9187-4b08-9ca3-5c4c95c300c5","system_id":"levelo_inurba_marseille","lat":43.29926,"lon":5.36545,"is_reserved":false,"is_disabled":false,"rental_uris":{"android":"levelo://app?vid=445add7d-9187-4b08-9ca3-5c4c95c300c5","ios":"levelo://app?vid=445add7d-9187-4b08-9ca3-5c4c95c300c5"},"vehicle_type_id":"4","last_reported":1731748131,"current_range_meters":18800,"station_id":"ce4bgm92rcd13ifvqbr0","pricing_plan_id":"cebpf4jnsgd1na2vs0mg"},{"bike_id":"6b11cefe-b4d3-4f2d-bf57-086e076e0c6c","system_id":"levelo_inurba_marseille","lat":43.24388,"lon":5.37054,"is_reserved":false,"is_disabled":false,"rental_uris":{"android":"levelo://app?vid=6b11cefe-b4d3-4f2d-bf57-086e076e0c6c","ios":"levelo://app?vid=6b11cefe-b4d3-4f2d-bf57-086e076e0c6c"},"vehicle_type_id":"4","last_reported":1731748131,"current_range_meters":39200,"station_id":"ce4bhhh2rcd13ifvqfk0","pricing_plan_id":"cebpf4jnsgd1na2vs0mg"},{"bike_id":"7be9199b-afb6-4033-aaf6-16840ab51d79","system_id":"levelo_inurba_marseille","lat":43.30885,"lon":5.39626,"is_reserved":false,"is_disabled":false,"rental_uris":{"android":"levelo://app?vid=7be9199b-afb6-4033-aaf6-16840ab51d79","ios":"levelo://app?vid=7be9199b-afb6-4033-aaf6-16840ab51d79"},"vehicle_type_id":"4","last_reported":1731748131,"current_range_meters":28800,"station_id":"ce4bh012rcd13ifvqcv0","pricing_plan_id":"cebpf4jnsgd1na2vs0mg"},{"bike_id":"8a3b0b29-78f8-4a82-ba79-a475cca3f832","system_id":"levelo_inurba_marseille","lat":43.28886,"lon":5.38762,"is_reserved":false,"is_disabled":false,"rental_uris":{"android":"levelo://app?vid=8a3b0b29-78f8-4a82-ba79-a475cca3f832","ios":"levelo://app?vid=8a3b0b29-78f8-4a82-ba79-a475cca3f832"},"vehicle_type_id":"4","last_reported":1731748131,"current_range_meters":34800,"station_id":"ce4bha92rcd13ifvqeh0","pricing_plan_id":"cebpf4jnsgd1na2vs0mg"},{"bike_id":"82c59fff-9b7f-4a08-acd3-f3d9450a6aa1","system_id":"levelo_inurba_marseille","lat":43.27308,"lon":5.39102,"is_reserved":false,"is_disabled":false,"rental_uris":{"android":"levelo://app?vid=82c59fff-9b7f-4a08-acd3-f3d9450a6aa1","ios":"levelo://app?vid=82c59fff-9b7f-4a08-acd3-f3d9450a6aa1"},"vehicle_type_id":"4","last_reported":1731748131,"current_range_meters":33600,"station_id":"ce4bhgp2rcd13ifvqfe0","pricing_plan_id":"cebpf4jnsgd1na2vs0mg"},{"bike_id":"eab8046e-a931-47a5-9df7-a8743fd9aa9e","system_id":"levelo_inurba_marseille","lat":43.29706,"lon":5.37701,"is_reserved":false,"is_disabled":false,"rental_uris":{"android":"levelo://app?vid=eab8046e-a931-47a5-9df7-a8743fd9aa9e","ios":"levelo://app?vid=eab8046e-a931-47a5-9df7-a8743fd9aa9e"},"vehicle_type_id":"4","last_reported":1731748131,"current_range_meters":6400,"station_id":"ce4bgkh2rcd13ifvqbl0","pricing_plan_id":"cebpf4jnsgd1na2vs0mg"},{"bike_id":"7bce7178-1f4a-4565-9291-cc73790a9f6d","system_id":"levelo_inurba_marseille","lat":43.31686,"lon":5.40475,"is_reserved":false,"is_disabled":false,"rental_uris":{"android":"levelo://app?vid=7bce7178-1f4a-4565-9291-cc73790a9f6d","ios":"levelo://app?vid=7bce7178-1f4a-4565-9291-cc73790a9f6d"},"vehicle_type_id":"4","last_reported":1731748131,"current_range_meters":32400,"station_id":"ce4bh012rcd13ifvqd00","pricing_plan_id":"cebpf4jnsgd1na2vs0mg"},{"bike_id":"45f0c48a-40d1-4090-9f17-d858166d41b0","system_id":"levelo_inurba_marseille","lat":43.29227,"lon":5.3607,"is_reserved":false,"is_disabled":false,"rental_uris":{"android":"levelo://app?vid=45f0c48a-40d1-4090-9f17-d858166d41b0","ios":"levelo://app?vid=45f0c48a-40d1-4090-9f17-d858166d41b0"},"vehicle_type_id":"4","last_reported":1731748131,"current_range_meters":30800,"station_id":"ce4bhbh2rcd13ifvqeqg","pricing_plan_id":"cebpf4jnsgd1na2vs0mg"},{"bike_id":"d7cad7ba-a3cf-4113-8f4d-63bd503bb522","system_id":"levelo_inurba_marseille","lat":43.2761,"lon":5.36113,"is_reserved":false,"is_disabled":false,"rental_uris":{"android":"levelo://app?vid=d7cad7ba-a3cf-4113-8f4d-63bd503bb522","ios":"levelo://app?vid=d7cad7ba-a3cf-4113-8f4d-63bd503bb522"},"vehicle_type_id":"4","last_reported":1731748131,"current_range_meters":20400,"station_id":"ce4bgj92rcd13ifvqbe0","pricing_plan_id":"cebpf4jnsgd1na2vs0mg"},{"bike_id":"007508bf-67c5-48a6-b21b-8dbff3965901","system_id":"levelo_inurba_marseille","lat":43.29791,"lon":5.381,"is_reserved":false,"is_disabled":false,"rental_uris":{"android":"levelo://app?vid=007508bf-67c5-48a6-b21b-8dbff3965901","ios":"levelo://app?vid=007508bf-67c5-48a6-b21b-8dbff3965901"},"vehicle_type_id":"4","last_reported":1731748131,"current_range_meters":38400,"station_id":"ce4bgip2rcd13ifvqbb0","pricing_plan_id":"cebpf4jnsgd1na2vs0mg"},{"bike_id":"b17d06d2-c9d4-430e-8c4e-4c13081ec160","system_id":"levelo_inurba_marseille","lat":43.24652,"lon":5.38887,"is_reserved":false,"is_disabled":false,"rental_uris":{"android":"levelo://app?vid=b17d06d2-c9d4-430e-8c4e-4c13081ec160","ios":"levelo://app?vid=b17d06d2-c9d4-430e-8c4e-4c13081ec160"},"vehicle_type_id":"4","last_reported":1731748131,"current_range_meters":39200,"station_id":"ce4bhg12rcd13ifvqf60","pricing_plan_id":"cebpf4jnsgd1na2vs0mg"},{"bike_id":"8e6584b7-c45e-4f53-b8c2-7e526fbe4b72","system_id":"levelo_inurba_marseille","lat":43.30462,"lon":5.37896,"is_reserved":false,"is_disabled":false,"rental_uris":{"android":"levelo://app?vid=8e6584b7-c45e-4f53-b8c2-7e526fbe4b72","ios":"levelo://app?vid=8e6584b7-c45e-4f53-b8c2-7e526fbe4b72"},"vehicle_type_id":"4","last_reported":1731748131,"current_range_meters":39200,"station_id":"ce4bgup2rcd13ifvqcn0","pricing_plan_id":"cebpf4jnsgd1na2vs0mg"},{"bike_id":"e40acb1f-7c3b-464f-a385-d83d7c01e615","system_id":"levelo_inurba_marseille","lat":43.32278,"lon":5.38288,"is_reserved":false,"is_disabled":false,"rental_uris":{"android":"levelo://app?vid=e40acb1f-7c3b-464f-a385-d83d7c01e615","ios":"levelo://app?vid=e40acb1f-7c3b-464f-a385-d83d7c01e615"},"vehicle_type_id":"4","last_reported":1731748131,"current_range_meters":16400,"station_id":"ce4bhr12rcd13ifvqhqg","pricing_plan_id":"cebpf4jnsgd1na2vs0mg"},{"bike_id":"1a21defc-c010-4e06-b5b6-e9e48d15970e","system_id":"levelo_inurba_marseille","lat":43.30471,"lon":5.37908,"is_reserved":false,"is_disabled":false,"rental_uris":{"android":"levelo://app?vid=1a21defc-c010-4e06-b5b6-e9e48d15970e","ios":"levelo://app?vid=1a21defc-c010-4e06-b5b6-e9e48d15970e"},"vehicle_type_id":"4","last_reported":1731748131,"current_range_meters":30000,"station_id":"ce4bgup2rcd13ifvqcn0","pricing_plan_id":"cebpf4jnsgd1na2vs0mg"},{"bike_id":"3f37f7d7-cfd0-46ff-ad64-e239f9c03c2e","system_id":"levelo_inurba_marseille","lat":43.33023,"lon":5.39041,"is_reserved":false,"is_disabled":false,"rental_uris":{"android":"levelo://app?vid=3f37f7d7-cfd0-46ff-ad64-e239f9c03c2e","ios":"levelo://app?vid=3f37f7d7-cfd0-46ff-ad64-e239f9c03c2e"},"vehicle_type_id":"4","last_reported":1731748131,"current_range_meters":39200,"station_id":"ce4bhr92rcd13ifvqhrg","pricing_plan_id":"cebpf4jnsgd1na2vs0mg"},{"bike_id":"ddf44895-d4f6-405c-ad97-35a6d7458a36","system_id":"levelo_inurba_marseille","lat":43.27491,"lon":5.42457,"is_reserved":false,"is_disabled":false,"rental_uris":{"android":"levelo://app?vid=ddf44895-d4f6-405c-ad97-35a6d7458a36","ios":"levelo://app?vid=ddf44895-d4f6-405c-ad97-35a6d7458a36"},"vehicle_type_id":"4","last_reported":1731748131,"current_range_meters":23200,"station_id":"ce4bhn92rcd13ifvqgrg","pricing_plan_id":"cebpf4jnsgd1na2vs0mg"},{"bike_id":"a0b669b2-0dd1-4f66-85e8-fc63c36a3369","system_id":"levelo_inurba_marseille","lat":43.3044,"lon":5.38887,"is_reserved":false,"is_disabled":false,"rental_uris":{"android":"levelo://app?vid=a0b669b2-0dd1-4f66-85e8-fc63c36a3369","ios":"levelo://app?vid=a0b669b2-0dd1-4f66-85e8-fc63c36a3369"},"vehicle_type_id":"4","last_reported":1731748131,"current_range_meters":39200,"station_id":"ce4bgk12rcd13ifvqbi0","pricing_plan_id":"cebpf4jnsgd1na2vs0mg"},{"bike_id":"92e5ff07-e698-41fa-9c74-a450de32acaa","system_id":"levelo_inurba_marseille","lat":43.3016,"lon":5.38077,"is_reserved":false,"is_disabled":false,"rental_uris":{"android":"levelo://app?vid=92e5ff07-e698-41fa-9c74-a450de32acaa","ios":"levelo://app?vid=92e5ff07-e698-41fa-9c74-a450de32acaa"},"vehicle_type_id":"4","last_reported":1731748131,"current_range_meters":14800,"station_id":"ce4bgjp2rcd13ifvqbh0","pricing_plan_id":"cebpf4jnsgd1na2vs0mg"},{"bike_id":"41a8f3c0-2349-4b3c-9e5f-f9588fd91dc0","system_id":"levelo_inurba_marseille","lat":43.30532,"lon":5.3671,"is_reserved":false,"is_disabled":false,"rental_uris":{"android":"levelo://app?vid=41a8f3c0-2349-4b3c-9e5f-f9588fd91dc0","ios":"levelo://app?vid=41a8f3c0-2349-4b3c-9e5f-f9588fd91dc0"},"vehicle_type_id":"4","last_reported":1731748131,"current_range_meters":4800,"station_id":"ce4bgrp2rcd13ifvqc9g","pricing_plan_id":"cebpf4jnsgd1na2vs0mg"},{"bike_id":"d6029a07-4312-42af-9590-5c6b5c606e61","system_id":"levelo_inurba_marseille","lat":43.2558,"lon":5.38227,"is_reserved":false,"is_disabled":false,"rental_uris":{"android":"levelo://app?vid=d6029a07-4312-42af-9590-5c6b5c606e61","ios":"levelo://app?vid=d6029a07-4312-42af-9590-5c6b5c606e61"},"vehicle_type_id":"4","last_reported":1731748131,"current_range_meters":38400,"station_id":"ce4bhih2rcd13ifvqfs0","pricing_plan_id":"cebpf4jnsgd1na2vs0mg"},{"bike_id":"e494c748-bb2f-4513-a185-a11df9e77efd","system_id":"levelo_inurba_marseille","lat":43.28461,"lon":5.37481,"is_reserved":false,"is_disabled":false,"rental_uris":{"android":"levelo://app?vid=e494c748-bb2f-4513-a185-a11df9e77efd","ios":"levelo://app?vid=e494c748-bb2f-4513-a185-a11df9e77efd"},"vehicle_type_id":"4","last_reported":1731748131,"current_range_meters":8400,"station_id":"","pricing_plan_id":"cebpf4jnsgd1na2vs0mg"},{"bike_id":"015b1e85-997e-40aa-a9c2-ed0a5bc918a4","system_id":"levelo_inurba_marseille","lat":43.31147,"lon":5.38729,"is_reserved":false,"is_disabled":false,"rental_uris":{"android":"levelo://app?vid=015b1e85-997e-40aa-a9c2-ed0a5bc918a4","ios":"levelo://app?vid=015b1e85-997e-40aa-a9c2-ed0a5bc918a4"},"vehicle_type_id":"4","last_reported":1731748131,"current_range_meters":38800,"station_id":"ce4bgv12rcd13ifvqcp0","pricing_plan_id":"cebpf4jnsgd1na2vs0mg"},{"bike_id":"65f92f31-0e5e-44c8-952d-df9c30660f65","system_id":"levelo_inurba_marseille","lat":43.295626,"lon":5.422849,"is_reserved":false,"is_disabled":false,"rental_uris":{"android":"levelo://app?vid=65f92f31-0e5e-44c8-952d-df9c30660f65","ios":"levelo://app?vid=65f92f31-0e5e-44c8-952d-df9c30660f65"},"vehicle_type_id":"4","last_reported":1731748131,"current_range_meters":24400,"station_id":"ce4bhph2rcd13ifvqhdg","pricing_plan_id":"cebpf4jnsgd1na2vs0mg"},{"bike_id":"de41194c-be82-42c4-83cb-f38b813db9ba","system_id":"levelo_inurba_marseille","lat":43.28449,"lon":5.392,"is_reserved":false,"is_disabled":false,"rental_uris":{"android":"levelo://app?vid=de41194c-be82-42c4-83cb-f38b813db9ba","ios":"levelo://app?vid=de41194c-be82-42c4-83cb-f38b813db9ba"},"vehicle_type_id":"4","last_reported":1731748131,"current_range_meters":21600,"station_id":"ce4bhoh2rcd13ifvqh5g","pricing_plan_id":"cebpf4jnsgd1na2vs0mg"},{"bike_id":"d295d273-78cf-440a-820a-0afdaf9f4a44","system_id":"levelo_inurba_marseille","lat":43.33609,"lon":5.41038,"is_reserved":false,"is_disabled":false,"rental_uris":{"android":"levelo://app?vid=d295d273-78cf-440a-820a-0afdaf9f4a44","ios":"levelo://app?vid=d295d273-78cf-440a-820a-0afdaf9f4a44"},"vehicle_type_id":"4","last_reported":1731748131,"current_range_meters":25200,"station_id":"ce4bhqh2rcd13ifvqhmg","pricing_plan_id":"cebpf4jnsgd1na2vs0mg"},{"bike_id":"ee3c8d6e-e377-488f-b1e4-ed3a9f7cb33a","system_id":"levelo_inurba_marseille","lat":43.29006,"lon":5.3561,"is_reserved":false,"is_disabled":false,"rental_uris":{"android":"levelo://app?vid=ee3c8d6e-e377-488f-b1e4-ed3a9f7cb33a","ios":"levelo://app?vid=ee3c8d6e-e377-488f-b1e4-ed3a9f7cb33a"},"vehicle_type_id":"4","last_reported":1731748131,"current_range_meters":38400,"station_id":"ce4bhb92rcd13ifvqen0","pricing_plan_id":"cebpf4jnsgd1na2vs0mg"},{"bike_id":"76fda271-4bcd-4529-8397-8074a1eff7fe","system_id":"levelo_inurba_marseille","lat":43.33767,"lon":5.37444,"is_reserved":false,"is_disabled":false,"rental_uris":{"android":"levelo://app?vid=76fda271-4bcd-4529-8397-8074a1eff7fe","ios":"levelo://app?vid=76fda271-4bcd-4529-8397-8074a1eff7fe"},"vehicle_type_id":"4","last_reported":1731748131,"current_range_meters":38000,"station_id":"","pricing_plan_id":"cebpf4jnsgd1na2vs0mg"},{"bike_id":"1f8a1a55-b493-4082-8e56-7f609908ae66","system_id":"levelo_inurba_marseille","lat":43.29045,"lon":5.35915,"is_reserved":false,"is_disabled":false,"rental_uris":{"android":"levelo://app?vid=1f8a1a55-b493-4082-8e56-7f609908ae66","ios":"levelo://app?vid=1f8a1a55-b493-4082-8e56-7f609908ae66"},"vehicle_type_id":"4","last_reported":1731748131,"current_range_meters":32000,"station_id":"ce4bha92rcd13ifvqeg0","pricing_plan_id":"cebpf4jnsgd1na2vs0mg"},{"bike_id":"7125cda5-6cac-4f0d-b24c-2d801b2955b5","system_id":"levelo_inurba_marseille","lat":43.23189,"lon":5.39978,"is_reserved":false,"is_disabled":false,"rental_uris":{"android":"levelo://app?vid=7125cda5-6cac-4f0d-b24c-2d801b2955b5","ios":"levelo://app?vid=7125cda5-6cac-4f0d-b24c-2d801b2955b5"},"vehicle_type_id":"4","last_reported":1731748131,"current_range_meters":39200,"station_id":"ce4bhn12rcd13ifvqgqg","pricing_plan_id":"cebpf4jnsgd1na2vs0mg"},{"bike_id":"77e98fa8-2403-4754-b6f6-34c4f430fecf","system_id":"levelo_inurba_marseille","lat":43.26209,"lon":5.37443,"is_reserved":false,"is_disabled":false,"rental_uris":{"android":"levelo://app?vid=77e98fa8-2403-4754-b6f6-34c4f430fecf","ios":"levelo://app?vid=77e98fa8-2403-4754-b6f6-34c4f430fecf"},"vehicle_type_id":"4","last_reported":1731748131,"current_range_meters":36800,"station_id":"ce4bhgp2rcd13ifvqfc0","pricing_plan_id":"cebpf4jnsgd1na2vs0mg"},{"bike_id":"86f570a3-c5de-49d0-be92-e7ab3aef3357","system_id":"levelo_inurba_marseille","lat":43.296077,"lon":5.381118,"is_reserved":false,"is_disabled":false,"rental_uris":{"android":"levelo://app?vid=86f570a3-c5de-49d0-be92-e7ab3aef3357","ios":"levelo://app?vid=86f570a3-c5de-49d0-be92-e7ab3aef3357"},"vehicle_type_id":"4","last_reported":1731748131,"current_range_meters":22000,"station_id":"ce4bgrp2rcd13ifvqc9g","pricing_plan_id":"cebpf4jnsgd1na2vs0mg"},{"bike_id":"1cf6e9bd-b73c-49ce-a1cb-071237526ef4","system_id":"levelo_inurba_marseille","lat":43.29225,"lon":5.36067,"is_reserved":false,"is_disabled":false,"rental_uris":{"android":"levelo://app?vid=1cf6e9bd-b73c-49ce-a1cb-071237526ef4","ios":"levelo://app?vid=1cf6e9bd-b73c-49ce-a1cb-071237526ef4"},"vehicle_type_id":"4","last_reported":1731748131,"current_range_meters":32800,"station_id":"ce4bhbh2rcd13ifvqeqg","pricing_plan_id":"cebpf4jnsgd1na2vs0mg"},{"bike_id":"5ef93076-a18f-474b-832a-168286e3a9c2","system_id":"levelo_inurba_marseille","lat":43.30209,"lon":5.39467,"is_reserved":false,"is_disabled":false,"rental_uris":{"android":"levelo://app?vid=5ef93076-a18f-474b-832a-168286e3a9c2","ios":"levelo://app?vid=5ef93076-a18f-474b-832a-168286e3a9c2"},"vehicle_type_id":"4","last_reported":1731748131,"current_range_meters":35600,"station_id":"ce4bh0p2rcd13ifvqd70","pricing_plan_id":"cebpf4jnsgd1na2vs0mg"},{"bike_id":"e45f085a-5435-4e14-83c4-74e1f130d1af","system_id":"levelo_inurba_marseille","lat":43.29787,"lon":5.38114,"is_reserved":false,"is_disabled":false,"rental_uris":{"android":"levelo://app?vid=e45f085a-5435-4e14-83c4-74e1f130d1af","ios":"levelo://app?vid=e45f085a-5435-4e14-83c4-74e1f130d1af"},"vehicle_type_id":"4","last_reported":1731748131,"current_range_meters":37600,"station_id":"ce4bgip2rcd13ifvqbb0","pricing_plan_id":"cebpf4jnsgd1na2vs0mg"},{"bike_id":"6d757fef-4f26-43f9-ac2c-ffab39bf7dae","system_id":"levelo_inurba_marseille","lat":43.32249,"lon":5.36901,"is_reserved":false,"is_disabled":false,"rental_uris":{"android":"levelo://app?vid=6d757fef-4f26-43f9-ac2c-ffab39bf7dae","ios":"levelo://app?vid=6d757fef-4f26-43f9-ac2c-ffab39bf7dae"},"vehicle_type_id":"4","last_reported":1731748131,"current_range_meters":20400,"station_id":"","pricing_plan_id":"cebpf4jnsgd1na2vs0mg"},{"bike_id":"bf5fc513-5b16-49ac-b46e-8d1576a8b635","system_id":"levelo_inurba_marseille","lat":43.29553,"lon":5.4229,"is_reserved":false,"is_disabled":false,"rental_uris":{"android":"levelo://app?vid=bf5fc513-5b16-49ac-b46e-8d1576a8b635","ios":"levelo://app?vid=bf5fc513-5b16-49ac-b46e-8d1576a8b635"},"vehicle_type_id":"4","last_reported":1731748131,"current_range_meters":38800,"station_id":"ce4bhph2rcd13ifvqhdg","pricing_plan_id":"cebpf4jnsgd1na2vs0mg"},{"bike_id":"22d914cd-75e1-4c7a-a820-0125f5f2d2e0","system_id":"levelo_inurba_marseille","lat":43.24067,"lon":5.37765,"is_reserved":false,"is_disabled":false,"rental_uris":{"android":"levelo://app?vid=22d914cd-75e1-4c7a-a820-0125f5f2d2e0","ios":"levelo://app?vid=22d914cd-75e1-4c7a-a820-0125f5f2d2e0"},"vehicle_type_id":"4","last_reported":1731748131,"current_range_meters":39200,"station_id":"ce4bhnp2rcd13ifvqgvg","pricing_plan_id":"cebpf4jnsgd1na2vs0mg"},{"bike_id":"46789660-8e1b-49b3-9f8e-8d8d35c459ab","system_id":"levelo_inurba_marseille","lat":43.29781,"lon":5.38081,"is_reserved":false,"is_disabled":false,"rental_uris":{"android":"levelo://app?vid=46789660-8e1b-49b3-9f8e-8d8d35c459ab","ios":"levelo://app?vid=46789660-8e1b-49b3-9f8e-8d8d35c459ab"},"vehicle_type_id":"4","last_reported":1731748131,"current_range_meters":28000,"station_id":"ce4bgip2rcd13ifvqbb0","pricing_plan_id":"cebpf4jnsgd1na2vs0mg"},{"bike_id":"d5764032-90ea-4dc7-ade4-91eac6957062","system_id":"levelo_inurba_marseille","lat":43.30784,"lon":5.3764,"is_reserved":false,"is_disabled":false,"rental_uris":{"android":"levelo://app?vid=d5764032-90ea-4dc7-ade4-91eac6957062","ios":"levelo://app?vid=d5764032-90ea-4dc7-ade4-91eac6957062"},"vehicle_type_id":"4","last_reported":1731748131,"current_range_meters":36400,"station_id":"ce4bgv92rcd13ifvqcq0","pricing_plan_id":"cebpf4jnsgd1na2vs0mg"},{"bike_id":"994a1fe6-b6f9-42a9-8921-8bb60efd83ed","system_id":"levelo_inurba_marseille","lat":43.27326,"lon":5.39083,"is_reserved":false,"is_disabled":false,"rental_uris":{"android":"levelo://app?vid=994a1fe6-b6f9-42a9-8921-8bb60efd83ed","ios":"levelo://app?vid=994a1fe6-b6f9-42a9-8921-8bb60efd83ed"},"vehicle_type_id":"4","last_reported":1731748131,"current_range_meters":24400,"station_id":"ce4bhgp2rcd13ifvqfe0","pricing_plan_id":"cebpf4jnsgd1na2vs0mg"},{"bike_id":"aad4669a-3cee-431b-b28a-1ae7cd9f6df0","system_id":"levelo_inurba_marseille","lat":43.24994,"lon":5.38937,"is_reserved":false,"is_disabled":false,"rental_uris":{"android":"levelo://app?vid=aad4669a-3cee-431b-b28a-1ae7cd9f6df0","ios":"levelo://app?vid=aad4669a-3cee-431b-b28a-1ae7cd9f6df0"},"vehicle_type_id":"4","last_reported":1731748131,"current_range_meters":25600,"station_id":"ce4bhgp2rcd13ifvqfd0","pricing_plan_id":"cebpf4jnsgd1na2vs0mg"},{"bike_id":"3def47d5-da07-4acb-a4a9-5e939a90a81a","system_id":"levelo_inurba_marseille","lat":43.32657,"lon":5.40992,"is_reserved":false,"is_disabled":false,"rental_uris":{"android":"levelo://app?vid=3def47d5-da07-4acb-a4a9-5e939a90a81a","ios":"levelo://app?vid=3def47d5-da07-4acb-a4a9-5e939a90a81a"},"vehicle_type_id":"4","last_reported":1731748131,"current_range_meters":36800,"station_id":"ce4bhpp2rcd13ifvqhgg","pricing_plan_id":"cebpf4jnsgd1na2vs0mg"},{"bike_id":"a5bb31f6-2d80-4f6a-b823-66002c97c0b8","system_id":"levelo_inurba_marseille","lat":43.23152,"lon":5.43704,"is_reserved":false,"is_disabled":false,"rental_uris":{"android":"levelo://app?vid=a5bb31f6-2d80-4f6a-b823-66002c97c0b8","ios":"levelo://app?vid=a5bb31f6-2d80-4f6a-b823-66002c97c0b8"},"vehicle_type_id":"4","last_reported":1731748131,"current_range_meters":20000,"station_id":"ce4bhmp2rcd13ifvqgog","pricing_plan_id":"cebpf4jnsgd1na2vs0mg"},{"bike_id":"69316abb-217e-48fa-a923-b5dc4cad1113","system_id":"levelo_inurba_marseille","lat":43.32485,"lon":5.36567,"is_reserved":false,"is_disabled":false,"rental_uris":{"android":"levelo://app?vid=69316abb-217e-48fa-a923-b5dc4cad1113","ios":"levelo://app?vid=69316abb-217e-48fa-a923-b5dc4cad1113"},"vehicle_type_id":"4","last_reported":1731748131,"current_range_meters":39200,"station_id":"ce4bhs12rcd13ifvqhvg","pricing_plan_id":"cebpf4jnsgd1na2vs0mg"},{"bike_id":"d27a3475-2e52-4b6c-9dea-c67313b855a8","system_id":"levelo_inurba_marseille","lat":43.31887,"lon":5.4073,"is_reserved":false,"is_disabled":false,"rental_uris":{"android":"levelo://app?vid=d27a3475-2e52-4b6c-9dea-c67313b855a8","ios":"levelo://app?vid=d27a3475-2e52-4b6c-9dea-c67313b855a8"},"vehicle_type_id":"4","last_reported":1731748131,"current_range_meters":29600,"station_id":"ce4bhq12rcd13ifvqhig","pricing_plan_id":"cebpf4jnsgd1na2vs0mg"},{"bike_id":"89d65532-6780-451d-8295-77c745ae6df4","system_id":"levelo_inurba_marseille","lat":43.24067,"lon":5.3775,"is_reserved":false,"is_disabled":false,"rental_uris":{"android":"levelo://app?vid=89d65532-6780-451d-8295-77c745ae6df4","ios":"levelo://app?vid=89d65532-6780-451d-8295-77c745ae6df4"},"vehicle_type_id":"4","last_reported":1731748131,"current_range_meters":27200,"station_id":"ce4bhnp2rcd13ifvqgvg","pricing_plan_id":"cebpf4jnsgd1na2vs0mg"},{"bike_id":"208d585c-1931-4036-9da0-f89ba4a825ff","system_id":"levelo_inurba_marseille","lat":43.32291,"lon":5.38265,"is_reserved":false,"is_disabled":false,"rental_uris":{"android":"levelo://app?vid=208d585c-1931-4036-9da0-f89ba4a825ff","ios":"levelo://app?vid=208d585c-1931-4036-9da0-f89ba4a825ff"},"vehicle_type_id":"4","last_reported":1731748131,"current_range_meters":38400,"station_id":"ce4bhr12rcd13ifvqhqg","pricing_plan_id":"cebpf4jnsgd1na2vs0mg"},{"bike_id":"8f7aacd3-4586-4661-8e01-8c63c46bb897","system_id":"levelo_inurba_marseille","lat":43.2958,"lon":5.36735,"is_reserved":false,"is_disabled":false,"rental_uris":{"android":"levelo://app?vid=8f7aacd3-4586-4661-8e01-8c63c46bb897","ios":"levelo://app?vid=8f7aacd3-4586-4661-8e01-8c63c46bb897"},"vehicle_type_id":"4","last_reported":1731748131,"current_range_meters":16400,"station_id":"ce4bgph2rcd13ifvqc2g","pricing_plan_id":"cebpf4jnsgd1na2vs0mg"},{"bike_id":"af0da716-0c4e-4cb4-bf26-18a61445643c","system_id":"levelo_inurba_marseille","lat":43.27807,"lon":5.40716,"is_reserved":false,"is_disabled":false,"rental_uris":{"android":"levelo://app?vid=af0da716-0c4e-4cb4-bf26-18a61445643c","ios":"levelo://app?vid=af0da716-0c4e-4cb4-bf26-18a61445643c"},"vehicle_type_id":"4","last_reported":1731748131,"current_range_meters":38800,"station_id":"ce4bhnh2rcd13ifvqgtg","pricing_plan_id":"cebpf4jnsgd1na2vs0mg"},{"bike_id":"0c44cbb7-d5ce-467a-9d65-fdb0ac6d14cb","system_id":"levelo_inurba_marseille","lat":43.25939,"lon":5.40904,"is_reserved":false,"is_disabled":false,"rental_uris":{"android":"levelo://app?vid=0c44cbb7-d5ce-467a-9d65-fdb0ac6d14cb","ios":"levelo://app?vid=0c44cbb7-d5ce-467a-9d65-fdb0ac6d14cb"},"vehicle_type_id":"4","last_reported":1731748131,"current_range_meters":11200,"station_id":"ce4bhm92rcd13ifvqglg","pricing_plan_id":"cebpf4jnsgd1na2vs0mg"},{"bike_id":"e23be5a8-468a-4f57-a1e4-c8e398c6266d","system_id":"levelo_inurba_marseille","lat":43.265,"lon":5.39536,"is_reserved":false,"is_disabled":false,"rental_uris":{"android":"levelo://app?vid=e23be5a8-468a-4f57-a1e4-c8e398c6266d","ios":"levelo://app?vid=e23be5a8-468a-4f57-a1e4-c8e398c6266d"},"vehicle_type_id":"4","last_reported":1731748131,"current_range_meters":36400,"station_id":"ce4bhi12rcd13ifvqfq0","pricing_plan_id":"cebpf4jnsgd1na2vs0mg"},{"bike_id":"d8ab470d-34f1-49ab-8e65-99c678ea4066","system_id":"levelo_inurba_marseille","lat":43.26961,"lon":5.38611,"is_reserved":false,"is_disabled":false,"rental_uris":{"android":"levelo://app?vid=d8ab470d-34f1-49ab-8e65-99c678ea4066","ios":"levelo://app?vid=d8ab470d-34f1-49ab-8e65-99c678ea4066"},"vehicle_type_id":"4","last_reported":1731748131,"current_range_meters":39200,"station_id":"ce4bhh92rcd13ifvqfh0","pricing_plan_id":"cebpf4jnsgd1na2vs0mg"},{"bike_id":"85c6faf1-caca-4be7-8bdf-3f18846bd5df","system_id":"levelo_inurba_marseille","lat":43.26809,"lon":5.40272,"is_reserved":false,"is_disabled":false,"rental_uris":{"android":"levelo://app?vid=85c6faf1-caca-4be7-8bdf-3f18846bd5df","ios":"levelo://app?vid=85c6faf1-caca-4be7-8bdf-3f18846bd5df"},"vehicle_type_id":"4","last_reported":1731748131,"current_range_meters":38400,"station_id":"ce501612rcd8frsf0b60","pricing_plan_id":"cebpf4jnsgd1na2vs0mg"},{"bike_id":"2cedb237-27b5-43aa-b27f-c6b503515a45","system_id":"levelo_inurba_marseille","lat":43.27837,"lon":5.39208,"is_reserved":false,"is_disabled":false,"rental_uris":{"android":"levelo://app?vid=2cedb237-27b5-43aa-b27f-c6b503515a45","ios":"levelo://app?vid=2cedb237-27b5-43aa-b27f-c6b503515a45"},"vehicle_type_id":"4","last_reported":1731748131,"current_range_meters":2800,"station_id":"ce4bhjp2rcd13ifvqga0","pricing_plan_id":"cebpf4jnsgd1na2vs0mg"},{"bike_id":"00224059-6161-44d6-9467-27ec20366cfd","system_id":"levelo_inurba_marseille","lat":43.32142,"lon":5.38458,"is_reserved":false,"is_disabled":false,"rental_uris":{"android":"levelo://app?vid=00224059-6161-44d6-9467-27ec20366cfd","ios":"levelo://app?vid=00224059-6161-44d6-9467-27ec20366cfd"},"vehicle_type_id":"4","last_reported":1731748131,"current_range_meters":7200,"station_id":"","pricing_plan_id":"cebpf4jnsgd1na2vs0mg"},{"bike_id":"1f11bc65-6db5-44e9-a407-3277a6dc006b","system_id":"levelo_inurba_marseille","lat":43.26934,"lon":5.38918,"is_reserved":false,"is_disabled":false,"rental_uris":{"android":"levelo://app?vid=1f11bc65-6db5-44e9-a407-3277a6dc006b","ios":"levelo://app?vid=1f11bc65-6db5-44e9-a407-3277a6dc006b"},"vehicle_type_id":"4","last_reported":1731748131,"current_range_meters":32800,"station_id":"ce4bhhh2rcd13ifvqfl0","pricing_plan_id":"cebpf4jnsgd1na2vs0mg"},{"bike_id":"1a02213b-4b44-4c58-ba47-6c3fe1041efe","system_id":"levelo_inurba_marseille","lat":43.29226,"lon":5.3606,"is_reserved":false,"is_disabled":false,"rental_uris":{"android":"levelo://app?vid=1a02213b-4b44-4c58-ba47-6c3fe1041efe","ios":"levelo://app?vid=1a02213b-4b44-4c58-ba47-6c3fe1041efe"},"vehicle_type_id":"4","last_reported":1731748131,"current_range_meters":19200,"station_id":"ce4bhbh2rcd13ifvqeqg","pricing_plan_id":"cebpf4jnsgd1na2vs0mg"},{"bike_id":"08f2da3e-9a4f-4bf2-9ab5-de990ce33744","system_id":"levelo_inurba_marseille","lat":43.30605,"lon":5.37232,"is_reserved":false,"is_disabled":false,"rental_uris":{"android":"levelo://app?vid=08f2da3e-9a4f-4bf2-9ab5-de990ce33744","ios":"levelo://app?vid=08f2da3e-9a4f-4bf2-9ab5-de990ce33744"},"vehicle_type_id":"4","last_reported":1731748131,"current_range_meters":34800,"station_id":"ce4bgqh2rcd13ifvqc4g","pricing_plan_id":"cebpf4jnsgd1na2vs0mg"},{"bike_id":"add988a2-bb45-4c2f-8430-8a3e282ea40e","system_id":"levelo_inurba_marseille","lat":43.27211,"lon":5.39187,"is_reserved":false,"is_disabled":false,"rental_uris":{"android":"levelo://app?vid=add988a2-bb45-4c2f-8430-8a3e282ea40e","ios":"levelo://app?vid=add988a2-bb45-4c2f-8430-8a3e282ea40e"},"vehicle_type_id":"4","last_reported":1731748131,"current_range_meters":39200,"station_id":"ce4bhhp2rcd13ifvqfm0","pricing_plan_id":"cebpf4jnsgd1na2vs0mg"},{"bike_id":"d7f79274-e640-43c4-b7dd-f4e3dad6011c","system_id":"levelo_inurba_marseille","lat":43.27991,"lon":5.41658,"is_reserved":false,"is_disabled":false,"rental_uris":{"android":"levelo://app?vid=d7f79274-e640-43c4-b7dd-f4e3dad6011c","ios":"levelo://app?vid=d7f79274-e640-43c4-b7dd-f4e3dad6011c"},"vehicle_type_id":"4","last_reported":1731748131,"current_range_meters":39200,"station_id":"ce4bho12rcd13ifvqh1g","pricing_plan_id":"cebpf4jnsgd1na2vs0mg"},{"bike_id":"f1e0f3dd-a15a-4f0c-a853-07b7313ac16b","system_id":"levelo_inurba_marseille","lat":43.31887,"lon":5.40743,"is_reserved":false,"is_disabled":false,"rental_uris":{"android":"levelo://app?vid=f1e0f3dd-a15a-4f0c-a853-07b7313ac16b","ios":"levelo://app?vid=f1e0f3dd-a15a-4f0c-a853-07b7313ac16b"},"vehicle_type_id":"4","last_reported":1731748131,"current_range_meters":33600,"station_id":"ce4bhq12rcd13ifvqhig","pricing_plan_id":"cebpf4jnsgd1na2vs0mg"},{"bike_id":"f095f873-3c25-4d64-9c8a-9d3a77d97165","system_id":"levelo_inurba_marseille","lat":43.24078,"lon":5.37749,"is_reserved":false,"is_disabled":false,"rental_uris":{"android":"levelo://app?vid=f095f873-3c25-4d64-9c8a-9d3a77d97165","ios":"levelo://app?vid=f095f873-3c25-4d64-9c8a-9d3a77d97165"},"vehicle_type_id":"4","last_reported":1731748131,"current_range_meters":26000,"station_id":"ce4bhnp2rcd13ifvqgvg","pricing_plan_id":"cebpf4jnsgd1na2vs0mg"},{"bike_id":"052465b0-873b-4d86-b508-197a5ec55540","system_id":"levelo_inurba_marseille","lat":43.25578,"lon":5.3823,"is_reserved":false,"is_disabled":false,"rental_uris":{"android":"levelo://app?vid=052465b0-873b-4d86-b508-197a5ec55540","ios":"levelo://app?vid=052465b0-873b-4d86-b508-197a5ec55540"},"vehicle_type_id":"4","last_reported":1731748131,"current_range_meters":23200,"station_id":"ce4bhih2rcd13ifvqfs0","pricing_plan_id":"cebpf4jnsgd1na2vs0mg"},{"bike_id":"b54f4471-f146-477a-ade3-58e1dea1b85e","system_id":"levelo_inurba_marseille","lat":43.24187,"lon":5.39723,"is_reserved":false,"is_disabled":false,"rental_uris":{"android":"levelo://app?vid=b54f4471-f146-477a-ade3-58e1dea1b85e","ios":"levelo://app?vid=b54f4471-f146-477a-ade3-58e1dea1b85e"},"vehicle_type_id":"4","last_reported":1731748131,"current_range_meters":36400,"station_id":"ce4bhn12rcd13ifvqgpg","pricing_plan_id":"cebpf4jnsgd1na2vs0mg"},{"bike_id":"8f4a3c39-c776-402d-ba4c-f0fba8c119bf","system_id":"levelo_inurba_marseille","lat":43.26559,"lon":5.39006,"is_reserved":false,"is_disabled":false,"rental_uris":{"android":"levelo://app?vid=8f4a3c39-c776-402d-ba4c-f0fba8c119bf","ios":"levelo://app?vid=8f4a3c39-c776-402d-ba4c-f0fba8c119bf"},"vehicle_type_id":"4","last_reported":1731748131,"current_range_meters":37600,"station_id":"ce4bhe12rcd13ifvqf30","pricing_plan_id":"cebpf4jnsgd1na2vs0mg"},{"bike_id":"e0a09c00-e876-481b-9002-b6ba55b8308b","system_id":"levelo_inurba_marseille","lat":43.29779,"lon":5.39322,"is_reserved":false,"is_disabled":false,"rental_uris":{"android":"levelo://app?vid=e0a09c00-e876-481b-9002-b6ba55b8308b","ios":"levelo://app?vid=e0a09c00-e876-481b-9002-b6ba55b8308b"},"vehicle_type_id":"4","last_reported":1731748131,"current_range_meters":39200,"station_id":"chh1huq6cuj3fo74tm60","pricing_plan_id":"cebpf4jnsgd1na2vs0mg"},{"bike_id":"733b8fbc-d1e7-4659-8527-d71807ce14b7","system_id":"levelo_inurba_marseille","lat":43.26941,"lon":5.40251,"is_reserved":false,"is_disabled":false,"rental_uris":{"android":"levelo://app?vid=733b8fbc-d1e7-4659-8527-d71807ce14b7","ios":"levelo://app?vid=733b8fbc-d1e7-4659-8527-d71807ce14b7"},"vehicle_type_id":"4","last_reported":1731748131,"current_range_meters":40000,"station_id":"cjm6bp8fraef2m0cb0m0","pricing_plan_id":"cebpf4jnsgd1na2vs0mg"},{"bike_id":"9ece6e23-b250-4df5-b1b8-38a5b1ec99c1","system_id":"levelo_inurba_marseille","lat":43.26062,"lon":5.39396,"is_reserved":false,"is_disabled":false,"rental_uris":{"android":"levelo://app?vid=9ece6e23-b250-4df5-b1b8-38a5b1ec99c1","ios":"levelo://app?vid=9ece6e23-b250-4df5-b1b8-38a5b1ec99c1"},"vehicle_type_id":"4","last_reported":1731748131,"current_range_meters":36800,"station_id":"ce4bhh92rcd13ifvqfj0","pricing_plan_id":"cebpf4jnsgd1na2vs0mg"},{"bike_id":"a57fb143-973c-47ab-ad9f-272f194992ef","system_id":"levelo_inurba_marseille","lat":43.23153,"lon":5.43706,"is_reserved":false,"is_disabled":false,"rental_uris":{"android":"levelo://app?vid=a57fb143-973c-47ab-ad9f-272f194992ef","ios":"levelo://app?vid=a57fb143-973c-47ab-ad9f-272f194992ef"},"vehicle_type_id":"4","last_reported":1731748131,"current_range_meters":14000,"station_id":"ce4bhmp2rcd13ifvqgog","pricing_plan_id":"cebpf4jnsgd1na2vs0mg"},{"bike_id":"fd002a8d-ac7f-4503-8d68-637bcaebc3d1","system_id":"levelo_inurba_marseille","lat":43.29583,"lon":5.38098,"is_reserved":false,"is_disabled":false,"rental_uris":{"android":"levelo://app?vid=fd002a8d-ac7f-4503-8d68-637bcaebc3d1","ios":"levelo://app?vid=fd002a8d-ac7f-4503-8d68-637bcaebc3d1"},"vehicle_type_id":"4","last_reported":1731748131,"current_range_meters":39200,"station_id":"ce4bgl12rcd13ifvqbo0","pricing_plan_id":"cebpf4jnsgd1na2vs0mg"},{"bike_id":"8eae60eb-22fa-4b86-b441-0c082a5e7daf","system_id":"levelo_inurba_marseille","lat":43.27321,"lon":5.39105,"is_reserved":false,"is_disabled":false,"rental_uris":{"android":"levelo://app?vid=8eae60eb-22fa-4b86-b441-0c082a5e7daf","ios":"levelo://app?vid=8eae60eb-22fa-4b86-b441-0c082a5e7daf"},"vehicle_type_id":"4","last_reported":1731748131,"current_range_meters":22000,"station_id":"ce4bhgp2rcd13ifvqfe0","pricing_plan_id":"cebpf4jnsgd1na2vs0mg"},{"bike_id":"67b74999-7562-40a9-80d6-0bf76d158375","system_id":"levelo_inurba_marseille","lat":43.25582,"lon":5.38232,"is_reserved":false,"is_disabled":false,"rental_uris":{"android":"levelo://app?vid=67b74999-7562-40a9-80d6-0bf76d158375","ios":"levelo://app?vid=67b74999-7562-40a9-80d6-0bf76d158375"},"vehicle_type_id":"4","last_reported":1731748131,"current_range_meters":30000,"station_id":"ce4bhih2rcd13ifvqfs0","pricing_plan_id":"cebpf4jnsgd1na2vs0mg"},{"bike_id":"f03c9f82-559a-401f-9fdb-4f4b8daa696c","system_id":"levelo_inurba_marseille","lat":43.30172,"lon":5.38078,"is_reserved":false,"is_disabled":false,"rental_uris":{"android":"levelo://app?vid=f03c9f82-559a-401f-9fdb-4f4b8daa696c","ios":"levelo://app?vid=f03c9f82-559a-401f-9fdb-4f4b8daa696c"},"vehicle_type_id":"4","last_reported":1731748131,"current_range_meters":38000,"station_id":"ce4bgjp2rcd13ifvqbh0","pricing_plan_id":"cebpf4jnsgd1na2vs0mg"},{"bike_id":"4d290e24-f8ef-46cc-8e85-56690ccf4aff","system_id":"levelo_inurba_marseille","lat":43.30886,"lon":5.39639,"is_reserved":false,"is_disabled":false,"rental_uris":{"android":"levelo://app?vid=4d290e24-f8ef-46cc-8e85-56690ccf4aff","ios":"levelo://app?vid=4d290e24-f8ef-46cc-8e85-56690ccf4aff"},"vehicle_type_id":"4","last_reported":1731748131,"current_range_meters":38000,"station_id":"ce4bh012rcd13ifvqcv0","pricing_plan_id":"cebpf4jnsgd1na2vs0mg"},{"bike_id":"e445419f-0379-40a6-b6cb-1b6ae8b4b353","system_id":"levelo_inurba_marseille","lat":43.28677,"lon":5.38656,"is_reserved":false,"is_disabled":false,"rental_uris":{"android":"levelo://app?vid=e445419f-0379-40a6-b6cb-1b6ae8b4b353","ios":"levelo://app?vid=e445419f-0379-40a6-b6cb-1b6ae8b4b353"},"vehicle_type_id":"4","last_reported":1731748131,"current_range_meters":38000,"station_id":"ce4bh492rcd13ifvqdug","pricing_plan_id":"cebpf4jnsgd1na2vs0mg"},{"bike_id":"1a813423-d86d-4cce-888c-e27175614fd2","system_id":"levelo_inurba_marseille","lat":43.28704,"lon":5.39982,"is_reserved":false,"is_disabled":false,"rental_uris":{"android":"levelo://app?vid=1a813423-d86d-4cce-888c-e27175614fd2","ios":"levelo://app?vid=1a813423-d86d-4cce-888c-e27175614fd2"},"vehicle_type_id":"4","last_reported":1731748131,"current_range_meters":38000,"station_id":"ce4bho92rcd13ifvqh3g","pricing_plan_id":"cebpf4jnsgd1na2vs0mg"},{"bike_id":"45156642-b4c8-42eb-82f7-126129e68141","system_id":"levelo_inurba_marseille","lat":43.25937,"lon":5.40905,"is_reserved":false,"is_disabled":false,"rental_uris":{"android":"levelo://app?vid=45156642-b4c8-42eb-82f7-126129e68141","ios":"levelo://app?vid=45156642-b4c8-42eb-82f7-126129e68141"},"vehicle_type_id":"4","last_reported":1731748131,"current_range_meters":25200,"station_id":"ce4bhm92rcd13ifvqglg","pricing_plan_id":"cebpf4jnsgd1na2vs0mg"},{"bike_id":"e4a5f773-f25f-4e1a-ad91-5d54dd653bfa","system_id":"levelo_inurba_marseille","lat":43.3302,"lon":5.39036,"is_reserved":false,"is_disabled":false,"rental_uris":{"android":"levelo://app?vid=e4a5f773-f25f-4e1a-ad91-5d54dd653bfa","ios":"levelo://app?vid=e4a5f773-f25f-4e1a-ad91-5d54dd653bfa"},"vehicle_type_id":"4","last_reported":1731748131,"current_range_meters":9600,"station_id":"ce4bhr92rcd13ifvqhrg","pricing_plan_id":"cebpf4jnsgd1na2vs0mg"},{"bike_id":"ca655f3b-8380-4045-b3f8-8acaa0e83ede","system_id":"levelo_inurba_marseille","lat":43.33739,"lon":5.37423,"is_reserved":false,"is_disabled":false,"rental_uris":{"android":"levelo://app?vid=ca655f3b-8380-4045-b3f8-8acaa0e83ede","ios":"levelo://app?vid=ca655f3b-8380-4045-b3f8-8acaa0e83ede"},"vehicle_type_id":"4","last_reported":1731748131,"current_range_meters":35600,"station_id":"","pricing_plan_id":"cebpf4jnsgd1na2vs0mg"},{"bike_id":"7ee6d84f-9575-47d6-bdd3-b727f002e7c5","system_id":"levelo_inurba_marseille","lat":43.26496,"lon":5.39544,"is_reserved":false,"is_disabled":false,"rental_uris":{"android":"levelo://app?vid=7ee6d84f-9575-47d6-bdd3-b727f002e7c5","ios":"levelo://app?vid=7ee6d84f-9575-47d6-bdd3-b727f002e7c5"},"vehicle_type_id":"4","last_reported":1731748131,"current_range_meters":35200,"station_id":"ce4bhi12rcd13ifvqfq0","pricing_plan_id":"cebpf4jnsgd1na2vs0mg"},{"bike_id":"fc675dd3-ce3b-42ac-b73f-2cfc19b55384","system_id":"levelo_inurba_marseille","lat":43.32485,"lon":5.36563,"is_reserved":false,"is_disabled":false,"rental_uris":{"android":"levelo://app?vid=fc675dd3-ce3b-42ac-b73f-2cfc19b55384","ios":"levelo://app?vid=fc675dd3-ce3b-42ac-b73f-2cfc19b55384"},"vehicle_type_id":"4","last_reported":1731748131,"current_range_meters":38400,"station_id":"ce4bhs12rcd13ifvqhvg","pricing_plan_id":"cebpf4jnsgd1na2vs0mg"},{"bike_id":"a6b8c285-acc9-4039-9531-1aae39136a33","system_id":"levelo_inurba_marseille","lat":43.312042,"lon":5.367348,"is_reserved":false,"is_disabled":false,"rental_uris":{"android":"levelo://app?vid=a6b8c285-acc9-4039-9531-1aae39136a33","ios":"levelo://app?vid=a6b8c285-acc9-4039-9531-1aae39136a33"},"vehicle_type_id":"4","last_reported":1731748131,"current_range_meters":16000,"station_id":"","pricing_plan_id":"cebpf4jnsgd1na2vs0mg"},{"bike_id":"1fde42b2-e1c0-4838-a2e8-d683a48e9d4a","system_id":"levelo_inurba_marseille","lat":43.25833,"lon":5.3942,"is_reserved":false,"is_disabled":false,"rental_uris":{"android":"levelo://app?vid=1fde42b2-e1c0-4838-a2e8-d683a48e9d4a","ios":"levelo://app?vid=1fde42b2-e1c0-4838-a2e8-d683a48e9d4a"},"vehicle_type_id":"4","last_reported":1731748131,"current_range_meters":38000,"station_id":"ce4bhip2rcd13ifvqft0","pricing_plan_id":"cebpf4jnsgd1na2vs0mg"},{"bike_id":"7533f0c2-14f7-425a-b3ed-0abe750ceb15","system_id":"levelo_inurba_marseille","lat":43.25586,"lon":5.38236,"is_reserved":false,"is_disabled":false,"rental_uris":{"android":"levelo://app?vid=7533f0c2-14f7-425a-b3ed-0abe750ceb15","ios":"levelo://app?vid=7533f0c2-14f7-425a-b3ed-0abe750ceb15"},"vehicle_type_id":"4","last_reported":1731748131,"current_range_meters":39200,"station_id":"ce4bhih2rcd13ifvqfs0","pricing_plan_id":"cebpf4jnsgd1na2vs0mg"},{"bike_id":"5c254126-8805-4ed8-9520-9f63561143b3","system_id":"levelo_inurba_marseille","lat":43.24166,"lon":5.364,"is_reserved":false,"is_disabled":false,"rental_uris":{"android":"levelo://app?vid=5c254126-8805-4ed8-9520-9f63561143b3","ios":"levelo://app?vid=5c254126-8805-4ed8-9520-9f63561143b3"},"vehicle_type_id":"4","last_reported":1731748131,"current_range_meters":22400,"station_id":"cpo36qri1sfpv3e86is0","pricing_plan_id":"cebpf4jnsgd1na2vs0mg"},{"bike_id":"4c27a94b-6677-4ef1-ab1a-ae4823014d32","system_id":"levelo_inurba_marseille","lat":43.305291,"lon":5.367048,"is_reserved":false,"is_disabled":false,"rental_uris":{"android":"levelo://app?vid=4c27a94b-6677-4ef1-ab1a-ae4823014d32","ios":"levelo://app?vid=4c27a94b-6677-4ef1-ab1a-ae4823014d32"},"vehicle_type_id":"4","last_reported":1731748131,"current_range_meters":26800,"station_id":"ce4bgup2rcd13ifvqcn0","pricing_plan_id":"cebpf4jnsgd1na2vs0mg"},{"bike_id":"95189523-b163-438d-9cb1-f7dc4435500d","system_id":"levelo_inurba_marseille","lat":43.32341,"lon":5.4062,"is_reserved":false,"is_disabled":false,"rental_uris":{"android":"levelo://app?vid=95189523-b163-438d-9cb1-f7dc4435500d","ios":"levelo://app?vid=95189523-b163-438d-9cb1-f7dc4435500d"},"vehicle_type_id":"4","last_reported":1731748131,"current_range_meters":38800,"station_id":"ce4bhq92rcd13ifvqhjg","pricing_plan_id":"cebpf4jnsgd1na2vs0mg"},{"bike_id":"47f43dfc-59c6-4396-bb76-c1c6d8a5e236","system_id":"levelo_inurba_marseille","lat":43.27175,"lon":5.40992,"is_reserved":false,"is_disabled":false,"rental_uris":{"android":"levelo://app?vid=47f43dfc-59c6-4396-bb76-c1c6d8a5e236","ios":"levelo://app?vid=47f43dfc-59c6-4396-bb76-c1c6d8a5e236"},"vehicle_type_id":"4","last_reported":1731748131,"current_range_meters":34000,"station_id":"ce4bhl12rcd13ifvqgf0","pricing_plan_id":"cebpf4jnsgd1na2vs0mg"},{"bike_id":"50ae3ec0-9f46-43fd-819a-4c7a80c3cf46","system_id":"levelo_inurba_marseille","lat":43.28847,"lon":5.35837,"is_reserved":false,"is_disabled":false,"rental_uris":{"android":"levelo://app?vid=50ae3ec0-9f46-43fd-819a-4c7a80c3cf46","ios":"levelo://app?vid=50ae3ec0-9f46-43fd-819a-4c7a80c3cf46"},"vehicle_type_id":"4","last_reported":1731748131,"current_range_meters":36000,"station_id":"ce4bhb12rcd13ifvqem0","pricing_plan_id":"cebpf4jnsgd1na2vs0mg"},{"bike_id":"a1130508-dc94-420f-b14e-e0e0691dbc93","system_id":"levelo_inurba_marseille","lat":43.29039,"lon":5.39972,"is_reserved":false,"is_disabled":false,"rental_uris":{"android":"levelo://app?vid=a1130508-dc94-420f-b14e-e0e0691dbc93","ios":"levelo://app?vid=a1130508-dc94-420f-b14e-e0e0691dbc93"},"vehicle_type_id":"4","last_reported":1731748131,"current_range_meters":38400,"station_id":"ce4bh392rcd13ifvqdm0","pricing_plan_id":"cebpf4jnsgd1na2vs0mg"},{"bike_id":"6ef266d1-92eb-440d-9bcd-6ee947c0d029","system_id":"levelo_inurba_marseille","lat":43.27489,"lon":5.42454,"is_reserved":false,"is_disabled":false,"rental_uris":{"android":"levelo://app?vid=6ef266d1-92eb-440d-9bcd-6ee947c0d029","ios":"levelo://app?vid=6ef266d1-92eb-440d-9bcd-6ee947c0d029"},"vehicle_type_id":"4","last_reported":1731748131,"current_range_meters":39200,"station_id":"ce4bhn92rcd13ifvqgrg","pricing_plan_id":"cebpf4jnsgd1na2vs0mg"},{"bike_id":"ddf8bae8-6ac0-431e-8029-0a64d42392d0","system_id":"levelo_inurba_marseille","lat":43.27688,"lon":5.38899,"is_reserved":false,"is_disabled":false,"rental_uris":{"android":"levelo://app?vid=ddf8bae8-6ac0-431e-8029-0a64d42392d0","ios":"levelo://app?vid=ddf8bae8-6ac0-431e-8029-0a64d42392d0"},"vehicle_type_id":"4","last_reported":1731748131,"current_range_meters":22000,"station_id":"ce4bhi12rcd13ifvqfo0","pricing_plan_id":"cebpf4jnsgd1na2vs0mg"},{"bike_id":"1ae8fe75-00ad-479b-a755-74d45d76bfbe","system_id":"levelo_inurba_marseille","lat":43.2417,"lon":5.36402,"is_reserved":false,"is_disabled":false,"rental_uris":{"android":"levelo://app?vid=1ae8fe75-00ad-479b-a755-74d45d76bfbe","ios":"levelo://app?vid=1ae8fe75-00ad-479b-a755-74d45d76bfbe"},"vehicle_type_id":"4","last_reported":1731748131,"current_range_meters":6800,"station_id":"cpo36qri1sfpv3e86is0","pricing_plan_id":"cebpf4jnsgd1na2vs0mg"},{"bike_id":"8f018056-4187-4364-9be0-f1b257abef03","system_id":"levelo_inurba_marseille","lat":43.267827,"lon":5.393799,"is_reserved":false,"is_disabled":false,"rental_uris":{"android":"levelo://app?vid=8f018056-4187-4364-9be0-f1b257abef03","ios":"levelo://app?vid=8f018056-4187-4364-9be0-f1b257abef03"},"vehicle_type_id":"4","last_reported":1731748131,"current_range_meters":30000,"station_id":"ce4bhh12rcd13ifvqfg0","pricing_plan_id":"cebpf4jnsgd1na2vs0mg"},{"bike_id":"5aab0dbe-d2fd-4d0c-b42d-a61915bff56f","system_id":"levelo_inurba_marseille","lat":43.316947,"lon":5.436831,"is_reserved":false,"is_disabled":false,"rental_uris":{"android":"levelo://app?vid=5aab0dbe-d2fd-4d0c-b42d-a61915bff56f","ios":"levelo://app?vid=5aab0dbe-d2fd-4d0c-b42d-a61915bff56f"},"vehicle_type_id":"4","last_reported":1731748131,"current_range_meters":25200,"station_id":"ce4bhp92rcd13ifvqhcg","pricing_plan_id":"cebpf4jnsgd1na2vs0mg"},{"bike_id":"92ac4858-87d6-4ceb-8f6e-004635a816a8","system_id":"levelo_inurba_marseille","lat":43.27792,"lon":5.40724,"is_reserved":false,"is_disabled":false,"rental_uris":{"android":"levelo://app?vid=92ac4858-87d6-4ceb-8f6e-004635a816a8","ios":"levelo://app?vid=92ac4858-87d6-4ceb-8f6e-004635a816a8"},"vehicle_type_id":"4","last_reported":1731748131,"current_range_meters":32400,"station_id":"ce4bhnh2rcd13ifvqgtg","pricing_plan_id":"cebpf4jnsgd1na2vs0mg"},{"bike_id":"86618eb2-741f-4657-95a0-589bd8a02dd3","system_id":"levelo_inurba_marseille","lat":43.21526,"lon":5.3473,"is_reserved":false,"is_disabled":false,"rental_uris":{"android":"levelo://app?vid=86618eb2-741f-4657-95a0-589bd8a02dd3","ios":"levelo://app?vid=86618eb2-741f-4657-95a0-589bd8a02dd3"},"vehicle_type_id":"4","last_reported":1731748131,"current_range_meters":12000,"station_id":"","pricing_plan_id":"cebpf4jnsgd1na2vs0mg"},{"bike_id":"347c7842-b74d-475c-9f43-0b98799e9df1","system_id":"levelo_inurba_marseille","lat":43.32342,"lon":5.4062,"is_reserved":false,"is_disabled":false,"rental_uris":{"android":"levelo://app?vid=347c7842-b74d-475c-9f43-0b98799e9df1","ios":"levelo://app?vid=347c7842-b74d-475c-9f43-0b98799e9df1"},"vehicle_type_id":"4","last_reported":1731748131,"current_range_meters":38000,"station_id":"ce4bhq92rcd13ifvqhjg","pricing_plan_id":"cebpf4jnsgd1na2vs0mg"},{"bike_id":"92339f55-4225-4f7b-b2c1-9e56bc6b9324","system_id":"levelo_inurba_marseille","lat":43.30212,"lon":5.39462,"is_reserved":false,"is_disabled":false,"rental_uris":{"android":"levelo://app?vid=92339f55-4225-4f7b-b2c1-9e56bc6b9324","ios":"levelo://app?vid=92339f55-4225-4f7b-b2c1-9e56bc6b9324"},"vehicle_type_id":"4","last_reported":1731748131,"current_range_meters":38000,"station_id":"ce4bh0p2rcd13ifvqd70","pricing_plan_id":"cebpf4jnsgd1na2vs0mg"},{"bike_id":"4f9bbc6b-a988-43f8-bc00-4d944c1473b5","system_id":"levelo_inurba_marseille","lat":43.29925,"lon":5.36386,"is_reserved":false,"is_disabled":false,"rental_uris":{"android":"levelo://app?vid=4f9bbc6b-a988-43f8-bc00-4d944c1473b5","ios":"levelo://app?vid=4f9bbc6b-a988-43f8-bc00-4d944c1473b5"},"vehicle_type_id":"4","last_reported":1731748131,"current_range_meters":27200,"station_id":"","pricing_plan_id":"cebpf4jnsgd1na2vs0mg"},{"bike_id":"e79c1d71-1ce6-4d60-8fff-1fc1acef8ee4","system_id":"levelo_inurba_marseille","lat":43.23956,"lon":5.36629,"is_reserved":false,"is_disabled":false,"rental_uris":{"android":"levelo://app?vid=e79c1d71-1ce6-4d60-8fff-1fc1acef8ee4","ios":"levelo://app?vid=e79c1d71-1ce6-4d60-8fff-1fc1acef8ee4"},"vehicle_type_id":"4","last_reported":1731748131,"current_range_meters":25200,"station_id":"ce4bhi12rcd13ifvqfp0","pricing_plan_id":"cebpf4jnsgd1na2vs0mg"},{"bike_id":"fb97bb0c-c75a-41b8-9fcb-fd43145f0977","system_id":"levelo_inurba_marseille","lat":43.29366,"lon":5.37859,"is_reserved":false,"is_disabled":false,"rental_uris":{"android":"levelo://app?vid=fb97bb0c-c75a-41b8-9fcb-fd43145f0977","ios":"levelo://app?vid=fb97bb0c-c75a-41b8-9fcb-fd43145f0977"},"vehicle_type_id":"4","last_reported":1731748131,"current_range_meters":32800,"station_id":"ce4bgjh2rcd13ifvqbf0","pricing_plan_id":"cebpf4jnsgd1na2vs0mg"},{"bike_id":"a84f5389-258d-4508-9c0f-32ee5d326b43","system_id":"levelo_inurba_marseille","lat":43.337444,"lon":5.374475,"is_reserved":false,"is_disabled":false,"rental_uris":{"android":"levelo://app?vid=a84f5389-258d-4508-9c0f-32ee5d326b43","ios":"levelo://app?vid=a84f5389-258d-4508-9c0f-32ee5d326b43"},"vehicle_type_id":"4","last_reported":1731748131,"current_range_meters":35200,"station_id":"","pricing_plan_id":"cebpf4jnsgd1na2vs0mg"},{"bike_id":"bdda4347-118f-4304-b506-09b4b5e15b39","system_id":"levelo_inurba_marseille","lat":43.33726,"lon":5.3918,"is_reserved":false,"is_disabled":false,"rental_uris":{"android":"levelo://app?vid=bdda4347-118f-4304-b506-09b4b5e15b39","ios":"levelo://app?vid=bdda4347-118f-4304-b506-09b4b5e15b39"},"vehicle_type_id":"4","last_reported":1731748131,"current_range_meters":13600,"station_id":"ce4bhr92rcd13ifvqhsg","pricing_plan_id":"cebpf4jnsgd1na2vs0mg"},{"bike_id":"91cbf1b3-79cd-43ab-82da-608da995dd35","system_id":"levelo_inurba_marseille","lat":43.2749,"lon":5.42451,"is_reserved":false,"is_disabled":false,"rental_uris":{"android":"levelo://app?vid=91cbf1b3-79cd-43ab-82da-608da995dd35","ios":"levelo://app?vid=91cbf1b3-79cd-43ab-82da-608da995dd35"},"vehicle_type_id":"4","last_reported":1731748131,"current_range_meters":9600,"station_id":"ce4bhn92rcd13ifvqgrg","pricing_plan_id":"cebpf4jnsgd1na2vs0mg"},{"bike_id":"534e2d1d-6708-40cf-a2ac-3c344b20be68","system_id":"levelo_inurba_marseille","lat":43.25576,"lon":5.38237,"is_reserved":false,"is_disabled":false,"rental_uris":{"android":"levelo://app?vid=534e2d1d-6708-40cf-a2ac-3c344b20be68","ios":"levelo://app?vid=534e2d1d-6708-40cf-a2ac-3c344b20be68"},"vehicle_type_id":"4","last_reported":1731748131,"current_range_meters":21600,"station_id":"ce4bhih2rcd13ifvqfs0","pricing_plan_id":"cebpf4jnsgd1na2vs0mg"},{"bike_id":"24420a27-91b5-4a69-bca6-e715ce78c1dc","system_id":"levelo_inurba_marseille","lat":43.2467,"lon":5.38159,"is_reserved":false,"is_disabled":false,"rental_uris":{"android":"levelo://app?vid=24420a27-91b5-4a69-bca6-e715ce78c1dc","ios":"levelo://app?vid=24420a27-91b5-4a69-bca6-e715ce78c1dc"},"vehicle_type_id":"4","last_reported":1731748131,"current_range_meters":28000,"station_id":"ce4bhih2rcd13ifvqfr0","pricing_plan_id":"cebpf4jnsgd1na2vs0mg"},{"bike_id":"d587f5ab-6c02-49af-8310-e3764b3e0f49","system_id":"levelo_inurba_marseille","lat":43.30273,"lon":5.37719,"is_reserved":false,"is_disabled":false,"rental_uris":{"android":"levelo://app?vid=d587f5ab-6c02-49af-8310-e3764b3e0f49","ios":"levelo://app?vid=d587f5ab-6c02-49af-8310-e3764b3e0f49"},"vehicle_type_id":"4","last_reported":1731748131,"current_range_meters":29600,"station_id":"ce4bguh2rcd13ifvqcj0","pricing_plan_id":"cebpf4jnsgd1na2vs0mg"},{"bike_id":"eed0b17b-8ed0-4eb1-a580-b2834aeae7d4","system_id":"levelo_inurba_marseille","lat":43.26214,"lon":5.3744,"is_reserved":false,"is_disabled":false,"rental_uris":{"android":"levelo://app?vid=eed0b17b-8ed0-4eb1-a580-b2834aeae7d4","ios":"levelo://app?vid=eed0b17b-8ed0-4eb1-a580-b2834aeae7d4"},"vehicle_type_id":"4","last_reported":1731748131,"current_range_meters":18800,"station_id":"ce4bhgp2rcd13ifvqfc0","pricing_plan_id":"cebpf4jnsgd1na2vs0mg"},{"bike_id":"b5ce9235-4ffb-4d40-a9ab-7ab7ce5a79f6","system_id":"levelo_inurba_marseille","lat":43.24808,"lon":5.37455,"is_reserved":false,"is_disabled":false,"rental_uris":{"android":"levelo://app?vid=b5ce9235-4ffb-4d40-a9ab-7ab7ce5a79f6","ios":"levelo://app?vid=b5ce9235-4ffb-4d40-a9ab-7ab7ce5a79f6"},"vehicle_type_id":"4","last_reported":1731748131,"current_range_meters":38800,"station_id":"ce4bhgh2rcd13ifvqfb0","pricing_plan_id":"cebpf4jnsgd1na2vs0mg"},{"bike_id":"1905e423-9623-404a-bf2e-53fad8283f76","system_id":"levelo_inurba_marseille","lat":43.28424,"lon":5.34996,"is_reserved":false,"is_disabled":false,"rental_uris":{"android":"levelo://app?vid=1905e423-9623-404a-bf2e-53fad8283f76","ios":"levelo://app?vid=1905e423-9623-404a-bf2e-53fad8283f76"},"vehicle_type_id":"4","last_reported":1731748131,"current_range_meters":8000,"station_id":"ce4bhbh2rcd13ifvqepg","pricing_plan_id":"cebpf4jnsgd1na2vs0mg"},{"bike_id":"c82521ab-540e-43ee-bcde-77ae1b8e4629","system_id":"levelo_inurba_marseille","lat":43.29274,"lon":5.36843,"is_reserved":false,"is_disabled":false,"rental_uris":{"android":"levelo://app?vid=c82521ab-540e-43ee-bcde-77ae1b8e4629","ios":"levelo://app?vid=c82521ab-540e-43ee-bcde-77ae1b8e4629"},"vehicle_type_id":"4","last_reported":1731748131,"current_range_meters":38800,"station_id":"ce4bhbp2rcd13ifvqesg","pricing_plan_id":"cebpf4jnsgd1na2vs0mg"},{"bike_id":"650f63fe-9f16-47b2-8d39-c6d77dfc254f","system_id":"levelo_inurba_marseille","lat":43.29176,"lon":5.37142,"is_reserved":false,"is_disabled":false,"rental_uris":{"android":"levelo://app?vid=650f63fe-9f16-47b2-8d39-c6d77dfc254f","ios":"levelo://app?vid=650f63fe-9f16-47b2-8d39-c6d77dfc254f"},"vehicle_type_id":"4","last_reported":1731748131,"current_range_meters":23200,"station_id":"ce4bha92rcd13ifvqeh0","pricing_plan_id":"cebpf4jnsgd1na2vs0mg"},{"bike_id":"8a117838-bdc0-446c-8b4b-c1414f4e5ad0","system_id":"levelo_inurba_marseille","lat":43.29287,"lon":5.37449,"is_reserved":false,"is_disabled":false,"rental_uris":{"android":"levelo://app?vid=8a117838-bdc0-446c-8b4b-c1414f4e5ad0","ios":"levelo://app?vid=8a117838-bdc0-446c-8b4b-c1414f4e5ad0"},"vehicle_type_id":"4","last_reported":1731748131,"current_range_meters":37600,"station_id":"ce4bgi12rcd13ifvqb70","pricing_plan_id":"cebpf4jnsgd1na2vs0mg"},{"bike_id":"fa348bd0-549f-4b58-8f7c-171e7c39d6f6","system_id":"levelo_inurba_marseille","lat":43.32041,"lon":5.41574,"is_reserved":false,"is_disabled":false,"rental_uris":{"android":"levelo://app?vid=fa348bd0-549f-4b58-8f7c-171e7c39d6f6","ios":"levelo://app?vid=fa348bd0-549f-4b58-8f7c-171e7c39d6f6"},"vehicle_type_id":"4","last_reported":1731748131,"current_range_meters":25200,"station_id":"ce4bhq92rcd13ifvqhkg","pricing_plan_id":"cebpf4jnsgd1na2vs0mg"},{"bike_id":"6d6992bf-ade3-4a22-a168-306dafdc4544","system_id":"levelo_inurba_marseille","lat":43.24172,"lon":5.36393,"is_reserved":false,"is_disabled":false,"rental_uris":{"android":"levelo://app?vid=6d6992bf-ade3-4a22-a168-306dafdc4544","ios":"levelo://app?vid=6d6992bf-ade3-4a22-a168-306dafdc4544"},"vehicle_type_id":"4","last_reported":1731748131,"current_range_meters":34800,"station_id":"cpo36qri1sfpv3e86is0","pricing_plan_id":"cebpf4jnsgd1na2vs0mg"},{"bike_id":"0b89fbb5-ac77-4946-a538-9fec82f1712c","system_id":"levelo_inurba_marseille","lat":43.29873,"lon":5.39764,"is_reserved":false,"is_disabled":false,"rental_uris":{"android":"levelo://app?vid=0b89fbb5-ac77-4946-a538-9fec82f1712c","ios":"levelo://app?vid=0b89fbb5-ac77-4946-a538-9fec82f1712c"},"vehicle_type_id":"4","last_reported":1731748131,"current_range_meters":37600,"station_id":"ce4bh0h2rcd13ifvqd50","pricing_plan_id":"cebpf4jnsgd1na2vs0mg"},{"bike_id":"074c6971-4ae7-4906-8673-1607af29a7e1","system_id":"levelo_inurba_marseille","lat":43.25089,"lon":5.39513,"is_reserved":false,"is_disabled":false,"rental_uris":{"android":"levelo://app?vid=074c6971-4ae7-4906-8673-1607af29a7e1","ios":"levelo://app?vid=074c6971-4ae7-4906-8673-1607af29a7e1"},"vehicle_type_id":"4","last_reported":1731748131,"current_range_meters":34000,"station_id":"ce4bhm12rcd13ifvqgkg","pricing_plan_id":"cebpf4jnsgd1na2vs0mg"},