{"last_updated":1729242628,"ttl":60,"version":"2.2","data":{"bikes":[{"bike_id":"ca5b18bb-27c6-42b2-bdd7-c1e3c8f00e3b","system_id":"levelo_inurba_marseille","lat":43.28037,"lon":5.36958,"is_reserved":false,"is_disabled":false,"rental_uris":{"android":"levelo://app?vid=ca5b18bb-27c6-42b2-bdd7-c1e3c8f00e3b","ios":"levelo://app?vid=ca5b18bb-27c6-42b2-bdd7-c1e3c8f00e3b"},"vehicle_type_id":"4","last_reported":1729242628,"current_range_meters":12800,"station_id":"ce4bha12rcd13ifvqef0","pricing_plan_id":"cebpf4jnsgd1na2vs0mg"},{"bike_id":"676ec6c4-6b42-43e0-81fe-327782965da5","system_id":"levelo_inurba_marseille","lat":43.33765,"lon":5.37484,"is_reserved":false,"is_disabled":false,"rental_uris":{"android":"levelo://app?vid=676ec6c4-6b42-43e0-81fe-327782965da5","ios":"levelo://app?vid=676ec6c4-6b42-43e0-81fe-327782965da5"},"vehicle_type_id":"4","last_reported":1729242628,"current_range_meters":18800,"station_id":"","pricing_plan_id":"cebpf4jnsgd1na2vs0mg"},{"bike_id":"6a4825f9-836e-4d5f-9d12-ce86ca7136ce","system_id":"levelo_inurba_marseille","lat":43.231951,"lon":5.400001,"is_reserved":false,"is_disabled":false,"rental_uris":{"android":"levelo://app?vid=6a4825f9-836e-4d5f-9d12-ce86ca7136ce","ios":"levelo://app?vid=6a4825f9-836e-4d5f-9d12-ce86ca7136ce"},"vehicle_type_id":"4","last_reported":1729242628,"current_range_meters":38800,"station_id":"","pricing_plan_id":"cebpf4jnsgd1na2vs0mg"},{"bike_id":"1acf01a6-70d4-43ee-9625-7723a2a67f94","system_id":"levelo_inurba_marseille","lat":43.24183,"lon":5.39718,"is_reserved":false,"is_disabled":false,"rental_uris":{"android":"levelo://app?vid=1acf01a6-70d4-43ee-9625-7723a2a67f94","ios":"levelo://app?vid=1acf01a6-70d4-43ee-9625-7723a2a67f94"},"vehicle_type_id":"4","last_reported":1729242628,"current_range_meters":38000,"station_id":"ce4bhn12rcd13ifvqgpg","pricing_plan_id":"cebpf4jnsgd1na2vs0mg"},{"bike_id":"a763a547-a6c4-4b30-a2c8-3c79edc4371a","system_id":"levelo_inurba_marseille","lat":43.31357,"lon":5.36709,"is_reserved":false,"is_disabled":false,"rental_uris":{"android":"levelo://app?vid=a763a547-a6c4-4b30-a2c8-3c79edc4371a","ios":"levelo://app?vid=a763a547-a6c4-4b30-a2c8-3c79edc4371a"},"vehicle_type_id":"4","last_reported":1729242628,"current_range_meters":22400,"station_id":"ce4bgr92rcd13ifvqc6g","pricing_plan_id":"cebpf4jnsgd1na2vs0mg"},{"bike_id":"e52a4ccd-6055-4b27-a3f6-84dbc34b1101","system_id":"levelo_inurba_marseille","lat":43.32486,"lon":5.36562,"is_reserved":false,"is_disabled":false,"rental_uris":{"android":"levelo://app?vid=e52a4ccd-6055-4b27-a3f6-84dbc34b1101","ios":"levelo://app?vid=e52a4ccd-6055-4b27-a3f6-84dbc34b1101"},"vehicle_type_id":"4","last_reported":1729242628,"current_range_meters":31200,"station_id":"ce4bhs12rcd13ifvqhvg","pricing_plan_id":"cebpf4jnsgd1na2vs0mg"},{"bike_id":"cf30a138-86f7-4159-8eea-132a3e8b34e9","system_id":"levelo_inurba_marseille","lat":43.25939,"lon":5.40897,"is_reserved":false,"is_disabled":false,"rental_uris":{"android":"levelo://app?vid=cf30a138-86f7-4159-8eea-132a3e8b34e9","ios":"levelo://app?vid=cf30a138-86f7-4159-8eea-132a3e8b34e9"},"vehicle_type_id":"4","last_reported":1729242628,"current_range_meters":17600,"station_id":"ce4bhm92rcd13ifvqglg","pricing_plan_id":"cebpf4jnsgd1na2vs0mg"},{"bike_id":"5b115ef0-c9fd-4a4a-b3f2-35297206754e","system_id":"levelo_inurba_marseille","lat":43.301483,"lon":5.380933,"is_reserved":false,"is_disabled":false,"rental_uris":{"android":"levelo://app?vid=5b115ef0-c9fd-4a4a-b3f2-35297206754e","ios":"levelo://app?vid=5b115ef0-c9fd-4a4a-b3f2-35297206754e"},"vehicle_type_id":"4","last_reported":1729242628,"current_range_meters":38800,"station_id":"ce4bhh12rcd13ifvqfg0","pricing_plan_id":"cebpf4jnsgd1na2vs0mg"},{"bike_id":"25668d1a-6b94-4045-a721-d94eb38e1ae7","system_id":"levelo_inurba_marseille","lat":43.2736,"lon":5.36221,"is_reserved":false,"is_disabled":false,"rental_uris":{"android":"levelo://app?vid=25668d1a-6b94-4045-a721-d94eb38e1ae7","ios":"levelo://app?vid=25668d1a-6b94-4045-a721-d94eb38e1ae7"},"vehicle_type_id":"4","last_reported":1729242628,"current_range_meters":27600,"station_id":"ce4bhbh2rcd13ifvqeo0","pricing_plan_id":"cebpf4jnsgd1na2vs0mg"},{"bike_id":"dccf0f04-4e67-4c53-a7b2-6636b5a9de32","system_id":"levelo_inurba_marseille","lat":43.28136,"lon":5.42648,"is_reserved":false,"is_disabled":false,"rental_uris":{"android":"levelo://app?vid=dccf0f04-4e67-4c53-a7b2-6636b5a9de32","ios":"levelo://app?vid=dccf0f04-4e67-4c53-a7b2-6636b5a9de32"},"vehicle_type_id":"4","last_reported":1729242628,"current_range_meters":12800,"station_id":"ce4bhnh2rcd13ifvqgug","pricing_plan_id":"cebpf4jnsgd1na2vs0mg"},{"bike_id":"9e59a3fb-7ab2-4027-b776-69fc259c524a","system_id":"levelo_inurba_marseille","lat":43.3091,"lon":5.36852,"is_reserved":false,"is_disabled":false,"rental_uris":{"android":"levelo://app?vid=9e59a3fb-7ab2-4027-b776-69fc259c524a","ios":"levelo://app?vid=9e59a3fb-7ab2-4027-b776-69fc259c524a"},"vehicle_type_id":"4","last_reported":1729242628,"current_range_meters":37600,"station_id":"ce4bgn92rcd13ifvqbvg","pricing_plan_id":"cebpf4jnsgd1na2vs0mg"},{"bike_id":"0e9ad9af-e89b-412e-a7df-344fe8f113f7","system_id":"levelo_inurba_marseille","lat":43.25,"lon":5.38918,"is_reserved":false,"is_disabled":false,"rental_uris":{"android":"levelo://app?vid=0e9ad9af-e89b-412e-a7df-344fe8f113f7","ios":"levelo://app?vid=0e9ad9af-e89b-412e-a7df-344fe8f113f7"},"vehicle_type_id":"4","last_reported":1729242628,"current_range_meters":39200,"station_id":"ce4bhgp2rcd13ifvqfd0","pricing_plan_id":"cebpf4jnsgd1na2vs0mg"},{"bike_id":"91ac8fa7-b7c8-4143-be6d-e2ffbaedc096","system_id":"levelo_inurba_marseille","lat":43.27065,"lon":5.42269,"is_reserved":false,"is_disabled":false,"rental_uris":{"android":"levelo://app?vid=91ac8fa7-b7c8-4143-be6d-e2ffbaedc096","ios":"levelo://app?vid=91ac8fa7-b7c8-4143-be6d-e2ffbaedc096"},"vehicle_type_id":"4","last_reported":1729242628,"current_range_meters":35200,"station_id":"ce4bhk92rcd13ifvqgb0","pricing_plan_id":"cebpf4jnsgd1na2vs0mg"},{"bike_id":"a7181880-9168-4169-8927-4660f305fa5f","system_id":"levelo_inurba_marseille","lat":43.295144,"lon":5.383696,"is_reserved":false,"is_disabled":false,"rental_uris":{"android":"levelo://app?vid=a7181880-9168-4169-8927-4660f305fa5f","ios":"levelo://app?vid=a7181880-9168-4169-8927-4660f305fa5f"},"vehicle_type_id":"4","last_reported":1729242628,"current_range_meters":22000,"station_id":"ce4bgih2rcd13ifvqba0","pricing_plan_id":"cebpf4jnsgd1na2vs0mg"},{"bike_id":"191b113b-be16-492e-a876-32c12d6b048b","system_id":"levelo_inurba_marseille","lat":43.24085,"lon":5.37752,"is_reserved":false,"is_disabled":false,"rental_uris":{"android":"levelo://app?vid=191b113b-be16-492e-a876-32c12d6b048b","ios":"levelo://app?vid=191b113b-be16-492e-a876-32c12d6b048b"},"vehicle_type_id":"4","last_reported":1729242628,"current_range_meters":19200,"station_id":"ce4bhnp2rcd13ifvqgvg","pricing_plan_id":"cebpf4jnsgd1na2vs0mg"},{"bike_id":"665d2749-95f7-4b26-b26f-a382574abac4","system_id":"levelo_inurba_marseille","lat":43.29037,"lon":5.3757,"is_reserved":false,"is_disabled":false,"rental_uris":{"android":"levelo://app?vid=665d2749-95f7-4b26-b26f-a382574abac4","ios":"levelo://app?vid=665d2749-95f7-4b26-b26f-a382574abac4"},"vehicle_type_id":"4","last_reported":1729242628,"current_range_meters":19600,"station_id":"ce4bh692rcd13ifvqe90","pricing_plan_id":"cebpf4jnsgd1na2vs0mg"},{"bike_id":"ef00c94a-e76e-4e00-bfec-e40b8a260288","system_id":"levelo_inurba_marseille","lat":43.254871,"lon":5.376387,"is_reserved":false,"is_disabled":false,"rental_uris":{"android":"levelo://app?vid=ef00c94a-e76e-4e00-bfec-e40b8a260288","ios":"levelo://app?vid=ef00c94a-e76e-4e00-bfec-e40b8a260288"},"vehicle_type_id":"4","last_reported":1729242628,"current_range_meters":38400,"station_id":"ce4bhh12rcd13ifvqff0","pricing_plan_id":"cebpf4jnsgd1na2vs0mg"},{"bike_id":"a71414de-d2ee-4a17-94ea-50f620ba8558","system_id":"levelo_inurba_marseille","lat":43.28414,"lon":5.34989,"is_reserved":false,"is_disabled":false,"rental_uris":{"android":"levelo://app?vid=a71414de-d2ee-4a17-94ea-50f620ba8558","ios":"levelo://app?vid=a71414de-d2ee-4a17-94ea-50f620ba8558"},"vehicle_type_id":"4","last_reported":1729242628,"current_range_meters":38800,"station_id":"ce4bhbh2rcd13ifvqepg","pricing_plan_id":"cebpf4jnsgd1na2vs0mg"},{"bike_id":"29d12a33-823d-4548-bba6-ab22c89ac591","system_id":"levelo_inurba_marseille","lat":43.26688,"lon":5.38275,"is_reserved":false,"is_disabled":false,"rental_uris":{"android":"levelo://app?vid=29d12a33-823d-4548-bba6-ab22c89ac591","ios":"levelo://app?vid=29d12a33-823d-4548-bba6-ab22c89ac591"},"vehicle_type_id":"4","last_reported":1729242628,"current_range_meters":36800,"station_id":"ce4bhg92rcd13ifvqf90","pricing_plan_id":"cebpf4jnsgd1na2vs0mg"},{"bike_id":"88ed0f9f-e90c-4cb7-aed8-4122cf81bf11","system_id":"levelo_inurba_marseille","lat":43.26033,"lon":5.37553,"is_reserved":false,"is_disabled":false,"rental_uris":{"android":"levelo://app?vid=88ed0f9f-e90c-4cb7-aed8-4122cf81bf11","ios":"levelo://app?vid=88ed0f9f-e90c-4cb7-aed8-4122cf81bf11"},"vehicle_type_id":"4","last_reported":1729242628,"current_range_meters":37600,"station_id":"ce4bhgh2rcd13ifvqfa0","pricing_plan_id":"cebpf4jnsgd1na2vs0mg"},{"bike_id":"4ae2c184-8c50-452d-87fb-8f7bf4f540f3","system_id":"levelo_inurba_marseille","lat":43.2465,"lon":5.38898,"is_reserved":false,"is_disabled":false,"rental_uris":{"android":"levelo://app?vid=4ae2c184-8c50-452d-87fb-8f7bf4f540f3","ios":"levelo://app?vid=4ae2c184-8c50-452d-87fb-8f7bf4f540f3"},"vehicle_type_id":"4","last_reported":1729242628,"current_range_meters":38800,"station_id":"ce4bhg12rcd13ifvqf60","pricing_plan_id":"cebpf4jnsgd1na2vs0mg"},{"bike_id":"6e6ee871-e458-44f7-9ef6-5e5a7a38b8fd","system_id":"levelo_inurba_marseille","lat":43.30156,"lon":5.38076,"is_reserved":false,"is_disabled":false,"rental_uris":{"android":"levelo://app?vid=6e6ee871-e458-44f7-9ef6-5e5a7a38b8fd","ios":"levelo://app?vid=6e6ee871-e458-44f7-9ef6-5e5a7a38b8fd"},"vehicle_type_id":"4","last_reported":1729242628,"current_range_meters":8400,"station_id":"ce4bgjp2rcd13ifvqbh0","pricing_plan_id":"cebpf4jnsgd1na2vs0mg"},{"bike_id":"7599a32a-7ee5-4e62-94ba-7a46049e6f09","system_id":"levelo_inurba_marseille","lat":43.31222,"lon":5.36863,"is_reserved":false,"is_disabled":false,"rental_uris":{"android":"levelo://app?vid=7599a32a-7ee5-4e62-94ba-7a46049e6f09","ios":"levelo://app?vid=7599a32a-7ee5-4e62-94ba-7a46049e6f09"},"vehicle_type_id":"4","last_reported":1729242628,"current_range_meters":28000,"station_id":"ce4bgl92rcd13ifvqbq0","pricing_plan_id":"cebpf4jnsgd1na2vs0mg"},{"bike_id":"d0fae496-82f2-4fb9-80de-d49c86b5fd33","system_id":"levelo_inurba_marseille","lat":43.24542,"lon":5.39526,"is_reserved":false,"is_disabled":false,"rental_uris":{"android":"levelo://app?vid=d0fae496-82f2-4fb9-80de-d49c86b5fd33","ios":"levelo://app?vid=d0fae496-82f2-4fb9-80de-d49c86b5fd33"},"vehicle_type_id":"4","last_reported":1729242628,"current_range_meters":26000,"station_id":"ce4bhlp2rcd13ifvqgjg","pricing_plan_id":"cebpf4jnsgd1na2vs0mg"},{"bike_id":"9afb263a-558b-421d-9627-4f58cdff2889","system_id":"levelo_inurba_marseille","lat":43.2621,"lon":5.37439,"is_reserved":false,"is_disabled":false,"rental_uris":{"android":"levelo://app?vid=9afb263a-558b-421d-9627-4f58cdff2889","ios":"levelo://app?vid=9afb263a-558b-421d-9627-4f58cdff2889"},"vehicle_type_id":"4","last_reported":1729242628,"current_range_meters":6800,"station_id":"ce4bhgp2rcd13ifvqfc0","pricing_plan_id":"cebpf4jnsgd1na2vs0mg"},{"bike_id":"839aa7e4-61b1-4436-8b4d-894a908f3072","system_id":"levelo_inurba_marseille","lat":43.23195,"lon":5.43994,"is_reserved":false,"is_disabled":false,"rental_uris":{"android":"levelo://app?vid=839aa7e4-61b1-4436-8b4d-894a908f3072","ios":"levelo://app?vid=839aa7e4-61b1-4436-8b4d-894a908f3072"},"vehicle_type_id":"4","last_reported":1729242628,"current_range_meters":16400,"station_id":"","pricing_plan_id":"cebpf4jnsgd1na2vs0mg"},{"bike_id":"192e3e20-ee48-496f-9bab-bbaa7861c4a5","system_id":"levelo_inurba_marseille","lat":43.30075,"lon":5.39089,"is_reserved":false,"is_disabled":false,"rental_uris":{"android":"levelo://app?vid=192e3e20-ee48-496f-9bab-bbaa7861c4a5","ios":"levelo://app?vid=192e3e20-ee48-496f-9bab-bbaa7861c4a5"},"vehicle_type_id":"4","last_reported":1729242628,"current_range_meters":12800,"station_id":"ce4bh192rcd13ifvqdb0","pricing_plan_id":"cebpf4jnsgd1na2vs0mg"},{"bike_id":"d5d87b96-496a-454b-9e81-b0e5a09c72cf","system_id":"levelo_inurba_marseille","lat":43.28613,"lon":5.37061,"is_reserved":false,"is_disabled":false,"rental_uris":{"android":"levelo://app?vid=d5d87b96-496a-454b-9e81-b0e5a09c72cf","ios":"levelo://app?vid=d5d87b96-496a-454b-9e81-b0e5a09c72cf"},"vehicle_type_id":"4","last_reported":1729242628,"current_range_meters":38000,"station_id":"ce4bht12rcd13ifvqi60","pricing_plan_id":"cebpf4jnsgd1na2vs0mg"},{"bike_id":"052b3563-392a-4857-8174-027696f961ab","system_id":"levelo_inurba_marseille","lat":43.24647,"lon":5.38902,"is_reserved":false,"is_disabled":false,"rental_uris":{"android":"levelo://app?vid=052b3563-392a-4857-8174-027696f961ab","ios":"levelo://app?vid=052b3563-392a-4857-8174-027696f961ab"},"vehicle_type_id":"4","last_reported":1729242628,"current_range_meters":19200,"station_id":"ce4bhg12rcd13ifvqf60","pricing_plan_id":"cebpf4jnsgd1na2vs0mg"},{"bike_id":"c664c061-e4f3-4e88-a3b3-53b8afa76dc4","system_id":"levelo_inurba_marseille","lat":43.3248,"lon":5.36558,"is_reserved":false,"is_disabled":false,"rental_uris":{"android":"levelo://app?vid=c664c061-e4f3-4e88-a3b3-53b8afa76dc4","ios":"levelo://app?vid=c664c061-e4f3-4e88-a3b3-53b8afa76dc4"},"vehicle_type_id":"4","last_reported":1729242628,"current_range_meters":11600,"station_id":"ce4bhs12rcd13ifvqhvg","pricing_plan_id":"cebpf4jnsgd1na2vs0mg"},{"bike_id":"fab51718-1e50-43f2-bc78-cc5a955e6f32","system_id":"levelo_inurba_marseille","lat":43.33602,"lon":5.41037,"is_reserved":false,"is_disabled":false,"rental_uris":{"android":"levelo://app?vid=fab51718-1e50-43f2-bc78-cc5a955e6f32","ios":"levelo://app?vid=fab51718-1e50-43f2-bc78-cc5a955e6f32"},"vehicle_type_id":"4","last_reported":1729242628,"current_range_meters":15200,"station_id":"ce4bhqh2rcd13ifvqhmg","pricing_plan_id":"cebpf4jnsgd1na2vs0mg"},{"bike_id":"7d36d83b-7a79-4a90-8df5-e4148c62cab3","system_id":"levelo_inurba_marseille","lat":43.31222,"lon":5.36855,"is_reserved":false,"is_disabled":false,"rental_uris":{"android":"levelo://app?vid=7d36d83b-7a79-4a90-8df5-e4148c62cab3","ios":"levelo://app?vid=7d36d83b-7a79-4a90-8df5-e4148c62cab3"},"vehicle_type_id":"4","last_reported":1729242628,"current_range_meters":38000,"station_id":"ce4bgl92rcd13ifvqbq0","pricing_plan_id":"cebpf4jnsgd1na2vs0mg"},{"bike_id":"14bc89c2-4375-4488-91e8-1027b3555b6b","system_id":"levelo_inurba_marseille","lat":43.24541,"lon":5.39525,"is_reserved":false,"is_disabled":false,"rental_uris":{"android":"levelo://app?vid=14bc89c2-4375-4488-91e8-1027b3555b6b","ios":"levelo://app?vid=14bc89c2-4375-4488-91e8-1027b3555b6b"},"vehicle_type_id":"4","last_reported":1729242628,"current_range_meters":38800,"station_id":"ce4bhlp2rcd13ifvqgjg","pricing_plan_id":"cebpf4jnsgd1na2vs0mg"},{"bike_id":"c746da30-0175-4c63-8cc4-f4d0284e8127","system_id":"levelo_inurba_marseille","lat":43.23965,"lon":5.36635,"is_reserved":false,"is_disabled":false,"rental_uris":{"android":"levelo://app?vid=c746da30-0175-4c63-8cc4-f4d0284e8127","ios":"levelo://app?vid=c746da30-0175-4c63-8cc4-f4d0284e8127"},"vehicle_type_id":"4","last_reported":1729242628,"current_range_meters":22800,"station_id":"ce4bhi12rcd13ifvqfp0","pricing_plan_id":"cebpf4jnsgd1na2vs0mg"},{"bike_id":"f07684b1-6069-4a5c-9ce5-0c950567924c","system_id":"levelo_inurba_marseille","lat":43.279,"lon":5.38008,"is_reserved":false,"is_disabled":false,"rental_uris":{"android":"levelo://app?vid=f07684b1-6069-4a5c-9ce5-0c950567924c","ios":"levelo://app?vid=f07684b1-6069-4a5c-9ce5-0c950567924c"},"vehicle_type_id":"4","last_reported":1729242628,"current_range_meters":36000,"station_id":"ce4bhf92rcd13ifvqf50","pricing_plan_id":"cebpf4jnsgd1na2vs0mg"},{"bike_id":"e7d75125-58b0-446b-b44e-62ba00bfa2e5","system_id":"levelo_inurba_marseille","lat":43.28157,"lon":5.42647,"is_reserved":false,"is_disabled":false,"rental_uris":{"android":"levelo://app?vid=e7d75125-58b0-446b-b44e-62ba00bfa2e5","ios":"levelo://app?vid=e7d75125-58b0-446b-b44e-62ba00bfa2e5"},"vehicle_type_id":"4","last_reported":1729242628,"current_range_meters":37600,"station_id":"ce4bhnh2rcd13ifvqgug","pricing_plan_id":"cebpf4jnsgd1na2vs0mg"},{"bike_id":"278c2e6f-55c5-418e-802c-4af4cd9f1665","system_id":"levelo_inurba_marseille","lat":43.32481,"lon":5.36561,"is_reserved":false,"is_disabled":false,"rental_uris":{"android":"levelo://app?vid=278c2e6f-55c5-418e-802c-4af4cd9f1665","ios":"levelo://app?vid=278c2e6f-55c5-418e-802c-4af4cd9f1665"},"vehicle_type_id":"4","last_reported":1729242628,"current_range_meters":9600,"station_id":"ce4bhs12rcd13ifvqhvg","pricing_plan_id":"cebpf4jnsgd1na2vs0mg"},{"bike_id":"01674856-3d83-4a8e-b735-4c38ec423468","system_id":"levelo_inurba_marseille","lat":43.32537,"lon":5.41435,"is_reserved":false,"is_disabled":false,"rental_uris":{"android":"levelo://app?vid=01674856-3d83-4a8e-b735-4c38ec423468","ios":"levelo://app?vid=01674856-3d83-4a8e-b735-4c38ec423468"},"vehicle_type_id":"4","last_reported":1729242628,"current_range_meters":12000,"station_id":"ce4bhq12rcd13ifvqhhg","pricing_plan_id":"cebpf4jnsgd1na2vs0mg"},{"bike_id":"d6d4b5f8-3577-4e3e-95a7-9ae2ed7d0866","system_id":"levelo_inurba_marseille","lat":43.30872,"lon":5.39651,"is_reserved":false,"is_disabled":false,"rental_uris":{"android":"levelo://app?vid=d6d4b5f8-3577-4e3e-95a7-9ae2ed7d0866","ios":"levelo://app?vid=d6d4b5f8-3577-4e3e-95a7-9ae2ed7d0866"},"vehicle_type_id":"4","last_reported":1729242628,"current_range_meters":28800,"station_id":"ce4bh012rcd13ifvqcv0","pricing_plan_id":"cebpf4jnsgd1na2vs0mg"},{"bike_id":"9bc751c2-897b-42a3-8a10-36f8a493bb07","system_id":"levelo_inurba_marseille","lat":43.27497,"lon":5.42454,"is_reserved":false,"is_disabled":false,"rental_uris":{"android":"levelo://app?vid=9bc751c2-897b-42a3-8a10-36f8a493bb07","ios":"levelo://app?vid=9bc751c2-897b-42a3-8a10-36f8a493bb07"},"vehicle_type_id":"4","last_reported":1729242628,"current_range_meters":10800,"station_id":"ce4bhn92rcd13ifvqgrg","pricing_plan_id":"cebpf4jnsgd1na2vs0mg"},{"bike_id":"4361f052-08fb-4f1b-8a0a-4061ece8354c","system_id":"levelo_inurba_marseille","lat":43.32483,"lon":5.36566,"is_reserved":false,"is_disabled":false,"rental_uris":{"android":"levelo://app?vid=4361f052-08fb-4f1b-8a0a-4061ece8354c","ios":"levelo://app?vid=4361f052-08fb-4f1b-8a0a-4061ece8354c"},"vehicle_type_id":"4","last_reported":1729242628,"current_range_meters":2800,"station_id":"ce4bhs12rcd13ifvqhvg","pricing_plan_id":"cebpf4jnsgd1na2vs0mg"},{"bike_id":"ed078362-42fc-4c79-9dd9-752630de6df4","system_id":"levelo_inurba_marseille","lat":43.28261,"lon":5.35064,"is_reserved":false,"is_disabled":false,"rental_uris":{"android":"levelo://app?vid=ed078362-42fc-4c79-9dd9-752630de6df4","ios":"levelo://app?vid=ed078362-42fc-4c79-9dd9-752630de6df4"},"vehicle_type_id":"4","last_reported":1729242628,"current_range_meters":37600,"station_id":"ce4bhbp2rcd13ifvqerg","pricing_plan_id":"cebpf4jnsgd1na2vs0mg"},{"bike_id":"9b35a191-4e77-4685-9e4a-94a1f02b6f28","system_id":"levelo_inurba_marseille","lat":43.27821,"lon":5.39207,"is_reserved":false,"is_disabled":false,"rental_uris":{"android":"levelo://app?vid=9b35a191-4e77-4685-9e4a-94a1f02b6f28","ios":"levelo://app?vid=9b35a191-4e77-4685-9e4a-94a1f02b6f28"},"vehicle_type_id":"4","last_reported":1729242628,"current_range_meters":31200,"station_id":"ce4bhjp2rcd13ifvqga0","pricing_plan_id":"cebpf4jnsgd1na2vs0mg"},{"bike_id":"6263be57-0fc0-4c12-a63b-da5f6339bbe3","system_id":"levelo_inurba_marseille","lat":43.25933,"lon":5.40916,"is_reserved":false,"is_disabled":false,"rental_uris":{"android":"levelo://app?vid=6263be57-0fc0-4c12-a63b-da5f6339bbe3","ios":"levelo://app?vid=6263be57-0fc0-4c12-a63b-da5f6339bbe3"},"vehicle_type_id":"4","last_reported":1729242628,"current_range_meters":27600,"station_id":"ce4bhm92rcd13ifvqglg","pricing_plan_id":"cebpf4jnsgd1na2vs0mg"},{"bike_id":"6e60fdae-a74b-4dfd-9071-9aaff09f45f2","system_id":"levelo_inurba_marseille","lat":43.29224,"lon":5.36064,"is_reserved":false,"is_disabled":false,"rental_uris":{"android":"levelo://app?vid=6e60fdae-a74b-4dfd-9071-9aaff09f45f2","ios":"levelo://app?vid=6e60fdae-a74b-4dfd-9071-9aaff09f45f2"},"vehicle_type_id":"4","last_reported":1729242628,"current_range_meters":28000,"station_id":"ce4bhbh2rcd13ifvqeqg","pricing_plan_id":"cebpf4jnsgd1na2vs0mg"},{"bike_id":"3cc9ca15-d23c-4891-9216-c134fa816eb8","system_id":"levelo_inurba_marseille","lat":43.24171,"lon":5.39724,"is_reserved":false,"is_disabled":false,"rental_uris":{"android":"levelo://app?vid=3cc9ca15-d23c-4891-9216-c134fa816eb8","ios":"levelo://app?vid=3cc9ca15-d23c-4891-9216-c134fa816eb8"},"vehicle_type_id":"4","last_reported":1729242628,"current_range_meters":28400,"station_id":"ce4bhn12rcd13ifvqgpg","pricing_plan_id":"cebpf4jnsgd1na2vs0mg"},{"bike_id":"2cdc1722-bbbd-4809-b0f9-3f52e41762bc","system_id":"levelo_inurba_marseille","lat":43.2749,"lon":5.42456,"is_reserved":false,"is_disabled":false,"rental_uris":{"android":"levelo://app?vid=2cdc1722-bbbd-4809-b0f9-3f52e41762bc","ios":"levelo://app?vid=2cdc1722-bbbd-4809-b0f9-3f52e41762bc"},"vehicle_type_id":"4","last_reported":1729242628,"current_range_meters":38800,"station_id":"ce4bhn92rcd13ifvqgrg","pricing_plan_id":"cebpf4jnsgd1na2vs0mg"},{"bike_id":"57b1dc49-6a81-434f-8366-5acf1ca9eff1","system_id":"levelo_inurba_marseille","lat":43.2749,"lon":5.42458,"is_reserved":false,"is_disabled":false,"rental_uris":{"android":"levelo://app?vid=57b1dc49-6a81-434f-8366-5acf1ca9eff1","ios":"levelo://app?vid=57b1dc49-6a81-434f-8366-5acf1ca9eff1"},"vehicle_type_id":"4","last_reported":1729242628,"current_range_meters":26800,"station_id":"ce4bhn92rcd13ifvqgrg","pricing_plan_id":"cebpf4jnsgd1na2vs0mg"},{"bike_id":"5a71258d-15df-4a4e-bb61-67cfd14fba4a","system_id":"levelo_inurba_marseille","lat":43.29226,"lon":5.36071,"is_reserved":false,"is_disabled":false,"rental_uris":{"android":"levelo://app?vid=5a71258d-15df-4a4e-bb61-67cfd14fba4a","ios":"levelo://app?vid=5a71258d-15df-4a4e-bb61-67cfd14fba4a"},"vehicle_type_id":"4","last_reported":1729242628,"current_range_meters":18000,"station_id":"ce4bhbh2rcd13ifvqeqg","pricing_plan_id":"cebpf4jnsgd1na2vs0mg"},{"bike_id":"7473fe9f-b28e-4624-a085-92b4bbae5db4","system_id":"levelo_inurba_marseille","lat":43.29001,"lon":5.35613,"is_reserved":false,"is_disabled":false,"rental_uris":{"android":"levelo://app?vid=7473fe9f-b28e-4624-a085-92b4bbae5db4","ios":"levelo://app?vid=7473fe9f-b28e-4624-a085-92b4bbae5db4"},"vehicle_type_id":"4","last_reported":1729242628,"current_range_meters":36400,"station_id":"ce4bhb92rcd13ifvqen0","pricing_plan_id":"cebpf4jnsgd1na2vs0mg"},{"bike_id":"a6de2d8f-4ce9-4376-b614-a9136f70032c","system_id":"levelo_inurba_marseille","lat":43.32543,"lon":5.414424,"is_reserved":false,"is_disabled":false,"rental_uris":{"android":"levelo://app?vid=a6de2d8f-4ce9-4376-b614-a9136f70032c","ios":"levelo://app?vid=a6de2d8f-4ce9-4376-b614-a9136f70032c"},"vehicle_type_id":"4","last_reported":1729242628,"current_range_meters":4400,"station_id":"ce4bhq12rcd13ifvqhhg","pricing_plan_id":"cebpf4jnsgd1na2vs0mg"},{"bike_id":"a21a4076-2382-4a76-a725-5253e8a6c4fc","system_id":"levelo_inurba_marseille","lat":43.28964,"lon":5.37825,"is_reserved":false,"is_disabled":false,"rental_uris":{"android":"levelo://app?vid=a21a4076-2382-4a76-a725-5253e8a6c4fc","ios":"levelo://app?vid=a21a4076-2382-4a76-a725-5253e8a6c4fc"},"vehicle_type_id":"4","last_reported":1729242628,"current_range_meters":38800,"station_id":"ce4bh9p2rcd13ifvqed0","pricing_plan_id":"cebpf4jnsgd1na2vs0mg"},{"bike_id":"b8951c7b-a93b-4535-9474-84658cb54f8b","system_id":"levelo_inurba_marseille","lat":43.29914,"lon":5.37478,"is_reserved":false,"is_disabled":false,"rental_uris":{"android":"levelo://app?vid=b8951c7b-a93b-4535-9474-84658cb54f8b","ios":"levelo://app?vid=b8951c7b-a93b-4535-9474-84658cb54f8b"},"vehicle_type_id":"4","last_reported":1729242628,"current_range_meters":38800,"station_id":"ce4bgjh2rcd13ifvqbg0","pricing_plan_id":"cebpf4jnsgd1na2vs0mg"},{"bike_id":"3d7546d0-4dba-4212-88c9-dfe9a2032237","system_id":"levelo_inurba_marseille","lat":43.24163,"lon":5.36397,"is_reserved":false,"is_disabled":false,"rental_uris":{"android":"levelo://app?vid=3d7546d0-4dba-4212-88c9-dfe9a2032237","ios":"levelo://app?vid=3d7546d0-4dba-4212-88c9-dfe9a2032237"},"vehicle_type_id":"4","last_reported":1729242628,"current_range_meters":38400,"station_id":"cpo36qri1sfpv3e86is0","pricing_plan_id":"cebpf4jnsgd1na2vs0mg"},{"bike_id":"3e25a8a8-58e3-4ad7-8c96-673c39fc7675","system_id":"levelo_inurba_marseille","lat":43.32287,"lon":5.38285,"is_reserved":false,"is_disabled":false,"rental_uris":{"android":"levelo://app?vid=3e25a8a8-58e3-4ad7-8c96-673c39fc7675","ios":"levelo://app?vid=3e25a8a8-58e3-4ad7-8c96-673c39fc7675"},"vehicle_type_id":"4","last_reported":1729242628,"current_range_meters":38400,"station_id":"ce4bhr12rcd13ifvqhqg","pricing_plan_id":"cebpf4jnsgd1na2vs0mg"},{"bike_id":"8835d514-1673-4d0d-bde1-e7c43d95fa77","system_id":"levelo_inurba_marseille","lat":43.29198,"lon":5.35801,"is_reserved":false,"is_disabled":false,"rental_uris":{"android":"levelo://app?vid=8835d514-1673-4d0d-bde1-e7c43d95fa77","ios":"levelo://app?vid=8835d514-1673-4d0d-bde1-e7c43d95fa77"},"vehicle_type_id":"4","last_reported":1729242628,"current_range_meters":22400,"station_id":"ce4bhb12rcd13ifvqel0","pricing_plan_id":"cebpf4jnsgd1na2vs0mg"},{"bike_id":"25573e2f-a445-4919-a85f-8daef7637352","system_id":"levelo_inurba_marseille","lat":43.30806,"lon":5.43523,"is_reserved":false,"is_disabled":false,"rental_uris":{"android":"levelo://app?vid=25573e2f-a445-4919-a85f-8daef7637352","ios":"levelo://app?vid=25573e2f-a445-4919-a85f-8daef7637352"},"vehicle_type_id":"4","last_reported":1729242628,"current_range_meters":33600,"station_id":"ce4bhph2rcd13ifvqheg","pricing_plan_id":"cebpf4jnsgd1na2vs0mg"},{"bike_id":"ceba77e4-817d-4911-8717-9b4015e9cd05","system_id":"levelo_inurba_marseille","lat":43.23146,"lon":5.43723,"is_reserved":false,"is_disabled":false,"rental_uris":{"android":"levelo://app?vid=ceba77e4-817d-4911-8717-9b4015e9cd05","ios":"levelo://app?vid=ceba77e4-817d-4911-8717-9b4015e9cd05"},"vehicle_type_id":"4","last_reported":1729242628,"current_range_meters":25600,"station_id":"ce4bhmp2rcd13ifvqgog","pricing_plan_id":"cebpf4jnsgd1na2vs0mg"},{"bike_id":"2a3e6989-f84c-4379-ae87-1b77f03971bf","system_id":"levelo_inurba_marseille","lat":43.28989,"lon":5.38829,"is_reserved":false,"is_disabled":false,"rental_uris":{"android":"levelo://app?vid=2a3e6989-f84c-4379-ae87-1b77f03971bf","ios":"levelo://app?vid=2a3e6989-f84c-4379-ae87-1b77f03971bf"},"vehicle_type_id":"4","last_reported":1729242628,"current_range_meters":18800,"station_id":"","pricing_plan_id":"cebpf4jnsgd1na2vs0mg"},{"bike_id":"90b7df2b-2805-4913-a745-07d80216980c","system_id":"levelo_inurba_marseille","lat":43.30809,"lon":5.43526,"is_reserved":false,"is_disabled":false,"rental_uris":{"android":"levelo://app?vid=90b7df2b-2805-4913-a745-07d80216980c","ios":"levelo://app?vid=90b7df2b-2805-4913-a745-07d80216980c"},"vehicle_type_id":"4","last_reported":1729242628,"current_range_meters":12400,"station_id":"ce4bhph2rcd13ifvqheg","pricing_plan_id":"cebpf4jnsgd1na2vs0mg"},{"bike_id":"32ce68a3-3fc7-4257-974f-ab657619c295","system_id":"levelo_inurba_marseille","lat":43.33744,"lon":5.3745,"is_reserved":false,"is_disabled":false,"rental_uris":{"android":"levelo://app?vid=32ce68a3-3fc7-4257-974f-ab657619c295","ios":"levelo://app?vid=32ce68a3-3fc7-4257-974f-ab657619c295"},"vehicle_type_id":"4","last_reported":1729242628,"current_range_meters":23200,"station_id":"","pricing_plan_id":"cebpf4jnsgd1na2vs0mg"},{"bike_id":"e16104e8-1c66-49d2-85a0-75e556dae417","system_id":"levelo_inurba_marseille","lat":43.25497,"lon":5.37645,"is_reserved":false,"is_disabled":false,"rental_uris":{"android":"levelo://app?vid=e16104e8-1c66-49d2-85a0-75e556dae417","ios":"levelo://app?vid=e16104e8-1c66-49d2-85a0-75e556dae417"},"vehicle_type_id":"4","last_reported":1729242628,"current_range_meters":30000,"station_id":"ce4bhh12rcd13ifvqff0","pricing_plan_id":"cebpf4jnsgd1na2vs0mg"},{"bike_id":"bbf4bc62-2aae-49ae-b779-d4253b940c56","system_id":"levelo_inurba_marseille","lat":43.31355,"lon":5.36698,"is_reserved":false,"is_disabled":false,"rental_uris":{"android":"levelo://app?vid=bbf4bc62-2aae-49ae-b779-d4253b940c56","ios":"levelo://app?vid=bbf4bc62-2aae-49ae-b779-d4253b940c56"},"vehicle_type_id":"4","last_reported":1729242628,"current_range_meters":12800,"station_id":"ce4bgr92rcd13ifvqc6g","pricing_plan_id":"cebpf4jnsgd1na2vs0mg"},{"bike_id":"52c8eb13-7c11-4cd0-a2fd-39c3c51b85d9","system_id":"levelo_inurba_marseille","lat":43.23147,"lon":5.43682,"is_reserved":false,"is_disabled":false,"rental_uris":{"android":"levelo://app?vid=52c8eb13-7c11-4cd0-a2fd-39c3c51b85d9","ios":"levelo://app?vid=52c8eb13-7c11-4cd0-a2fd-39c3c51b85d9"},"vehicle_type_id":"4","last_reported":1729242628,"current_range_meters":16000,"station_id":"ce4bhmp2rcd13ifvqgog","pricing_plan_id":"cebpf4jnsgd1na2vs0mg"},{"bike_id":"555ff3cf-777b-4ff4-b149-9575fc002950","system_id":"levelo_inurba_marseille","lat":43.24175,"lon":5.39729,"is_reserved":false,"is_disabled":false,"rental_uris":{"android":"levelo://app?vid=555ff3cf-777b-4ff4-b149-9575fc002950","ios":"levelo://app?vid=555ff3cf-777b-4ff4-b149-9575fc002950"},"vehicle_type_id":"4","last_reported":1729242628,"current_range_meters":32800,"station_id":"ce4bhn12rcd13ifvqgpg","pricing_plan_id":"cebpf4jnsgd1na2vs0mg"},{"bike_id":"b64362e2-b043-4f67-8e42-f68524e828ed","system_id":"levelo_inurba_marseille","lat":43.24176,"lon":5.39708,"is_reserved":false,"is_disabled":false,"rental_uris":{"android":"levelo://app?vid=b64362e2-b043-4f67-8e42-f68524e828ed","ios":"levelo://app?vid=b64362e2-b043-4f67-8e42-f68524e828ed"},"vehicle_type_id":"4","last_reported":1729242628,"current_range_meters":25600,"station_id":"ce4bhn12rcd13ifvqgpg","pricing_plan_id":"cebpf4jnsgd1na2vs0mg"},{"bike_id":"fa7bbdc9-afbe-404d-8676-647037cc76a9","system_id":"levelo_inurba_marseille","lat":43.23193,"lon":5.35546,"is_reserved":false,"is_disabled":false,"rental_uris":{"android":"levelo://app?vid=fa7bbdc9-afbe-404d-8676-647037cc76a9","ios":"levelo://app?vid=fa7bbdc9-afbe-404d-8676-647037cc76a9"},"vehicle_type_id":"4","last_reported":1729242628,"current_range_meters":29600,"station_id":"ce4bhu92rcd13ifvqi70","pricing_plan_id":"cebpf4jnsgd1na2vs0mg"},{"bike_id":"090a631f-25bf-4ca2-b5e4-c2ed8415d21b","system_id":"levelo_inurba_marseille","lat":43.28713,"lon":5.37949,"is_reserved":false,"is_disabled":false,"rental_uris":{"android":"levelo://app?vid=090a631f-25bf-4ca2-b5e4-c2ed8415d21b","ios":"levelo://app?vid=090a631f-25bf-4ca2-b5e4-c2ed8415d21b"},"vehicle_type_id":"4","last_reported":1729242628,"current_range_meters":31200,"station_id":"ce4bh9p2rcd13ifvqec0","pricing_plan_id":"cebpf4jnsgd1na2vs0mg"},{"bike_id":"9c5c28a1-f91b-4a31-a081-7760d2214cc3","system_id":"levelo_inurba_marseille","lat":43.33023,"lon":5.39039,"is_reserved":false,"is_disabled":false,"rental_uris":{"android":"levelo://app?vid=9c5c28a1-f91b-4a31-a081-7760d2214cc3","ios":"levelo://app?vid=9c5c28a1-f91b-4a31-a081-7760d2214cc3"},"vehicle_type_id":"4","last_reported":1729242628,"current_range_meters":38000,"station_id":"ce4bhr92rcd13ifvqhrg","pricing_plan_id":"cebpf4jnsgd1na2vs0mg"},{"bike_id":"f8d2e239-573b-4f9d-8955-e6720aa9663e","system_id":"levelo_inurba_marseille","lat":43.24647,"lon":5.38897,"is_reserved":false,"is_disabled":false,"rental_uris":{"android":"levelo://app?vid=f8d2e239-573b-4f9d-8955-e6720aa9663e","ios":"levelo://app?vid=f8d2e239-573b-4f9d-8955-e6720aa9663e"},"vehicle_type_id":"4","last_reported":1729242628,"current_range_meters":32400,"station_id":"ce4bhg12rcd13ifvqf60","pricing_plan_id":"cebpf4jnsgd1na2vs0mg"},{"bike_id":"812af5d1-830a-4cbe-99b4-e18aa226599d","system_id":"levelo_inurba_marseille","lat":43.31217,"lon":5.36855,"is_reserved":false,"is_disabled":false,"rental_uris":{"android":"levelo://app?vid=812af5d1-830a-4cbe-99b4-e18aa226599d","ios":"levelo://app?vid=812af5d1-830a-4cbe-99b4-e18aa226599d"},"vehicle_type_id":"4","last_reported":1729242628,"current_range_meters":14400,"station_id":"ce4bgl92rcd13ifvqbq0","pricing_plan_id":"cebpf4jnsgd1na2vs0mg"},{"bike_id":"76247823-f5da-4e69-a748-430804141594","system_id":"levelo_inurba_marseille","lat":43.31353,"lon":5.36713,"is_reserved":false,"is_disabled":false,"rental_uris":{"android":"levelo://app?vid=76247823-f5da-4e69-a748-430804141594","ios":"levelo://app?vid=76247823-f5da-4e69-a748-430804141594"},"vehicle_type_id":"4","last_reported":1729242628,"current_range_meters":38800,"station_id":"ce4bgr92rcd13ifvqc6g","pricing_plan_id":"cebpf4jnsgd1na2vs0mg"},{"bike_id":"8c1ec6cb-2291-4814-837b-be8625c706f3","system_id":"levelo_inurba_marseille","lat":43.23196,"lon":5.35543,"is_reserved":false,"is_disabled":false,"rental_uris":{"android":"levelo://app?vid=8c1ec6cb-2291-4814-837b-be8625c706f3","ios":"levelo://app?vid=8c1ec6cb-2291-4814-837b-be8625c706f3"},"vehicle_type_id":"4","last_reported":1729242628,"current_range_meters":33600,"station_id":"ce4bhu92rcd13ifvqi70","pricing_plan_id":"cebpf4jnsgd1na2vs0mg"},{"bike_id":"e05a8545-65f7-4cf3-8739-ba534517b4f3","system_id":"levelo_inurba_marseille","lat":43.27369,"lon":5.36258,"is_reserved":false,"is_disabled":false,"rental_uris":{"android":"levelo://app?vid=e05a8545-65f7-4cf3-8739-ba534517b4f3","ios":"levelo://app?vid=e05a8545-65f7-4cf3-8739-ba534517b4f3"},"vehicle_type_id":"4","last_reported":1729242628,"current_range_meters":29600,"station_id":"","pricing_plan_id":"cebpf4jnsgd1na2vs0mg"},{"bike_id":"109e6c8a-0c97-4977-80dc-2ed128d130e9","system_id":"levelo_inurba_marseille","lat":43.2695,"lon":5.38636,"is_reserved":false,"is_disabled":false,"rental_uris":{"android":"levelo://app?vid=109e6c8a-0c97-4977-80dc-2ed128d130e9","ios":"levelo://app?vid=109e6c8a-0c97-4977-80dc-2ed128d130e9"},"vehicle_type_id":"4","last_reported":1729242628,"current_range_meters":30400,"station_id":"ce4bhh92rcd13ifvqfh0","pricing_plan_id":"cebpf4jnsgd1na2vs0mg"},{"bike_id":"6ce128d0-71ce-4c58-ae1a-8d708484dc59","system_id":"levelo_inurba_marseille","lat":43.27822,"lon":5.39208,"is_reserved":false,"is_disabled":false,"rental_uris":{"android":"levelo://app?vid=6ce128d0-71ce-4c58-ae1a-8d708484dc59","ios":"levelo://app?vid=6ce128d0-71ce-4c58-ae1a-8d708484dc59"},"vehicle_type_id":"4","last_reported":1729242628,"current_range_meters":12400,"station_id":"ce4bhjp2rcd13ifvqga0","pricing_plan_id":"cebpf4jnsgd1na2vs0mg"},{"bike_id":"a888429d-808c-4a3c-9631-547beb254692","system_id":"levelo_inurba_marseille","lat":43.33607,"lon":5.41033,"is_reserved":false,"is_disabled":false,"rental_uris":{"android":"levelo://app?vid=a888429d-808c-4a3c-9631-547beb254692","ios":"levelo://app?vid=a888429d-808c-4a3c-9631-547beb254692"},"vehicle_type_id":"4","last_reported":1729242628,"current_range_meters":24000,"station_id":"ce4bhqh2rcd13ifvqhmg","pricing_plan_id":"cebpf4jnsgd1na2vs0mg"},{"bike_id":"22f00d5a-70ee-48ed-a43d-aa5efd39ff8b","system_id":"levelo_inurba_marseille","lat":43.24998,"lon":5.38928,"is_reserved":false,"is_disabled":false,"rental_uris":{"android":"levelo://app?vid=22f00d5a-70ee-48ed-a43d-aa5efd39ff8b","ios":"levelo://app?vid=22f00d5a-70ee-48ed-a43d-aa5efd39ff8b"},"vehicle_type_id":"4","last_reported":1729242628,"current_range_meters":39200,"station_id":"ce4bhgp2rcd13ifvqfd0","pricing_plan_id":"cebpf4jnsgd1na2vs0mg"},{"bike_id":"c89c2319-61a9-47ef-9229-e31c9eaab143","system_id":"levelo_inurba_marseille","lat":43.23201,"lon":5.35544,"is_reserved":false,"is_disabled":false,"rental_uris":{"android":"levelo://app?vid=c89c2319-61a9-47ef-9229-e31c9eaab143","ios":"levelo://app?vid=c89c2319-61a9-47ef-9229-e31c9eaab143"},"vehicle_type_id":"4","last_reported":1729242628,"current_range_meters":36800,"station_id":"ce4bhu92rcd13ifvqi70","pricing_plan_id":"cebpf4jnsgd1na2vs0mg"},{"bike_id":"15a59784-d515-4a97-ab9b-90e02c51b4d1","system_id":"levelo_inurba_marseille","lat":43.24991,"lon":5.38943,"is_reserved":false,"is_disabled":false,"rental_uris":{"android":"levelo://app?vid=15a59784-d515-4a97-ab9b-90e02c51b4d1","ios":"levelo://app?vid=15a59784-d515-4a97-ab9b-90e02c51b4d1"},"vehicle_type_id":"4","last_reported":1729242628,"current_range_meters":7200,"station_id":"ce4bhgp2rcd13ifvqfd0","pricing_plan_id":"cebpf4jnsgd1na2vs0mg"},{"bike_id":"680d5672-1ea4-4084-aba7-e3e9965ce1cb","system_id":"levelo_inurba_marseille","lat":43.25579,"lon":5.38225,"is_reserved":false,"is_disabled":false,"rental_uris":{"android":"levelo://app?vid=680d5672-1ea4-4084-aba7-e3e9965ce1cb","ios":"levelo://app?vid=680d5672-1ea4-4084-aba7-e3e9965ce1cb"},"vehicle_type_id":"4","last_reported":1729242628,"current_range_meters":8000,"station_id":"ce4bhih2rcd13ifvqfs0","pricing_plan_id":"cebpf4jnsgd1na2vs0mg"},{"bike_id":"50512e6f-94c2-4f29-b314-756c2ed9df77","system_id":"levelo_inurba_marseille","lat":43.27804,"lon":5.40707,"is_reserved":false,"is_disabled":false,"rental_uris":{"android":"levelo://app?vid=50512e6f-94c2-4f29-b314-756c2ed9df77","ios":"levelo://app?vid=50512e6f-94c2-4f29-b314-756c2ed9df77"},"vehicle_type_id":"4","last_reported":1729242628,"current_range_meters":11200,"station_id":"ce4bhnh2rcd13ifvqgtg","pricing_plan_id":"cebpf4jnsgd1na2vs0mg"},{"bike_id":"a14cfc8d-fbbd-40b0-aa99-e624d97946a6","system_id":"levelo_inurba_marseille","lat":43.30804,"lon":5.43521,"is_reserved":false,"is_disabled":false,"rental_uris":{"android":"levelo://app?vid=a14cfc8d-fbbd-40b0-aa99-e624d97946a6","ios":"levelo://app?vid=a14cfc8d-fbbd-40b0-aa99-e624d97946a6"},"vehicle_type_id":"4","last_reported":1729242628,"current_range_meters":28800,"station_id":"ce4bhph2rcd13ifvqheg","pricing_plan_id":"cebpf4jnsgd1na2vs0mg"},{"bike_id":"829ff204-f1fe-4f37-b928-9d0b522468d2","system_id":"levelo_inurba_marseille","lat":43.29066,"lon":5.37157,"is_reserved":false,"is_disabled":false,"rental_uris":{"android":"levelo://app?vid=829ff204-f1fe-4f37-b928-9d0b522468d2","ios":"levelo://app?vid=829ff204-f1fe-4f37-b928-9d0b522468d2"},"vehicle_type_id":"4","last_reported":1729242628,"current_range_meters":39200,"station_id":"ce4bh5p2rcd13ifvqe4g","pricing_plan_id":"cebpf4jnsgd1na2vs0mg"},{"bike_id":"bc9bc908-6def-484c-b46d-0c91cd1df203","system_id":"levelo_inurba_marseille","lat":43.23183,"lon":5.3999,"is_reserved":false,"is_disabled":false,"rental_uris":{"android":"levelo://app?vid=bc9bc908-6def-484c-b46d-0c91cd1df203","ios":"levelo://app?vid=bc9bc908-6def-484c-b46d-0c91cd1df203"},"vehicle_type_id":"4","last_reported":1729242628,"current_range_meters":23200,"station_id":"ce4bhn12rcd13ifvqgqg","pricing_plan_id":"cebpf4jnsgd1na2vs0mg"},{"bike_id":"874494de-7452-4f47-9fec-c5ec79478035","system_id":"levelo_inurba_marseille","lat":43.23969,"lon":5.3663,"is_reserved":false,"is_disabled":false,"rental_uris":{"android":"levelo://app?vid=874494de-7452-4f47-9fec-c5ec79478035","ios":"levelo://app?vid=874494de-7452-4f47-9fec-c5ec79478035"},"vehicle_type_id":"4","last_reported":1729242628,"current_range_meters":24800,"station_id":"ce4bhi12rcd13ifvqfp0","pricing_plan_id":"cebpf4jnsgd1na2vs0mg"},{"bike_id":"8b33911e-5d42-46bd-b00d-c1d5ce72f577","system_id":"levelo_inurba_marseille","lat":43.23193,"lon":5.39985,"is_reserved":false,"is_disabled":false,"rental_uris":{"android":"levelo://app?vid=8b33911e-5d42-46bd-b00d-c1d5ce72f577","ios":"levelo://app?vid=8b33911e-5d42-46bd-b00d-c1d5ce72f577"},"vehicle_type_id":"4","last_reported":1729242628,"current_range_meters":38800,"station_id":"ce4bhn12rcd13ifvqgqg","pricing_plan_id":"cebpf4jnsgd1na2vs0mg"},{"bike_id":"dc0da2d3-2c1d-4293-a8b2-bd1f0dcaae8e","system_id":"levelo_inurba_marseille","lat":43.24543,"lon":5.39523,"is_reserved":false,"is_disabled":false,"rental_uris":{"android":"levelo://app?vid=dc0da2d3-2c1d-4293-a8b2-bd1f0dcaae8e","ios":"levelo://app?vid=dc0da2d3-2c1d-4293-a8b2-bd1f0dcaae8e"},"vehicle_type_id":"4","last_reported":1729242628,"current_range_meters":18800,"station_id":"ce4bhlp2rcd13ifvqgjg","pricing_plan_id":"cebpf4jnsgd1na2vs0mg"},{"bike_id":"dc77f620-0f38-47e2-a0b6-f3f4efccc0fa","system_id":"levelo_inurba_marseille","lat":43.29014,"lon":5.3561,"is_reserved":false,"is_disabled":false,"rental_uris":{"android":"levelo://app?vid=dc77f620-0f38-47e2-a0b6-f3f4efccc0fa","ios":"levelo://app?vid=dc77f620-0f38-47e2-a0b6-f3f4efccc0fa"},"vehicle_type_id":"4","last_reported":1729242628,"current_range_meters":31200,"station_id":"ce4bhb92rcd13ifvqen0","pricing_plan_id":"cebpf4jnsgd1na2vs0mg"},{"bike_id":"b87f9f5e-58eb-4c9d-a532-529a7f767e15","system_id":"levelo_inurba_marseille","lat":43.31355,"lon":5.36688,"is_reserved":false,"is_disabled":false,"rental_uris":{"android":"levelo://app?vid=b87f9f5e-58eb-4c9d-a532-529a7f767e15","ios":"levelo://app?vid=b87f9f5e-58eb-4c9d-a532-529a7f767e15"},"vehicle_type_id":"4","last_reported":1729242628,"current_range_meters":31200,"station_id":"ce4bgr92rcd13ifvqc6g","pricing_plan_id":"cebpf4jnsgd1na2vs0mg"},{"bike_id":"e0225aaf-ac0b-47af-b6b5-2853b0372b55","system_id":"levelo_inurba_marseille","lat":43.299828,"lon":5.371834,"is_reserved":false,"is_disabled":false,"rental_uris":{"android":"levelo://app?vid=e0225aaf-ac0b-47af-b6b5-2853b0372b55","ios":"levelo://app?vid=e0225aaf-ac0b-47af-b6b5-2853b0372b55"},"vehicle_type_id":"4","last_reported":1729242628,"current_range_meters":35600,"station_id":"ce4bgr92rcd13ifvqc7g","pricing_plan_id":"cebpf4jnsgd1na2vs0mg"},{"bike_id":"6dd67ec1-d844-4dbe-831d-85c3fcafe8d6","system_id":"levelo_inurba_marseille","lat":43.26206,"lon":5.37923,"is_reserved":false,"is_disabled":false,"rental_uris":{"android":"levelo://app?vid=6dd67ec1-d844-4dbe-831d-85c3fcafe8d6","ios":"levelo://app?vid=6dd67ec1-d844-4dbe-831d-85c3fcafe8d6"},"vehicle_type_id":"4","last_reported":1729242628,"current_range_meters":24000,"station_id":"ce4bhjp2rcd13ifvqg90","pricing_plan_id":"cebpf4jnsgd1na2vs0mg"},{"bike_id":"0994d7f0-fa2e-480f-b967-2b1e1b476b78","system_id":"levelo_inurba_marseille","lat":43.23189,"lon":5.35561,"is_reserved":false,"is_disabled":false,"rental_uris":{"android":"levelo://app?vid=0994d7f0-fa2e-480f-b967-2b1e1b476b78","ios":"levelo://app?vid=0994d7f0-fa2e-480f-b967-2b1e1b476b78"},"vehicle_type_id":"4","last_reported":1729242628,"current_range_meters":9200,"station_id":"ce4bhu92rcd13ifvqi70","pricing_plan_id":"cebpf4jnsgd1na2vs0mg"},{"bike_id":"cafacf31-3dc4-4662-b543-8a143108fe4d","system_id":"levelo_inurba_marseille","lat":43.23188,"lon":5.39977,"is_reserved":false,"is_disabled":false,"rental_uris":{"android":"levelo://app?vid=cafacf31-3dc4-4662-b543-8a143108fe4d","ios":"levelo://app?vid=cafacf31-3dc4-4662-b543-8a143108fe4d"},"vehicle_type_id":"4","last_reported":1729242628,"current_range_meters":19200,"station_id":"ce4bhn12rcd13ifvqgqg","pricing_plan_id":"cebpf4jnsgd1na2vs0mg"},{"bike_id":"22c39253-4373-4654-b8d6-6dd622f66580","system_id":"levelo_inurba_marseille","lat":43.32544,"lon":5.41432,"is_reserved":false,"is_disabled":false,"rental_uris":{"android":"levelo://app?vid=22c39253-4373-4654-b8d6-6dd622f66580","ios":"levelo://app?vid=22c39253-4373-4654-b8d6-6dd622f66580"},"vehicle_type_id":"4","last_reported":1729242628,"current_range_meters":28800,"station_id":"ce4bhq12rcd13ifvqhhg","pricing_plan_id":"cebpf4jnsgd1na2vs0mg"},{"bike_id":"66ccc46d-618e-4760-b09c-27382152bdab","system_id":"levelo_inurba_marseille","lat":43.23195,"lon":5.35537,"is_reserved":false,"is_disabled":false,"rental_uris":{"android":"levelo://app?vid=66ccc46d-618e-4760-b09c-27382152bdab","ios":"levelo://app?vid=66ccc46d-618e-4760-b09c-27382152bdab"},"vehicle_type_id":"4","last_reported":1729242628,"current_range_meters":28800,"station_id":"ce4bhu92rcd13ifvqi70","pricing_plan_id":"cebpf4jnsgd1na2vs0mg"},{"bike_id":"af5ff28d-5a35-4f8c-9fc0-e6233fbc3f13","system_id":"levelo_inurba_marseille","lat":43.28269,"lon":5.35072,"is_reserved":false,"is_disabled":false,"rental_uris":{"android":"levelo://app?vid=af5ff28d-5a35-4f8c-9fc0-e6233fbc3f13","ios":"levelo://app?vid=af5ff28d-5a35-4f8c-9fc0-e6233fbc3f13"},"vehicle_type_id":"4","last_reported":1729242628,"current_range_meters":36800,"station_id":"ce4bhbp2rcd13ifvqerg","pricing_plan_id":"cebpf4jnsgd1na2vs0mg"},{"bike_id":"90ef554a-562f-4354-b348-105982ad6bd9","system_id":"levelo_inurba_marseille","lat":43.29729,"lon":5.36611,"is_reserved":false,"is_disabled":false,"rental_uris":{"android":"levelo://app?vid=90ef554a-562f-4354-b348-105982ad6bd9","ios":"levelo://app?vid=90ef554a-562f-4354-b348-105982ad6bd9"},"vehicle_type_id":"4","last_reported":1729242628,"current_range_meters":22000,"station_id":"ce4bgn12rcd13ifvqbt0","pricing_plan_id":"cebpf4jnsgd1na2vs0mg"},{"bike_id":"8d1d68ae-541e-432d-a4f0-5bb6be4a00fd","system_id":"levelo_inurba_marseille","lat":43.296448,"lon":5.377673,"is_reserved":false,"is_disabled":false,"rental_uris":{"android":"levelo://app?vid=8d1d68ae-541e-432d-a4f0-5bb6be4a00fd","ios":"levelo://app?vid=8d1d68ae-541e-432d-a4f0-5bb6be4a00fd"},"vehicle_type_id":"4","last_reported":1729242628,"current_range_meters":27600,"station_id":"ce4bgi92rcd13ifvqb90","pricing_plan_id":"cebpf4jnsgd1na2vs0mg"},{"bike_id":"8d481af8-b62c-4acc-a2e6-1539cd665ab7","system_id":"levelo_inurba_marseille","lat":43.274887,"lon":5.42455,"is_reserved":false,"is_disabled":false,"rental_uris":{"android":"levelo://app?vid=8d481af8-b62c-4acc-a2e6-1539cd665ab7","ios":"levelo://app?vid=8d481af8-b62c-4acc-a2e6-1539cd665ab7"},"vehicle_type_id":"4","last_reported":1729242628,"current_range_meters":24000,"station_id":"ce4bhn92rcd13ifvqgrg","pricing_plan_id":"cebpf4jnsgd1na2vs0mg"},{"bike_id":"f6790c1b-cc22-40ca-ad1b-b64474bb715e","system_id":"levelo_inurba_marseille","lat":43.28069,"lon":5.39661,"is_reserved":false,"is_disabled":false,"rental_uris":{"android":"levelo://app?vid=f6790c1b-cc22-40ca-ad1b-b64474bb715e","ios":"levelo://app?vid=f6790c1b-cc22-40ca-ad1b-b64474bb715e"},"vehicle_type_id":"4","last_reported":1729242628,"current_range_meters":28000,"station_id":"ce4bho12rcd13ifvqh2g","pricing_plan_id":"cebpf4jnsgd1na2vs0mg"},{"bike_id":"8cbdd426-a12a-47c4-b2a3-fd3954d9a5a7","system_id":"levelo_inurba_marseille","lat":43.25868,"lon":5.39896,"is_reserved":false,"is_disabled":false,"rental_uris":{"android":"levelo://app?vid=8cbdd426-a12a-47c4-b2a3-fd3954d9a5a7","ios":"levelo://app?vid=8cbdd426-a12a-47c4-b2a3-fd3954d9a5a7"},"vehicle_type_id":"4","last_reported":1729242628,"current_range_meters":7200,"station_id":"ce4bhl92rcd13ifvqghg","pricing_plan_id":"cebpf4jnsgd1na2vs0mg"},{"bike_id":"72ce77f7-81c8-49a3-8760-dfcdc23fbddb","system_id":"levelo_inurba_marseille","lat":43.27071,"lon":5.42281,"is_reserved":false,"is_disabled":false,"rental_uris":{"android":"levelo://app?vid=72ce77f7-81c8-49a3-8760-dfcdc23fbddb","ios":"levelo://app?vid=72ce77f7-81c8-49a3-8760-dfcdc23fbddb"},"vehicle_type_id":"4","last_reported":1729242628,"current_range_meters":26000,"station_id":"ce4bhk92rcd13ifvqgb0","pricing_plan_id":"cebpf4jnsgd1na2vs0mg"},{"bike_id":"fc262b45-2b88-4d3d-8020-e7c946d1fec3","system_id":"levelo_inurba_marseille","lat":43.32113,"lon":5.36772,"is_reserved":false,"is_disabled":false,"rental_uris":{"android":"levelo://app?vid=fc262b45-2b88-4d3d-8020-e7c946d1fec3","ios":"levelo://app?vid=fc262b45-2b88-4d3d-8020-e7c946d1fec3"},"vehicle_type_id":"4","last_reported":1729242628,"current_range_meters":38400,"station_id":"ce4bhrh2rcd13ifvqhug","pricing_plan_id":"cebpf4jnsgd1na2vs0mg"},{"bike_id":"d7992096-705f-4c05-a4cb-e8657ad3ee19","system_id":"levelo_inurba_marseille","lat":43.31355,"lon":5.36709,"is_reserved":false,"is_disabled":false,"rental_uris":{"android":"levelo://app?vid=d7992096-705f-4c05-a4cb-e8657ad3ee19","ios":"levelo://app?vid=d7992096-705f-4c05-a4cb-e8657ad3ee19"},"vehicle_type_id":"4","last_reported":1729242628,"current_range_meters":31200,"station_id":"ce4bgr92rcd13ifvqc6g","pricing_plan_id":"cebpf4jnsgd1na2vs0mg"},{"bike_id":"2a8d8e0d-09f4-4ada-9e2b-a6718972e982","system_id":"levelo_inurba_marseille","lat":43.23151,"lon":5.43711,"is_reserved":false,"is_disabled":false,"rental_uris":{"android":"levelo://app?vid=2a8d8e0d-09f4-4ada-9e2b-a6718972e982","ios":"levelo://app?vid=2a8d8e0d-09f4-4ada-9e2b-a6718972e982"},"vehicle_type_id":"4","last_reported":1729242628,"current_range_meters":19600,"station_id":"ce4bhmp2rcd13ifvqgog","pricing_plan_id":"cebpf4jnsgd1na2vs0mg"},{"bike_id":"907d90e2-7e08-4846-bbc2-01977b54a9bd","system_id":"levelo_inurba_marseille","lat":43.24168,"lon":5.36392,"is_reserved":false,"is_disabled":false,"rental_uris":{"android":"levelo://app?vid=907d90e2-7e08-4846-bbc2-01977b54a9bd","ios":"levelo://app?vid=907d90e2-7e08-4846-bbc2-01977b54a9bd"},"vehicle_type_id":"4","last_reported":1729242628,"current_range_meters":18800,"station_id":"cpo36qri1sfpv3e86is0","pricing_plan_id":"cebpf4jnsgd1na2vs0mg"},{"bike_id":"30a8ae44-ff1f-42e4-8eb9-cbdb3a8301c3","system_id":"levelo_inurba_marseille","lat":43.30112,"lon":5.39088,"is_reserved":false,"is_disabled":false,"rental_uris":{"android":"levelo://app?vid=30a8ae44-ff1f-42e4-8eb9-cbdb3a8301c3","ios":"levelo://app?vid=30a8ae44-ff1f-42e4-8eb9-cbdb3a8301c3"},"vehicle_type_id":"4","last_reported":1729242628,"current_range_meters":24800,"station_id":"ce4bh192rcd13ifvqdb0","pricing_plan_id":"cebpf4jnsgd1na2vs0mg"},{"bike_id":"b3e91c9f-d86a-45b0-844d-6fa223033368","system_id":"levelo_inurba_marseille","lat":43.26203,"lon":5.37925,"is_reserved":false,"is_disabled":false,"rental_uris":{"android":"levelo://app?vid=b3e91c9f-d86a-45b0-844d-6fa223033368","ios":"levelo://app?vid=b3e91c9f-d86a-45b0-844d-6fa223033368"},"vehicle_type_id":"4","last_reported":1729242628,"current_range_meters":25600,"station_id":"ce4bhjp2rcd13ifvqg90","pricing_plan_id":"cebpf4jnsgd1na2vs0mg"},{"bike_id":"c22871e7-5721-4a9e-9097-0cbe25c29139","system_id":"levelo_inurba_marseille","lat":43.26198,"lon":5.37931,"is_reserved":false,"is_disabled":false,"rental_uris":{"android":"levelo://app?vid=c22871e7-5721-4a9e-9097-0cbe25c29139","ios":"levelo://app?vid=c22871e7-5721-4a9e-9097-0cbe25c29139"},"vehicle_type_id":"4","last_reported":1729242628,"current_range_meters":29600,"station_id":"ce4bhjp2rcd13ifvqg90","pricing_plan_id":"cebpf4jnsgd1na2vs0mg"},{"bike_id":"d5453104-4e26-49cc-8e26-384ccaaff964","system_id":"levelo_inurba_marseille","lat":43.2655,"lon":5.37278,"is_reserved":false,"is_disabled":false,"rental_uris":{"android":"levelo://app?vid=d5453104-4e26-49cc-8e26-384ccaaff964","ios":"levelo://app?vid=d5453104-4e26-49cc-8e26-384ccaaff964"},"vehicle_type_id":"4","last_reported":1729242628,"current_range_meters":31200,"station_id":"ce4bhg12rcd13ifvqf70","pricing_plan_id":"cebpf4jnsgd1na2vs0mg"},{"bike_id":"2db49f82-1252-4071-9057-14d5eafb22c3","system_id":"levelo_inurba_marseille","lat":43.27492,"lon":5.4245,"is_reserved":false,"is_disabled":false,"rental_uris":{"android":"levelo://app?vid=2db49f82-1252-4071-9057-14d5eafb22c3","ios":"levelo://app?vid=2db49f82-1252-4071-9057-14d5eafb22c3"},"vehicle_type_id":"4","last_reported":1729242628,"current_range_meters":30000,"station_id":"ce4bhn92rcd13ifvqgrg","pricing_plan_id":"cebpf4jnsgd1na2vs0mg"},{"bike_id":"944e2bb0-4607-411f-9364-8bb6f04a2a7f","system_id":"levelo_inurba_marseille","lat":43.26795,"lon":5.39414,"is_reserved":false,"is_disabled":false,"rental_uris":{"android":"levelo://app?vid=944e2bb0-4607-411f-9364-8bb6f04a2a7f","ios":"levelo://app?vid=944e2bb0-4607-411f-9364-8bb6f04a2a7f"},"vehicle_type_id":"4","last_reported":1729242628,"current_range_meters":23200,"station_id":"ce4bhh12rcd13ifvqfg0","pricing_plan_id":"cebpf4jnsgd1na2vs0mg"},{"bike_id":"5d0ffe76-8325-4e22-b066-41597301d918","system_id":"levelo_inurba_marseille","lat":43.298739,"lon":5.397319,"is_reserved":false,"is_disabled":false,"rental_uris":{"android":"levelo://app?vid=5d0ffe76-8325-4e22-b066-41597301d918","ios":"levelo://app?vid=5d0ffe76-8325-4e22-b066-41597301d918"},"vehicle_type_id":"4","last_reported":1729242628,"current_range_meters":38400,"station_id":"ce4bh0h2rcd13ifvqd50","pricing_plan_id":"cebpf4jnsgd1na2vs0mg"},{"bike_id":"a3faf5c9-cbef-47cc-9340-f02e2ab20b0e","system_id":"levelo_inurba_marseille","lat":43.28457,"lon":5.35886,"is_reserved":false,"is_disabled":false,"rental_uris":{"android":"levelo://app?vid=a3faf5c9-cbef-47cc-9340-f02e2ab20b0e","ios":"levelo://app?vid=a3faf5c9-cbef-47cc-9340-f02e2ab20b0e"},"vehicle_type_id":"4","last_reported":1729242628,"current_range_meters":32000,"station_id":"ce4bhah2rcd13ifvqei0","pricing_plan_id":"cebpf4jnsgd1na2vs0mg"},{"bike_id":"94dad7f8-6585-4b37-b691-74420d23ef13","system_id":"levelo_inurba_marseille","lat":43.30799,"lon":5.43522,"is_reserved":false,"is_disabled":false,"rental_uris":{"android":"levelo://app?vid=94dad7f8-6585-4b37-b691-74420d23ef13","ios":"levelo://app?vid=94dad7f8-6585-4b37-b691-74420d23ef13"},"vehicle_type_id":"4","last_reported":1729242628,"current_range_meters":36800,"station_id":"ce4bhph2rcd13ifvqheg","pricing_plan_id":"cebpf4jnsgd1na2vs0mg"},{"bike_id":"ac711575-16fa-4173-b0a6-0952979f5018","system_id":"levelo_inurba_marseille","lat":43.2968,"lon":5.37292,"is_reserved":false,"is_disabled":false,"rental_uris":{"android":"levelo://app?vid=ac711575-16fa-4173-b0a6-0952979f5018","ios":"levelo://app?vid=ac711575-16fa-4173-b0a6-0952979f5018"},"vehicle_type_id":"4","last_reported":1729242628,"current_range_meters":39200,"station_id":"ce4bgk12rcd13ifvqbj0","pricing_plan_id":"cebpf4jnsgd1na2vs0mg"},{"bike_id":"4562e9bb-7c1e-4e0e-95e1-858d0f8d86d1","system_id":"levelo_inurba_marseille","lat":43.23195,"lon":5.35555,"is_reserved":false,"is_disabled":false,"rental_uris":{"android":"levelo://app?vid=4562e9bb-7c1e-4e0e-95e1-858d0f8d86d1","ios":"levelo://app?vid=4562e9bb-7c1e-4e0e-95e1-858d0f8d86d1"},"vehicle_type_id":"4","last_reported":1729242628,"current_range_meters":36000,"station_id":"ce4bhu92rcd13ifvqi70","pricing_plan_id":"cebpf4jnsgd1na2vs0mg"},{"bike_id":"87952883-0bcf-4e99-b227-c8f0f0ecaad4","system_id":"levelo_inurba_marseille","lat":43.30545,"lon":5.36536,"is_reserved":false,"is_disabled":false,"rental_uris":{"android":"levelo://app?vid=87952883-0bcf-4e99-b227-c8f0f0ecaad4","ios":"levelo://app?vid=87952883-0bcf-4e99-b227-c8f0f0ecaad4"},"vehicle_type_id":"4","last_reported":1729242628,"current_range_meters":29600,"station_id":"ce4bgs12rcd13ifvqcag","pricing_plan_id":"cebpf4jnsgd1na2vs0mg"},{"bike_id":"ecfa67fe-1cff-4b31-bb4d-97907e44a8b7","system_id":"levelo_inurba_marseille","lat":43.30545,"lon":5.36708,"is_reserved":false,"is_disabled":false,"rental_uris":{"android":"levelo://app?vid=ecfa67fe-1cff-4b31-bb4d-97907e44a8b7","ios":"levelo://app?vid=ecfa67fe-1cff-4b31-bb4d-97907e44a8b7"},"vehicle_type_id":"4","last_reported":1729242628,"current_range_meters":26800,"station_id":"ce4bgrp2rcd13ifvqc9g","pricing_plan_id":"cebpf4jnsgd1na2vs0mg"},{"bike_id":"6837ac97-30a8-4145-8047-b6d6df61ac48","system_id":"levelo_inurba_marseille","lat":43.23185,"lon":5.39993,"is_reserved":false,"is_disabled":false,"rental_uris":{"android":"levelo://app?vid=6837ac97-30a8-4145-8047-b6d6df61ac48","ios":"levelo://app?vid=6837ac97-30a8-4145-8047-b6d6df61ac48"},"vehicle_type_id":"4","last_reported":1729242628,"current_range_meters":38800,"station_id":"ce4bhn12rcd13ifvqgqg","pricing_plan_id":"cebpf4jnsgd1na2vs0mg"},{"bike_id":"2140b6a3-5118-4150-823e-9225aeb56201","system_id":"levelo_inurba_marseille","lat":43.23198,"lon":5.35547,"is_reserved":false,"is_disabled":false,"rental_uris":{"android":"levelo://app?vid=2140b6a3-5118-4150-823e-9225aeb56201","ios":"levelo://app?vid=2140b6a3-5118-4150-823e-9225aeb56201"},"vehicle_type_id":"4","last_reported":1729242628,"current_range_meters":32400,"station_id":"ce4bhu92rcd13ifvqi70","pricing_plan_id":"cebpf4jnsgd1na2vs0mg"},{"bike_id":"2d26828d-d90f-4409-8e3f-2bdaa5ca0cb2","system_id":"levelo_inurba_marseille","lat":43.23189,"lon":5.39984,"is_reserved":false,"is_disabled":false,"rental_uris":{"android":"levelo://app?vid=2d26828d-d90f-4409-8e3f-2bdaa5ca0cb2","ios":"levelo://app?vid=2d26828d-d90f-4409-8e3f-2bdaa5ca0cb2"},"vehicle_type_id":"4","last_reported":1729242628,"current_range_meters":33600,"station_id":"ce4bhn12rcd13ifvqgqg","pricing_plan_id":"cebpf4jnsgd1na2vs0mg"},{"bike_id":"83444ca3-33f0-490b-a716-10182078542e","system_id":"levelo_inurba_marseille","lat":43.29909,"lon":5.38151,"is_reserved":false,"is_disabled":false,"rental_uris":{"android":"levelo://app?vid=83444ca3-33f0-490b-a716-10182078542e","ios":"levelo://app?vid=83444ca3-33f0-490b-a716-10182078542e"},"vehicle_type_id":"4","last_reported":1729242628,"current_range_meters":37600,"station_id":"ce4bgj12rcd13ifvqbc0","pricing_plan_id":"cebpf4jnsgd1na2vs0mg"},{"bike_id":"38e27b30-a6f6-4a8d-84d6-515994ecd10e","system_id":"levelo_inurba_marseille","lat":43.27068,"lon":5.42281,"is_reserved":false,"is_disabled":false,"rental_uris":{"android":"levelo://app?vid=38e27b30-a6f6-4a8d-84d6-515994ecd10e","ios":"levelo://app?vid=38e27b30-a6f6-4a8d-84d6-515994ecd10e"},"vehicle_type_id":"4","last_reported":1729242628,"current_range_meters":11200,"station_id":"ce4bhk92rcd13ifvqgb0","pricing_plan_id":"cebpf4jnsgd1na2vs0mg"},{"bike_id":"73571360-6624-497e-ae84-61a3fbd766b0","system_id":"levelo_inurba_marseille","lat":43.255,"lon":5.37653,"is_reserved":false,"is_disabled":false,"rental_uris":{"android":"levelo://app?vid=73571360-6624-497e-ae84-61a3fbd766b0","ios":"levelo://app?vid=73571360-6624-497e-ae84-61a3fbd766b0"},"vehicle_type_id":"4","last_reported":1729242628,"current_range_meters":39200,"station_id":"ce4bhh12rcd13ifvqff0","pricing_plan_id":"cebpf4jnsgd1na2vs0mg"},{"bike_id":"9a5adff2-e84f-41ae-84d8-ac0a797ab11c","system_id":"levelo_inurba_marseille","lat":43.27494,"lon":5.42453,"is_reserved":false,"is_disabled":false,"rental_uris":{"android":"levelo://app?vid=9a5adff2-e84f-41ae-84d8-ac0a797ab11c","ios":"levelo://app?vid=9a5adff2-e84f-41ae-84d8-ac0a797ab11c"},"vehicle_type_id":"4","last_reported":1729242628,"current_range_meters":32000,"station_id":"ce4bhn92rcd13ifvqgrg","pricing_plan_id":"cebpf4jnsgd1na2vs0mg"},{"bike_id":"fa9433b4-083f-47af-bd7b-c30153b643c4","system_id":"levelo_inurba_marseille","lat":43.2707,"lon":5.42276,"is_reserved":false,"is_disabled":false,"rental_uris":{"android":"levelo://app?vid=fa9433b4-083f-47af-bd7b-c30153b643c4","ios":"levelo://app?vid=fa9433b4-083f-47af-bd7b-c30153b643c4"},"vehicle_type_id":"4","last_reported":1729242628,"current_range_meters":24800,"station_id":"ce4bhk92rcd13ifvqgb0","pricing_plan_id":"cebpf4jnsgd1na2vs0mg"},{"bike_id":"41268e4f-30c9-40f1-b386-19017d7eaf0f","system_id":"levelo_inurba_marseille","lat":43.29292,"lon":5.37467,"is_reserved":false,"is_disabled":false,"rental_uris":{"android":"levelo://app?vid=41268e4f-30c9-40f1-b386-19017d7eaf0f","ios":"levelo://app?vid=41268e4f-30c9-40f1-b386-19017d7eaf0f"},"vehicle_type_id":"4","last_reported":1729242628,"current_range_meters":6000,"station_id":"ce4bgi12rcd13ifvqb70","pricing_plan_id":"cebpf4jnsgd1na2vs0mg"},{"bike_id":"2862199e-6666-4485-b1aa-8274a50e4216","system_id":"levelo_inurba_marseille","lat":43.30563,"lon":5.36531,"is_reserved":false,"is_disabled":false,"rental_uris":{"android":"levelo://app?vid=2862199e-6666-4485-b1aa-8274a50e4216","ios":"levelo://app?vid=2862199e-6666-4485-b1aa-8274a50e4216"},"vehicle_type_id":"4","last_reported":1729242628,"current_range_meters":38800,"station_id":"ce4bgs12rcd13ifvqcag","pricing_plan_id":"cebpf4jnsgd1na2vs0mg"},{"bike_id":"3e4e242e-8e51-4d53-b6f1-b097266b72b3","system_id":"levelo_inurba_marseille","lat":43.2408,"lon":5.37757,"is_reserved":false,"is_disabled":false,"rental_uris":{"android":"levelo://app?vid=3e4e242e-8e51-4d53-b6f1-b097266b72b3","ios":"levelo://app?vid=3e4e242e-8e51-4d53-b6f1-b097266b72b3"},"vehicle_type_id":"4","last_reported":1729242628,"current_range_meters":36000,"station_id":"ce4bhnp2rcd13ifvqgvg","pricing_plan_id":"cebpf4jnsgd1na2vs0mg"},{"bike_id":"7772d39f-5e28-445c-af91-069b0cf63793","system_id":"levelo_inurba_marseille","lat":43.33765,"lon":5.37438,"is_reserved":false,"is_disabled":false,"rental_uris":{"android":"levelo://app?vid=7772d39f-5e28-445c-af91-069b0cf63793","ios":"levelo://app?vid=7772d39f-5e28-445c-af91-069b0cf63793"},"vehicle_type_id":"4","last_reported":1729242628,"current_range_meters":14000,"station_id":"","pricing_plan_id":"cebpf4jnsgd1na2vs0mg"},{"bike_id":"36f68dd6-3f5f-4769-a925-3cf70124219e","system_id":"levelo_inurba_marseille","lat":43.26202,"lon":5.37924,"is_reserved":false,"is_disabled":false,"rental_uris":{"android":"levelo://app?vid=36f68dd6-3f5f-4769-a925-3cf70124219e","ios":"levelo://app?vid=36f68dd6-3f5f-4769-a925-3cf70124219e"},"vehicle_type_id":"4","last_reported":1729242628,"current_range_meters":12400,"station_id":"ce4bhjp2rcd13ifvqg90","pricing_plan_id":"cebpf4jnsgd1na2vs0mg"},{"bike_id":"e0ab6bb6-c6b9-4385-b41c-27bea5d9c0cb","system_id":"levelo_inurba_marseille","lat":43.33022,"lon":5.39045,"is_reserved":false,"is_disabled":false,"rental_uris":{"android":"levelo://app?vid=e0ab6bb6-c6b9-4385-b41c-27bea5d9c0cb","ios":"levelo://app?vid=e0ab6bb6-c6b9-4385-b41c-27bea5d9c0cb"},"vehicle_type_id":"4","last_reported":1729242628,"current_range_meters":24400,"station_id":"ce4bhr92rcd13ifvqhrg","pricing_plan_id":"cebpf4jnsgd1na2vs0mg"},{"bike_id":"5d9373cb-e293-4e08-908a-5e40ac6e38b7","system_id":"levelo_inurba_marseille","lat":43.32539,"lon":5.41434,"is_reserved":false,"is_disabled":false,"rental_uris":{"android":"levelo://app?vid=5d9373cb-e293-4e08-908a-5e40ac6e38b7","ios":"levelo://app?vid=5d9373cb-e293-4e08-908a-5e40ac6e38b7"},"vehicle_type_id":"4","last_reported":1729242628,"current_range_meters":38800,"station_id":"ce4bhq12rcd13ifvqhhg","pricing_plan_id":"cebpf4jnsgd1na2vs0mg"},{"bike_id":"3213665e-989c-4d22-9f5a-31c8522597dd","system_id":"levelo_inurba_marseille","lat":43.296,"lon":5.36142,"is_reserved":false,"is_disabled":false,"rental_uris":{"android":"levelo://app?vid=3213665e-989c-4d22-9f5a-31c8522597dd","ios":"levelo://app?vid=3213665e-989c-4d22-9f5a-31c8522597dd"},"vehicle_type_id":"4","last_reported":1729242628,"current_range_meters":24800,"station_id":"","pricing_plan_id":"cebpf4jnsgd1na2vs0mg"},{"bike_id":"5f784547-3f23-484a-a9b4-3f287c1bc6f9","system_id":"levelo_inurba_marseille","lat":43.31221,"lon":5.36858,"is_reserved":false,"is_disabled":false,"rental_uris":{"android":"levelo://app?vid=5f784547-3f23-484a-a9b4-3f287c1bc6f9","ios":"levelo://app?vid=5f784547-3f23-484a-a9b4-3f287c1bc6f9"},"vehicle_type_id":"4","last_reported":1729242628,"current_range_meters":38800,"station_id":"ce4bgl92rcd13ifvqbq0","pricing_plan_id":"cebpf4jnsgd1na2vs0mg"},{"bike_id":"cddb2538-acdb-46a5-bc95-6e0a8d74ef0c","system_id":"levelo_inurba_marseille","lat":43.30799,"lon":5.4353,"is_reserved":false,"is_disabled":false,"rental_uris":{"android":"levelo://app?vid=cddb2538-acdb-46a5-bc95-6e0a8d74ef0c","ios":"levelo://app?vid=cddb2538-acdb-46a5-bc95-6e0a8d74ef0c"},"vehicle_type_id":"4","last_reported":1729242628,"current_range_meters":32400,"station_id":"ce4bhph2rcd13ifvqheg","pricing_plan_id":"cebpf4jnsgd1na2vs0mg"},{"bike_id":"8f431045-551e-4ac4-a635-d10b10d8159d","system_id":"levelo_inurba_marseille","lat":43.30545,"lon":5.36551,"is_reserved":false,"is_disabled":false,"rental_uris":{"android":"levelo://app?vid=8f431045-551e-4ac4-a635-d10b10d8159d","ios":"levelo://app?vid=8f431045-551e-4ac4-a635-d10b10d8159d"},"vehicle_type_id":"4","last_reported":1729242628,"current_range_meters":38800,"station_id":"ce4bgs12rcd13ifvqcag","pricing_plan_id":"cebpf4jnsgd1na2vs0mg"},{"bike_id":"5f50933a-822a-4388-8612-62a3f233b7b7","system_id":"levelo_inurba_marseille","lat":43.23155,"lon":5.43718,"is_reserved":false,"is_disabled":false,"rental_uris":{"android":"levelo://app?vid=5f50933a-822a-4388-8612-62a3f233b7b7","ios":"levelo://app?vid=5f50933a-822a-4388-8612-62a3f233b7b7"},"vehicle_type_id":"4","last_reported":1729242628,"current_range_meters":28000,"station_id":"ce4bhmp2rcd13ifvqgog","pricing_plan_id":"cebpf4jnsgd1na2vs0mg"},{"bike_id":"8f95a266-11aa-478e-82a1-83102654e976","system_id":"levelo_inurba_marseille","lat":43.27429,"lon":5.39407,"is_reserved":false,"is_disabled":false,"rental_uris":{"android":"levelo://app?vid=8f95a266-11aa-478e-82a1-83102654e976","ios":"levelo://app?vid=8f95a266-11aa-478e-82a1-83102654e976"},"vehicle_type_id":"4","last_reported":1729242628,"current_range_meters":38800,"station_id":"ce4bhdp2rcd13ifvqf20","pricing_plan_id":"cebpf4jnsgd1na2vs0mg"},{"bike_id":"1641b826-604a-4181-8231-dca386f637a6","system_id":"levelo_inurba_marseille","lat":43.23186,"lon":5.35555,"is_reserved":false,"is_disabled":false,"rental_uris":{"android":"levelo://app?vid=1641b826-604a-4181-8231-dca386f637a6","ios":"levelo://app?vid=1641b826-604a-4181-8231-dca386f637a6"},"vehicle_type_id":"4","last_reported":1729242628,"current_range_meters":30000,"station_id":"ce4bhu92rcd13ifvqi70","pricing_plan_id":"cebpf4jnsgd1na2vs0mg"},{"bike_id":"89211ee2-076f-4df3-92bd-cd8885f2e76d","system_id":"levelo_inurba_marseille","lat":43.23194,"lon":5.35556,"is_reserved":false,"is_disabled":false,"rental_uris":{"android":"levelo://app?vid=89211ee2-076f-4df3-92bd-cd8885f2e76d","ios":"levelo://app?vid=89211ee2-076f-4df3-92bd-cd8885f2e76d"},"vehicle_type_id":"4","last_reported":1729242628,"current_range_meters":28800,"station_id":"ce4bhu92rcd13ifvqi70","pricing_plan_id":"cebpf4jnsgd1na2vs0mg"},{"bike_id":"ad7b4d6b-0664-4d0e-891e-2962f31c57b3","system_id":"levelo_inurba_marseille","lat":43.23152,"lon":5.43711,"is_reserved":false,"is_disabled":false,"rental_uris":{"android":"levelo://app?vid=ad7b4d6b-0664-4d0e-891e-2962f31c57b3","ios":"levelo://app?vid=ad7b4d6b-0664-4d0e-891e-2962f31c57b3"},"vehicle_type_id":"4","last_reported":1729242628,"current_range_meters":24400,"station_id":"ce4bhmp2rcd13ifvqgog","pricing_plan_id":"cebpf4jnsgd1na2vs0mg"},{"bike_id":"332d992e-1f74-4a6e-90af-e412590e26f8","system_id":"levelo_inurba_marseille","lat":43.2407,"lon":5.37756,"is_reserved":false,"is_disabled":false,"rental_uris":{"android":"levelo://app?vid=332d992e-1f74-4a6e-90af-e412590e26f8","ios":"levelo://app?vid=332d992e-1f74-4a6e-90af-e412590e26f8"},"vehicle_type_id":"4","last_reported":1729242628,"current_range_meters":38800,"station_id":"ce4bhnp2rcd13ifvqgvg","pricing_plan_id":"cebpf4jnsgd1na2vs0mg"},{"bike_id":"cf86cdfa-302d-4270-b4fb-c0ac2370ef59","system_id":"levelo_inurba_marseille","lat":43.289348,"lon":5.366356,"is_reserved":false,"is_disabled":false,"rental_uris":{"android":"levelo://app?vid=cf86cdfa-302d-4270-b4fb-c0ac2370ef59","ios":"levelo://app?vid=cf86cdfa-302d-4270-b4fb-c0ac2370ef59"},"vehicle_type_id":"4","last_reported":1729242628,"current_range_meters":8000,"station_id":"ce4bhap2rcd13ifvqek0","pricing_plan_id":"cebpf4jnsgd1na2vs0mg"},{"bike_id":"058927e6-2a1c-45c5-830b-3dd2eb875278","system_id":"levelo_inurba_marseille","lat":43.267883,"lon":5.394184,"is_reserved":false,"is_disabled":false,"rental_uris":{"android":"levelo://app?vid=058927e6-2a1c-45c5-830b-3dd2eb875278","ios":"levelo://app?vid=058927e6-2a1c-45c5-830b-3dd2eb875278"},"vehicle_type_id":"4","last_reported":1729242628,"current_range_meters":19200,"station_id":"ce4bhh12rcd13ifvqfg0","pricing_plan_id":"cebpf4jnsgd1na2vs0mg"},{"bike_id":"e2d96579-ea64-404c-b9fa-501833cdd63e","system_id":"levelo_inurba_marseille","lat":43.33604,"lon":5.41027,"is_reserved":false,"is_disabled":false,"rental_uris":{"android":"levelo://app?vid=e2d96579-ea64-404c-b9fa-501833cdd63e","ios":"levelo://app?vid=e2d96579-ea64-404c-b9fa-501833cdd63e"},"vehicle_type_id":"4","last_reported":1729242628,"current_range_meters":18800,"station_id":"ce4bhqh2rcd13ifvqhmg","pricing_plan_id":"cebpf4jnsgd1na2vs0mg"},{"bike_id":"57cf2bb4-75b3-4f6c-b489-031700f942a2","system_id":"levelo_inurba_marseille","lat":43.22933,"lon":5.35381,"is_reserved":false,"is_disabled":false,"rental_uris":{"android":"levelo://app?vid=57cf2bb4-75b3-4f6c-b489-031700f942a2","ios":"levelo://app?vid=57cf2bb4-75b3-4f6c-b489-031700f942a2"},"vehicle_type_id":"4","last_reported":1729242628,"current_range_meters":16000,"station_id":"cpo3532slgdg3j2ikp40","pricing_plan_id":"cebpf4jnsgd1na2vs0mg"},{"bike_id":"3b9e291c-7782-41ab-8c04-3c287561a0f9","system_id":"levelo_inurba_marseille","lat":43.29303,"lon":5.37163,"is_reserved":false,"is_disabled":false,"rental_uris":{"android":"levelo://app?vid=3b9e291c-7782-41ab-8c04-3c287561a0f9","ios":"levelo://app?vid=3b9e291c-7782-41ab-8c04-3c287561a0f9"},"vehicle_type_id":"4","last_reported":1729242628,"current_range_meters":26800,"station_id":"ce4bgh92rcd13ifvqb40","pricing_plan_id":"cebpf4jnsgd1na2vs0mg"},{"bike_id":"03908e1d-2d54-49b0-9164-626417a1a516","system_id":"levelo_inurba_marseille","lat":43.29932,"lon":5.36552,"is_reserved":false,"is_disabled":false,"rental_uris":{"android":"levelo://app?vid=03908e1d-2d54-49b0-9164-626417a1a516","ios":"levelo://app?vid=03908e1d-2d54-49b0-9164-626417a1a516"},"vehicle_type_id":"4","last_reported":1729242628,"current_range_meters":38800,"station_id":"ce4bgm92rcd13ifvqbr0","pricing_plan_id":"cebpf4jnsgd1na2vs0mg"},{"bike_id":"e8fa0c67-c553-4a87-9c32-6644007fca22","system_id":"levelo_inurba_marseille","lat":43.28616,"lon":5.35099,"is_reserved":false,"is_disabled":false,"rental_uris":{"android":"levelo://app?vid=e8fa0c67-c553-4a87-9c32-6644007fca22","ios":"levelo://app?vid=e8fa0c67-c553-4a87-9c32-6644007fca22"},"vehicle_type_id":"4","last_reported":1729242628,"current_range_meters":11600,"station_id":"ce4bhch2rcd13ifvqeug","pricing_plan_id":"cebpf4jnsgd1na2vs0mg"},{"bike_id":"422d485a-ee3c-4fc3-b2c4-fc8dab31d119","system_id":"levelo_inurba_marseille","lat":43.23964,"lon":5.36625,"is_reserved":false,"is_disabled":false,"rental_uris":{"android":"levelo://app?vid=422d485a-ee3c-4fc3-b2c4-fc8dab31d119","ios":"levelo://app?vid=422d485a-ee3c-4fc3-b2c4-fc8dab31d119"},"vehicle_type_id":"4","last_reported":1729242628,"current_range_meters":16000,"station_id":"ce4bhi12rcd13ifvqfp0","pricing_plan_id":"cebpf4jnsgd1na2vs0mg"},{"bike_id":"87440bd7-4730-412f-b52f-03b263c3d6ba","system_id":"levelo_inurba_marseille","lat":43.23191,"lon":5.35551,"is_reserved":false,"is_disabled":false,"rental_uris":{"android":"levelo://app?vid=87440bd7-4730-412f-b52f-03b263c3d6ba","ios":"levelo://app?vid=87440bd7-4730-412f-b52f-03b263c3d6ba"},"vehicle_type_id":"4","last_reported":1729242628,"current_range_meters":14000,"station_id":"ce4bhu92rcd13ifvqi70","pricing_plan_id":"cebpf4jnsgd1na2vs0mg"},{"bike_id":"b48e27f9-9061-42a8-a807-957b75a74ad6","system_id":"levelo_inurba_marseille","lat":43.29933,"lon":5.36555,"is_reserved":false,"is_disabled":false,"rental_uris":{"android":"levelo://app?vid=b48e27f9-9061-42a8-a807-957b75a74ad6","ios":"levelo://app?vid=b48e27f9-9061-42a8-a807-957b75a74ad6"},"vehicle_type_id":"4","last_reported":1729242628,"current_range_meters":27600,"station_id":"ce4bgm92rcd13ifvqbr0","pricing_plan_id":"cebpf4jnsgd1na2vs0mg"},{"bike_id":"ef4dd203-fcc5-4759-ae60-6c03f2e0543e","system_id":"levelo_inurba_marseille","lat":43.30907,"lon":5.36852,"is_reserved":false,"is_disabled":false,"rental_uris":{"android":"levelo://app?vid=ef4dd203-fcc5-4759-ae60-6c03f2e0543e","ios":"levelo://app?vid=ef4dd203-fcc5-4759-ae60-6c03f2e0543e"},"vehicle_type_id":"4","last_reported":1729242628,"current_range_meters":38800,"station_id":"ce4bgn92rcd13ifvqbvg","pricing_plan_id":"cebpf4jnsgd1na2vs0mg"},{"bike_id":"1ed6b691-e027-451f-b385-b485f721f6a9","system_id":"levelo_inurba_marseille","lat":43.24287,"lon":5.37967,"is_reserved":false,"is_disabled":false,"rental_uris":{"android":"levelo://app?vid=1ed6b691-e027-451f-b385-b485f721f6a9","ios":"levelo://app?vid=1ed6b691-e027-451f-b385-b485f721f6a9"},"vehicle_type_id":"4","last_reported":1729242628,"current_range_meters":25200,"station_id":"ce4bhgp2rcd13ifvqfd0","pricing_plan_id":"cebpf4jnsgd1na2vs0mg"},{"bike_id":"aca7886c-312e-4e20-85fd-b9012410bad6","system_id":"levelo_inurba_marseille","lat":43.302763,"lon":5.377143,"is_reserved":false,"is_disabled":false,"rental_uris":{"android":"levelo://app?vid=aca7886c-312e-4e20-85fd-b9012410bad6","ios":"levelo://app?vid=aca7886c-312e-4e20-85fd-b9012410bad6"},"vehicle_type_id":"4","last_reported":1729242628,"current_range_meters":36800,"station_id":"ce4bguh2rcd13ifvqcj0","pricing_plan_id":"cebpf4jnsgd1na2vs0mg"},{"bike_id":"f2e0eb79-06d2-4284-9540-1e16fe68288c","system_id":"levelo_inurba_marseille","lat":43.27495,"lon":5.42451,"is_reserved":false,"is_disabled":false,"rental_uris":{"android":"levelo://app?vid=f2e0eb79-06d2-4284-9540-1e16fe68288c","ios":"levelo://app?vid=f2e0eb79-06d2-4284-9540-1e16fe68288c"},"vehicle_type_id":"4","last_reported":1729242628,"current_range_meters":33600,"station_id":"ce4bhn92rcd13ifvqgrg","pricing_plan_id":"cebpf4jnsgd1na2vs0mg"},{"bike_id":"cd7bedbd-5c48-4a5d-bffd-580111126bdf","system_id":"levelo_inurba_marseille","lat":43.29005,"lon":5.3562,"is_reserved":false,"is_disabled":false,"rental_uris":{"android":"levelo://app?vid=cd7bedbd-5c48-4a5d-bffd-580111126bdf","ios":"levelo://app?vid=cd7bedbd-5c48-4a5d-bffd-580111126bdf"},"vehicle_type_id":"4","last_reported":1729242628,"current_range_meters":36400,"station_id":"ce4bhb92rcd13ifvqen0","pricing_plan_id":"cebpf4jnsgd1na2vs0mg"},{"bike_id":"cb443c4a-3cc3-4c6a-a2f4-6f386431b5bc","system_id":"levelo_inurba_marseille","lat":43.27496,"lon":5.42447,"is_reserved":false,"is_disabled":false,"rental_uris":{"android":"levelo://app?vid=cb443c4a-3cc3-4c6a-a2f4-6f386431b5bc","ios":"levelo://app?vid=cb443c4a-3cc3-4c6a-a2f4-6f386431b5bc"},"vehicle_type_id":"4","last_reported":1729242628,"current_range_meters":36800,"station_id":"ce4bhn92rcd13ifvqgrg","pricing_plan_id":"cebpf4jnsgd1na2vs0mg"},{"bike_id":"5360fe1a-8871-40cb-9d2d-a3453266be18","system_id":"levelo_inurba_marseille","lat":43.24995,"lon":5.38932,"is_reserved":false,"is_disabled":false,"rental_uris":{"android":"levelo://app?vid=5360fe1a-8871-40cb-9d2d-a3453266be18","ios":"levelo://app?vid=5360fe1a-8871-40cb-9d2d-a3453266be18"},"vehicle_type_id":"4","last_reported":1729242628,"current_range_meters":24400,"station_id":"ce4bhgp2rcd13ifvqfd0","pricing_plan_id":"cebpf4jnsgd1na2vs0mg"},{"bike_id":"7e1f0b4e-603d-4867-9556-74e9271b4f46","system_id":"levelo_inurba_marseille","lat":43.28413,"lon":5.37505,"is_reserved":false,"is_disabled":false,"rental_uris":{"android":"levelo://app?vid=7e1f0b4e-603d-4867-9556-74e9271b4f46","ios":"levelo://app?vid=7e1f0b4e-603d-4867-9556-74e9271b4f46"},"vehicle_type_id":"4","last_reported":1729242628,"current_range_meters":24400,"station_id":"ce4bh412rcd13ifvqds0","pricing_plan_id":"cebpf4jnsgd1na2vs0mg"},{"bike_id":"1be302f9-f11f-474a-bf33-e1b016bb397d","system_id":"levelo_inurba_marseille","lat":43.27487,"lon":5.42461,"is_reserved":false,"is_disabled":false,"rental_uris":{"android":"levelo://app?vid=1be302f9-f11f-474a-bf33-e1b016bb397d","ios":"levelo://app?vid=1be302f9-f11f-474a-bf33-e1b016bb397d"},"vehicle_type_id":"4","last_reported":1729242628,"current_range_meters":8800,"station_id":"ce4bhn92rcd13ifvqgrg","pricing_plan_id":"cebpf4jnsgd1na2vs0mg"},{"bike_id":"ac8724a5-4ef8-43ee-8355-6920094b3c5d","system_id":"levelo_inurba_marseille","lat":43.33757,"lon":5.37441,"is_reserved":false,"is_disabled":false,"rental_uris":{"android":"levelo://app?vid=ac8724a5-4ef8-43ee-8355-6920094b3c5d","ios":"levelo://app?vid=ac8724a5-4ef8-43ee-8355-6920094b3c5d"},"vehicle_type_id":"4","last_reported":1729242628,"current_range_meters":38400,"station_id":"","pricing_plan_id":"cebpf4jnsgd1na2vs0mg"},{"bike_id":"5dea50a4-1d92-4427-a32b-1890395130ff","system_id":"levelo_inurba_marseille","lat":43.27369,"lon":5.3626,"is_reserved":false,"is_disabled":false,"rental_uris":{"android":"levelo://app?vid=5dea50a4-1d92-4427-a32b-1890395130ff","ios":"levelo://app?vid=5dea50a4-1d92-4427-a32b-1890395130ff"},"vehicle_type_id":"4","last_reported":1729242628,"current_range_meters":38000,"station_id":"ce4bhbh2rcd13ifvqeo0","pricing_plan_id":"cebpf4jnsgd1na2vs0mg"},{"bike_id":"b8d0654d-64b6-449f-b607-a39045e006fd","system_id":"levelo_inurba_marseille","lat":43.27431,"lon":5.39408,"is_reserved":false,"is_disabled":false,"rental_uris":{"android":"levelo://app?vid=b8d0654d-64b6-449f-b607-a39045e006fd","ios":"levelo://app?vid=b8d0654d-64b6-449f-b607-a39045e006fd"},"vehicle_type_id":"4","last_reported":1729242628,"current_range_meters":36800,"station_id":"ce4bhdp2rcd13ifvqf20","pricing_plan_id":"cebpf4jnsgd1na2vs0mg"},{"bike_id":"823c4ccf-78cb-48e5-82e3-1b0b41fd0c6b","system_id":"levelo_inurba_marseille","lat":43.29906,"lon":5.38159,"is_reserved":false,"is_disabled":false,"rental_uris":{"android":"levelo://app?vid=823c4ccf-78cb-48e5-82e3-1b0b41fd0c6b","ios":"levelo://app?vid=823c4ccf-78cb-48e5-82e3-1b0b41fd0c6b"},"vehicle_type_id":"4","last_reported":1729242628,"current_range_meters":38400,"station_id":"ce4bgj12rcd13ifvqbc0","pricing_plan_id":"cebpf4jnsgd1na2vs0mg"},{"bike_id":"46d26bce-e297-4b74-a57f-24017e3801de","system_id":"levelo_inurba_marseille","lat":43.2721,"lon":5.39178,"is_reserved":false,"is_disabled":false,"rental_uris":{"android":"levelo://app?vid=46d26bce-e297-4b74-a57f-24017e3801de","ios":"levelo://app?vid=46d26bce-e297-4b74-a57f-24017e3801de"},"vehicle_type_id":"4","last_reported":1729242628,"current_range_meters":33600,"station_id":"ce4bhhp2rcd13ifvqfm0","pricing_plan_id":"cebpf4jnsgd1na2vs0mg"},{"bike_id":"4894e6ed-29b3-4382-b507-576941d29e8b","system_id":"levelo_inurba_marseille","lat":43.30152,"lon":5.38086,"is_reserved":false,"is_disabled":false,"rental_uris":{"android":"levelo://app?vid=4894e6ed-29b3-4382-b507-576941d29e8b","ios":"levelo://app?vid=4894e6ed-29b3-4382-b507-576941d29e8b"},"vehicle_type_id":"4","last_reported":1729242628,"current_range_meters":38800,"station_id":"ce4bgjp2rcd13ifvqbh0","pricing_plan_id":"cebpf4jnsgd1na2vs0mg"},{"bike_id":"daddb9ef-9eff-4ac0-b1be-9b85930619bc","system_id":"levelo_inurba_marseille","lat":43.27171,"lon":5.40989,"is_reserved":false,"is_disabled":false,"rental_uris":{"android":"levelo://app?vid=daddb9ef-9eff-4ac0-b1be-9b85930619bc","ios":"levelo://app?vid=daddb9ef-9eff-4ac0-b1be-9b85930619bc"},"vehicle_type_id":"4","last_reported":1729242628,"current_range_meters":26800,"station_id":"ce4bhl12rcd13ifvqgf0","pricing_plan_id":"cebpf4jnsgd1na2vs0mg"},{"bike_id":"a0d1f48f-4d8d-4385-8400-04795ef1f250","system_id":"levelo_inurba_marseille","lat":43.26559,"lon":5.37285,"is_reserved":false,"is_disabled":false,"rental_uris":{"android":"levelo://app?vid=a0d1f48f-4d8d-4385-8400-04795ef1f250","ios":"levelo://app?vid=a0d1f48f-4d8d-4385-8400-04795ef1f250"},"vehicle_type_id":"4","last_reported":1729242628,"current_range_meters":38800,"station_id":"ce4bhg12rcd13ifvqf70","pricing_plan_id":"cebpf4jnsgd1na2vs0mg"},{"bike_id":"09ee574a-9282-47f1-a884-5bb7d48c0840","system_id":"levelo_inurba_marseille","lat":43.25004,"lon":5.38918,"is_reserved":false,"is_disabled":false,"rental_uris":{"android":"levelo://app?vid=09ee574a-9282-47f1-a884-5bb7d48c0840","ios":"levelo://app?vid=09ee574a-9282-47f1-a884-5bb7d48c0840"},"vehicle_type_id":"4","last_reported":1729242628,"current_range_meters":38000,"station_id":"ce4bhgp2rcd13ifvqfd0","pricing_plan_id":"cebpf4jnsgd1na2vs0mg"},{"bike_id":"915d8fda-eaef-4a60-9d36-992c88c1e042","system_id":"levelo_inurba_marseille","lat":43.25004,"lon":5.38926,"is_reserved":false,"is_disabled":false,"rental_uris":{"android":"levelo://app?vid=915d8fda-eaef-4a60-9d36-992c88c1e042","ios":"levelo://app?vid=915d8fda-eaef-4a60-9d36-992c88c1e042"},"vehicle_type_id":"4","last_reported":1729242628,"current_range_meters":39200,"station_id":"ce4bhgp2rcd13ifvqfd0","pricing_plan_id":"cebpf4jnsgd1na2vs0mg"},{"bike_id":"a4b88a8f-d604-4f6f-b1a1-e74abc504ac6","system_id":"levelo_inurba_marseille","lat":43.30554,"lon":5.36539,"is_reserved":false,"is_disabled":false,"rental_uris":{"android":"levelo://app?vid=a4b88a8f-d604-4f6f-b1a1-e74abc504ac6","ios":"levelo://app?vid=a4b88a8f-d604-4f6f-b1a1-e74abc504ac6"},"vehicle_type_id":"4","last_reported":1729242628,"current_range_meters":37600,"station_id":"ce4bgs12rcd13ifvqcag","pricing_plan_id":"cebpf4jnsgd1na2vs0mg"},{"bike_id":"a9295dde-ceb4-4ca6-940b-7dd28fc752be","system_id":"levelo_inurba_marseille","lat":43.32482,"lon":5.36558,"is_reserved":false,"is_disabled":false,"rental_uris":{"android":"levelo://app?vid=a9295dde-ceb4-4ca6-940b-7dd28fc752be","ios":"levelo://app?vid=a9295dde-ceb4-4ca6-940b-7dd28fc752be"},"vehicle_type_id":"4","last_reported":1729242628,"current_range_meters":24000,"station_id":"ce4bhs12rcd13ifvqhvg","pricing_plan_id":"cebpf4jnsgd1na2vs0mg"},{"bike_id":"9217c477-c508-4527-8d8d-f4b42982126a","system_id":"levelo_inurba_marseille","lat":43.23753,"lon":5.43586,"is_reserved":false,"is_disabled":false,"rental_uris":{"android":"levelo://app?vid=9217c477-c508-4527-8d8d-f4b42982126a","ios":"levelo://app?vid=9217c477-c508-4527-8d8d-f4b42982126a"},"vehicle_type_id":"4","last_reported":1729242628,"current_range_meters":6800,"station_id":"ce4bhmp2rcd13ifvqgog","pricing_plan_id":"cebpf4jnsgd1na2vs0mg"},{"bike_id":"6805634c-6374-41b6-b2d6-4225901e051c","system_id":"levelo_inurba_marseille","lat":43.25494,"lon":5.37648,"is_reserved":false,"is_disabled":false,"rental_uris":{"android":"levelo://app?vid=6805634c-6374-41b6-b2d6-4225901e051c","ios":"levelo://app?vid=6805634c-6374-41b6-b2d6-4225901e051c"},"vehicle_type_id":"4","last_reported":1729242628,"current_range_meters":20000,"station_id":"ce4bhh12rcd13ifvqff0","pricing_plan_id":"cebpf4jnsgd1na2vs0mg"},{"bike_id":"292b9425-1372-40d4-bf0a-fe57aa779a41","system_id":"levelo_inurba_marseille","lat":43.23058,"lon":5.35496,"is_reserved":false,"is_disabled":false,"rental_uris":{"android":"levelo://app?vid=292b9425-1372-40d4-bf0a-fe57aa779a41","ios":"levelo://app?vid=292b9425-1372-40d4-bf0a-fe57aa779a41"},"vehicle_type_id":"4","last_reported":1729242628,"current_range_meters":18800,"station_id":"cpo3342slgdg3j2ifvpg","pricing_plan_id":"cebpf4jnsgd1na2vs0mg"},{"bike_id":"2a5a501f-f647-467b-8667-933bcb0b6e1c","system_id":"levelo_inurba_marseille","lat":43.2594,"lon":5.40903,"is_reserved":false,"is_disabled":false,"rental_uris":{"android":"levelo://app?vid=2a5a501f-f647-467b-8667-933bcb0b6e1c","ios":"levelo://app?vid=2a5a501f-f647-467b-8667-933bcb0b6e1c"},"vehicle_type_id":"4","last_reported":1729242628,"current_range_meters":22000,"station_id":"ce4bhm92rcd13ifvqglg","pricing_plan_id":"cebpf4jnsgd1na2vs0mg"},{"bike_id":"3ed38786-470d-411a-80d4-a7d4d45bb2a0","system_id":"levelo_inurba_marseille","lat":43.26555,"lon":5.37285,"is_reserved":false,"is_disabled":false,"rental_uris":{"android":"levelo://app?vid=3ed38786-470d-411a-80d4-a7d4d45bb2a0","ios":"levelo://app?vid=3ed38786-470d-411a-80d4-a7d4d45bb2a0"},"vehicle_type_id":"4","last_reported":1729242628,"current_range_meters":35600,"station_id":"ce4bhg12rcd13ifvqf70","pricing_plan_id":"cebpf4jnsgd1na2vs0mg"},{"bike_id":"6dfd8eb5-2df7-4f39-890f-21fe0f5cdc17","system_id":"levelo_inurba_marseille","lat":43.30552,"lon":5.36536,"is_reserved":false,"is_disabled":false,"rental_uris":{"android":"levelo://app?vid=6dfd8eb5-2df7-4f39-890f-21fe0f5cdc17","ios":"levelo://app?vid=6dfd8eb5-2df7-4f39-890f-21fe0f5cdc17"},"vehicle_type_id":"4","last_reported":1729242628,"current_range_meters":33600,"station_id":"ce4bgs12rcd13ifvqcag","pricing_plan_id":"cebpf4jnsgd1na2vs0mg"},{"bike_id":"6a0c3d48-aa3b-4c9a-b420-ffd4b9f8b717","system_id":"levelo_inurba_marseille","lat":43.27493,"lon":5.42456,"is_reserved":false,"is_disabled":false,"rental_uris":{"android":"levelo://app?vid=6a0c3d48-aa3b-4c9a-b420-ffd4b9f8b717","ios":"levelo://app?vid=6a0c3d48-aa3b-4c9a-b420-ffd4b9f8b717"},"vehicle_type_id":"4","last_reported":1729242628,"current_range_meters":30800,"station_id":"ce4bhn92rcd13ifvqgrg","pricing_plan_id":"cebpf4jnsgd1na2vs0mg"},{"bike_id":"3242b4ae-497d-41b4-9e53-f8b502151aa9","system_id":"levelo_inurba_marseille","lat":43.30133,"lon":5.37419,"is_reserved":false,"is_disabled":false,"rental_uris":{"android":"levelo://app?vid=3242b4ae-497d-41b4-9e53-f8b502151aa9","ios":"levelo://app?vid=3242b4ae-497d-41b4-9e53-f8b502151aa9"},"vehicle_type_id":"4","last_reported":1729242628,"current_range_meters":20000,"station_id":"ce4bgs92rcd13ifvqcc0","pricing_plan_id":"cebpf4jnsgd1na2vs0mg"},{"bike_id":"9f579b93-9579-4e74-ab28-c3e5da661f1d","system_id":"levelo_inurba_marseille","lat":43.29221,"lon":5.36072,"is_reserved":false,"is_disabled":false,"rental_uris":{"android":"levelo://app?vid=9f579b93-9579-4e74-ab28-c3e5da661f1d","ios":"levelo://app?vid=9f579b93-9579-4e74-ab28-c3e5da661f1d"},"vehicle_type_id":"4","last_reported":1729242628,"current_range_meters":9600,"station_id":"ce4bhbh2rcd13ifvqeqg","pricing_plan_id":"cebpf4jnsgd1na2vs0mg"},{"bike_id":"7293706f-6b68-42b8-ae89-d035226b83ea","system_id":"levelo_inurba_marseille","lat":43.30131,"lon":5.37404,"is_reserved":false,"is_disabled":false,"rental_uris":{"android":"levelo://app?vid=7293706f-6b68-42b8-ae89-d035226b83ea","ios":"levelo://app?vid=7293706f-6b68-42b8-ae89-d035226b83ea"},"vehicle_type_id":"4","last_reported":1729242628,"current_range_meters":36800,"station_id":"ce4bgs92rcd13ifvqcc0","pricing_plan_id":"cebpf4jnsgd1na2vs0mg"},{"bike_id":"b930c546-2181-4082-b616-72daa0962436","system_id":"levelo_inurba_marseille","lat":43.23153,"lon":5.43706,"is_reserved":false,"is_disabled":false,"rental_uris":{"android":"levelo://app?vid=b930c546-2181-4082-b616-72daa0962436","ios":"levelo://app?vid=b930c546-2181-4082-b616-72daa0962436"},"vehicle_type_id":"4","last_reported":1729242628,"current_range_meters":8800,"station_id":"ce4bhmp2rcd13ifvqgog","pricing_plan_id":"cebpf4jnsgd1na2vs0mg"},{"bike_id":"c245b7ae-41c8-4093-bb89-0702e6edf091","system_id":"levelo_inurba_marseille","lat":43.24074,"lon":5.37754,"is_reserved":false,"is_disabled":false,"rental_uris":{"android":"levelo://app?vid=c245b7ae-41c8-4093-bb89-0702e6edf091","ios":"levelo://app?vid=c245b7ae-41c8-4093-bb89-0702e6edf091"},"vehicle_type_id":"4","last_reported":1729242628,"current_range_meters":38000,"station_id":"ce4bhnp2rcd13ifvqgvg","pricing_plan_id":"cebpf4jnsgd1na2vs0mg"},{"bike_id":"6eb3af17-788a-4719-9ebe-11ea55af9ba2","system_id":"levelo_inurba_marseille","lat":43.292755,"lon":5.36833,"is_reserved":false,"is_disabled":false,"rental_uris":{"android":"levelo://app?vid=6eb3af17-788a-4719-9ebe-11ea55af9ba2","ios":"levelo://app?vid=6eb3af17-788a-4719-9ebe-11ea55af9ba2"},"vehicle_type_id":"4","last_reported":1729242628,"current_range_meters":8000,"station_id":"ce4bhbp2rcd13ifvqesg","pricing_plan_id":"cebpf4jnsgd1na2vs0mg"},{"bike_id":"25fb4af7-3723-43d3-ae45-244f6abd285e","system_id":"levelo_inurba_marseille","lat":43.30153,"lon":5.38079,"is_reserved":false,"is_disabled":false,"rental_uris":{"android":"levelo://app?vid=25fb4af7-3723-43d3-ae45-244f6abd285e","ios":"levelo://app?vid=25fb4af7-3723-43d3-ae45-244f6abd285e"},"vehicle_type_id":"4","last_reported":1729242628,"current_range_meters":34000,"station_id":"ce4bgjp2rcd13ifvqbh0","pricing_plan_id":"cebpf4jnsgd1na2vs0mg"},{"bike_id":"c55708b3-319e-4537-81dd-d1d8798081d6","system_id":"levelo_inurba_marseille","lat":43.27494,"lon":5.42454,"is_reserved":false,"is_disabled":false,"rental_uris":{"android":"levelo://app?vid=c55708b3-319e-4537-81dd-d1d8798081d6","ios":"levelo://app?vid=c55708b3-319e-4537-81dd-d1d8798081d6"},"vehicle_type_id":"4","last_reported":1729242628,"current_range_meters":28000,"station_id":"ce4bhn92rcd13ifvqgrg","pricing_plan_id":"cebpf4jnsgd1na2vs0mg"},{"bike_id":"913ebbab-7fea-43af-a0d1-a41807f6a491","system_id":"levelo_inurba_marseille","lat":43.299,"lon":5.3748,"is_reserved":false,"is_disabled":false,"rental_uris":{"android":"levelo://app?vid=913ebbab-7fea-43af-a0d1-a41807f6a491","ios":"levelo://app?vid=913ebbab-7fea-43af-a0d1-a41807f6a491"},"vehicle_type_id":"4","last_reported":1729242628,"current_range_meters":26000,"station_id":"ce4bgjh2rcd13ifvqbg0","pricing_plan_id":"cebpf4jnsgd1na2vs0mg"},{"bike_id":"0a3c574b-02a8-435c-ae46-4df1079e2785","system_id":"levelo_inurba_marseille","lat":43.27495,"lon":5.42448,"is_reserved":false,"is_disabled":false,"rental_uris":{"android":"levelo://app?vid=0a3c574b-02a8-435c-ae46-4df1079e2785","ios":"levelo://app?vid=0a3c574b-02a8-435c-ae46-4df1079e2785"},"vehicle_type_id":"4","last_reported":1729242628,"current_range_meters":26800,"station_id":"ce4bhn92rcd13ifvqgrg","pricing_plan_id":"cebpf4jnsgd1na2vs0mg"},{"bike_id":"e3ca7803-aaa7-4ddf-8937-86afb5d1cee8","system_id":"levelo_inurba_marseille","lat":43.3171,"lon":5.437,"is_reserved":false,"is_disabled":false,"rental_uris":{"android":"levelo://app?vid=e3ca7803-aaa7-4ddf-8937-86afb5d1cee8","ios":"levelo://app?vid=e3ca7803-aaa7-4ddf-8937-86afb5d1cee8"},"vehicle_type_id":"4","last_reported":1729242628,"current_range_meters":36400,"station_id":"ce4bhp92rcd13ifvqhcg","pricing_plan_id":"cebpf4jnsgd1na2vs0mg"},{"bike_id":"c3d341cb-b075-4a76-8ce6-a19c6a141e8c","system_id":"levelo_inurba_marseille","lat":43.23153,"lon":5.4372,"is_reserved":false,"is_disabled":false,"rental_uris":{"android":"levelo://app?vid=c3d341cb-b075-4a76-8ce6-a19c6a141e8c","ios":"levelo://app?vid=c3d341cb-b075-4a76-8ce6-a19c6a141e8c"},"vehicle_type_id":"4","last_reported":1729242628,"current_range_meters":2800,"station_id":"ce4bhmp2rcd13ifvqgog","pricing_plan_id":"cebpf4jnsgd1na2vs0mg"},{"bike_id":"32990499-0c08-4402-91eb-e548501ed33c","system_id":"levelo_inurba_marseille","lat":43.28491,"lon":5.3858,"is_reserved":false,"is_disabled":false,"rental_uris":{"android":"levelo://app?vid=32990499-0c08-4402-91eb-e548501ed33c","ios":"levelo://app?vid=32990499-0c08-4402-91eb-e548501ed33c"},"vehicle_type_id":"4","last_reported":1729242628,"current_range_meters":31200,"station_id":"ce4bh8p2rcd13ifvqeb0","pricing_plan_id":"cebpf4jnsgd1na2vs0mg"},{"bike_id":"19389fe6-838b-410a-886d-e2d15f6134b7","system_id":"levelo_inurba_marseille","lat":43.27372,"lon":5.3626,"is_reserved":false,"is_disabled":false,"rental_uris":{"android":"levelo://app?vid=19389fe6-838b-410a-886d-e2d15f6134b7","ios":"levelo://app?vid=19389fe6-838b-410a-886d-e2d15f6134b7"},"vehicle_type_id":"4","last_reported":1729242628,"current_range_meters":11600,"station_id":"","pricing_plan_id":"cebpf4jnsgd1na2vs0mg"},{"bike_id":"3664398f-378f-46f2-bd12-30042ad8db9d","system_id":"levelo_inurba_marseille","lat":43.23186,"lon":5.39979,"is_reserved":false,"is_disabled":false,"rental_uris":{"android":"levelo://app?vid=3664398f-378f-46f2-bd12-30042ad8db9d","ios":"levelo://app?vid=3664398f-378f-46f2-bd12-30042ad8db9d"},"vehicle_type_id":"4","last_reported":1729242628,"current_range_meters":30400,"station_id":"ce4bhn12rcd13ifvqgqg","pricing_plan_id":"cebpf4jnsgd1na2vs0mg"},{"bike_id":"b149e82b-afb3-4de8-adff-774d74fb2117","system_id":"levelo_inurba_marseille","lat":43.27069,"lon":5.4227,"is_reserved":false,"is_disabled":false,"rental_uris":{"android":"levelo://app?vid=b149e82b-afb3-4de8-adff-774d74fb2117","ios":"levelo://app?vid=b149e82b-afb3-4de8-adff-774d74fb2117"},"vehicle_type_id":"4","last_reported":1729242628,"current_range_meters":26000,"station_id":"ce4bhk92rcd13ifvqgb0","pricing_plan_id":"cebpf4jnsgd1na2vs0mg"},{"bike_id":"3c0b4095-688f-4a0f-88cc-dfe9db2b3c79","system_id":"levelo_inurba_marseille","lat":43.29845,"lon":5.36276,"is_reserved":false,"is_disabled":false,"rental_uris":{"android":"levelo://app?vid=3c0b4095-688f-4a0f-88cc-dfe9db2b3c79","ios":"levelo://app?vid=3c0b4095-688f-4a0f-88cc-dfe9db2b3c79"},"vehicle_type_id":"4","last_reported":1729242628,"current_range_meters":37600,"station_id":"ce4bgpp2rcd13ifvqc3g","pricing_plan_id":"cebpf4jnsgd1na2vs0mg"},{"bike_id":"a9d80141-cb04-4f88-bcc5-9763572e3517","system_id":"levelo_inurba_marseille","lat":43.23194,"lon":5.35546,"is_reserved":false,"is_disabled":false,"rental_uris":{"android":"levelo://app?vid=a9d80141-cb04-4f88-bcc5-9763572e3517","ios":"levelo://app?vid=a9d80141-cb04-4f88-bcc5-9763572e3517"},"vehicle_type_id":"4","last_reported":1729242628,"current_range_meters":28800,"station_id":"ce4bhu92rcd13ifvqi70","pricing_plan_id":"cebpf4jnsgd1na2vs0mg"},{"bike_id":"ac72b0b4-e4b8-42f9-bd0a-1bf1a2727d12","system_id":"levelo_inurba_marseille","lat":43.30537,"lon":5.36537,"is_reserved":false,"is_disabled":false,"rental_uris":{"android":"levelo://app?vid=ac72b0b4-e4b8-42f9-bd0a-1bf1a2727d12","ios":"levelo://app?vid=ac72b0b4-e4b8-42f9-bd0a-1bf1a2727d12"},"vehicle_type_id":"4","last_reported":1729242628,"current_range_meters":16400,"station_id":"ce4bgs12rcd13ifvqcag","pricing_plan_id":"cebpf4jnsgd1na2vs0mg"},{"bike_id":"cb19c9ef-045c-44f9-a7f7-62972fd1873f","system_id":"levelo_inurba_marseille","lat":43.30557,"lon":5.36533,"is_reserved":false,"is_disabled":false,"rental_uris":{"android":"levelo://app?vid=cb19c9ef-045c-44f9-a7f7-62972fd1873f","ios":"levelo://app?vid=cb19c9ef-045c-44f9-a7f7-62972fd1873f"},"vehicle_type_id":"4","last_reported":1729242628,"current_range_meters":38800,"station_id":"ce4bgs12rcd13ifvqcag","pricing_plan_id":"cebpf4jnsgd1na2vs0mg"},{"bike_id":"3ab31a18-af13-40ac-ae62-308000937349","system_id":"levelo_inurba_marseille","lat":43.25491,"lon":5.37655,"is_reserved":false,"is_disabled":false,"rental_uris":{"android":"levelo://app?vid=3ab31a18-af13-40ac-ae62-308000937349","ios":"levelo://app?vid=3ab31a18-af13-40ac-ae62-308000937349"},"vehicle_type_id":"4","last_reported":1729242628,"current_range_meters":33200,"station_id":"ce4bhh12rcd13ifvqff0","pricing_plan_id":"cebpf4jnsgd1na2vs0mg"},{"bike_id":"af52aa78-d0b5-4bff-b51e-229383967bb3","system_id":"levelo_inurba_marseille","lat":43.23151,"lon":5.43715,"is_reserved":false,"is_disabled":false,"rental_uris":{"android":"levelo://app?vid=af52aa78-d0b5-4bff-b51e-229383967bb3","ios":"levelo://app?vid=af52aa78-d0b5-4bff-b51e-229383967bb3"},"vehicle_type_id":"4","last_reported":1729242628,"current_range_meters":20800,"station_id":"ce4bhmp2rcd13ifvqgog","pricing_plan_id":"cebpf4jnsgd1na2vs0mg"},{"bike_id":"778e7354-c56d-4be0-a8ab-89b969d5863e","system_id":"levelo_inurba_marseille","lat":43.27071,"lon":5.42278,"is_reserved":false,"is_disabled":false,"rental_uris":{"android":"levelo://app?vid=778e7354-c56d-4be0-a8ab-89b969d5863e","ios":"levelo://app?vid=778e7354-c56d-4be0-a8ab-89b969d5863e"},"vehicle_type_id":"4","last_reported":1729242628,"current_range_meters":19600,"station_id":"ce4bhk92rcd13ifvqgb0","pricing_plan_id":"cebpf4jnsgd1na2vs0mg"},{"bike_id":"fd495570-0604-40fb-9f36-3e2dfe8010cf","system_id":"levelo_inurba_marseille","lat":43.25498,"lon":5.3765,"is_reserved":false,"is_disabled":false,"rental_uris":{"android":"levelo://app?vid=fd495570-0604-40fb-9f36-3e2dfe8010cf","ios":"levelo://app?vid=fd495570-0604-40fb-9f36-3e2dfe8010cf"},"vehicle_type_id":"4","last_reported":1729242628,"current_range_meters":36400,"station_id":"ce4bhh12rcd13ifvqff0","pricing_plan_id":"cebpf4jnsgd1na2vs0mg"},{"bike_id":"1545cb48-789e-48fb-b1c3-d90a50175a75","system_id":"levelo_inurba_marseille","lat":43.29799,"lon":5.40409,"is_reserved":false,"is_disabled":false,"rental_uris":{"android":"levelo://app?vid=1545cb48-789e-48fb-b1c3-d90a50175a75","ios":"levelo://app?vid=1545cb48-789e-48fb-b1c3-d90a50175a75"},"vehicle_type_id":"4","last_reported":1729242628,"current_range_meters":8400,"station_id":"ce4bh112rcd13ifvqd90","pricing_plan_id":"cebpf4jnsgd1na2vs0mg"},{"bike_id":"0776cba6-f971-4a41-bf07-9cbdc519ba6a","system_id":"levelo_inurba_marseille","lat":43.29271,"lon":5.36844,"is_reserved":false,"is_disabled":false,"rental_uris":{"android":"levelo://app?vid=0776cba6-f971-4a41-bf07-9cbdc519ba6a","ios":"levelo://app?vid=0776cba6-f971-4a41-bf07-9cbdc519ba6a"},"vehicle_type_id":"4","last_reported":1729242628,"current_range_meters":28000,"station_id":"ce4bhbp2rcd13ifvqesg","pricing_plan_id":"cebpf4jnsgd1na2vs0mg"},{"bike_id":"c9bf4f2f-c395-4348-a61a-af22ef7e335a","system_id":"levelo_inurba_marseille","lat":43.28618,"lon":5.35097,"is_reserved":false,"is_disabled":false,"rental_uris":{"android":"levelo://app?vid=c9bf4f2f-c395-4348-a61a-af22ef7e335a","ios":"levelo://app?vid=c9bf4f2f-c395-4348-a61a-af22ef7e335a"},"vehicle_type_id":"4","last_reported":1729242628,"current_range_meters":20400,"station_id":"ce4bhch2rcd13ifvqeug","pricing_plan_id":"cebpf4jnsgd1na2vs0mg"},{"bike_id":"6e4e333b-836c-482b-82e6-9d51a678996a","system_id":"levelo_inurba_marseille","lat":43.3361,"lon":5.41027,"is_reserved":false,"is_disabled":false,"rental_uris":{"android":"levelo://app?vid=6e4e333b-836c-482b-82e6-9d51a678996a","ios":"levelo://app?vid=6e4e333b-836c-482b-82e6-9d51a678996a"},"vehicle_type_id":"4","last_reported":1729242628,"current_range_meters":7200,"station_id":"ce4bhqh2rcd13ifvqhmg","pricing_plan_id":"cebpf4jnsgd1na2vs0mg"},{"bike_id":"d41309ab-1a1f-4395-acaa-455483c3f8e1","system_id":"levelo_inurba_marseille","lat":43.23197,"lon":5.35558,"is_reserved":false,"is_disabled":false,"rental_uris":{"android":"levelo://app?vid=d41309ab-1a1f-4395-acaa-455483c3f8e1","ios":"levelo://app?vid=d41309ab-1a1f-4395-acaa-455483c3f8e1"},"vehicle_type_id":"4","last_reported":1729242628,"current_range_meters":32000,"station_id":"ce4bhu92rcd13ifvqi70","pricing_plan_id":"cebpf4jnsgd1na2vs0mg"},{"bike_id":"21f97af6-e9ef-4602-bf96-05692ce869d9","system_id":"levelo_inurba_marseille","lat":43.2963,"lon":5.37146,"is_reserved":false,"is_disabled":false,"rental_uris":{"android":"levelo://app?vid=21f97af6-e9ef-4602-bf96-05692ce869d9","ios":"levelo://app?vid=21f97af6-e9ef-4602-bf96-05692ce869d9"},"vehicle_type_id":"4","last_reported":1729242628,"current_range_meters":37600,"station_id":"ce4bgnh2rcd13ifvqc0g","pricing_plan_id":"cebpf4jnsgd1na2vs0mg"},{"bike_id":"1d581705-0cae-4f83-9663-a88f9c85eaf4","system_id":"levelo_inurba_marseille","lat":43.292374,"lon":5.360815,"is_reserved":false,"is_disabled":false,"rental_uris":{"android":"levelo://app?vid=1d581705-0cae-4f83-9663-a88f9c85eaf4","ios":"levelo://app?vid=1d581705-0cae-4f83-9663-a88f9c85eaf4"},"vehicle_type_id":"4","last_reported":1729242628,"current_range_meters":37600,"station_id":"ce4bhbh2rcd13ifvqeqg","pricing_plan_id":"cebpf4jnsgd1na2vs0mg"},{"bike_id":"f360b4f3-8c7d-4fd6-9a99-d030624b127b","system_id":"levelo_inurba_marseille","lat":43.24074,"lon":5.37755,"is_reserved":false,"is_disabled":false,"rental_uris":{"android":"levelo://app?vid=f360b4f3-8c7d-4fd6-9a99-d030624b127b","ios":"levelo://app?vid=f360b4f3-8c7d-4fd6-9a99-d030624b127b"},"vehicle_type_id":"4","last_reported":1729242628,"current_range_meters":36400,"station_id":"ce4bhnp2rcd13ifvqgvg","pricing_plan_id":"cebpf4jnsgd1na2vs0mg"},{"bike_id":"141f2ed0-0910-4c11-9080-cde0ca26e329","system_id":"levelo_inurba_marseille","lat":43.31357,"lon":5.38492,"is_reserved":false,"is_disabled":false,"rental_uris":{"android":"levelo://app?vid=141f2ed0-0910-4c11-9080-cde0ca26e329","ios":"levelo://app?vid=141f2ed0-0910-4c11-9080-cde0ca26e329"},"vehicle_type_id":"4","last_reported":1729242628,"current_range_meters":25600,"station_id":"ce4bgt92rcd13ifvqcf0","pricing_plan_id":"cebpf4jnsgd1na2vs0mg"},{"bike_id":"5ab803d4-6f47-441e-8395-16ae0c054526","system_id":"levelo_inurba_marseille","lat":43.28459,"lon":5.35877,"is_reserved":false,"is_disabled":false,"rental_uris":{"android":"levelo://app?vid=5ab803d4-6f47-441e-8395-16ae0c054526","ios":"levelo://app?vid=5ab803d4-6f47-441e-8395-16ae0c054526"},"vehicle_type_id":"4","last_reported":1729242628,"current_range_meters":27600,"station_id":"ce4bhah2rcd13ifvqei0","pricing_plan_id":"cebpf4jnsgd1na2vs0mg"},{"bike_id":"4a654c34-3ad0-46cf-88c7-c256edda0841","system_id":"levelo_inurba_marseille","lat":43.25944,"lon":5.40896,"is_reserved":false,"is_disabled":false,"rental_uris":{"android":"levelo://app?vid=4a654c34-3ad0-46cf-88c7-c256edda0841","ios":"levelo://app?vid=4a654c34-3ad0-46cf-88c7-c256edda0841"},"vehicle_type_id":"4","last_reported":1729242628,"current_range_meters":20000,"station_id":"ce4bhm92rcd13ifvqglg","pricing_plan_id":"cebpf4jnsgd1na2vs0mg"},{"bike_id":"f953e4c9-0ee0-4602-b712-970c5519159e","system_id":"levelo_inurba_marseille","lat":43.2732,"lon":5.3913,"is_reserved":false,"is_disabled":false,"rental_uris":{"android":"levelo://app?vid=f953e4c9-0ee0-4602-b712-970c5519159e","ios":"levelo://app?vid=f953e4c9-0ee0-4602-b712-970c5519159e"},"vehicle_type_id":"4","last_reported":1729242628,"current_range_meters":27200,"station_id":"ce4bhgp2rcd13ifvqfe0","pricing_plan_id":"cebpf4jnsgd1na2vs0mg"},