{"last_updated":1747023280,"ttl":60,"version":"2.2","data":{"bikes":[{"bike_id":"a56fb59c-734b-47d4-95f8-eb040692ba64","system_id":"levelo_inurba_marseille","lat":43.283423,"lon":5.381099,"is_reserved":false,"is_disabled":false,"rental_uris":{"android":"levelo://app?vid=a56fb59c-734b-47d4-95f8-eb040692ba64","ios":"levelo://app?vid=a56fb59c-734b-47d4-95f8-eb040692ba64"},"vehicle_type_id":"4","last_reported":1747023280,"current_range_meters":2800,"station_id":"ce4bh412rcd13ifvqdr0","pricing_plan_id":"cebpf4jnsgd1na2vs0mg"},{"bike_id":"b07c3576-77ee-49cd-bd12-6cba331ee523","system_id":"levelo_inurba_marseille","lat":43.2902,"lon":5.35624,"is_reserved":false,"is_disabled":true,"rental_uris":{"android":"levelo://app?vid=b07c3576-77ee-49cd-bd12-6cba331ee523","ios":"levelo://app?vid=b07c3576-77ee-49cd-bd12-6cba331ee523"},"vehicle_type_id":"4","last_reported":1747023280,"current_range_meters":2800,"station_id":"ce4bhb92rcd13ifvqen0","pricing_plan_id":"cebpf4jnsgd1na2vs0mg"},{"bike_id":"648b85e8-8c21-4098-a1c7-e87f5a57ea13","system_id":"levelo_inurba_marseille","lat":43.27927,"lon":5.39569,"is_reserved":false,"is_disabled":false,"rental_uris":{"android":"levelo://app?vid=648b85e8-8c21-4098-a1c7-e87f5a57ea13","ios":"levelo://app?vid=648b85e8-8c21-4098-a1c7-e87f5a57ea13"},"vehicle_type_id":"4","last_reported":1747023280,"current_range_meters":2800,"station_id":"ce4bhf92rcd13ifvqf40","pricing_plan_id":"cebpf4jnsgd1na2vs0mg"},{"bike_id":"712c3a92-936e-42bc-8c2c-8b4dac8faebc","system_id":"levelo_inurba_marseille","lat":43.25868,"lon":5.39915,"is_reserved":false,"is_disabled":false,"rental_uris":{"android":"levelo://app?vid=712c3a92-936e-42bc-8c2c-8b4dac8faebc","ios":"levelo://app?vid=712c3a92-936e-42bc-8c2c-8b4dac8faebc"},"vehicle_type_id":"4","last_reported":1747023280,"current_range_meters":2800,"station_id":"ce4bhl92rcd13ifvqghg","pricing_plan_id":"cebpf4jnsgd1na2vs0mg"},{"bike_id":"b639e3ef-1110-4c97-a908-ecdeaf1f634f","system_id":"levelo_inurba_marseille","lat":43.29422,"lon":5.38626,"is_reserved":false,"is_disabled":false,"rental_uris":{"android":"levelo://app?vid=b639e3ef-1110-4c97-a908-ecdeaf1f634f","ios":"levelo://app?vid=b639e3ef-1110-4c97-a908-ecdeaf1f634f"},"vehicle_type_id":"4","last_reported":1747023280,"current_range_meters":3200,"station_id":"ce4bh2h2rcd13ifvqdh0","pricing_plan_id":"cebpf4jnsgd1na2vs0mg"},{"bike_id":"814c300d-d261-4866-b022-44e7c5159380","system_id":"levelo_inurba_marseille","lat":43.241662,"lon":5.363949,"is_reserved":false,"is_disabled":true,"rental_uris":{"android":"levelo://app?vid=814c300d-d261-4866-b022-44e7c5159380","ios":"levelo://app?vid=814c300d-d261-4866-b022-44e7c5159380"},"vehicle_type_id":"4","last_reported":1747023280,"current_range_meters":3600,"station_id":"cpo36qri1sfpv3e86is0","pricing_plan_id":"cebpf4jnsgd1na2vs0mg"},{"bike_id":"35556d0d-c412-462b-a9ac-1e498ca348ef","system_id":"levelo_inurba_marseille","lat":43.28694,"lon":5.39993,"is_reserved":false,"is_disabled":false,"rental_uris":{"android":"levelo://app?vid=35556d0d-c412-462b-a9ac-1e498ca348ef","ios":"levelo://app?vid=35556d0d-c412-462b-a9ac-1e498ca348ef"},"vehicle_type_id":"4","last_reported":1747023280,"current_range_meters":3600,"station_id":"ce4bho92rcd13ifvqh3g","pricing_plan_id":"cebpf4jnsgd1na2vs0mg"},{"bike_id":"c7b2effd-ed37-4223-a0c6-29d0e842dbd5","system_id":"levelo_inurba_marseille","lat":43.300496,"lon":5.378171,"is_reserved":false,"is_disabled":false,"rental_uris":{"android":"levelo://app?vid=c7b2effd-ed37-4223-a0c6-29d0e842dbd5","ios":"levelo://app?vid=c7b2effd-ed37-4223-a0c6-29d0e842dbd5"},"vehicle_type_id":"4","last_reported":1747023280,"current_range_meters":3600,"station_id":"","pricing_plan_id":"cebpf4jnsgd1na2vs0mg"},{"bike_id":"acd2365b-0782-4c62-8bd7-548d4a67c472","system_id":"levelo_inurba_marseille","lat":43.29231,"lon":5.36073,"is_reserved":false,"is_disabled":false,"rental_uris":{"android":"levelo://app?vid=acd2365b-0782-4c62-8bd7-548d4a67c472","ios":"levelo://app?vid=acd2365b-0782-4c62-8bd7-548d4a67c472"},"vehicle_type_id":"4","last_reported":1747023280,"current_range_meters":5600,"station_id":"ce4bhbh2rcd13ifvqeqg","pricing_plan_id":"cebpf4jnsgd1na2vs0mg"},{"bike_id":"f1f47090-376e-489a-b9ad-7bf5f4813c6a","system_id":"levelo_inurba_marseille","lat":43.29695,"lon":5.37658,"is_reserved":false,"is_disabled":true,"rental_uris":{"android":"levelo://app?vid=f1f47090-376e-489a-b9ad-7bf5f4813c6a","ios":"levelo://app?vid=f1f47090-376e-489a-b9ad-7bf5f4813c6a"},"vehicle_type_id":"4","last_reported":1747023280,"current_range_meters":5600,"station_id":"ce4bgkh2rcd13ifvqbl0","pricing_plan_id":"cebpf4jnsgd1na2vs0mg"},{"bike_id":"22932bc6-1947-449b-a3ce-701d2ddc38d2","system_id":"levelo_inurba_marseille","lat":43.24069,"lon":5.377694,"is_reserved":false,"is_disabled":false,"rental_uris":{"android":"levelo://app?vid=22932bc6-1947-449b-a3ce-701d2ddc38d2","ios":"levelo://app?vid=22932bc6-1947-449b-a3ce-701d2ddc38d2"},"vehicle_type_id":"4","last_reported":1747023280,"current_range_meters":6000,"station_id":"ce4bhnp2rcd13ifvqgvg","pricing_plan_id":"cebpf4jnsgd1na2vs0mg"},{"bike_id":"c9941b8e-5b66-4776-a203-b6afeb51a3b6","system_id":"levelo_inurba_marseille","lat":43.30941,"lon":5.40164,"is_reserved":false,"is_disabled":false,"rental_uris":{"android":"levelo://app?vid=c9941b8e-5b66-4776-a203-b6afeb51a3b6","ios":"levelo://app?vid=c9941b8e-5b66-4776-a203-b6afeb51a3b6"},"vehicle_type_id":"4","last_reported":1747023280,"current_range_meters":6400,"station_id":"ce4bgvp2rcd13ifvqct0","pricing_plan_id":"cebpf4jnsgd1na2vs0mg"},{"bike_id":"44671461-af10-46f7-ae3d-4a63a7e1326f","system_id":"levelo_inurba_marseille","lat":43.27829,"lon":5.40709,"is_reserved":false,"is_disabled":false,"rental_uris":{"android":"levelo://app?vid=44671461-af10-46f7-ae3d-4a63a7e1326f","ios":"levelo://app?vid=44671461-af10-46f7-ae3d-4a63a7e1326f"},"vehicle_type_id":"4","last_reported":1747023280,"current_range_meters":6400,"station_id":"ce4bhnh2rcd13ifvqgtg","pricing_plan_id":"cebpf4jnsgd1na2vs0mg"},{"bike_id":"49142c95-cd3f-4ce9-8c74-4af1eebe34c7","system_id":"levelo_inurba_marseille","lat":43.31982,"lon":5.38173,"is_reserved":false,"is_disabled":false,"rental_uris":{"android":"levelo://app?vid=49142c95-cd3f-4ce9-8c74-4af1eebe34c7","ios":"levelo://app?vid=49142c95-cd3f-4ce9-8c74-4af1eebe34c7"},"vehicle_type_id":"4","last_reported":1747023280,"current_range_meters":6800,"station_id":"ce4bhr12rcd13ifvqhpg","pricing_plan_id":"cebpf4jnsgd1na2vs0mg"},{"bike_id":"48b73517-8a40-4b3f-aad3-968dd3319f04","system_id":"levelo_inurba_marseille","lat":43.31713,"lon":5.43698,"is_reserved":false,"is_disabled":false,"rental_uris":{"android":"levelo://app?vid=48b73517-8a40-4b3f-aad3-968dd3319f04","ios":"levelo://app?vid=48b73517-8a40-4b3f-aad3-968dd3319f04"},"vehicle_type_id":"4","last_reported":1747023280,"current_range_meters":6800,"station_id":"ce4bhp92rcd13ifvqhcg","pricing_plan_id":"cebpf4jnsgd1na2vs0mg"},{"bike_id":"a2caaaf9-7893-49ed-8650-aedce0e60aba","system_id":"levelo_inurba_marseille","lat":43.25103,"lon":5.39554,"is_reserved":false,"is_disabled":false,"rental_uris":{"android":"levelo://app?vid=a2caaaf9-7893-49ed-8650-aedce0e60aba","ios":"levelo://app?vid=a2caaaf9-7893-49ed-8650-aedce0e60aba"},"vehicle_type_id":"4","last_reported":1747023280,"current_range_meters":6800,"station_id":"ce4bhm12rcd13ifvqgkg","pricing_plan_id":"cebpf4jnsgd1na2vs0mg"},{"bike_id":"fc2577e7-1497-425b-9d4f-ab8d7dc843c6","system_id":"levelo_inurba_marseille","lat":43.33771,"lon":5.37485,"is_reserved":false,"is_disabled":false,"rental_uris":{"android":"levelo://app?vid=fc2577e7-1497-425b-9d4f-ab8d7dc843c6","ios":"levelo://app?vid=fc2577e7-1497-425b-9d4f-ab8d7dc843c6"},"vehicle_type_id":"4","last_reported":1747023280,"current_range_meters":7200,"station_id":"","pricing_plan_id":"cebpf4jnsgd1na2vs0mg"},{"bike_id":"bfd5e787-a75e-4dab-9738-e35cbb0c870a","system_id":"levelo_inurba_marseille","lat":43.3248,"lon":5.36574,"is_reserved":false,"is_disabled":false,"rental_uris":{"android":"levelo://app?vid=bfd5e787-a75e-4dab-9738-e35cbb0c870a","ios":"levelo://app?vid=bfd5e787-a75e-4dab-9738-e35cbb0c870a"},"vehicle_type_id":"4","last_reported":1747023280,"current_range_meters":7200,"station_id":"ce4bhs12rcd13ifvqhvg","pricing_plan_id":"cebpf4jnsgd1na2vs0mg"},{"bike_id":"63bdd50a-b728-4d10-9320-dbc9bfa5973f","system_id":"levelo_inurba_marseille","lat":43.27082,"lon":5.42296,"is_reserved":false,"is_disabled":false,"rental_uris":{"android":"levelo://app?vid=63bdd50a-b728-4d10-9320-dbc9bfa5973f","ios":"levelo://app?vid=63bdd50a-b728-4d10-9320-dbc9bfa5973f"},"vehicle_type_id":"4","last_reported":1747023280,"current_range_meters":7200,"station_id":"ce4bhk92rcd13ifvqgb0","pricing_plan_id":"cebpf4jnsgd1na2vs0mg"},{"bike_id":"349ab267-2d63-414f-8605-837bf3d40763","system_id":"levelo_inurba_marseille","lat":43.264949,"lon":5.395507,"is_reserved":false,"is_disabled":false,"rental_uris":{"android":"levelo://app?vid=349ab267-2d63-414f-8605-837bf3d40763","ios":"levelo://app?vid=349ab267-2d63-414f-8605-837bf3d40763"},"vehicle_type_id":"4","last_reported":1747023280,"current_range_meters":7200,"station_id":"ce4bhi12rcd13ifvqfq0","pricing_plan_id":"cebpf4jnsgd1na2vs0mg"},{"bike_id":"41f43e05-d897-45ff-8bad-32a9a60e29b8","system_id":"levelo_inurba_marseille","lat":43.30298,"lon":5.36591,"is_reserved":false,"is_disabled":false,"rental_uris":{"android":"levelo://app?vid=41f43e05-d897-45ff-8bad-32a9a60e29b8","ios":"levelo://app?vid=41f43e05-d897-45ff-8bad-32a9a60e29b8"},"vehicle_type_id":"4","last_reported":1747023280,"current_range_meters":7200,"station_id":"","pricing_plan_id":"cebpf4jnsgd1na2vs0mg"},{"bike_id":"4be526c1-c099-4e56-8476-6a072fafda70","system_id":"levelo_inurba_marseille","lat":43.25112,"lon":5.403222,"is_reserved":false,"is_disabled":false,"rental_uris":{"android":"levelo://app?vid=4be526c1-c099-4e56-8476-6a072fafda70","ios":"levelo://app?vid=4be526c1-c099-4e56-8476-6a072fafda70"},"vehicle_type_id":"4","last_reported":1747023280,"current_range_meters":7200,"station_id":"ce4bhlh2rcd13ifvqgig","pricing_plan_id":"cebpf4jnsgd1na2vs0mg"},{"bike_id":"79ae0aca-448b-4e6b-b2a5-1eca06e4ee41","system_id":"levelo_inurba_marseille","lat":43.27322,"lon":5.3621,"is_reserved":false,"is_disabled":false,"rental_uris":{"android":"levelo://app?vid=79ae0aca-448b-4e6b-b2a5-1eca06e4ee41","ios":"levelo://app?vid=79ae0aca-448b-4e6b-b2a5-1eca06e4ee41"},"vehicle_type_id":"4","last_reported":1747023280,"current_range_meters":8000,"station_id":"","pricing_plan_id":"cebpf4jnsgd1na2vs0mg"},{"bike_id":"c7e49f24-e3ee-4dae-9794-2cd6113e9290","system_id":"levelo_inurba_marseille","lat":43.30622,"lon":5.37188,"is_reserved":false,"is_disabled":false,"rental_uris":{"android":"levelo://app?vid=c7e49f24-e3ee-4dae-9794-2cd6113e9290","ios":"levelo://app?vid=c7e49f24-e3ee-4dae-9794-2cd6113e9290"},"vehicle_type_id":"4","last_reported":1747023280,"current_range_meters":8000,"station_id":"ce4bgqh2rcd13ifvqc4g","pricing_plan_id":"cebpf4jnsgd1na2vs0mg"},{"bike_id":"3aa75863-fce6-4b94-9f5b-9c0ad58d1acf","system_id":"levelo_inurba_marseille","lat":43.24161,"lon":5.36392,"is_reserved":false,"is_disabled":false,"rental_uris":{"android":"levelo://app?vid=3aa75863-fce6-4b94-9f5b-9c0ad58d1acf","ios":"levelo://app?vid=3aa75863-fce6-4b94-9f5b-9c0ad58d1acf"},"vehicle_type_id":"4","last_reported":1747023280,"current_range_meters":8000,"station_id":"cpo36qri1sfpv3e86is0","pricing_plan_id":"cebpf4jnsgd1na2vs0mg"},{"bike_id":"06f516e2-a624-409e-9fe6-be2ca00c1950","system_id":"levelo_inurba_marseille","lat":43.2468,"lon":5.38208,"is_reserved":false,"is_disabled":false,"rental_uris":{"android":"levelo://app?vid=06f516e2-a624-409e-9fe6-be2ca00c1950","ios":"levelo://app?vid=06f516e2-a624-409e-9fe6-be2ca00c1950"},"vehicle_type_id":"4","last_reported":1747023280,"current_range_meters":8000,"station_id":"ce4bhih2rcd13ifvqfr0","pricing_plan_id":"cebpf4jnsgd1na2vs0mg"},{"bike_id":"910f58e1-bc11-4d4a-be16-a826726f8216","system_id":"levelo_inurba_marseille","lat":43.290468,"lon":5.359034,"is_reserved":false,"is_disabled":true,"rental_uris":{"android":"levelo://app?vid=910f58e1-bc11-4d4a-be16-a826726f8216","ios":"levelo://app?vid=910f58e1-bc11-4d4a-be16-a826726f8216"},"vehicle_type_id":"4","last_reported":1747023280,"current_range_meters":8000,"station_id":"ce4bha92rcd13ifvqeg0","pricing_plan_id":"cebpf4jnsgd1na2vs0mg"},{"bike_id":"95c07f58-992e-486e-9e01-f8c38af93653","system_id":"levelo_inurba_marseille","lat":43.305394,"lon":5.367076,"is_reserved":false,"is_disabled":true,"rental_uris":{"android":"levelo://app?vid=95c07f58-992e-486e-9e01-f8c38af93653","ios":"levelo://app?vid=95c07f58-992e-486e-9e01-f8c38af93653"},"vehicle_type_id":"4","last_reported":1747023280,"current_range_meters":8000,"station_id":"ce4bgrp2rcd13ifvqc9g","pricing_plan_id":"cebpf4jnsgd1na2vs0mg"},{"bike_id":"f9d16859-c623-411e-bbcb-c426981ab6d7","system_id":"levelo_inurba_marseille","lat":43.265584,"lon":5.390248,"is_reserved":false,"is_disabled":false,"rental_uris":{"android":"levelo://app?vid=f9d16859-c623-411e-bbcb-c426981ab6d7","ios":"levelo://app?vid=f9d16859-c623-411e-bbcb-c426981ab6d7"},"vehicle_type_id":"4","last_reported":1747023280,"current_range_meters":8400,"station_id":"ce4bhe12rcd13ifvqf30","pricing_plan_id":"cebpf4jnsgd1na2vs0mg"},{"bike_id":"cda33d96-b0f5-4976-a031-efabf74d78c8","system_id":"levelo_inurba_marseille","lat":43.305143,"lon":5.366093,"is_reserved":false,"is_disabled":false,"rental_uris":{"android":"levelo://app?vid=cda33d96-b0f5-4976-a031-efabf74d78c8","ios":"levelo://app?vid=cda33d96-b0f5-4976-a031-efabf74d78c8"},"vehicle_type_id":"4","last_reported":1747023280,"current_range_meters":8400,"station_id":"","pricing_plan_id":"cebpf4jnsgd1na2vs0mg"},{"bike_id":"5d616a98-f6a1-4789-a02d-abb0d20dd49c","system_id":"levelo_inurba_marseille","lat":43.23189,"lon":5.399877,"is_reserved":false,"is_disabled":true,"rental_uris":{"android":"levelo://app?vid=5d616a98-f6a1-4789-a02d-abb0d20dd49c","ios":"levelo://app?vid=5d616a98-f6a1-4789-a02d-abb0d20dd49c"},"vehicle_type_id":"4","last_reported":1747023280,"current_range_meters":8400,"station_id":"ce4bhn12rcd13ifvqgqg","pricing_plan_id":"cebpf4jnsgd1na2vs0mg"},{"bike_id":"38fd2285-da0e-4f6a-be1d-f6c2112df572","system_id":"levelo_inurba_marseille","lat":43.28664,"lon":5.36353,"is_reserved":false,"is_disabled":true,"rental_uris":{"android":"levelo://app?vid=38fd2285-da0e-4f6a-be1d-f6c2112df572","ios":"levelo://app?vid=38fd2285-da0e-4f6a-be1d-f6c2112df572"},"vehicle_type_id":"4","last_reported":1747023280,"current_range_meters":8400,"station_id":"ce4bhah2rcd13ifvqej0","pricing_plan_id":"cebpf4jnsgd1na2vs0mg"},{"bike_id":"e7fa570d-84b5-4cf9-a1d8-279172e9675f","system_id":"levelo_inurba_marseille","lat":43.301355,"lon":5.398689,"is_reserved":false,"is_disabled":false,"rental_uris":{"android":"levelo://app?vid=e7fa570d-84b5-4cf9-a1d8-279172e9675f","ios":"levelo://app?vid=e7fa570d-84b5-4cf9-a1d8-279172e9675f"},"vehicle_type_id":"4","last_reported":1747023280,"current_range_meters":8400,"station_id":"ce4bh0h2rcd13ifvqd40","pricing_plan_id":"cebpf4jnsgd1na2vs0mg"},{"bike_id":"8a17cb83-f1c1-4246-8513-90f3c14cfa95","system_id":"levelo_inurba_marseille","lat":43.30154,"lon":5.38083,"is_reserved":false,"is_disabled":false,"rental_uris":{"android":"levelo://app?vid=8a17cb83-f1c1-4246-8513-90f3c14cfa95","ios":"levelo://app?vid=8a17cb83-f1c1-4246-8513-90f3c14cfa95"},"vehicle_type_id":"4","last_reported":1747023280,"current_range_meters":8400,"station_id":"ce4bgjp2rcd13ifvqbh0","pricing_plan_id":"cebpf4jnsgd1na2vs0mg"},{"bike_id":"6d705489-d3d5-4e12-a28e-5d7bb8b109f3","system_id":"levelo_inurba_marseille","lat":43.268387,"lon":5.427631,"is_reserved":false,"is_disabled":false,"rental_uris":{"android":"levelo://app?vid=6d705489-d3d5-4e12-a28e-5d7bb8b109f3","ios":"levelo://app?vid=6d705489-d3d5-4e12-a28e-5d7bb8b109f3"},"vehicle_type_id":"4","last_reported":1747023280,"current_range_meters":8800,"station_id":"","pricing_plan_id":"cebpf4jnsgd1na2vs0mg"},{"bike_id":"c781db57-0d15-4bd3-ae62-a55ba5955038","system_id":"levelo_inurba_marseille","lat":43.23175,"lon":5.39996,"is_reserved":false,"is_disabled":false,"rental_uris":{"android":"levelo://app?vid=c781db57-0d15-4bd3-ae62-a55ba5955038","ios":"levelo://app?vid=c781db57-0d15-4bd3-ae62-a55ba5955038"},"vehicle_type_id":"4","last_reported":1747023280,"current_range_meters":8800,"station_id":"ce4bhn12rcd13ifvqgqg","pricing_plan_id":"cebpf4jnsgd1na2vs0mg"},{"bike_id":"237c3cfb-c5b3-4b77-a847-367a3775064d","system_id":"levelo_inurba_marseille","lat":43.31995,"lon":5.38138,"is_reserved":false,"is_disabled":false,"rental_uris":{"android":"levelo://app?vid=237c3cfb-c5b3-4b77-a847-367a3775064d","ios":"levelo://app?vid=237c3cfb-c5b3-4b77-a847-367a3775064d"},"vehicle_type_id":"4","last_reported":1747023280,"current_range_meters":8800,"station_id":"ce4bhr12rcd13ifvqhpg","pricing_plan_id":"cebpf4jnsgd1na2vs0mg"},{"bike_id":"a02ff3d0-dabc-4f80-a7ca-75d2665902bc","system_id":"levelo_inurba_marseille","lat":43.28455,"lon":5.37526,"is_reserved":false,"is_disabled":false,"rental_uris":{"android":"levelo://app?vid=a02ff3d0-dabc-4f80-a7ca-75d2665902bc","ios":"levelo://app?vid=a02ff3d0-dabc-4f80-a7ca-75d2665902bc"},"vehicle_type_id":"4","last_reported":1747023280,"current_range_meters":8800,"station_id":"","pricing_plan_id":"cebpf4jnsgd1na2vs0mg"},{"bike_id":"4b460be1-c693-4bb9-911d-ee0bb3e597f1","system_id":"levelo_inurba_marseille","lat":43.32462,"lon":5.3659,"is_reserved":false,"is_disabled":false,"rental_uris":{"android":"levelo://app?vid=4b460be1-c693-4bb9-911d-ee0bb3e597f1","ios":"levelo://app?vid=4b460be1-c693-4bb9-911d-ee0bb3e597f1"},"vehicle_type_id":"4","last_reported":1747023280,"current_range_meters":9200,"station_id":"ce4bhs12rcd13ifvqhvg","pricing_plan_id":"cebpf4jnsgd1na2vs0mg"},{"bike_id":"a1121b36-b5cd-4dda-96ef-13a3dfaa55e1","system_id":"levelo_inurba_marseille","lat":43.301401,"lon":5.387791,"is_reserved":false,"is_disabled":false,"rental_uris":{"android":"levelo://app?vid=a1121b36-b5cd-4dda-96ef-13a3dfaa55e1","ios":"levelo://app?vid=a1121b36-b5cd-4dda-96ef-13a3dfaa55e1"},"vehicle_type_id":"4","last_reported":1747023280,"current_range_meters":9200,"station_id":"","pricing_plan_id":"cebpf4jnsgd1na2vs0mg"},{"bike_id":"6663a384-abed-48bd-861f-d563c5fcecd4","system_id":"levelo_inurba_marseille","lat":43.284179,"lon":5.349868,"is_reserved":false,"is_disabled":true,"rental_uris":{"android":"levelo://app?vid=6663a384-abed-48bd-861f-d563c5fcecd4","ios":"levelo://app?vid=6663a384-abed-48bd-861f-d563c5fcecd4"},"vehicle_type_id":"4","last_reported":1747023280,"current_range_meters":9200,"station_id":"ce4bhbh2rcd13ifvqepg","pricing_plan_id":"cebpf4jnsgd1na2vs0mg"},{"bike_id":"1bb283e0-6fa3-41ba-b6ff-8bae02896504","system_id":"levelo_inurba_marseille","lat":43.2867,"lon":5.38668,"is_reserved":false,"is_disabled":false,"rental_uris":{"android":"levelo://app?vid=1bb283e0-6fa3-41ba-b6ff-8bae02896504","ios":"levelo://app?vid=1bb283e0-6fa3-41ba-b6ff-8bae02896504"},"vehicle_type_id":"4","last_reported":1747023280,"current_range_meters":9200,"station_id":"ce4bh492rcd13ifvqdug","pricing_plan_id":"cebpf4jnsgd1na2vs0mg"},{"bike_id":"d83b7170-8eed-47c1-b0ec-1140d3a45dea","system_id":"levelo_inurba_marseille","lat":43.30764,"lon":5.43538,"is_reserved":false,"is_disabled":false,"rental_uris":{"android":"levelo://app?vid=d83b7170-8eed-47c1-b0ec-1140d3a45dea","ios":"levelo://app?vid=d83b7170-8eed-47c1-b0ec-1140d3a45dea"},"vehicle_type_id":"4","last_reported":1747023280,"current_range_meters":9200,"station_id":"ce4bhph2rcd13ifvqheg","pricing_plan_id":"cebpf4jnsgd1na2vs0mg"},{"bike_id":"9c54648a-e987-4681-990c-bc1749d61914","system_id":"levelo_inurba_marseille","lat":43.25145,"lon":5.40347,"is_reserved":false,"is_disabled":false,"rental_uris":{"android":"levelo://app?vid=9c54648a-e987-4681-990c-bc1749d61914","ios":"levelo://app?vid=9c54648a-e987-4681-990c-bc1749d61914"},"vehicle_type_id":"4","last_reported":1747023280,"current_range_meters":9600,"station_id":"ce4bhlh2rcd13ifvqgig","pricing_plan_id":"cebpf4jnsgd1na2vs0mg"},{"bike_id":"9c69fbc5-0258-4d5f-a17d-8299cd877177","system_id":"levelo_inurba_marseille","lat":43.3125,"lon":5.36879,"is_reserved":false,"is_disabled":true,"rental_uris":{"android":"levelo://app?vid=9c69fbc5-0258-4d5f-a17d-8299cd877177","ios":"levelo://app?vid=9c69fbc5-0258-4d5f-a17d-8299cd877177"},"vehicle_type_id":"4","last_reported":1747023280,"current_range_meters":9600,"station_id":"ce4bgl92rcd13ifvqbq0","pricing_plan_id":"cebpf4jnsgd1na2vs0mg"},{"bike_id":"ec05fdfc-1b4c-4e4c-90d7-af010020d440","system_id":"levelo_inurba_marseille","lat":43.24682,"lon":5.38165,"is_reserved":false,"is_disabled":false,"rental_uris":{"android":"levelo://app?vid=ec05fdfc-1b4c-4e4c-90d7-af010020d440","ios":"levelo://app?vid=ec05fdfc-1b4c-4e4c-90d7-af010020d440"},"vehicle_type_id":"4","last_reported":1747023280,"current_range_meters":9600,"station_id":"ce4bhih2rcd13ifvqfr0","pricing_plan_id":"cebpf4jnsgd1na2vs0mg"},{"bike_id":"628f3f71-de45-4fc2-94a4-ea181a0f325f","system_id":"levelo_inurba_marseille","lat":43.23152,"lon":5.40012,"is_reserved":false,"is_disabled":false,"rental_uris":{"android":"levelo://app?vid=628f3f71-de45-4fc2-94a4-ea181a0f325f","ios":"levelo://app?vid=628f3f71-de45-4fc2-94a4-ea181a0f325f"},"vehicle_type_id":"4","last_reported":1747023280,"current_range_meters":9600,"station_id":"ce4bhn12rcd13ifvqgqg","pricing_plan_id":"cebpf4jnsgd1na2vs0mg"},{"bike_id":"3ee007b4-701a-43a3-a268-87c67c8eea49","system_id":"levelo_inurba_marseille","lat":43.26228,"lon":5.40479,"is_reserved":false,"is_disabled":false,"rental_uris":{"android":"levelo://app?vid=3ee007b4-701a-43a3-a268-87c67c8eea49","ios":"levelo://app?vid=3ee007b4-701a-43a3-a268-87c67c8eea49"},"vehicle_type_id":"4","last_reported":1747023280,"current_range_meters":9600,"station_id":"ce4bhmh2rcd13ifvqgmg","pricing_plan_id":"cebpf4jnsgd1na2vs0mg"},{"bike_id":"c33c979d-9903-40dc-a17f-25ccdad88704","system_id":"levelo_inurba_marseille","lat":43.295144,"lon":5.393997,"is_reserved":false,"is_disabled":true,"rental_uris":{"android":"levelo://app?vid=c33c979d-9903-40dc-a17f-25ccdad88704","ios":"levelo://app?vid=c33c979d-9903-40dc-a17f-25ccdad88704"},"vehicle_type_id":"4","last_reported":1747023280,"current_range_meters":9600,"station_id":"ce4bh292rcd13ifvqdf0","pricing_plan_id":"cebpf4jnsgd1na2vs0mg"},{"bike_id":"082c1f9f-4719-4cfe-b34a-37cfa3666b2e","system_id":"levelo_inurba_marseille","lat":43.28728,"lon":5.39997,"is_reserved":false,"is_disabled":true,"rental_uris":{"android":"levelo://app?vid=082c1f9f-4719-4cfe-b34a-37cfa3666b2e","ios":"levelo://app?vid=082c1f9f-4719-4cfe-b34a-37cfa3666b2e"},"vehicle_type_id":"4","last_reported":1747023280,"current_range_meters":9600,"station_id":"ce4bho92rcd13ifvqh3g","pricing_plan_id":"cebpf4jnsgd1na2vs0mg"},{"bike_id":"e52bd7d4-e04d-400f-87c6-90264f742d5d","system_id":"levelo_inurba_marseille","lat":43.28424,"lon":5.37514,"is_reserved":false,"is_disabled":false,"rental_uris":{"android":"levelo://app?vid=e52bd7d4-e04d-400f-87c6-90264f742d5d","ios":"levelo://app?vid=e52bd7d4-e04d-400f-87c6-90264f742d5d"},"vehicle_type_id":"4","last_reported":1747023280,"current_range_meters":9600,"station_id":"ce4bh412rcd13ifvqds0","pricing_plan_id":"cebpf4jnsgd1na2vs0mg"},{"bike_id":"093772c5-fb44-482c-a0c3-8501aa31b989","system_id":"levelo_inurba_marseille","lat":43.29893,"lon":5.43658,"is_reserved":false,"is_disabled":false,"rental_uris":{"android":"levelo://app?vid=093772c5-fb44-482c-a0c3-8501aa31b989","ios":"levelo://app?vid=093772c5-fb44-482c-a0c3-8501aa31b989"},"vehicle_type_id":"4","last_reported":1747023280,"current_range_meters":9600,"station_id":"ce4bhpp2rcd13ifvqhfg","pricing_plan_id":"cebpf4jnsgd1na2vs0mg"},{"bike_id":"8affc4c7-38d4-40a1-adbe-55ee2ff78715","system_id":"levelo_inurba_marseille","lat":43.296938,"lon":5.372862,"is_reserved":false,"is_disabled":false,"rental_uris":{"android":"levelo://app?vid=8affc4c7-38d4-40a1-adbe-55ee2ff78715","ios":"levelo://app?vid=8affc4c7-38d4-40a1-adbe-55ee2ff78715"},"vehicle_type_id":"4","last_reported":1747023280,"current_range_meters":10000,"station_id":"ce4bgk12rcd13ifvqbj0","pricing_plan_id":"cebpf4jnsgd1na2vs0mg"},{"bike_id":"4b8071f5-69a5-472c-8c01-3da02b499dbe","system_id":"levelo_inurba_marseille","lat":43.292678,"lon":5.368446,"is_reserved":false,"is_disabled":true,"rental_uris":{"android":"levelo://app?vid=4b8071f5-69a5-472c-8c01-3da02b499dbe","ios":"levelo://app?vid=4b8071f5-69a5-472c-8c01-3da02b499dbe"},"vehicle_type_id":"4","last_reported":1747023280,"current_range_meters":10000,"station_id":"ce4bhbp2rcd13ifvqesg","pricing_plan_id":"cebpf4jnsgd1na2vs0mg"},{"bike_id":"4071bc6b-0376-4f46-b2a9-db87b2084a00","system_id":"levelo_inurba_marseille","lat":43.28272,"lon":5.35067,"is_reserved":false,"is_disabled":true,"rental_uris":{"android":"levelo://app?vid=4071bc6b-0376-4f46-b2a9-db87b2084a00","ios":"levelo://app?vid=4071bc6b-0376-4f46-b2a9-db87b2084a00"},"vehicle_type_id":"4","last_reported":1747023280,"current_range_meters":10000,"station_id":"ce4bhbp2rcd13ifvqerg","pricing_plan_id":"cebpf4jnsgd1na2vs0mg"},{"bike_id":"14a6e8ff-d441-4237-b12f-0b46baf4884d","system_id":"levelo_inurba_marseille","lat":43.279143,"lon":5.395742,"is_reserved":false,"is_disabled":false,"rental_uris":{"android":"levelo://app?vid=14a6e8ff-d441-4237-b12f-0b46baf4884d","ios":"levelo://app?vid=14a6e8ff-d441-4237-b12f-0b46baf4884d"},"vehicle_type_id":"4","last_reported":1747023280,"current_range_meters":10000,"station_id":"ce4bhf92rcd13ifvqf40","pricing_plan_id":"cebpf4jnsgd1na2vs0mg"},{"bike_id":"c80f8f6d-0a84-40ba-a770-93ad44f051f3","system_id":"levelo_inurba_marseille","lat":43.295336,"lon":5.385441,"is_reserved":false,"is_disabled":true,"rental_uris":{"android":"levelo://app?vid=c80f8f6d-0a84-40ba-a770-93ad44f051f3","ios":"levelo://app?vid=c80f8f6d-0a84-40ba-a770-93ad44f051f3"},"vehicle_type_id":"4","last_reported":1747023280,"current_range_meters":10000,"station_id":"ce4bgih2rcd13ifvqba0","pricing_plan_id":"cebpf4jnsgd1na2vs0mg"},{"bike_id":"b1b013fd-f0df-4fdf-b291-26a881a8b080","system_id":"levelo_inurba_marseille","lat":43.23152,"lon":5.39998,"is_reserved":false,"is_disabled":false,"rental_uris":{"android":"levelo://app?vid=b1b013fd-f0df-4fdf-b291-26a881a8b080","ios":"levelo://app?vid=b1b013fd-f0df-4fdf-b291-26a881a8b080"},"vehicle_type_id":"4","last_reported":1747023280,"current_range_meters":10000,"station_id":"ce4bhn12rcd13ifvqgqg","pricing_plan_id":"cebpf4jnsgd1na2vs0mg"},{"bike_id":"de608a0b-278b-468e-957e-8246fb76906b","system_id":"levelo_inurba_marseille","lat":43.279501,"lon":5.387152,"is_reserved":false,"is_disabled":true,"rental_uris":{"android":"levelo://app?vid=de608a0b-278b-468e-957e-8246fb76906b","ios":"levelo://app?vid=de608a0b-278b-468e-957e-8246fb76906b"},"vehicle_type_id":"4","last_reported":1747023280,"current_range_meters":10000,"station_id":"ce4bhg12rcd13ifvqf80","pricing_plan_id":"cebpf4jnsgd1na2vs0mg"},{"bike_id":"83a5dddc-f08f-476e-a316-d0e0dfb65037","system_id":"levelo_inurba_marseille","lat":43.31719,"lon":5.42437,"is_reserved":false,"is_disabled":false,"rental_uris":{"android":"levelo://app?vid=83a5dddc-f08f-476e-a316-d0e0dfb65037","ios":"levelo://app?vid=83a5dddc-f08f-476e-a316-d0e0dfb65037"},"vehicle_type_id":"4","last_reported":1747023280,"current_range_meters":10800,"station_id":"ce4bhp92rcd13ifvqhbg","pricing_plan_id":"cebpf4jnsgd1na2vs0mg"},{"bike_id":"19708695-a8ee-4716-9e14-a794ed2f1a40","system_id":"levelo_inurba_marseille","lat":43.265651,"lon":5.39013,"is_reserved":false,"is_disabled":false,"rental_uris":{"android":"levelo://app?vid=19708695-a8ee-4716-9e14-a794ed2f1a40","ios":"levelo://app?vid=19708695-a8ee-4716-9e14-a794ed2f1a40"},"vehicle_type_id":"4","last_reported":1747023280,"current_range_meters":10800,"station_id":"ce4bhe12rcd13ifvqf30","pricing_plan_id":"cebpf4jnsgd1na2vs0mg"},{"bike_id":"3e65b7fa-d7c3-4fd7-ba88-2c063c440251","system_id":"levelo_inurba_marseille","lat":43.251185,"lon":5.403232,"is_reserved":false,"is_disabled":false,"rental_uris":{"android":"levelo://app?vid=3e65b7fa-d7c3-4fd7-ba88-2c063c440251","ios":"levelo://app?vid=3e65b7fa-d7c3-4fd7-ba88-2c063c440251"},"vehicle_type_id":"4","last_reported":1747023280,"current_range_meters":10800,"station_id":"ce4bhlh2rcd13ifvqgig","pricing_plan_id":"cebpf4jnsgd1na2vs0mg"},{"bike_id":"2fb64400-efcb-41b4-be92-3b33a77e43bc","system_id":"levelo_inurba_marseille","lat":43.26589,"lon":5.39015,"is_reserved":false,"is_disabled":false,"rental_uris":{"android":"levelo://app?vid=2fb64400-efcb-41b4-be92-3b33a77e43bc","ios":"levelo://app?vid=2fb64400-efcb-41b4-be92-3b33a77e43bc"},"vehicle_type_id":"4","last_reported":1747023280,"current_range_meters":10800,"station_id":"ce4bhe12rcd13ifvqf30","pricing_plan_id":"cebpf4jnsgd1na2vs0mg"},{"bike_id":"95484b73-92ae-42f6-aff2-4b4e6bd53aff","system_id":"levelo_inurba_marseille","lat":43.30142,"lon":5.38092,"is_reserved":false,"is_disabled":false,"rental_uris":{"android":"levelo://app?vid=95484b73-92ae-42f6-aff2-4b4e6bd53aff","ios":"levelo://app?vid=95484b73-92ae-42f6-aff2-4b4e6bd53aff"},"vehicle_type_id":"4","last_reported":1747023280,"current_range_meters":10800,"station_id":"ce4bgjp2rcd13ifvqbh0","pricing_plan_id":"cebpf4jnsgd1na2vs0mg"},{"bike_id":"283fdfb9-005b-4325-8d66-9428f105ee8b","system_id":"levelo_inurba_marseille","lat":43.30958,"lon":5.37441,"is_reserved":false,"is_disabled":false,"rental_uris":{"android":"levelo://app?vid=283fdfb9-005b-4325-8d66-9428f105ee8b","ios":"levelo://app?vid=283fdfb9-005b-4325-8d66-9428f105ee8b"},"vehicle_type_id":"4","last_reported":1747023280,"current_range_meters":10800,"station_id":"","pricing_plan_id":"cebpf4jnsgd1na2vs0mg"},{"bike_id":"de4a530f-3b17-41b9-bd98-d22e64d46bdc","system_id":"levelo_inurba_marseille","lat":43.321057,"lon":5.367755,"is_reserved":false,"is_disabled":false,"rental_uris":{"android":"levelo://app?vid=de4a530f-3b17-41b9-bd98-d22e64d46bdc","ios":"levelo://app?vid=de4a530f-3b17-41b9-bd98-d22e64d46bdc"},"vehicle_type_id":"4","last_reported":1747023280,"current_range_meters":10800,"station_id":"ce4bhrh2rcd13ifvqhug","pricing_plan_id":"cebpf4jnsgd1na2vs0mg"},{"bike_id":"f52c819d-ca4b-4640-b458-b877db1bf990","system_id":"levelo_inurba_marseille","lat":43.29863,"lon":5.41021,"is_reserved":false,"is_disabled":false,"rental_uris":{"android":"levelo://app?vid=f52c819d-ca4b-4640-b458-b877db1bf990","ios":"levelo://app?vid=f52c819d-ca4b-4640-b458-b877db1bf990"},"vehicle_type_id":"4","last_reported":1747023280,"current_range_meters":11200,"station_id":"","pricing_plan_id":"cebpf4jnsgd1na2vs0mg"},{"bike_id":"75f7e021-a9c5-4232-90b8-1417f51b2982","system_id":"levelo_inurba_marseille","lat":43.2248,"lon":5.34786,"is_reserved":false,"is_disabled":true,"rental_uris":{"android":"levelo://app?vid=75f7e021-a9c5-4232-90b8-1417f51b2982","ios":"levelo://app?vid=75f7e021-a9c5-4232-90b8-1417f51b2982"},"vehicle_type_id":"4","last_reported":1747023280,"current_range_meters":11200,"station_id":"st_cvj5dfep6f1abm77gieg","pricing_plan_id":"cebpf4jnsgd1na2vs0mg"},{"bike_id":"ba28b25e-7432-4e5a-962d-e952fc53bbcd","system_id":"levelo_inurba_marseille","lat":43.26229,"lon":5.40454,"is_reserved":false,"is_disabled":false,"rental_uris":{"android":"levelo://app?vid=ba28b25e-7432-4e5a-962d-e952fc53bbcd","ios":"levelo://app?vid=ba28b25e-7432-4e5a-962d-e952fc53bbcd"},"vehicle_type_id":"4","last_reported":1747023280,"current_range_meters":11200,"station_id":"ce4bhmh2rcd13ifvqgmg","pricing_plan_id":"cebpf4jnsgd1na2vs0mg"},{"bike_id":"fe8a300c-df4c-42e1-b092-cce77e5975ce","system_id":"levelo_inurba_marseille","lat":43.25748,"lon":5.41098,"is_reserved":false,"is_disabled":false,"rental_uris":{"android":"levelo://app?vid=fe8a300c-df4c-42e1-b092-cce77e5975ce","ios":"levelo://app?vid=fe8a300c-df4c-42e1-b092-cce77e5975ce"},"vehicle_type_id":"4","last_reported":1747023280,"current_range_meters":11200,"station_id":"ce4bhkp2rcd13ifvqgd0","pricing_plan_id":"cebpf4jnsgd1na2vs0mg"},{"bike_id":"cc62d2da-5a20-4806-9c3f-389790a326f5","system_id":"levelo_inurba_marseille","lat":43.243836,"lon":5.370729,"is_reserved":false,"is_disabled":true,"rental_uris":{"android":"levelo://app?vid=cc62d2da-5a20-4806-9c3f-389790a326f5","ios":"levelo://app?vid=cc62d2da-5a20-4806-9c3f-389790a326f5"},"vehicle_type_id":"4","last_reported":1747023280,"current_range_meters":11200,"station_id":"ce4bhhh2rcd13ifvqfk0","pricing_plan_id":"cebpf4jnsgd1na2vs0mg"},{"bike_id":"006cd684-a7bd-4ad5-955d-fbe4583097c2","system_id":"levelo_inurba_marseille","lat":43.28345,"lon":5.38107,"is_reserved":false,"is_disabled":false,"rental_uris":{"android":"levelo://app?vid=006cd684-a7bd-4ad5-955d-fbe4583097c2","ios":"levelo://app?vid=006cd684-a7bd-4ad5-955d-fbe4583097c2"},"vehicle_type_id":"4","last_reported":1747023280,"current_range_meters":11200,"station_id":"ce4bh412rcd13ifvqdr0","pricing_plan_id":"cebpf4jnsgd1na2vs0mg"},{"bike_id":"350f96e5-9d35-4552-ab8b-75cc94649a94","system_id":"levelo_inurba_marseille","lat":43.25131,"lon":5.40344,"is_reserved":false,"is_disabled":false,"rental_uris":{"android":"levelo://app?vid=350f96e5-9d35-4552-ab8b-75cc94649a94","ios":"levelo://app?vid=350f96e5-9d35-4552-ab8b-75cc94649a94"},"vehicle_type_id":"4","last_reported":1747023280,"current_range_meters":11600,"station_id":"ce4bhlh2rcd13ifvqgig","pricing_plan_id":"cebpf4jnsgd1na2vs0mg"},{"bike_id":"d769f653-2284-4ccd-8df9-03b5aebbcb34","system_id":"levelo_inurba_marseille","lat":43.26995,"lon":5.43156,"is_reserved":false,"is_disabled":false,"rental_uris":{"android":"levelo://app?vid=d769f653-2284-4ccd-8df9-03b5aebbcb34","ios":"levelo://app?vid=d769f653-2284-4ccd-8df9-03b5aebbcb34"},"vehicle_type_id":"4","last_reported":1747023280,"current_range_meters":11600,"station_id":"","pricing_plan_id":"cebpf4jnsgd1na2vs0mg"},{"bike_id":"9401e170-3654-4a41-bf35-9a468db0c37f","system_id":"levelo_inurba_marseille","lat":43.251051,"lon":5.403289,"is_reserved":false,"is_disabled":false,"rental_uris":{"android":"levelo://app?vid=9401e170-3654-4a41-bf35-9a468db0c37f","ios":"levelo://app?vid=9401e170-3654-4a41-bf35-9a468db0c37f"},"vehicle_type_id":"4","last_reported":1747023280,"current_range_meters":12000,"station_id":"ce4bhlh2rcd13ifvqgig","pricing_plan_id":"cebpf4jnsgd1na2vs0mg"},{"bike_id":"590ac3bc-3483-40d8-90e6-8d9de728c11b","system_id":"levelo_inurba_marseille","lat":43.309378,"lon":5.401595,"is_reserved":false,"is_disabled":false,"rental_uris":{"android":"levelo://app?vid=590ac3bc-3483-40d8-90e6-8d9de728c11b","ios":"levelo://app?vid=590ac3bc-3483-40d8-90e6-8d9de728c11b"},"vehicle_type_id":"4","last_reported":1747023280,"current_range_meters":12000,"station_id":"ce4bgvp2rcd13ifvqct0","pricing_plan_id":"cebpf4jnsgd1na2vs0mg"},{"bike_id":"aa81dda7-4d92-4e75-8e3c-3c1bf1df7bb3","system_id":"levelo_inurba_marseille","lat":43.302221,"lon":5.400549,"is_reserved":false,"is_disabled":false,"rental_uris":{"android":"levelo://app?vid=aa81dda7-4d92-4e75-8e3c-3c1bf1df7bb3","ios":"levelo://app?vid=aa81dda7-4d92-4e75-8e3c-3c1bf1df7bb3"},"vehicle_type_id":"4","last_reported":1747023280,"current_range_meters":12000,"station_id":"ce4bgvh2rcd13ifvqcs0","pricing_plan_id":"cebpf4jnsgd1na2vs0mg"},{"bike_id":"ef551541-9d23-4760-a47c-ef4b9d35b0ec","system_id":"levelo_inurba_marseille","lat":43.265647,"lon":5.390138,"is_reserved":false,"is_disabled":false,"rental_uris":{"android":"levelo://app?vid=ef551541-9d23-4760-a47c-ef4b9d35b0ec","ios":"levelo://app?vid=ef551541-9d23-4760-a47c-ef4b9d35b0ec"},"vehicle_type_id":"4","last_reported":1747023280,"current_range_meters":12400,"station_id":"ce4bhe12rcd13ifvqf30","pricing_plan_id":"cebpf4jnsgd1na2vs0mg"},{"bike_id":"fedd6fb9-2c7e-403d-9f52-1e84f1e88c43","system_id":"levelo_inurba_marseille","lat":43.251181,"lon":5.40415,"is_reserved":false,"is_disabled":false,"rental_uris":{"android":"levelo://app?vid=fedd6fb9-2c7e-403d-9f52-1e84f1e88c43","ios":"levelo://app?vid=fedd6fb9-2c7e-403d-9f52-1e84f1e88c43"},"vehicle_type_id":"4","last_reported":1747023280,"current_range_meters":12800,"station_id":"ce4bhlh2rcd13ifvqgig","pricing_plan_id":"cebpf4jnsgd1na2vs0mg"},{"bike_id":"d9937dd6-e4c2-4ca6-b3ad-8e2542d9c843","system_id":"levelo_inurba_marseille","lat":43.302643,"lon":5.400588,"is_reserved":false,"is_disabled":false,"rental_uris":{"android":"levelo://app?vid=d9937dd6-e4c2-4ca6-b3ad-8e2542d9c843","ios":"levelo://app?vid=d9937dd6-e4c2-4ca6-b3ad-8e2542d9c843"},"vehicle_type_id":"4","last_reported":1747023280,"current_range_meters":12800,"station_id":"ce4bgvh2rcd13ifvqcs0","pricing_plan_id":"cebpf4jnsgd1na2vs0mg"},{"bike_id":"4ed3677a-bef1-416f-8773-fb8dd37b25c9","system_id":"levelo_inurba_marseille","lat":43.29599,"lon":5.37715,"is_reserved":false,"is_disabled":false,"rental_uris":{"android":"levelo://app?vid=4ed3677a-bef1-416f-8773-fb8dd37b25c9","ios":"levelo://app?vid=4ed3677a-bef1-416f-8773-fb8dd37b25c9"},"vehicle_type_id":"4","last_reported":1747023280,"current_range_meters":13600,"station_id":"ce4bgi92rcd13ifvqb90","pricing_plan_id":"cebpf4jnsgd1na2vs0mg"},{"bike_id":"c717b955-1d23-42a6-bf63-f39e0d9342dd","system_id":"levelo_inurba_marseille","lat":43.282868,"lon":5.430967,"is_reserved":false,"is_disabled":false,"rental_uris":{"android":"levelo://app?vid=c717b955-1d23-42a6-bf63-f39e0d9342dd","ios":"levelo://app?vid=c717b955-1d23-42a6-bf63-f39e0d9342dd"},"vehicle_type_id":"4","last_reported":1747023280,"current_range_meters":13600,"station_id":"","pricing_plan_id":"cebpf4jnsgd1na2vs0mg"},{"bike_id":"9045e522-fb74-40e8-a360-46477ae935cc","system_id":"levelo_inurba_marseille","lat":43.24193,"lon":5.39719,"is_reserved":false,"is_disabled":false,"rental_uris":{"android":"levelo://app?vid=9045e522-fb74-40e8-a360-46477ae935cc","ios":"levelo://app?vid=9045e522-fb74-40e8-a360-46477ae935cc"},"vehicle_type_id":"4","last_reported":1747023280,"current_range_meters":13600,"station_id":"ce4bhn12rcd13ifvqgpg","pricing_plan_id":"cebpf4jnsgd1na2vs0mg"},{"bike_id":"f3bc9fe4-a9bd-43c8-8a47-ffaeebc00913","system_id":"levelo_inurba_marseille","lat":43.323404,"lon":5.406164,"is_reserved":false,"is_disabled":false,"rental_uris":{"android":"levelo://app?vid=f3bc9fe4-a9bd-43c8-8a47-ffaeebc00913","ios":"levelo://app?vid=f3bc9fe4-a9bd-43c8-8a47-ffaeebc00913"},"vehicle_type_id":"4","last_reported":1747023280,"current_range_meters":13600,"station_id":"ce4bhq92rcd13ifvqhjg","pricing_plan_id":"cebpf4jnsgd1na2vs0mg"},{"bike_id":"77b898d6-83c3-4819-8f10-342d8faa3aa9","system_id":"levelo_inurba_marseille","lat":43.27091,"lon":5.42311,"is_reserved":false,"is_disabled":true,"rental_uris":{"android":"levelo://app?vid=77b898d6-83c3-4819-8f10-342d8faa3aa9","ios":"levelo://app?vid=77b898d6-83c3-4819-8f10-342d8faa3aa9"},"vehicle_type_id":"4","last_reported":1747023280,"current_range_meters":14000,"station_id":"ce4bhk92rcd13ifvqgb0","pricing_plan_id":"cebpf4jnsgd1na2vs0mg"},{"bike_id":"8edfb560-0f4b-4a42-a97f-f02bc7174ad0","system_id":"levelo_inurba_marseille","lat":43.239611,"lon":5.366311,"is_reserved":false,"is_disabled":false,"rental_uris":{"android":"levelo://app?vid=8edfb560-0f4b-4a42-a97f-f02bc7174ad0","ios":"levelo://app?vid=8edfb560-0f4b-4a42-a97f-f02bc7174ad0"},"vehicle_type_id":"4","last_reported":1747023280,"current_range_meters":14000,"station_id":"ce4bhi12rcd13ifvqfp0","pricing_plan_id":"cebpf4jnsgd1na2vs0mg"},{"bike_id":"a68b91fb-45b7-48d2-93fd-e6042f1152d2","system_id":"levelo_inurba_marseille","lat":43.27063,"lon":5.40279,"is_reserved":false,"is_disabled":false,"rental_uris":{"android":"levelo://app?vid=a68b91fb-45b7-48d2-93fd-e6042f1152d2","ios":"levelo://app?vid=a68b91fb-45b7-48d2-93fd-e6042f1152d2"},"vehicle_type_id":"4","last_reported":1747023280,"current_range_meters":14400,"station_id":"ce4bhk92rcd13ifvqgc0","pricing_plan_id":"cebpf4jnsgd1na2vs0mg"},{"bike_id":"a63da369-f316-4936-b7dc-41d1da1b1831","system_id":"levelo_inurba_marseille","lat":43.29979,"lon":5.3851,"is_reserved":false,"is_disabled":true,"rental_uris":{"android":"levelo://app?vid=a63da369-f316-4936-b7dc-41d1da1b1831","ios":"levelo://app?vid=a63da369-f316-4936-b7dc-41d1da1b1831"},"vehicle_type_id":"4","last_reported":1747023280,"current_range_meters":14400,"station_id":"ce4bgj92rcd13ifvqbd0","pricing_plan_id":"cebpf4jnsgd1na2vs0mg"},{"bike_id":"3ccf05e9-f727-4412-8be7-f8c0ee0992ce","system_id":"levelo_inurba_marseille","lat":43.30464,"lon":5.3791,"is_reserved":false,"is_disabled":false,"rental_uris":{"android":"levelo://app?vid=3ccf05e9-f727-4412-8be7-f8c0ee0992ce","ios":"levelo://app?vid=3ccf05e9-f727-4412-8be7-f8c0ee0992ce"},"vehicle_type_id":"4","last_reported":1747023280,"current_range_meters":14400,"station_id":"ce4bgup2rcd13ifvqcn0","pricing_plan_id":"cebpf4jnsgd1na2vs0mg"},{"bike_id":"4762718c-a376-420c-be5d-ae5208641990","system_id":"levelo_inurba_marseille","lat":43.284616,"lon":5.358941,"is_reserved":false,"is_disabled":true,"rental_uris":{"android":"levelo://app?vid=4762718c-a376-420c-be5d-ae5208641990","ios":"levelo://app?vid=4762718c-a376-420c-be5d-ae5208641990"},"vehicle_type_id":"4","last_reported":1747023280,"current_range_meters":14400,"station_id":"ce4bhah2rcd13ifvqei0","pricing_plan_id":"cebpf4jnsgd1na2vs0mg"},{"bike_id":"f73cf722-6d28-410b-96d0-7787b89b0f79","system_id":"levelo_inurba_marseille","lat":43.288643,"lon":5.393001,"is_reserved":false,"is_disabled":false,"rental_uris":{"android":"levelo://app?vid=f73cf722-6d28-410b-96d0-7787b89b0f79","ios":"levelo://app?vid=f73cf722-6d28-410b-96d0-7787b89b0f79"},"vehicle_type_id":"4","last_reported":1747023280,"current_range_meters":14400,"station_id":"ce4bh2p2rcd13ifvqdi0","pricing_plan_id":"cebpf4jnsgd1na2vs0mg"},{"bike_id":"60512959-6991-44e5-b4c6-284f5149eb0d","system_id":"levelo_inurba_marseille","lat":43.25596,"lon":5.38247,"is_reserved":false,"is_disabled":false,"rental_uris":{"android":"levelo://app?vid=60512959-6991-44e5-b4c6-284f5149eb0d","ios":"levelo://app?vid=60512959-6991-44e5-b4c6-284f5149eb0d"},"vehicle_type_id":"4","last_reported":1747023280,"current_range_meters":14800,"station_id":"ce4bhih2rcd13ifvqfs0","pricing_plan_id":"cebpf4jnsgd1na2vs0mg"},{"bike_id":"0a4dc782-e1df-48ff-81bf-b707284fe935","system_id":"levelo_inurba_marseille","lat":43.28465,"lon":5.35056,"is_reserved":false,"is_disabled":true,"rental_uris":{"android":"levelo://app?vid=0a4dc782-e1df-48ff-81bf-b707284fe935","ios":"levelo://app?vid=0a4dc782-e1df-48ff-81bf-b707284fe935"},"vehicle_type_id":"4","last_reported":1747023280,"current_range_meters":14800,"station_id":"ce4bhbh2rcd13ifvqepg","pricing_plan_id":"cebpf4jnsgd1na2vs0mg"},{"bike_id":"bd20ff05-7eed-46ac-997f-17fa77e28ce8","system_id":"levelo_inurba_marseille","lat":43.2575,"lon":5.41158,"is_reserved":false,"is_disabled":false,"rental_uris":{"android":"levelo://app?vid=bd20ff05-7eed-46ac-997f-17fa77e28ce8","ios":"levelo://app?vid=bd20ff05-7eed-46ac-997f-17fa77e28ce8"},"vehicle_type_id":"4","last_reported":1747023280,"current_range_meters":15200,"station_id":"","pricing_plan_id":"cebpf4jnsgd1na2vs0mg"},{"bike_id":"58d6adba-6679-41d8-bdc9-d9413f61af87","system_id":"levelo_inurba_marseille","lat":43.314865,"lon":5.369231,"is_reserved":false,"is_disabled":false,"rental_uris":{"android":"levelo://app?vid=58d6adba-6679-41d8-bdc9-d9413f61af87","ios":"levelo://app?vid=58d6adba-6679-41d8-bdc9-d9413f61af87"},"vehicle_type_id":"4","last_reported":1747023280,"current_range_meters":16000,"station_id":"","pricing_plan_id":"cebpf4jnsgd1na2vs0mg"},{"bike_id":"b6f0504a-f7d7-4a97-b810-e7c9e7b1c671","system_id":"levelo_inurba_marseille","lat":43.27889,"lon":5.41237,"is_reserved":false,"is_disabled":false,"rental_uris":{"android":"levelo://app?vid=b6f0504a-f7d7-4a97-b810-e7c9e7b1c671","ios":"levelo://app?vid=b6f0504a-f7d7-4a97-b810-e7c9e7b1c671"},"vehicle_type_id":"4","last_reported":1747023280,"current_range_meters":16000,"station_id":"","pricing_plan_id":"cebpf4jnsgd1na2vs0mg"},{"bike_id":"c2d26363-c111-4e54-98d2-ac34f8d787a8","system_id":"levelo_inurba_marseille","lat":43.251145,"lon":5.403281,"is_reserved":false,"is_disabled":false,"rental_uris":{"android":"levelo://app?vid=c2d26363-c111-4e54-98d2-ac34f8d787a8","ios":"levelo://app?vid=c2d26363-c111-4e54-98d2-ac34f8d787a8"},"vehicle_type_id":"4","last_reported":1747023280,"current_range_meters":16000,"station_id":"ce4bhlh2rcd13ifvqgig","pricing_plan_id":"cebpf4jnsgd1na2vs0mg"},{"bike_id":"78fbaef2-1a0b-485e-8a22-f88414284c75","system_id":"levelo_inurba_marseille","lat":43.304137,"lon":5.39748,"is_reserved":false,"is_disabled":false,"rental_uris":{"android":"levelo://app?vid=78fbaef2-1a0b-485e-8a22-f88414284c75","ios":"levelo://app?vid=78fbaef2-1a0b-485e-8a22-f88414284c75"},"vehicle_type_id":"4","last_reported":1747023280,"current_range_meters":16000,"station_id":"ce4bh092rcd13ifvqd20","pricing_plan_id":"cebpf4jnsgd1na2vs0mg"},{"bike_id":"33efc886-db58-4320-9ae7-1448d6c89aeb","system_id":"levelo_inurba_marseille","lat":43.25741,"lon":5.41094,"is_reserved":false,"is_disabled":false,"rental_uris":{"android":"levelo://app?vid=33efc886-db58-4320-9ae7-1448d6c89aeb","ios":"levelo://app?vid=33efc886-db58-4320-9ae7-1448d6c89aeb"},"vehicle_type_id":"4","last_reported":1747023280,"current_range_meters":16000,"station_id":"ce4bhkp2rcd13ifvqgd0","pricing_plan_id":"cebpf4jnsgd1na2vs0mg"},{"bike_id":"0b1c8292-c329-4aa8-92d1-c391c9c0fef8","system_id":"levelo_inurba_marseille","lat":43.27848,"lon":5.42226,"is_reserved":false,"is_disabled":false,"rental_uris":{"android":"levelo://app?vid=0b1c8292-c329-4aa8-92d1-c391c9c0fef8","ios":"levelo://app?vid=0b1c8292-c329-4aa8-92d1-c391c9c0fef8"},"vehicle_type_id":"4","last_reported":1747023280,"current_range_meters":16000,"station_id":"","pricing_plan_id":"cebpf4jnsgd1na2vs0mg"},{"bike_id":"2d031530-acae-45c8-b984-ebd85cff888b","system_id":"levelo_inurba_marseille","lat":43.288531,"lon":5.393291,"is_reserved":false,"is_disabled":true,"rental_uris":{"android":"levelo://app?vid=2d031530-acae-45c8-b984-ebd85cff888b","ios":"levelo://app?vid=2d031530-acae-45c8-b984-ebd85cff888b"},"vehicle_type_id":"4","last_reported":1747023280,"current_range_meters":16400,"station_id":"ce4bh2p2rcd13ifvqdi0","pricing_plan_id":"cebpf4jnsgd1na2vs0mg"},{"bike_id":"074e5c85-3168-4fa4-9792-d81df10a72ac","system_id":"levelo_inurba_marseille","lat":43.30411,"lon":5.39738,"is_reserved":false,"is_disabled":false,"rental_uris":{"android":"levelo://app?vid=074e5c85-3168-4fa4-9792-d81df10a72ac","ios":"levelo://app?vid=074e5c85-3168-4fa4-9792-d81df10a72ac"},"vehicle_type_id":"4","last_reported":1747023280,"current_range_meters":16400,"station_id":"ce4bh092rcd13ifvqd20","pricing_plan_id":"cebpf4jnsgd1na2vs0mg"},{"bike_id":"2a2e92a8-9be2-42a0-8f8b-e8c99ed20b3a","system_id":"levelo_inurba_marseille","lat":43.23163,"lon":5.39928,"is_reserved":false,"is_disabled":false,"rental_uris":{"android":"levelo://app?vid=2a2e92a8-9be2-42a0-8f8b-e8c99ed20b3a","ios":"levelo://app?vid=2a2e92a8-9be2-42a0-8f8b-e8c99ed20b3a"},"vehicle_type_id":"4","last_reported":1747023280,"current_range_meters":16400,"station_id":"","pricing_plan_id":"cebpf4jnsgd1na2vs0mg"},{"bike_id":"314427ca-2aaa-43e1-976c-0edd749f0eac","system_id":"levelo_inurba_marseille","lat":43.30437,"lon":5.389,"is_reserved":false,"is_disabled":false,"rental_uris":{"android":"levelo://app?vid=314427ca-2aaa-43e1-976c-0edd749f0eac","ios":"levelo://app?vid=314427ca-2aaa-43e1-976c-0edd749f0eac"},"vehicle_type_id":"4","last_reported":1747023280,"current_range_meters":16400,"station_id":"ce4bgk12rcd13ifvqbi0","pricing_plan_id":"cebpf4jnsgd1na2vs0mg"},{"bike_id":"a7cd4073-a883-4aad-acc4-778fd72fe9e7","system_id":"levelo_inurba_marseille","lat":43.307956,"lon":5.381636,"is_reserved":false,"is_disabled":false,"rental_uris":{"android":"levelo://app?vid=a7cd4073-a883-4aad-acc4-778fd72fe9e7","ios":"levelo://app?vid=a7cd4073-a883-4aad-acc4-778fd72fe9e7"},"vehicle_type_id":"4","last_reported":1747023280,"current_range_meters":16400,"station_id":"ce4bgt12rcd13ifvqce0","pricing_plan_id":"cebpf4jnsgd1na2vs0mg"},{"bike_id":"933fc5a1-5c62-474e-a188-850550c726ab","system_id":"levelo_inurba_marseille","lat":43.23188,"lon":5.3999,"is_reserved":false,"is_disabled":false,"rental_uris":{"android":"levelo://app?vid=933fc5a1-5c62-474e-a188-850550c726ab","ios":"levelo://app?vid=933fc5a1-5c62-474e-a188-850550c726ab"},"vehicle_type_id":"4","last_reported":1747023280,"current_range_meters":16400,"station_id":"ce4bhn12rcd13ifvqgqg","pricing_plan_id":"cebpf4jnsgd1na2vs0mg"},{"bike_id":"b63e6078-9c65-41bd-aa73-a2ddabd6b5de","system_id":"levelo_inurba_marseille","lat":43.2959,"lon":5.3673,"is_reserved":false,"is_disabled":true,"rental_uris":{"android":"levelo://app?vid=b63e6078-9c65-41bd-aa73-a2ddabd6b5de","ios":"levelo://app?vid=b63e6078-9c65-41bd-aa73-a2ddabd6b5de"},"vehicle_type_id":"4","last_reported":1747023280,"current_range_meters":16400,"station_id":"ce4bgph2rcd13ifvqc2g","pricing_plan_id":"cebpf4jnsgd1na2vs0mg"},{"bike_id":"d03ecfbd-67b2-4b9a-8cb7-50731ba0a2cc","system_id":"levelo_inurba_marseille","lat":43.284116,"lon":5.375193,"is_reserved":false,"is_disabled":false,"rental_uris":{"android":"levelo://app?vid=d03ecfbd-67b2-4b9a-8cb7-50731ba0a2cc","ios":"levelo://app?vid=d03ecfbd-67b2-4b9a-8cb7-50731ba0a2cc"},"vehicle_type_id":"4","last_reported":1747023280,"current_range_meters":16800,"station_id":"ce4bh412rcd13ifvqds0","pricing_plan_id":"cebpf4jnsgd1na2vs0mg"},{"bike_id":"923bc3c8-9653-42f6-ab2d-a12cb585d499","system_id":"levelo_inurba_marseille","lat":43.2946,"lon":5.38689,"is_reserved":false,"is_disabled":false,"rental_uris":{"android":"levelo://app?vid=923bc3c8-9653-42f6-ab2d-a12cb585d499","ios":"levelo://app?vid=923bc3c8-9653-42f6-ab2d-a12cb585d499"},"vehicle_type_id":"4","last_reported":1747023280,"current_range_meters":16800,"station_id":"","pricing_plan_id":"cebpf4jnsgd1na2vs0mg"},{"bike_id":"b6c24796-e822-49bc-9d38-82c94eaadb58","system_id":"levelo_inurba_marseille","lat":43.25113,"lon":5.40328,"is_reserved":false,"is_disabled":false,"rental_uris":{"android":"levelo://app?vid=b6c24796-e822-49bc-9d38-82c94eaadb58","ios":"levelo://app?vid=b6c24796-e822-49bc-9d38-82c94eaadb58"},"vehicle_type_id":"4","last_reported":1747023280,"current_range_meters":16800,"station_id":"ce4bhlh2rcd13ifvqgig","pricing_plan_id":"cebpf4jnsgd1na2vs0mg"},{"bike_id":"1aab4aa2-19b2-47ee-8a2e-43fbbfc39058","system_id":"levelo_inurba_marseille","lat":43.301247,"lon":5.38785,"is_reserved":false,"is_disabled":true,"rental_uris":{"android":"levelo://app?vid=1aab4aa2-19b2-47ee-8a2e-43fbbfc39058","ios":"levelo://app?vid=1aab4aa2-19b2-47ee-8a2e-43fbbfc39058"},"vehicle_type_id":"4","last_reported":1747023280,"current_range_meters":16800,"station_id":"ce4bghh2rcd13ifvqb60","pricing_plan_id":"cebpf4jnsgd1na2vs0mg"},{"bike_id":"4b6c1528-1d2a-4eef-acaf-0e2c8aa28257","system_id":"levelo_inurba_marseille","lat":43.305956,"lon":5.393545,"is_reserved":false,"is_disabled":false,"rental_uris":{"android":"levelo://app?vid=4b6c1528-1d2a-4eef-acaf-0e2c8aa28257","ios":"levelo://app?vid=4b6c1528-1d2a-4eef-acaf-0e2c8aa28257"},"vehicle_type_id":"4","last_reported":1747023280,"current_range_meters":16800,"station_id":"ce4bh0p2rcd13ifvqd80","pricing_plan_id":"cebpf4jnsgd1na2vs0mg"},{"bike_id":"1a0414b0-34ae-49ee-905b-d6960c184e30","system_id":"levelo_inurba_marseille","lat":43.291941,"lon":5.393218,"is_reserved":false,"is_disabled":true,"rental_uris":{"android":"levelo://app?vid=1a0414b0-34ae-49ee-905b-d6960c184e30","ios":"levelo://app?vid=1a0414b0-34ae-49ee-905b-d6960c184e30"},"vehicle_type_id":"4","last_reported":1747023280,"current_range_meters":17200,"station_id":"ce4bh192rcd13ifvqdd0","pricing_plan_id":"cebpf4jnsgd1na2vs0mg"},{"bike_id":"aca142bd-2716-4ee3-8c04-bd27c952c647","system_id":"levelo_inurba_marseille","lat":43.264418,"lon":5.374984,"is_reserved":false,"is_disabled":false,"rental_uris":{"android":"levelo://app?vid=aca142bd-2716-4ee3-8c04-bd27c952c647","ios":"levelo://app?vid=aca142bd-2716-4ee3-8c04-bd27c952c647"},"vehicle_type_id":"4","last_reported":1747023280,"current_range_meters":17200,"station_id":"","pricing_plan_id":"cebpf4jnsgd1na2vs0mg"},{"bike_id":"1207260d-7522-4854-9ff8-80b207d38319","system_id":"levelo_inurba_marseille","lat":43.283504,"lon":5.381079,"is_reserved":false,"is_disabled":false,"rental_uris":{"android":"levelo://app?vid=1207260d-7522-4854-9ff8-80b207d38319","ios":"levelo://app?vid=1207260d-7522-4854-9ff8-80b207d38319"},"vehicle_type_id":"4","last_reported":1747023280,"current_range_meters":17200,"station_id":"ce4bh412rcd13ifvqdr0","pricing_plan_id":"cebpf4jnsgd1na2vs0mg"},{"bike_id":"b07bfc09-4ee4-480d-951d-bf310d1d8d6c","system_id":"levelo_inurba_marseille","lat":43.32168,"lon":5.3849,"is_reserved":false,"is_disabled":false,"rental_uris":{"android":"levelo://app?vid=b07bfc09-4ee4-480d-951d-bf310d1d8d6c","ios":"levelo://app?vid=b07bfc09-4ee4-480d-951d-bf310d1d8d6c"},"vehicle_type_id":"4","last_reported":1747023280,"current_range_meters":17200,"station_id":"","pricing_plan_id":"cebpf4jnsgd1na2vs0mg"},{"bike_id":"58ca3082-502b-4f40-858f-4a60772f8be9","system_id":"levelo_inurba_marseille","lat":43.305959,"lon":5.39349,"is_reserved":false,"is_disabled":false,"rental_uris":{"android":"levelo://app?vid=58ca3082-502b-4f40-858f-4a60772f8be9","ios":"levelo://app?vid=58ca3082-502b-4f40-858f-4a60772f8be9"},"vehicle_type_id":"4","last_reported":1747023280,"current_range_meters":17200,"station_id":"ce4bh0p2rcd13ifvqd80","pricing_plan_id":"cebpf4jnsgd1na2vs0mg"},{"bike_id":"d9bb92a9-ce8e-4be5-ba91-ffde1d08a887","system_id":"levelo_inurba_marseille","lat":43.28712,"lon":5.40016,"is_reserved":false,"is_disabled":false,"rental_uris":{"android":"levelo://app?vid=d9bb92a9-ce8e-4be5-ba91-ffde1d08a887","ios":"levelo://app?vid=d9bb92a9-ce8e-4be5-ba91-ffde1d08a887"},"vehicle_type_id":"4","last_reported":1747023280,"current_range_meters":17200,"station_id":"ce4bho92rcd13ifvqh3g","pricing_plan_id":"cebpf4jnsgd1na2vs0mg"},{"bike_id":"68b0444c-6563-4fd4-b493-6b961e2c795b","system_id":"levelo_inurba_marseille","lat":43.28401,"lon":5.3751,"is_reserved":false,"is_disabled":false,"rental_uris":{"android":"levelo://app?vid=68b0444c-6563-4fd4-b493-6b961e2c795b","ios":"levelo://app?vid=68b0444c-6563-4fd4-b493-6b961e2c795b"},"vehicle_type_id":"4","last_reported":1747023280,"current_range_meters":17600,"station_id":"ce4bh412rcd13ifvqds0","pricing_plan_id":"cebpf4jnsgd1na2vs0mg"},{"bike_id":"f38dbfb2-4b2c-49d8-b825-d3246ee3dd23","system_id":"levelo_inurba_marseille","lat":43.314829,"lon":5.373087,"is_reserved":false,"is_disabled":false,"rental_uris":{"android":"levelo://app?vid=f38dbfb2-4b2c-49d8-b825-d3246ee3dd23","ios":"levelo://app?vid=f38dbfb2-4b2c-49d8-b825-d3246ee3dd23"},"vehicle_type_id":"4","last_reported":1747023280,"current_range_meters":17600,"station_id":"ce4bgt12rcd13ifvqcd0","pricing_plan_id":"cebpf4jnsgd1na2vs0mg"},{"bike_id":"480f32df-ae2b-43a7-b183-654ea6855a9e","system_id":"levelo_inurba_marseille","lat":43.3146,"lon":5.37283,"is_reserved":false,"is_disabled":false,"rental_uris":{"android":"levelo://app?vid=480f32df-ae2b-43a7-b183-654ea6855a9e","ios":"levelo://app?vid=480f32df-ae2b-43a7-b183-654ea6855a9e"},"vehicle_type_id":"4","last_reported":1747023280,"current_range_meters":17600,"station_id":"ce4bgt12rcd13ifvqcd0","pricing_plan_id":"cebpf4jnsgd1na2vs0mg"},{"bike_id":"c25fcaab-7401-4927-ab5f-d9061fc2ca0a","system_id":"levelo_inurba_marseille","lat":43.28843,"lon":5.39331,"is_reserved":false,"is_disabled":false,"rental_uris":{"android":"levelo://app?vid=c25fcaab-7401-4927-ab5f-d9061fc2ca0a","ios":"levelo://app?vid=c25fcaab-7401-4927-ab5f-d9061fc2ca0a"},"vehicle_type_id":"4","last_reported":1747023280,"current_range_meters":17600,"station_id":"ce4bh2p2rcd13ifvqdi0","pricing_plan_id":"cebpf4jnsgd1na2vs0mg"},{"bike_id":"cc12fcbb-d996-49c7-bccc-d5e17d1125b1","system_id":"levelo_inurba_marseille","lat":43.22932,"lon":5.35384,"is_reserved":false,"is_disabled":false,"rental_uris":{"android":"levelo://app?vid=cc12fcbb-d996-49c7-bccc-d5e17d1125b1","ios":"levelo://app?vid=cc12fcbb-d996-49c7-bccc-d5e17d1125b1"},"vehicle_type_id":"4","last_reported":1747023280,"current_range_meters":17600,"station_id":"cpo3532slgdg3j2ikp40","pricing_plan_id":"cebpf4jnsgd1na2vs0mg"},{"bike_id":"4d7e69b3-fd69-4c4f-9d4c-d3a4ecae472a","system_id":"levelo_inurba_marseille","lat":43.30591,"lon":5.39356,"is_reserved":false,"is_disabled":false,"rental_uris":{"android":"levelo://app?vid=4d7e69b3-fd69-4c4f-9d4c-d3a4ecae472a","ios":"levelo://app?vid=4d7e69b3-fd69-4c4f-9d4c-d3a4ecae472a"},"vehicle_type_id":"4","last_reported":1747023280,"current_range_meters":17600,"station_id":"ce4bh0p2rcd13ifvqd80","pricing_plan_id":"cebpf4jnsgd1na2vs0mg"},{"bike_id":"f069d207-6c57-491b-8343-c415eb7f08a5","system_id":"levelo_inurba_marseille","lat":43.31328,"lon":5.39734,"is_reserved":false,"is_disabled":false,"rental_uris":{"android":"levelo://app?vid=f069d207-6c57-491b-8343-c415eb7f08a5","ios":"levelo://app?vid=f069d207-6c57-491b-8343-c415eb7f08a5"},"vehicle_type_id":"4","last_reported":1747023280,"current_range_meters":17600,"station_id":"ce4bgvp2rcd13ifvqcu0","pricing_plan_id":"cebpf4jnsgd1na2vs0mg"},{"bike_id":"c1a87d98-ae1b-4a96-8676-6f3473b69ff6","system_id":"levelo_inurba_marseille","lat":43.284072,"lon":5.375128,"is_reserved":false,"is_disabled":false,"rental_uris":{"android":"levelo://app?vid=c1a87d98-ae1b-4a96-8676-6f3473b69ff6","ios":"levelo://app?vid=c1a87d98-ae1b-4a96-8676-6f3473b69ff6"},"vehicle_type_id":"4","last_reported":1747023280,"current_range_meters":17600,"station_id":"ce4bh412rcd13ifvqds0","pricing_plan_id":"cebpf4jnsgd1na2vs0mg"},{"bike_id":"e58e2ce6-f326-47d4-94dc-2a7bac20a6f5","system_id":"levelo_inurba_marseille","lat":43.28403,"lon":5.37524,"is_reserved":false,"is_disabled":false,"rental_uris":{"android":"levelo://app?vid=e58e2ce6-f326-47d4-94dc-2a7bac20a6f5","ios":"levelo://app?vid=e58e2ce6-f326-47d4-94dc-2a7bac20a6f5"},"vehicle_type_id":"4","last_reported":1747023280,"current_range_meters":18000,"station_id":"ce4bh412rcd13ifvqds0","pricing_plan_id":"cebpf4jnsgd1na2vs0mg"},{"bike_id":"552a2edc-97c2-4e6b-be49-82bbd491069a","system_id":"levelo_inurba_marseille","lat":43.284117,"lon":5.375199,"is_reserved":false,"is_disabled":false,"rental_uris":{"android":"levelo://app?vid=552a2edc-97c2-4e6b-be49-82bbd491069a","ios":"levelo://app?vid=552a2edc-97c2-4e6b-be49-82bbd491069a"},"vehicle_type_id":"4","last_reported":1747023280,"current_range_meters":18000,"station_id":"ce4bh412rcd13ifvqds0","pricing_plan_id":"cebpf4jnsgd1na2vs0mg"},{"bike_id":"a0a7b749-df06-403a-9039-7dfe8d8079c9","system_id":"levelo_inurba_marseille","lat":43.23969,"lon":5.36638,"is_reserved":false,"is_disabled":true,"rental_uris":{"android":"levelo://app?vid=a0a7b749-df06-403a-9039-7dfe8d8079c9","ios":"levelo://app?vid=a0a7b749-df06-403a-9039-7dfe8d8079c9"},"vehicle_type_id":"4","last_reported":1747023280,"current_range_meters":18000,"station_id":"ce4bhi12rcd13ifvqfp0","pricing_plan_id":"cebpf4jnsgd1na2vs0mg"},{"bike_id":"b563129d-dbe8-41ec-ad41-e58670601124","system_id":"levelo_inurba_marseille","lat":43.28334,"lon":5.38117,"is_reserved":false,"is_disabled":false,"rental_uris":{"android":"levelo://app?vid=b563129d-dbe8-41ec-ad41-e58670601124","ios":"levelo://app?vid=b563129d-dbe8-41ec-ad41-e58670601124"},"vehicle_type_id":"4","last_reported":1747023280,"current_range_meters":19200,"station_id":"ce4bh412rcd13ifvqdr0","pricing_plan_id":"cebpf4jnsgd1na2vs0mg"},{"bike_id":"88048ed0-308b-44c9-944e-6c1d5d05b1f4","system_id":"levelo_inurba_marseille","lat":43.313676,"lon":5.384986,"is_reserved":false,"is_disabled":false,"rental_uris":{"android":"levelo://app?vid=88048ed0-308b-44c9-944e-6c1d5d05b1f4","ios":"levelo://app?vid=88048ed0-308b-44c9-944e-6c1d5d05b1f4"},"vehicle_type_id":"4","last_reported":1747023280,"current_range_meters":19200,"station_id":"ce4bgt92rcd13ifvqcf0","pricing_plan_id":"cebpf4jnsgd1na2vs0mg"},{"bike_id":"05b069c4-5736-4ee3-a75b-753ebf7daa75","system_id":"levelo_inurba_marseille","lat":43.24673,"lon":5.38158,"is_reserved":false,"is_disabled":false,"rental_uris":{"android":"levelo://app?vid=05b069c4-5736-4ee3-a75b-753ebf7daa75","ios":"levelo://app?vid=05b069c4-5736-4ee3-a75b-753ebf7daa75"},"vehicle_type_id":"4","last_reported":1747023280,"current_range_meters":19200,"station_id":"ce4bhih2rcd13ifvqfr0","pricing_plan_id":"cebpf4jnsgd1na2vs0mg"},{"bike_id":"7ba4940f-bb41-4600-bcb1-9189620b6247","system_id":"levelo_inurba_marseille","lat":43.3042,"lon":5.41284,"is_reserved":false,"is_disabled":false,"rental_uris":{"android":"levelo://app?vid=7ba4940f-bb41-4600-bcb1-9189620b6247","ios":"levelo://app?vid=7ba4940f-bb41-4600-bcb1-9189620b6247"},"vehicle_type_id":"4","last_reported":1747023280,"current_range_meters":19200,"station_id":"ce4bhop2rcd13ifvqh8g","pricing_plan_id":"cebpf4jnsgd1na2vs0mg"},{"bike_id":"198bab79-f5c3-4aa3-8b20-722a5c838cce","system_id":"levelo_inurba_marseille","lat":43.29184,"lon":5.39299,"is_reserved":false,"is_disabled":false,"rental_uris":{"android":"levelo://app?vid=198bab79-f5c3-4aa3-8b20-722a5c838cce","ios":"levelo://app?vid=198bab79-f5c3-4aa3-8b20-722a5c838cce"},"vehicle_type_id":"4","last_reported":1747023280,"current_range_meters":19600,"station_id":"ce4bh192rcd13ifvqdd0","pricing_plan_id":"cebpf4jnsgd1na2vs0mg"},{"bike_id":"274428a0-f624-470d-97ad-4d677cbd848f","system_id":"levelo_inurba_marseille","lat":43.27064,"lon":5.42283,"is_reserved":false,"is_disabled":false,"rental_uris":{"android":"levelo://app?vid=274428a0-f624-470d-97ad-4d677cbd848f","ios":"levelo://app?vid=274428a0-f624-470d-97ad-4d677cbd848f"},"vehicle_type_id":"4","last_reported":1747023280,"current_range_meters":19600,"station_id":"ce4bhk92rcd13ifvqgb0","pricing_plan_id":"cebpf4jnsgd1na2vs0mg"},{"bike_id":"954c5792-bbc1-424f-84fe-dd0461c387e4","system_id":"levelo_inurba_marseille","lat":43.261973,"lon":5.374756,"is_reserved":false,"is_disabled":true,"rental_uris":{"android":"levelo://app?vid=954c5792-bbc1-424f-84fe-dd0461c387e4","ios":"levelo://app?vid=954c5792-bbc1-424f-84fe-dd0461c387e4"},"vehicle_type_id":"4","last_reported":1747023280,"current_range_meters":19600,"station_id":"ce4bhgp2rcd13ifvqfc0","pricing_plan_id":"cebpf4jnsgd1na2vs0mg"},{"bike_id":"873127f0-5960-43b7-af15-7b68eacdf132","system_id":"levelo_inurba_marseille","lat":43.31331,"lon":5.39695,"is_reserved":false,"is_disabled":false,"rental_uris":{"android":"levelo://app?vid=873127f0-5960-43b7-af15-7b68eacdf132","ios":"levelo://app?vid=873127f0-5960-43b7-af15-7b68eacdf132"},"vehicle_type_id":"4","last_reported":1747023280,"current_range_meters":19600,"station_id":"ce4bgvp2rcd13ifvqcu0","pricing_plan_id":"cebpf4jnsgd1na2vs0mg"},{"bike_id":"c588c6c2-f348-45ed-969b-f253b2e64f91","system_id":"levelo_inurba_marseille","lat":43.31466,"lon":5.37292,"is_reserved":false,"is_disabled":false,"rental_uris":{"android":"levelo://app?vid=c588c6c2-f348-45ed-969b-f253b2e64f91","ios":"levelo://app?vid=c588c6c2-f348-45ed-969b-f253b2e64f91"},"vehicle_type_id":"4","last_reported":1747023280,"current_range_meters":19600,"station_id":"ce4bgt12rcd13ifvqcd0","pricing_plan_id":"cebpf4jnsgd1na2vs0mg"},{"bike_id":"8acb5c33-715c-472b-b181-6250c36ed015","system_id":"levelo_inurba_marseille","lat":43.301472,"lon":5.380864,"is_reserved":false,"is_disabled":true,"rental_uris":{"android":"levelo://app?vid=8acb5c33-715c-472b-b181-6250c36ed015","ios":"levelo://app?vid=8acb5c33-715c-472b-b181-6250c36ed015"},"vehicle_type_id":"4","last_reported":1747023280,"current_range_meters":19600,"station_id":"","pricing_plan_id":"cebpf4jnsgd1na2vs0mg"},{"bike_id":"7aab6e21-5b14-4648-99c5-d3a099671233","system_id":"levelo_inurba_marseille","lat":43.292783,"lon":5.401126,"is_reserved":false,"is_disabled":false,"rental_uris":{"android":"levelo://app?vid=7aab6e21-5b14-4648-99c5-d3a099671233","ios":"levelo://app?vid=7aab6e21-5b14-4648-99c5-d3a099671233"},"vehicle_type_id":"4","last_reported":1747023280,"current_range_meters":19600,"station_id":"ce4bh312rcd13ifvqdk0","pricing_plan_id":"cebpf4jnsgd1na2vs0mg"},{"bike_id":"c6f94e68-7c7b-43ef-8184-27f8965ee836","system_id":"levelo_inurba_marseille","lat":43.251129,"lon":5.403253,"is_reserved":false,"is_disabled":false,"rental_uris":{"android":"levelo://app?vid=c6f94e68-7c7b-43ef-8184-27f8965ee836","ios":"levelo://app?vid=c6f94e68-7c7b-43ef-8184-27f8965ee836"},"vehicle_type_id":"4","last_reported":1747023280,"current_range_meters":19600,"station_id":"ce4bhlh2rcd13ifvqgig","pricing_plan_id":"cebpf4jnsgd1na2vs0mg"},{"bike_id":"0ac4699c-2936-47e4-a58a-a815c837d0ea","system_id":"levelo_inurba_marseille","lat":43.3061,"lon":5.39338,"is_reserved":false,"is_disabled":false,"rental_uris":{"android":"levelo://app?vid=0ac4699c-2936-47e4-a58a-a815c837d0ea","ios":"levelo://app?vid=0ac4699c-2936-47e4-a58a-a815c837d0ea"},"vehicle_type_id":"4","last_reported":1747023280,"current_range_meters":19600,"station_id":"ce4bh0p2rcd13ifvqd80","pricing_plan_id":"cebpf4jnsgd1na2vs0mg"},{"bike_id":"d0d77266-b030-48e7-bb4a-e4747b4776ec","system_id":"levelo_inurba_marseille","lat":43.301312,"lon":5.398766,"is_reserved":false,"is_disabled":true,"rental_uris":{"android":"levelo://app?vid=d0d77266-b030-48e7-bb4a-e4747b4776ec","ios":"levelo://app?vid=d0d77266-b030-48e7-bb4a-e4747b4776ec"},"vehicle_type_id":"4","last_reported":1747023280,"current_range_meters":19600,"station_id":"ce4bh0h2rcd13ifvqd40","pricing_plan_id":"cebpf4jnsgd1na2vs0mg"},{"bike_id":"432b76af-8e9b-4449-9a69-df1dea541e85","system_id":"levelo_inurba_marseille","lat":43.29275,"lon":5.401227,"is_reserved":false,"is_disabled":false,"rental_uris":{"android":"levelo://app?vid=432b76af-8e9b-4449-9a69-df1dea541e85","ios":"levelo://app?vid=432b76af-8e9b-4449-9a69-df1dea541e85"},"vehicle_type_id":"4","last_reported":1747023280,"current_range_meters":19600,"station_id":"ce4bh312rcd13ifvqdk0","pricing_plan_id":"cebpf4jnsgd1na2vs0mg"},{"bike_id":"6a4f700e-2091-4ba2-940a-dc26934d0b22","system_id":"levelo_inurba_marseille","lat":43.292596,"lon":5.376102,"is_reserved":false,"is_disabled":false,"rental_uris":{"android":"levelo://app?vid=6a4f700e-2091-4ba2-940a-dc26934d0b22","ios":"levelo://app?vid=6a4f700e-2091-4ba2-940a-dc26934d0b22"},"vehicle_type_id":"4","last_reported":1747023280,"current_range_meters":20000,"station_id":"ce4bgi12rcd13ifvqb80","pricing_plan_id":"cebpf4jnsgd1na2vs0mg"},{"bike_id":"fff0e4d4-39ac-48d5-99a5-85615c4a83f8","system_id":"levelo_inurba_marseille","lat":43.29982,"lon":5.39173,"is_reserved":false,"is_disabled":false,"rental_uris":{"android":"levelo://app?vid=fff0e4d4-39ac-48d5-99a5-85615c4a83f8","ios":"levelo://app?vid=fff0e4d4-39ac-48d5-99a5-85615c4a83f8"},"vehicle_type_id":"4","last_reported":1747023280,"current_range_meters":20000,"station_id":"","pricing_plan_id":"cebpf4jnsgd1na2vs0mg"},{"bike_id":"8651258d-70ce-400a-808f-9385312e7138","system_id":"levelo_inurba_marseille","lat":43.28852,"lon":5.39338,"is_reserved":false,"is_disabled":false,"rental_uris":{"android":"levelo://app?vid=8651258d-70ce-400a-808f-9385312e7138","ios":"levelo://app?vid=8651258d-70ce-400a-808f-9385312e7138"},"vehicle_type_id":"4","last_reported":1747023280,"current_range_meters":20400,"station_id":"ce4bh2p2rcd13ifvqdi0","pricing_plan_id":"cebpf4jnsgd1na2vs0mg"},{"bike_id":"5e2474ef-6f7a-45f6-9bcf-64dee60a4f9d","system_id":"levelo_inurba_marseille","lat":43.2705,"lon":5.40261,"is_reserved":false,"is_disabled":false,"rental_uris":{"android":"levelo://app?vid=5e2474ef-6f7a-45f6-9bcf-64dee60a4f9d","ios":"levelo://app?vid=5e2474ef-6f7a-45f6-9bcf-64dee60a4f9d"},"vehicle_type_id":"4","last_reported":1747023280,"current_range_meters":20400,"station_id":"ce4bhk92rcd13ifvqgc0","pricing_plan_id":"cebpf4jnsgd1na2vs0mg"},{"bike_id":"e6adc396-be82-4a12-97e0-95dd6dbe63be","system_id":"levelo_inurba_marseille","lat":43.26196,"lon":5.4046,"is_reserved":false,"is_disabled":false,"rental_uris":{"android":"levelo://app?vid=e6adc396-be82-4a12-97e0-95dd6dbe63be","ios":"levelo://app?vid=e6adc396-be82-4a12-97e0-95dd6dbe63be"},"vehicle_type_id":"4","last_reported":1747023280,"current_range_meters":20400,"station_id":"ce4bhmh2rcd13ifvqgmg","pricing_plan_id":"cebpf4jnsgd1na2vs0mg"},{"bike_id":"b336a229-0bf1-452c-97d8-afd000b0f02e","system_id":"levelo_inurba_marseille","lat":43.324763,"lon":5.365914,"is_reserved":false,"is_disabled":false,"rental_uris":{"android":"levelo://app?vid=b336a229-0bf1-452c-97d8-afd000b0f02e","ios":"levelo://app?vid=b336a229-0bf1-452c-97d8-afd000b0f02e"},"vehicle_type_id":"4","last_reported":1747023280,"current_range_meters":20400,"station_id":"ce4bhs12rcd13ifvqhvg","pricing_plan_id":"cebpf4jnsgd1na2vs0mg"},{"bike_id":"7b7b4e6d-69f6-4185-becd-1c627af1c93e","system_id":"levelo_inurba_marseille","lat":43.30169,"lon":5.381,"is_reserved":false,"is_disabled":false,"rental_uris":{"android":"levelo://app?vid=7b7b4e6d-69f6-4185-becd-1c627af1c93e","ios":"levelo://app?vid=7b7b4e6d-69f6-4185-becd-1c627af1c93e"},"vehicle_type_id":"4","last_reported":1747023280,"current_range_meters":20400,"station_id":"ce4bgjp2rcd13ifvqbh0","pricing_plan_id":"cebpf4jnsgd1na2vs0mg"},{"bike_id":"12fd312b-a236-4b26-878b-0432501ea6fd","system_id":"levelo_inurba_marseille","lat":43.302427,"lon":5.400395,"is_reserved":false,"is_disabled":false,"rental_uris":{"android":"levelo://app?vid=12fd312b-a236-4b26-878b-0432501ea6fd","ios":"levelo://app?vid=12fd312b-a236-4b26-878b-0432501ea6fd"},"vehicle_type_id":"4","last_reported":1747023280,"current_range_meters":20400,"station_id":"ce4bgvh2rcd13ifvqcs0","pricing_plan_id":"cebpf4jnsgd1na2vs0mg"},{"bike_id":"af870e04-8d0c-4a00-a73d-c5c448081eaf","system_id":"levelo_inurba_marseille","lat":43.290289,"lon":5.386469,"is_reserved":false,"is_disabled":true,"rental_uris":{"android":"levelo://app?vid=af870e04-8d0c-4a00-a73d-c5c448081eaf","ios":"levelo://app?vid=af870e04-8d0c-4a00-a73d-c5c448081eaf"},"vehicle_type_id":"4","last_reported":1747023280,"current_range_meters":20800,"station_id":"ce4bh4p2rcd13ifvqe0g","pricing_plan_id":"cebpf4jnsgd1na2vs0mg"},{"bike_id":"2cc6ab33-b884-4b84-8f2e-73a9d9cc1642","system_id":"levelo_inurba_marseille","lat":43.28854,"lon":5.39322,"is_reserved":false,"is_disabled":true,"rental_uris":{"android":"levelo://app?vid=2cc6ab33-b884-4b84-8f2e-73a9d9cc1642","ios":"levelo://app?vid=2cc6ab33-b884-4b84-8f2e-73a9d9cc1642"},"vehicle_type_id":"4","last_reported":1747023280,"current_range_meters":20800,"station_id":"ce4bh2p2rcd13ifvqdi0","pricing_plan_id":"cebpf4jnsgd1na2vs0mg"},{"bike_id":"f1342c4c-a94b-4654-9628-680ba7db74df","system_id":"levelo_inurba_marseille","lat":43.23191,"lon":5.35538,"is_reserved":false,"is_disabled":true,"rental_uris":{"android":"levelo://app?vid=f1342c4c-a94b-4654-9628-680ba7db74df","ios":"levelo://app?vid=f1342c4c-a94b-4654-9628-680ba7db74df"},"vehicle_type_id":"4","last_reported":1747023280,"current_range_meters":20800,"station_id":"ce4bhu92rcd13ifvqi70","pricing_plan_id":"cebpf4jnsgd1na2vs0mg"},{"bike_id":"7f9abf71-8019-498c-8243-8b5ce9ff851e","system_id":"levelo_inurba_marseille","lat":43.298539,"lon":5.362953,"is_reserved":false,"is_disabled":true,"rental_uris":{"android":"levelo://app?vid=7f9abf71-8019-498c-8243-8b5ce9ff851e","ios":"levelo://app?vid=7f9abf71-8019-498c-8243-8b5ce9ff851e"},"vehicle_type_id":"4","last_reported":1747023280,"current_range_meters":20800,"station_id":"","pricing_plan_id":"cebpf4jnsgd1na2vs0mg"},{"bike_id":"0a3e9417-6643-4978-9498-8312436bc84a","system_id":"levelo_inurba_marseille","lat":43.27622,"lon":5.36121,"is_reserved":false,"is_disabled":true,"rental_uris":{"android":"levelo://app?vid=0a3e9417-6643-4978-9498-8312436bc84a","ios":"levelo://app?vid=0a3e9417-6643-4978-9498-8312436bc84a"},"vehicle_type_id":"4","last_reported":1747023280,"current_range_meters":20800,"station_id":"ce4bgj92rcd13ifvqbe0","pricing_plan_id":"cebpf4jnsgd1na2vs0mg"},{"bike_id":"0b88a7a1-0359-47a0-b0d3-ac907b50bbfc","system_id":"levelo_inurba_marseille","lat":43.3133,"lon":5.39688,"is_reserved":false,"is_disabled":false,"rental_uris":{"android":"levelo://app?vid=0b88a7a1-0359-47a0-b0d3-ac907b50bbfc","ios":"levelo://app?vid=0b88a7a1-0359-47a0-b0d3-ac907b50bbfc"},"vehicle_type_id":"4","last_reported":1747023280,"current_range_meters":21600,"station_id":"ce4bgvp2rcd13ifvqcu0","pricing_plan_id":"cebpf4jnsgd1na2vs0mg"},{"bike_id":"bf8ab2b3-a5b8-4b44-9ccf-e0d7e23d9454","system_id":"levelo_inurba_marseille","lat":43.28461,"lon":5.358872,"is_reserved":false,"is_disabled":false,"rental_uris":{"android":"levelo://app?vid=bf8ab2b3-a5b8-4b44-9ccf-e0d7e23d9454","ios":"levelo://app?vid=bf8ab2b3-a5b8-4b44-9ccf-e0d7e23d9454"},"vehicle_type_id":"4","last_reported":1747023280,"current_range_meters":21600,"station_id":"ce4bhah2rcd13ifvqei0","pricing_plan_id":"cebpf4jnsgd1na2vs0mg"},{"bike_id":"c84cc980-38fe-4761-924e-99f94b7ce9c7","system_id":"levelo_inurba_marseille","lat":43.337444,"lon":5.374475,"is_reserved":false,"is_disabled":true,"rental_uris":{"android":"levelo://app?vid=c84cc980-38fe-4761-924e-99f94b7ce9c7","ios":"levelo://app?vid=c84cc980-38fe-4761-924e-99f94b7ce9c7"},"vehicle_type_id":"4","last_reported":1747023280,"current_range_meters":21600,"station_id":"","pricing_plan_id":"cebpf4jnsgd1na2vs0mg"},{"bike_id":"cc25aae6-3197-44f8-8471-8a0efb35cc4f","system_id":"levelo_inurba_marseille","lat":43.306046,"lon":5.36597,"is_reserved":false,"is_disabled":true,"rental_uris":{"android":"levelo://app?vid=cc25aae6-3197-44f8-8471-8a0efb35cc4f","ios":"levelo://app?vid=cc25aae6-3197-44f8-8471-8a0efb35cc4f"},"vehicle_type_id":"4","last_reported":1747023280,"current_range_meters":22000,"station_id":"","pricing_plan_id":"cebpf4jnsgd1na2vs0mg"},{"bike_id":"d3cbc46f-5375-4d60-978c-d259ee44514f","system_id":"levelo_inurba_marseille","lat":43.29308,"lon":5.37467,"is_reserved":false,"is_disabled":true,"rental_uris":{"android":"levelo://app?vid=d3cbc46f-5375-4d60-978c-d259ee44514f","ios":"levelo://app?vid=d3cbc46f-5375-4d60-978c-d259ee44514f"},"vehicle_type_id":"4","last_reported":1747023280,"current_range_meters":22400,"station_id":"","pricing_plan_id":"cebpf4jnsgd1na2vs0mg"},{"bike_id":"dc53d17a-6042-4f83-8552-4e608df3f076","system_id":"levelo_inurba_marseille","lat":43.255182,"lon":5.401004,"is_reserved":false,"is_disabled":false,"rental_uris":{"android":"levelo://app?vid=dc53d17a-6042-4f83-8552-4e608df3f076","ios":"levelo://app?vid=dc53d17a-6042-4f83-8552-4e608df3f076"},"vehicle_type_id":"4","last_reported":1747023280,"current_range_meters":22400,"station_id":"","pricing_plan_id":"cebpf4jnsgd1na2vs0mg"},{"bike_id":"e9616221-7423-4bfb-9840-191e8a239b7d","system_id":"levelo_inurba_marseille","lat":43.284088,"lon":5.375276,"is_reserved":false,"is_disabled":false,"rental_uris":{"android":"levelo://app?vid=e9616221-7423-4bfb-9840-191e8a239b7d","ios":"levelo://app?vid=e9616221-7423-4bfb-9840-191e8a239b7d"},"vehicle_type_id":"4","last_reported":1747023280,"current_range_meters":22800,"station_id":"ce4bh412rcd13ifvqds0","pricing_plan_id":"cebpf4jnsgd1na2vs0mg"},{"bike_id":"d3d2d228-ae16-4c9f-817b-422a5897c8ae","system_id":"levelo_inurba_marseille","lat":43.30171,"lon":5.38084,"is_reserved":false,"is_disabled":false,"rental_uris":{"android":"levelo://app?vid=d3d2d228-ae16-4c9f-817b-422a5897c8ae","ios":"levelo://app?vid=d3d2d228-ae16-4c9f-817b-422a5897c8ae"},"vehicle_type_id":"4","last_reported":1747023280,"current_range_meters":22800,"station_id":"ce4bgjp2rcd13ifvqbh0","pricing_plan_id":"cebpf4jnsgd1na2vs0mg"},{"bike_id":"d6ecb02a-12e6-40fb-abf9-7c420dd83224","system_id":"levelo_inurba_marseille","lat":43.27939,"lon":5.41052,"is_reserved":false,"is_disabled":false,"rental_uris":{"android":"levelo://app?vid=d6ecb02a-12e6-40fb-abf9-7c420dd83224","ios":"levelo://app?vid=d6ecb02a-12e6-40fb-abf9-7c420dd83224"},"vehicle_type_id":"4","last_reported":1747023280,"current_range_meters":22800,"station_id":"ce4bhnp2rcd13ifvqh0g","pricing_plan_id":"cebpf4jnsgd1na2vs0mg"},{"bike_id":"fcf9463b-401b-4157-a5a9-4c36ca7d015d","system_id":"levelo_inurba_marseille","lat":43.30703,"lon":5.370594,"is_reserved":false,"is_disabled":false,"rental_uris":{"android":"levelo://app?vid=fcf9463b-401b-4157-a5a9-4c36ca7d015d","ios":"levelo://app?vid=fcf9463b-401b-4157-a5a9-4c36ca7d015d"},"vehicle_type_id":"4","last_reported":1747023280,"current_range_meters":22800,"station_id":"","pricing_plan_id":"cebpf4jnsgd1na2vs0mg"},{"bike_id":"025b2018-5ff3-4c4c-9661-1931d34e9be8","system_id":"levelo_inurba_marseille","lat":43.23568,"lon":5.3613,"is_reserved":false,"is_disabled":true,"rental_uris":{"android":"levelo://app?vid=025b2018-5ff3-4c4c-9661-1931d34e9be8","ios":"levelo://app?vid=025b2018-5ff3-4c4c-9661-1931d34e9be8"},"vehicle_type_id":"4","last_reported":1747023280,"current_range_meters":22800,"station_id":"","pricing_plan_id":"cebpf4jnsgd1na2vs0mg"},{"bike_id":"ed528d0b-bd4f-4ffa-9303-ebc2274132c3","system_id":"levelo_inurba_marseille","lat":43.2396,"lon":5.36643,"is_reserved":false,"is_disabled":false,"rental_uris":{"android":"levelo://app?vid=ed528d0b-bd4f-4ffa-9303-ebc2274132c3","ios":"levelo://app?vid=ed528d0b-bd4f-4ffa-9303-ebc2274132c3"},"vehicle_type_id":"4","last_reported":1747023280,"current_range_meters":22800,"station_id":"ce4bhi12rcd13ifvqfp0","pricing_plan_id":"cebpf4jnsgd1na2vs0mg"},{"bike_id":"986f1567-4a9f-471e-ad2c-3c962c5d9526","system_id":"levelo_inurba_marseille","lat":43.28091,"lon":5.386583,"is_reserved":false,"is_disabled":true,"rental_uris":{"android":"levelo://app?vid=986f1567-4a9f-471e-ad2c-3c962c5d9526","ios":"levelo://app?vid=986f1567-4a9f-471e-ad2c-3c962c5d9526"},"vehicle_type_id":"4","last_reported":1747023280,"current_range_meters":23200,"station_id":"","pricing_plan_id":"cebpf4jnsgd1na2vs0mg"},{"bike_id":"9f952b18-032d-4a87-a464-b179467689ad","system_id":"levelo_inurba_marseille","lat":43.282746,"lon":5.350746,"is_reserved":false,"is_disabled":true,"rental_uris":{"android":"levelo://app?vid=9f952b18-032d-4a87-a464-b179467689ad","ios":"levelo://app?vid=9f952b18-032d-4a87-a464-b179467689ad"},"vehicle_type_id":"4","last_reported":1747023280,"current_range_meters":23200,"station_id":"ce4bhbp2rcd13ifvqerg","pricing_plan_id":"cebpf4jnsgd1na2vs0mg"},{"bike_id":"1760a55a-0520-4ba5-a377-acd3b74b2b49","system_id":"levelo_inurba_marseille","lat":43.2989,"lon":5.39726,"is_reserved":false,"is_disabled":false,"rental_uris":{"android":"levelo://app?vid=1760a55a-0520-4ba5-a377-acd3b74b2b49","ios":"levelo://app?vid=1760a55a-0520-4ba5-a377-acd3b74b2b49"},"vehicle_type_id":"4","last_reported":1747023280,"current_range_meters":24000,"station_id":"ce4bh0h2rcd13ifvqd50","pricing_plan_id":"cebpf4jnsgd1na2vs0mg"},{"bike_id":"94643c87-a910-464c-8beb-f9e9d8854450","system_id":"levelo_inurba_marseille","lat":43.280826,"lon":5.396659,"is_reserved":false,"is_disabled":false,"rental_uris":{"android":"levelo://app?vid=94643c87-a910-464c-8beb-f9e9d8854450","ios":"levelo://app?vid=94643c87-a910-464c-8beb-f9e9d8854450"},"vehicle_type_id":"4","last_reported":1747023280,"current_range_meters":24000,"station_id":"ce4bho12rcd13ifvqh2g","pricing_plan_id":"cebpf4jnsgd1na2vs0mg"},{"bike_id":"a1ab2789-27f3-4fe2-84a3-5b7a11a4c085","system_id":"levelo_inurba_marseille","lat":43.307998,"lon":5.435293,"is_reserved":false,"is_disabled":false,"rental_uris":{"android":"levelo://app?vid=a1ab2789-27f3-4fe2-84a3-5b7a11a4c085","ios":"levelo://app?vid=a1ab2789-27f3-4fe2-84a3-5b7a11a4c085"},"vehicle_type_id":"4","last_reported":1747023280,"current_range_meters":24000,"station_id":"ce4bhph2rcd13ifvqheg","pricing_plan_id":"cebpf4jnsgd1na2vs0mg"},{"bike_id":"e8815478-bcd4-4572-8bfb-c6fcfe62f0a2","system_id":"levelo_inurba_marseille","lat":43.26219,"lon":5.404719,"is_reserved":false,"is_disabled":false,"rental_uris":{"android":"levelo://app?vid=e8815478-bcd4-4572-8bfb-c6fcfe62f0a2","ios":"levelo://app?vid=e8815478-bcd4-4572-8bfb-c6fcfe62f0a2"},"vehicle_type_id":"4","last_reported":1747023280,"current_range_meters":24000,"station_id":"ce4bhmh2rcd13ifvqgmg","pricing_plan_id":"cebpf4jnsgd1na2vs0mg"},{"bike_id":"36b9d717-ff45-4630-b0ca-dea1b6c762ec","system_id":"levelo_inurba_marseille","lat":43.30448,"lon":5.38893,"is_reserved":false,"is_disabled":true,"rental_uris":{"android":"levelo://app?vid=36b9d717-ff45-4630-b0ca-dea1b6c762ec","ios":"levelo://app?vid=36b9d717-ff45-4630-b0ca-dea1b6c762ec"},"vehicle_type_id":"4","last_reported":1747023280,"current_range_meters":24000,"station_id":"ce4bgk12rcd13ifvqbi0","pricing_plan_id":"cebpf4jnsgd1na2vs0mg"},{"bike_id":"f4df20bb-9a72-4057-98bf-c911ad9cbc00","system_id":"levelo_inurba_marseille","lat":43.310698,"lon":5.383491,"is_reserved":false,"is_disabled":false,"rental_uris":{"android":"levelo://app?vid=f4df20bb-9a72-4057-98bf-c911ad9cbc00","ios":"levelo://app?vid=f4df20bb-9a72-4057-98bf-c911ad9cbc00"},"vehicle_type_id":"4","last_reported":1747023280,"current_range_meters":24400,"station_id":"ce4bgv92rcd13ifvqcr0","pricing_plan_id":"cebpf4jnsgd1na2vs0mg"},{"bike_id":"81e56a83-0f38-4053-8247-0af6d61d1407","system_id":"levelo_inurba_marseille","lat":43.318937,"lon":5.407403,"is_reserved":false,"is_disabled":false,"rental_uris":{"android":"levelo://app?vid=81e56a83-0f38-4053-8247-0af6d61d1407","ios":"levelo://app?vid=81e56a83-0f38-4053-8247-0af6d61d1407"},"vehicle_type_id":"4","last_reported":1747023280,"current_range_meters":24400,"station_id":"ce4bhq12rcd13ifvqhig","pricing_plan_id":"cebpf4jnsgd1na2vs0mg"},{"bike_id":"e6782632-c1fe-42de-b21b-94e58fc56a6e","system_id":"levelo_inurba_marseille","lat":43.25467,"lon":5.37679,"is_reserved":false,"is_disabled":true,"rental_uris":{"android":"levelo://app?vid=e6782632-c1fe-42de-b21b-94e58fc56a6e","ios":"levelo://app?vid=e6782632-c1fe-42de-b21b-94e58fc56a6e"},"vehicle_type_id":"4","last_reported":1747023280,"current_range_meters":24400,"station_id":"ce4bhh12rcd13ifvqff0","pricing_plan_id":"cebpf4jnsgd1na2vs0mg"},{"bike_id":"7d5de8c8-c3ee-4633-a6c1-36c0fb0ad2a7","system_id":"levelo_inurba_marseille","lat":43.29511,"lon":5.37993,"is_reserved":false,"is_disabled":false,"rental_uris":{"android":"levelo://app?vid=7d5de8c8-c3ee-4633-a6c1-36c0fb0ad2a7","ios":"levelo://app?vid=7d5de8c8-c3ee-4633-a6c1-36c0fb0ad2a7"},"vehicle_type_id":"4","last_reported":1747023280,"current_range_meters":24400,"station_id":"","pricing_plan_id":"cebpf4jnsgd1na2vs0mg"},{"bike_id":"3cefa205-9db3-403f-9466-99653a0c908b","system_id":"levelo_inurba_marseille","lat":43.25118,"lon":5.4032,"is_reserved":false,"is_disabled":false,"rental_uris":{"android":"levelo://app?vid=3cefa205-9db3-403f-9466-99653a0c908b","ios":"levelo://app?vid=3cefa205-9db3-403f-9466-99653a0c908b"},"vehicle_type_id":"4","last_reported":1747023280,"current_range_meters":24400,"station_id":"ce4bhlh2rcd13ifvqgig","pricing_plan_id":"cebpf4jnsgd1na2vs0mg"},{"bike_id":"60fea44c-1f85-44b0-8351-9350ed7b8363","system_id":"levelo_inurba_marseille","lat":43.311608,"lon":5.3872,"is_reserved":false,"is_disabled":false,"rental_uris":{"android":"levelo://app?vid=60fea44c-1f85-44b0-8351-9350ed7b8363","ios":"levelo://app?vid=60fea44c-1f85-44b0-8351-9350ed7b8363"},"vehicle_type_id":"4","last_reported":1747023280,"current_range_meters":24400,"station_id":"ce4bgv12rcd13ifvqcp0","pricing_plan_id":"cebpf4jnsgd1na2vs0mg"},{"bike_id":"bf0c4a52-4226-46a9-ba4c-0bc9d19b1429","system_id":"levelo_inurba_marseille","lat":43.292593,"lon":5.376227,"is_reserved":false,"is_disabled":false,"rental_uris":{"android":"levelo://app?vid=bf0c4a52-4226-46a9-ba4c-0bc9d19b1429","ios":"levelo://app?vid=bf0c4a52-4226-46a9-ba4c-0bc9d19b1429"},"vehicle_type_id":"4","last_reported":1747023280,"current_range_meters":24400,"station_id":"ce4bgi12rcd13ifvqb80","pricing_plan_id":"cebpf4jnsgd1na2vs0mg"},{"bike_id":"581a76c6-406f-436c-80cf-424046378536","system_id":"levelo_inurba_marseille","lat":43.2316,"lon":5.43715,"is_reserved":false,"is_disabled":false,"rental_uris":{"android":"levelo://app?vid=581a76c6-406f-436c-80cf-424046378536","ios":"levelo://app?vid=581a76c6-406f-436c-80cf-424046378536"},"vehicle_type_id":"4","last_reported":1747023280,"current_range_meters":24400,"station_id":"ce4bhmp2rcd13ifvqgog","pricing_plan_id":"cebpf4jnsgd1na2vs0mg"},{"bike_id":"13e1c4b7-dc11-48a5-9f8d-ce62e4cd4a2c","system_id":"levelo_inurba_marseille","lat":43.30433,"lon":5.38884,"is_reserved":false,"is_disabled":false,"rental_uris":{"android":"levelo://app?vid=13e1c4b7-dc11-48a5-9f8d-ce62e4cd4a2c","ios":"levelo://app?vid=13e1c4b7-dc11-48a5-9f8d-ce62e4cd4a2c"},"vehicle_type_id":"4","last_reported":1747023280,"current_range_meters":24400,"station_id":"ce4bgk12rcd13ifvqbi0","pricing_plan_id":"cebpf4jnsgd1na2vs0mg"},{"bike_id":"625c246b-086c-4e36-b588-d715aa7357ef","system_id":"levelo_inurba_marseille","lat":43.31073,"lon":5.42466,"is_reserved":false,"is_disabled":false,"rental_uris":{"android":"levelo://app?vid=625c246b-086c-4e36-b588-d715aa7357ef","ios":"levelo://app?vid=625c246b-086c-4e36-b588-d715aa7357ef"},"vehicle_type_id":"4","last_reported":1747023280,"current_range_meters":24800,"station_id":"ce4bhp92rcd13ifvqhag","pricing_plan_id":"cebpf4jnsgd1na2vs0mg"},{"bike_id":"c55a8240-a67b-46b6-b26d-68c69aeff301","system_id":"levelo_inurba_marseille","lat":43.25721,"lon":5.41117,"is_reserved":false,"is_disabled":false,"rental_uris":{"android":"levelo://app?vid=c55a8240-a67b-46b6-b26d-68c69aeff301","ios":"levelo://app?vid=c55a8240-a67b-46b6-b26d-68c69aeff301"},"vehicle_type_id":"4","last_reported":1747023280,"current_range_meters":24800,"station_id":"ce4bhkp2rcd13ifvqgd0","pricing_plan_id":"cebpf4jnsgd1na2vs0mg"},{"bike_id":"99bdd88a-6c79-4c7b-9277-5e8dbca0d025","system_id":"levelo_inurba_marseille","lat":43.2706,"lon":5.42283,"is_reserved":false,"is_disabled":false,"rental_uris":{"android":"levelo://app?vid=99bdd88a-6c79-4c7b-9277-5e8dbca0d025","ios":"levelo://app?vid=99bdd88a-6c79-4c7b-9277-5e8dbca0d025"},"vehicle_type_id":"4","last_reported":1747023280,"current_range_meters":24800,"station_id":"ce4bhk92rcd13ifvqgb0","pricing_plan_id":"cebpf4jnsgd1na2vs0mg"},{"bike_id":"3bb76f8d-de22-4c8b-9c35-324f92e2c0ce","system_id":"levelo_inurba_marseille","lat":43.273203,"lon":5.390957,"is_reserved":false,"is_disabled":true,"rental_uris":{"android":"levelo://app?vid=3bb76f8d-de22-4c8b-9c35-324f92e2c0ce","ios":"levelo://app?vid=3bb76f8d-de22-4c8b-9c35-324f92e2c0ce"},"vehicle_type_id":"4","last_reported":1747023280,"current_range_meters":24800,"station_id":"ce4bhgp2rcd13ifvqfe0","pricing_plan_id":"cebpf4jnsgd1na2vs0mg"},{"bike_id":"e49ed292-ac25-4dc5-87e7-7cff6914461d","system_id":"levelo_inurba_marseille","lat":43.29894,"lon":5.39745,"is_reserved":false,"is_disabled":false,"rental_uris":{"android":"levelo://app?vid=e49ed292-ac25-4dc5-87e7-7cff6914461d","ios":"levelo://app?vid=e49ed292-ac25-4dc5-87e7-7cff6914461d"},"vehicle_type_id":"4","last_reported":1747023280,"current_range_meters":24800,"station_id":"ce4bh0h2rcd13ifvqd50","pricing_plan_id":"cebpf4jnsgd1na2vs0mg"},{"bike_id":"7332dc45-4859-4d8a-ba70-b6ff9e45fbbd","system_id":"levelo_inurba_marseille","lat":43.31071,"lon":5.38354,"is_reserved":false,"is_disabled":false,"rental_uris":{"android":"levelo://app?vid=7332dc45-4859-4d8a-ba70-b6ff9e45fbbd","ios":"levelo://app?vid=7332dc45-4859-4d8a-ba70-b6ff9e45fbbd"},"vehicle_type_id":"4","last_reported":1747023280,"current_range_meters":25200,"station_id":"ce4bgv92rcd13ifvqcr0","pricing_plan_id":"cebpf4jnsgd1na2vs0mg"},{"bike_id":"7eb75628-4f17-4cf4-a0e2-bfbe9a19d9fd","system_id":"levelo_inurba_marseille","lat":43.30696,"lon":5.40114,"is_reserved":false,"is_disabled":true,"rental_uris":{"android":"levelo://app?vid=7eb75628-4f17-4cf4-a0e2-bfbe9a19d9fd","ios":"levelo://app?vid=7eb75628-4f17-4cf4-a0e2-bfbe9a19d9fd"},"vehicle_type_id":"4","last_reported":1747023280,"current_range_meters":25200,"station_id":"ce4bh112rcd13ifvqda0","pricing_plan_id":"cebpf4jnsgd1na2vs0mg"},{"bike_id":"95b50147-3860-439b-b602-781dd5169959","system_id":"levelo_inurba_marseille","lat":43.29266,"lon":5.3684,"is_reserved":false,"is_disabled":true,"rental_uris":{"android":"levelo://app?vid=95b50147-3860-439b-b602-781dd5169959","ios":"levelo://app?vid=95b50147-3860-439b-b602-781dd5169959"},"vehicle_type_id":"4","last_reported":1747023280,"current_range_meters":25200,"station_id":"ce4bhbp2rcd13ifvqesg","pricing_plan_id":"cebpf4jnsgd1na2vs0mg"},{"bike_id":"ebcadc07-4256-45d7-af27-ac3797fb9ed3","system_id":"levelo_inurba_marseille","lat":43.28401,"lon":5.37524,"is_reserved":false,"is_disabled":true,"rental_uris":{"android":"levelo://app?vid=ebcadc07-4256-45d7-af27-ac3797fb9ed3","ios":"levelo://app?vid=ebcadc07-4256-45d7-af27-ac3797fb9ed3"},"vehicle_type_id":"4","last_reported":1747023280,"current_range_meters":25600,"station_id":"ce4bh412rcd13ifvqds0","pricing_plan_id":"cebpf4jnsgd1na2vs0mg"},{"bike_id":"40a7b2ab-49f8-4a57-9575-f98dd9e88f9b","system_id":"levelo_inurba_marseille","lat":43.295408,"lon":5.37505,"is_reserved":false,"is_disabled":true,"rental_uris":{"android":"levelo://app?vid=40a7b2ab-49f8-4a57-9575-f98dd9e88f9b","ios":"levelo://app?vid=40a7b2ab-49f8-4a57-9575-f98dd9e88f9b"},"vehicle_type_id":"4","last_reported":1747023280,"current_range_meters":25600,"station_id":"ce4bgkp2rcd13ifvqbmg","pricing_plan_id":"cebpf4jnsgd1na2vs0mg"},{"bike_id":"c2f46fcf-2d98-4a53-915b-9b0e7a792171","system_id":"levelo_inurba_marseille","lat":43.26579,"lon":5.39024,"is_reserved":false,"is_disabled":false,"rental_uris":{"android":"levelo://app?vid=c2f46fcf-2d98-4a53-915b-9b0e7a792171","ios":"levelo://app?vid=c2f46fcf-2d98-4a53-915b-9b0e7a792171"},"vehicle_type_id":"4","last_reported":1747023280,"current_range_meters":26000,"station_id":"ce4bhe12rcd13ifvqf30","pricing_plan_id":"cebpf4jnsgd1na2vs0mg"},{"bike_id":"05636d95-4876-41cc-8402-743863118824","system_id":"levelo_inurba_marseille","lat":43.26775,"lon":5.39428,"is_reserved":false,"is_disabled":true,"rental_uris":{"android":"levelo://app?vid=05636d95-4876-41cc-8402-743863118824","ios":"levelo://app?vid=05636d95-4876-41cc-8402-743863118824"},"vehicle_type_id":"4","last_reported":1747023280,"current_range_meters":26000,"station_id":"ce4bhh12rcd13ifvqfg0","pricing_plan_id":"cebpf4jnsgd1na2vs0mg"},{"bike_id":"a6403b24-ff7b-431e-a040-d2ab370a8e38","system_id":"levelo_inurba_marseille","lat":43.31167,"lon":5.38707,"is_reserved":false,"is_disabled":false,"rental_uris":{"android":"levelo://app?vid=a6403b24-ff7b-431e-a040-d2ab370a8e38","ios":"levelo://app?vid=a6403b24-ff7b-431e-a040-d2ab370a8e38"},"vehicle_type_id":"4","last_reported":1747023280,"current_range_meters":26000,"station_id":"ce4bgv12rcd13ifvqcp0","pricing_plan_id":"cebpf4jnsgd1na2vs0mg"},{"bike_id":"e139ad25-b87e-4108-8701-8612ea00572b","system_id":"levelo_inurba_marseille","lat":43.30792,"lon":5.38167,"is_reserved":false,"is_disabled":false,"rental_uris":{"android":"levelo://app?vid=e139ad25-b87e-4108-8701-8612ea00572b","ios":"levelo://app?vid=e139ad25-b87e-4108-8701-8612ea00572b"},"vehicle_type_id":"4","last_reported":1747023280,"current_range_meters":26000,"station_id":"ce4bgt12rcd13ifvqce0","pricing_plan_id":"cebpf4jnsgd1na2vs0mg"},{"bike_id":"563aaa92-3305-4a25-9c7f-3c02bfd87cae","system_id":"levelo_inurba_marseille","lat":43.29754,"lon":5.39349,"is_reserved":false,"is_disabled":true,"rental_uris":{"android":"levelo://app?vid=563aaa92-3305-4a25-9c7f-3c02bfd87cae","ios":"levelo://app?vid=563aaa92-3305-4a25-9c7f-3c02bfd87cae"},"vehicle_type_id":"4","last_reported":1747023280,"current_range_meters":26000,"station_id":"chh1huq6cuj3fo74tm60","pricing_plan_id":"cebpf4jnsgd1na2vs0mg"},{"bike_id":"be7ee4c6-2596-4e5c-ae7e-55064a18640d","system_id":"levelo_inurba_marseille","lat":43.297939,"lon":5.393379,"is_reserved":false,"is_disabled":false,"rental_uris":{"android":"levelo://app?vid=be7ee4c6-2596-4e5c-ae7e-55064a18640d","ios":"levelo://app?vid=be7ee4c6-2596-4e5c-ae7e-55064a18640d"},"vehicle_type_id":"4","last_reported":1747023280,"current_range_meters":26000,"station_id":"","pricing_plan_id":"cebpf4jnsgd1na2vs0mg"},{"bike_id":"8a12bab0-f85b-42db-93e9-592954468933","system_id":"levelo_inurba_marseille","lat":43.30186,"lon":5.38067,"is_reserved":false,"is_disabled":false,"rental_uris":{"android":"levelo://app?vid=8a12bab0-f85b-42db-93e9-592954468933","ios":"levelo://app?vid=8a12bab0-f85b-42db-93e9-592954468933"},"vehicle_type_id":"4","last_reported":1747023280,"current_range_meters":26800,"station_id":"ce4bgjp2rcd13ifvqbh0","pricing_plan_id":"cebpf4jnsgd1na2vs0mg"},{"bike_id":"09f9e6e6-54b7-44f1-8b13-96bf6f452638","system_id":"levelo_inurba_marseille","lat":43.297704,"lon":5.459929,"is_reserved":false,"is_disabled":false,"rental_uris":{"android":"levelo://app?vid=09f9e6e6-54b7-44f1-8b13-96bf6f452638","ios":"levelo://app?vid=09f9e6e6-54b7-44f1-8b13-96bf6f452638"},"vehicle_type_id":"4","last_reported":1747023280,"current_range_meters":26800,"station_id":"","pricing_plan_id":"cebpf4jnsgd1na2vs0mg"},{"bike_id":"d02e6451-e516-4f8c-9a29-efbb81ab4a82","system_id":"levelo_inurba_marseille","lat":43.30439,"lon":5.389,"is_reserved":false,"is_disabled":false,"rental_uris":{"android":"levelo://app?vid=d02e6451-e516-4f8c-9a29-efbb81ab4a82","ios":"levelo://app?vid=d02e6451-e516-4f8c-9a29-efbb81ab4a82"},"vehicle_type_id":"4","last_reported":1747023280,"current_range_meters":26800,"station_id":"ce4bgk12rcd13ifvqbi0","pricing_plan_id":"cebpf4jnsgd1na2vs0mg"},{"bike_id":"5086c210-7dd4-4e72-b800-922f9b41850f","system_id":"levelo_inurba_marseille","lat":43.241769,"lon":5.397329,"is_reserved":false,"is_disabled":false,"rental_uris":{"android":"levelo://app?vid=5086c210-7dd4-4e72-b800-922f9b41850f","ios":"levelo://app?vid=5086c210-7dd4-4e72-b800-922f9b41850f"},"vehicle_type_id":"4","last_reported":1747023280,"current_range_meters":26800,"station_id":"ce4bhn12rcd13ifvqgpg","pricing_plan_id":"cebpf4jnsgd1na2vs0mg"},{"bike_id":"f5bf8f46-e61d-4752-a720-5d5821945773","system_id":"levelo_inurba_marseille","lat":43.30156,"lon":5.38081,"is_reserved":false,"is_disabled":false,"rental_uris":{"android":"levelo://app?vid=f5bf8f46-e61d-4752-a720-5d5821945773","ios":"levelo://app?vid=f5bf8f46-e61d-4752-a720-5d5821945773"},"vehicle_type_id":"4","last_reported":1747023280,"current_range_meters":26800,"station_id":"ce4bgjp2rcd13ifvqbh0","pricing_plan_id":"cebpf4jnsgd1na2vs0mg"},{"bike_id":"09f04a62-ce78-48cf-8cdf-38bb2bf3eac8","system_id":"levelo_inurba_marseille","lat":43.29931,"lon":5.39735,"is_reserved":false,"is_disabled":false,"rental_uris":{"android":"levelo://app?vid=09f04a62-ce78-48cf-8cdf-38bb2bf3eac8","ios":"levelo://app?vid=09f04a62-ce78-48cf-8cdf-38bb2bf3eac8"},"vehicle_type_id":"4","last_reported":1747023280,"current_range_meters":26800,"station_id":"ce4bh0h2rcd13ifvqd50","pricing_plan_id":"cebpf4jnsgd1na2vs0mg"},{"bike_id":"1806c447-b7d4-41de-ab1b-359589127fc7","system_id":"levelo_inurba_marseille","lat":43.3231,"lon":5.40635,"is_reserved":false,"is_disabled":false,"rental_uris":{"android":"levelo://app?vid=1806c447-b7d4-41de-ab1b-359589127fc7","ios":"levelo://app?vid=1806c447-b7d4-41de-ab1b-359589127fc7"},"vehicle_type_id":"4","last_reported":1747023280,"current_range_meters":26800,"station_id":"ce4bhq92rcd13ifvqhjg","pricing_plan_id":"cebpf4jnsgd1na2vs0mg"},{"bike_id":"2aff00df-3d4f-4caa-90ca-4c8fb72f5c08","system_id":"levelo_inurba_marseille","lat":43.3128,"lon":5.37327,"is_reserved":false,"is_disabled":false,"rental_uris":{"android":"levelo://app?vid=2aff00df-3d4f-4caa-90ca-4c8fb72f5c08","ios":"levelo://app?vid=2aff00df-3d4f-4caa-90ca-4c8fb72f5c08"},"vehicle_type_id":"4","last_reported":1747023280,"current_range_meters":26800,"station_id":"","pricing_plan_id":"cebpf4jnsgd1na2vs0mg"},{"bike_id":"caca998f-38aa-4983-b099-0f025ff387d7","system_id":"levelo_inurba_marseille","lat":43.311713,"lon":5.387328,"is_reserved":false,"is_disabled":false,"rental_uris":{"android":"levelo://app?vid=caca998f-38aa-4983-b099-0f025ff387d7","ios":"levelo://app?vid=caca998f-38aa-4983-b099-0f025ff387d7"},"vehicle_type_id":"4","last_reported":1747023280,"current_range_meters":27200,"station_id":"ce4bgv12rcd13ifvqcp0","pricing_plan_id":"cebpf4jnsgd1na2vs0mg"},{"bike_id":"460de707-94bc-4939-a26c-73b40618a709","system_id":"levelo_inurba_marseille","lat":43.262196,"lon":5.404631,"is_reserved":false,"is_disabled":false,"rental_uris":{"android":"levelo://app?vid=460de707-94bc-4939-a26c-73b40618a709","ios":"levelo://app?vid=460de707-94bc-4939-a26c-73b40618a709"},"vehicle_type_id":"4","last_reported":1747023280,"current_range_meters":27200,"station_id":"ce4bhmh2rcd13ifvqgmg","pricing_plan_id":"cebpf4jnsgd1na2vs0mg"},{"bike_id":"e387dba6-e784-4638-af80-a7c3d47f838d","system_id":"levelo_inurba_marseille","lat":43.313219,"lon":5.396999,"is_reserved":false,"is_disabled":false,"rental_uris":{"android":"levelo://app?vid=e387dba6-e784-4638-af80-a7c3d47f838d","ios":"levelo://app?vid=e387dba6-e784-4638-af80-a7c3d47f838d"},"vehicle_type_id":"4","last_reported":1747023280,"current_range_meters":27200,"station_id":"ce4bgvp2rcd13ifvqcu0","pricing_plan_id":"cebpf4jnsgd1na2vs0mg"},{"bike_id":"1297402a-0699-4324-a067-80a0da342625","system_id":"levelo_inurba_marseille","lat":43.25735,"lon":5.410963,"is_reserved":false,"is_disabled":false,"rental_uris":{"android":"levelo://app?vid=1297402a-0699-4324-a067-80a0da342625","ios":"levelo://app?vid=1297402a-0699-4324-a067-80a0da342625"},"vehicle_type_id":"4","last_reported":1747023280,"current_range_meters":27200,"station_id":"ce4bhkp2rcd13ifvqgd0","pricing_plan_id":"cebpf4jnsgd1na2vs0mg"},{"bike_id":"3872a9bc-8d3e-4de2-b3a4-7e7847dbbb7d","system_id":"levelo_inurba_marseille","lat":43.30241,"lon":5.40065,"is_reserved":false,"is_disabled":true,"rental_uris":{"android":"levelo://app?vid=3872a9bc-8d3e-4de2-b3a4-7e7847dbbb7d","ios":"levelo://app?vid=3872a9bc-8d3e-4de2-b3a4-7e7847dbbb7d"},"vehicle_type_id":"4","last_reported":1747023280,"current_range_meters":27200,"station_id":"ce4bgvh2rcd13ifvqcs0","pricing_plan_id":"cebpf4jnsgd1na2vs0mg"},{"bike_id":"c6721b92-8fab-47f9-abf8-871f7716f866","system_id":"levelo_inurba_marseille","lat":43.28698,"lon":5.37957,"is_reserved":false,"is_disabled":true,"rental_uris":{"android":"levelo://app?vid=c6721b92-8fab-47f9-abf8-871f7716f866","ios":"levelo://app?vid=c6721b92-8fab-47f9-abf8-871f7716f866"},"vehicle_type_id":"4","last_reported":1747023280,"current_range_meters":27200,"station_id":"ce4bh9p2rcd13ifvqec0","pricing_plan_id":"cebpf4jnsgd1na2vs0mg"},{"bike_id":"9eefd84c-d8c7-455f-a5a9-863f27bff986","system_id":"levelo_inurba_marseille","lat":43.231837,"lon":5.399833,"is_reserved":false,"is_disabled":false,"rental_uris":{"android":"levelo://app?vid=9eefd84c-d8c7-455f-a5a9-863f27bff986","ios":"levelo://app?vid=9eefd84c-d8c7-455f-a5a9-863f27bff986"},"vehicle_type_id":"4","last_reported":1747023280,"current_range_meters":27200,"station_id":"ce4bhn12rcd13ifvqgqg","pricing_plan_id":"cebpf4jnsgd1na2vs0mg"},{"bike_id":"acb90b41-30c0-4ded-97b8-1b503d2eb151","system_id":"levelo_inurba_marseille","lat":43.26067,"lon":5.3939,"is_reserved":false,"is_disabled":true,"rental_uris":{"android":"levelo://app?vid=acb90b41-30c0-4ded-97b8-1b503d2eb151","ios":"levelo://app?vid=acb90b41-30c0-4ded-97b8-1b503d2eb151"},"vehicle_type_id":"4","last_reported":1747023280,"current_range_meters":27600,"station_id":"ce4bhh92rcd13ifvqfj0","pricing_plan_id":"cebpf4jnsgd1na2vs0mg"},{"bike_id":"7fcaeaf6-f09c-4171-8f9d-54ef2fe0d541","system_id":"levelo_inurba_marseille","lat":43.28306,"lon":5.38098,"is_reserved":false,"is_disabled":false,"rental_uris":{"android":"levelo://app?vid=7fcaeaf6-f09c-4171-8f9d-54ef2fe0d541","ios":"levelo://app?vid=7fcaeaf6-f09c-4171-8f9d-54ef2fe0d541"},"vehicle_type_id":"4","last_reported":1747023280,"current_range_meters":27600,"station_id":"ce4bh412rcd13ifvqdr0","pricing_plan_id":"cebpf4jnsgd1na2vs0mg"},{"bike_id":"40aa0512-eb74-40ca-ab76-f96ef5340f3b","system_id":"levelo_inurba_marseille","lat":43.30099,"lon":5.38779,"is_reserved":false,"is_disabled":true,"rental_uris":{"android":"levelo://app?vid=40aa0512-eb74-40ca-ab76-f96ef5340f3b","ios":"levelo://app?vid=40aa0512-eb74-40ca-ab76-f96ef5340f3b"},"vehicle_type_id":"4","last_reported":1747023280,"current_range_meters":27600,"station_id":"ce4bghh2rcd13ifvqb60","pricing_plan_id":"cebpf4jnsgd1na2vs0mg"},{"bike_id":"15d99e4b-34d7-473a-ac95-6c9542f80136","system_id":"levelo_inurba_marseille","lat":43.31363,"lon":5.38502,"is_reserved":false,"is_disabled":false,"rental_uris":{"android":"levelo://app?vid=15d99e4b-34d7-473a-ac95-6c9542f80136","ios":"levelo://app?vid=15d99e4b-34d7-473a-ac95-6c9542f80136"},"vehicle_type_id":"4","last_reported":1747023280,"current_range_meters":27600,"station_id":"ce4bgt92rcd13ifvqcf0","pricing_plan_id":"cebpf4jnsgd1na2vs0mg"},