{"last_updated":1741583326,"ttl":60,"version":"2.2","data":{"bikes":[{"bike_id":"1d4bb7b9-3ae6-4d31-8bdd-ee00b3232adf","system_id":"levelo_inurba_marseille","lat":43.25705,"lon":5.41113,"is_reserved":false,"is_disabled":false,"rental_uris":{"android":"levelo://app?vid=1d4bb7b9-3ae6-4d31-8bdd-ee00b3232adf","ios":"levelo://app?vid=1d4bb7b9-3ae6-4d31-8bdd-ee00b3232adf"},"vehicle_type_id":"4","last_reported":1741583327,"current_range_meters":2800,"station_id":"ce4bhkp2rcd13ifvqgd0","pricing_plan_id":"cebpf4jnsgd1na2vs0mg"},{"bike_id":"d399c68f-4683-4187-95d7-e32ffde3c66c","system_id":"levelo_inurba_marseille","lat":43.25101,"lon":5.3952,"is_reserved":false,"is_disabled":false,"rental_uris":{"android":"levelo://app?vid=d399c68f-4683-4187-95d7-e32ffde3c66c","ios":"levelo://app?vid=d399c68f-4683-4187-95d7-e32ffde3c66c"},"vehicle_type_id":"4","last_reported":1741583327,"current_range_meters":2800,"station_id":"ce4bhm12rcd13ifvqgkg","pricing_plan_id":"cebpf4jnsgd1na2vs0mg"},{"bike_id":"c787a0ef-03a5-4d36-b53c-60238e9036da","system_id":"levelo_inurba_marseille","lat":43.23182,"lon":5.40009,"is_reserved":false,"is_disabled":false,"rental_uris":{"android":"levelo://app?vid=c787a0ef-03a5-4d36-b53c-60238e9036da","ios":"levelo://app?vid=c787a0ef-03a5-4d36-b53c-60238e9036da"},"vehicle_type_id":"4","last_reported":1741583327,"current_range_meters":3200,"station_id":"ce4bhn12rcd13ifvqgqg","pricing_plan_id":"cebpf4jnsgd1na2vs0mg"},{"bike_id":"7e48344a-4db8-47b3-8baa-574165663505","system_id":"levelo_inurba_marseille","lat":43.244,"lon":5.37094,"is_reserved":false,"is_disabled":false,"rental_uris":{"android":"levelo://app?vid=7e48344a-4db8-47b3-8baa-574165663505","ios":"levelo://app?vid=7e48344a-4db8-47b3-8baa-574165663505"},"vehicle_type_id":"4","last_reported":1741583327,"current_range_meters":3200,"station_id":"ce4bhhh2rcd13ifvqfk0","pricing_plan_id":"cebpf4jnsgd1na2vs0mg"},{"bike_id":"dd9a88d6-be9f-49f5-ab3a-4a9b434f536b","system_id":"levelo_inurba_marseille","lat":43.30925,"lon":5.401386,"is_reserved":false,"is_disabled":true,"rental_uris":{"android":"levelo://app?vid=dd9a88d6-be9f-49f5-ab3a-4a9b434f536b","ios":"levelo://app?vid=dd9a88d6-be9f-49f5-ab3a-4a9b434f536b"},"vehicle_type_id":"4","last_reported":1741583327,"current_range_meters":3600,"station_id":"ce4bgvp2rcd13ifvqct0","pricing_plan_id":"cebpf4jnsgd1na2vs0mg"},{"bike_id":"531b9ff3-88ec-415f-8096-fe11d9a4ebee","system_id":"levelo_inurba_marseille","lat":43.2963,"lon":5.40593,"is_reserved":false,"is_disabled":false,"rental_uris":{"android":"levelo://app?vid=531b9ff3-88ec-415f-8096-fe11d9a4ebee","ios":"levelo://app?vid=531b9ff3-88ec-415f-8096-fe11d9a4ebee"},"vehicle_type_id":"4","last_reported":1741583327,"current_range_meters":3600,"station_id":"ce4bh0h2rcd13ifvqd60","pricing_plan_id":"cebpf4jnsgd1na2vs0mg"},{"bike_id":"fdf45df4-47d5-41e8-a6c7-03ee85585140","system_id":"levelo_inurba_marseille","lat":43.26773,"lon":5.3938,"is_reserved":false,"is_disabled":true,"rental_uris":{"android":"levelo://app?vid=fdf45df4-47d5-41e8-a6c7-03ee85585140","ios":"levelo://app?vid=fdf45df4-47d5-41e8-a6c7-03ee85585140"},"vehicle_type_id":"4","last_reported":1741583327,"current_range_meters":4000,"station_id":"ce4bhh12rcd13ifvqfg0","pricing_plan_id":"cebpf4jnsgd1na2vs0mg"},{"bike_id":"692c3fd1-e388-4c38-bc5f-023f56dd0104","system_id":"levelo_inurba_marseille","lat":43.2574,"lon":5.41057,"is_reserved":false,"is_disabled":false,"rental_uris":{"android":"levelo://app?vid=692c3fd1-e388-4c38-bc5f-023f56dd0104","ios":"levelo://app?vid=692c3fd1-e388-4c38-bc5f-023f56dd0104"},"vehicle_type_id":"4","last_reported":1741583327,"current_range_meters":4400,"station_id":"","pricing_plan_id":"cebpf4jnsgd1na2vs0mg"},{"bike_id":"2e3c60b3-f5fc-40b6-b347-86b0b4f3ee6e","system_id":"levelo_inurba_marseille","lat":43.231906,"lon":5.399834,"is_reserved":false,"is_disabled":false,"rental_uris":{"android":"levelo://app?vid=2e3c60b3-f5fc-40b6-b347-86b0b4f3ee6e","ios":"levelo://app?vid=2e3c60b3-f5fc-40b6-b347-86b0b4f3ee6e"},"vehicle_type_id":"4","last_reported":1741583327,"current_range_meters":4000,"station_id":"ce4bhn12rcd13ifvqgqg","pricing_plan_id":"cebpf4jnsgd1na2vs0mg"},{"bike_id":"13c912b1-5b7c-4cb9-9aa5-15e41f113ac7","system_id":"levelo_inurba_marseille","lat":43.268088,"lon":5.40258,"is_reserved":false,"is_disabled":false,"rental_uris":{"android":"levelo://app?vid=13c912b1-5b7c-4cb9-9aa5-15e41f113ac7","ios":"levelo://app?vid=13c912b1-5b7c-4cb9-9aa5-15e41f113ac7"},"vehicle_type_id":"4","last_reported":1741583327,"current_range_meters":4400,"station_id":"ce501612rcd8frsf0b60","pricing_plan_id":"cebpf4jnsgd1na2vs0mg"},{"bike_id":"c854b195-a8dd-4c0b-8985-9c3d86974ab3","system_id":"levelo_inurba_marseille","lat":43.32608,"lon":5.35663,"is_reserved":false,"is_disabled":false,"rental_uris":{"android":"levelo://app?vid=c854b195-a8dd-4c0b-8985-9c3d86974ab3","ios":"levelo://app?vid=c854b195-a8dd-4c0b-8985-9c3d86974ab3"},"vehicle_type_id":"4","last_reported":1741583327,"current_range_meters":4400,"station_id":"","pricing_plan_id":"cebpf4jnsgd1na2vs0mg"},{"bike_id":"388ea826-f5fa-4632-a530-45d13cc0a769","system_id":"levelo_inurba_marseille","lat":43.231971,"lon":5.399871,"is_reserved":false,"is_disabled":false,"rental_uris":{"android":"levelo://app?vid=388ea826-f5fa-4632-a530-45d13cc0a769","ios":"levelo://app?vid=388ea826-f5fa-4632-a530-45d13cc0a769"},"vehicle_type_id":"4","last_reported":1741583327,"current_range_meters":4800,"station_id":"ce4bhn12rcd13ifvqgqg","pricing_plan_id":"cebpf4jnsgd1na2vs0mg"},{"bike_id":"e5eee172-60ba-4f84-85fe-09d2b9bd00b6","system_id":"levelo_inurba_marseille","lat":43.279367,"lon":5.410477,"is_reserved":false,"is_disabled":false,"rental_uris":{"android":"levelo://app?vid=e5eee172-60ba-4f84-85fe-09d2b9bd00b6","ios":"levelo://app?vid=e5eee172-60ba-4f84-85fe-09d2b9bd00b6"},"vehicle_type_id":"4","last_reported":1741583327,"current_range_meters":4800,"station_id":"ce4bhnp2rcd13ifvqh0g","pricing_plan_id":"cebpf4jnsgd1na2vs0mg"},{"bike_id":"2f0c724b-bb76-4a4c-8862-0d82bf790fbd","system_id":"levelo_inurba_marseille","lat":43.265703,"lon":5.390201,"is_reserved":false,"is_disabled":false,"rental_uris":{"android":"levelo://app?vid=2f0c724b-bb76-4a4c-8862-0d82bf790fbd","ios":"levelo://app?vid=2f0c724b-bb76-4a4c-8862-0d82bf790fbd"},"vehicle_type_id":"4","last_reported":1741583327,"current_range_meters":5600,"station_id":"ce4bhe12rcd13ifvqf30","pricing_plan_id":"cebpf4jnsgd1na2vs0mg"},{"bike_id":"b533f38f-df9a-4e01-86fb-08f4b9bfcdfb","system_id":"levelo_inurba_marseille","lat":43.262234,"lon":5.421322,"is_reserved":false,"is_disabled":false,"rental_uris":{"android":"levelo://app?vid=b533f38f-df9a-4e01-86fb-08f4b9bfcdfb","ios":"levelo://app?vid=b533f38f-df9a-4e01-86fb-08f4b9bfcdfb"},"vehicle_type_id":"4","last_reported":1741583327,"current_range_meters":5600,"station_id":"","pricing_plan_id":"cebpf4jnsgd1na2vs0mg"},{"bike_id":"8968ebf0-976e-4199-a05d-0b5eb90e8fa7","system_id":"levelo_inurba_marseille","lat":43.25711,"lon":5.4111,"is_reserved":false,"is_disabled":false,"rental_uris":{"android":"levelo://app?vid=8968ebf0-976e-4199-a05d-0b5eb90e8fa7","ios":"levelo://app?vid=8968ebf0-976e-4199-a05d-0b5eb90e8fa7"},"vehicle_type_id":"4","last_reported":1741583327,"current_range_meters":6000,"station_id":"ce4bhkp2rcd13ifvqgd0","pricing_plan_id":"cebpf4jnsgd1na2vs0mg"},{"bike_id":"21090efb-813e-4bfd-ac70-5164e92b28c6","system_id":"levelo_inurba_marseille","lat":43.27665,"lon":5.38892,"is_reserved":false,"is_disabled":true,"rental_uris":{"android":"levelo://app?vid=21090efb-813e-4bfd-ac70-5164e92b28c6","ios":"levelo://app?vid=21090efb-813e-4bfd-ac70-5164e92b28c6"},"vehicle_type_id":"4","last_reported":1741583327,"current_range_meters":6000,"station_id":"ce4bhi12rcd13ifvqfo0","pricing_plan_id":"cebpf4jnsgd1na2vs0mg"},{"bike_id":"ad284fdb-e6f9-4c5a-9e2c-c44130087410","system_id":"levelo_inurba_marseille","lat":43.23189,"lon":5.39984,"is_reserved":false,"is_disabled":false,"rental_uris":{"android":"levelo://app?vid=ad284fdb-e6f9-4c5a-9e2c-c44130087410","ios":"levelo://app?vid=ad284fdb-e6f9-4c5a-9e2c-c44130087410"},"vehicle_type_id":"4","last_reported":1741583327,"current_range_meters":6400,"station_id":"ce4bhn12rcd13ifvqgqg","pricing_plan_id":"cebpf4jnsgd1na2vs0mg"},{"bike_id":"e5e118b0-32a8-4ef3-b6d1-b7487133ba19","system_id":"levelo_inurba_marseille","lat":43.28136,"lon":5.42656,"is_reserved":false,"is_disabled":false,"rental_uris":{"android":"levelo://app?vid=e5e118b0-32a8-4ef3-b6d1-b7487133ba19","ios":"levelo://app?vid=e5e118b0-32a8-4ef3-b6d1-b7487133ba19"},"vehicle_type_id":"4","last_reported":1741583327,"current_range_meters":6400,"station_id":"ce4bhnh2rcd13ifvqgug","pricing_plan_id":"cebpf4jnsgd1na2vs0mg"},{"bike_id":"8df81582-b866-4e92-b4ac-8e09a62a5b41","system_id":"levelo_inurba_marseille","lat":43.328347,"lon":5.375169,"is_reserved":false,"is_disabled":false,"rental_uris":{"android":"levelo://app?vid=8df81582-b866-4e92-b4ac-8e09a62a5b41","ios":"levelo://app?vid=8df81582-b866-4e92-b4ac-8e09a62a5b41"},"vehicle_type_id":"4","last_reported":1741583327,"current_range_meters":6400,"station_id":"","pricing_plan_id":"cebpf4jnsgd1na2vs0mg"},{"bike_id":"ac927d39-3b9f-4178-989d-e65c69e28e0f","system_id":"levelo_inurba_marseille","lat":43.30873,"lon":5.39637,"is_reserved":false,"is_disabled":false,"rental_uris":{"android":"levelo://app?vid=ac927d39-3b9f-4178-989d-e65c69e28e0f","ios":"levelo://app?vid=ac927d39-3b9f-4178-989d-e65c69e28e0f"},"vehicle_type_id":"4","last_reported":1741583327,"current_range_meters":6400,"station_id":"ce4bh012rcd13ifvqcv0","pricing_plan_id":"cebpf4jnsgd1na2vs0mg"},{"bike_id":"8810679a-e7c9-4297-97b3-dd7d0bfc4864","system_id":"levelo_inurba_marseille","lat":43.25019,"lon":5.38918,"is_reserved":false,"is_disabled":false,"rental_uris":{"android":"levelo://app?vid=8810679a-e7c9-4297-97b3-dd7d0bfc4864","ios":"levelo://app?vid=8810679a-e7c9-4297-97b3-dd7d0bfc4864"},"vehicle_type_id":"4","last_reported":1741583327,"current_range_meters":6400,"station_id":"ce4bhgp2rcd13ifvqfd0","pricing_plan_id":"cebpf4jnsgd1na2vs0mg"},{"bike_id":"93b65028-e8a4-4c8f-876a-ae246ea8ac90","system_id":"levelo_inurba_marseille","lat":43.31355,"lon":5.38495,"is_reserved":false,"is_disabled":true,"rental_uris":{"android":"levelo://app?vid=93b65028-e8a4-4c8f-876a-ae246ea8ac90","ios":"levelo://app?vid=93b65028-e8a4-4c8f-876a-ae246ea8ac90"},"vehicle_type_id":"4","last_reported":1741583327,"current_range_meters":6800,"station_id":"ce4bgt92rcd13ifvqcf0","pricing_plan_id":"cebpf4jnsgd1na2vs0mg"},{"bike_id":"2a3a8222-0824-4130-a051-e3506a3fb94c","system_id":"levelo_inurba_marseille","lat":43.24085,"lon":5.3775,"is_reserved":false,"is_disabled":false,"rental_uris":{"android":"levelo://app?vid=2a3a8222-0824-4130-a051-e3506a3fb94c","ios":"levelo://app?vid=2a3a8222-0824-4130-a051-e3506a3fb94c"},"vehicle_type_id":"4","last_reported":1741583327,"current_range_meters":6800,"station_id":"ce4bhnp2rcd13ifvqgvg","pricing_plan_id":"cebpf4jnsgd1na2vs0mg"},{"bike_id":"9cd8e077-b37f-4891-89ac-25669185fb73","system_id":"levelo_inurba_marseille","lat":43.308,"lon":5.37647,"is_reserved":false,"is_disabled":false,"rental_uris":{"android":"levelo://app?vid=9cd8e077-b37f-4891-89ac-25669185fb73","ios":"levelo://app?vid=9cd8e077-b37f-4891-89ac-25669185fb73"},"vehicle_type_id":"4","last_reported":1741583327,"current_range_meters":6800,"station_id":"ce4bgv92rcd13ifvqcq0","pricing_plan_id":"cebpf4jnsgd1na2vs0mg"},{"bike_id":"30ca0a12-56c0-4feb-9059-10680035a6ae","system_id":"levelo_inurba_marseille","lat":43.28696,"lon":5.37406,"is_reserved":false,"is_disabled":true,"rental_uris":{"android":"levelo://app?vid=30ca0a12-56c0-4feb-9059-10680035a6ae","ios":"levelo://app?vid=30ca0a12-56c0-4feb-9059-10680035a6ae"},"vehicle_type_id":"4","last_reported":1741583327,"current_range_meters":6800,"station_id":"ce4bh3p2rcd13ifvqdq0","pricing_plan_id":"cebpf4jnsgd1na2vs0mg"},{"bike_id":"3e3ed28a-d70d-4e7b-8492-a13a8b5faa63","system_id":"levelo_inurba_marseille","lat":43.25862,"lon":5.39901,"is_reserved":false,"is_disabled":false,"rental_uris":{"android":"levelo://app?vid=3e3ed28a-d70d-4e7b-8492-a13a8b5faa63","ios":"levelo://app?vid=3e3ed28a-d70d-4e7b-8492-a13a8b5faa63"},"vehicle_type_id":"4","last_reported":1741583327,"current_range_meters":6800,"station_id":"ce4bhl92rcd13ifvqghg","pricing_plan_id":"cebpf4jnsgd1na2vs0mg"},{"bike_id":"716ad52e-6276-401a-9565-37b068cf8f1c","system_id":"levelo_inurba_marseille","lat":43.24816,"lon":5.37456,"is_reserved":false,"is_disabled":false,"rental_uris":{"android":"levelo://app?vid=716ad52e-6276-401a-9565-37b068cf8f1c","ios":"levelo://app?vid=716ad52e-6276-401a-9565-37b068cf8f1c"},"vehicle_type_id":"4","last_reported":1741583327,"current_range_meters":6800,"station_id":"ce4bhgh2rcd13ifvqfb0","pricing_plan_id":"cebpf4jnsgd1na2vs0mg"},{"bike_id":"19bbe8da-d7df-496e-a677-cbaab925cf5e","system_id":"levelo_inurba_marseille","lat":43.24865,"lon":5.42513,"is_reserved":false,"is_disabled":false,"rental_uris":{"android":"levelo://app?vid=19bbe8da-d7df-496e-a677-cbaab925cf5e","ios":"levelo://app?vid=19bbe8da-d7df-496e-a677-cbaab925cf5e"},"vehicle_type_id":"4","last_reported":1741583327,"current_range_meters":6800,"station_id":"","pricing_plan_id":"cebpf4jnsgd1na2vs0mg"},{"bike_id":"565fac05-172c-4b9b-92f1-8fa35566d080","system_id":"levelo_inurba_marseille","lat":43.25725,"lon":5.41103,"is_reserved":false,"is_disabled":false,"rental_uris":{"android":"levelo://app?vid=565fac05-172c-4b9b-92f1-8fa35566d080","ios":"levelo://app?vid=565fac05-172c-4b9b-92f1-8fa35566d080"},"vehicle_type_id":"4","last_reported":1741583327,"current_range_meters":6800,"station_id":"ce4bhkp2rcd13ifvqgd0","pricing_plan_id":"cebpf4jnsgd1na2vs0mg"},{"bike_id":"ce090f12-c0e8-4601-8e24-88472425a3e5","system_id":"levelo_inurba_marseille","lat":43.251064,"lon":5.403248,"is_reserved":false,"is_disabled":false,"rental_uris":{"android":"levelo://app?vid=ce090f12-c0e8-4601-8e24-88472425a3e5","ios":"levelo://app?vid=ce090f12-c0e8-4601-8e24-88472425a3e5"},"vehicle_type_id":"4","last_reported":1741583327,"current_range_meters":6800,"station_id":"ce4bhlh2rcd13ifvqgig","pricing_plan_id":"cebpf4jnsgd1na2vs0mg"},{"bike_id":"6278d2ee-3fe8-4bef-aea6-64166ac384f6","system_id":"levelo_inurba_marseille","lat":43.26691,"lon":5.38276,"is_reserved":false,"is_disabled":true,"rental_uris":{"android":"levelo://app?vid=6278d2ee-3fe8-4bef-aea6-64166ac384f6","ios":"levelo://app?vid=6278d2ee-3fe8-4bef-aea6-64166ac384f6"},"vehicle_type_id":"4","last_reported":1741583327,"current_range_meters":6800,"station_id":"ce4bhg92rcd13ifvqf90","pricing_plan_id":"cebpf4jnsgd1na2vs0mg"},{"bike_id":"cf3ef34c-e7a7-4b57-9fab-554ab221f09a","system_id":"levelo_inurba_marseille","lat":43.27933,"lon":5.41043,"is_reserved":false,"is_disabled":false,"rental_uris":{"android":"levelo://app?vid=cf3ef34c-e7a7-4b57-9fab-554ab221f09a","ios":"levelo://app?vid=cf3ef34c-e7a7-4b57-9fab-554ab221f09a"},"vehicle_type_id":"4","last_reported":1741583327,"current_range_meters":6800,"station_id":"ce4bhnp2rcd13ifvqh0g","pricing_plan_id":"cebpf4jnsgd1na2vs0mg"},{"bike_id":"14704438-ead4-4a94-95b6-837271a082f6","system_id":"levelo_inurba_marseille","lat":43.246701,"lon":5.381478,"is_reserved":false,"is_disabled":false,"rental_uris":{"android":"levelo://app?vid=14704438-ead4-4a94-95b6-837271a082f6","ios":"levelo://app?vid=14704438-ead4-4a94-95b6-837271a082f6"},"vehicle_type_id":"4","last_reported":1741583327,"current_range_meters":7200,"station_id":"ce4bhih2rcd13ifvqfr0","pricing_plan_id":"cebpf4jnsgd1na2vs0mg"},{"bike_id":"7b2f6b3b-3dfd-4e2d-be6b-0818decb7513","system_id":"levelo_inurba_marseille","lat":43.31703,"lon":5.40479,"is_reserved":false,"is_disabled":false,"rental_uris":{"android":"levelo://app?vid=7b2f6b3b-3dfd-4e2d-be6b-0818decb7513","ios":"levelo://app?vid=7b2f6b3b-3dfd-4e2d-be6b-0818decb7513"},"vehicle_type_id":"4","last_reported":1741583327,"current_range_meters":7200,"station_id":"ce4bh012rcd13ifvqd00","pricing_plan_id":"cebpf4jnsgd1na2vs0mg"},{"bike_id":"97687e68-be46-4713-8e56-6dcec5493f0a","system_id":"levelo_inurba_marseille","lat":43.24799,"lon":5.37437,"is_reserved":false,"is_disabled":false,"rental_uris":{"android":"levelo://app?vid=97687e68-be46-4713-8e56-6dcec5493f0a","ios":"levelo://app?vid=97687e68-be46-4713-8e56-6dcec5493f0a"},"vehicle_type_id":"4","last_reported":1741583327,"current_range_meters":7200,"station_id":"ce4bhgh2rcd13ifvqfb0","pricing_plan_id":"cebpf4jnsgd1na2vs0mg"},{"bike_id":"c005a41e-a53a-49c3-ab86-ed6508363649","system_id":"levelo_inurba_marseille","lat":43.245503,"lon":5.395222,"is_reserved":false,"is_disabled":false,"rental_uris":{"android":"levelo://app?vid=c005a41e-a53a-49c3-ab86-ed6508363649","ios":"levelo://app?vid=c005a41e-a53a-49c3-ab86-ed6508363649"},"vehicle_type_id":"4","last_reported":1741583327,"current_range_meters":7200,"station_id":"ce4bhlp2rcd13ifvqgjg","pricing_plan_id":"cebpf4jnsgd1na2vs0mg"},{"bike_id":"87d6e4ef-3df7-4bbb-ac4a-4299f7db2aa6","system_id":"levelo_inurba_marseille","lat":43.25762,"lon":5.41089,"is_reserved":false,"is_disabled":false,"rental_uris":{"android":"levelo://app?vid=87d6e4ef-3df7-4bbb-ac4a-4299f7db2aa6","ios":"levelo://app?vid=87d6e4ef-3df7-4bbb-ac4a-4299f7db2aa6"},"vehicle_type_id":"4","last_reported":1741583327,"current_range_meters":7200,"station_id":"","pricing_plan_id":"cebpf4jnsgd1na2vs0mg"},{"bike_id":"d4d80517-15f5-40ba-adfb-dbbe2bf1cada","system_id":"levelo_inurba_marseille","lat":43.29034,"lon":5.43673,"is_reserved":false,"is_disabled":false,"rental_uris":{"android":"levelo://app?vid=d4d80517-15f5-40ba-adfb-dbbe2bf1cada","ios":"levelo://app?vid=d4d80517-15f5-40ba-adfb-dbbe2bf1cada"},"vehicle_type_id":"4","last_reported":1741583327,"current_range_meters":7200,"station_id":"","pricing_plan_id":"cebpf4jnsgd1na2vs0mg"},{"bike_id":"ac2efbb8-87f5-4e67-91b6-6982ed970754","system_id":"levelo_inurba_marseille","lat":43.251062,"lon":5.40321,"is_reserved":false,"is_disabled":false,"rental_uris":{"android":"levelo://app?vid=ac2efbb8-87f5-4e67-91b6-6982ed970754","ios":"levelo://app?vid=ac2efbb8-87f5-4e67-91b6-6982ed970754"},"vehicle_type_id":"4","last_reported":1741583327,"current_range_meters":7200,"station_id":"ce4bhlh2rcd13ifvqgig","pricing_plan_id":"cebpf4jnsgd1na2vs0mg"},{"bike_id":"768a8b1b-0b22-4c90-8353-951ae83771e1","system_id":"levelo_inurba_marseille","lat":43.2468,"lon":5.38161,"is_reserved":false,"is_disabled":false,"rental_uris":{"android":"levelo://app?vid=768a8b1b-0b22-4c90-8353-951ae83771e1","ios":"levelo://app?vid=768a8b1b-0b22-4c90-8353-951ae83771e1"},"vehicle_type_id":"4","last_reported":1741583327,"current_range_meters":7200,"station_id":"ce4bhih2rcd13ifvqfr0","pricing_plan_id":"cebpf4jnsgd1na2vs0mg"},{"bike_id":"0cfda5ec-0688-455d-846d-82f6ae995eb3","system_id":"levelo_inurba_marseille","lat":43.29272,"lon":5.38471,"is_reserved":false,"is_disabled":true,"rental_uris":{"android":"levelo://app?vid=0cfda5ec-0688-455d-846d-82f6ae995eb3","ios":"levelo://app?vid=0cfda5ec-0688-455d-846d-82f6ae995eb3"},"vehicle_type_id":"4","last_reported":1741583327,"current_range_meters":8000,"station_id":"ce4bh692rcd13ifvqea0","pricing_plan_id":"cebpf4jnsgd1na2vs0mg"},{"bike_id":"05156e07-47f0-4de0-bb69-b66700e92b0e","system_id":"levelo_inurba_marseille","lat":43.24386,"lon":5.37032,"is_reserved":false,"is_disabled":true,"rental_uris":{"android":"levelo://app?vid=05156e07-47f0-4de0-bb69-b66700e92b0e","ios":"levelo://app?vid=05156e07-47f0-4de0-bb69-b66700e92b0e"},"vehicle_type_id":"4","last_reported":1741583327,"current_range_meters":8000,"station_id":"ce4bhhh2rcd13ifvqfk0","pricing_plan_id":"cebpf4jnsgd1na2vs0mg"},{"bike_id":"a6bd990a-685a-41d8-b918-9cbe4c8e1b3b","system_id":"levelo_inurba_marseille","lat":43.28609,"lon":5.35143,"is_reserved":false,"is_disabled":false,"rental_uris":{"android":"levelo://app?vid=a6bd990a-685a-41d8-b918-9cbe4c8e1b3b","ios":"levelo://app?vid=a6bd990a-685a-41d8-b918-9cbe4c8e1b3b"},"vehicle_type_id":"4","last_reported":1741583327,"current_range_meters":8000,"station_id":"ce4bhch2rcd13ifvqeug","pricing_plan_id":"cebpf4jnsgd1na2vs0mg"},{"bike_id":"b4c9fc08-92b4-40ba-ba9e-03e885dbfc0c","system_id":"levelo_inurba_marseille","lat":43.230664,"lon":5.354969,"is_reserved":false,"is_disabled":false,"rental_uris":{"android":"levelo://app?vid=b4c9fc08-92b4-40ba-ba9e-03e885dbfc0c","ios":"levelo://app?vid=b4c9fc08-92b4-40ba-ba9e-03e885dbfc0c"},"vehicle_type_id":"4","last_reported":1741583327,"current_range_meters":8000,"station_id":"cpo3342slgdg3j2ifvpg","pricing_plan_id":"cebpf4jnsgd1na2vs0mg"},{"bike_id":"746b7595-f0ba-41be-a02d-d4eb178e3a67","system_id":"levelo_inurba_marseille","lat":43.24662,"lon":5.38163,"is_reserved":false,"is_disabled":false,"rental_uris":{"android":"levelo://app?vid=746b7595-f0ba-41be-a02d-d4eb178e3a67","ios":"levelo://app?vid=746b7595-f0ba-41be-a02d-d4eb178e3a67"},"vehicle_type_id":"4","last_reported":1741583327,"current_range_meters":8400,"station_id":"ce4bhih2rcd13ifvqfr0","pricing_plan_id":"cebpf4jnsgd1na2vs0mg"},{"bike_id":"18656ee1-bec4-47b9-821d-61902b6f5512","system_id":"levelo_inurba_marseille","lat":43.245481,"lon":5.395287,"is_reserved":false,"is_disabled":false,"rental_uris":{"android":"levelo://app?vid=18656ee1-bec4-47b9-821d-61902b6f5512","ios":"levelo://app?vid=18656ee1-bec4-47b9-821d-61902b6f5512"},"vehicle_type_id":"4","last_reported":1741583327,"current_range_meters":8400,"station_id":"ce4bhlp2rcd13ifvqgjg","pricing_plan_id":"cebpf4jnsgd1na2vs0mg"},{"bike_id":"b3b6de43-7ccc-473b-9e87-034a0d9f1009","system_id":"levelo_inurba_marseille","lat":43.29056,"lon":5.37571,"is_reserved":false,"is_disabled":true,"rental_uris":{"android":"levelo://app?vid=b3b6de43-7ccc-473b-9e87-034a0d9f1009","ios":"levelo://app?vid=b3b6de43-7ccc-473b-9e87-034a0d9f1009"},"vehicle_type_id":"4","last_reported":1741583327,"current_range_meters":8400,"station_id":"ce4bh692rcd13ifvqe90","pricing_plan_id":"cebpf4jnsgd1na2vs0mg"},{"bike_id":"ec0a56da-3b74-4ad5-aa49-ecd7ea511691","system_id":"levelo_inurba_marseille","lat":43.25725,"lon":5.41105,"is_reserved":false,"is_disabled":false,"rental_uris":{"android":"levelo://app?vid=ec0a56da-3b74-4ad5-aa49-ecd7ea511691","ios":"levelo://app?vid=ec0a56da-3b74-4ad5-aa49-ecd7ea511691"},"vehicle_type_id":"4","last_reported":1741583327,"current_range_meters":8400,"station_id":"ce4bhkp2rcd13ifvqgd0","pricing_plan_id":"cebpf4jnsgd1na2vs0mg"},{"bike_id":"f5d27d01-effc-4a0c-b4ac-2b42b750aca5","system_id":"levelo_inurba_marseille","lat":43.24551,"lon":5.39525,"is_reserved":false,"is_disabled":false,"rental_uris":{"android":"levelo://app?vid=f5d27d01-effc-4a0c-b4ac-2b42b750aca5","ios":"levelo://app?vid=f5d27d01-effc-4a0c-b4ac-2b42b750aca5"},"vehicle_type_id":"4","last_reported":1741583327,"current_range_meters":8400,"station_id":"ce4bhlp2rcd13ifvqgjg","pricing_plan_id":"cebpf4jnsgd1na2vs0mg"},{"bike_id":"ac13c927-ef96-480c-ac70-9f27e602a87a","system_id":"levelo_inurba_marseille","lat":43.255807,"lon":5.382283,"is_reserved":false,"is_disabled":false,"rental_uris":{"android":"levelo://app?vid=ac13c927-ef96-480c-ac70-9f27e602a87a","ios":"levelo://app?vid=ac13c927-ef96-480c-ac70-9f27e602a87a"},"vehicle_type_id":"4","last_reported":1741583327,"current_range_meters":8400,"station_id":"ce4bhih2rcd13ifvqfs0","pricing_plan_id":"cebpf4jnsgd1na2vs0mg"},{"bike_id":"4c5d8bb4-3d1e-4689-9d72-361d8d376cce","system_id":"levelo_inurba_marseille","lat":43.24807,"lon":5.37461,"is_reserved":false,"is_disabled":false,"rental_uris":{"android":"levelo://app?vid=4c5d8bb4-3d1e-4689-9d72-361d8d376cce","ios":"levelo://app?vid=4c5d8bb4-3d1e-4689-9d72-361d8d376cce"},"vehicle_type_id":"4","last_reported":1741583327,"current_range_meters":8400,"station_id":"ce4bhgh2rcd13ifvqfb0","pricing_plan_id":"cebpf4jnsgd1na2vs0mg"},{"bike_id":"5847332b-f8dc-4626-b00a-bc1a5c1fffc2","system_id":"levelo_inurba_marseille","lat":43.281616,"lon":5.426326,"is_reserved":false,"is_disabled":false,"rental_uris":{"android":"levelo://app?vid=5847332b-f8dc-4626-b00a-bc1a5c1fffc2","ios":"levelo://app?vid=5847332b-f8dc-4626-b00a-bc1a5c1fffc2"},"vehicle_type_id":"4","last_reported":1741583327,"current_range_meters":8800,"station_id":"ce4bhnh2rcd13ifvqgug","pricing_plan_id":"cebpf4jnsgd1na2vs0mg"},{"bike_id":"67fc845a-4e54-4c1c-8b59-aae9c41867a4","system_id":"levelo_inurba_marseille","lat":43.270763,"lon":5.422771,"is_reserved":false,"is_disabled":false,"rental_uris":{"android":"levelo://app?vid=67fc845a-4e54-4c1c-8b59-aae9c41867a4","ios":"levelo://app?vid=67fc845a-4e54-4c1c-8b59-aae9c41867a4"},"vehicle_type_id":"4","last_reported":1741583327,"current_range_meters":8800,"station_id":"ce4bhk92rcd13ifvqgb0","pricing_plan_id":"cebpf4jnsgd1na2vs0mg"},{"bike_id":"34565812-0fff-4dbb-b10e-c8a1a59facae","system_id":"levelo_inurba_marseille","lat":43.317112,"lon":5.436973,"is_reserved":false,"is_disabled":true,"rental_uris":{"android":"levelo://app?vid=34565812-0fff-4dbb-b10e-c8a1a59facae","ios":"levelo://app?vid=34565812-0fff-4dbb-b10e-c8a1a59facae"},"vehicle_type_id":"4","last_reported":1741583327,"current_range_meters":8800,"station_id":"ce4bhp92rcd13ifvqhcg","pricing_plan_id":"cebpf4jnsgd1na2vs0mg"},{"bike_id":"f957b7c5-cf17-4e93-9ecf-3b65410cc4e5","system_id":"levelo_inurba_marseille","lat":43.321289,"lon":5.380689,"is_reserved":false,"is_disabled":false,"rental_uris":{"android":"levelo://app?vid=f957b7c5-cf17-4e93-9ecf-3b65410cc4e5","ios":"levelo://app?vid=f957b7c5-cf17-4e93-9ecf-3b65410cc4e5"},"vehicle_type_id":"4","last_reported":1741583327,"current_range_meters":8800,"station_id":"","pricing_plan_id":"cebpf4jnsgd1na2vs0mg"},{"bike_id":"52b4b7dd-c64b-43cc-a755-4ad91993014c","system_id":"levelo_inurba_marseille","lat":43.24158,"lon":5.39739,"is_reserved":false,"is_disabled":false,"rental_uris":{"android":"levelo://app?vid=52b4b7dd-c64b-43cc-a755-4ad91993014c","ios":"levelo://app?vid=52b4b7dd-c64b-43cc-a755-4ad91993014c"},"vehicle_type_id":"4","last_reported":1741583327,"current_range_meters":9200,"station_id":"ce4bhn12rcd13ifvqgpg","pricing_plan_id":"cebpf4jnsgd1na2vs0mg"},{"bike_id":"365263c5-5707-4d0b-99e3-506f6a4cceb7","system_id":"levelo_inurba_marseille","lat":43.24065,"lon":5.37761,"is_reserved":false,"is_disabled":false,"rental_uris":{"android":"levelo://app?vid=365263c5-5707-4d0b-99e3-506f6a4cceb7","ios":"levelo://app?vid=365263c5-5707-4d0b-99e3-506f6a4cceb7"},"vehicle_type_id":"4","last_reported":1741583327,"current_range_meters":9200,"station_id":"ce4bhnp2rcd13ifvqgvg","pricing_plan_id":"cebpf4jnsgd1na2vs0mg"},{"bike_id":"19609529-1868-4c17-842e-4ad490db40d4","system_id":"levelo_inurba_marseille","lat":43.31358,"lon":5.38472,"is_reserved":false,"is_disabled":false,"rental_uris":{"android":"levelo://app?vid=19609529-1868-4c17-842e-4ad490db40d4","ios":"levelo://app?vid=19609529-1868-4c17-842e-4ad490db40d4"},"vehicle_type_id":"4","last_reported":1741583327,"current_range_meters":9200,"station_id":"ce4bgt92rcd13ifvqcf0","pricing_plan_id":"cebpf4jnsgd1na2vs0mg"},{"bike_id":"1c481fb0-d338-447e-9ac4-5d0e02692c73","system_id":"levelo_inurba_marseille","lat":43.25491,"lon":5.37668,"is_reserved":false,"is_disabled":false,"rental_uris":{"android":"levelo://app?vid=1c481fb0-d338-447e-9ac4-5d0e02692c73","ios":"levelo://app?vid=1c481fb0-d338-447e-9ac4-5d0e02692c73"},"vehicle_type_id":"4","last_reported":1741583327,"current_range_meters":9200,"station_id":"ce4bhh12rcd13ifvqff0","pricing_plan_id":"cebpf4jnsgd1na2vs0mg"},{"bike_id":"95a9099a-60dc-480d-ab0b-ec9e3943d5e5","system_id":"levelo_inurba_marseille","lat":43.24643,"lon":5.38906,"is_reserved":false,"is_disabled":false,"rental_uris":{"android":"levelo://app?vid=95a9099a-60dc-480d-ab0b-ec9e3943d5e5","ios":"levelo://app?vid=95a9099a-60dc-480d-ab0b-ec9e3943d5e5"},"vehicle_type_id":"4","last_reported":1741583327,"current_range_meters":9200,"station_id":"ce4bhg12rcd13ifvqf60","pricing_plan_id":"cebpf4jnsgd1na2vs0mg"},{"bike_id":"ebb2d58b-982f-41cd-b65c-668035c69ec1","system_id":"levelo_inurba_marseille","lat":43.3049,"lon":5.37157,"is_reserved":false,"is_disabled":false,"rental_uris":{"android":"levelo://app?vid=ebb2d58b-982f-41cd-b65c-668035c69ec1","ios":"levelo://app?vid=ebb2d58b-982f-41cd-b65c-668035c69ec1"},"vehicle_type_id":"4","last_reported":1741583327,"current_range_meters":9200,"station_id":"","pricing_plan_id":"cebpf4jnsgd1na2vs0mg"},{"bike_id":"6d30fa00-fa73-4a2d-aac6-368b08cd61f0","system_id":"levelo_inurba_marseille","lat":43.311938,"lon":5.379606,"is_reserved":false,"is_disabled":false,"rental_uris":{"android":"levelo://app?vid=6d30fa00-fa73-4a2d-aac6-368b08cd61f0","ios":"levelo://app?vid=6d30fa00-fa73-4a2d-aac6-368b08cd61f0"},"vehicle_type_id":"4","last_reported":1741583327,"current_range_meters":9200,"station_id":"","pricing_plan_id":"cebpf4jnsgd1na2vs0mg"},{"bike_id":"fa7c8813-1db6-485b-882c-ce003e14d7be","system_id":"levelo_inurba_marseille","lat":43.28109,"lon":5.42637,"is_reserved":false,"is_disabled":false,"rental_uris":{"android":"levelo://app?vid=fa7c8813-1db6-485b-882c-ce003e14d7be","ios":"levelo://app?vid=fa7c8813-1db6-485b-882c-ce003e14d7be"},"vehicle_type_id":"4","last_reported":1741583327,"current_range_meters":9200,"station_id":"","pricing_plan_id":"cebpf4jnsgd1na2vs0mg"},{"bike_id":"11f35fc8-bf5a-42db-8ee3-67d16f82ad59","system_id":"levelo_inurba_marseille","lat":43.24071,"lon":5.37731,"is_reserved":false,"is_disabled":false,"rental_uris":{"android":"levelo://app?vid=11f35fc8-bf5a-42db-8ee3-67d16f82ad59","ios":"levelo://app?vid=11f35fc8-bf5a-42db-8ee3-67d16f82ad59"},"vehicle_type_id":"4","last_reported":1741583327,"current_range_meters":9600,"station_id":"ce4bhnp2rcd13ifvqgvg","pricing_plan_id":"cebpf4jnsgd1na2vs0mg"},{"bike_id":"7f08542c-3622-4bee-8852-d0974c0ec085","system_id":"levelo_inurba_marseille","lat":43.241365,"lon":5.363447,"is_reserved":false,"is_disabled":false,"rental_uris":{"android":"levelo://app?vid=7f08542c-3622-4bee-8852-d0974c0ec085","ios":"levelo://app?vid=7f08542c-3622-4bee-8852-d0974c0ec085"},"vehicle_type_id":"4","last_reported":1741583327,"current_range_meters":9600,"station_id":"","pricing_plan_id":"cebpf4jnsgd1na2vs0mg"},{"bike_id":"60f4da96-da64-488c-98f7-c9a61709620a","system_id":"levelo_inurba_marseille","lat":43.255821,"lon":5.382288,"is_reserved":false,"is_disabled":false,"rental_uris":{"android":"levelo://app?vid=60f4da96-da64-488c-98f7-c9a61709620a","ios":"levelo://app?vid=60f4da96-da64-488c-98f7-c9a61709620a"},"vehicle_type_id":"4","last_reported":1741583327,"current_range_meters":9600,"station_id":"ce4bhih2rcd13ifvqfs0","pricing_plan_id":"cebpf4jnsgd1na2vs0mg"},{"bike_id":"6332f21c-b735-409b-8f12-ffcec3dc9b39","system_id":"levelo_inurba_marseille","lat":43.231916,"lon":5.399817,"is_reserved":false,"is_disabled":false,"rental_uris":{"android":"levelo://app?vid=6332f21c-b735-409b-8f12-ffcec3dc9b39","ios":"levelo://app?vid=6332f21c-b735-409b-8f12-ffcec3dc9b39"},"vehicle_type_id":"4","last_reported":1741583327,"current_range_meters":9600,"station_id":"ce4bhn12rcd13ifvqgqg","pricing_plan_id":"cebpf4jnsgd1na2vs0mg"},{"bike_id":"6503f83c-089e-443d-9c4d-c5c9fa6b70ea","system_id":"levelo_inurba_marseille","lat":43.257158,"lon":5.411091,"is_reserved":false,"is_disabled":false,"rental_uris":{"android":"levelo://app?vid=6503f83c-089e-443d-9c4d-c5c9fa6b70ea","ios":"levelo://app?vid=6503f83c-089e-443d-9c4d-c5c9fa6b70ea"},"vehicle_type_id":"4","last_reported":1741583327,"current_range_meters":9600,"station_id":"ce4bhkp2rcd13ifvqgd0","pricing_plan_id":"cebpf4jnsgd1na2vs0mg"},{"bike_id":"61193e8a-8e60-4220-8577-846bbeba5e58","system_id":"levelo_inurba_marseille","lat":43.31169,"lon":5.37296,"is_reserved":false,"is_disabled":false,"rental_uris":{"android":"levelo://app?vid=61193e8a-8e60-4220-8577-846bbeba5e58","ios":"levelo://app?vid=61193e8a-8e60-4220-8577-846bbeba5e58"},"vehicle_type_id":"4","last_reported":1741583327,"current_range_meters":9600,"station_id":"","pricing_plan_id":"cebpf4jnsgd1na2vs0mg"},{"bike_id":"0221ef38-d887-4acd-a581-8fe904943e96","system_id":"levelo_inurba_marseille","lat":43.25117,"lon":5.40341,"is_reserved":false,"is_disabled":false,"rental_uris":{"android":"levelo://app?vid=0221ef38-d887-4acd-a581-8fe904943e96","ios":"levelo://app?vid=0221ef38-d887-4acd-a581-8fe904943e96"},"vehicle_type_id":"4","last_reported":1741583327,"current_range_meters":10000,"station_id":"ce4bhlh2rcd13ifvqgig","pricing_plan_id":"cebpf4jnsgd1na2vs0mg"},{"bike_id":"dda8b7f8-cd93-4fdf-8891-dad88d85b985","system_id":"levelo_inurba_marseille","lat":43.2963,"lon":5.40594,"is_reserved":false,"is_disabled":false,"rental_uris":{"android":"levelo://app?vid=dda8b7f8-cd93-4fdf-8891-dad88d85b985","ios":"levelo://app?vid=dda8b7f8-cd93-4fdf-8891-dad88d85b985"},"vehicle_type_id":"4","last_reported":1741583327,"current_range_meters":10000,"station_id":"ce4bh0h2rcd13ifvqd60","pricing_plan_id":"cebpf4jnsgd1na2vs0mg"},{"bike_id":"64fdb816-a58d-4d00-b8b1-9f2d0690f5c1","system_id":"levelo_inurba_marseille","lat":43.24174,"lon":5.36384,"is_reserved":false,"is_disabled":true,"rental_uris":{"android":"levelo://app?vid=64fdb816-a58d-4d00-b8b1-9f2d0690f5c1","ios":"levelo://app?vid=64fdb816-a58d-4d00-b8b1-9f2d0690f5c1"},"vehicle_type_id":"4","last_reported":1741583327,"current_range_meters":10000,"station_id":"cpo36qri1sfpv3e86is0","pricing_plan_id":"cebpf4jnsgd1na2vs0mg"},{"bike_id":"5e7b27ef-a426-4849-8056-82ebaa124bb0","system_id":"levelo_inurba_marseille","lat":43.30232,"lon":5.40068,"is_reserved":false,"is_disabled":true,"rental_uris":{"android":"levelo://app?vid=5e7b27ef-a426-4849-8056-82ebaa124bb0","ios":"levelo://app?vid=5e7b27ef-a426-4849-8056-82ebaa124bb0"},"vehicle_type_id":"4","last_reported":1741583327,"current_range_meters":10000,"station_id":"ce4bgvh2rcd13ifvqcs0","pricing_plan_id":"cebpf4jnsgd1na2vs0mg"},{"bike_id":"cc8ccfcb-3658-4b9e-8ea9-b04a28ec7454","system_id":"levelo_inurba_marseille","lat":43.281532,"lon":5.426392,"is_reserved":false,"is_disabled":false,"rental_uris":{"android":"levelo://app?vid=cc8ccfcb-3658-4b9e-8ea9-b04a28ec7454","ios":"levelo://app?vid=cc8ccfcb-3658-4b9e-8ea9-b04a28ec7454"},"vehicle_type_id":"4","last_reported":1741583327,"current_range_meters":10000,"station_id":"ce4bhnh2rcd13ifvqgug","pricing_plan_id":"cebpf4jnsgd1na2vs0mg"},{"bike_id":"b54e92b9-a4a7-482c-9d57-67d95c7aea3a","system_id":"levelo_inurba_marseille","lat":43.30314,"lon":5.40466,"is_reserved":false,"is_disabled":false,"rental_uris":{"android":"levelo://app?vid=b54e92b9-a4a7-482c-9d57-67d95c7aea3a","ios":"levelo://app?vid=b54e92b9-a4a7-482c-9d57-67d95c7aea3a"},"vehicle_type_id":"4","last_reported":1741583327,"current_range_meters":10000,"station_id":"ce4bh012rcd13ifvqd10","pricing_plan_id":"cebpf4jnsgd1na2vs0mg"},{"bike_id":"239162f1-6901-4b7a-b4a8-fb7b0f41bdca","system_id":"levelo_inurba_marseille","lat":43.25575,"lon":5.38263,"is_reserved":false,"is_disabled":false,"rental_uris":{"android":"levelo://app?vid=239162f1-6901-4b7a-b4a8-fb7b0f41bdca","ios":"levelo://app?vid=239162f1-6901-4b7a-b4a8-fb7b0f41bdca"},"vehicle_type_id":"4","last_reported":1741583327,"current_range_meters":10000,"station_id":"ce4bhih2rcd13ifvqfs0","pricing_plan_id":"cebpf4jnsgd1na2vs0mg"},{"bike_id":"0bdc012f-7d4e-416a-8c8a-64719ff4b822","system_id":"levelo_inurba_marseille","lat":43.310709,"lon":5.383514,"is_reserved":false,"is_disabled":false,"rental_uris":{"android":"levelo://app?vid=0bdc012f-7d4e-416a-8c8a-64719ff4b822","ios":"levelo://app?vid=0bdc012f-7d4e-416a-8c8a-64719ff4b822"},"vehicle_type_id":"4","last_reported":1741583327,"current_range_meters":10000,"station_id":"ce4bgv92rcd13ifvqcr0","pricing_plan_id":"cebpf4jnsgd1na2vs0mg"},{"bike_id":"5ed2dd89-a937-49df-801e-4fd381bacc70","system_id":"levelo_inurba_marseille","lat":43.25116,"lon":5.403199,"is_reserved":false,"is_disabled":false,"rental_uris":{"android":"levelo://app?vid=5ed2dd89-a937-49df-801e-4fd381bacc70","ios":"levelo://app?vid=5ed2dd89-a937-49df-801e-4fd381bacc70"},"vehicle_type_id":"4","last_reported":1741583327,"current_range_meters":10000,"station_id":"ce4bhlh2rcd13ifvqgig","pricing_plan_id":"cebpf4jnsgd1na2vs0mg"},{"bike_id":"1ffe0839-d6b0-49e0-a58b-164465fcccd9","system_id":"levelo_inurba_marseille","lat":43.246512,"lon":5.388936,"is_reserved":false,"is_disabled":false,"rental_uris":{"android":"levelo://app?vid=1ffe0839-d6b0-49e0-a58b-164465fcccd9","ios":"levelo://app?vid=1ffe0839-d6b0-49e0-a58b-164465fcccd9"},"vehicle_type_id":"4","last_reported":1741583327,"current_range_meters":10000,"station_id":"ce4bhg12rcd13ifvqf60","pricing_plan_id":"cebpf4jnsgd1na2vs0mg"},{"bike_id":"1f72adc6-3d1a-4fad-a905-cb9dcd596e26","system_id":"levelo_inurba_marseille","lat":43.23844,"lon":5.43567,"is_reserved":false,"is_disabled":false,"rental_uris":{"android":"levelo://app?vid=1f72adc6-3d1a-4fad-a905-cb9dcd596e26","ios":"levelo://app?vid=1f72adc6-3d1a-4fad-a905-cb9dcd596e26"},"vehicle_type_id":"4","last_reported":1741583327,"current_range_meters":10000,"station_id":"","pricing_plan_id":"cebpf4jnsgd1na2vs0mg"},{"bike_id":"3795c289-beea-44c3-a7ae-fd3e55b72f22","system_id":"levelo_inurba_marseille","lat":43.28612,"lon":5.35113,"is_reserved":false,"is_disabled":true,"rental_uris":{"android":"levelo://app?vid=3795c289-beea-44c3-a7ae-fd3e55b72f22","ios":"levelo://app?vid=3795c289-beea-44c3-a7ae-fd3e55b72f22"},"vehicle_type_id":"4","last_reported":1741583327,"current_range_meters":10800,"station_id":"ce4bhch2rcd13ifvqeug","pricing_plan_id":"cebpf4jnsgd1na2vs0mg"},{"bike_id":"c59cfede-72d5-4c07-aa0e-b184c85be70a","system_id":"levelo_inurba_marseille","lat":43.25083,"lon":5.3953,"is_reserved":false,"is_disabled":false,"rental_uris":{"android":"levelo://app?vid=c59cfede-72d5-4c07-aa0e-b184c85be70a","ios":"levelo://app?vid=c59cfede-72d5-4c07-aa0e-b184c85be70a"},"vehicle_type_id":"4","last_reported":1741583327,"current_range_meters":10800,"station_id":"ce4bhm12rcd13ifvqgkg","pricing_plan_id":"cebpf4jnsgd1na2vs0mg"},{"bike_id":"09decadc-8e4a-4602-8a1f-943f9d88143c","system_id":"levelo_inurba_marseille","lat":43.31372,"lon":5.385,"is_reserved":false,"is_disabled":false,"rental_uris":{"android":"levelo://app?vid=09decadc-8e4a-4602-8a1f-943f9d88143c","ios":"levelo://app?vid=09decadc-8e4a-4602-8a1f-943f9d88143c"},"vehicle_type_id":"4","last_reported":1741583327,"current_range_meters":10800,"station_id":"ce4bgt92rcd13ifvqcf0","pricing_plan_id":"cebpf4jnsgd1na2vs0mg"},{"bike_id":"a02a28d4-d06e-4518-80af-d4c0443381ad","system_id":"levelo_inurba_marseille","lat":43.322787,"lon":5.382685,"is_reserved":false,"is_disabled":false,"rental_uris":{"android":"levelo://app?vid=a02a28d4-d06e-4518-80af-d4c0443381ad","ios":"levelo://app?vid=a02a28d4-d06e-4518-80af-d4c0443381ad"},"vehicle_type_id":"4","last_reported":1741583327,"current_range_meters":10800,"station_id":"ce4bhr12rcd13ifvqhqg","pricing_plan_id":"cebpf4jnsgd1na2vs0mg"},{"bike_id":"ef6303de-f84a-4b1f-9060-2a8d28e015bb","system_id":"levelo_inurba_marseille","lat":43.240809,"lon":5.377489,"is_reserved":false,"is_disabled":false,"rental_uris":{"android":"levelo://app?vid=ef6303de-f84a-4b1f-9060-2a8d28e015bb","ios":"levelo://app?vid=ef6303de-f84a-4b1f-9060-2a8d28e015bb"},"vehicle_type_id":"4","last_reported":1741583327,"current_range_meters":10800,"station_id":"ce4bhnp2rcd13ifvqgvg","pricing_plan_id":"cebpf4jnsgd1na2vs0mg"},{"bike_id":"199cb7b2-857a-4db4-b08b-30cc2dc0c4f3","system_id":"levelo_inurba_marseille","lat":43.317129,"lon":5.437074,"is_reserved":false,"is_disabled":false,"rental_uris":{"android":"levelo://app?vid=199cb7b2-857a-4db4-b08b-30cc2dc0c4f3","ios":"levelo://app?vid=199cb7b2-857a-4db4-b08b-30cc2dc0c4f3"},"vehicle_type_id":"4","last_reported":1741583327,"current_range_meters":10800,"station_id":"ce4bhp92rcd13ifvqhcg","pricing_plan_id":"cebpf4jnsgd1na2vs0mg"},{"bike_id":"3e93b162-f299-477d-9ef9-e2acab4085b9","system_id":"levelo_inurba_marseille","lat":43.311709,"lon":5.387169,"is_reserved":false,"is_disabled":false,"rental_uris":{"android":"levelo://app?vid=3e93b162-f299-477d-9ef9-e2acab4085b9","ios":"levelo://app?vid=3e93b162-f299-477d-9ef9-e2acab4085b9"},"vehicle_type_id":"4","last_reported":1741583327,"current_range_meters":10800,"station_id":"ce4bgv12rcd13ifvqcp0","pricing_plan_id":"cebpf4jnsgd1na2vs0mg"},{"bike_id":"70df5908-d836-4210-9499-1935a524116a","system_id":"levelo_inurba_marseille","lat":43.29261,"lon":5.40906,"is_reserved":false,"is_disabled":false,"rental_uris":{"android":"levelo://app?vid=70df5908-d836-4210-9499-1935a524116a","ios":"levelo://app?vid=70df5908-d836-4210-9499-1935a524116a"},"vehicle_type_id":"4","last_reported":1741583327,"current_range_meters":10800,"station_id":"ce4bh192rcd13ifvqdc0","pricing_plan_id":"cebpf4jnsgd1na2vs0mg"},{"bike_id":"3b9a653a-2fa2-4334-b7b8-6db4ab68b695","system_id":"levelo_inurba_marseille","lat":43.28441,"lon":5.39193,"is_reserved":false,"is_disabled":true,"rental_uris":{"android":"levelo://app?vid=3b9a653a-2fa2-4334-b7b8-6db4ab68b695","ios":"levelo://app?vid=3b9a653a-2fa2-4334-b7b8-6db4ab68b695"},"vehicle_type_id":"4","last_reported":1741583327,"current_range_meters":10800,"station_id":"ce4bhoh2rcd13ifvqh5g","pricing_plan_id":"cebpf4jnsgd1na2vs0mg"},{"bike_id":"91f0b97b-efcf-46d9-8bbf-c1ba93008778","system_id":"levelo_inurba_marseille","lat":43.27325,"lon":5.39091,"is_reserved":false,"is_disabled":true,"rental_uris":{"android":"levelo://app?vid=91f0b97b-efcf-46d9-8bbf-c1ba93008778","ios":"levelo://app?vid=91f0b97b-efcf-46d9-8bbf-c1ba93008778"},"vehicle_type_id":"4","last_reported":1741583327,"current_range_meters":10800,"station_id":"ce4bhgp2rcd13ifvqfe0","pricing_plan_id":"cebpf4jnsgd1na2vs0mg"},{"bike_id":"40105887-9bc0-4723-8d9f-9de791c42c03","system_id":"levelo_inurba_marseille","lat":43.31525,"lon":5.38048,"is_reserved":false,"is_disabled":false,"rental_uris":{"android":"levelo://app?vid=40105887-9bc0-4723-8d9f-9de791c42c03","ios":"levelo://app?vid=40105887-9bc0-4723-8d9f-9de791c42c03"},"vehicle_type_id":"4","last_reported":1741583327,"current_range_meters":10800,"station_id":"ce4bhsp2rcd13ifvqi50","pricing_plan_id":"cebpf4jnsgd1na2vs0mg"},{"bike_id":"bac871c7-059b-4dc7-a657-f620d0a4794f","system_id":"levelo_inurba_marseille","lat":43.29591,"lon":5.38095,"is_reserved":false,"is_disabled":true,"rental_uris":{"android":"levelo://app?vid=bac871c7-059b-4dc7-a657-f620d0a4794f","ios":"levelo://app?vid=bac871c7-059b-4dc7-a657-f620d0a4794f"},"vehicle_type_id":"4","last_reported":1741583327,"current_range_meters":10800,"station_id":"ce4bgl12rcd13ifvqbo0","pricing_plan_id":"cebpf4jnsgd1na2vs0mg"},{"bike_id":"4e988b79-546d-4039-b5f6-8f94585d4ef4","system_id":"levelo_inurba_marseille","lat":43.33463,"lon":5.35917,"is_reserved":false,"is_disabled":false,"rental_uris":{"android":"levelo://app?vid=4e988b79-546d-4039-b5f6-8f94585d4ef4","ios":"levelo://app?vid=4e988b79-546d-4039-b5f6-8f94585d4ef4"},"vehicle_type_id":"4","last_reported":1741583327,"current_range_meters":11200,"station_id":"","pricing_plan_id":"cebpf4jnsgd1na2vs0mg"},{"bike_id":"895910d5-c55d-48ae-a7d7-789ae9ebaa6d","system_id":"levelo_inurba_marseille","lat":43.28409,"lon":5.37518,"is_reserved":false,"is_disabled":true,"rental_uris":{"android":"levelo://app?vid=895910d5-c55d-48ae-a7d7-789ae9ebaa6d","ios":"levelo://app?vid=895910d5-c55d-48ae-a7d7-789ae9ebaa6d"},"vehicle_type_id":"4","last_reported":1741583327,"current_range_meters":11200,"station_id":"ce4bh412rcd13ifvqds0","pricing_plan_id":"cebpf4jnsgd1na2vs0mg"},{"bike_id":"5feb6fa1-6aef-4afb-8cf0-7112712f90e3","system_id":"levelo_inurba_marseille","lat":43.30543,"lon":5.36707,"is_reserved":false,"is_disabled":true,"rental_uris":{"android":"levelo://app?vid=5feb6fa1-6aef-4afb-8cf0-7112712f90e3","ios":"levelo://app?vid=5feb6fa1-6aef-4afb-8cf0-7112712f90e3"},"vehicle_type_id":"4","last_reported":1741583327,"current_range_meters":11200,"station_id":"ce4bgrp2rcd13ifvqc9g","pricing_plan_id":"cebpf4jnsgd1na2vs0mg"},{"bike_id":"203d4b86-c4b8-4907-bf23-14985dae4756","system_id":"levelo_inurba_marseille","lat":43.28132,"lon":5.44208,"is_reserved":false,"is_disabled":false,"rental_uris":{"android":"levelo://app?vid=203d4b86-c4b8-4907-bf23-14985dae4756","ios":"levelo://app?vid=203d4b86-c4b8-4907-bf23-14985dae4756"},"vehicle_type_id":"4","last_reported":1741583327,"current_range_meters":11200,"station_id":"","pricing_plan_id":"cebpf4jnsgd1na2vs0mg"},{"bike_id":"394401b0-a75e-4b9f-b91f-dba81cb977b8","system_id":"levelo_inurba_marseille","lat":43.23202,"lon":5.35565,"is_reserved":false,"is_disabled":false,"rental_uris":{"android":"levelo://app?vid=394401b0-a75e-4b9f-b91f-dba81cb977b8","ios":"levelo://app?vid=394401b0-a75e-4b9f-b91f-dba81cb977b8"},"vehicle_type_id":"4","last_reported":1741583327,"current_range_meters":11200,"station_id":"ce4bhu92rcd13ifvqi70","pricing_plan_id":"cebpf4jnsgd1na2vs0mg"},{"bike_id":"a37d42aa-085d-4a56-8e08-eaf93bfe5e2b","system_id":"levelo_inurba_marseille","lat":43.31198,"lon":5.38721,"is_reserved":false,"is_disabled":true,"rental_uris":{"android":"levelo://app?vid=a37d42aa-085d-4a56-8e08-eaf93bfe5e2b","ios":"levelo://app?vid=a37d42aa-085d-4a56-8e08-eaf93bfe5e2b"},"vehicle_type_id":"4","last_reported":1741583327,"current_range_meters":11200,"station_id":"ce4bgv12rcd13ifvqcp0","pricing_plan_id":"cebpf4jnsgd1na2vs0mg"},{"bike_id":"35b6c8dd-c1b8-4970-bb1c-0f0396b333a1","system_id":"levelo_inurba_marseille","lat":43.25731,"lon":5.41109,"is_reserved":false,"is_disabled":false,"rental_uris":{"android":"levelo://app?vid=35b6c8dd-c1b8-4970-bb1c-0f0396b333a1","ios":"levelo://app?vid=35b6c8dd-c1b8-4970-bb1c-0f0396b333a1"},"vehicle_type_id":"4","last_reported":1741583327,"current_range_meters":11200,"station_id":"ce4bhkp2rcd13ifvqgd0","pricing_plan_id":"cebpf4jnsgd1na2vs0mg"},{"bike_id":"3ed0c8ba-c7f7-40d8-9403-a3f96d6af6b9","system_id":"levelo_inurba_marseille","lat":43.32362,"lon":5.3676,"is_reserved":false,"is_disabled":false,"rental_uris":{"android":"levelo://app?vid=3ed0c8ba-c7f7-40d8-9403-a3f96d6af6b9","ios":"levelo://app?vid=3ed0c8ba-c7f7-40d8-9403-a3f96d6af6b9"},"vehicle_type_id":"4","last_reported":1741583327,"current_range_meters":11200,"station_id":"ce4bhsh2rcd13ifvqi2g","pricing_plan_id":"cebpf4jnsgd1na2vs0mg"},{"bike_id":"a2a96e25-6e4d-4f22-bccf-4d57539a8d60","system_id":"levelo_inurba_marseille","lat":43.311675,"lon":5.387121,"is_reserved":false,"is_disabled":false,"rental_uris":{"android":"levelo://app?vid=a2a96e25-6e4d-4f22-bccf-4d57539a8d60","ios":"levelo://app?vid=a2a96e25-6e4d-4f22-bccf-4d57539a8d60"},"vehicle_type_id":"4","last_reported":1741583327,"current_range_meters":11600,"station_id":"ce4bgv12rcd13ifvqcp0","pricing_plan_id":"cebpf4jnsgd1na2vs0mg"},{"bike_id":"d89207cb-27fe-45f3-b661-72cbbc9a2274","system_id":"levelo_inurba_marseille","lat":43.313654,"lon":5.385007,"is_reserved":false,"is_disabled":false,"rental_uris":{"android":"levelo://app?vid=d89207cb-27fe-45f3-b661-72cbbc9a2274","ios":"levelo://app?vid=d89207cb-27fe-45f3-b661-72cbbc9a2274"},"vehicle_type_id":"4","last_reported":1741583327,"current_range_meters":11600,"station_id":"ce4bgt92rcd13ifvqcf0","pricing_plan_id":"cebpf4jnsgd1na2vs0mg"},{"bike_id":"81bc8ec7-203d-452b-a4e8-595b7bbc2677","system_id":"levelo_inurba_marseille","lat":43.28993,"lon":5.35622,"is_reserved":false,"is_disabled":true,"rental_uris":{"android":"levelo://app?vid=81bc8ec7-203d-452b-a4e8-595b7bbc2677","ios":"levelo://app?vid=81bc8ec7-203d-452b-a4e8-595b7bbc2677"},"vehicle_type_id":"4","last_reported":1741583327,"current_range_meters":11600,"station_id":"ce4bhb92rcd13ifvqen0","pricing_plan_id":"cebpf4jnsgd1na2vs0mg"},{"bike_id":"8645bf35-f5b2-48f7-8496-8f0131101e85","system_id":"levelo_inurba_marseille","lat":43.26561,"lon":5.37299,"is_reserved":false,"is_disabled":false,"rental_uris":{"android":"levelo://app?vid=8645bf35-f5b2-48f7-8496-8f0131101e85","ios":"levelo://app?vid=8645bf35-f5b2-48f7-8496-8f0131101e85"},"vehicle_type_id":"4","last_reported":1741583327,"current_range_meters":11600,"station_id":"ce4bhg12rcd13ifvqf70","pricing_plan_id":"cebpf4jnsgd1na2vs0mg"},{"bike_id":"7dc51c44-6bee-4f7d-84bd-874c4cd4d9f8","system_id":"levelo_inurba_marseille","lat":43.30854,"lon":5.3965,"is_reserved":false,"is_disabled":false,"rental_uris":{"android":"levelo://app?vid=7dc51c44-6bee-4f7d-84bd-874c4cd4d9f8","ios":"levelo://app?vid=7dc51c44-6bee-4f7d-84bd-874c4cd4d9f8"},"vehicle_type_id":"4","last_reported":1741583327,"current_range_meters":11600,"station_id":"ce4bh012rcd13ifvqcv0","pricing_plan_id":"cebpf4jnsgd1na2vs0mg"},{"bike_id":"83fe625c-a403-4ad3-b440-2e9d65d3891e","system_id":"levelo_inurba_marseille","lat":43.25568,"lon":5.38251,"is_reserved":false,"is_disabled":false,"rental_uris":{"android":"levelo://app?vid=83fe625c-a403-4ad3-b440-2e9d65d3891e","ios":"levelo://app?vid=83fe625c-a403-4ad3-b440-2e9d65d3891e"},"vehicle_type_id":"4","last_reported":1741583327,"current_range_meters":12000,"station_id":"ce4bhih2rcd13ifvqfs0","pricing_plan_id":"cebpf4jnsgd1na2vs0mg"},{"bike_id":"50d927c2-6bcf-435e-96b0-69cf4fd4498d","system_id":"levelo_inurba_marseille","lat":43.29237,"lon":5.40113,"is_reserved":false,"is_disabled":false,"rental_uris":{"android":"levelo://app?vid=50d927c2-6bcf-435e-96b0-69cf4fd4498d","ios":"levelo://app?vid=50d927c2-6bcf-435e-96b0-69cf4fd4498d"},"vehicle_type_id":"4","last_reported":1741583327,"current_range_meters":12000,"station_id":"ce4bh312rcd13ifvqdk0","pricing_plan_id":"cebpf4jnsgd1na2vs0mg"},{"bike_id":"65ebf940-f6f1-4ba2-8b75-2b2127dd3199","system_id":"levelo_inurba_marseille","lat":43.24979,"lon":5.38949,"is_reserved":false,"is_disabled":false,"rental_uris":{"android":"levelo://app?vid=65ebf940-f6f1-4ba2-8b75-2b2127dd3199","ios":"levelo://app?vid=65ebf940-f6f1-4ba2-8b75-2b2127dd3199"},"vehicle_type_id":"4","last_reported":1741583327,"current_range_meters":12000,"station_id":"ce4bhgp2rcd13ifvqfd0","pricing_plan_id":"cebpf4jnsgd1na2vs0mg"},{"bike_id":"424a877a-56f1-4c95-8272-1a73fff37bfb","system_id":"levelo_inurba_marseille","lat":43.25145,"lon":5.4039,"is_reserved":false,"is_disabled":false,"rental_uris":{"android":"levelo://app?vid=424a877a-56f1-4c95-8272-1a73fff37bfb","ios":"levelo://app?vid=424a877a-56f1-4c95-8272-1a73fff37bfb"},"vehicle_type_id":"4","last_reported":1741583327,"current_range_meters":12400,"station_id":"ce4bhlh2rcd13ifvqgig","pricing_plan_id":"cebpf4jnsgd1na2vs0mg"},{"bike_id":"8db12307-83c5-4ab1-8e4e-b5f471f883f6","system_id":"levelo_inurba_marseille","lat":43.25089,"lon":5.39529,"is_reserved":false,"is_disabled":false,"rental_uris":{"android":"levelo://app?vid=8db12307-83c5-4ab1-8e4e-b5f471f883f6","ios":"levelo://app?vid=8db12307-83c5-4ab1-8e4e-b5f471f883f6"},"vehicle_type_id":"4","last_reported":1741583327,"current_range_meters":12400,"station_id":"ce4bhm12rcd13ifvqgkg","pricing_plan_id":"cebpf4jnsgd1na2vs0mg"},{"bike_id":"8579e54f-565e-4025-a73c-88723bee831d","system_id":"levelo_inurba_marseille","lat":43.231894,"lon":5.399929,"is_reserved":false,"is_disabled":false,"rental_uris":{"android":"levelo://app?vid=8579e54f-565e-4025-a73c-88723bee831d","ios":"levelo://app?vid=8579e54f-565e-4025-a73c-88723bee831d"},"vehicle_type_id":"4","last_reported":1741583327,"current_range_meters":12400,"station_id":"ce4bhn12rcd13ifvqgqg","pricing_plan_id":"cebpf4jnsgd1na2vs0mg"},{"bike_id":"225e5f66-483f-46df-82e5-69cdcdcf155f","system_id":"levelo_inurba_marseille","lat":43.30904,"lon":5.39612,"is_reserved":false,"is_disabled":false,"rental_uris":{"android":"levelo://app?vid=225e5f66-483f-46df-82e5-69cdcdcf155f","ios":"levelo://app?vid=225e5f66-483f-46df-82e5-69cdcdcf155f"},"vehicle_type_id":"4","last_reported":1741583327,"current_range_meters":12400,"station_id":"ce4bh012rcd13ifvqcv0","pricing_plan_id":"cebpf4jnsgd1na2vs0mg"},{"bike_id":"4ec5d479-c92c-4224-8409-3cb864eeca2a","system_id":"levelo_inurba_marseille","lat":43.28172,"lon":5.40447,"is_reserved":false,"is_disabled":false,"rental_uris":{"android":"levelo://app?vid=4ec5d479-c92c-4224-8409-3cb864eeca2a","ios":"levelo://app?vid=4ec5d479-c92c-4224-8409-3cb864eeca2a"},"vehicle_type_id":"4","last_reported":1741583327,"current_range_meters":12400,"station_id":"","pricing_plan_id":"cebpf4jnsgd1na2vs0mg"},{"bike_id":"158e535f-825e-4468-93be-62b6e673c923","system_id":"levelo_inurba_marseille","lat":43.261875,"lon":5.420723,"is_reserved":false,"is_disabled":false,"rental_uris":{"android":"levelo://app?vid=158e535f-825e-4468-93be-62b6e673c923","ios":"levelo://app?vid=158e535f-825e-4468-93be-62b6e673c923"},"vehicle_type_id":"4","last_reported":1741583327,"current_range_meters":12400,"station_id":"","pricing_plan_id":"cebpf4jnsgd1na2vs0mg"},{"bike_id":"a5c5ade0-6f33-45a7-beaf-3545d30425b1","system_id":"levelo_inurba_marseille","lat":43.24076,"lon":5.37745,"is_reserved":false,"is_disabled":false,"rental_uris":{"android":"levelo://app?vid=a5c5ade0-6f33-45a7-beaf-3545d30425b1","ios":"levelo://app?vid=a5c5ade0-6f33-45a7-beaf-3545d30425b1"},"vehicle_type_id":"4","last_reported":1741583327,"current_range_meters":12400,"station_id":"ce4bhnp2rcd13ifvqgvg","pricing_plan_id":"cebpf4jnsgd1na2vs0mg"},{"bike_id":"979b0e12-19bd-4394-8b98-332e21f24fbc","system_id":"levelo_inurba_marseille","lat":43.25126,"lon":5.4029,"is_reserved":false,"is_disabled":false,"rental_uris":{"android":"levelo://app?vid=979b0e12-19bd-4394-8b98-332e21f24fbc","ios":"levelo://app?vid=979b0e12-19bd-4394-8b98-332e21f24fbc"},"vehicle_type_id":"4","last_reported":1741583327,"current_range_meters":12400,"station_id":"ce4bhlh2rcd13ifvqgig","pricing_plan_id":"cebpf4jnsgd1na2vs0mg"},{"bike_id":"a9dc9408-7c2c-4e10-8d6c-41c9c7ad256b","system_id":"levelo_inurba_marseille","lat":43.28973,"lon":5.378439,"is_reserved":false,"is_disabled":false,"rental_uris":{"android":"levelo://app?vid=a9dc9408-7c2c-4e10-8d6c-41c9c7ad256b","ios":"levelo://app?vid=a9dc9408-7c2c-4e10-8d6c-41c9c7ad256b"},"vehicle_type_id":"4","last_reported":1741583327,"current_range_meters":12800,"station_id":"ce4bh9p2rcd13ifvqed0","pricing_plan_id":"cebpf4jnsgd1na2vs0mg"},{"bike_id":"ae4913d3-c7b3-4e3b-8b0e-9eedefc8bcf1","system_id":"levelo_inurba_marseille","lat":43.313156,"lon":5.38839,"is_reserved":false,"is_disabled":false,"rental_uris":{"android":"levelo://app?vid=ae4913d3-c7b3-4e3b-8b0e-9eedefc8bcf1","ios":"levelo://app?vid=ae4913d3-c7b3-4e3b-8b0e-9eedefc8bcf1"},"vehicle_type_id":"4","last_reported":1741583327,"current_range_meters":12800,"station_id":"","pricing_plan_id":"cebpf4jnsgd1na2vs0mg"},{"bike_id":"906c6e5a-4ec6-4885-afda-48adb50c51d3","system_id":"levelo_inurba_marseille","lat":43.2439,"lon":5.37052,"is_reserved":false,"is_disabled":false,"rental_uris":{"android":"levelo://app?vid=906c6e5a-4ec6-4885-afda-48adb50c51d3","ios":"levelo://app?vid=906c6e5a-4ec6-4885-afda-48adb50c51d3"},"vehicle_type_id":"4","last_reported":1741583327,"current_range_meters":12800,"station_id":"ce4bhhh2rcd13ifvqfk0","pricing_plan_id":"cebpf4jnsgd1na2vs0mg"},{"bike_id":"c1c80c13-20cb-44f5-aa30-5c8aedb294e8","system_id":"levelo_inurba_marseille","lat":43.32103,"lon":5.367689,"is_reserved":false,"is_disabled":false,"rental_uris":{"android":"levelo://app?vid=c1c80c13-20cb-44f5-aa30-5c8aedb294e8","ios":"levelo://app?vid=c1c80c13-20cb-44f5-aa30-5c8aedb294e8"},"vehicle_type_id":"4","last_reported":1741583327,"current_range_meters":12800,"station_id":"ce4bhrh2rcd13ifvqhug","pricing_plan_id":"cebpf4jnsgd1na2vs0mg"},{"bike_id":"375b0e4e-46b2-4f14-9005-cd1590755e2d","system_id":"levelo_inurba_marseille","lat":43.29253,"lon":5.40912,"is_reserved":false,"is_disabled":false,"rental_uris":{"android":"levelo://app?vid=375b0e4e-46b2-4f14-9005-cd1590755e2d","ios":"levelo://app?vid=375b0e4e-46b2-4f14-9005-cd1590755e2d"},"vehicle_type_id":"4","last_reported":1741583327,"current_range_meters":12800,"station_id":"ce4bh192rcd13ifvqdc0","pricing_plan_id":"cebpf4jnsgd1na2vs0mg"},{"bike_id":"1e66a1e1-8fac-4bad-b246-9ff116855410","system_id":"levelo_inurba_marseille","lat":43.28102,"lon":5.44196,"is_reserved":false,"is_disabled":false,"rental_uris":{"android":"levelo://app?vid=1e66a1e1-8fac-4bad-b246-9ff116855410","ios":"levelo://app?vid=1e66a1e1-8fac-4bad-b246-9ff116855410"},"vehicle_type_id":"4","last_reported":1741583327,"current_range_meters":12800,"station_id":"","pricing_plan_id":"cebpf4jnsgd1na2vs0mg"},{"bike_id":"c9da6d21-8969-402e-bbed-6dbb9b380658","system_id":"levelo_inurba_marseille","lat":43.315198,"lon":5.37028,"is_reserved":false,"is_disabled":false,"rental_uris":{"android":"levelo://app?vid=c9da6d21-8969-402e-bbed-6dbb9b380658","ios":"levelo://app?vid=c9da6d21-8969-402e-bbed-6dbb9b380658"},"vehicle_type_id":"4","last_reported":1741583327,"current_range_meters":13600,"station_id":"","pricing_plan_id":"cebpf4jnsgd1na2vs0mg"},{"bike_id":"b6e1fe51-ddc8-4033-b5a5-0f918086f8eb","system_id":"levelo_inurba_marseille","lat":43.251194,"lon":5.403166,"is_reserved":false,"is_disabled":false,"rental_uris":{"android":"levelo://app?vid=b6e1fe51-ddc8-4033-b5a5-0f918086f8eb","ios":"levelo://app?vid=b6e1fe51-ddc8-4033-b5a5-0f918086f8eb"},"vehicle_type_id":"4","last_reported":1741583327,"current_range_meters":13600,"station_id":"ce4bhlh2rcd13ifvqgig","pricing_plan_id":"cebpf4jnsgd1na2vs0mg"},{"bike_id":"1689e47c-b3be-41f1-825a-50008dbe5a30","system_id":"levelo_inurba_marseille","lat":43.26556,"lon":5.37297,"is_reserved":false,"is_disabled":false,"rental_uris":{"android":"levelo://app?vid=1689e47c-b3be-41f1-825a-50008dbe5a30","ios":"levelo://app?vid=1689e47c-b3be-41f1-825a-50008dbe5a30"},"vehicle_type_id":"4","last_reported":1741583327,"current_range_meters":13600,"station_id":"ce4bhg12rcd13ifvqf70","pricing_plan_id":"cebpf4jnsgd1na2vs0mg"},{"bike_id":"0bc5bda3-3076-4625-9595-7f3b64f090d7","system_id":"levelo_inurba_marseille","lat":43.30774,"lon":5.43562,"is_reserved":false,"is_disabled":false,"rental_uris":{"android":"levelo://app?vid=0bc5bda3-3076-4625-9595-7f3b64f090d7","ios":"levelo://app?vid=0bc5bda3-3076-4625-9595-7f3b64f090d7"},"vehicle_type_id":"4","last_reported":1741583327,"current_range_meters":13600,"station_id":"ce4bhph2rcd13ifvqheg","pricing_plan_id":"cebpf4jnsgd1na2vs0mg"},{"bike_id":"e1464fd1-88dd-4217-9b48-8798f8d7a4bc","system_id":"levelo_inurba_marseille","lat":43.243908,"lon":5.37056,"is_reserved":false,"is_disabled":false,"rental_uris":{"android":"levelo://app?vid=e1464fd1-88dd-4217-9b48-8798f8d7a4bc","ios":"levelo://app?vid=e1464fd1-88dd-4217-9b48-8798f8d7a4bc"},"vehicle_type_id":"4","last_reported":1741583327,"current_range_meters":13600,"station_id":"ce4bhhh2rcd13ifvqfk0","pricing_plan_id":"cebpf4jnsgd1na2vs0mg"},{"bike_id":"3b1988f5-96b5-4ba3-b568-001a2a928dd3","system_id":"levelo_inurba_marseille","lat":43.28415,"lon":5.37523,"is_reserved":false,"is_disabled":false,"rental_uris":{"android":"levelo://app?vid=3b1988f5-96b5-4ba3-b568-001a2a928dd3","ios":"levelo://app?vid=3b1988f5-96b5-4ba3-b568-001a2a928dd3"},"vehicle_type_id":"4","last_reported":1741583327,"current_range_meters":13600,"station_id":"ce4bh412rcd13ifvqds0","pricing_plan_id":"cebpf4jnsgd1na2vs0mg"},{"bike_id":"3997df03-2b66-4d6c-b2b5-de0a0c299bae","system_id":"levelo_inurba_marseille","lat":43.25093,"lon":5.39489,"is_reserved":false,"is_disabled":false,"rental_uris":{"android":"levelo://app?vid=3997df03-2b66-4d6c-b2b5-de0a0c299bae","ios":"levelo://app?vid=3997df03-2b66-4d6c-b2b5-de0a0c299bae"},"vehicle_type_id":"4","last_reported":1741583327,"current_range_meters":14000,"station_id":"ce4bhm12rcd13ifvqgkg","pricing_plan_id":"cebpf4jnsgd1na2vs0mg"},{"bike_id":"4491a1e2-eb06-49d1-bf0c-ffab94d6b1ae","system_id":"levelo_inurba_marseille","lat":43.24168,"lon":5.39719,"is_reserved":false,"is_disabled":false,"rental_uris":{"android":"levelo://app?vid=4491a1e2-eb06-49d1-bf0c-ffab94d6b1ae","ios":"levelo://app?vid=4491a1e2-eb06-49d1-bf0c-ffab94d6b1ae"},"vehicle_type_id":"4","last_reported":1741583327,"current_range_meters":14000,"station_id":"ce4bhn12rcd13ifvqgpg","pricing_plan_id":"cebpf4jnsgd1na2vs0mg"},{"bike_id":"1574c69b-ea6d-4097-914a-46a44316e27b","system_id":"levelo_inurba_marseille","lat":43.3089,"lon":5.39629,"is_reserved":false,"is_disabled":false,"rental_uris":{"android":"levelo://app?vid=1574c69b-ea6d-4097-914a-46a44316e27b","ios":"levelo://app?vid=1574c69b-ea6d-4097-914a-46a44316e27b"},"vehicle_type_id":"4","last_reported":1741583327,"current_range_meters":14000,"station_id":"ce4bh012rcd13ifvqcv0","pricing_plan_id":"cebpf4jnsgd1na2vs0mg"},{"bike_id":"546628a2-a28e-4907-83a1-71e9aa739480","system_id":"levelo_inurba_marseille","lat":43.30788,"lon":5.37652,"is_reserved":false,"is_disabled":true,"rental_uris":{"android":"levelo://app?vid=546628a2-a28e-4907-83a1-71e9aa739480","ios":"levelo://app?vid=546628a2-a28e-4907-83a1-71e9aa739480"},"vehicle_type_id":"4","last_reported":1741583327,"current_range_meters":14000,"station_id":"ce4bgv92rcd13ifvqcq0","pricing_plan_id":"cebpf4jnsgd1na2vs0mg"},{"bike_id":"7e3d8419-8a9f-4911-a4ba-a72be646bfd3","system_id":"levelo_inurba_marseille","lat":43.29544,"lon":5.42304,"is_reserved":false,"is_disabled":false,"rental_uris":{"android":"levelo://app?vid=7e3d8419-8a9f-4911-a4ba-a72be646bfd3","ios":"levelo://app?vid=7e3d8419-8a9f-4911-a4ba-a72be646bfd3"},"vehicle_type_id":"4","last_reported":1741583327,"current_range_meters":14000,"station_id":"ce4bhph2rcd13ifvqhdg","pricing_plan_id":"cebpf4jnsgd1na2vs0mg"},{"bike_id":"6c7acd0e-d950-476c-9eb3-046468b88ffd","system_id":"levelo_inurba_marseille","lat":43.24692,"lon":5.38161,"is_reserved":false,"is_disabled":false,"rental_uris":{"android":"levelo://app?vid=6c7acd0e-d950-476c-9eb3-046468b88ffd","ios":"levelo://app?vid=6c7acd0e-d950-476c-9eb3-046468b88ffd"},"vehicle_type_id":"4","last_reported":1741583327,"current_range_meters":14000,"station_id":"ce4bhih2rcd13ifvqfr0","pricing_plan_id":"cebpf4jnsgd1na2vs0mg"},{"bike_id":"cc424696-ee6f-467f-9789-e50cb6c0a70c","system_id":"levelo_inurba_marseille","lat":43.27379,"lon":5.3625,"is_reserved":false,"is_disabled":false,"rental_uris":{"android":"levelo://app?vid=cc424696-ee6f-467f-9789-e50cb6c0a70c","ios":"levelo://app?vid=cc424696-ee6f-467f-9789-e50cb6c0a70c"},"vehicle_type_id":"4","last_reported":1741583327,"current_range_meters":14400,"station_id":"ce4bhbh2rcd13ifvqeo0","pricing_plan_id":"cebpf4jnsgd1na2vs0mg"},{"bike_id":"863fe8dd-e693-4f8e-84ce-2fd09c5d38bc","system_id":"levelo_inurba_marseille","lat":43.25002,"lon":5.3893,"is_reserved":false,"is_disabled":false,"rental_uris":{"android":"levelo://app?vid=863fe8dd-e693-4f8e-84ce-2fd09c5d38bc","ios":"levelo://app?vid=863fe8dd-e693-4f8e-84ce-2fd09c5d38bc"},"vehicle_type_id":"4","last_reported":1741583327,"current_range_meters":14400,"station_id":"ce4bhgp2rcd13ifvqfd0","pricing_plan_id":"cebpf4jnsgd1na2vs0mg"},{"bike_id":"4fdb4367-69f1-4a6d-9389-e26be0310107","system_id":"levelo_inurba_marseille","lat":43.30521,"lon":5.36707,"is_reserved":false,"is_disabled":false,"rental_uris":{"android":"levelo://app?vid=4fdb4367-69f1-4a6d-9389-e26be0310107","ios":"levelo://app?vid=4fdb4367-69f1-4a6d-9389-e26be0310107"},"vehicle_type_id":"4","last_reported":1741583327,"current_range_meters":14400,"station_id":"ce4bgrp2rcd13ifvqc9g","pricing_plan_id":"cebpf4jnsgd1na2vs0mg"},{"bike_id":"ca4466fb-f6d3-42a2-8ff4-4aeaef14e5cd","system_id":"levelo_inurba_marseille","lat":43.25708,"lon":5.41119,"is_reserved":false,"is_disabled":false,"rental_uris":{"android":"levelo://app?vid=ca4466fb-f6d3-42a2-8ff4-4aeaef14e5cd","ios":"levelo://app?vid=ca4466fb-f6d3-42a2-8ff4-4aeaef14e5cd"},"vehicle_type_id":"4","last_reported":1741583327,"current_range_meters":14400,"station_id":"ce4bhkp2rcd13ifvqgd0","pricing_plan_id":"cebpf4jnsgd1na2vs0mg"},{"bike_id":"80771939-f406-42f7-81c5-33180fd8a338","system_id":"levelo_inurba_marseille","lat":43.23194,"lon":5.35555,"is_reserved":false,"is_disabled":false,"rental_uris":{"android":"levelo://app?vid=80771939-f406-42f7-81c5-33180fd8a338","ios":"levelo://app?vid=80771939-f406-42f7-81c5-33180fd8a338"},"vehicle_type_id":"4","last_reported":1741583327,"current_range_meters":14400,"station_id":"ce4bhu92rcd13ifvqi70","pricing_plan_id":"cebpf4jnsgd1na2vs0mg"},{"bike_id":"caeb1ed2-b70b-481f-b341-ccaa84ec7ae8","system_id":"levelo_inurba_marseille","lat":43.24701,"lon":5.38186,"is_reserved":false,"is_disabled":false,"rental_uris":{"android":"levelo://app?vid=caeb1ed2-b70b-481f-b341-ccaa84ec7ae8","ios":"levelo://app?vid=caeb1ed2-b70b-481f-b341-ccaa84ec7ae8"},"vehicle_type_id":"4","last_reported":1741583327,"current_range_meters":14400,"station_id":"ce4bhih2rcd13ifvqfr0","pricing_plan_id":"cebpf4jnsgd1na2vs0mg"},{"bike_id":"4604b7e4-51bc-4a5c-ba20-5215d46e7746","system_id":"levelo_inurba_marseille","lat":43.28701,"lon":5.3998,"is_reserved":false,"is_disabled":false,"rental_uris":{"android":"levelo://app?vid=4604b7e4-51bc-4a5c-ba20-5215d46e7746","ios":"levelo://app?vid=4604b7e4-51bc-4a5c-ba20-5215d46e7746"},"vehicle_type_id":"4","last_reported":1741583327,"current_range_meters":14400,"station_id":"ce4bho92rcd13ifvqh3g","pricing_plan_id":"cebpf4jnsgd1na2vs0mg"},{"bike_id":"14ff316d-69a0-4350-bd65-221c06b4c050","system_id":"levelo_inurba_marseille","lat":43.2572,"lon":5.41143,"is_reserved":false,"is_disabled":false,"rental_uris":{"android":"levelo://app?vid=14ff316d-69a0-4350-bd65-221c06b4c050","ios":"levelo://app?vid=14ff316d-69a0-4350-bd65-221c06b4c050"},"vehicle_type_id":"4","last_reported":1741583327,"current_range_meters":14800,"station_id":"ce4bhkp2rcd13ifvqgd0","pricing_plan_id":"cebpf4jnsgd1na2vs0mg"},{"bike_id":"26efa438-47f1-437c-a262-70d3b8dce7fa","system_id":"levelo_inurba_marseille","lat":43.28404,"lon":5.34992,"is_reserved":false,"is_disabled":true,"rental_uris":{"android":"levelo://app?vid=26efa438-47f1-437c-a262-70d3b8dce7fa","ios":"levelo://app?vid=26efa438-47f1-437c-a262-70d3b8dce7fa"},"vehicle_type_id":"4","last_reported":1741583327,"current_range_meters":14800,"station_id":"ce4bhbh2rcd13ifvqepg","pricing_plan_id":"cebpf4jnsgd1na2vs0mg"},{"bike_id":"f5e5357b-b502-47fb-8353-4c0a68cdcdcf","system_id":"levelo_inurba_marseille","lat":43.313578,"lon":5.385044,"is_reserved":false,"is_disabled":false,"rental_uris":{"android":"levelo://app?vid=f5e5357b-b502-47fb-8353-4c0a68cdcdcf","ios":"levelo://app?vid=f5e5357b-b502-47fb-8353-4c0a68cdcdcf"},"vehicle_type_id":"4","last_reported":1741583327,"current_range_meters":14800,"station_id":"ce4bgt92rcd13ifvqcf0","pricing_plan_id":"cebpf4jnsgd1na2vs0mg"},{"bike_id":"39a544a4-9cda-43e2-be22-212a764912e7","system_id":"levelo_inurba_marseille","lat":43.24075,"lon":5.37778,"is_reserved":false,"is_disabled":false,"rental_uris":{"android":"levelo://app?vid=39a544a4-9cda-43e2-be22-212a764912e7","ios":"levelo://app?vid=39a544a4-9cda-43e2-be22-212a764912e7"},"vehicle_type_id":"4","last_reported":1741583327,"current_range_meters":14800,"station_id":"ce4bhnp2rcd13ifvqgvg","pricing_plan_id":"cebpf4jnsgd1na2vs0mg"},{"bike_id":"65579f2d-9a67-4337-ae45-db2974909cf3","system_id":"levelo_inurba_marseille","lat":43.24641,"lon":5.38902,"is_reserved":false,"is_disabled":false,"rental_uris":{"android":"levelo://app?vid=65579f2d-9a67-4337-ae45-db2974909cf3","ios":"levelo://app?vid=65579f2d-9a67-4337-ae45-db2974909cf3"},"vehicle_type_id":"4","last_reported":1741583327,"current_range_meters":15200,"station_id":"ce4bhg12rcd13ifvqf60","pricing_plan_id":"cebpf4jnsgd1na2vs0mg"},{"bike_id":"8e85a7bb-e1ce-43e8-a1a7-c288df482312","system_id":"levelo_inurba_marseille","lat":43.24654,"lon":5.38892,"is_reserved":false,"is_disabled":false,"rental_uris":{"android":"levelo://app?vid=8e85a7bb-e1ce-43e8-a1a7-c288df482312","ios":"levelo://app?vid=8e85a7bb-e1ce-43e8-a1a7-c288df482312"},"vehicle_type_id":"4","last_reported":1741583327,"current_range_meters":15200,"station_id":"ce4bhg12rcd13ifvqf60","pricing_plan_id":"cebpf4jnsgd1na2vs0mg"},{"bike_id":"236cd163-fe3d-4bd4-beac-67f4ef54b16e","system_id":"levelo_inurba_marseille","lat":43.311236,"lon":5.37771,"is_reserved":false,"is_disabled":false,"rental_uris":{"android":"levelo://app?vid=236cd163-fe3d-4bd4-beac-67f4ef54b16e","ios":"levelo://app?vid=236cd163-fe3d-4bd4-beac-67f4ef54b16e"},"vehicle_type_id":"4","last_reported":1741583327,"current_range_meters":15200,"station_id":"ce4bgt92rcd13ifvqcg0","pricing_plan_id":"cebpf4jnsgd1na2vs0mg"},{"bike_id":"0879ab9f-9014-4f92-8cca-882db42d6f17","system_id":"levelo_inurba_marseille","lat":43.25727,"lon":5.41108,"is_reserved":false,"is_disabled":false,"rental_uris":{"android":"levelo://app?vid=0879ab9f-9014-4f92-8cca-882db42d6f17","ios":"levelo://app?vid=0879ab9f-9014-4f92-8cca-882db42d6f17"},"vehicle_type_id":"4","last_reported":1741583327,"current_range_meters":15200,"station_id":"ce4bhkp2rcd13ifvqgd0","pricing_plan_id":"cebpf4jnsgd1na2vs0mg"},{"bike_id":"08965530-ff8e-4faf-9f41-90736e941e18","system_id":"levelo_inurba_marseille","lat":43.28621,"lon":5.35088,"is_reserved":false,"is_disabled":false,"rental_uris":{"android":"levelo://app?vid=08965530-ff8e-4faf-9f41-90736e941e18","ios":"levelo://app?vid=08965530-ff8e-4faf-9f41-90736e941e18"},"vehicle_type_id":"4","last_reported":1741583327,"current_range_meters":15200,"station_id":"ce4bhch2rcd13ifvqeug","pricing_plan_id":"cebpf4jnsgd1na2vs0mg"},{"bike_id":"145495db-349c-4f8b-a04f-4f009e07981f","system_id":"levelo_inurba_marseille","lat":43.2572,"lon":5.411085,"is_reserved":false,"is_disabled":false,"rental_uris":{"android":"levelo://app?vid=145495db-349c-4f8b-a04f-4f009e07981f","ios":"levelo://app?vid=145495db-349c-4f8b-a04f-4f009e07981f"},"vehicle_type_id":"4","last_reported":1741583327,"current_range_meters":16000,"station_id":"ce4bhkp2rcd13ifvqgd0","pricing_plan_id":"cebpf4jnsgd1na2vs0mg"},{"bike_id":"b5f24760-138f-4676-b5a5-e1d99857a913","system_id":"levelo_inurba_marseille","lat":43.292604,"lon":5.376141,"is_reserved":false,"is_disabled":false,"rental_uris":{"android":"levelo://app?vid=b5f24760-138f-4676-b5a5-e1d99857a913","ios":"levelo://app?vid=b5f24760-138f-4676-b5a5-e1d99857a913"},"vehicle_type_id":"4","last_reported":1741583327,"current_range_meters":16000,"station_id":"ce4bgi12rcd13ifvqb80","pricing_plan_id":"cebpf4jnsgd1na2vs0mg"},{"bike_id":"ccbf617d-c92c-4154-ad70-fcdbe832004f","system_id":"levelo_inurba_marseille","lat":43.28138,"lon":5.42647,"is_reserved":false,"is_disabled":false,"rental_uris":{"android":"levelo://app?vid=ccbf617d-c92c-4154-ad70-fcdbe832004f","ios":"levelo://app?vid=ccbf617d-c92c-4154-ad70-fcdbe832004f"},"vehicle_type_id":"4","last_reported":1741583327,"current_range_meters":16000,"station_id":"ce4bhnh2rcd13ifvqgug","pricing_plan_id":"cebpf4jnsgd1na2vs0mg"},{"bike_id":"6c925a33-922a-4f5d-a19e-2ae09dadacc9","system_id":"levelo_inurba_marseille","lat":43.31328,"lon":5.38485,"is_reserved":false,"is_disabled":false,"rental_uris":{"android":"levelo://app?vid=6c925a33-922a-4f5d-a19e-2ae09dadacc9","ios":"levelo://app?vid=6c925a33-922a-4f5d-a19e-2ae09dadacc9"},"vehicle_type_id":"4","last_reported":1741583327,"current_range_meters":16000,"station_id":"ce4bgt92rcd13ifvqcf0","pricing_plan_id":"cebpf4jnsgd1na2vs0mg"},{"bike_id":"8999809c-19f0-47ed-a13c-ca25f8f48a25","system_id":"levelo_inurba_marseille","lat":43.27071,"lon":5.42298,"is_reserved":false,"is_disabled":false,"rental_uris":{"android":"levelo://app?vid=8999809c-19f0-47ed-a13c-ca25f8f48a25","ios":"levelo://app?vid=8999809c-19f0-47ed-a13c-ca25f8f48a25"},"vehicle_type_id":"4","last_reported":1741583327,"current_range_meters":16000,"station_id":"ce4bhk92rcd13ifvqgb0","pricing_plan_id":"cebpf4jnsgd1na2vs0mg"},{"bike_id":"9ec52ed9-9c0e-4e61-a378-5327e3711632","system_id":"levelo_inurba_marseille","lat":43.24794,"lon":5.41166,"is_reserved":false,"is_disabled":false,"rental_uris":{"android":"levelo://app?vid=9ec52ed9-9c0e-4e61-a378-5327e3711632","ios":"levelo://app?vid=9ec52ed9-9c0e-4e61-a378-5327e3711632"},"vehicle_type_id":"4","last_reported":1741583327,"current_range_meters":16000,"station_id":"","pricing_plan_id":"cebpf4jnsgd1na2vs0mg"},{"bike_id":"d7badd8e-404d-4595-951c-6597e650534c","system_id":"levelo_inurba_marseille","lat":43.30599,"lon":5.39361,"is_reserved":false,"is_disabled":false,"rental_uris":{"android":"levelo://app?vid=d7badd8e-404d-4595-951c-6597e650534c","ios":"levelo://app?vid=d7badd8e-404d-4595-951c-6597e650534c"},"vehicle_type_id":"4","last_reported":1741583327,"current_range_meters":16000,"station_id":"ce4bh0p2rcd13ifvqd80","pricing_plan_id":"cebpf4jnsgd1na2vs0mg"},{"bike_id":"1044a43a-99ba-418f-8d4c-9ae671d6b1a9","system_id":"levelo_inurba_marseille","lat":43.29304,"lon":5.37439,"is_reserved":false,"is_disabled":true,"rental_uris":{"android":"levelo://app?vid=1044a43a-99ba-418f-8d4c-9ae671d6b1a9","ios":"levelo://app?vid=1044a43a-99ba-418f-8d4c-9ae671d6b1a9"},"vehicle_type_id":"4","last_reported":1741583327,"current_range_meters":16400,"station_id":"ce4bgi12rcd13ifvqb70","pricing_plan_id":"cebpf4jnsgd1na2vs0mg"},{"bike_id":"67e96ce9-54b2-44cb-a5b1-546730071f20","system_id":"levelo_inurba_marseille","lat":43.25716,"lon":5.41133,"is_reserved":false,"is_disabled":false,"rental_uris":{"android":"levelo://app?vid=67e96ce9-54b2-44cb-a5b1-546730071f20","ios":"levelo://app?vid=67e96ce9-54b2-44cb-a5b1-546730071f20"},"vehicle_type_id":"4","last_reported":1741583327,"current_range_meters":16400,"station_id":"ce4bhkp2rcd13ifvqgd0","pricing_plan_id":"cebpf4jnsgd1na2vs0mg"},{"bike_id":"a44b4ad2-e639-4c9a-8fb7-52bbbdc7ff12","system_id":"levelo_inurba_marseille","lat":43.249969,"lon":5.389311,"is_reserved":false,"is_disabled":false,"rental_uris":{"android":"levelo://app?vid=a44b4ad2-e639-4c9a-8fb7-52bbbdc7ff12","ios":"levelo://app?vid=a44b4ad2-e639-4c9a-8fb7-52bbbdc7ff12"},"vehicle_type_id":"4","last_reported":1741583327,"current_range_meters":16400,"station_id":"ce4bhgp2rcd13ifvqfd0","pricing_plan_id":"cebpf4jnsgd1na2vs0mg"},{"bike_id":"ac1d3586-76cb-40d1-a306-7c8c5194b349","system_id":"levelo_inurba_marseille","lat":43.3153,"lon":5.3804,"is_reserved":false,"is_disabled":false,"rental_uris":{"android":"levelo://app?vid=ac1d3586-76cb-40d1-a306-7c8c5194b349","ios":"levelo://app?vid=ac1d3586-76cb-40d1-a306-7c8c5194b349"},"vehicle_type_id":"4","last_reported":1741583327,"current_range_meters":16400,"station_id":"ce4bhsp2rcd13ifvqi50","pricing_plan_id":"cebpf4jnsgd1na2vs0mg"},{"bike_id":"dd781e17-1734-40bf-aa64-52ec7227d31f","system_id":"levelo_inurba_marseille","lat":43.25697,"lon":5.41116,"is_reserved":false,"is_disabled":false,"rental_uris":{"android":"levelo://app?vid=dd781e17-1734-40bf-aa64-52ec7227d31f","ios":"levelo://app?vid=dd781e17-1734-40bf-aa64-52ec7227d31f"},"vehicle_type_id":"4","last_reported":1741583327,"current_range_meters":16400,"station_id":"ce4bhkp2rcd13ifvqgd0","pricing_plan_id":"cebpf4jnsgd1na2vs0mg"},{"bike_id":"f381c9bd-14fa-41ab-b589-3ecebd6dfe48","system_id":"levelo_inurba_marseille","lat":43.32358,"lon":5.3675,"is_reserved":false,"is_disabled":false,"rental_uris":{"android":"levelo://app?vid=f381c9bd-14fa-41ab-b589-3ecebd6dfe48","ios":"levelo://app?vid=f381c9bd-14fa-41ab-b589-3ecebd6dfe48"},"vehicle_type_id":"4","last_reported":1741583327,"current_range_meters":16400,"station_id":"ce4bhsh2rcd13ifvqi2g","pricing_plan_id":"cebpf4jnsgd1na2vs0mg"},{"bike_id":"b03ef759-bcd3-4f45-9dc7-0d03ab684708","system_id":"levelo_inurba_marseille","lat":43.25006,"lon":5.38939,"is_reserved":false,"is_disabled":false,"rental_uris":{"android":"levelo://app?vid=b03ef759-bcd3-4f45-9dc7-0d03ab684708","ios":"levelo://app?vid=b03ef759-bcd3-4f45-9dc7-0d03ab684708"},"vehicle_type_id":"4","last_reported":1741583327,"current_range_meters":16800,"station_id":"ce4bhgp2rcd13ifvqfd0","pricing_plan_id":"cebpf4jnsgd1na2vs0mg"},{"bike_id":"08b68eba-53e3-4dc9-b600-bf554c1ed500","system_id":"levelo_inurba_marseille","lat":43.29282,"lon":5.37621,"is_reserved":false,"is_disabled":false,"rental_uris":{"android":"levelo://app?vid=08b68eba-53e3-4dc9-b600-bf554c1ed500","ios":"levelo://app?vid=08b68eba-53e3-4dc9-b600-bf554c1ed500"},"vehicle_type_id":"4","last_reported":1741583327,"current_range_meters":16800,"station_id":"ce4bgi12rcd13ifvqb80","pricing_plan_id":"cebpf4jnsgd1na2vs0mg"},{"bike_id":"a4722dc4-8e08-4c35-830f-773852947369","system_id":"levelo_inurba_marseille","lat":43.25744,"lon":5.41085,"is_reserved":false,"is_disabled":false,"rental_uris":{"android":"levelo://app?vid=a4722dc4-8e08-4c35-830f-773852947369","ios":"levelo://app?vid=a4722dc4-8e08-4c35-830f-773852947369"},"vehicle_type_id":"4","last_reported":1741583327,"current_range_meters":16800,"station_id":"ce4bhkp2rcd13ifvqgd0","pricing_plan_id":"cebpf4jnsgd1na2vs0mg"},{"bike_id":"63ec2c74-f9ab-47ef-8b9f-8ceb341cb15b","system_id":"levelo_inurba_marseille","lat":43.287019,"lon":5.399708,"is_reserved":false,"is_disabled":false,"rental_uris":{"android":"levelo://app?vid=63ec2c74-f9ab-47ef-8b9f-8ceb341cb15b","ios":"levelo://app?vid=63ec2c74-f9ab-47ef-8b9f-8ceb341cb15b"},"vehicle_type_id":"4","last_reported":1741583327,"current_range_meters":16800,"station_id":"ce4bho92rcd13ifvqh3g","pricing_plan_id":"cebpf4jnsgd1na2vs0mg"},{"bike_id":"95032280-8699-443d-b858-ddb87b2be509","system_id":"levelo_inurba_marseille","lat":43.28617,"lon":5.35105,"is_reserved":false,"is_disabled":false,"rental_uris":{"android":"levelo://app?vid=95032280-8699-443d-b858-ddb87b2be509","ios":"levelo://app?vid=95032280-8699-443d-b858-ddb87b2be509"},"vehicle_type_id":"4","last_reported":1741583327,"current_range_meters":16800,"station_id":"ce4bhch2rcd13ifvqeug","pricing_plan_id":"cebpf4jnsgd1na2vs0mg"},{"bike_id":"9c21c891-bf93-4c67-b36f-39a12f814032","system_id":"levelo_inurba_marseille","lat":43.24546,"lon":5.39517,"is_reserved":false,"is_disabled":false,"rental_uris":{"android":"levelo://app?vid=9c21c891-bf93-4c67-b36f-39a12f814032","ios":"levelo://app?vid=9c21c891-bf93-4c67-b36f-39a12f814032"},"vehicle_type_id":"4","last_reported":1741583327,"current_range_meters":16800,"station_id":"ce4bhlp2rcd13ifvqgjg","pricing_plan_id":"cebpf4jnsgd1na2vs0mg"},{"bike_id":"ec158045-a82c-4f94-a9fe-4ee57996b1b4","system_id":"levelo_inurba_marseille","lat":43.25102,"lon":5.4033,"is_reserved":false,"is_disabled":false,"rental_uris":{"android":"levelo://app?vid=ec158045-a82c-4f94-a9fe-4ee57996b1b4","ios":"levelo://app?vid=ec158045-a82c-4f94-a9fe-4ee57996b1b4"},"vehicle_type_id":"4","last_reported":1741583327,"current_range_meters":16800,"station_id":"ce4bhlh2rcd13ifvqgig","pricing_plan_id":"cebpf4jnsgd1na2vs0mg"},{"bike_id":"14a64e50-67e4-4ccc-8dd3-b69f798262a6","system_id":"levelo_inurba_marseille","lat":43.25115,"lon":5.40311,"is_reserved":false,"is_disabled":false,"rental_uris":{"android":"levelo://app?vid=14a64e50-67e4-4ccc-8dd3-b69f798262a6","ios":"levelo://app?vid=14a64e50-67e4-4ccc-8dd3-b69f798262a6"},"vehicle_type_id":"4","last_reported":1741583327,"current_range_meters":17200,"station_id":"ce4bhlh2rcd13ifvqgig","pricing_plan_id":"cebpf4jnsgd1na2vs0mg"},{"bike_id":"12418dc1-2a02-4d62-9d41-294061fbfa52","system_id":"levelo_inurba_marseille","lat":43.29275,"lon":5.37479,"is_reserved":false,"is_disabled":true,"rental_uris":{"android":"levelo://app?vid=12418dc1-2a02-4d62-9d41-294061fbfa52","ios":"levelo://app?vid=12418dc1-2a02-4d62-9d41-294061fbfa52"},"vehicle_type_id":"4","last_reported":1741583327,"current_range_meters":17200,"station_id":"ce4bgi12rcd13ifvqb70","pricing_plan_id":"cebpf4jnsgd1na2vs0mg"},{"bike_id":"71baf02d-ec1d-434b-9696-111c399ded0e","system_id":"levelo_inurba_marseille","lat":43.28402,"lon":5.37518,"is_reserved":false,"is_disabled":false,"rental_uris":{"android":"levelo://app?vid=71baf02d-ec1d-434b-9696-111c399ded0e","ios":"levelo://app?vid=71baf02d-ec1d-434b-9696-111c399ded0e"},"vehicle_type_id":"4","last_reported":1741583327,"current_range_meters":17200,"station_id":"ce4bh412rcd13ifvqds0","pricing_plan_id":"cebpf4jnsgd1na2vs0mg"},{"bike_id":"5e6345b0-8796-458b-85a3-d3b4f6f6507a","system_id":"levelo_inurba_marseille","lat":43.24616,"lon":5.3893,"is_reserved":false,"is_disabled":false,"rental_uris":{"android":"levelo://app?vid=5e6345b0-8796-458b-85a3-d3b4f6f6507a","ios":"levelo://app?vid=5e6345b0-8796-458b-85a3-d3b4f6f6507a"},"vehicle_type_id":"4","last_reported":1741583327,"current_range_meters":17200,"station_id":"ce4bhg12rcd13ifvqf60","pricing_plan_id":"cebpf4jnsgd1na2vs0mg"},{"bike_id":"3e6308ea-b674-4d82-9432-e671a422998f","system_id":"levelo_inurba_marseille","lat":43.25722,"lon":5.41114,"is_reserved":false,"is_disabled":false,"rental_uris":{"android":"levelo://app?vid=3e6308ea-b674-4d82-9432-e671a422998f","ios":"levelo://app?vid=3e6308ea-b674-4d82-9432-e671a422998f"},"vehicle_type_id":"4","last_reported":1741583327,"current_range_meters":17200,"station_id":"ce4bhkp2rcd13ifvqgd0","pricing_plan_id":"cebpf4jnsgd1na2vs0mg"},{"bike_id":"41c57243-0c71-4854-b843-3007f01d478b","system_id":"levelo_inurba_marseille","lat":43.284181,"lon":5.375196,"is_reserved":false,"is_disabled":true,"rental_uris":{"android":"levelo://app?vid=41c57243-0c71-4854-b843-3007f01d478b","ios":"levelo://app?vid=41c57243-0c71-4854-b843-3007f01d478b"},"vehicle_type_id":"4","last_reported":1741583327,"current_range_meters":17200,"station_id":"ce4bh412rcd13ifvqds0","pricing_plan_id":"cebpf4jnsgd1na2vs0mg"},{"bike_id":"49b22eea-6f54-4260-913d-7002de541478","system_id":"levelo_inurba_marseille","lat":43.32341,"lon":5.40625,"is_reserved":false,"is_disabled":false,"rental_uris":{"android":"levelo://app?vid=49b22eea-6f54-4260-913d-7002de541478","ios":"levelo://app?vid=49b22eea-6f54-4260-913d-7002de541478"},"vehicle_type_id":"4","last_reported":1741583327,"current_range_meters":17200,"station_id":"ce4bhq92rcd13ifvqhjg","pricing_plan_id":"cebpf4jnsgd1na2vs0mg"},{"bike_id":"fa7e2c73-f1de-470d-a02a-ac87c93f97c5","system_id":"levelo_inurba_marseille","lat":43.28388,"lon":5.37528,"is_reserved":false,"is_disabled":false,"rental_uris":{"android":"levelo://app?vid=fa7e2c73-f1de-470d-a02a-ac87c93f97c5","ios":"levelo://app?vid=fa7e2c73-f1de-470d-a02a-ac87c93f97c5"},"vehicle_type_id":"4","last_reported":1741583327,"current_range_meters":17200,"station_id":"ce4bh412rcd13ifvqds0","pricing_plan_id":"cebpf4jnsgd1na2vs0mg"},{"bike_id":"5168a913-5224-4ddf-8293-e2c5484c5bf7","system_id":"levelo_inurba_marseille","lat":43.25581,"lon":5.38241,"is_reserved":false,"is_disabled":false,"rental_uris":{"android":"levelo://app?vid=5168a913-5224-4ddf-8293-e2c5484c5bf7","ios":"levelo://app?vid=5168a913-5224-4ddf-8293-e2c5484c5bf7"},"vehicle_type_id":"4","last_reported":1741583327,"current_range_meters":17200,"station_id":"ce4bhih2rcd13ifvqfs0","pricing_plan_id":"cebpf4jnsgd1na2vs0mg"},{"bike_id":"24ea9c03-0afd-4100-ad62-62865e3edce9","system_id":"levelo_inurba_marseille","lat":43.23135,"lon":5.43714,"is_reserved":false,"is_disabled":false,"rental_uris":{"android":"levelo://app?vid=24ea9c03-0afd-4100-ad62-62865e3edce9","ios":"levelo://app?vid=24ea9c03-0afd-4100-ad62-62865e3edce9"},"vehicle_type_id":"4","last_reported":1741583327,"current_range_meters":17200,"station_id":"ce4bhmp2rcd13ifvqgog","pricing_plan_id":"cebpf4jnsgd1na2vs0mg"},{"bike_id":"19f601f1-6319-4184-aa0f-d711aed13c55","system_id":"levelo_inurba_marseille","lat":43.31122,"lon":5.37792,"is_reserved":false,"is_disabled":false,"rental_uris":{"android":"levelo://app?vid=19f601f1-6319-4184-aa0f-d711aed13c55","ios":"levelo://app?vid=19f601f1-6319-4184-aa0f-d711aed13c55"},"vehicle_type_id":"4","last_reported":1741583327,"current_range_meters":17600,"station_id":"ce4bgt92rcd13ifvqcg0","pricing_plan_id":"cebpf4jnsgd1na2vs0mg"},{"bike_id":"bf49a0fd-bfe2-4bbb-8d6a-0540c7d91d25","system_id":"levelo_inurba_marseille","lat":43.32355,"lon":5.36767,"is_reserved":false,"is_disabled":false,"rental_uris":{"android":"levelo://app?vid=bf49a0fd-bfe2-4bbb-8d6a-0540c7d91d25","ios":"levelo://app?vid=bf49a0fd-bfe2-4bbb-8d6a-0540c7d91d25"},"vehicle_type_id":"4","last_reported":1741583327,"current_range_meters":17600,"station_id":"ce4bhsh2rcd13ifvqi2g","pricing_plan_id":"cebpf4jnsgd1na2vs0mg"},{"bike_id":"259dde30-071d-4e72-9e93-2afe0e28cbba","system_id":"levelo_inurba_marseille","lat":43.30657,"lon":5.37266,"is_reserved":false,"is_disabled":false,"rental_uris":{"android":"levelo://app?vid=259dde30-071d-4e72-9e93-2afe0e28cbba","ios":"levelo://app?vid=259dde30-071d-4e72-9e93-2afe0e28cbba"},"vehicle_type_id":"4","last_reported":1741583327,"current_range_meters":18000,"station_id":"","pricing_plan_id":"cebpf4jnsgd1na2vs0mg"},{"bike_id":"b440cac3-b258-47c5-9870-282e261e74d3","system_id":"levelo_inurba_marseille","lat":43.308,"lon":5.38151,"is_reserved":false,"is_disabled":false,"rental_uris":{"android":"levelo://app?vid=b440cac3-b258-47c5-9870-282e261e74d3","ios":"levelo://app?vid=b440cac3-b258-47c5-9870-282e261e74d3"},"vehicle_type_id":"4","last_reported":1741583327,"current_range_meters":18000,"station_id":"ce4bgt12rcd13ifvqce0","pricing_plan_id":"cebpf4jnsgd1na2vs0mg"},{"bike_id":"450acae0-8355-4a32-b643-b42f50146bd9","system_id":"levelo_inurba_marseille","lat":43.29266,"lon":5.40124,"is_reserved":false,"is_disabled":true,"rental_uris":{"android":"levelo://app?vid=450acae0-8355-4a32-b643-b42f50146bd9","ios":"levelo://app?vid=450acae0-8355-4a32-b643-b42f50146bd9"},"vehicle_type_id":"4","last_reported":1741583327,"current_range_meters":18000,"station_id":"ce4bh312rcd13ifvqdk0","pricing_plan_id":"cebpf4jnsgd1na2vs0mg"},{"bike_id":"1a26001d-d49a-47a3-a711-f7ff22c1c811","system_id":"levelo_inurba_marseille","lat":43.288829,"lon":5.371499,"is_reserved":false,"is_disabled":false,"rental_uris":{"android":"levelo://app?vid=1a26001d-d49a-47a3-a711-f7ff22c1c811","ios":"levelo://app?vid=1a26001d-d49a-47a3-a711-f7ff22c1c811"},"vehicle_type_id":"4","last_reported":1741583327,"current_range_meters":18000,"station_id":"","pricing_plan_id":"cebpf4jnsgd1na2vs0mg"},{"bike_id":"5a86cf8d-68d1-45dd-8ef4-19f3766a28ac","system_id":"levelo_inurba_marseille","lat":43.27592,"lon":5.38406,"is_reserved":false,"is_disabled":true,"rental_uris":{"android":"levelo://app?vid=5a86cf8d-68d1-45dd-8ef4-19f3766a28ac","ios":"levelo://app?vid=5a86cf8d-68d1-45dd-8ef4-19f3766a28ac"},"vehicle_type_id":"4","last_reported":1741583327,"current_range_meters":18000,"station_id":"ce4bhh92rcd13ifvqfi0","pricing_plan_id":"cebpf4jnsgd1na2vs0mg"},{"bike_id":"39c99fcb-d42e-410f-836b-ee011f13a2d9","system_id":"levelo_inurba_marseille","lat":43.33597,"lon":5.41056,"is_reserved":false,"is_disabled":false,"rental_uris":{"android":"levelo://app?vid=39c99fcb-d42e-410f-836b-ee011f13a2d9","ios":"levelo://app?vid=39c99fcb-d42e-410f-836b-ee011f13a2d9"},"vehicle_type_id":"4","last_reported":1741583327,"current_range_meters":18000,"station_id":"ce4bhqh2rcd13ifvqhmg","pricing_plan_id":"cebpf4jnsgd1na2vs0mg"},{"bike_id":"3c0322e8-1633-4df8-ae6c-07e5a638c894","system_id":"levelo_inurba_marseille","lat":43.30872,"lon":5.39634,"is_reserved":false,"is_disabled":false,"rental_uris":{"android":"levelo://app?vid=3c0322e8-1633-4df8-ae6c-07e5a638c894","ios":"levelo://app?vid=3c0322e8-1633-4df8-ae6c-07e5a638c894"},"vehicle_type_id":"4","last_reported":1741583327,"current_range_meters":18800,"station_id":"ce4bh012rcd13ifvqcv0","pricing_plan_id":"cebpf4jnsgd1na2vs0mg"},{"bike_id":"400aed2c-605a-49d9-9188-376d94c9dd12","system_id":"levelo_inurba_marseille","lat":43.265564,"lon":5.372759,"is_reserved":false,"is_disabled":false,"rental_uris":{"android":"levelo://app?vid=400aed2c-605a-49d9-9188-376d94c9dd12","ios":"levelo://app?vid=400aed2c-605a-49d9-9188-376d94c9dd12"},"vehicle_type_id":"4","last_reported":1741583327,"current_range_meters":18800,"station_id":"ce4bhg12rcd13ifvqf70","pricing_plan_id":"cebpf4jnsgd1na2vs0mg"},{"bike_id":"d428bd7e-59d3-4c5d-ac9a-126b69c25fe5","system_id":"levelo_inurba_marseille","lat":43.25498,"lon":5.37647,"is_reserved":false,"is_disabled":false,"rental_uris":{"android":"levelo://app?vid=d428bd7e-59d3-4c5d-ac9a-126b69c25fe5","ios":"levelo://app?vid=d428bd7e-59d3-4c5d-ac9a-126b69c25fe5"},"vehicle_type_id":"4","last_reported":1741583327,"current_range_meters":18800,"station_id":"ce4bhh12rcd13ifvqff0","pricing_plan_id":"cebpf4jnsgd1na2vs0mg"},{"bike_id":"0c95facf-8493-4876-b5da-4859cd4f3b33","system_id":"levelo_inurba_marseille","lat":43.25116,"lon":5.40332,"is_reserved":false,"is_disabled":false,"rental_uris":{"android":"levelo://app?vid=0c95facf-8493-4876-b5da-4859cd4f3b33","ios":"levelo://app?vid=0c95facf-8493-4876-b5da-4859cd4f3b33"},"vehicle_type_id":"4","last_reported":1741583327,"current_range_meters":18800,"station_id":"ce4bhlh2rcd13ifvqgig","pricing_plan_id":"cebpf4jnsgd1na2vs0mg"},{"bike_id":"e6ebcd84-225b-4f40-aa3c-489785567e0d","system_id":"levelo_inurba_marseille","lat":43.27856,"lon":5.40673,"is_reserved":false,"is_disabled":false,"rental_uris":{"android":"levelo://app?vid=e6ebcd84-225b-4f40-aa3c-489785567e0d","ios":"levelo://app?vid=e6ebcd84-225b-4f40-aa3c-489785567e0d"},"vehicle_type_id":"4","last_reported":1741583327,"current_range_meters":18800,"station_id":"","pricing_plan_id":"cebpf4jnsgd1na2vs0mg"},{"bike_id":"ac8e6b48-e483-4aef-bede-c5576834d55a","system_id":"levelo_inurba_marseille","lat":43.29834,"lon":5.36279,"is_reserved":false,"is_disabled":false,"rental_uris":{"android":"levelo://app?vid=ac8e6b48-e483-4aef-bede-c5576834d55a","ios":"levelo://app?vid=ac8e6b48-e483-4aef-bede-c5576834d55a"},"vehicle_type_id":"4","last_reported":1741583327,"current_range_meters":18800,"station_id":"ce4bgpp2rcd13ifvqc3g","pricing_plan_id":"cebpf4jnsgd1na2vs0mg"},{"bike_id":"5a60b01f-f2e2-4f19-85f6-b5f2ff0d6390","system_id":"levelo_inurba_marseille","lat":43.25582,"lon":5.38249,"is_reserved":false,"is_disabled":false,"rental_uris":{"android":"levelo://app?vid=5a60b01f-f2e2-4f19-85f6-b5f2ff0d6390","ios":"levelo://app?vid=5a60b01f-f2e2-4f19-85f6-b5f2ff0d6390"},"vehicle_type_id":"4","last_reported":1741583327,"current_range_meters":18800,"station_id":"ce4bhih2rcd13ifvqfs0","pricing_plan_id":"cebpf4jnsgd1na2vs0mg"},{"bike_id":"cbf18b38-d266-4af6-9305-fb5e65467591","system_id":"levelo_inurba_marseille","lat":43.31325,"lon":5.39718,"is_reserved":false,"is_disabled":false,"rental_uris":{"android":"levelo://app?vid=cbf18b38-d266-4af6-9305-fb5e65467591","ios":"levelo://app?vid=cbf18b38-d266-4af6-9305-fb5e65467591"},"vehicle_type_id":"4","last_reported":1741583327,"current_range_meters":18800,"station_id":"ce4bgvp2rcd13ifvqcu0","pricing_plan_id":"cebpf4jnsgd1na2vs0mg"},{"bike_id":"a0182f93-6884-464d-8976-e0f3b5e66eef","system_id":"levelo_inurba_marseille","lat":43.308829,"lon":5.396394,"is_reserved":false,"is_disabled":false,"rental_uris":{"android":"levelo://app?vid=a0182f93-6884-464d-8976-e0f3b5e66eef","ios":"levelo://app?vid=a0182f93-6884-464d-8976-e0f3b5e66eef"},"vehicle_type_id":"4","last_reported":1741583327,"current_range_meters":19200,"station_id":"ce4bh012rcd13ifvqcv0","pricing_plan_id":"cebpf4jnsgd1na2vs0mg"},{"bike_id":"d65e8be0-c89a-496f-8d68-c1f1328b1070","system_id":"levelo_inurba_marseille","lat":43.30667,"lon":5.40077,"is_reserved":false,"is_disabled":false,"rental_uris":{"android":"levelo://app?vid=d65e8be0-c89a-496f-8d68-c1f1328b1070","ios":"levelo://app?vid=d65e8be0-c89a-496f-8d68-c1f1328b1070"},"vehicle_type_id":"4","last_reported":1741583327,"current_range_meters":19200,"station_id":"ce4bh112rcd13ifvqda0","pricing_plan_id":"cebpf4jnsgd1na2vs0mg"},{"bike_id":"594c048f-9cc8-4fbc-888f-e62be6931fb9","system_id":"levelo_inurba_marseille","lat":43.32418,"lon":5.36813,"is_reserved":false,"is_disabled":false,"rental_uris":{"android":"levelo://app?vid=594c048f-9cc8-4fbc-888f-e62be6931fb9","ios":"levelo://app?vid=594c048f-9cc8-4fbc-888f-e62be6931fb9"},"vehicle_type_id":"4","last_reported":1741583327,"current_range_meters":19200,"station_id":"","pricing_plan_id":"cebpf4jnsgd1na2vs0mg"},{"bike_id":"e8cf0fda-aaa1-4883-8b40-3d3cab1159d0","system_id":"levelo_inurba_marseille","lat":43.27507,"lon":5.43439,"is_reserved":false,"is_disabled":false,"rental_uris":{"android":"levelo://app?vid=e8cf0fda-aaa1-4883-8b40-3d3cab1159d0","ios":"levelo://app?vid=e8cf0fda-aaa1-4883-8b40-3d3cab1159d0"},"vehicle_type_id":"4","last_reported":1741583327,"current_range_meters":19600,"station_id":"","pricing_plan_id":"cebpf4jnsgd1na2vs0mg"},{"bike_id":"3651eff4-00de-4df7-99a3-d628f1306762","system_id":"levelo_inurba_marseille","lat":43.29568,"lon":5.39981,"is_reserved":false,"is_disabled":false,"rental_uris":{"android":"levelo://app?vid=3651eff4-00de-4df7-99a3-d628f1306762","ios":"levelo://app?vid=3651eff4-00de-4df7-99a3-d628f1306762"},"vehicle_type_id":"4","last_reported":1741583327,"current_range_meters":19600,"station_id":"ce4bh312rcd13ifvqdj0","pricing_plan_id":"cebpf4jnsgd1na2vs0mg"},{"bike_id":"2cdec81d-2593-4153-a426-2f527f1b29e2","system_id":"levelo_inurba_marseille","lat":43.23595,"lon":5.391,"is_reserved":false,"is_disabled":false,"rental_uris":{"android":"levelo://app?vid=2cdec81d-2593-4153-a426-2f527f1b29e2","ios":"levelo://app?vid=2cdec81d-2593-4153-a426-2f527f1b29e2"},"vehicle_type_id":"4","last_reported":1741583327,"current_range_meters":19600,"station_id":"","pricing_plan_id":"cebpf4jnsgd1na2vs0mg"},{"bike_id":"6732b929-977a-48d0-ad7b-8899bd528b76","system_id":"levelo_inurba_marseille","lat":43.27937,"lon":5.38716,"is_reserved":false,"is_disabled":false,"rental_uris":{"android":"levelo://app?vid=6732b929-977a-48d0-ad7b-8899bd528b76","ios":"levelo://app?vid=6732b929-977a-48d0-ad7b-8899bd528b76"},"vehicle_type_id":"4","last_reported":1741583327,"current_range_meters":19600,"station_id":"ce4bhg12rcd13ifvqf80","pricing_plan_id":"cebpf4jnsgd1na2vs0mg"},{"bike_id":"4be2a28d-512e-4f1f-abf5-b6f5d3668257","system_id":"levelo_inurba_marseille","lat":43.24166,"lon":5.36405,"is_reserved":false,"is_disabled":true,"rental_uris":{"android":"levelo://app?vid=4be2a28d-512e-4f1f-abf5-b6f5d3668257","ios":"levelo://app?vid=4be2a28d-512e-4f1f-abf5-b6f5d3668257"},"vehicle_type_id":"4","last_reported":1741583327,"current_range_meters":19600,"station_id":"cpo36qri1sfpv3e86is0","pricing_plan_id":"cebpf4jnsgd1na2vs0mg"},{"bike_id":"c8e6a8d7-31ca-4e9c-9cc7-084ae34ba7cb","system_id":"levelo_inurba_marseille","lat":43.290541,"lon":5.359072,"is_reserved":false,"is_disabled":false,"rental_uris":{"android":"levelo://app?vid=c8e6a8d7-31ca-4e9c-9cc7-084ae34ba7cb","ios":"levelo://app?vid=c8e6a8d7-31ca-4e9c-9cc7-084ae34ba7cb"},"vehicle_type_id":"4","last_reported":1741583327,"current_range_meters":19600,"station_id":"ce4bha92rcd13ifvqeg0","pricing_plan_id":"cebpf4jnsgd1na2vs0mg"},{"bike_id":"2c357cea-ca97-402f-9e17-ff4b685894de","system_id":"levelo_inurba_marseille","lat":43.30866,"lon":5.39643,"is_reserved":false,"is_disabled":false,"rental_uris":{"android":"levelo://app?vid=2c357cea-ca97-402f-9e17-ff4b685894de","ios":"levelo://app?vid=2c357cea-ca97-402f-9e17-ff4b685894de"},"vehicle_type_id":"4","last_reported":1741583327,"current_range_meters":19600,"station_id":"ce4bh012rcd13ifvqcv0","pricing_plan_id":"cebpf4jnsgd1na2vs0mg"},{"bike_id":"7db142bd-4215-4d6a-8795-458ceb0b178e","system_id":"levelo_inurba_marseille","lat":43.2864,"lon":5.35072,"is_reserved":false,"is_disabled":false,"rental_uris":{"android":"levelo://app?vid=7db142bd-4215-4d6a-8795-458ceb0b178e","ios":"levelo://app?vid=7db142bd-4215-4d6a-8795-458ceb0b178e"},"vehicle_type_id":"4","last_reported":1741583327,"current_range_meters":19600,"station_id":"ce4bhch2rcd13ifvqeug","pricing_plan_id":"cebpf4jnsgd1na2vs0mg"},{"bike_id":"f6dc7e9d-be33-4c3d-b28e-234510ea7980","system_id":"levelo_inurba_marseille","lat":43.29062,"lon":5.38092,"is_reserved":false,"is_disabled":false,"rental_uris":{"android":"levelo://app?vid=f6dc7e9d-be33-4c3d-b28e-234510ea7980","ios":"levelo://app?vid=f6dc7e9d-be33-4c3d-b28e-234510ea7980"},"vehicle_type_id":"4","last_reported":1741583327,"current_range_meters":19600,"station_id":"","pricing_plan_id":"cebpf4jnsgd1na2vs0mg"},{"bike_id":"91106798-3c90-4d25-a44a-881b573323c0","system_id":"levelo_inurba_marseille","lat":43.3132,"lon":5.39685,"is_reserved":false,"is_disabled":false,"rental_uris":{"android":"levelo://app?vid=91106798-3c90-4d25-a44a-881b573323c0","ios":"levelo://app?vid=91106798-3c90-4d25-a44a-881b573323c0"},"vehicle_type_id":"4","last_reported":1741583327,"current_range_meters":19600,"station_id":"ce4bgvp2rcd13ifvqcu0","pricing_plan_id":"cebpf4jnsgd1na2vs0mg"},{"bike_id":"493d0bcc-39cb-4cfd-948e-8bb2c4e137bf","system_id":"levelo_inurba_marseille","lat":43.286224,"lon":5.351022,"is_reserved":false,"is_disabled":false,"rental_uris":{"android":"levelo://app?vid=493d0bcc-39cb-4cfd-948e-8bb2c4e137bf","ios":"levelo://app?vid=493d0bcc-39cb-4cfd-948e-8bb2c4e137bf"},"vehicle_type_id":"4","last_reported":1741583327,"current_range_meters":19600,"station_id":"ce4bhch2rcd13ifvqeug","pricing_plan_id":"cebpf4jnsgd1na2vs0mg"},{"bike_id":"d433cd07-fb1a-45cd-b33b-67f19c69c798","system_id":"levelo_inurba_marseille","lat":43.24547,"lon":5.39525,"is_reserved":false,"is_disabled":false,"rental_uris":{"android":"levelo://app?vid=d433cd07-fb1a-45cd-b33b-67f19c69c798","ios":"levelo://app?vid=d433cd07-fb1a-45cd-b33b-67f19c69c798"},"vehicle_type_id":"4","last_reported":1741583327,"current_range_meters":19600,"station_id":"ce4bhlp2rcd13ifvqgjg","pricing_plan_id":"cebpf4jnsgd1na2vs0mg"},{"bike_id":"f0b5f6b7-161e-4c72-8f30-8d8e8d5c374f","system_id":"levelo_inurba_marseille","lat":43.245793,"lon":5.404893,"is_reserved":false,"is_disabled":false,"rental_uris":{"android":"levelo://app?vid=f0b5f6b7-161e-4c72-8f30-8d8e8d5c374f","ios":"levelo://app?vid=f0b5f6b7-161e-4c72-8f30-8d8e8d5c374f"},"vehicle_type_id":"4","last_reported":1741583327,"current_range_meters":19600,"station_id":"","pricing_plan_id":"cebpf4jnsgd1na2vs0mg"},{"bike_id":"9cd32f84-ee04-4fa7-8a75-6ab4ea5f5ba5","system_id":"levelo_inurba_marseille","lat":43.293009,"lon":5.374421,"is_reserved":false,"is_disabled":true,"rental_uris":{"android":"levelo://app?vid=9cd32f84-ee04-4fa7-8a75-6ab4ea5f5ba5","ios":"levelo://app?vid=9cd32f84-ee04-4fa7-8a75-6ab4ea5f5ba5"},"vehicle_type_id":"4","last_reported":1741583327,"current_range_meters":19600,"station_id":"ce4bgi12rcd13ifvqb70","pricing_plan_id":"cebpf4jnsgd1na2vs0mg"},{"bike_id":"f7d46cde-66cb-4f3c-8f62-42341fcbd0c4","system_id":"levelo_inurba_marseille","lat":43.292773,"lon":5.401161,"is_reserved":false,"is_disabled":false,"rental_uris":{"android":"levelo://app?vid=f7d46cde-66cb-4f3c-8f62-42341fcbd0c4","ios":"levelo://app?vid=f7d46cde-66cb-4f3c-8f62-42341fcbd0c4"},"vehicle_type_id":"4","last_reported":1741583327,"current_range_meters":19600,"station_id":"ce4bh312rcd13ifvqdk0","pricing_plan_id":"cebpf4jnsgd1na2vs0mg"},{"bike_id":"1f14ba7f-b1a6-433f-bb97-21326ca412cd","system_id":"levelo_inurba_marseille","lat":43.31256,"lon":5.36855,"is_reserved":false,"is_disabled":true,"rental_uris":{"android":"levelo://app?vid=1f14ba7f-b1a6-433f-bb97-21326ca412cd","ios":"levelo://app?vid=1f14ba7f-b1a6-433f-bb97-21326ca412cd"},"vehicle_type_id":"4","last_reported":1741583327,"current_range_meters":19600,"station_id":"ce4bgl92rcd13ifvqbq0","pricing_plan_id":"cebpf4jnsgd1na2vs0mg"},{"bike_id":"1c2d1d97-c9c5-42ad-ab42-145c684b5716","system_id":"levelo_inurba_marseille","lat":43.24393,"lon":5.37065,"is_reserved":false,"is_disabled":false,"rental_uris":{"android":"levelo://app?vid=1c2d1d97-c9c5-42ad-ab42-145c684b5716","ios":"levelo://app?vid=1c2d1d97-c9c5-42ad-ab42-145c684b5716"},"vehicle_type_id":"4","last_reported":1741583327,"current_range_meters":19600,"station_id":"ce4bhhh2rcd13ifvqfk0","pricing_plan_id":"cebpf4jnsgd1na2vs0mg"},{"bike_id":"08f93989-8ee8-42df-acd5-2478ac4a1180","system_id":"levelo_inurba_marseille","lat":43.274456,"lon":5.435234,"is_reserved":false,"is_disabled":false,"rental_uris":{"android":"levelo://app?vid=08f93989-8ee8-42df-acd5-2478ac4a1180","ios":"levelo://app?vid=08f93989-8ee8-42df-acd5-2478ac4a1180"},"vehicle_type_id":"4","last_reported":1741583327,"current_range_meters":19600,"station_id":"","pricing_plan_id":"cebpf4jnsgd1na2vs0mg"},{"bike_id":"301d58f1-e541-4dfa-922b-c31b866905c8","system_id":"levelo_inurba_marseille","lat":43.30951,"lon":5.39028,"is_reserved":false,"is_disabled":false,"rental_uris":{"android":"levelo://app?vid=301d58f1-e541-4dfa-922b-c31b866905c8","ios":"levelo://app?vid=301d58f1-e541-4dfa-922b-c31b866905c8"},"vehicle_type_id":"4","last_reported":1741583327,"current_range_meters":20000,"station_id":"ce4bgup2rcd13ifvqco0","pricing_plan_id":"cebpf4jnsgd1na2vs0mg"},{"bike_id":"af380254-abf5-4669-9a0a-67f507f23f12","system_id":"levelo_inurba_marseille","lat":43.3168,"lon":5.40521,"is_reserved":false,"is_disabled":false,"rental_uris":{"android":"levelo://app?vid=af380254-abf5-4669-9a0a-67f507f23f12","ios":"levelo://app?vid=af380254-abf5-4669-9a0a-67f507f23f12"},"vehicle_type_id":"4","last_reported":1741583327,"current_range_meters":20000,"station_id":"ce4bh012rcd13ifvqd00","pricing_plan_id":"cebpf4jnsgd1na2vs0mg"},