{"last_updated":1739722157,"ttl":60,"version":"2.2","data":{"bikes":[{"bike_id":"ef4d27ab-b94f-4832-b169-415b4741ef5b","system_id":"levelo_inurba_marseille","lat":43.26204,"lon":5.37931,"is_reserved":false,"is_disabled":false,"rental_uris":{"android":"levelo://app?vid=ef4d27ab-b94f-4832-b169-415b4741ef5b","ios":"levelo://app?vid=ef4d27ab-b94f-4832-b169-415b4741ef5b"},"vehicle_type_id":"4","last_reported":1739722157,"current_range_meters":30800,"station_id":"ce4bhjp2rcd13ifvqg90","pricing_plan_id":"cebpf4jnsgd1na2vs0mg"},{"bike_id":"f0e15311-7300-41c1-aa38-b0373ecc7e52","system_id":"levelo_inurba_marseille","lat":43.24775,"lon":5.37452,"is_reserved":false,"is_disabled":false,"rental_uris":{"android":"levelo://app?vid=f0e15311-7300-41c1-aa38-b0373ecc7e52","ios":"levelo://app?vid=f0e15311-7300-41c1-aa38-b0373ecc7e52"},"vehicle_type_id":"4","last_reported":1739722157,"current_range_meters":30400,"station_id":"ce4bhgh2rcd13ifvqfb0","pricing_plan_id":"cebpf4jnsgd1na2vs0mg"},{"bike_id":"040bf6da-b374-40b3-b70a-0f85f37b58a3","system_id":"levelo_inurba_marseille","lat":43.29268,"lon":5.4014,"is_reserved":false,"is_disabled":true,"rental_uris":{"android":"levelo://app?vid=040bf6da-b374-40b3-b70a-0f85f37b58a3","ios":"levelo://app?vid=040bf6da-b374-40b3-b70a-0f85f37b58a3"},"vehicle_type_id":"4","last_reported":1739722157,"current_range_meters":32400,"station_id":"ce4bh312rcd13ifvqdk0","pricing_plan_id":"cebpf4jnsgd1na2vs0mg"},{"bike_id":"314ecb77-8b90-4fdb-aaf3-bbba8b437b8a","system_id":"levelo_inurba_marseille","lat":43.29069,"lon":5.38034,"is_reserved":false,"is_disabled":false,"rental_uris":{"android":"levelo://app?vid=314ecb77-8b90-4fdb-aaf3-bbba8b437b8a","ios":"levelo://app?vid=314ecb77-8b90-4fdb-aaf3-bbba8b437b8a"},"vehicle_type_id":"4","last_reported":1739722157,"current_range_meters":3200,"station_id":"","pricing_plan_id":"cebpf4jnsgd1na2vs0mg"},{"bike_id":"c389da96-13db-473a-8c31-b761479136fd","system_id":"levelo_inurba_marseille","lat":43.29569,"lon":5.37505,"is_reserved":false,"is_disabled":false,"rental_uris":{"android":"levelo://app?vid=c389da96-13db-473a-8c31-b761479136fd","ios":"levelo://app?vid=c389da96-13db-473a-8c31-b761479136fd"},"vehicle_type_id":"4","last_reported":1739722157,"current_range_meters":37600,"station_id":"ce4bgh92rcd13ifvqb50","pricing_plan_id":"cebpf4jnsgd1na2vs0mg"},{"bike_id":"dce79954-cfb0-4f0b-ab6b-df5e4a7fe493","system_id":"levelo_inurba_marseille","lat":43.29794,"lon":5.38091,"is_reserved":false,"is_disabled":false,"rental_uris":{"android":"levelo://app?vid=dce79954-cfb0-4f0b-ab6b-df5e4a7fe493","ios":"levelo://app?vid=dce79954-cfb0-4f0b-ab6b-df5e4a7fe493"},"vehicle_type_id":"4","last_reported":1739722157,"current_range_meters":30800,"station_id":"ce4bgip2rcd13ifvqbb0","pricing_plan_id":"cebpf4jnsgd1na2vs0mg"},{"bike_id":"b126ba39-6b9a-4714-abbd-dc58f4cb62c0","system_id":"levelo_inurba_marseille","lat":43.27316,"lon":5.39091,"is_reserved":false,"is_disabled":false,"rental_uris":{"android":"levelo://app?vid=b126ba39-6b9a-4714-abbd-dc58f4cb62c0","ios":"levelo://app?vid=b126ba39-6b9a-4714-abbd-dc58f4cb62c0"},"vehicle_type_id":"4","last_reported":1739722157,"current_range_meters":37600,"station_id":"ce4bhgp2rcd13ifvqfe0","pricing_plan_id":"cebpf4jnsgd1na2vs0mg"},{"bike_id":"483fa2cc-f42d-4226-9262-84813876f781","system_id":"levelo_inurba_marseille","lat":43.28847,"lon":5.39289,"is_reserved":false,"is_disabled":false,"rental_uris":{"android":"levelo://app?vid=483fa2cc-f42d-4226-9262-84813876f781","ios":"levelo://app?vid=483fa2cc-f42d-4226-9262-84813876f781"},"vehicle_type_id":"4","last_reported":1739722157,"current_range_meters":23200,"station_id":"ce4bh2p2rcd13ifvqdi0","pricing_plan_id":"cebpf4jnsgd1na2vs0mg"},{"bike_id":"88ef8657-c28d-45e4-b289-a076db7c903a","system_id":"levelo_inurba_marseille","lat":43.30796,"lon":5.3817,"is_reserved":false,"is_disabled":false,"rental_uris":{"android":"levelo://app?vid=88ef8657-c28d-45e4-b289-a076db7c903a","ios":"levelo://app?vid=88ef8657-c28d-45e4-b289-a076db7c903a"},"vehicle_type_id":"4","last_reported":1739722157,"current_range_meters":8400,"station_id":"ce4bgt12rcd13ifvqce0","pricing_plan_id":"cebpf4jnsgd1na2vs0mg"},{"bike_id":"ff426081-3726-4b6c-aa9f-0d0db0cbc7e6","system_id":"levelo_inurba_marseille","lat":43.28033,"lon":5.36945,"is_reserved":false,"is_disabled":false,"rental_uris":{"android":"levelo://app?vid=ff426081-3726-4b6c-aa9f-0d0db0cbc7e6","ios":"levelo://app?vid=ff426081-3726-4b6c-aa9f-0d0db0cbc7e6"},"vehicle_type_id":"4","last_reported":1739722157,"current_range_meters":38800,"station_id":"ce4bha12rcd13ifvqef0","pricing_plan_id":"cebpf4jnsgd1na2vs0mg"},{"bike_id":"fabe41dc-5457-49da-8b86-335ac4434e03","system_id":"levelo_inurba_marseille","lat":43.30611,"lon":5.36605,"is_reserved":false,"is_disabled":false,"rental_uris":{"android":"levelo://app?vid=fabe41dc-5457-49da-8b86-335ac4434e03","ios":"levelo://app?vid=fabe41dc-5457-49da-8b86-335ac4434e03"},"vehicle_type_id":"4","last_reported":1739722157,"current_range_meters":27600,"station_id":"","pricing_plan_id":"cebpf4jnsgd1na2vs0mg"},{"bike_id":"40ca0db2-e7dc-4eb7-8e3e-2e85f8056663","system_id":"levelo_inurba_marseille","lat":43.29874,"lon":5.39745,"is_reserved":false,"is_disabled":false,"rental_uris":{"android":"levelo://app?vid=40ca0db2-e7dc-4eb7-8e3e-2e85f8056663","ios":"levelo://app?vid=40ca0db2-e7dc-4eb7-8e3e-2e85f8056663"},"vehicle_type_id":"4","last_reported":1739722157,"current_range_meters":9200,"station_id":"ce4bh0h2rcd13ifvqd50","pricing_plan_id":"cebpf4jnsgd1na2vs0mg"},{"bike_id":"cdb4d08a-6a26-41f0-a78e-7e2212e04c93","system_id":"levelo_inurba_marseille","lat":43.30144,"lon":5.39854,"is_reserved":false,"is_disabled":false,"rental_uris":{"android":"levelo://app?vid=cdb4d08a-6a26-41f0-a78e-7e2212e04c93","ios":"levelo://app?vid=cdb4d08a-6a26-41f0-a78e-7e2212e04c93"},"vehicle_type_id":"4","last_reported":1739722157,"current_range_meters":35600,"station_id":"ce4bh0h2rcd13ifvqd40","pricing_plan_id":"cebpf4jnsgd1na2vs0mg"},{"bike_id":"4b4152e5-077b-42c5-8e8d-b28186d2d772","system_id":"levelo_inurba_marseille","lat":43.25721,"lon":5.41118,"is_reserved":false,"is_disabled":false,"rental_uris":{"android":"levelo://app?vid=4b4152e5-077b-42c5-8e8d-b28186d2d772","ios":"levelo://app?vid=4b4152e5-077b-42c5-8e8d-b28186d2d772"},"vehicle_type_id":"4","last_reported":1739722157,"current_range_meters":22800,"station_id":"ce4bhkp2rcd13ifvqgd0","pricing_plan_id":"cebpf4jnsgd1na2vs0mg"},{"bike_id":"c7322498-81a4-46c8-b4c9-ec796bfac1e6","system_id":"levelo_inurba_marseille","lat":43.24174,"lon":5.36404,"is_reserved":false,"is_disabled":false,"rental_uris":{"android":"levelo://app?vid=c7322498-81a4-46c8-b4c9-ec796bfac1e6","ios":"levelo://app?vid=c7322498-81a4-46c8-b4c9-ec796bfac1e6"},"vehicle_type_id":"4","last_reported":1739722157,"current_range_meters":35600,"station_id":"cpo36qri1sfpv3e86is0","pricing_plan_id":"cebpf4jnsgd1na2vs0mg"},{"bike_id":"fb97ad5d-8f1a-4a02-a261-31307c09725d","system_id":"levelo_inurba_marseille","lat":43.27624,"lon":5.36098,"is_reserved":false,"is_disabled":false,"rental_uris":{"android":"levelo://app?vid=fb97ad5d-8f1a-4a02-a261-31307c09725d","ios":"levelo://app?vid=fb97ad5d-8f1a-4a02-a261-31307c09725d"},"vehicle_type_id":"4","last_reported":1739722157,"current_range_meters":38800,"station_id":"ce4bgj92rcd13ifvqbe0","pricing_plan_id":"cebpf4jnsgd1na2vs0mg"},{"bike_id":"0594397e-5b4a-4bc1-9dae-734c570709eb","system_id":"levelo_inurba_marseille","lat":43.27814,"lon":5.40699,"is_reserved":false,"is_disabled":false,"rental_uris":{"android":"levelo://app?vid=0594397e-5b4a-4bc1-9dae-734c570709eb","ios":"levelo://app?vid=0594397e-5b4a-4bc1-9dae-734c570709eb"},"vehicle_type_id":"4","last_reported":1739722157,"current_range_meters":6400,"station_id":"ce4bhnh2rcd13ifvqgtg","pricing_plan_id":"cebpf4jnsgd1na2vs0mg"},{"bike_id":"e3081ee2-e43a-4f61-be58-2077b35a209e","system_id":"levelo_inurba_marseille","lat":43.30525,"lon":5.36695,"is_reserved":false,"is_disabled":false,"rental_uris":{"android":"levelo://app?vid=e3081ee2-e43a-4f61-be58-2077b35a209e","ios":"levelo://app?vid=e3081ee2-e43a-4f61-be58-2077b35a209e"},"vehicle_type_id":"4","last_reported":1739722157,"current_range_meters":20800,"station_id":"ce4bgrp2rcd13ifvqc9g","pricing_plan_id":"cebpf4jnsgd1na2vs0mg"},{"bike_id":"3b1d90b5-e968-45ba-9fbb-3d4ba06e5242","system_id":"levelo_inurba_marseille","lat":43.27232,"lon":5.39153,"is_reserved":false,"is_disabled":false,"rental_uris":{"android":"levelo://app?vid=3b1d90b5-e968-45ba-9fbb-3d4ba06e5242","ios":"levelo://app?vid=3b1d90b5-e968-45ba-9fbb-3d4ba06e5242"},"vehicle_type_id":"4","last_reported":1739722157,"current_range_meters":38400,"station_id":"ce4bhhp2rcd13ifvqfm0","pricing_plan_id":"cebpf4jnsgd1na2vs0mg"},{"bike_id":"8b2eb13f-7dfb-45cc-b96e-975347bb3cfd","system_id":"levelo_inurba_marseille","lat":43.25492,"lon":5.41255,"is_reserved":false,"is_disabled":false,"rental_uris":{"android":"levelo://app?vid=8b2eb13f-7dfb-45cc-b96e-975347bb3cfd","ios":"levelo://app?vid=8b2eb13f-7dfb-45cc-b96e-975347bb3cfd"},"vehicle_type_id":"4","last_reported":1739722157,"current_range_meters":14800,"station_id":"","pricing_plan_id":"cebpf4jnsgd1na2vs0mg"},{"bike_id":"b34c6303-752a-46a1-93ad-ddbc991e20b6","system_id":"levelo_inurba_marseille","lat":43.23078,"lon":5.35502,"is_reserved":false,"is_disabled":false,"rental_uris":{"android":"levelo://app?vid=b34c6303-752a-46a1-93ad-ddbc991e20b6","ios":"levelo://app?vid=b34c6303-752a-46a1-93ad-ddbc991e20b6"},"vehicle_type_id":"4","last_reported":1739722157,"current_range_meters":33600,"station_id":"cpo3342slgdg3j2ifvpg","pricing_plan_id":"cebpf4jnsgd1na2vs0mg"},{"bike_id":"f7abcf74-16eb-4369-b6b8-ac0e795f9129","system_id":"levelo_inurba_marseille","lat":43.28157,"lon":5.42654,"is_reserved":false,"is_disabled":false,"rental_uris":{"android":"levelo://app?vid=f7abcf74-16eb-4369-b6b8-ac0e795f9129","ios":"levelo://app?vid=f7abcf74-16eb-4369-b6b8-ac0e795f9129"},"vehicle_type_id":"4","last_reported":1739722157,"current_range_meters":28000,"station_id":"ce4bhnh2rcd13ifvqgug","pricing_plan_id":"cebpf4jnsgd1na2vs0mg"},{"bike_id":"bf193ff4-fe81-4d2b-a128-cfcac2bbb459","system_id":"levelo_inurba_marseille","lat":43.30111,"lon":5.38045,"is_reserved":false,"is_disabled":false,"rental_uris":{"android":"levelo://app?vid=bf193ff4-fe81-4d2b-a128-cfcac2bbb459","ios":"levelo://app?vid=bf193ff4-fe81-4d2b-a128-cfcac2bbb459"},"vehicle_type_id":"4","last_reported":1739722157,"current_range_meters":33200,"station_id":"ce4bgjp2rcd13ifvqbh0","pricing_plan_id":"cebpf4jnsgd1na2vs0mg"},{"bike_id":"bed4de35-ef09-4f9f-a13d-845fdf520d58","system_id":"levelo_inurba_marseille","lat":43.27494,"lon":5.41512,"is_reserved":false,"is_disabled":false,"rental_uris":{"android":"levelo://app?vid=bed4de35-ef09-4f9f-a13d-845fdf520d58","ios":"levelo://app?vid=bed4de35-ef09-4f9f-a13d-845fdf520d58"},"vehicle_type_id":"4","last_reported":1739722157,"current_range_meters":8000,"station_id":"","pricing_plan_id":"cebpf4jnsgd1na2vs0mg"},{"bike_id":"2821d2ff-3fc8-480e-81a3-1928b04e4a1d","system_id":"levelo_inurba_marseille","lat":43.31457,"lon":5.37384,"is_reserved":false,"is_disabled":false,"rental_uris":{"android":"levelo://app?vid=2821d2ff-3fc8-480e-81a3-1928b04e4a1d","ios":"levelo://app?vid=2821d2ff-3fc8-480e-81a3-1928b04e4a1d"},"vehicle_type_id":"4","last_reported":1739722157,"current_range_meters":6000,"station_id":"","pricing_plan_id":"cebpf4jnsgd1na2vs0mg"},{"bike_id":"fd5cebe6-4288-4379-bbb8-1e48a9a687ea","system_id":"levelo_inurba_marseille","lat":43.2796,"lon":5.41044,"is_reserved":false,"is_disabled":false,"rental_uris":{"android":"levelo://app?vid=fd5cebe6-4288-4379-bbb8-1e48a9a687ea","ios":"levelo://app?vid=fd5cebe6-4288-4379-bbb8-1e48a9a687ea"},"vehicle_type_id":"4","last_reported":1739722157,"current_range_meters":12400,"station_id":"ce4bhnp2rcd13ifvqh0g","pricing_plan_id":"cebpf4jnsgd1na2vs0mg"},{"bike_id":"80678878-9ab3-4bb1-b9de-0551f39d87ac","system_id":"levelo_inurba_marseille","lat":43.31173,"lon":5.38717,"is_reserved":false,"is_disabled":false,"rental_uris":{"android":"levelo://app?vid=80678878-9ab3-4bb1-b9de-0551f39d87ac","ios":"levelo://app?vid=80678878-9ab3-4bb1-b9de-0551f39d87ac"},"vehicle_type_id":"4","last_reported":1739722157,"current_range_meters":38800,"station_id":"ce4bgv12rcd13ifvqcp0","pricing_plan_id":"cebpf4jnsgd1na2vs0mg"},{"bike_id":"9cb47887-5af7-45c6-abf3-dea8b4093d8d","system_id":"levelo_inurba_marseille","lat":43.27381,"lon":5.36257,"is_reserved":false,"is_disabled":false,"rental_uris":{"android":"levelo://app?vid=9cb47887-5af7-45c6-abf3-dea8b4093d8d","ios":"levelo://app?vid=9cb47887-5af7-45c6-abf3-dea8b4093d8d"},"vehicle_type_id":"4","last_reported":1739722157,"current_range_meters":38800,"station_id":"ce4bhbh2rcd13ifvqeo0","pricing_plan_id":"cebpf4jnsgd1na2vs0mg"},{"bike_id":"2fc48410-0590-4898-94c2-33854b60c1f7","system_id":"levelo_inurba_marseille","lat":43.26913,"lon":5.4026,"is_reserved":false,"is_disabled":false,"rental_uris":{"android":"levelo://app?vid=2fc48410-0590-4898-94c2-33854b60c1f7","ios":"levelo://app?vid=2fc48410-0590-4898-94c2-33854b60c1f7"},"vehicle_type_id":"4","last_reported":1739722157,"current_range_meters":8800,"station_id":"cjm6bp8fraef2m0cb0m0","pricing_plan_id":"cebpf4jnsgd1na2vs0mg"},{"bike_id":"940ffad1-8d03-466c-a361-1bdb8859eb0e","system_id":"levelo_inurba_marseille","lat":43.28615,"lon":5.35103,"is_reserved":false,"is_disabled":true,"rental_uris":{"android":"levelo://app?vid=940ffad1-8d03-466c-a361-1bdb8859eb0e","ios":"levelo://app?vid=940ffad1-8d03-466c-a361-1bdb8859eb0e"},"vehicle_type_id":"4","last_reported":1739722157,"current_range_meters":0,"station_id":"ce4bhch2rcd13ifvqeug","pricing_plan_id":"cebpf4jnsgd1na2vs0mg"},{"bike_id":"71ee7552-6225-4f21-8301-72c964ebec2d","system_id":"levelo_inurba_marseille","lat":43.2667,"lon":5.38251,"is_reserved":false,"is_disabled":true,"rental_uris":{"android":"levelo://app?vid=71ee7552-6225-4f21-8301-72c964ebec2d","ios":"levelo://app?vid=71ee7552-6225-4f21-8301-72c964ebec2d"},"vehicle_type_id":"4","last_reported":1739722157,"current_range_meters":3600,"station_id":"ce4bhg92rcd13ifvqf90","pricing_plan_id":"cebpf4jnsgd1na2vs0mg"},{"bike_id":"91e20a00-0a61-4c4d-ac1e-de492ad0d12a","system_id":"levelo_inurba_marseille","lat":43.29527,"lon":5.37504,"is_reserved":false,"is_disabled":true,"rental_uris":{"android":"levelo://app?vid=91e20a00-0a61-4c4d-ac1e-de492ad0d12a","ios":"levelo://app?vid=91e20a00-0a61-4c4d-ac1e-de492ad0d12a"},"vehicle_type_id":"4","last_reported":1739722157,"current_range_meters":22000,"station_id":"ce4bgkp2rcd13ifvqbmg","pricing_plan_id":"cebpf4jnsgd1na2vs0mg"},{"bike_id":"86a75285-7243-40ee-925b-d20bf72a6a49","system_id":"levelo_inurba_marseille","lat":43.29829,"lon":5.36244,"is_reserved":false,"is_disabled":false,"rental_uris":{"android":"levelo://app?vid=86a75285-7243-40ee-925b-d20bf72a6a49","ios":"levelo://app?vid=86a75285-7243-40ee-925b-d20bf72a6a49"},"vehicle_type_id":"4","last_reported":1739722157,"current_range_meters":38800,"station_id":"ce4bgpp2rcd13ifvqc3g","pricing_plan_id":"cebpf4jnsgd1na2vs0mg"},{"bike_id":"1f0657bb-7196-41de-84fc-c834bbf90b28","system_id":"levelo_inurba_marseille","lat":43.28084,"lon":5.39655,"is_reserved":false,"is_disabled":true,"rental_uris":{"android":"levelo://app?vid=1f0657bb-7196-41de-84fc-c834bbf90b28","ios":"levelo://app?vid=1f0657bb-7196-41de-84fc-c834bbf90b28"},"vehicle_type_id":"4","last_reported":1739722157,"current_range_meters":38800,"station_id":"ce4bho12rcd13ifvqh2g","pricing_plan_id":"cebpf4jnsgd1na2vs0mg"},{"bike_id":"fff65fd9-0a1b-49b8-b6af-92e0cc313ada","system_id":"levelo_inurba_marseille","lat":43.28282,"lon":5.3507,"is_reserved":false,"is_disabled":false,"rental_uris":{"android":"levelo://app?vid=fff65fd9-0a1b-49b8-b6af-92e0cc313ada","ios":"levelo://app?vid=fff65fd9-0a1b-49b8-b6af-92e0cc313ada"},"vehicle_type_id":"4","last_reported":1739722157,"current_range_meters":36000,"station_id":"ce4bhbp2rcd13ifvqerg","pricing_plan_id":"cebpf4jnsgd1na2vs0mg"},{"bike_id":"e3d7a037-0b75-40e7-ab91-35347f85a4e2","system_id":"levelo_inurba_marseille","lat":43.31486,"lon":5.37301,"is_reserved":false,"is_disabled":false,"rental_uris":{"android":"levelo://app?vid=e3d7a037-0b75-40e7-ab91-35347f85a4e2","ios":"levelo://app?vid=e3d7a037-0b75-40e7-ab91-35347f85a4e2"},"vehicle_type_id":"4","last_reported":1739722157,"current_range_meters":39200,"station_id":"ce4bgt12rcd13ifvqcd0","pricing_plan_id":"cebpf4jnsgd1na2vs0mg"},{"bike_id":"73d4157b-5987-4dc5-af67-da91b6d6afae","system_id":"levelo_inurba_marseille","lat":43.28175,"lon":5.42602,"is_reserved":false,"is_disabled":false,"rental_uris":{"android":"levelo://app?vid=73d4157b-5987-4dc5-af67-da91b6d6afae","ios":"levelo://app?vid=73d4157b-5987-4dc5-af67-da91b6d6afae"},"vehicle_type_id":"4","last_reported":1739722157,"current_range_meters":31200,"station_id":"","pricing_plan_id":"cebpf4jnsgd1na2vs0mg"},{"bike_id":"61061150-1085-4385-9039-15bf9dd0a152","system_id":"levelo_inurba_marseille","lat":43.2989,"lon":5.38912,"is_reserved":false,"is_disabled":false,"rental_uris":{"android":"levelo://app?vid=61061150-1085-4385-9039-15bf9dd0a152","ios":"levelo://app?vid=61061150-1085-4385-9039-15bf9dd0a152"},"vehicle_type_id":"4","last_reported":1739722157,"current_range_meters":21600,"station_id":"ce4bh392rcd13ifvqdl0","pricing_plan_id":"cebpf4jnsgd1na2vs0mg"},{"bike_id":"eefc27d8-676a-4c5c-a366-bc84419fd441","system_id":"levelo_inurba_marseille","lat":43.24789,"lon":5.37468,"is_reserved":false,"is_disabled":false,"rental_uris":{"android":"levelo://app?vid=eefc27d8-676a-4c5c-a366-bc84419fd441","ios":"levelo://app?vid=eefc27d8-676a-4c5c-a366-bc84419fd441"},"vehicle_type_id":"4","last_reported":1739722157,"current_range_meters":30800,"station_id":"ce4bhgh2rcd13ifvqfb0","pricing_plan_id":"cebpf4jnsgd1na2vs0mg"},{"bike_id":"f92e748a-9f9b-4e54-8084-07e33515f3d5","system_id":"levelo_inurba_marseille","lat":43.27071,"lon":5.39347,"is_reserved":false,"is_disabled":true,"rental_uris":{"android":"levelo://app?vid=f92e748a-9f9b-4e54-8084-07e33515f3d5","ios":"levelo://app?vid=f92e748a-9f9b-4e54-8084-07e33515f3d5"},"vehicle_type_id":"4","last_reported":1739722157,"current_range_meters":0,"station_id":"","pricing_plan_id":"cebpf4jnsgd1na2vs0mg"},{"bike_id":"3ac6818e-1ef6-4d16-b8a9-4acf2de1e5be","system_id":"levelo_inurba_marseille","lat":43.28416,"lon":5.37544,"is_reserved":false,"is_disabled":false,"rental_uris":{"android":"levelo://app?vid=3ac6818e-1ef6-4d16-b8a9-4acf2de1e5be","ios":"levelo://app?vid=3ac6818e-1ef6-4d16-b8a9-4acf2de1e5be"},"vehicle_type_id":"4","last_reported":1739722157,"current_range_meters":38800,"station_id":"ce4bh412rcd13ifvqds0","pricing_plan_id":"cebpf4jnsgd1na2vs0mg"},{"bike_id":"61ec3990-f400-41c2-8c38-bad2baef6327","system_id":"levelo_inurba_marseille","lat":43.24812,"lon":5.37455,"is_reserved":false,"is_disabled":false,"rental_uris":{"android":"levelo://app?vid=61ec3990-f400-41c2-8c38-bad2baef6327","ios":"levelo://app?vid=61ec3990-f400-41c2-8c38-bad2baef6327"},"vehicle_type_id":"4","last_reported":1739722157,"current_range_meters":39200,"station_id":"ce4bhgh2rcd13ifvqfb0","pricing_plan_id":"cebpf4jnsgd1na2vs0mg"},{"bike_id":"88539771-5398-42a3-9172-91077d2a9d20","system_id":"levelo_inurba_marseille","lat":43.29268,"lon":5.38444,"is_reserved":false,"is_disabled":false,"rental_uris":{"android":"levelo://app?vid=88539771-5398-42a3-9172-91077d2a9d20","ios":"levelo://app?vid=88539771-5398-42a3-9172-91077d2a9d20"},"vehicle_type_id":"4","last_reported":1739722157,"current_range_meters":24800,"station_id":"ce4bh692rcd13ifvqea0","pricing_plan_id":"cebpf4jnsgd1na2vs0mg"},{"bike_id":"f2e397f8-ff48-4b1f-8a2e-a344091709af","system_id":"levelo_inurba_marseille","lat":43.25115,"lon":5.40323,"is_reserved":false,"is_disabled":false,"rental_uris":{"android":"levelo://app?vid=f2e397f8-ff48-4b1f-8a2e-a344091709af","ios":"levelo://app?vid=f2e397f8-ff48-4b1f-8a2e-a344091709af"},"vehicle_type_id":"4","last_reported":1739722157,"current_range_meters":38000,"station_id":"ce4bhlh2rcd13ifvqgig","pricing_plan_id":"cebpf4jnsgd1na2vs0mg"},{"bike_id":"03fc20f8-b315-450e-ad24-184e1add660d","system_id":"levelo_inurba_marseille","lat":43.30151,"lon":5.38076,"is_reserved":false,"is_disabled":true,"rental_uris":{"android":"levelo://app?vid=03fc20f8-b315-450e-ad24-184e1add660d","ios":"levelo://app?vid=03fc20f8-b315-450e-ad24-184e1add660d"},"vehicle_type_id":"4","last_reported":1739722157,"current_range_meters":800,"station_id":"ce4bgjp2rcd13ifvqbh0","pricing_plan_id":"cebpf4jnsgd1na2vs0mg"},{"bike_id":"9cf8e6d9-67b8-441b-8ab4-08ef8560d2b0","system_id":"levelo_inurba_marseille","lat":43.33514,"lon":5.35585,"is_reserved":false,"is_disabled":true,"rental_uris":{"android":"levelo://app?vid=9cf8e6d9-67b8-441b-8ab4-08ef8560d2b0","ios":"levelo://app?vid=9cf8e6d9-67b8-441b-8ab4-08ef8560d2b0"},"vehicle_type_id":"4","last_reported":1739722157,"current_range_meters":0,"station_id":"","pricing_plan_id":"cebpf4jnsgd1na2vs0mg"},{"bike_id":"d72273c0-cb9b-4126-aead-6a0be5d81c4f","system_id":"levelo_inurba_marseille","lat":43.27566,"lon":5.38412,"is_reserved":false,"is_disabled":false,"rental_uris":{"android":"levelo://app?vid=d72273c0-cb9b-4126-aead-6a0be5d81c4f","ios":"levelo://app?vid=d72273c0-cb9b-4126-aead-6a0be5d81c4f"},"vehicle_type_id":"4","last_reported":1739722157,"current_range_meters":28800,"station_id":"ce4bhh92rcd13ifvqfi0","pricing_plan_id":"cebpf4jnsgd1na2vs0mg"},{"bike_id":"a71291fe-2d2d-4ab3-8d51-39f3ffe7f7cf","system_id":"levelo_inurba_marseille","lat":43.27252,"lon":5.39252,"is_reserved":false,"is_disabled":false,"rental_uris":{"android":"levelo://app?vid=a71291fe-2d2d-4ab3-8d51-39f3ffe7f7cf","ios":"levelo://app?vid=a71291fe-2d2d-4ab3-8d51-39f3ffe7f7cf"},"vehicle_type_id":"4","last_reported":1739722157,"current_range_meters":18000,"station_id":"","pricing_plan_id":"cebpf4jnsgd1na2vs0mg"},{"bike_id":"22b3d8d8-cd28-4d50-aa6a-f446caf29582","system_id":"levelo_inurba_marseille","lat":43.2738,"lon":5.36255,"is_reserved":false,"is_disabled":false,"rental_uris":{"android":"levelo://app?vid=22b3d8d8-cd28-4d50-aa6a-f446caf29582","ios":"levelo://app?vid=22b3d8d8-cd28-4d50-aa6a-f446caf29582"},"vehicle_type_id":"4","last_reported":1739722157,"current_range_meters":17600,"station_id":"ce4bhbh2rcd13ifvqeo0","pricing_plan_id":"cebpf4jnsgd1na2vs0mg"},{"bike_id":"9dfc1ba2-ff2b-463b-aec7-ebd5fd259047","system_id":"levelo_inurba_marseille","lat":43.27623,"lon":5.36125,"is_reserved":false,"is_disabled":false,"rental_uris":{"android":"levelo://app?vid=9dfc1ba2-ff2b-463b-aec7-ebd5fd259047","ios":"levelo://app?vid=9dfc1ba2-ff2b-463b-aec7-ebd5fd259047"},"vehicle_type_id":"4","last_reported":1739722157,"current_range_meters":31200,"station_id":"ce4bgj92rcd13ifvqbe0","pricing_plan_id":"cebpf4jnsgd1na2vs0mg"},{"bike_id":"699b4ead-7083-4b29-85c3-471cfd54f9e5","system_id":"levelo_inurba_marseille","lat":43.2981,"lon":5.40412,"is_reserved":false,"is_disabled":true,"rental_uris":{"android":"levelo://app?vid=699b4ead-7083-4b29-85c3-471cfd54f9e5","ios":"levelo://app?vid=699b4ead-7083-4b29-85c3-471cfd54f9e5"},"vehicle_type_id":"4","last_reported":1739722157,"current_range_meters":35600,"station_id":"ce4bh112rcd13ifvqd90","pricing_plan_id":"cebpf4jnsgd1na2vs0mg"},{"bike_id":"0287f0d7-f1be-4f59-9230-c953775628db","system_id":"levelo_inurba_marseille","lat":43.32341,"lon":5.40626,"is_reserved":false,"is_disabled":false,"rental_uris":{"android":"levelo://app?vid=0287f0d7-f1be-4f59-9230-c953775628db","ios":"levelo://app?vid=0287f0d7-f1be-4f59-9230-c953775628db"},"vehicle_type_id":"4","last_reported":1739722157,"current_range_meters":14800,"station_id":"ce4bhq92rcd13ifvqhjg","pricing_plan_id":"cebpf4jnsgd1na2vs0mg"},{"bike_id":"51ab7186-5043-4bed-baca-73708608a302","system_id":"levelo_inurba_marseille","lat":43.29584,"lon":5.37026,"is_reserved":false,"is_disabled":true,"rental_uris":{"android":"levelo://app?vid=51ab7186-5043-4bed-baca-73708608a302","ios":"levelo://app?vid=51ab7186-5043-4bed-baca-73708608a302"},"vehicle_type_id":"4","last_reported":1739722157,"current_range_meters":0,"station_id":"","pricing_plan_id":"cebpf4jnsgd1na2vs0mg"},{"bike_id":"531a091b-154a-43d9-9e20-b1d20d99fe62","system_id":"levelo_inurba_marseille","lat":43.30522,"lon":5.36682,"is_reserved":false,"is_disabled":false,"rental_uris":{"android":"levelo://app?vid=531a091b-154a-43d9-9e20-b1d20d99fe62","ios":"levelo://app?vid=531a091b-154a-43d9-9e20-b1d20d99fe62"},"vehicle_type_id":"4","last_reported":1739722157,"current_range_meters":36000,"station_id":"ce4bgrp2rcd13ifvqc9g","pricing_plan_id":"cebpf4jnsgd1na2vs0mg"},{"bike_id":"9fdb08b8-1ceb-474a-abf2-04c699884b4a","system_id":"levelo_inurba_marseille","lat":43.23198,"lon":5.35559,"is_reserved":false,"is_disabled":false,"rental_uris":{"android":"levelo://app?vid=9fdb08b8-1ceb-474a-abf2-04c699884b4a","ios":"levelo://app?vid=9fdb08b8-1ceb-474a-abf2-04c699884b4a"},"vehicle_type_id":"4","last_reported":1739722157,"current_range_meters":36800,"station_id":"ce4bhu92rcd13ifvqi70","pricing_plan_id":"cebpf4jnsgd1na2vs0mg"},{"bike_id":"485502f3-3b80-4687-aac8-10dc57118684","system_id":"levelo_inurba_marseille","lat":43.26232,"lon":5.40458,"is_reserved":false,"is_disabled":false,"rental_uris":{"android":"levelo://app?vid=485502f3-3b80-4687-aac8-10dc57118684","ios":"levelo://app?vid=485502f3-3b80-4687-aac8-10dc57118684"},"vehicle_type_id":"4","last_reported":1739722157,"current_range_meters":9200,"station_id":"ce4bhmh2rcd13ifvqgmg","pricing_plan_id":"cebpf4jnsgd1na2vs0mg"},{"bike_id":"20aa5b23-fbe5-4790-ad90-ddc22f8f839f","system_id":"levelo_inurba_marseille","lat":43.24177,"lon":5.36394,"is_reserved":false,"is_disabled":false,"rental_uris":{"android":"levelo://app?vid=20aa5b23-fbe5-4790-ad90-ddc22f8f839f","ios":"levelo://app?vid=20aa5b23-fbe5-4790-ad90-ddc22f8f839f"},"vehicle_type_id":"4","last_reported":1739722157,"current_range_meters":28000,"station_id":"cpo36qri1sfpv3e86is0","pricing_plan_id":"cebpf4jnsgd1na2vs0mg"},{"bike_id":"253291d1-b2ec-48ca-999d-f150d4ba8e4a","system_id":"levelo_inurba_marseille","lat":43.30893,"lon":5.37181,"is_reserved":false,"is_disabled":false,"rental_uris":{"android":"levelo://app?vid=253291d1-b2ec-48ca-999d-f150d4ba8e4a","ios":"levelo://app?vid=253291d1-b2ec-48ca-999d-f150d4ba8e4a"},"vehicle_type_id":"4","last_reported":1739722157,"current_range_meters":38000,"station_id":"ce4bguh2rcd13ifvqckg","pricing_plan_id":"cebpf4jnsgd1na2vs0mg"},{"bike_id":"2d744cd1-8083-459a-b942-57bd28387959","system_id":"levelo_inurba_marseille","lat":43.25582,"lon":5.38249,"is_reserved":false,"is_disabled":false,"rental_uris":{"android":"levelo://app?vid=2d744cd1-8083-459a-b942-57bd28387959","ios":"levelo://app?vid=2d744cd1-8083-459a-b942-57bd28387959"},"vehicle_type_id":"4","last_reported":1739722157,"current_range_meters":20400,"station_id":"ce4bhih2rcd13ifvqfs0","pricing_plan_id":"cebpf4jnsgd1na2vs0mg"},{"bike_id":"c40e2cb9-b89c-4dbd-956b-535ef79f1d37","system_id":"levelo_inurba_marseille","lat":43.24815,"lon":5.37461,"is_reserved":false,"is_disabled":false,"rental_uris":{"android":"levelo://app?vid=c40e2cb9-b89c-4dbd-956b-535ef79f1d37","ios":"levelo://app?vid=c40e2cb9-b89c-4dbd-956b-535ef79f1d37"},"vehicle_type_id":"4","last_reported":1739722157,"current_range_meters":18000,"station_id":"ce4bhgh2rcd13ifvqfb0","pricing_plan_id":"cebpf4jnsgd1na2vs0mg"},{"bike_id":"621aa48b-6d99-46c4-b886-2c6eb903854e","system_id":"levelo_inurba_marseille","lat":43.29282,"lon":5.36822,"is_reserved":false,"is_disabled":true,"rental_uris":{"android":"levelo://app?vid=621aa48b-6d99-46c4-b886-2c6eb903854e","ios":"levelo://app?vid=621aa48b-6d99-46c4-b886-2c6eb903854e"},"vehicle_type_id":"4","last_reported":1739722157,"current_range_meters":28000,"station_id":"ce4bhbp2rcd13ifvqesg","pricing_plan_id":"cebpf4jnsgd1na2vs0mg"},{"bike_id":"12c43980-9318-46e3-9bc5-5834e627f3ce","system_id":"levelo_inurba_marseille","lat":43.29296,"lon":5.37464,"is_reserved":false,"is_disabled":false,"rental_uris":{"android":"levelo://app?vid=12c43980-9318-46e3-9bc5-5834e627f3ce","ios":"levelo://app?vid=12c43980-9318-46e3-9bc5-5834e627f3ce"},"vehicle_type_id":"4","last_reported":1739722157,"current_range_meters":22800,"station_id":"ce4bgi12rcd13ifvqb70","pricing_plan_id":"cebpf4jnsgd1na2vs0mg"},{"bike_id":"09effd58-aa9c-48b2-8d43-6b983ff7db11","system_id":"levelo_inurba_marseille","lat":43.32662,"lon":5.41002,"is_reserved":false,"is_disabled":false,"rental_uris":{"android":"levelo://app?vid=09effd58-aa9c-48b2-8d43-6b983ff7db11","ios":"levelo://app?vid=09effd58-aa9c-48b2-8d43-6b983ff7db11"},"vehicle_type_id":"4","last_reported":1739722157,"current_range_meters":38800,"station_id":"ce4bhpp2rcd13ifvqhgg","pricing_plan_id":"cebpf4jnsgd1na2vs0mg"},{"bike_id":"4afd05b5-41e1-4012-b907-304d88773920","system_id":"levelo_inurba_marseille","lat":43.239632,"lon":5.366303,"is_reserved":false,"is_disabled":false,"rental_uris":{"android":"levelo://app?vid=4afd05b5-41e1-4012-b907-304d88773920","ios":"levelo://app?vid=4afd05b5-41e1-4012-b907-304d88773920"},"vehicle_type_id":"4","last_reported":1739722157,"current_range_meters":36000,"station_id":"ce4bhi12rcd13ifvqfp0","pricing_plan_id":"cebpf4jnsgd1na2vs0mg"},{"bike_id":"981b4c06-d6c6-4c97-8db8-0837343d75bf","system_id":"levelo_inurba_marseille","lat":43.281,"lon":5.37885,"is_reserved":false,"is_disabled":false,"rental_uris":{"android":"levelo://app?vid=981b4c06-d6c6-4c97-8db8-0837343d75bf","ios":"levelo://app?vid=981b4c06-d6c6-4c97-8db8-0837343d75bf"},"vehicle_type_id":"4","last_reported":1739722157,"current_range_meters":28400,"station_id":"ce4bha12rcd13ifvqee0","pricing_plan_id":"cebpf4jnsgd1na2vs0mg"},{"bike_id":"af02ac68-734a-4337-a76f-2d6f15936fdf","system_id":"levelo_inurba_marseille","lat":43.28113,"lon":5.42683,"is_reserved":false,"is_disabled":false,"rental_uris":{"android":"levelo://app?vid=af02ac68-734a-4337-a76f-2d6f15936fdf","ios":"levelo://app?vid=af02ac68-734a-4337-a76f-2d6f15936fdf"},"vehicle_type_id":"4","last_reported":1739722157,"current_range_meters":26800,"station_id":"","pricing_plan_id":"cebpf4jnsgd1na2vs0mg"},{"bike_id":"43ec994c-10a4-4d54-9bed-1a4d24f03236","system_id":"levelo_inurba_marseille","lat":43.28727,"lon":5.36092,"is_reserved":false,"is_disabled":false,"rental_uris":{"android":"levelo://app?vid=43ec994c-10a4-4d54-9bed-1a4d24f03236","ios":"levelo://app?vid=43ec994c-10a4-4d54-9bed-1a4d24f03236"},"vehicle_type_id":"4","last_reported":1739722157,"current_range_meters":18000,"station_id":"cki0cbj6b192h4jlfktg","pricing_plan_id":"cebpf4jnsgd1na2vs0mg"},{"bike_id":"ce69f08a-f654-416f-a0c8-3b25f918be1f","system_id":"levelo_inurba_marseille","lat":43.28271,"lon":5.35075,"is_reserved":false,"is_disabled":false,"rental_uris":{"android":"levelo://app?vid=ce69f08a-f654-416f-a0c8-3b25f918be1f","ios":"levelo://app?vid=ce69f08a-f654-416f-a0c8-3b25f918be1f"},"vehicle_type_id":"4","last_reported":1739722157,"current_range_meters":24400,"station_id":"ce4bhbp2rcd13ifvqerg","pricing_plan_id":"cebpf4jnsgd1na2vs0mg"},{"bike_id":"9936bf9d-59bc-4aef-ba87-3c19f942e233","system_id":"levelo_inurba_marseille","lat":43.29843,"lon":5.36274,"is_reserved":false,"is_disabled":false,"rental_uris":{"android":"levelo://app?vid=9936bf9d-59bc-4aef-ba87-3c19f942e233","ios":"levelo://app?vid=9936bf9d-59bc-4aef-ba87-3c19f942e233"},"vehicle_type_id":"4","last_reported":1739722157,"current_range_meters":29600,"station_id":"ce4bgpp2rcd13ifvqc3g","pricing_plan_id":"cebpf4jnsgd1na2vs0mg"},{"bike_id":"d7fe5b47-0e63-4dd5-af94-e3f7fdb5c0f4","system_id":"levelo_inurba_marseille","lat":43.3054,"lon":5.38446,"is_reserved":false,"is_disabled":false,"rental_uris":{"android":"levelo://app?vid=d7fe5b47-0e63-4dd5-af94-e3f7fdb5c0f4","ios":"levelo://app?vid=d7fe5b47-0e63-4dd5-af94-e3f7fdb5c0f4"},"vehicle_type_id":"4","last_reported":1739722157,"current_range_meters":38800,"station_id":"ce4bgg92rcd13ifvqb30","pricing_plan_id":"cebpf4jnsgd1na2vs0mg"},{"bike_id":"3ce3dae2-ed5f-43cb-bad9-b317ce2471d9","system_id":"levelo_inurba_marseille","lat":43.2482,"lon":5.37463,"is_reserved":false,"is_disabled":false,"rental_uris":{"android":"levelo://app?vid=3ce3dae2-ed5f-43cb-bad9-b317ce2471d9","ios":"levelo://app?vid=3ce3dae2-ed5f-43cb-bad9-b317ce2471d9"},"vehicle_type_id":"4","last_reported":1739722157,"current_range_meters":36800,"station_id":"ce4bhgh2rcd13ifvqfb0","pricing_plan_id":"cebpf4jnsgd1na2vs0mg"},{"bike_id":"397f7144-3e20-4f61-9149-2720265fc375","system_id":"levelo_inurba_marseille","lat":43.24028,"lon":5.3785,"is_reserved":false,"is_disabled":false,"rental_uris":{"android":"levelo://app?vid=397f7144-3e20-4f61-9149-2720265fc375","ios":"levelo://app?vid=397f7144-3e20-4f61-9149-2720265fc375"},"vehicle_type_id":"4","last_reported":1739722157,"current_range_meters":34800,"station_id":"","pricing_plan_id":"cebpf4jnsgd1na2vs0mg"},{"bike_id":"a518a4a9-ded6-4352-b925-28c0c91aa8d4","system_id":"levelo_inurba_marseille","lat":43.28704,"lon":5.37921,"is_reserved":false,"is_disabled":false,"rental_uris":{"android":"levelo://app?vid=a518a4a9-ded6-4352-b925-28c0c91aa8d4","ios":"levelo://app?vid=a518a4a9-ded6-4352-b925-28c0c91aa8d4"},"vehicle_type_id":"4","last_reported":1739722157,"current_range_meters":6400,"station_id":"ce4bh9p2rcd13ifvqec0","pricing_plan_id":"cebpf4jnsgd1na2vs0mg"},{"bike_id":"cede1289-389f-43d9-bcd3-77c59f1eec85","system_id":"levelo_inurba_marseille","lat":43.24804,"lon":5.37455,"is_reserved":false,"is_disabled":false,"rental_uris":{"android":"levelo://app?vid=cede1289-389f-43d9-bcd3-77c59f1eec85","ios":"levelo://app?vid=cede1289-389f-43d9-bcd3-77c59f1eec85"},"vehicle_type_id":"4","last_reported":1739722157,"current_range_meters":30000,"station_id":"ce4bhgh2rcd13ifvqfb0","pricing_plan_id":"cebpf4jnsgd1na2vs0mg"},{"bike_id":"1e8762ac-28bc-4816-b74a-e44e16861ee0","system_id":"levelo_inurba_marseille","lat":43.27616,"lon":5.36111,"is_reserved":false,"is_disabled":false,"rental_uris":{"android":"levelo://app?vid=1e8762ac-28bc-4816-b74a-e44e16861ee0","ios":"levelo://app?vid=1e8762ac-28bc-4816-b74a-e44e16861ee0"},"vehicle_type_id":"4","last_reported":1739722157,"current_range_meters":9200,"station_id":"ce4bgj92rcd13ifvqbe0","pricing_plan_id":"cebpf4jnsgd1na2vs0mg"},{"bike_id":"2acf52b6-cedf-41fb-bae7-76987c9bb455","system_id":"levelo_inurba_marseille","lat":43.30215,"lon":5.39468,"is_reserved":false,"is_disabled":false,"rental_uris":{"android":"levelo://app?vid=2acf52b6-cedf-41fb-bae7-76987c9bb455","ios":"levelo://app?vid=2acf52b6-cedf-41fb-bae7-76987c9bb455"},"vehicle_type_id":"4","last_reported":1739722157,"current_range_meters":39200,"station_id":"ce4bh0p2rcd13ifvqd70","pricing_plan_id":"cebpf4jnsgd1na2vs0mg"},{"bike_id":"096cce60-0829-49bc-8eae-6de0b9ab82c5","system_id":"levelo_inurba_marseille","lat":43.30544,"lon":5.3842,"is_reserved":false,"is_disabled":false,"rental_uris":{"android":"levelo://app?vid=096cce60-0829-49bc-8eae-6de0b9ab82c5","ios":"levelo://app?vid=096cce60-0829-49bc-8eae-6de0b9ab82c5"},"vehicle_type_id":"4","last_reported":1739722157,"current_range_meters":12800,"station_id":"ce4bgg92rcd13ifvqb30","pricing_plan_id":"cebpf4jnsgd1na2vs0mg"},{"bike_id":"f8ad061a-5383-45a6-8d13-4675755e1cf7","system_id":"levelo_inurba_marseille","lat":43.28441,"lon":5.39211,"is_reserved":false,"is_disabled":false,"rental_uris":{"android":"levelo://app?vid=f8ad061a-5383-45a6-8d13-4675755e1cf7","ios":"levelo://app?vid=f8ad061a-5383-45a6-8d13-4675755e1cf7"},"vehicle_type_id":"4","last_reported":1739722157,"current_range_meters":36800,"station_id":"ce4bhoh2rcd13ifvqh5g","pricing_plan_id":"cebpf4jnsgd1na2vs0mg"},{"bike_id":"d505ae6b-8401-49d2-a7e3-85c98bc77f1c","system_id":"levelo_inurba_marseille","lat":43.32347,"lon":5.40633,"is_reserved":false,"is_disabled":false,"rental_uris":{"android":"levelo://app?vid=d505ae6b-8401-49d2-a7e3-85c98bc77f1c","ios":"levelo://app?vid=d505ae6b-8401-49d2-a7e3-85c98bc77f1c"},"vehicle_type_id":"4","last_reported":1739722157,"current_range_meters":18800,"station_id":"ce4bhq92rcd13ifvqhjg","pricing_plan_id":"cebpf4jnsgd1na2vs0mg"},{"bike_id":"9ef51e36-6b91-4370-b608-25268899d671","system_id":"levelo_inurba_marseille","lat":43.27809,"lon":5.40729,"is_reserved":false,"is_disabled":false,"rental_uris":{"android":"levelo://app?vid=9ef51e36-6b91-4370-b608-25268899d671","ios":"levelo://app?vid=9ef51e36-6b91-4370-b608-25268899d671"},"vehicle_type_id":"4","last_reported":1739722157,"current_range_meters":22400,"station_id":"ce4bhnh2rcd13ifvqgtg","pricing_plan_id":"cebpf4jnsgd1na2vs0mg"},{"bike_id":"6408b994-ae56-4e32-95b9-cb0502299b0f","system_id":"levelo_inurba_marseille","lat":43.29552,"lon":5.42289,"is_reserved":false,"is_disabled":false,"rental_uris":{"android":"levelo://app?vid=6408b994-ae56-4e32-95b9-cb0502299b0f","ios":"levelo://app?vid=6408b994-ae56-4e32-95b9-cb0502299b0f"},"vehicle_type_id":"4","last_reported":1739722157,"current_range_meters":37600,"station_id":"ce4bhph2rcd13ifvqhdg","pricing_plan_id":"cebpf4jnsgd1na2vs0mg"},{"bike_id":"0fb477a7-1eb0-47ce-9e15-77231931a16a","system_id":"levelo_inurba_marseille","lat":43.23197,"lon":5.39987,"is_reserved":false,"is_disabled":false,"rental_uris":{"android":"levelo://app?vid=0fb477a7-1eb0-47ce-9e15-77231931a16a","ios":"levelo://app?vid=0fb477a7-1eb0-47ce-9e15-77231931a16a"},"vehicle_type_id":"4","last_reported":1739722157,"current_range_meters":28800,"station_id":"ce4bhn12rcd13ifvqgqg","pricing_plan_id":"cebpf4jnsgd1na2vs0mg"},{"bike_id":"982c499f-f482-40de-b19f-0c738b7d10ae","system_id":"levelo_inurba_marseille","lat":43.24809,"lon":5.3746,"is_reserved":false,"is_disabled":false,"rental_uris":{"android":"levelo://app?vid=982c499f-f482-40de-b19f-0c738b7d10ae","ios":"levelo://app?vid=982c499f-f482-40de-b19f-0c738b7d10ae"},"vehicle_type_id":"4","last_reported":1739722157,"current_range_meters":39200,"station_id":"ce4bhgh2rcd13ifvqfb0","pricing_plan_id":"cebpf4jnsgd1na2vs0mg"},{"bike_id":"98f62326-8a26-4889-8233-3fa661e57e03","system_id":"levelo_inurba_marseille","lat":43.25106,"lon":5.40329,"is_reserved":false,"is_disabled":false,"rental_uris":{"android":"levelo://app?vid=98f62326-8a26-4889-8233-3fa661e57e03","ios":"levelo://app?vid=98f62326-8a26-4889-8233-3fa661e57e03"},"vehicle_type_id":"4","last_reported":1739722157,"current_range_meters":8000,"station_id":"ce4bhlh2rcd13ifvqgig","pricing_plan_id":"cebpf4jnsgd1na2vs0mg"},{"bike_id":"f364e7fd-b7af-4331-9c85-154b4666d931","system_id":"levelo_inurba_marseille","lat":43.28419,"lon":5.34994,"is_reserved":false,"is_disabled":true,"rental_uris":{"android":"levelo://app?vid=f364e7fd-b7af-4331-9c85-154b4666d931","ios":"levelo://app?vid=f364e7fd-b7af-4331-9c85-154b4666d931"},"vehicle_type_id":"4","last_reported":1739722157,"current_range_meters":0,"station_id":"ce4bhbh2rcd13ifvqepg","pricing_plan_id":"cebpf4jnsgd1na2vs0mg"},{"bike_id":"7fdf9d59-bbd3-4b7a-a1f7-b353d0cd3d2f","system_id":"levelo_inurba_marseille","lat":43.26202,"lon":5.37933,"is_reserved":false,"is_disabled":false,"rental_uris":{"android":"levelo://app?vid=7fdf9d59-bbd3-4b7a-a1f7-b353d0cd3d2f","ios":"levelo://app?vid=7fdf9d59-bbd3-4b7a-a1f7-b353d0cd3d2f"},"vehicle_type_id":"4","last_reported":1739722157,"current_range_meters":27600,"station_id":"ce4bhjp2rcd13ifvqg90","pricing_plan_id":"cebpf4jnsgd1na2vs0mg"},{"bike_id":"74da08ec-62ce-47e2-9666-d39d953c05b5","system_id":"levelo_inurba_marseille","lat":43.27071,"lon":5.42283,"is_reserved":false,"is_disabled":false,"rental_uris":{"android":"levelo://app?vid=74da08ec-62ce-47e2-9666-d39d953c05b5","ios":"levelo://app?vid=74da08ec-62ce-47e2-9666-d39d953c05b5"},"vehicle_type_id":"4","last_reported":1739722157,"current_range_meters":38800,"station_id":"ce4bhk92rcd13ifvqgb0","pricing_plan_id":"cebpf4jnsgd1na2vs0mg"},{"bike_id":"7df33989-9cd1-4583-a90f-25c190f648b5","system_id":"levelo_inurba_marseille","lat":43.29393,"lon":5.3861,"is_reserved":false,"is_disabled":false,"rental_uris":{"android":"levelo://app?vid=7df33989-9cd1-4583-a90f-25c190f648b5","ios":"levelo://app?vid=7df33989-9cd1-4583-a90f-25c190f648b5"},"vehicle_type_id":"4","last_reported":1739722157,"current_range_meters":29600,"station_id":"ce4bh2h2rcd13ifvqdh0","pricing_plan_id":"cebpf4jnsgd1na2vs0mg"},{"bike_id":"20dca62c-279f-4d77-befc-f9aa410b4d31","system_id":"levelo_inurba_marseille","lat":43.24675,"lon":5.38153,"is_reserved":false,"is_disabled":false,"rental_uris":{"android":"levelo://app?vid=20dca62c-279f-4d77-befc-f9aa410b4d31","ios":"levelo://app?vid=20dca62c-279f-4d77-befc-f9aa410b4d31"},"vehicle_type_id":"4","last_reported":1739722157,"current_range_meters":38800,"station_id":"ce4bhih2rcd13ifvqfr0","pricing_plan_id":"cebpf4jnsgd1na2vs0mg"},{"bike_id":"5ed3970c-4f22-4b23-bb7a-40f175ae48ca","system_id":"levelo_inurba_marseille","lat":43.25507,"lon":5.37654,"is_reserved":false,"is_disabled":false,"rental_uris":{"android":"levelo://app?vid=5ed3970c-4f22-4b23-bb7a-40f175ae48ca","ios":"levelo://app?vid=5ed3970c-4f22-4b23-bb7a-40f175ae48ca"},"vehicle_type_id":"4","last_reported":1739722157,"current_range_meters":31200,"station_id":"ce4bhh12rcd13ifvqff0","pricing_plan_id":"cebpf4jnsgd1na2vs0mg"},{"bike_id":"30ea1aa1-f18a-46ba-baa0-81223557424e","system_id":"levelo_inurba_marseille","lat":43.27616,"lon":5.36128,"is_reserved":false,"is_disabled":false,"rental_uris":{"android":"levelo://app?vid=30ea1aa1-f18a-46ba-baa0-81223557424e","ios":"levelo://app?vid=30ea1aa1-f18a-46ba-baa0-81223557424e"},"vehicle_type_id":"4","last_reported":1739722157,"current_range_meters":28800,"station_id":"ce4bgj92rcd13ifvqbe0","pricing_plan_id":"cebpf4jnsgd1na2vs0mg"},{"bike_id":"23b444ef-90ed-4509-b4a2-cce013b96af6","system_id":"levelo_inurba_marseille","lat":43.28423,"lon":5.34979,"is_reserved":false,"is_disabled":false,"rental_uris":{"android":"levelo://app?vid=23b444ef-90ed-4509-b4a2-cce013b96af6","ios":"levelo://app?vid=23b444ef-90ed-4509-b4a2-cce013b96af6"},"vehicle_type_id":"4","last_reported":1739722157,"current_range_meters":28000,"station_id":"ce4bhbh2rcd13ifvqepg","pricing_plan_id":"cebpf4jnsgd1na2vs0mg"},{"bike_id":"43a8e59d-5741-42c6-ba88-b5cc51c0b599","system_id":"levelo_inurba_marseille","lat":43.2979,"lon":5.37117,"is_reserved":false,"is_disabled":false,"rental_uris":{"android":"levelo://app?vid=43a8e59d-5741-42c6-ba88-b5cc51c0b599","ios":"levelo://app?vid=43a8e59d-5741-42c6-ba88-b5cc51c0b599"},"vehicle_type_id":"4","last_reported":1739722157,"current_range_meters":38800,"station_id":"ce4bgop2rcd13ifvqc1g","pricing_plan_id":"cebpf4jnsgd1na2vs0mg"},{"bike_id":"281b84f3-58f9-4822-a666-06aa2e562366","system_id":"levelo_inurba_marseille","lat":43.24171,"lon":5.36393,"is_reserved":false,"is_disabled":false,"rental_uris":{"android":"levelo://app?vid=281b84f3-58f9-4822-a666-06aa2e562366","ios":"levelo://app?vid=281b84f3-58f9-4822-a666-06aa2e562366"},"vehicle_type_id":"4","last_reported":1739722157,"current_range_meters":26000,"station_id":"cpo36qri1sfpv3e86is0","pricing_plan_id":"cebpf4jnsgd1na2vs0mg"},{"bike_id":"f58c78ee-fb4b-4848-9574-1fd30425a15a","system_id":"levelo_inurba_marseille","lat":43.3249,"lon":5.36557,"is_reserved":false,"is_disabled":false,"rental_uris":{"android":"levelo://app?vid=f58c78ee-fb4b-4848-9574-1fd30425a15a","ios":"levelo://app?vid=f58c78ee-fb4b-4848-9574-1fd30425a15a"},"vehicle_type_id":"4","last_reported":1739722157,"current_range_meters":30400,"station_id":"ce4bhs12rcd13ifvqhvg","pricing_plan_id":"cebpf4jnsgd1na2vs0mg"},{"bike_id":"ee069be6-3a8c-4ac9-8a80-68bc230d39f8","system_id":"levelo_inurba_marseille","lat":43.30549,"lon":5.36526,"is_reserved":false,"is_disabled":false,"rental_uris":{"android":"levelo://app?vid=ee069be6-3a8c-4ac9-8a80-68bc230d39f8","ios":"levelo://app?vid=ee069be6-3a8c-4ac9-8a80-68bc230d39f8"},"vehicle_type_id":"4","last_reported":1739722157,"current_range_meters":26000,"station_id":"ce4bgs12rcd13ifvqcag","pricing_plan_id":"cebpf4jnsgd1na2vs0mg"},{"bike_id":"329b4c1e-592a-4ffe-ae81-ec7ba711d3e5","system_id":"levelo_inurba_marseille","lat":43.30406,"lon":5.4129,"is_reserved":false,"is_disabled":false,"rental_uris":{"android":"levelo://app?vid=329b4c1e-592a-4ffe-ae81-ec7ba711d3e5","ios":"levelo://app?vid=329b4c1e-592a-4ffe-ae81-ec7ba711d3e5"},"vehicle_type_id":"4","last_reported":1739722157,"current_range_meters":10000,"station_id":"ce4bhop2rcd13ifvqh8g","pricing_plan_id":"cebpf4jnsgd1na2vs0mg"},{"bike_id":"acf6c382-cdef-4532-8434-d5f329ac1ec8","system_id":"levelo_inurba_marseille","lat":43.26063,"lon":5.39401,"is_reserved":false,"is_disabled":false,"rental_uris":{"android":"levelo://app?vid=acf6c382-cdef-4532-8434-d5f329ac1ec8","ios":"levelo://app?vid=acf6c382-cdef-4532-8434-d5f329ac1ec8"},"vehicle_type_id":"4","last_reported":1739722157,"current_range_meters":32800,"station_id":"ce4bhh92rcd13ifvqfj0","pricing_plan_id":"cebpf4jnsgd1na2vs0mg"},{"bike_id":"1d722f76-07ad-4900-8419-8cea6952c36c","system_id":"levelo_inurba_marseille","lat":43.28851,"lon":5.39302,"is_reserved":false,"is_disabled":false,"rental_uris":{"android":"levelo://app?vid=1d722f76-07ad-4900-8419-8cea6952c36c","ios":"levelo://app?vid=1d722f76-07ad-4900-8419-8cea6952c36c"},"vehicle_type_id":"4","last_reported":1739722157,"current_range_meters":32400,"station_id":"ce4bh2p2rcd13ifvqdi0","pricing_plan_id":"cebpf4jnsgd1na2vs0mg"},{"bike_id":"917b1dc0-adb2-4903-84ef-22990e0daa55","system_id":"levelo_inurba_marseille","lat":43.30409,"lon":5.41277,"is_reserved":false,"is_disabled":false,"rental_uris":{"android":"levelo://app?vid=917b1dc0-adb2-4903-84ef-22990e0daa55","ios":"levelo://app?vid=917b1dc0-adb2-4903-84ef-22990e0daa55"},"vehicle_type_id":"4","last_reported":1739722157,"current_range_meters":32800,"station_id":"ce4bhop2rcd13ifvqh8g","pricing_plan_id":"cebpf4jnsgd1na2vs0mg"},{"bike_id":"e20a9c4a-de4c-4253-b210-4f5418f1d15f","system_id":"levelo_inurba_marseille","lat":43.25503,"lon":5.37643,"is_reserved":false,"is_disabled":false,"rental_uris":{"android":"levelo://app?vid=e20a9c4a-de4c-4253-b210-4f5418f1d15f","ios":"levelo://app?vid=e20a9c4a-de4c-4253-b210-4f5418f1d15f"},"vehicle_type_id":"4","last_reported":1739722157,"current_range_meters":32400,"station_id":"ce4bhh12rcd13ifvqff0","pricing_plan_id":"cebpf4jnsgd1na2vs0mg"},{"bike_id":"03eba1d0-92c1-4e6e-a4d0-7c546f2439c0","system_id":"levelo_inurba_marseille","lat":43.337444,"lon":5.374475,"is_reserved":false,"is_disabled":true,"rental_uris":{"android":"levelo://app?vid=03eba1d0-92c1-4e6e-a4d0-7c546f2439c0","ios":"levelo://app?vid=03eba1d0-92c1-4e6e-a4d0-7c546f2439c0"},"vehicle_type_id":"4","last_reported":1739722157,"current_range_meters":0,"station_id":"","pricing_plan_id":"cebpf4jnsgd1na2vs0mg"},{"bike_id":"7670b8ae-6f61-4d26-b077-17100b95f8ab","system_id":"levelo_inurba_marseille","lat":43.28437,"lon":5.39188,"is_reserved":false,"is_disabled":true,"rental_uris":{"android":"levelo://app?vid=7670b8ae-6f61-4d26-b077-17100b95f8ab","ios":"levelo://app?vid=7670b8ae-6f61-4d26-b077-17100b95f8ab"},"vehicle_type_id":"4","last_reported":1739722157,"current_range_meters":28000,"station_id":"ce4bhoh2rcd13ifvqh5g","pricing_plan_id":"cebpf4jnsgd1na2vs0mg"},{"bike_id":"653b3681-8d49-4063-97bd-177fe11162f9","system_id":"levelo_inurba_marseille","lat":43.25502,"lon":5.37659,"is_reserved":false,"is_disabled":true,"rental_uris":{"android":"levelo://app?vid=653b3681-8d49-4063-97bd-177fe11162f9","ios":"levelo://app?vid=653b3681-8d49-4063-97bd-177fe11162f9"},"vehicle_type_id":"4","last_reported":1739722157,"current_range_meters":32000,"station_id":"ce4bhh12rcd13ifvqff0","pricing_plan_id":"cebpf4jnsgd1na2vs0mg"},{"bike_id":"be937df8-c21a-44e4-9b5c-6c9d236f3d9c","system_id":"levelo_inurba_marseille","lat":43.3269,"lon":5.39015,"is_reserved":false,"is_disabled":false,"rental_uris":{"android":"levelo://app?vid=be937df8-c21a-44e4-9b5c-6c9d236f3d9c","ios":"levelo://app?vid=be937df8-c21a-44e4-9b5c-6c9d236f3d9c"},"vehicle_type_id":"4","last_reported":1739722157,"current_range_meters":38400,"station_id":"","pricing_plan_id":"cebpf4jnsgd1na2vs0mg"},{"bike_id":"dc8f3a1c-f2fe-4b0d-b970-db9c4df9a40d","system_id":"levelo_inurba_marseille","lat":43.28424,"lon":5.3499,"is_reserved":false,"is_disabled":false,"rental_uris":{"android":"levelo://app?vid=dc8f3a1c-f2fe-4b0d-b970-db9c4df9a40d","ios":"levelo://app?vid=dc8f3a1c-f2fe-4b0d-b970-db9c4df9a40d"},"vehicle_type_id":"4","last_reported":1739722157,"current_range_meters":24800,"station_id":"ce4bhbh2rcd13ifvqepg","pricing_plan_id":"cebpf4jnsgd1na2vs0mg"},{"bike_id":"8c6e1647-a201-42d6-9e2c-07bf21681fa3","system_id":"levelo_inurba_marseille","lat":43.31901,"lon":5.4075,"is_reserved":false,"is_disabled":true,"rental_uris":{"android":"levelo://app?vid=8c6e1647-a201-42d6-9e2c-07bf21681fa3","ios":"levelo://app?vid=8c6e1647-a201-42d6-9e2c-07bf21681fa3"},"vehicle_type_id":"4","last_reported":1739722157,"current_range_meters":16800,"station_id":"ce4bhq12rcd13ifvqhig","pricing_plan_id":"cebpf4jnsgd1na2vs0mg"},{"bike_id":"8af6a0eb-291f-4479-b0a6-75360abce119","system_id":"levelo_inurba_marseille","lat":43.30474,"lon":5.37901,"is_reserved":false,"is_disabled":true,"rental_uris":{"android":"levelo://app?vid=8af6a0eb-291f-4479-b0a6-75360abce119","ios":"levelo://app?vid=8af6a0eb-291f-4479-b0a6-75360abce119"},"vehicle_type_id":"4","last_reported":1739722157,"current_range_meters":400,"station_id":"ce4bgup2rcd13ifvqcn0","pricing_plan_id":"cebpf4jnsgd1na2vs0mg"},{"bike_id":"d7bb91c7-1e6c-4011-85a2-08678dbfba66","system_id":"levelo_inurba_marseille","lat":43.244,"lon":5.37065,"is_reserved":false,"is_disabled":false,"rental_uris":{"android":"levelo://app?vid=d7bb91c7-1e6c-4011-85a2-08678dbfba66","ios":"levelo://app?vid=d7bb91c7-1e6c-4011-85a2-08678dbfba66"},"vehicle_type_id":"4","last_reported":1739722157,"current_range_meters":38000,"station_id":"ce4bhhh2rcd13ifvqfk0","pricing_plan_id":"cebpf4jnsgd1na2vs0mg"},{"bike_id":"36d3504e-5361-430c-b3be-ab96da17eb8b","system_id":"levelo_inurba_marseille","lat":43.24804,"lon":5.37454,"is_reserved":false,"is_disabled":false,"rental_uris":{"android":"levelo://app?vid=36d3504e-5361-430c-b3be-ab96da17eb8b","ios":"levelo://app?vid=36d3504e-5361-430c-b3be-ab96da17eb8b"},"vehicle_type_id":"4","last_reported":1739722157,"current_range_meters":28400,"station_id":"ce4bhgh2rcd13ifvqfb0","pricing_plan_id":"cebpf4jnsgd1na2vs0mg"},{"bike_id":"69212e97-c072-42e9-a25b-70fa634360c2","system_id":"levelo_inurba_marseille","lat":43.307962,"lon":5.4353,"is_reserved":false,"is_disabled":true,"rental_uris":{"android":"levelo://app?vid=69212e97-c072-42e9-a25b-70fa634360c2","ios":"levelo://app?vid=69212e97-c072-42e9-a25b-70fa634360c2"},"vehicle_type_id":"4","last_reported":1739722157,"current_range_meters":0,"station_id":"ce4bhph2rcd13ifvqheg","pricing_plan_id":"cebpf4jnsgd1na2vs0mg"},{"bike_id":"1f52f3b3-3e4c-4076-9fe5-f4b3bb4b252a","system_id":"levelo_inurba_marseille","lat":43.27497,"lon":5.43503,"is_reserved":false,"is_disabled":true,"rental_uris":{"android":"levelo://app?vid=1f52f3b3-3e4c-4076-9fe5-f4b3bb4b252a","ios":"levelo://app?vid=1f52f3b3-3e4c-4076-9fe5-f4b3bb4b252a"},"vehicle_type_id":"4","last_reported":1739722157,"current_range_meters":0,"station_id":"","pricing_plan_id":"cebpf4jnsgd1na2vs0mg"},{"bike_id":"7810399a-aba8-4931-8563-2a4f4266c078","system_id":"levelo_inurba_marseille","lat":43.25112,"lon":5.40315,"is_reserved":false,"is_disabled":false,"rental_uris":{"android":"levelo://app?vid=7810399a-aba8-4931-8563-2a4f4266c078","ios":"levelo://app?vid=7810399a-aba8-4931-8563-2a4f4266c078"},"vehicle_type_id":"4","last_reported":1739722157,"current_range_meters":8800,"station_id":"ce4bhlh2rcd13ifvqgig","pricing_plan_id":"cebpf4jnsgd1na2vs0mg"},{"bike_id":"8c2cb4e7-cc7a-458e-beca-ed80b12306ff","system_id":"levelo_inurba_marseille","lat":43.30141,"lon":5.39874,"is_reserved":false,"is_disabled":true,"rental_uris":{"android":"levelo://app?vid=8c2cb4e7-cc7a-458e-beca-ed80b12306ff","ios":"levelo://app?vid=8c2cb4e7-cc7a-458e-beca-ed80b12306ff"},"vehicle_type_id":"4","last_reported":1739722157,"current_range_meters":0,"station_id":"ce4bh0h2rcd13ifvqd40","pricing_plan_id":"cebpf4jnsgd1na2vs0mg"},{"bike_id":"bd1fbd17-5ecd-4c2a-9290-d1ffd1a70214","system_id":"levelo_inurba_marseille","lat":43.2955,"lon":5.42292,"is_reserved":false,"is_disabled":false,"rental_uris":{"android":"levelo://app?vid=bd1fbd17-5ecd-4c2a-9290-d1ffd1a70214","ios":"levelo://app?vid=bd1fbd17-5ecd-4c2a-9290-d1ffd1a70214"},"vehicle_type_id":"4","last_reported":1739722157,"current_range_meters":28000,"station_id":"ce4bhph2rcd13ifvqhdg","pricing_plan_id":"cebpf4jnsgd1na2vs0mg"},{"bike_id":"eba64546-1cbc-4d7b-8882-c25c381d7137","system_id":"levelo_inurba_marseille","lat":43.2792,"lon":5.39582,"is_reserved":false,"is_disabled":false,"rental_uris":{"android":"levelo://app?vid=eba64546-1cbc-4d7b-8882-c25c381d7137","ios":"levelo://app?vid=eba64546-1cbc-4d7b-8882-c25c381d7137"},"vehicle_type_id":"4","last_reported":1739722157,"current_range_meters":31200,"station_id":"ce4bhf92rcd13ifvqf40","pricing_plan_id":"cebpf4jnsgd1na2vs0mg"},{"bike_id":"7c4f2369-2e96-414d-a611-cb9cff86f7df","system_id":"levelo_inurba_marseille","lat":43.29841,"lon":5.36267,"is_reserved":false,"is_disabled":false,"rental_uris":{"android":"levelo://app?vid=7c4f2369-2e96-414d-a611-cb9cff86f7df","ios":"levelo://app?vid=7c4f2369-2e96-414d-a611-cb9cff86f7df"},"vehicle_type_id":"4","last_reported":1739722157,"current_range_meters":37600,"station_id":"ce4bgpp2rcd13ifvqc3g","pricing_plan_id":"cebpf4jnsgd1na2vs0mg"},{"bike_id":"d2e01317-2950-420e-b1aa-8f1e4398c1e8","system_id":"levelo_inurba_marseille","lat":43.23199,"lon":5.35561,"is_reserved":false,"is_disabled":false,"rental_uris":{"android":"levelo://app?vid=d2e01317-2950-420e-b1aa-8f1e4398c1e8","ios":"levelo://app?vid=d2e01317-2950-420e-b1aa-8f1e4398c1e8"},"vehicle_type_id":"4","last_reported":1739722157,"current_range_meters":38800,"station_id":"ce4bhu92rcd13ifvqi70","pricing_plan_id":"cebpf4jnsgd1na2vs0mg"},{"bike_id":"99b60497-417a-4e6c-9e27-ce3655ce5e57","system_id":"levelo_inurba_marseille","lat":43.30656,"lon":5.40089,"is_reserved":false,"is_disabled":true,"rental_uris":{"android":"levelo://app?vid=99b60497-417a-4e6c-9e27-ce3655ce5e57","ios":"levelo://app?vid=99b60497-417a-4e6c-9e27-ce3655ce5e57"},"vehicle_type_id":"4","last_reported":1739722157,"current_range_meters":24400,"station_id":"ce4bh112rcd13ifvqda0","pricing_plan_id":"cebpf4jnsgd1na2vs0mg"},{"bike_id":"46c2cbdb-b65c-47ae-a545-b75ce2d68824","system_id":"levelo_inurba_marseille","lat":43.23964,"lon":5.36628,"is_reserved":false,"is_disabled":false,"rental_uris":{"android":"levelo://app?vid=46c2cbdb-b65c-47ae-a545-b75ce2d68824","ios":"levelo://app?vid=46c2cbdb-b65c-47ae-a545-b75ce2d68824"},"vehicle_type_id":"4","last_reported":1739722157,"current_range_meters":8800,"station_id":"ce4bhi12rcd13ifvqfp0","pricing_plan_id":"cebpf4jnsgd1na2vs0mg"},{"bike_id":"68e091eb-0298-4cb5-b5eb-8dfc36218da6","system_id":"levelo_inurba_marseille","lat":43.23192,"lon":5.40013,"is_reserved":false,"is_disabled":false,"rental_uris":{"android":"levelo://app?vid=68e091eb-0298-4cb5-b5eb-8dfc36218da6","ios":"levelo://app?vid=68e091eb-0298-4cb5-b5eb-8dfc36218da6"},"vehicle_type_id":"4","last_reported":1739722157,"current_range_meters":38800,"station_id":"ce4bhn12rcd13ifvqgqg","pricing_plan_id":"cebpf4jnsgd1na2vs0mg"},{"bike_id":"d63b7867-53a4-4bca-be72-b856d1cbea50","system_id":"levelo_inurba_marseille","lat":43.23983,"lon":5.36585,"is_reserved":false,"is_disabled":false,"rental_uris":{"android":"levelo://app?vid=d63b7867-53a4-4bca-be72-b856d1cbea50","ios":"levelo://app?vid=d63b7867-53a4-4bca-be72-b856d1cbea50"},"vehicle_type_id":"4","last_reported":1739722157,"current_range_meters":19600,"station_id":"ce4bhi12rcd13ifvqfp0","pricing_plan_id":"cebpf4jnsgd1na2vs0mg"},{"bike_id":"f2f58283-0629-4ca3-b469-34c3eee038f6","system_id":"levelo_inurba_marseille","lat":43.31469,"lon":5.37277,"is_reserved":false,"is_disabled":false,"rental_uris":{"android":"levelo://app?vid=f2f58283-0629-4ca3-b469-34c3eee038f6","ios":"levelo://app?vid=f2f58283-0629-4ca3-b469-34c3eee038f6"},"vehicle_type_id":"4","last_reported":1739722157,"current_range_meters":37600,"station_id":"ce4bgt12rcd13ifvqcd0","pricing_plan_id":"cebpf4jnsgd1na2vs0mg"},{"bike_id":"57a5c251-6123-470e-813e-a9340a0256fe","system_id":"levelo_inurba_marseille","lat":43.24166,"lon":5.36392,"is_reserved":false,"is_disabled":false,"rental_uris":{"android":"levelo://app?vid=57a5c251-6123-470e-813e-a9340a0256fe","ios":"levelo://app?vid=57a5c251-6123-470e-813e-a9340a0256fe"},"vehicle_type_id":"4","last_reported":1739722157,"current_range_meters":6800,"station_id":"cpo36qri1sfpv3e86is0","pricing_plan_id":"cebpf4jnsgd1na2vs0mg"},{"bike_id":"c313f6ec-b1e9-47e7-bd2d-73a989510546","system_id":"levelo_inurba_marseille","lat":43.28932,"lon":5.36627,"is_reserved":false,"is_disabled":true,"rental_uris":{"android":"levelo://app?vid=c313f6ec-b1e9-47e7-bd2d-73a989510546","ios":"levelo://app?vid=c313f6ec-b1e9-47e7-bd2d-73a989510546"},"vehicle_type_id":"4","last_reported":1739722157,"current_range_meters":2000,"station_id":"ce4bhap2rcd13ifvqek0","pricing_plan_id":"cebpf4jnsgd1na2vs0mg"},{"bike_id":"67f019f9-95c5-443c-938c-e2f0fd51c56d","system_id":"levelo_inurba_marseille","lat":43.26207,"lon":5.37443,"is_reserved":false,"is_disabled":false,"rental_uris":{"android":"levelo://app?vid=67f019f9-95c5-443c-938c-e2f0fd51c56d","ios":"levelo://app?vid=67f019f9-95c5-443c-938c-e2f0fd51c56d"},"vehicle_type_id":"4","last_reported":1739722157,"current_range_meters":4800,"station_id":"ce4bhgp2rcd13ifvqfc0","pricing_plan_id":"cebpf4jnsgd1na2vs0mg"},{"bike_id":"02db7a28-fc2d-4a4a-92a0-cec040e64718","system_id":"levelo_inurba_marseille","lat":43.23959,"lon":5.36644,"is_reserved":false,"is_disabled":true,"rental_uris":{"android":"levelo://app?vid=02db7a28-fc2d-4a4a-92a0-cec040e64718","ios":"levelo://app?vid=02db7a28-fc2d-4a4a-92a0-cec040e64718"},"vehicle_type_id":"4","last_reported":1739722157,"current_range_meters":4000,"station_id":"ce4bhi12rcd13ifvqfp0","pricing_plan_id":"cebpf4jnsgd1na2vs0mg"},{"bike_id":"385b3b5d-772a-4add-86f9-f81b2d43c945","system_id":"levelo_inurba_marseille","lat":43.28622,"lon":5.3511,"is_reserved":false,"is_disabled":false,"rental_uris":{"android":"levelo://app?vid=385b3b5d-772a-4add-86f9-f81b2d43c945","ios":"levelo://app?vid=385b3b5d-772a-4add-86f9-f81b2d43c945"},"vehicle_type_id":"4","last_reported":1739722157,"current_range_meters":18800,"station_id":"ce4bhch2rcd13ifvqeug","pricing_plan_id":"cebpf4jnsgd1na2vs0mg"},{"bike_id":"6f820518-8b07-484a-8c43-5d5451e338e7","system_id":"levelo_inurba_marseille","lat":43.231995,"lon":5.355585,"is_reserved":false,"is_disabled":false,"rental_uris":{"android":"levelo://app?vid=6f820518-8b07-484a-8c43-5d5451e338e7","ios":"levelo://app?vid=6f820518-8b07-484a-8c43-5d5451e338e7"},"vehicle_type_id":"4","last_reported":1739722157,"current_range_meters":28800,"station_id":"ce4bhu92rcd13ifvqi70","pricing_plan_id":"cebpf4jnsgd1na2vs0mg"},{"bike_id":"e9df70a0-1b8c-4c51-a61c-68ff2e71de13","system_id":"levelo_inurba_marseille","lat":43.23096,"lon":5.35539,"is_reserved":false,"is_disabled":true,"rental_uris":{"android":"levelo://app?vid=e9df70a0-1b8c-4c51-a61c-68ff2e71de13","ios":"levelo://app?vid=e9df70a0-1b8c-4c51-a61c-68ff2e71de13"},"vehicle_type_id":"4","last_reported":1739722157,"current_range_meters":0,"station_id":"","pricing_plan_id":"cebpf4jnsgd1na2vs0mg"},{"bike_id":"0dba2114-f2ab-4953-beac-69fa74da7b08","system_id":"levelo_inurba_marseille","lat":43.28274,"lon":5.35075,"is_reserved":false,"is_disabled":false,"rental_uris":{"android":"levelo://app?vid=0dba2114-f2ab-4953-beac-69fa74da7b08","ios":"levelo://app?vid=0dba2114-f2ab-4953-beac-69fa74da7b08"},"vehicle_type_id":"4","last_reported":1739722157,"current_range_meters":38800,"station_id":"ce4bhbp2rcd13ifvqerg","pricing_plan_id":"cebpf4jnsgd1na2vs0mg"},{"bike_id":"a3b76a23-e719-4cac-9132-63d31b15a8de","system_id":"levelo_inurba_marseille","lat":43.24166,"lon":5.36389,"is_reserved":false,"is_disabled":false,"rental_uris":{"android":"levelo://app?vid=a3b76a23-e719-4cac-9132-63d31b15a8de","ios":"levelo://app?vid=a3b76a23-e719-4cac-9132-63d31b15a8de"},"vehicle_type_id":"4","last_reported":1739722157,"current_range_meters":25200,"station_id":"cpo36qri1sfpv3e86is0","pricing_plan_id":"cebpf4jnsgd1na2vs0mg"},{"bike_id":"6e123ec3-5ea7-4c33-99a0-b721914bbe0a","system_id":"levelo_inurba_marseille","lat":43.30244,"lon":5.40046,"is_reserved":false,"is_disabled":false,"rental_uris":{"android":"levelo://app?vid=6e123ec3-5ea7-4c33-99a0-b721914bbe0a","ios":"levelo://app?vid=6e123ec3-5ea7-4c33-99a0-b721914bbe0a"},"vehicle_type_id":"4","last_reported":1739722157,"current_range_meters":24800,"station_id":"ce4bgvh2rcd13ifvqcs0","pricing_plan_id":"cebpf4jnsgd1na2vs0mg"},{"bike_id":"59a3973b-3df3-4b2e-b9d1-91351b2918ab","system_id":"levelo_inurba_marseille","lat":43.30313,"lon":5.36897,"is_reserved":false,"is_disabled":false,"rental_uris":{"android":"levelo://app?vid=59a3973b-3df3-4b2e-b9d1-91351b2918ab","ios":"levelo://app?vid=59a3973b-3df3-4b2e-b9d1-91351b2918ab"},"vehicle_type_id":"4","last_reported":1739722157,"current_range_meters":30400,"station_id":"ce4bgqh2rcd13ifvqc5g","pricing_plan_id":"cebpf4jnsgd1na2vs0mg"},{"bike_id":"fe0f12a8-8d62-4d79-b629-bda6901e6297","system_id":"levelo_inurba_marseille","lat":43.2694,"lon":5.40269,"is_reserved":false,"is_disabled":true,"rental_uris":{"android":"levelo://app?vid=fe0f12a8-8d62-4d79-b629-bda6901e6297","ios":"levelo://app?vid=fe0f12a8-8d62-4d79-b629-bda6901e6297"},"vehicle_type_id":"4","last_reported":1739722157,"current_range_meters":27200,"station_id":"cjm6bp8fraef2m0cb0m0","pricing_plan_id":"cebpf4jnsgd1na2vs0mg"},{"bike_id":"cfbe67cf-6420-4945-9471-2d464aa6fcd4","system_id":"levelo_inurba_marseille","lat":43.278282,"lon":5.391924,"is_reserved":false,"is_disabled":true,"rental_uris":{"android":"levelo://app?vid=cfbe67cf-6420-4945-9471-2d464aa6fcd4","ios":"levelo://app?vid=cfbe67cf-6420-4945-9471-2d464aa6fcd4"},"vehicle_type_id":"4","last_reported":1739722157,"current_range_meters":3200,"station_id":"ce4bhjp2rcd13ifvqga0","pricing_plan_id":"cebpf4jnsgd1na2vs0mg"},{"bike_id":"2d1a0294-4315-4a6d-9042-006493c526cd","system_id":"levelo_inurba_marseille","lat":43.29576,"lon":5.40644,"is_reserved":false,"is_disabled":true,"rental_uris":{"android":"levelo://app?vid=2d1a0294-4315-4a6d-9042-006493c526cd","ios":"levelo://app?vid=2d1a0294-4315-4a6d-9042-006493c526cd"},"vehicle_type_id":"4","last_reported":1739722157,"current_range_meters":2000,"station_id":"","pricing_plan_id":"cebpf4jnsgd1na2vs0mg"},{"bike_id":"49a07f27-4f26-4e50-960f-047ea1c15b6b","system_id":"levelo_inurba_marseille","lat":43.26942,"lon":5.40254,"is_reserved":false,"is_disabled":false,"rental_uris":{"android":"levelo://app?vid=49a07f27-4f26-4e50-960f-047ea1c15b6b","ios":"levelo://app?vid=49a07f27-4f26-4e50-960f-047ea1c15b6b"},"vehicle_type_id":"4","last_reported":1739722157,"current_range_meters":6400,"station_id":"cjm6bp8fraef2m0cb0m0","pricing_plan_id":"cebpf4jnsgd1na2vs0mg"},{"bike_id":"47ee4aaa-bb1e-4980-82a2-958700d4c8f8","system_id":"levelo_inurba_marseille","lat":43.31119,"lon":5.37759,"is_reserved":false,"is_disabled":false,"rental_uris":{"android":"levelo://app?vid=47ee4aaa-bb1e-4980-82a2-958700d4c8f8","ios":"levelo://app?vid=47ee4aaa-bb1e-4980-82a2-958700d4c8f8"},"vehicle_type_id":"4","last_reported":1739722157,"current_range_meters":6000,"station_id":"ce4bgt92rcd13ifvqcg0","pricing_plan_id":"cebpf4jnsgd1na2vs0mg"},{"bike_id":"2339a573-141d-4db3-9681-b4c828787fd7","system_id":"levelo_inurba_marseille","lat":43.25048,"lon":5.38971,"is_reserved":false,"is_disabled":false,"rental_uris":{"android":"levelo://app?vid=2339a573-141d-4db3-9681-b4c828787fd7","ios":"levelo://app?vid=2339a573-141d-4db3-9681-b4c828787fd7"},"vehicle_type_id":"4","last_reported":1739722157,"current_range_meters":24800,"station_id":"ce4bhgp2rcd13ifvqfd0","pricing_plan_id":"cebpf4jnsgd1na2vs0mg"},{"bike_id":"9f912eed-51aa-49cb-84a4-977637263173","system_id":"levelo_inurba_marseille","lat":43.29909,"lon":5.38066,"is_reserved":false,"is_disabled":false,"rental_uris":{"android":"levelo://app?vid=9f912eed-51aa-49cb-84a4-977637263173","ios":"levelo://app?vid=9f912eed-51aa-49cb-84a4-977637263173"},"vehicle_type_id":"4","last_reported":1739722157,"current_range_meters":22000,"station_id":"","pricing_plan_id":"cebpf4jnsgd1na2vs0mg"},{"bike_id":"0da5cc83-ffcd-4b31-842c-57738460f182","system_id":"levelo_inurba_marseille","lat":43.26559,"lon":5.39016,"is_reserved":false,"is_disabled":true,"rental_uris":{"android":"levelo://app?vid=0da5cc83-ffcd-4b31-842c-57738460f182","ios":"levelo://app?vid=0da5cc83-ffcd-4b31-842c-57738460f182"},"vehicle_type_id":"4","last_reported":1739722157,"current_range_meters":1600,"station_id":"ce4bhe12rcd13ifvqf30","pricing_plan_id":"cebpf4jnsgd1na2vs0mg"},{"bike_id":"1228b73a-dfcc-4fd2-bdf9-fbc56581a0da","system_id":"levelo_inurba_marseille","lat":43.28999,"lon":5.35617,"is_reserved":false,"is_disabled":false,"rental_uris":{"android":"levelo://app?vid=1228b73a-dfcc-4fd2-bdf9-fbc56581a0da","ios":"levelo://app?vid=1228b73a-dfcc-4fd2-bdf9-fbc56581a0da"},"vehicle_type_id":"4","last_reported":1739722157,"current_range_meters":24800,"station_id":"ce4bhb92rcd13ifvqen0","pricing_plan_id":"cebpf4jnsgd1na2vs0mg"},{"bike_id":"f1720bd8-037e-456e-b90b-e4d5a11b1f13","system_id":"levelo_inurba_marseille","lat":43.26942,"lon":5.40249,"is_reserved":false,"is_disabled":false,"rental_uris":{"android":"levelo://app?vid=f1720bd8-037e-456e-b90b-e4d5a11b1f13","ios":"levelo://app?vid=f1720bd8-037e-456e-b90b-e4d5a11b1f13"},"vehicle_type_id":"4","last_reported":1739722157,"current_range_meters":38800,"station_id":"cjm6bp8fraef2m0cb0m0","pricing_plan_id":"cebpf4jnsgd1na2vs0mg"},{"bike_id":"8621d022-da1c-42eb-90b3-f13a75064284","system_id":"levelo_inurba_marseille","lat":43.29878,"lon":5.36304,"is_reserved":false,"is_disabled":false,"rental_uris":{"android":"levelo://app?vid=8621d022-da1c-42eb-90b3-f13a75064284","ios":"levelo://app?vid=8621d022-da1c-42eb-90b3-f13a75064284"},"vehicle_type_id":"4","last_reported":1739722157,"current_range_meters":38800,"station_id":"ce4bgpp2rcd13ifvqc3g","pricing_plan_id":"cebpf4jnsgd1na2vs0mg"},{"bike_id":"7a0af00a-8def-4635-82a8-022bf0808853","system_id":"levelo_inurba_marseille","lat":43.29201,"lon":5.35812,"is_reserved":false,"is_disabled":false,"rental_uris":{"android":"levelo://app?vid=7a0af00a-8def-4635-82a8-022bf0808853","ios":"levelo://app?vid=7a0af00a-8def-4635-82a8-022bf0808853"},"vehicle_type_id":"4","last_reported":1739722157,"current_range_meters":38000,"station_id":"ce4bhb12rcd13ifvqel0","pricing_plan_id":"cebpf4jnsgd1na2vs0mg"},{"bike_id":"62afc9be-5e3b-4a10-8f6e-d16bc24315f0","system_id":"levelo_inurba_marseille","lat":43.24396,"lon":5.37041,"is_reserved":false,"is_disabled":false,"rental_uris":{"android":"levelo://app?vid=62afc9be-5e3b-4a10-8f6e-d16bc24315f0","ios":"levelo://app?vid=62afc9be-5e3b-4a10-8f6e-d16bc24315f0"},"vehicle_type_id":"4","last_reported":1739722157,"current_range_meters":28000,"station_id":"ce4bhhh2rcd13ifvqfk0","pricing_plan_id":"cebpf4jnsgd1na2vs0mg"},{"bike_id":"d511c3fa-d5f4-4a0f-91ee-268d02b5310f","system_id":"levelo_inurba_marseille","lat":43.28613,"lon":5.35102,"is_reserved":false,"is_disabled":true,"rental_uris":{"android":"levelo://app?vid=d511c3fa-d5f4-4a0f-91ee-268d02b5310f","ios":"levelo://app?vid=d511c3fa-d5f4-4a0f-91ee-268d02b5310f"},"vehicle_type_id":"4","last_reported":1739722157,"current_range_meters":16000,"station_id":"ce4bhch2rcd13ifvqeug","pricing_plan_id":"cebpf4jnsgd1na2vs0mg"},{"bike_id":"8652458a-2d0b-40be-a9ce-5a586c3d14e4","system_id":"levelo_inurba_marseille","lat":43.23964,"lon":5.36632,"is_reserved":false,"is_disabled":false,"rental_uris":{"android":"levelo://app?vid=8652458a-2d0b-40be-a9ce-5a586c3d14e4","ios":"levelo://app?vid=8652458a-2d0b-40be-a9ce-5a586c3d14e4"},"vehicle_type_id":"4","last_reported":1739722157,"current_range_meters":20000,"station_id":"ce4bhi12rcd13ifvqfp0","pricing_plan_id":"cebpf4jnsgd1na2vs0mg"},{"bike_id":"3df4de29-1374-452a-8e2b-394432d7986b","system_id":"levelo_inurba_marseille","lat":43.26959,"lon":5.38635,"is_reserved":false,"is_disabled":false,"rental_uris":{"android":"levelo://app?vid=3df4de29-1374-452a-8e2b-394432d7986b","ios":"levelo://app?vid=3df4de29-1374-452a-8e2b-394432d7986b"},"vehicle_type_id":"4","last_reported":1739722157,"current_range_meters":37600,"station_id":"ce4bhh92rcd13ifvqfh0","pricing_plan_id":"cebpf4jnsgd1na2vs0mg"},{"bike_id":"f00620ae-2110-4dbd-a2e7-cd7bf13fe429","system_id":"levelo_inurba_marseille","lat":43.2321,"lon":5.39974,"is_reserved":false,"is_disabled":true,"rental_uris":{"android":"levelo://app?vid=f00620ae-2110-4dbd-a2e7-cd7bf13fe429","ios":"levelo://app?vid=f00620ae-2110-4dbd-a2e7-cd7bf13fe429"},"vehicle_type_id":"4","last_reported":1739722157,"current_range_meters":36800,"station_id":"ce4bhn12rcd13ifvqgqg","pricing_plan_id":"cebpf4jnsgd1na2vs0mg"},{"bike_id":"05df7975-71a5-4cd7-9732-f6e0ff429d46","system_id":"levelo_inurba_marseille","lat":43.2956,"lon":5.423,"is_reserved":false,"is_disabled":false,"rental_uris":{"android":"levelo://app?vid=05df7975-71a5-4cd7-9732-f6e0ff429d46","ios":"levelo://app?vid=05df7975-71a5-4cd7-9732-f6e0ff429d46"},"vehicle_type_id":"4","last_reported":1739722157,"current_range_meters":27200,"station_id":"ce4bhph2rcd13ifvqhdg","pricing_plan_id":"cebpf4jnsgd1na2vs0mg"},{"bike_id":"d602ed8c-1975-4dd9-9af8-685e3ba1f26c","system_id":"levelo_inurba_marseille","lat":43.28266,"lon":5.35214,"is_reserved":false,"is_disabled":false,"rental_uris":{"android":"levelo://app?vid=d602ed8c-1975-4dd9-9af8-685e3ba1f26c","ios":"levelo://app?vid=d602ed8c-1975-4dd9-9af8-685e3ba1f26c"},"vehicle_type_id":"4","last_reported":1739722157,"current_range_meters":16800,"station_id":"ce4bhah2rcd13ifvqei0","pricing_plan_id":"cebpf4jnsgd1na2vs0mg"},{"bike_id":"51fb9d9c-55f8-45d9-be16-dfcfc93312d0","system_id":"levelo_inurba_marseille","lat":43.30549,"lon":5.36541,"is_reserved":false,"is_disabled":false,"rental_uris":{"android":"levelo://app?vid=51fb9d9c-55f8-45d9-be16-dfcfc93312d0","ios":"levelo://app?vid=51fb9d9c-55f8-45d9-be16-dfcfc93312d0"},"vehicle_type_id":"4","last_reported":1739722157,"current_range_meters":38800,"station_id":"ce4bgs12rcd13ifvqcag","pricing_plan_id":"cebpf4jnsgd1na2vs0mg"},{"bike_id":"ddf1d674-41d6-443f-b0f1-1da7df267862","system_id":"levelo_inurba_marseille","lat":43.23062,"lon":5.35496,"is_reserved":false,"is_disabled":false,"rental_uris":{"android":"levelo://app?vid=ddf1d674-41d6-443f-b0f1-1da7df267862","ios":"levelo://app?vid=ddf1d674-41d6-443f-b0f1-1da7df267862"},"vehicle_type_id":"4","last_reported":1739722157,"current_range_meters":15200,"station_id":"cpo3342slgdg3j2ifvpg","pricing_plan_id":"cebpf4jnsgd1na2vs0mg"},{"bike_id":"94729826-cfa5-4ed9-8abd-5e8e49cce84e","system_id":"levelo_inurba_marseille","lat":43.29073,"lon":5.43263,"is_reserved":false,"is_disabled":true,"rental_uris":{"android":"levelo://app?vid=94729826-cfa5-4ed9-8abd-5e8e49cce84e","ios":"levelo://app?vid=94729826-cfa5-4ed9-8abd-5e8e49cce84e"},"vehicle_type_id":"4","last_reported":1739722157,"current_range_meters":400,"station_id":"","pricing_plan_id":"cebpf4jnsgd1na2vs0mg"},{"bike_id":"59897d86-c0b3-4acb-bf89-133a9364e1f4","system_id":"levelo_inurba_marseille","lat":43.23052,"lon":5.35506,"is_reserved":false,"is_disabled":true,"rental_uris":{"android":"levelo://app?vid=59897d86-c0b3-4acb-bf89-133a9364e1f4","ios":"levelo://app?vid=59897d86-c0b3-4acb-bf89-133a9364e1f4"},"vehicle_type_id":"4","last_reported":1739722157,"current_range_meters":36800,"station_id":"cpo3342slgdg3j2ifvpg","pricing_plan_id":"cebpf4jnsgd1na2vs0mg"},{"bike_id":"d67fcbcf-6812-46dd-86e3-f34dee22c0eb","system_id":"levelo_inurba_marseille","lat":43.30099,"lon":5.39077,"is_reserved":false,"is_disabled":false,"rental_uris":{"android":"levelo://app?vid=d67fcbcf-6812-46dd-86e3-f34dee22c0eb","ios":"levelo://app?vid=d67fcbcf-6812-46dd-86e3-f34dee22c0eb"},"vehicle_type_id":"4","last_reported":1739722157,"current_range_meters":28800,"station_id":"ce4bh192rcd13ifvqdb0","pricing_plan_id":"cebpf4jnsgd1na2vs0mg"},{"bike_id":"8a6d5ee1-541f-4729-93f6-a96f48908d9c","system_id":"levelo_inurba_marseille","lat":43.30524,"lon":5.3668,"is_reserved":false,"is_disabled":false,"rental_uris":{"android":"levelo://app?vid=8a6d5ee1-541f-4729-93f6-a96f48908d9c","ios":"levelo://app?vid=8a6d5ee1-541f-4729-93f6-a96f48908d9c"},"vehicle_type_id":"4","last_reported":1739722157,"current_range_meters":38800,"station_id":"ce4bgrp2rcd13ifvqc9g","pricing_plan_id":"cebpf4jnsgd1na2vs0mg"},{"bike_id":"fddf9633-377f-489e-9c7d-38f1665ca695","system_id":"levelo_inurba_marseille","lat":43.29596,"lon":5.38111,"is_reserved":false,"is_disabled":true,"rental_uris":{"android":"levelo://app?vid=fddf9633-377f-489e-9c7d-38f1665ca695","ios":"levelo://app?vid=fddf9633-377f-489e-9c7d-38f1665ca695"},"vehicle_type_id":"4","last_reported":1739722157,"current_range_meters":20000,"station_id":"ce4bgl12rcd13ifvqbo0","pricing_plan_id":"cebpf4jnsgd1na2vs0mg"},{"bike_id":"40c4421e-be80-49b9-9035-ec8bd05923a2","system_id":"levelo_inurba_marseille","lat":43.28871,"lon":5.39346,"is_reserved":false,"is_disabled":true,"rental_uris":{"android":"levelo://app?vid=40c4421e-be80-49b9-9035-ec8bd05923a2","ios":"levelo://app?vid=40c4421e-be80-49b9-9035-ec8bd05923a2"},"vehicle_type_id":"4","last_reported":1739722157,"current_range_meters":17600,"station_id":"ce4bh2p2rcd13ifvqdi0","pricing_plan_id":"cebpf4jnsgd1na2vs0mg"},{"bike_id":"4bc50c17-9aeb-4487-a054-afb81c6c63dc","system_id":"levelo_inurba_marseille","lat":43.27618,"lon":5.36125,"is_reserved":false,"is_disabled":true,"rental_uris":{"android":"levelo://app?vid=4bc50c17-9aeb-4487-a054-afb81c6c63dc","ios":"levelo://app?vid=4bc50c17-9aeb-4487-a054-afb81c6c63dc"},"vehicle_type_id":"4","last_reported":1739722157,"current_range_meters":28000,"station_id":"ce4bgj92rcd13ifvqbe0","pricing_plan_id":"cebpf4jnsgd1na2vs0mg"},{"bike_id":"66fb6058-19f7-4c93-9f30-a3e042766fd9","system_id":"levelo_inurba_marseille","lat":43.29717,"lon":5.37704,"is_reserved":false,"is_disabled":false,"rental_uris":{"android":"levelo://app?vid=66fb6058-19f7-4c93-9f30-a3e042766fd9","ios":"levelo://app?vid=66fb6058-19f7-4c93-9f30-a3e042766fd9"},"vehicle_type_id":"4","last_reported":1739722157,"current_range_meters":32800,"station_id":"ce4bgkh2rcd13ifvqbl0","pricing_plan_id":"cebpf4jnsgd1na2vs0mg"},{"bike_id":"2c8b8a41-5401-4b3a-be72-574e3bbf0407","system_id":"levelo_inurba_marseille","lat":43.306239,"lon":5.365881,"is_reserved":false,"is_disabled":false,"rental_uris":{"android":"levelo://app?vid=2c8b8a41-5401-4b3a-be72-574e3bbf0407","ios":"levelo://app?vid=2c8b8a41-5401-4b3a-be72-574e3bbf0407"},"vehicle_type_id":"4","last_reported":1739722157,"current_range_meters":4800,"station_id":"","pricing_plan_id":"cebpf4jnsgd1na2vs0mg"},{"bike_id":"2a3dddcf-8543-4215-8c42-84e597ef8b47","system_id":"levelo_inurba_marseille","lat":43.3134,"lon":5.37207,"is_reserved":false,"is_disabled":false,"rental_uris":{"android":"levelo://app?vid=2a3dddcf-8543-4215-8c42-84e597ef8b47","ios":"levelo://app?vid=2a3dddcf-8543-4215-8c42-84e597ef8b47"},"vehicle_type_id":"4","last_reported":1739722157,"current_range_meters":38000,"station_id":"","pricing_plan_id":"cebpf4jnsgd1na2vs0mg"},{"bike_id":"76e9689a-c738-4ae0-88ce-a636639e49f8","system_id":"levelo_inurba_marseille","lat":43.25582,"lon":5.38244,"is_reserved":false,"is_disabled":false,"rental_uris":{"android":"levelo://app?vid=76e9689a-c738-4ae0-88ce-a636639e49f8","ios":"levelo://app?vid=76e9689a-c738-4ae0-88ce-a636639e49f8"},"vehicle_type_id":"4","last_reported":1739722157,"current_range_meters":38800,"station_id":"ce4bhih2rcd13ifvqfs0","pricing_plan_id":"cebpf4jnsgd1na2vs0mg"},{"bike_id":"3625836a-8a03-4572-80d5-fadff11603e7","system_id":"levelo_inurba_marseille","lat":43.28034,"lon":5.36951,"is_reserved":false,"is_disabled":false,"rental_uris":{"android":"levelo://app?vid=3625836a-8a03-4572-80d5-fadff11603e7","ios":"levelo://app?vid=3625836a-8a03-4572-80d5-fadff11603e7"},"vehicle_type_id":"4","last_reported":1739722157,"current_range_meters":38800,"station_id":"ce4bha12rcd13ifvqef0","pricing_plan_id":"cebpf4jnsgd1na2vs0mg"},{"bike_id":"667df651-a1d8-4291-8b6a-46abec5e09bb","system_id":"levelo_inurba_marseille","lat":43.29247,"lon":5.36085,"is_reserved":false,"is_disabled":false,"rental_uris":{"android":"levelo://app?vid=667df651-a1d8-4291-8b6a-46abec5e09bb","ios":"levelo://app?vid=667df651-a1d8-4291-8b6a-46abec5e09bb"},"vehicle_type_id":"4","last_reported":1739722157,"current_range_meters":33600,"station_id":"","pricing_plan_id":"cebpf4jnsgd1na2vs0mg"},{"bike_id":"b7675672-ea91-4212-a3c2-1e75ea117425","system_id":"levelo_inurba_marseille","lat":43.28154,"lon":5.42632,"is_reserved":false,"is_disabled":true,"rental_uris":{"android":"levelo://app?vid=b7675672-ea91-4212-a3c2-1e75ea117425","ios":"levelo://app?vid=b7675672-ea91-4212-a3c2-1e75ea117425"},"vehicle_type_id":"4","last_reported":1739722157,"current_range_meters":0,"station_id":"ce4bhnh2rcd13ifvqgug","pricing_plan_id":"cebpf4jnsgd1na2vs0mg"},{"bike_id":"91e27922-e676-45ea-94da-baf83d9c520d","system_id":"levelo_inurba_marseille","lat":43.2804,"lon":5.36947,"is_reserved":false,"is_disabled":true,"rental_uris":{"android":"levelo://app?vid=91e27922-e676-45ea-94da-baf83d9c520d","ios":"levelo://app?vid=91e27922-e676-45ea-94da-baf83d9c520d"},"vehicle_type_id":"4","last_reported":1739722157,"current_range_meters":33600,"station_id":"ce4bha12rcd13ifvqef0","pricing_plan_id":"cebpf4jnsgd1na2vs0mg"},{"bike_id":"9cdda1c3-1248-40c5-beb3-afbeeb493bb6","system_id":"levelo_inurba_marseille","lat":43.30665,"lon":5.37155,"is_reserved":false,"is_disabled":false,"rental_uris":{"android":"levelo://app?vid=9cdda1c3-1248-40c5-beb3-afbeeb493bb6","ios":"levelo://app?vid=9cdda1c3-1248-40c5-beb3-afbeeb493bb6"},"vehicle_type_id":"4","last_reported":1739722157,"current_range_meters":24000,"station_id":"","pricing_plan_id":"cebpf4jnsgd1na2vs0mg"},{"bike_id":"39f0fa43-2961-47d0-8e28-d6ced3bcb1a4","system_id":"levelo_inurba_marseille","lat":43.26806,"lon":5.40269,"is_reserved":false,"is_disabled":true,"rental_uris":{"android":"levelo://app?vid=39f0fa43-2961-47d0-8e28-d6ced3bcb1a4","ios":"levelo://app?vid=39f0fa43-2961-47d0-8e28-d6ced3bcb1a4"},"vehicle_type_id":"4","last_reported":1739722157,"current_range_meters":28800,"station_id":"ce501612rcd8frsf0b60","pricing_plan_id":"cebpf4jnsgd1na2vs0mg"},{"bike_id":"9bcc3779-160f-4f11-a908-15bc41b1ac43","system_id":"levelo_inurba_marseille","lat":43.27989,"lon":5.40014,"is_reserved":false,"is_disabled":true,"rental_uris":{"android":"levelo://app?vid=9bcc3779-160f-4f11-a908-15bc41b1ac43","ios":"levelo://app?vid=9bcc3779-160f-4f11-a908-15bc41b1ac43"},"vehicle_type_id":"4","last_reported":1739722157,"current_range_meters":2800,"station_id":"ce4bho92rcd13ifvqh4g","pricing_plan_id":"cebpf4jnsgd1na2vs0mg"},{"bike_id":"3c64c24f-16f7-46ec-b068-15fe4ebda356","system_id":"levelo_inurba_marseille","lat":43.29493,"lon":5.36395,"is_reserved":false,"is_disabled":true,"rental_uris":{"android":"levelo://app?vid=3c64c24f-16f7-46ec-b068-15fe4ebda356","ios":"levelo://app?vid=3c64c24f-16f7-46ec-b068-15fe4ebda356"},"vehicle_type_id":"4","last_reported":1739722157,"current_range_meters":16800,"station_id":"","pricing_plan_id":"cebpf4jnsgd1na2vs0mg"},{"bike_id":"1d7b11e4-2384-4b0c-b0fb-9c481023e6c6","system_id":"levelo_inurba_marseille","lat":43.25112,"lon":5.40323,"is_reserved":false,"is_disabled":false,"rental_uris":{"android":"levelo://app?vid=1d7b11e4-2384-4b0c-b0fb-9c481023e6c6","ios":"levelo://app?vid=1d7b11e4-2384-4b0c-b0fb-9c481023e6c6"},"vehicle_type_id":"4","last_reported":1739722157,"current_range_meters":30400,"station_id":"ce4bhlh2rcd13ifvqgig","pricing_plan_id":"cebpf4jnsgd1na2vs0mg"},{"bike_id":"c9f5446a-9650-4bf9-9f6c-ae38910b957a","system_id":"levelo_inurba_marseille","lat":43.30145,"lon":5.37419,"is_reserved":false,"is_disabled":false,"rental_uris":{"android":"levelo://app?vid=c9f5446a-9650-4bf9-9f6c-ae38910b957a","ios":"levelo://app?vid=c9f5446a-9650-4bf9-9f6c-ae38910b957a"},"vehicle_type_id":"4","last_reported":1739722157,"current_range_meters":38800,"station_id":"ce4bgs92rcd13ifvqcc0","pricing_plan_id":"cebpf4jnsgd1na2vs0mg"},{"bike_id":"0a8131f0-8aa1-442f-a102-dd6461b5c6ed","system_id":"levelo_inurba_marseille","lat":43.24181,"lon":5.39737,"is_reserved":false,"is_disabled":true,"rental_uris":{"android":"levelo://app?vid=0a8131f0-8aa1-442f-a102-dd6461b5c6ed","ios":"levelo://app?vid=0a8131f0-8aa1-442f-a102-dd6461b5c6ed"},"vehicle_type_id":"4","last_reported":1739722157,"current_range_meters":1200,"station_id":"ce4bhn12rcd13ifvqgpg","pricing_plan_id":"cebpf4jnsgd1na2vs0mg"},{"bike_id":"3fb2b217-d6f8-416d-ae4f-9a4d400252d1","system_id":"levelo_inurba_marseille","lat":43.23197,"lon":5.35556,"is_reserved":false,"is_disabled":false,"rental_uris":{"android":"levelo://app?vid=3fb2b217-d6f8-416d-ae4f-9a4d400252d1","ios":"levelo://app?vid=3fb2b217-d6f8-416d-ae4f-9a4d400252d1"},"vehicle_type_id":"4","last_reported":1739722157,"current_range_meters":30800,"station_id":"ce4bhu92rcd13ifvqi70","pricing_plan_id":"cebpf4jnsgd1na2vs0mg"},{"bike_id":"453b5d03-74b1-4b80-b3f1-f8af80ba4690","system_id":"levelo_inurba_marseille","lat":43.2416,"lon":5.36404,"is_reserved":false,"is_disabled":false,"rental_uris":{"android":"levelo://app?vid=453b5d03-74b1-4b80-b3f1-f8af80ba4690","ios":"levelo://app?vid=453b5d03-74b1-4b80-b3f1-f8af80ba4690"},"vehicle_type_id":"4","last_reported":1739722157,"current_range_meters":12800,"station_id":"cpo36qri1sfpv3e86is0","pricing_plan_id":"cebpf4jnsgd1na2vs0mg"},{"bike_id":"cfb8fb48-21d4-4ab4-b4fa-4bdad24446e5","system_id":"levelo_inurba_marseille","lat":43.29094,"lon":5.38128,"is_reserved":false,"is_disabled":false,"rental_uris":{"android":"levelo://app?vid=cfb8fb48-21d4-4ab4-b4fa-4bdad24446e5","ios":"levelo://app?vid=cfb8fb48-21d4-4ab4-b4fa-4bdad24446e5"},"vehicle_type_id":"4","last_reported":1739722157,"current_range_meters":34800,"station_id":"ce4bh512rcd13ifvqe2g","pricing_plan_id":"cebpf4jnsgd1na2vs0mg"},{"bike_id":"3095bcf9-eb87-4436-9a89-0172cbc0a219","system_id":"levelo_inurba_marseille","lat":43.292,"lon":5.35823,"is_reserved":false,"is_disabled":false,"rental_uris":{"android":"levelo://app?vid=3095bcf9-eb87-4436-9a89-0172cbc0a219","ios":"levelo://app?vid=3095bcf9-eb87-4436-9a89-0172cbc0a219"},"vehicle_type_id":"4","last_reported":1739722157,"current_range_meters":10800,"station_id":"ce4bhb12rcd13ifvqel0","pricing_plan_id":"cebpf4jnsgd1na2vs0mg"},{"bike_id":"2dea0667-1db6-4775-857f-894e60e0a4c7","system_id":"levelo_inurba_marseille","lat":43.30417,"lon":5.39758,"is_reserved":false,"is_disabled":true,"rental_uris":{"android":"levelo://app?vid=2dea0667-1db6-4775-857f-894e60e0a4c7","ios":"levelo://app?vid=2dea0667-1db6-4775-857f-894e60e0a4c7"},"vehicle_type_id":"4","last_reported":1739722157,"current_range_meters":27600,"station_id":"ce4bh092rcd13ifvqd20","pricing_plan_id":"cebpf4jnsgd1na2vs0mg"},{"bike_id":"ff2cbd59-5738-4b72-a212-196bf1e91733","system_id":"levelo_inurba_marseille","lat":43.28012,"lon":5.44122,"is_reserved":false,"is_disabled":false,"rental_uris":{"android":"levelo://app?vid=ff2cbd59-5738-4b72-a212-196bf1e91733","ios":"levelo://app?vid=ff2cbd59-5738-4b72-a212-196bf1e91733"},"vehicle_type_id":"4","last_reported":1739722157,"current_range_meters":14800,"station_id":"","pricing_plan_id":"cebpf4jnsgd1na2vs0mg"},{"bike_id":"e32238b6-c1f1-462e-8ee9-e609e090780c","system_id":"levelo_inurba_marseille","lat":43.27187,"lon":5.40994,"is_reserved":false,"is_disabled":false,"rental_uris":{"android":"levelo://app?vid=e32238b6-c1f1-462e-8ee9-e609e090780c","ios":"levelo://app?vid=e32238b6-c1f1-462e-8ee9-e609e090780c"},"vehicle_type_id":"4","last_reported":1739722157,"current_range_meters":36800,"station_id":"ce4bhl12rcd13ifvqgf0","pricing_plan_id":"cebpf4jnsgd1na2vs0mg"},{"bike_id":"b3255c44-53b0-4092-b320-540099e5156e","system_id":"levelo_inurba_marseille","lat":43.30317,"lon":5.36883,"is_reserved":false,"is_disabled":false,"rental_uris":{"android":"levelo://app?vid=b3255c44-53b0-4092-b320-540099e5156e","ios":"levelo://app?vid=b3255c44-53b0-4092-b320-540099e5156e"},"vehicle_type_id":"4","last_reported":1739722157,"current_range_meters":11600,"station_id":"ce4bgqh2rcd13ifvqc5g","pricing_plan_id":"cebpf4jnsgd1na2vs0mg"},{"bike_id":"08229e31-c889-4c66-b1d5-e87ca243a186","system_id":"levelo_inurba_marseille","lat":43.27611,"lon":5.3612,"is_reserved":false,"is_disabled":false,"rental_uris":{"android":"levelo://app?vid=08229e31-c889-4c66-b1d5-e87ca243a186","ios":"levelo://app?vid=08229e31-c889-4c66-b1d5-e87ca243a186"},"vehicle_type_id":"4","last_reported":1739722157,"current_range_meters":24400,"station_id":"ce4bgj92rcd13ifvqbe0","pricing_plan_id":"cebpf4jnsgd1na2vs0mg"},{"bike_id":"ad4af932-f51b-41b8-983b-7e431dcc24a9","system_id":"levelo_inurba_marseille","lat":43.337444,"lon":5.374475,"is_reserved":false,"is_disabled":true,"rental_uris":{"android":"levelo://app?vid=ad4af932-f51b-41b8-983b-7e431dcc24a9","ios":"levelo://app?vid=ad4af932-f51b-41b8-983b-7e431dcc24a9"},"vehicle_type_id":"4","last_reported":1739722157,"current_range_meters":0,"station_id":"","pricing_plan_id":"cebpf4jnsgd1na2vs0mg"},{"bike_id":"95d42703-1a37-4cb4-8b06-69616f6b8e6d","system_id":"levelo_inurba_marseille","lat":43.27665,"lon":5.38906,"is_reserved":false,"is_disabled":true,"rental_uris":{"android":"levelo://app?vid=95d42703-1a37-4cb4-8b06-69616f6b8e6d","ios":"levelo://app?vid=95d42703-1a37-4cb4-8b06-69616f6b8e6d"},"vehicle_type_id":"4","last_reported":1739722157,"current_range_meters":32000,"station_id":"ce4bhi12rcd13ifvqfo0","pricing_plan_id":"cebpf4jnsgd1na2vs0mg"},{"bike_id":"81bec61a-1f2c-43a9-b162-eec1d41ccf13","system_id":"levelo_inurba_marseille","lat":43.28336,"lon":5.42992,"is_reserved":false,"is_disabled":false,"rental_uris":{"android":"levelo://app?vid=81bec61a-1f2c-43a9-b162-eec1d41ccf13","ios":"levelo://app?vid=81bec61a-1f2c-43a9-b162-eec1d41ccf13"},"vehicle_type_id":"4","last_reported":1739722157,"current_range_meters":17200,"station_id":"","pricing_plan_id":"cebpf4jnsgd1na2vs0mg"},{"bike_id":"dfb8b4bf-66b7-4f69-91ef-2703e7099d0d","system_id":"levelo_inurba_marseille","lat":43.26798,"lon":5.39424,"is_reserved":false,"is_disabled":true,"rental_uris":{"android":"levelo://app?vid=dfb8b4bf-66b7-4f69-91ef-2703e7099d0d","ios":"levelo://app?vid=dfb8b4bf-66b7-4f69-91ef-2703e7099d0d"},"vehicle_type_id":"4","last_reported":1739722157,"current_range_meters":0,"station_id":"ce4bhh12rcd13ifvqfg0","pricing_plan_id":"cebpf4jnsgd1na2vs0mg"},{"bike_id":"eedaa3f0-90a4-48b9-bcfd-3997363bbaf4","system_id":"levelo_inurba_marseille","lat":43.29604,"lon":5.38096,"is_reserved":false,"is_disabled":false,"rental_uris":{"android":"levelo://app?vid=eedaa3f0-90a4-48b9-bcfd-3997363bbaf4","ios":"levelo://app?vid=eedaa3f0-90a4-48b9-bcfd-3997363bbaf4"},"vehicle_type_id":"4","last_reported":1739722157,"current_range_meters":25600,"station_id":"ce4bgl12rcd13ifvqbo0","pricing_plan_id":"cebpf4jnsgd1na2vs0mg"},{"bike_id":"53db9d04-f5d0-4fd4-b6fd-0b57337473d4","system_id":"levelo_inurba_marseille","lat":43.26055,"lon":5.39403,"is_reserved":false,"is_disabled":false,"rental_uris":{"android":"levelo://app?vid=53db9d04-f5d0-4fd4-b6fd-0b57337473d4","ios":"levelo://app?vid=53db9d04-f5d0-4fd4-b6fd-0b57337473d4"},"vehicle_type_id":"4","last_reported":1739722157,"current_range_meters":36800,"station_id":"ce4bhh92rcd13ifvqfj0","pricing_plan_id":"cebpf4jnsgd1na2vs0mg"},{"bike_id":"aeb403d4-9cef-44b2-b32c-cb912f49efa3","system_id":"levelo_inurba_marseille","lat":43.23199,"lon":5.35544,"is_reserved":false,"is_disabled":false,"rental_uris":{"android":"levelo://app?vid=aeb403d4-9cef-44b2-b32c-cb912f49efa3","ios":"levelo://app?vid=aeb403d4-9cef-44b2-b32c-cb912f49efa3"},"vehicle_type_id":"4","last_reported":1739722157,"current_range_meters":28800,"station_id":"ce4bhu92rcd13ifvqi70","pricing_plan_id":"cebpf4jnsgd1na2vs0mg"},{"bike_id":"50ad0a61-8a14-4cc0-a2ed-69509a918a89","system_id":"levelo_inurba_marseille","lat":43.30228,"lon":5.3808,"is_reserved":false,"is_disabled":false,"rental_uris":{"android":"levelo://app?vid=50ad0a61-8a14-4cc0-a2ed-69509a918a89","ios":"levelo://app?vid=50ad0a61-8a14-4cc0-a2ed-69509a918a89"},"vehicle_type_id":"4","last_reported":1739722157,"current_range_meters":36400,"station_id":"","pricing_plan_id":"cebpf4jnsgd1na2vs0mg"},{"bike_id":"6e9279e1-a299-42cb-b26a-80dd0bd04fc9","system_id":"levelo_inurba_marseille","lat":43.31207,"lon":5.36771,"is_reserved":false,"is_disabled":false,"rental_uris":{"android":"levelo://app?vid=6e9279e1-a299-42cb-b26a-80dd0bd04fc9","ios":"levelo://app?vid=6e9279e1-a299-42cb-b26a-80dd0bd04fc9"},"vehicle_type_id":"4","last_reported":1739722157,"current_range_meters":16000,"station_id":"","pricing_plan_id":"cebpf4jnsgd1na2vs0mg"},{"bike_id":"5fad6dbe-c66d-48ed-bb1e-410aea5daf87","system_id":"levelo_inurba_marseille","lat":43.28109,"lon":5.37847,"is_reserved":false,"is_disabled":false,"rental_uris":{"android":"levelo://app?vid=5fad6dbe-c66d-48ed-bb1e-410aea5daf87","ios":"levelo://app?vid=5fad6dbe-c66d-48ed-bb1e-410aea5daf87"},"vehicle_type_id":"4","last_reported":1739722157,"current_range_meters":38800,"station_id":"ce4bha12rcd13ifvqee0","pricing_plan_id":"cebpf4jnsgd1na2vs0mg"},{"bike_id":"7765337b-5c03-4ea0-be0e-f987da7b49d0","system_id":"levelo_inurba_marseille","lat":43.27616,"lon":5.36113,"is_reserved":false,"is_disabled":false,"rental_uris":{"android":"levelo://app?vid=7765337b-5c03-4ea0-be0e-f987da7b49d0","ios":"levelo://app?vid=7765337b-5c03-4ea0-be0e-f987da7b49d0"},"vehicle_type_id":"4","last_reported":1739722157,"current_range_meters":38800,"station_id":"ce4bgj92rcd13ifvqbe0","pricing_plan_id":"cebpf4jnsgd1na2vs0mg"},{"bike_id":"cf0c37b6-bef7-49a3-b137-60c7b09b0b40","system_id":"levelo_inurba_marseille","lat":43.28422,"lon":5.34983,"is_reserved":false,"is_disabled":false,"rental_uris":{"android":"levelo://app?vid=cf0c37b6-bef7-49a3-b137-60c7b09b0b40","ios":"levelo://app?vid=cf0c37b6-bef7-49a3-b137-60c7b09b0b40"},"vehicle_type_id":"4","last_reported":1739722157,"current_range_meters":33200,"station_id":"ce4bhbh2rcd13ifvqepg","pricing_plan_id":"cebpf4jnsgd1na2vs0mg"},{"bike_id":"bd922191-fc18-4a84-9939-c4b21712cfb8","system_id":"levelo_inurba_marseille","lat":43.29535,"lon":5.38555,"is_reserved":false,"is_disabled":true,"rental_uris":{"android":"levelo://app?vid=bd922191-fc18-4a84-9939-c4b21712cfb8","ios":"levelo://app?vid=bd922191-fc18-4a84-9939-c4b21712cfb8"},"vehicle_type_id":"4","last_reported":1739722157,"current_range_meters":1600,"station_id":"ce4bgih2rcd13ifvqba0","pricing_plan_id":"cebpf4jnsgd1na2vs0mg"},{"bike_id":"d7e1cf5a-14b2-44fb-b644-28b949b7f9dc","system_id":"levelo_inurba_marseille","lat":43.3018,"lon":5.37422,"is_reserved":false,"is_disabled":false,"rental_uris":{"android":"levelo://app?vid=d7e1cf5a-14b2-44fb-b644-28b949b7f9dc","ios":"levelo://app?vid=d7e1cf5a-14b2-44fb-b644-28b949b7f9dc"},"vehicle_type_id":"4","last_reported":1739722157,"current_range_meters":16800,"station_id":"ce4bgs92rcd13ifvqcc0","pricing_plan_id":"cebpf4jnsgd1na2vs0mg"},{"bike_id":"2e1ea3ec-5284-4631-8449-fb3cd1434ac5","system_id":"levelo_inurba_marseille","lat":43.23169,"lon":5.43688,"is_reserved":false,"is_disabled":true,"rental_uris":{"android":"levelo://app?vid=2e1ea3ec-5284-4631-8449-fb3cd1434ac5","ios":"levelo://app?vid=2e1ea3ec-5284-4631-8449-fb3cd1434ac5"},"vehicle_type_id":"4","last_reported":1739722157,"current_range_meters":400,"station_id":"ce4bhmp2rcd13ifvqgog","pricing_plan_id":"cebpf4jnsgd1na2vs0mg"},{"bike_id":"d113f892-a782-4592-88b7-0c58390fb503","system_id":"levelo_inurba_marseille","lat":43.3254,"lon":5.4143,"is_reserved":false,"is_disabled":false,"rental_uris":{"android":"levelo://app?vid=d113f892-a782-4592-88b7-0c58390fb503","ios":"levelo://app?vid=d113f892-a782-4592-88b7-0c58390fb503"},"vehicle_type_id":"4","last_reported":1739722157,"current_range_meters":38400,"station_id":"ce4bhq12rcd13ifvqhhg","pricing_plan_id":"cebpf4jnsgd1na2vs0mg"},{"bike_id":"33289e8b-a03b-4a01-bec0-4cbea48d745b","system_id":"levelo_inurba_marseille","lat":43.30536,"lon":5.36534,"is_reserved":false,"is_disabled":false,"rental_uris":{"android":"levelo://app?vid=33289e8b-a03b-4a01-bec0-4cbea48d745b","ios":"levelo://app?vid=33289e8b-a03b-4a01-bec0-4cbea48d745b"},"vehicle_type_id":"4","last_reported":1739722157,"current_range_meters":27200,"station_id":"ce4bgs12rcd13ifvqcag","pricing_plan_id":"cebpf4jnsgd1na2vs0mg"},{"bike_id":"5c381eca-4257-4fd5-9296-339ca91bf680","system_id":"levelo_inurba_marseille","lat":43.31998,"lon":5.38161,"is_reserved":false,"is_disabled":true,"rental_uris":{"android":"levelo://app?vid=5c381eca-4257-4fd5-9296-339ca91bf680","ios":"levelo://app?vid=5c381eca-4257-4fd5-9296-339ca91bf680"},"vehicle_type_id":"4","last_reported":1739722157,"current_range_meters":0,"station_id":"ce4bhr12rcd13ifvqhpg","pricing_plan_id":"cebpf4jnsgd1na2vs0mg"},{"bike_id":"dfa5be5b-dcbf-4008-8e75-c2c77f774ce9","system_id":"levelo_inurba_marseille","lat":43.28278,"lon":5.35073,"is_reserved":false,"is_disabled":false,"rental_uris":{"android":"levelo://app?vid=dfa5be5b-dcbf-4008-8e75-c2c77f774ce9","ios":"levelo://app?vid=dfa5be5b-dcbf-4008-8e75-c2c77f774ce9"},"vehicle_type_id":"4","last_reported":1739722157,"current_range_meters":36000,"station_id":"ce4bhbp2rcd13ifvqerg","pricing_plan_id":"cebpf4jnsgd1na2vs0mg"},{"bike_id":"391cf823-2d04-4b1d-8e03-cb628d3e38c7","system_id":"levelo_inurba_marseille","lat":43.30314,"lon":5.36906,"is_reserved":false,"is_disabled":false,"rental_uris":{"android":"levelo://app?vid=391cf823-2d04-4b1d-8e03-cb628d3e38c7","ios":"levelo://app?vid=391cf823-2d04-4b1d-8e03-cb628d3e38c7"},"vehicle_type_id":"4","last_reported":1739722157,"current_range_meters":10000,"station_id":"ce4bgqh2rcd13ifvqc5g","pricing_plan_id":"cebpf4jnsgd1na2vs0mg"},{"bike_id":"f90f100a-96c8-4505-8f91-2a80d3603971","system_id":"levelo_inurba_marseille","lat":43.3149,"lon":5.37307,"is_reserved":false,"is_disabled":false,"rental_uris":{"android":"levelo://app?vid=f90f100a-96c8-4505-8f91-2a80d3603971","ios":"levelo://app?vid=f90f100a-96c8-4505-8f91-2a80d3603971"},"vehicle_type_id":"4","last_reported":1739722157,"current_range_meters":33600,"station_id":"ce4bgt12rcd13ifvqcd0","pricing_plan_id":"cebpf4jnsgd1na2vs0mg"},{"bike_id":"af15e38a-66ed-4350-8aa3-52a0769399ff","system_id":"levelo_inurba_marseille","lat":43.28944,"lon":5.36641,"is_reserved":false,"is_disabled":false,"rental_uris":{"android":"levelo://app?vid=af15e38a-66ed-4350-8aa3-52a0769399ff","ios":"levelo://app?vid=af15e38a-66ed-4350-8aa3-52a0769399ff"},"vehicle_type_id":"4","last_reported":1739722157,"current_range_meters":10000,"station_id":"ce4bhap2rcd13ifvqek0","pricing_plan_id":"cebpf4jnsgd1na2vs0mg"},{"bike_id":"3067cc11-ea3d-4497-a8fa-3717c9b08d94","system_id":"levelo_inurba_marseille","lat":43.27325,"lon":5.3909,"is_reserved":false,"is_disabled":true,"rental_uris":{"android":"levelo://app?vid=3067cc11-ea3d-4497-a8fa-3717c9b08d94","ios":"levelo://app?vid=3067cc11-ea3d-4497-a8fa-3717c9b08d94"},"vehicle_type_id":"4","last_reported":1739722157,"current_range_meters":34800,"station_id":"ce4bhgp2rcd13ifvqfe0","pricing_plan_id":"cebpf4jnsgd1na2vs0mg"},{"bike_id":"278a92cb-421e-445c-b8e1-b428ea156b5c","system_id":"levelo_inurba_marseille","lat":43.28705,"lon":5.39993,"is_reserved":false,"is_disabled":false,"rental_uris":{"android":"levelo://app?vid=278a92cb-421e-445c-b8e1-b428ea156b5c","ios":"levelo://app?vid=278a92cb-421e-445c-b8e1-b428ea156b5c"},"vehicle_type_id":"4","last_reported":1739722157,"current_range_meters":33200,"station_id":"ce4bho92rcd13ifvqh3g","pricing_plan_id":"cebpf4jnsgd1na2vs0mg"},{"bike_id":"10b8a5cf-b41c-4f97-9833-94392d00ff1b","system_id":"levelo_inurba_marseille","lat":43.28799,"lon":5.43393,"is_reserved":false,"is_disabled":false,"rental_uris":{"android":"levelo://app?vid=10b8a5cf-b41c-4f97-9833-94392d00ff1b","ios":"levelo://app?vid=10b8a5cf-b41c-4f97-9833-94392d00ff1b"},"vehicle_type_id":"4","last_reported":1739722157,"current_range_meters":35200,"station_id":"","pricing_plan_id":"cebpf4jnsgd1na2vs0mg"},{"bike_id":"6d73b209-1620-4b42-9317-a37ce360cfe2","system_id":"levelo_inurba_marseille","lat":43.24665,"lon":5.38166,"is_reserved":false,"is_disabled":false,"rental_uris":{"android":"levelo://app?vid=6d73b209-1620-4b42-9317-a37ce360cfe2","ios":"levelo://app?vid=6d73b209-1620-4b42-9317-a37ce360cfe2"},"vehicle_type_id":"4","last_reported":1739722157,"current_range_meters":38000,"station_id":"ce4bhih2rcd13ifvqfr0","pricing_plan_id":"cebpf4jnsgd1na2vs0mg"},{"bike_id":"0e3dadb8-f7f0-4d46-9c98-64c79a293ad5","system_id":"levelo_inurba_marseille","lat":43.30422,"lon":5.41286,"is_reserved":false,"is_disabled":false,"rental_uris":{"android":"levelo://app?vid=0e3dadb8-f7f0-4d46-9c98-64c79a293ad5","ios":"levelo://app?vid=0e3dadb8-f7f0-4d46-9c98-64c79a293ad5"},"vehicle_type_id":"4","last_reported":1739722157,"current_range_meters":10800,"station_id":"ce4bhop2rcd13ifvqh8g","pricing_plan_id":"cebpf4jnsgd1na2vs0mg"},{"bike_id":"d80860fa-7cf7-4ae7-befb-26e8065381a1","system_id":"levelo_inurba_marseille","lat":43.23194,"lon":5.35566,"is_reserved":false,"is_disabled":false,"rental_uris":{"android":"levelo://app?vid=d80860fa-7cf7-4ae7-befb-26e8065381a1","ios":"levelo://app?vid=d80860fa-7cf7-4ae7-befb-26e8065381a1"},"vehicle_type_id":"4","last_reported":1739722157,"current_range_meters":16400,"station_id":"ce4bhu92rcd13ifvqi70","pricing_plan_id":"cebpf4jnsgd1na2vs0mg"},{"bike_id":"451624ed-343e-43fa-a9d0-342d2a8e27de","system_id":"levelo_inurba_marseille","lat":43.23207,"lon":5.35552,"is_reserved":false,"is_disabled":false,"rental_uris":{"android":"levelo://app?vid=451624ed-343e-43fa-a9d0-342d2a8e27de","ios":"levelo://app?vid=451624ed-343e-43fa-a9d0-342d2a8e27de"},"vehicle_type_id":"4","last_reported":1739722157,"current_range_meters":38800,"station_id":"ce4bhu92rcd13ifvqi70","pricing_plan_id":"cebpf4jnsgd1na2vs0mg"},{"bike_id":"9b363345-4806-4d17-bf27-f2d7a6b80a7b","system_id":"levelo_inurba_marseille","lat":43.31888,"lon":5.40732,"is_reserved":false,"is_disabled":false,"rental_uris":{"android":"levelo://app?vid=9b363345-4806-4d17-bf27-f2d7a6b80a7b","ios":"levelo://app?vid=9b363345-4806-4d17-bf27-f2d7a6b80a7b"},"vehicle_type_id":"4","last_reported":1739722157,"current_range_meters":32800,"station_id":"ce4bhq12rcd13ifvqhig","pricing_plan_id":"cebpf4jnsgd1na2vs0mg"},{"bike_id":"d1c25a62-35da-4d89-959f-0ee8c129909d","system_id":"levelo_inurba_marseille","lat":43.28482,"lon":5.38419,"is_reserved":false,"is_disabled":false,"rental_uris":{"android":"levelo://app?vid=d1c25a62-35da-4d89-959f-0ee8c129909d","ios":"levelo://app?vid=d1c25a62-35da-4d89-959f-0ee8c129909d"},"vehicle_type_id":"4","last_reported":1739722157,"current_range_meters":26800,"station_id":"ce4bh512rcd13ifvqe3g","pricing_plan_id":"cebpf4jnsgd1na2vs0mg"},{"bike_id":"47ef3a27-cf04-4369-bc44-2fee4bbfaa10","system_id":"levelo_inurba_marseille","lat":43.24672,"lon":5.38172,"is_reserved":false,"is_disabled":true,"rental_uris":{"android":"levelo://app?vid=47ef3a27-cf04-4369-bc44-2fee4bbfaa10","ios":"levelo://app?vid=47ef3a27-cf04-4369-bc44-2fee4bbfaa10"},"vehicle_type_id":"4","last_reported":1739722157,"current_range_meters":9200,"station_id":"ce4bhih2rcd13ifvqfr0","pricing_plan_id":"cebpf4jnsgd1na2vs0mg"},{"bike_id":"2efd8c47-8b04-48ef-9ebe-3f496b146fe4","system_id":"levelo_inurba_marseille","lat":43.29692,"lon":5.3617,"is_reserved":false,"is_disabled":false,"rental_uris":{"android":"levelo://app?vid=2efd8c47-8b04-48ef-9ebe-3f496b146fe4","ios":"levelo://app?vid=2efd8c47-8b04-48ef-9ebe-3f496b146fe4"},"vehicle_type_id":"4","last_reported":1739722157,"current_range_meters":24000,"station_id":"","pricing_plan_id":"cebpf4jnsgd1na2vs0mg"},{"bike_id":"c921d4a6-20de-4347-81ce-19f5ec2aee2f","system_id":"levelo_inurba_marseille","lat":43.29934,"lon":5.3656,"is_reserved":false,"is_disabled":false,"rental_uris":{"android":"levelo://app?vid=c921d4a6-20de-4347-81ce-19f5ec2aee2f","ios":"levelo://app?vid=c921d4a6-20de-4347-81ce-19f5ec2aee2f"},"vehicle_type_id":"4","last_reported":1739722157,"current_range_meters":16400,"station_id":"ce4bgm92rcd13ifvqbr0","pricing_plan_id":"cebpf4jnsgd1na2vs0mg"},