{"last_updated":1735758379,"ttl":60,"version":"2.2","data":{"bikes":[{"bike_id":"6921c701-675b-4411-b28e-a56903e4b8b7","system_id":"levelo_inurba_marseille","lat":43.28078,"lon":5.39651,"is_reserved":false,"is_disabled":false,"rental_uris":{"android":"levelo://app?vid=6921c701-675b-4411-b28e-a56903e4b8b7","ios":"levelo://app?vid=6921c701-675b-4411-b28e-a56903e4b8b7"},"vehicle_type_id":"4","last_reported":1735758380,"current_range_meters":32800,"station_id":"ce4bho12rcd13ifvqh2g","pricing_plan_id":"cebpf4jnsgd1na2vs0mg"},{"bike_id":"5ee06d1f-f474-4883-9d52-622f82f42531","system_id":"levelo_inurba_marseille","lat":43.325439,"lon":5.414445,"is_reserved":false,"is_disabled":false,"rental_uris":{"android":"levelo://app?vid=5ee06d1f-f474-4883-9d52-622f82f42531","ios":"levelo://app?vid=5ee06d1f-f474-4883-9d52-622f82f42531"},"vehicle_type_id":"4","last_reported":1735758380,"current_range_meters":38800,"station_id":"ce4bhq12rcd13ifvqhhg","pricing_plan_id":"cebpf4jnsgd1na2vs0mg"},{"bike_id":"172ccd61-d49f-41ee-9d70-c90aa70835fe","system_id":"levelo_inurba_marseille","lat":43.27422,"lon":5.39417,"is_reserved":false,"is_disabled":false,"rental_uris":{"android":"levelo://app?vid=172ccd61-d49f-41ee-9d70-c90aa70835fe","ios":"levelo://app?vid=172ccd61-d49f-41ee-9d70-c90aa70835fe"},"vehicle_type_id":"4","last_reported":1735758380,"current_range_meters":36800,"station_id":"ce4bhdp2rcd13ifvqf20","pricing_plan_id":"cebpf4jnsgd1na2vs0mg"},{"bike_id":"0750d2f4-8afa-40ed-9c4c-32e22a33c267","system_id":"levelo_inurba_marseille","lat":43.26804,"lon":5.40266,"is_reserved":false,"is_disabled":true,"rental_uris":{"android":"levelo://app?vid=0750d2f4-8afa-40ed-9c4c-32e22a33c267","ios":"levelo://app?vid=0750d2f4-8afa-40ed-9c4c-32e22a33c267"},"vehicle_type_id":"4","last_reported":1735758380,"current_range_meters":36000,"station_id":"ce501612rcd8frsf0b60","pricing_plan_id":"cebpf4jnsgd1na2vs0mg"},{"bike_id":"30675ccc-9ef1-40b1-963e-228cee2b4741","system_id":"levelo_inurba_marseille","lat":43.27955,"lon":5.41032,"is_reserved":false,"is_disabled":true,"rental_uris":{"android":"levelo://app?vid=30675ccc-9ef1-40b1-963e-228cee2b4741","ios":"levelo://app?vid=30675ccc-9ef1-40b1-963e-228cee2b4741"},"vehicle_type_id":"4","last_reported":1735758380,"current_range_meters":19200,"station_id":"ce4bhnp2rcd13ifvqh0g","pricing_plan_id":"cebpf4jnsgd1na2vs0mg"},{"bike_id":"ed93c02a-693a-4e2b-9912-04c5ef695c8d","system_id":"levelo_inurba_marseille","lat":43.29618,"lon":5.37725,"is_reserved":false,"is_disabled":false,"rental_uris":{"android":"levelo://app?vid=ed93c02a-693a-4e2b-9912-04c5ef695c8d","ios":"levelo://app?vid=ed93c02a-693a-4e2b-9912-04c5ef695c8d"},"vehicle_type_id":"4","last_reported":1735758380,"current_range_meters":25600,"station_id":"ce4bgi92rcd13ifvqb90","pricing_plan_id":"cebpf4jnsgd1na2vs0mg"},{"bike_id":"259412ae-a9bb-43fa-89b0-91ce274ab21d","system_id":"levelo_inurba_marseille","lat":43.25726,"lon":5.41106,"is_reserved":false,"is_disabled":false,"rental_uris":{"android":"levelo://app?vid=259412ae-a9bb-43fa-89b0-91ce274ab21d","ios":"levelo://app?vid=259412ae-a9bb-43fa-89b0-91ce274ab21d"},"vehicle_type_id":"4","last_reported":1735758380,"current_range_meters":39200,"station_id":"ce4bhkp2rcd13ifvqgd0","pricing_plan_id":"cebpf4jnsgd1na2vs0mg"},{"bike_id":"497234a9-b95c-4e76-86fc-3686ab6c20e4","system_id":"levelo_inurba_marseille","lat":43.27947,"lon":5.41043,"is_reserved":false,"is_disabled":false,"rental_uris":{"android":"levelo://app?vid=497234a9-b95c-4e76-86fc-3686ab6c20e4","ios":"levelo://app?vid=497234a9-b95c-4e76-86fc-3686ab6c20e4"},"vehicle_type_id":"4","last_reported":1735758380,"current_range_meters":27200,"station_id":"ce4bhnp2rcd13ifvqh0g","pricing_plan_id":"cebpf4jnsgd1na2vs0mg"},{"bike_id":"20659d93-4d73-4c77-bdf3-5a50208f850c","system_id":"levelo_inurba_marseille","lat":43.2466,"lon":5.38166,"is_reserved":false,"is_disabled":false,"rental_uris":{"android":"levelo://app?vid=20659d93-4d73-4c77-bdf3-5a50208f850c","ios":"levelo://app?vid=20659d93-4d73-4c77-bdf3-5a50208f850c"},"vehicle_type_id":"4","last_reported":1735758380,"current_range_meters":28400,"station_id":"ce4bhih2rcd13ifvqfr0","pricing_plan_id":"cebpf4jnsgd1na2vs0mg"},{"bike_id":"cf31e266-dbc1-4055-8c97-9541632bf561","system_id":"levelo_inurba_marseille","lat":43.24538,"lon":5.39526,"is_reserved":false,"is_disabled":false,"rental_uris":{"android":"levelo://app?vid=cf31e266-dbc1-4055-8c97-9541632bf561","ios":"levelo://app?vid=cf31e266-dbc1-4055-8c97-9541632bf561"},"vehicle_type_id":"4","last_reported":1735758380,"current_range_meters":36400,"station_id":"ce4bhlp2rcd13ifvqgjg","pricing_plan_id":"cebpf4jnsgd1na2vs0mg"},{"bike_id":"894955ae-53f5-4dd8-be6e-7b65b17c33af","system_id":"levelo_inurba_marseille","lat":43.29442,"lon":5.39756,"is_reserved":false,"is_disabled":false,"rental_uris":{"android":"levelo://app?vid=894955ae-53f5-4dd8-be6e-7b65b17c33af","ios":"levelo://app?vid=894955ae-53f5-4dd8-be6e-7b65b17c33af"},"vehicle_type_id":"4","last_reported":1735758380,"current_range_meters":38000,"station_id":"ce4bh3h2rcd13ifvqdo0","pricing_plan_id":"cebpf4jnsgd1na2vs0mg"},{"bike_id":"8ad09b60-3a79-4fc1-9f8d-63dc687108f3","system_id":"levelo_inurba_marseille","lat":43.33746,"lon":5.37452,"is_reserved":false,"is_disabled":false,"rental_uris":{"android":"levelo://app?vid=8ad09b60-3a79-4fc1-9f8d-63dc687108f3","ios":"levelo://app?vid=8ad09b60-3a79-4fc1-9f8d-63dc687108f3"},"vehicle_type_id":"4","last_reported":1735758380,"current_range_meters":36400,"station_id":"","pricing_plan_id":"cebpf4jnsgd1na2vs0mg"},{"bike_id":"116f92ae-65b4-4f7c-a23b-1117c0a69b33","system_id":"levelo_inurba_marseille","lat":43.2862,"lon":5.35095,"is_reserved":false,"is_disabled":false,"rental_uris":{"android":"levelo://app?vid=116f92ae-65b4-4f7c-a23b-1117c0a69b33","ios":"levelo://app?vid=116f92ae-65b4-4f7c-a23b-1117c0a69b33"},"vehicle_type_id":"4","last_reported":1735758380,"current_range_meters":34800,"station_id":"ce4bhch2rcd13ifvqeug","pricing_plan_id":"cebpf4jnsgd1na2vs0mg"},{"bike_id":"e423629e-caf1-4427-8702-b30357fe9b81","system_id":"levelo_inurba_marseille","lat":43.25017,"lon":5.38924,"is_reserved":false,"is_disabled":false,"rental_uris":{"android":"levelo://app?vid=e423629e-caf1-4427-8702-b30357fe9b81","ios":"levelo://app?vid=e423629e-caf1-4427-8702-b30357fe9b81"},"vehicle_type_id":"4","last_reported":1735758380,"current_range_meters":22000,"station_id":"ce4bhgp2rcd13ifvqfd0","pricing_plan_id":"cebpf4jnsgd1na2vs0mg"},{"bike_id":"5430a545-a0f1-45ad-a500-b4193006fdcf","system_id":"levelo_inurba_marseille","lat":43.23194,"lon":5.35546,"is_reserved":false,"is_disabled":false,"rental_uris":{"android":"levelo://app?vid=5430a545-a0f1-45ad-a500-b4193006fdcf","ios":"levelo://app?vid=5430a545-a0f1-45ad-a500-b4193006fdcf"},"vehicle_type_id":"4","last_reported":1735758380,"current_range_meters":24800,"station_id":"ce4bhu92rcd13ifvqi70","pricing_plan_id":"cebpf4jnsgd1na2vs0mg"},{"bike_id":"18391261-2da5-4823-915a-3973b5de088e","system_id":"levelo_inurba_marseille","lat":43.28706,"lon":5.37402,"is_reserved":false,"is_disabled":false,"rental_uris":{"android":"levelo://app?vid=18391261-2da5-4823-915a-3973b5de088e","ios":"levelo://app?vid=18391261-2da5-4823-915a-3973b5de088e"},"vehicle_type_id":"4","last_reported":1735758380,"current_range_meters":26800,"station_id":"ce4bh3p2rcd13ifvqdq0","pricing_plan_id":"cebpf4jnsgd1na2vs0mg"},{"bike_id":"a2570662-08a2-4bb2-aa3f-2bb953b09301","system_id":"levelo_inurba_marseille","lat":43.32016,"lon":5.41582,"is_reserved":false,"is_disabled":false,"rental_uris":{"android":"levelo://app?vid=a2570662-08a2-4bb2-aa3f-2bb953b09301","ios":"levelo://app?vid=a2570662-08a2-4bb2-aa3f-2bb953b09301"},"vehicle_type_id":"4","last_reported":1735758380,"current_range_meters":38400,"station_id":"ce4bhq92rcd13ifvqhkg","pricing_plan_id":"cebpf4jnsgd1na2vs0mg"},{"bike_id":"ebb56956-e2e2-4f51-8f7a-80ccc26c078c","system_id":"levelo_inurba_marseille","lat":43.28147,"lon":5.42633,"is_reserved":false,"is_disabled":false,"rental_uris":{"android":"levelo://app?vid=ebb56956-e2e2-4f51-8f7a-80ccc26c078c","ios":"levelo://app?vid=ebb56956-e2e2-4f51-8f7a-80ccc26c078c"},"vehicle_type_id":"4","last_reported":1735758380,"current_range_meters":37600,"station_id":"ce4bhnh2rcd13ifvqgug","pricing_plan_id":"cebpf4jnsgd1na2vs0mg"},{"bike_id":"231101e3-5552-421b-ad79-40d05dd09ca1","system_id":"levelo_inurba_marseille","lat":43.33719,"lon":5.39186,"is_reserved":false,"is_disabled":false,"rental_uris":{"android":"levelo://app?vid=231101e3-5552-421b-ad79-40d05dd09ca1","ios":"levelo://app?vid=231101e3-5552-421b-ad79-40d05dd09ca1"},"vehicle_type_id":"4","last_reported":1735758380,"current_range_meters":38800,"station_id":"ce4bhr92rcd13ifvqhsg","pricing_plan_id":"cebpf4jnsgd1na2vs0mg"},{"bike_id":"a9aba83c-1a0e-4f87-90b0-0117fbf422b6","system_id":"levelo_inurba_marseille","lat":43.30135,"lon":5.38775,"is_reserved":false,"is_disabled":false,"rental_uris":{"android":"levelo://app?vid=a9aba83c-1a0e-4f87-90b0-0117fbf422b6","ios":"levelo://app?vid=a9aba83c-1a0e-4f87-90b0-0117fbf422b6"},"vehicle_type_id":"4","last_reported":1735758380,"current_range_meters":28400,"station_id":"ce4bhoh2rcd13ifvqh6g","pricing_plan_id":"cebpf4jnsgd1na2vs0mg"},{"bike_id":"406c72fc-c815-4840-861a-36d7f7f2fd01","system_id":"levelo_inurba_marseille","lat":43.23201,"lon":5.35548,"is_reserved":false,"is_disabled":false,"rental_uris":{"android":"levelo://app?vid=406c72fc-c815-4840-861a-36d7f7f2fd01","ios":"levelo://app?vid=406c72fc-c815-4840-861a-36d7f7f2fd01"},"vehicle_type_id":"4","last_reported":1735758380,"current_range_meters":39200,"station_id":"ce4bhu92rcd13ifvqi70","pricing_plan_id":"cebpf4jnsgd1na2vs0mg"},{"bike_id":"8deff479-5918-4929-a91a-272aa1c2b3df","system_id":"levelo_inurba_marseille","lat":43.30608,"lon":5.39298,"is_reserved":false,"is_disabled":false,"rental_uris":{"android":"levelo://app?vid=8deff479-5918-4929-a91a-272aa1c2b3df","ios":"levelo://app?vid=8deff479-5918-4929-a91a-272aa1c2b3df"},"vehicle_type_id":"4","last_reported":1735758380,"current_range_meters":38400,"station_id":"","pricing_plan_id":"cebpf4jnsgd1na2vs0mg"},{"bike_id":"a1897298-635d-40f7-ad90-6dea8f3551fd","system_id":"levelo_inurba_marseille","lat":43.28345,"lon":5.38083,"is_reserved":false,"is_disabled":false,"rental_uris":{"android":"levelo://app?vid=a1897298-635d-40f7-ad90-6dea8f3551fd","ios":"levelo://app?vid=a1897298-635d-40f7-ad90-6dea8f3551fd"},"vehicle_type_id":"4","last_reported":1735758380,"current_range_meters":39200,"station_id":"ce4bh412rcd13ifvqdr0","pricing_plan_id":"cebpf4jnsgd1na2vs0mg"},{"bike_id":"693565d8-0f71-489f-a808-334818089308","system_id":"levelo_inurba_marseille","lat":43.30887,"lon":5.37194,"is_reserved":false,"is_disabled":false,"rental_uris":{"android":"levelo://app?vid=693565d8-0f71-489f-a808-334818089308","ios":"levelo://app?vid=693565d8-0f71-489f-a808-334818089308"},"vehicle_type_id":"4","last_reported":1735758380,"current_range_meters":32800,"station_id":"ce4bguh2rcd13ifvqckg","pricing_plan_id":"cebpf4jnsgd1na2vs0mg"},{"bike_id":"a3517146-3a38-485e-9b65-46f28f14e1c6","system_id":"levelo_inurba_marseille","lat":43.26942,"lon":5.38927,"is_reserved":false,"is_disabled":false,"rental_uris":{"android":"levelo://app?vid=a3517146-3a38-485e-9b65-46f28f14e1c6","ios":"levelo://app?vid=a3517146-3a38-485e-9b65-46f28f14e1c6"},"vehicle_type_id":"4","last_reported":1735758380,"current_range_meters":30400,"station_id":"ce4bhhh2rcd13ifvqfl0","pricing_plan_id":"cebpf4jnsgd1na2vs0mg"},{"bike_id":"6d3379aa-0f1b-4ef6-a7dc-b0f6d379d543","system_id":"levelo_inurba_marseille","lat":43.25874,"lon":5.39878,"is_reserved":false,"is_disabled":false,"rental_uris":{"android":"levelo://app?vid=6d3379aa-0f1b-4ef6-a7dc-b0f6d379d543","ios":"levelo://app?vid=6d3379aa-0f1b-4ef6-a7dc-b0f6d379d543"},"vehicle_type_id":"4","last_reported":1735758380,"current_range_meters":38800,"station_id":"ce4bhl92rcd13ifvqghg","pricing_plan_id":"cebpf4jnsgd1na2vs0mg"},{"bike_id":"1bc86929-a7c5-4532-aa73-e694188946da","system_id":"levelo_inurba_marseille","lat":43.28653,"lon":5.36348,"is_reserved":false,"is_disabled":false,"rental_uris":{"android":"levelo://app?vid=1bc86929-a7c5-4532-aa73-e694188946da","ios":"levelo://app?vid=1bc86929-a7c5-4532-aa73-e694188946da"},"vehicle_type_id":"4","last_reported":1735758380,"current_range_meters":39200,"station_id":"ce4bhah2rcd13ifvqej0","pricing_plan_id":"cebpf4jnsgd1na2vs0mg"},{"bike_id":"90dcc629-5958-4da7-812b-cb8e3d24dd0e","system_id":"levelo_inurba_marseille","lat":43.28695,"lon":5.38664,"is_reserved":false,"is_disabled":false,"rental_uris":{"android":"levelo://app?vid=90dcc629-5958-4da7-812b-cb8e3d24dd0e","ios":"levelo://app?vid=90dcc629-5958-4da7-812b-cb8e3d24dd0e"},"vehicle_type_id":"4","last_reported":1735758380,"current_range_meters":35600,"station_id":"ce4bh492rcd13ifvqdug","pricing_plan_id":"cebpf4jnsgd1na2vs0mg"},{"bike_id":"0414a468-1219-4f8e-a750-d9badae394df","system_id":"levelo_inurba_marseille","lat":43.28078,"lon":5.39634,"is_reserved":false,"is_disabled":false,"rental_uris":{"android":"levelo://app?vid=0414a468-1219-4f8e-a750-d9badae394df","ios":"levelo://app?vid=0414a468-1219-4f8e-a750-d9badae394df"},"vehicle_type_id":"4","last_reported":1735758380,"current_range_meters":39200,"station_id":"ce4bho12rcd13ifvqh2g","pricing_plan_id":"cebpf4jnsgd1na2vs0mg"},{"bike_id":"63897349-1a46-416c-accd-1549bc376970","system_id":"levelo_inurba_marseille","lat":43.25821,"lon":5.39431,"is_reserved":false,"is_disabled":false,"rental_uris":{"android":"levelo://app?vid=63897349-1a46-416c-accd-1549bc376970","ios":"levelo://app?vid=63897349-1a46-416c-accd-1549bc376970"},"vehicle_type_id":"4","last_reported":1735758380,"current_range_meters":38000,"station_id":"ce4bhip2rcd13ifvqft0","pricing_plan_id":"cebpf4jnsgd1na2vs0mg"},{"bike_id":"ff49d49a-53c3-499a-b296-89a67f332a8a","system_id":"levelo_inurba_marseille","lat":43.2417,"lon":5.36429,"is_reserved":false,"is_disabled":false,"rental_uris":{"android":"levelo://app?vid=ff49d49a-53c3-499a-b296-89a67f332a8a","ios":"levelo://app?vid=ff49d49a-53c3-499a-b296-89a67f332a8a"},"vehicle_type_id":"4","last_reported":1735758380,"current_range_meters":32400,"station_id":"cpo36qri1sfpv3e86is0","pricing_plan_id":"cebpf4jnsgd1na2vs0mg"},{"bike_id":"9bda046f-4b0f-48f1-b8cf-fc74125c4d91","system_id":"levelo_inurba_marseille","lat":43.31318,"lon":5.39703,"is_reserved":false,"is_disabled":false,"rental_uris":{"android":"levelo://app?vid=9bda046f-4b0f-48f1-b8cf-fc74125c4d91","ios":"levelo://app?vid=9bda046f-4b0f-48f1-b8cf-fc74125c4d91"},"vehicle_type_id":"4","last_reported":1735758380,"current_range_meters":39200,"station_id":"ce4bgvp2rcd13ifvqcu0","pricing_plan_id":"cebpf4jnsgd1na2vs0mg"},{"bike_id":"be0e0304-336c-4d8e-ada3-33a38d0dd544","system_id":"levelo_inurba_marseille","lat":43.3131,"lon":5.3683,"is_reserved":false,"is_disabled":true,"rental_uris":{"android":"levelo://app?vid=be0e0304-336c-4d8e-ada3-33a38d0dd544","ios":"levelo://app?vid=be0e0304-336c-4d8e-ada3-33a38d0dd544"},"vehicle_type_id":"4","last_reported":1735758380,"current_range_meters":28000,"station_id":"","pricing_plan_id":"cebpf4jnsgd1na2vs0mg"},{"bike_id":"fe2ed51f-6871-400c-b411-213d0c0c4c0b","system_id":"levelo_inurba_marseille","lat":43.28439,"lon":5.39205,"is_reserved":false,"is_disabled":false,"rental_uris":{"android":"levelo://app?vid=fe2ed51f-6871-400c-b411-213d0c0c4c0b","ios":"levelo://app?vid=fe2ed51f-6871-400c-b411-213d0c0c4c0b"},"vehicle_type_id":"4","last_reported":1735758380,"current_range_meters":38800,"station_id":"ce4bhoh2rcd13ifvqh5g","pricing_plan_id":"cebpf4jnsgd1na2vs0mg"},{"bike_id":"ec687720-4efc-448d-9ce8-fcfe4d3a5f30","system_id":"levelo_inurba_marseille","lat":43.27263,"lon":5.39221,"is_reserved":false,"is_disabled":true,"rental_uris":{"android":"levelo://app?vid=ec687720-4efc-448d-9ce8-fcfe4d3a5f30","ios":"levelo://app?vid=ec687720-4efc-448d-9ce8-fcfe4d3a5f30"},"vehicle_type_id":"4","last_reported":1735758380,"current_range_meters":26000,"station_id":"ce4bhhp2rcd13ifvqfm0","pricing_plan_id":"cebpf4jnsgd1na2vs0mg"},{"bike_id":"027085de-3c06-4c90-8099-b9537f78e863","system_id":"levelo_inurba_marseille","lat":43.23174,"lon":5.43664,"is_reserved":false,"is_disabled":false,"rental_uris":{"android":"levelo://app?vid=027085de-3c06-4c90-8099-b9537f78e863","ios":"levelo://app?vid=027085de-3c06-4c90-8099-b9537f78e863"},"vehicle_type_id":"4","last_reported":1735758380,"current_range_meters":34000,"station_id":"ce4bhmp2rcd13ifvqgog","pricing_plan_id":"cebpf4jnsgd1na2vs0mg"},{"bike_id":"91b3e88a-e1bd-4ba8-8379-05b7d6904ebe","system_id":"levelo_inurba_marseille","lat":43.27839,"lon":5.39211,"is_reserved":false,"is_disabled":false,"rental_uris":{"android":"levelo://app?vid=91b3e88a-e1bd-4ba8-8379-05b7d6904ebe","ios":"levelo://app?vid=91b3e88a-e1bd-4ba8-8379-05b7d6904ebe"},"vehicle_type_id":"4","last_reported":1735758380,"current_range_meters":27200,"station_id":"ce4bhjp2rcd13ifvqga0","pricing_plan_id":"cebpf4jnsgd1na2vs0mg"},{"bike_id":"f585701f-ce56-4599-8126-d7d811fe7259","system_id":"levelo_inurba_marseille","lat":43.28555,"lon":5.39522,"is_reserved":false,"is_disabled":false,"rental_uris":{"android":"levelo://app?vid=f585701f-ce56-4599-8126-d7d811fe7259","ios":"levelo://app?vid=f585701f-ce56-4599-8126-d7d811fe7259"},"vehicle_type_id":"4","last_reported":1735758380,"current_range_meters":24800,"station_id":"ce4bh292rcd13ifvqdg0","pricing_plan_id":"cebpf4jnsgd1na2vs0mg"},{"bike_id":"dd43ec1a-328a-4f14-a1c5-2dfbd492ab23","system_id":"levelo_inurba_marseille","lat":43.31325,"lon":5.39696,"is_reserved":false,"is_disabled":false,"rental_uris":{"android":"levelo://app?vid=dd43ec1a-328a-4f14-a1c5-2dfbd492ab23","ios":"levelo://app?vid=dd43ec1a-328a-4f14-a1c5-2dfbd492ab23"},"vehicle_type_id":"4","last_reported":1735758380,"current_range_meters":32800,"station_id":"ce4bgvp2rcd13ifvqcu0","pricing_plan_id":"cebpf4jnsgd1na2vs0mg"},{"bike_id":"e7774da4-c308-4bfa-aba8-31efca07b3a0","system_id":"levelo_inurba_marseille","lat":43.33741,"lon":5.37467,"is_reserved":false,"is_disabled":true,"rental_uris":{"android":"levelo://app?vid=e7774da4-c308-4bfa-aba8-31efca07b3a0","ios":"levelo://app?vid=e7774da4-c308-4bfa-aba8-31efca07b3a0"},"vehicle_type_id":"4","last_reported":1735758380,"current_range_meters":6800,"station_id":"","pricing_plan_id":"cebpf4jnsgd1na2vs0mg"},{"bike_id":"9b5916a1-20b4-45b5-ae28-a04ea7106c34","system_id":"levelo_inurba_marseille","lat":43.2756,"lon":5.38417,"is_reserved":false,"is_disabled":false,"rental_uris":{"android":"levelo://app?vid=9b5916a1-20b4-45b5-ae28-a04ea7106c34","ios":"levelo://app?vid=9b5916a1-20b4-45b5-ae28-a04ea7106c34"},"vehicle_type_id":"4","last_reported":1735758380,"current_range_meters":28800,"station_id":"ce4bhh92rcd13ifvqfi0","pricing_plan_id":"cebpf4jnsgd1na2vs0mg"},{"bike_id":"ad09079b-2a66-443a-a13d-b1f84ab569d5","system_id":"levelo_inurba_marseille","lat":43.25016,"lon":5.38928,"is_reserved":false,"is_disabled":false,"rental_uris":{"android":"levelo://app?vid=ad09079b-2a66-443a-a13d-b1f84ab569d5","ios":"levelo://app?vid=ad09079b-2a66-443a-a13d-b1f84ab569d5"},"vehicle_type_id":"4","last_reported":1735758380,"current_range_meters":37600,"station_id":"ce4bhgp2rcd13ifvqfd0","pricing_plan_id":"cebpf4jnsgd1na2vs0mg"},{"bike_id":"3c7472a4-a45c-4f46-a692-aa44ebf92f21","system_id":"levelo_inurba_marseille","lat":43.27412,"lon":5.39409,"is_reserved":false,"is_disabled":false,"rental_uris":{"android":"levelo://app?vid=3c7472a4-a45c-4f46-a692-aa44ebf92f21","ios":"levelo://app?vid=3c7472a4-a45c-4f46-a692-aa44ebf92f21"},"vehicle_type_id":"4","last_reported":1735758380,"current_range_meters":38400,"station_id":"ce4bhdp2rcd13ifvqf20","pricing_plan_id":"cebpf4jnsgd1na2vs0mg"},{"bike_id":"1b9666de-703f-4874-9b63-e9d42533848b","system_id":"levelo_inurba_marseille","lat":43.31879,"lon":5.40747,"is_reserved":false,"is_disabled":false,"rental_uris":{"android":"levelo://app?vid=1b9666de-703f-4874-9b63-e9d42533848b","ios":"levelo://app?vid=1b9666de-703f-4874-9b63-e9d42533848b"},"vehicle_type_id":"4","last_reported":1735758380,"current_range_meters":38800,"station_id":"ce4bhq12rcd13ifvqhig","pricing_plan_id":"cebpf4jnsgd1na2vs0mg"},{"bike_id":"9b3dc9e2-5376-4946-8202-fd71dbdd0300","system_id":"levelo_inurba_marseille","lat":43.29976,"lon":5.37168,"is_reserved":false,"is_disabled":false,"rental_uris":{"android":"levelo://app?vid=9b3dc9e2-5376-4946-8202-fd71dbdd0300","ios":"levelo://app?vid=9b3dc9e2-5376-4946-8202-fd71dbdd0300"},"vehicle_type_id":"4","last_reported":1735758380,"current_range_meters":28800,"station_id":"ce4bgr92rcd13ifvqc7g","pricing_plan_id":"cebpf4jnsgd1na2vs0mg"},{"bike_id":"7091cf27-e4da-4e7e-bcfd-331a23f138d3","system_id":"levelo_inurba_marseille","lat":43.32105,"lon":5.36797,"is_reserved":false,"is_disabled":false,"rental_uris":{"android":"levelo://app?vid=7091cf27-e4da-4e7e-bcfd-331a23f138d3","ios":"levelo://app?vid=7091cf27-e4da-4e7e-bcfd-331a23f138d3"},"vehicle_type_id":"4","last_reported":1735758380,"current_range_meters":38800,"station_id":"ce4bhrh2rcd13ifvqhug","pricing_plan_id":"cebpf4jnsgd1na2vs0mg"},{"bike_id":"461a91f7-abbd-4490-b359-539df559ba7b","system_id":"levelo_inurba_marseille","lat":43.262237,"lon":5.37432,"is_reserved":false,"is_disabled":false,"rental_uris":{"android":"levelo://app?vid=461a91f7-abbd-4490-b359-539df559ba7b","ios":"levelo://app?vid=461a91f7-abbd-4490-b359-539df559ba7b"},"vehicle_type_id":"4","last_reported":1735758380,"current_range_meters":33600,"station_id":"","pricing_plan_id":"cebpf4jnsgd1na2vs0mg"},{"bike_id":"4b9b3c02-7773-410b-a74d-2537aad0fdc1","system_id":"levelo_inurba_marseille","lat":43.28409,"lon":5.37516,"is_reserved":false,"is_disabled":false,"rental_uris":{"android":"levelo://app?vid=4b9b3c02-7773-410b-a74d-2537aad0fdc1","ios":"levelo://app?vid=4b9b3c02-7773-410b-a74d-2537aad0fdc1"},"vehicle_type_id":"4","last_reported":1735758380,"current_range_meters":30000,"station_id":"ce4bh412rcd13ifvqds0","pricing_plan_id":"cebpf4jnsgd1na2vs0mg"},{"bike_id":"9ce61e9e-6ad8-49b3-bc4a-d849750d2edb","system_id":"levelo_inurba_marseille","lat":43.26941,"lon":5.38917,"is_reserved":false,"is_disabled":false,"rental_uris":{"android":"levelo://app?vid=9ce61e9e-6ad8-49b3-bc4a-d849750d2edb","ios":"levelo://app?vid=9ce61e9e-6ad8-49b3-bc4a-d849750d2edb"},"vehicle_type_id":"4","last_reported":1735758380,"current_range_meters":28400,"station_id":"ce4bhhh2rcd13ifvqfl0","pricing_plan_id":"cebpf4jnsgd1na2vs0mg"},{"bike_id":"54f409ab-82fa-46b7-9531-9fdab74bf367","system_id":"levelo_inurba_marseille","lat":43.25538,"lon":5.37621,"is_reserved":false,"is_disabled":false,"rental_uris":{"android":"levelo://app?vid=54f409ab-82fa-46b7-9531-9fdab74bf367","ios":"levelo://app?vid=54f409ab-82fa-46b7-9531-9fdab74bf367"},"vehicle_type_id":"4","last_reported":1735758380,"current_range_meters":19200,"station_id":"","pricing_plan_id":"cebpf4jnsgd1na2vs0mg"},{"bike_id":"da3075ee-8070-42f9-8350-58e475a60c82","system_id":"levelo_inurba_marseille","lat":43.27575,"lon":5.38422,"is_reserved":false,"is_disabled":false,"rental_uris":{"android":"levelo://app?vid=da3075ee-8070-42f9-8350-58e475a60c82","ios":"levelo://app?vid=da3075ee-8070-42f9-8350-58e475a60c82"},"vehicle_type_id":"4","last_reported":1735758380,"current_range_meters":39200,"station_id":"ce4bhh92rcd13ifvqfi0","pricing_plan_id":"cebpf4jnsgd1na2vs0mg"},{"bike_id":"6aacec50-2926-4c88-b181-933e1d05a184","system_id":"levelo_inurba_marseille","lat":43.30654,"lon":5.37262,"is_reserved":false,"is_disabled":false,"rental_uris":{"android":"levelo://app?vid=6aacec50-2926-4c88-b181-933e1d05a184","ios":"levelo://app?vid=6aacec50-2926-4c88-b181-933e1d05a184"},"vehicle_type_id":"4","last_reported":1735758380,"current_range_meters":38400,"station_id":"","pricing_plan_id":"cebpf4jnsgd1na2vs0mg"},{"bike_id":"f4e21194-bae0-47dd-9943-53bf3035cc9f","system_id":"levelo_inurba_marseille","lat":43.24646,"lon":5.38912,"is_reserved":false,"is_disabled":false,"rental_uris":{"android":"levelo://app?vid=f4e21194-bae0-47dd-9943-53bf3035cc9f","ios":"levelo://app?vid=f4e21194-bae0-47dd-9943-53bf3035cc9f"},"vehicle_type_id":"4","last_reported":1735758380,"current_range_meters":39200,"station_id":"ce4bhg12rcd13ifvqf60","pricing_plan_id":"cebpf4jnsgd1na2vs0mg"},{"bike_id":"edef67d7-5c40-4f54-afb7-0b1514203358","system_id":"levelo_inurba_marseille","lat":43.23178,"lon":5.3999,"is_reserved":false,"is_disabled":true,"rental_uris":{"android":"levelo://app?vid=edef67d7-5c40-4f54-afb7-0b1514203358","ios":"levelo://app?vid=edef67d7-5c40-4f54-afb7-0b1514203358"},"vehicle_type_id":"4","last_reported":1735758380,"current_range_meters":1200,"station_id":"ce4bhn12rcd13ifvqgqg","pricing_plan_id":"cebpf4jnsgd1na2vs0mg"},{"bike_id":"ea96dab3-00a1-45d6-ba26-916def337e3b","system_id":"levelo_inurba_marseille","lat":43.29619,"lon":5.37709,"is_reserved":false,"is_disabled":false,"rental_uris":{"android":"levelo://app?vid=ea96dab3-00a1-45d6-ba26-916def337e3b","ios":"levelo://app?vid=ea96dab3-00a1-45d6-ba26-916def337e3b"},"vehicle_type_id":"4","last_reported":1735758380,"current_range_meters":35600,"station_id":"ce4bgi92rcd13ifvqb90","pricing_plan_id":"cebpf4jnsgd1na2vs0mg"},{"bike_id":"bf2271ab-8244-4014-b49a-8f4a14a65934","system_id":"levelo_inurba_marseille","lat":43.29301,"lon":5.36844,"is_reserved":false,"is_disabled":false,"rental_uris":{"android":"levelo://app?vid=bf2271ab-8244-4014-b49a-8f4a14a65934","ios":"levelo://app?vid=bf2271ab-8244-4014-b49a-8f4a14a65934"},"vehicle_type_id":"4","last_reported":1735758380,"current_range_meters":27200,"station_id":"ce4bhbp2rcd13ifvqesg","pricing_plan_id":"cebpf4jnsgd1na2vs0mg"},{"bike_id":"e5fc90b8-f4d7-48fe-9b1b-e04042412667","system_id":"levelo_inurba_marseille","lat":43.31983,"lon":5.38176,"is_reserved":false,"is_disabled":false,"rental_uris":{"android":"levelo://app?vid=e5fc90b8-f4d7-48fe-9b1b-e04042412667","ios":"levelo://app?vid=e5fc90b8-f4d7-48fe-9b1b-e04042412667"},"vehicle_type_id":"4","last_reported":1735758380,"current_range_meters":38800,"station_id":"ce4bhr12rcd13ifvqhpg","pricing_plan_id":"cebpf4jnsgd1na2vs0mg"},{"bike_id":"fa339e12-8405-4f84-8580-3f43033745d7","system_id":"levelo_inurba_marseille","lat":43.27836,"lon":5.39212,"is_reserved":false,"is_disabled":false,"rental_uris":{"android":"levelo://app?vid=fa339e12-8405-4f84-8580-3f43033745d7","ios":"levelo://app?vid=fa339e12-8405-4f84-8580-3f43033745d7"},"vehicle_type_id":"4","last_reported":1735758380,"current_range_meters":36400,"station_id":"ce4bhjp2rcd13ifvqga0","pricing_plan_id":"cebpf4jnsgd1na2vs0mg"},{"bike_id":"d0137bba-5489-4449-9aa6-55a5ebb92ac7","system_id":"levelo_inurba_marseille","lat":43.28261,"lon":5.35071,"is_reserved":false,"is_disabled":false,"rental_uris":{"android":"levelo://app?vid=d0137bba-5489-4449-9aa6-55a5ebb92ac7","ios":"levelo://app?vid=d0137bba-5489-4449-9aa6-55a5ebb92ac7"},"vehicle_type_id":"4","last_reported":1735758380,"current_range_meters":36400,"station_id":"ce4bhbp2rcd13ifvqerg","pricing_plan_id":"cebpf4jnsgd1na2vs0mg"},{"bike_id":"74ed22a5-de01-4786-a2a1-7a98bacad395","system_id":"levelo_inurba_marseille","lat":43.30234,"lon":5.40031,"is_reserved":false,"is_disabled":false,"rental_uris":{"android":"levelo://app?vid=74ed22a5-de01-4786-a2a1-7a98bacad395","ios":"levelo://app?vid=74ed22a5-de01-4786-a2a1-7a98bacad395"},"vehicle_type_id":"4","last_reported":1735758380,"current_range_meters":30000,"station_id":"ce4bgvh2rcd13ifvqcs0","pricing_plan_id":"cebpf4jnsgd1na2vs0mg"},{"bike_id":"5a7beb78-7877-4eff-b310-11a71644b149","system_id":"levelo_inurba_marseille","lat":43.29796,"lon":5.38088,"is_reserved":false,"is_disabled":false,"rental_uris":{"android":"levelo://app?vid=5a7beb78-7877-4eff-b310-11a71644b149","ios":"levelo://app?vid=5a7beb78-7877-4eff-b310-11a71644b149"},"vehicle_type_id":"4","last_reported":1735758380,"current_range_meters":20400,"station_id":"ce4bgip2rcd13ifvqbb0","pricing_plan_id":"cebpf4jnsgd1na2vs0mg"},{"bike_id":"661176b1-07fb-4c72-bd65-b63d098d7427","system_id":"levelo_inurba_marseille","lat":43.28464,"lon":5.35888,"is_reserved":false,"is_disabled":false,"rental_uris":{"android":"levelo://app?vid=661176b1-07fb-4c72-bd65-b63d098d7427","ios":"levelo://app?vid=661176b1-07fb-4c72-bd65-b63d098d7427"},"vehicle_type_id":"4","last_reported":1735758380,"current_range_meters":23200,"station_id":"ce4bhah2rcd13ifvqei0","pricing_plan_id":"cebpf4jnsgd1na2vs0mg"},{"bike_id":"37fd69aa-45fe-4af6-b217-bec10957aebd","system_id":"levelo_inurba_marseille","lat":43.30812,"lon":5.38157,"is_reserved":false,"is_disabled":true,"rental_uris":{"android":"levelo://app?vid=37fd69aa-45fe-4af6-b217-bec10957aebd","ios":"levelo://app?vid=37fd69aa-45fe-4af6-b217-bec10957aebd"},"vehicle_type_id":"4","last_reported":1735758380,"current_range_meters":38800,"station_id":"ce4bgt12rcd13ifvqce0","pricing_plan_id":"cebpf4jnsgd1na2vs0mg"},{"bike_id":"da9895f2-e09a-40e4-a1b6-9c5c87623f1b","system_id":"levelo_inurba_marseille","lat":43.25086,"lon":5.39529,"is_reserved":false,"is_disabled":false,"rental_uris":{"android":"levelo://app?vid=da9895f2-e09a-40e4-a1b6-9c5c87623f1b","ios":"levelo://app?vid=da9895f2-e09a-40e4-a1b6-9c5c87623f1b"},"vehicle_type_id":"4","last_reported":1735758380,"current_range_meters":38400,"station_id":"ce4bhm12rcd13ifvqgkg","pricing_plan_id":"cebpf4jnsgd1na2vs0mg"},{"bike_id":"67a6b95c-958b-4f02-8856-a5b2a8d5cdf1","system_id":"levelo_inurba_marseille","lat":43.31363,"lon":5.38482,"is_reserved":false,"is_disabled":false,"rental_uris":{"android":"levelo://app?vid=67a6b95c-958b-4f02-8856-a5b2a8d5cdf1","ios":"levelo://app?vid=67a6b95c-958b-4f02-8856-a5b2a8d5cdf1"},"vehicle_type_id":"4","last_reported":1735758380,"current_range_meters":35600,"station_id":"ce4bgt92rcd13ifvqcf0","pricing_plan_id":"cebpf4jnsgd1na2vs0mg"},{"bike_id":"f5776f36-33e3-4c38-88a2-ce837060fc80","system_id":"levelo_inurba_marseille","lat":43.30877,"lon":5.37203,"is_reserved":false,"is_disabled":false,"rental_uris":{"android":"levelo://app?vid=f5776f36-33e3-4c38-88a2-ce837060fc80","ios":"levelo://app?vid=f5776f36-33e3-4c38-88a2-ce837060fc80"},"vehicle_type_id":"4","last_reported":1735758380,"current_range_meters":24800,"station_id":"ce4bguh2rcd13ifvqckg","pricing_plan_id":"cebpf4jnsgd1na2vs0mg"},{"bike_id":"a1c87532-6196-402b-916e-8ad945b95f72","system_id":"levelo_inurba_marseille","lat":43.25118,"lon":5.40322,"is_reserved":false,"is_disabled":false,"rental_uris":{"android":"levelo://app?vid=a1c87532-6196-402b-916e-8ad945b95f72","ios":"levelo://app?vid=a1c87532-6196-402b-916e-8ad945b95f72"},"vehicle_type_id":"4","last_reported":1735758380,"current_range_meters":17200,"station_id":"ce4bhlh2rcd13ifvqgig","pricing_plan_id":"cebpf4jnsgd1na2vs0mg"},{"bike_id":"4ce38f45-b3ef-4ce1-84b1-8cf7c7ee4592","system_id":"levelo_inurba_marseille","lat":43.27943,"lon":5.41013,"is_reserved":false,"is_disabled":false,"rental_uris":{"android":"levelo://app?vid=4ce38f45-b3ef-4ce1-84b1-8cf7c7ee4592","ios":"levelo://app?vid=4ce38f45-b3ef-4ce1-84b1-8cf7c7ee4592"},"vehicle_type_id":"4","last_reported":1735758380,"current_range_meters":36800,"station_id":"ce4bhnp2rcd13ifvqh0g","pricing_plan_id":"cebpf4jnsgd1na2vs0mg"},{"bike_id":"86eec8e7-8fb4-4114-aa18-b387b8a21c2e","system_id":"levelo_inurba_marseille","lat":43.31552,"lon":5.38931,"is_reserved":false,"is_disabled":false,"rental_uris":{"android":"levelo://app?vid=86eec8e7-8fb4-4114-aa18-b387b8a21c2e","ios":"levelo://app?vid=86eec8e7-8fb4-4114-aa18-b387b8a21c2e"},"vehicle_type_id":"4","last_reported":1735758380,"current_range_meters":29600,"station_id":"","pricing_plan_id":"cebpf4jnsgd1na2vs0mg"},{"bike_id":"849f7cfd-3f7e-49b1-9d6e-57047fbe1612","system_id":"levelo_inurba_marseille","lat":43.28154,"lon":5.42639,"is_reserved":false,"is_disabled":false,"rental_uris":{"android":"levelo://app?vid=849f7cfd-3f7e-49b1-9d6e-57047fbe1612","ios":"levelo://app?vid=849f7cfd-3f7e-49b1-9d6e-57047fbe1612"},"vehicle_type_id":"4","last_reported":1735758380,"current_range_meters":38800,"station_id":"ce4bhnh2rcd13ifvqgug","pricing_plan_id":"cebpf4jnsgd1na2vs0mg"},{"bike_id":"91e7990b-b48a-49b3-a727-d44988b59bfc","system_id":"levelo_inurba_marseille","lat":43.29641,"lon":5.37142,"is_reserved":false,"is_disabled":false,"rental_uris":{"android":"levelo://app?vid=91e7990b-b48a-49b3-a727-d44988b59bfc","ios":"levelo://app?vid=91e7990b-b48a-49b3-a727-d44988b59bfc"},"vehicle_type_id":"4","last_reported":1735758380,"current_range_meters":38800,"station_id":"ce4bgnh2rcd13ifvqc0g","pricing_plan_id":"cebpf4jnsgd1na2vs0mg"},{"bike_id":"68e8c75e-9946-43d3-be59-dffea5327c53","system_id":"levelo_inurba_marseille","lat":43.29517,"lon":5.37501,"is_reserved":false,"is_disabled":false,"rental_uris":{"android":"levelo://app?vid=68e8c75e-9946-43d3-be59-dffea5327c53","ios":"levelo://app?vid=68e8c75e-9946-43d3-be59-dffea5327c53"},"vehicle_type_id":"4","last_reported":1735758380,"current_range_meters":32400,"station_id":"ce4bgkp2rcd13ifvqbmg","pricing_plan_id":"cebpf4jnsgd1na2vs0mg"},{"bike_id":"6401e78c-e1bc-4ad8-a2aa-1922d8a91f43","system_id":"levelo_inurba_marseille","lat":43.29538,"lon":5.39043,"is_reserved":false,"is_disabled":false,"rental_uris":{"android":"levelo://app?vid=6401e78c-e1bc-4ad8-a2aa-1922d8a91f43","ios":"levelo://app?vid=6401e78c-e1bc-4ad8-a2aa-1922d8a91f43"},"vehicle_type_id":"4","last_reported":1735758380,"current_range_meters":25200,"station_id":"ce4bh3p2rcd13ifvqdp0","pricing_plan_id":"cebpf4jnsgd1na2vs0mg"},{"bike_id":"73bb3ca9-e79e-4486-ac3c-222b2e9dbe79","system_id":"levelo_inurba_marseille","lat":43.30794,"lon":5.38176,"is_reserved":false,"is_disabled":false,"rental_uris":{"android":"levelo://app?vid=73bb3ca9-e79e-4486-ac3c-222b2e9dbe79","ios":"levelo://app?vid=73bb3ca9-e79e-4486-ac3c-222b2e9dbe79"},"vehicle_type_id":"4","last_reported":1735758380,"current_range_meters":38000,"station_id":"ce4bgt12rcd13ifvqce0","pricing_plan_id":"cebpf4jnsgd1na2vs0mg"},{"bike_id":"cb347289-eac0-449e-a1bc-34d1cde2eb07","system_id":"levelo_inurba_marseille","lat":43.25866,"lon":5.39895,"is_reserved":false,"is_disabled":false,"rental_uris":{"android":"levelo://app?vid=cb347289-eac0-449e-a1bc-34d1cde2eb07","ios":"levelo://app?vid=cb347289-eac0-449e-a1bc-34d1cde2eb07"},"vehicle_type_id":"4","last_reported":1735758380,"current_range_meters":23200,"station_id":"ce4bhl92rcd13ifvqghg","pricing_plan_id":"cebpf4jnsgd1na2vs0mg"},{"bike_id":"2b2475b5-5299-409a-90a2-4c23041eb7fd","system_id":"levelo_inurba_marseille","lat":43.32652,"lon":5.40998,"is_reserved":false,"is_disabled":false,"rental_uris":{"android":"levelo://app?vid=2b2475b5-5299-409a-90a2-4c23041eb7fd","ios":"levelo://app?vid=2b2475b5-5299-409a-90a2-4c23041eb7fd"},"vehicle_type_id":"4","last_reported":1735758380,"current_range_meters":38000,"station_id":"ce4bhpp2rcd13ifvqhgg","pricing_plan_id":"cebpf4jnsgd1na2vs0mg"},{"bike_id":"1b33b6d0-5a72-4a65-8926-f2cdeae6e3e3","system_id":"levelo_inurba_marseille","lat":43.31357,"lon":5.38504,"is_reserved":false,"is_disabled":true,"rental_uris":{"android":"levelo://app?vid=1b33b6d0-5a72-4a65-8926-f2cdeae6e3e3","ios":"levelo://app?vid=1b33b6d0-5a72-4a65-8926-f2cdeae6e3e3"},"vehicle_type_id":"4","last_reported":1735758380,"current_range_meters":24400,"station_id":"ce4bgt92rcd13ifvqcf0","pricing_plan_id":"cebpf4jnsgd1na2vs0mg"},{"bike_id":"8e43fa85-9764-4a8e-9f3b-20e1a8b81057","system_id":"levelo_inurba_marseille","lat":43.33853,"lon":5.4229,"is_reserved":false,"is_disabled":false,"rental_uris":{"android":"levelo://app?vid=8e43fa85-9764-4a8e-9f3b-20e1a8b81057","ios":"levelo://app?vid=8e43fa85-9764-4a8e-9f3b-20e1a8b81057"},"vehicle_type_id":"4","last_reported":1735758380,"current_range_meters":8400,"station_id":"","pricing_plan_id":"cebpf4jnsgd1na2vs0mg"},{"bike_id":"8d92cbbc-3cce-4972-908b-ea89a4f0540e","system_id":"levelo_inurba_marseille","lat":43.28573,"lon":5.39498,"is_reserved":false,"is_disabled":false,"rental_uris":{"android":"levelo://app?vid=8d92cbbc-3cce-4972-908b-ea89a4f0540e","ios":"levelo://app?vid=8d92cbbc-3cce-4972-908b-ea89a4f0540e"},"vehicle_type_id":"4","last_reported":1735758380,"current_range_meters":25600,"station_id":"ce4bh292rcd13ifvqdg0","pricing_plan_id":"cebpf4jnsgd1na2vs0mg"},{"bike_id":"544f1707-8cee-4515-8c4e-024e8c5531e8","system_id":"levelo_inurba_marseille","lat":43.32487,"lon":5.36597,"is_reserved":false,"is_disabled":false,"rental_uris":{"android":"levelo://app?vid=544f1707-8cee-4515-8c4e-024e8c5531e8","ios":"levelo://app?vid=544f1707-8cee-4515-8c4e-024e8c5531e8"},"vehicle_type_id":"4","last_reported":1735758380,"current_range_meters":14400,"station_id":"ce4bhs12rcd13ifvqhvg","pricing_plan_id":"cebpf4jnsgd1na2vs0mg"},{"bike_id":"94657e78-df48-49dc-b1ba-58dd71b2ca0e","system_id":"levelo_inurba_marseille","lat":43.26563,"lon":5.37302,"is_reserved":false,"is_disabled":false,"rental_uris":{"android":"levelo://app?vid=94657e78-df48-49dc-b1ba-58dd71b2ca0e","ios":"levelo://app?vid=94657e78-df48-49dc-b1ba-58dd71b2ca0e"},"vehicle_type_id":"4","last_reported":1735758380,"current_range_meters":38800,"station_id":"ce4bhg12rcd13ifvqf70","pricing_plan_id":"cebpf4jnsgd1na2vs0mg"},{"bike_id":"a77cb61b-7bf4-4634-bc34-29d17b6073d0","system_id":"levelo_inurba_marseille","lat":43.24395,"lon":5.37043,"is_reserved":false,"is_disabled":false,"rental_uris":{"android":"levelo://app?vid=a77cb61b-7bf4-4634-bc34-29d17b6073d0","ios":"levelo://app?vid=a77cb61b-7bf4-4634-bc34-29d17b6073d0"},"vehicle_type_id":"4","last_reported":1735758380,"current_range_meters":39200,"station_id":"ce4bhhh2rcd13ifvqfk0","pricing_plan_id":"cebpf4jnsgd1na2vs0mg"},{"bike_id":"1c767333-f70f-4718-bcc9-6de55d631ae5","system_id":"levelo_inurba_marseille","lat":43.26808,"lon":5.40264,"is_reserved":false,"is_disabled":false,"rental_uris":{"android":"levelo://app?vid=1c767333-f70f-4718-bcc9-6de55d631ae5","ios":"levelo://app?vid=1c767333-f70f-4718-bcc9-6de55d631ae5"},"vehicle_type_id":"4","last_reported":1735758380,"current_range_meters":26000,"station_id":"ce501612rcd8frsf0b60","pricing_plan_id":"cebpf4jnsgd1na2vs0mg"},{"bike_id":"a98efb14-bbbd-47cd-936f-6c35cda77112","system_id":"levelo_inurba_marseille","lat":43.29619,"lon":5.36752,"is_reserved":false,"is_disabled":false,"rental_uris":{"android":"levelo://app?vid=a98efb14-bbbd-47cd-936f-6c35cda77112","ios":"levelo://app?vid=a98efb14-bbbd-47cd-936f-6c35cda77112"},"vehicle_type_id":"4","last_reported":1735758380,"current_range_meters":8800,"station_id":"ce4bgph2rcd13ifvqc2g","pricing_plan_id":"cebpf4jnsgd1na2vs0mg"},{"bike_id":"55f092de-def1-4c6f-ae8a-e62832d8ed12","system_id":"levelo_inurba_marseille","lat":43.28356,"lon":5.38102,"is_reserved":false,"is_disabled":false,"rental_uris":{"android":"levelo://app?vid=55f092de-def1-4c6f-ae8a-e62832d8ed12","ios":"levelo://app?vid=55f092de-def1-4c6f-ae8a-e62832d8ed12"},"vehicle_type_id":"4","last_reported":1735758380,"current_range_meters":32000,"station_id":"ce4bh412rcd13ifvqdr0","pricing_plan_id":"cebpf4jnsgd1na2vs0mg"},{"bike_id":"19ffc8a9-5597-40c4-9942-7ed734cd3ec7","system_id":"levelo_inurba_marseille","lat":43.23248,"lon":5.43601,"is_reserved":false,"is_disabled":false,"rental_uris":{"android":"levelo://app?vid=19ffc8a9-5597-40c4-9942-7ed734cd3ec7","ios":"levelo://app?vid=19ffc8a9-5597-40c4-9942-7ed734cd3ec7"},"vehicle_type_id":"4","last_reported":1735758380,"current_range_meters":22800,"station_id":"ce4bhmp2rcd13ifvqgog","pricing_plan_id":"cebpf4jnsgd1na2vs0mg"},{"bike_id":"cd74a333-9a1d-4930-b287-4902bed467c1","system_id":"levelo_inurba_marseille","lat":43.30843,"lon":5.38121,"is_reserved":false,"is_disabled":false,"rental_uris":{"android":"levelo://app?vid=cd74a333-9a1d-4930-b287-4902bed467c1","ios":"levelo://app?vid=cd74a333-9a1d-4930-b287-4902bed467c1"},"vehicle_type_id":"4","last_reported":1735758380,"current_range_meters":38800,"station_id":"","pricing_plan_id":"cebpf4jnsgd1na2vs0mg"},{"bike_id":"85578774-6fa4-4df0-93d9-e107d4c8bc8c","system_id":"levelo_inurba_marseille","lat":43.29974,"lon":5.38488,"is_reserved":false,"is_disabled":false,"rental_uris":{"android":"levelo://app?vid=85578774-6fa4-4df0-93d9-e107d4c8bc8c","ios":"levelo://app?vid=85578774-6fa4-4df0-93d9-e107d4c8bc8c"},"vehicle_type_id":"4","last_reported":1735758380,"current_range_meters":24800,"station_id":"ce4bgj92rcd13ifvqbd0","pricing_plan_id":"cebpf4jnsgd1na2vs0mg"},{"bike_id":"d996ebe6-a085-4671-8aef-57e91ba860dc","system_id":"levelo_inurba_marseille","lat":43.26793,"lon":5.40238,"is_reserved":false,"is_disabled":false,"rental_uris":{"android":"levelo://app?vid=d996ebe6-a085-4671-8aef-57e91ba860dc","ios":"levelo://app?vid=d996ebe6-a085-4671-8aef-57e91ba860dc"},"vehicle_type_id":"4","last_reported":1735758380,"current_range_meters":28000,"station_id":"ce501612rcd8frsf0b60","pricing_plan_id":"cebpf4jnsgd1na2vs0mg"},{"bike_id":"c56a3219-37c6-4c43-8f9c-4c4aa83cf516","system_id":"levelo_inurba_marseille","lat":43.28924,"lon":5.38378,"is_reserved":false,"is_disabled":false,"rental_uris":{"android":"levelo://app?vid=c56a3219-37c6-4c43-8f9c-4c4aa83cf516","ios":"levelo://app?vid=c56a3219-37c6-4c43-8f9c-4c4aa83cf516"},"vehicle_type_id":"4","last_reported":1735758380,"current_range_meters":36000,"station_id":"ce4bh612rcd13ifvqe6g","pricing_plan_id":"cebpf4jnsgd1na2vs0mg"},{"bike_id":"71c8f6c4-4b62-4d76-a891-350fccb2f3ce","system_id":"levelo_inurba_marseille","lat":43.28421,"lon":5.34992,"is_reserved":false,"is_disabled":false,"rental_uris":{"android":"levelo://app?vid=71c8f6c4-4b62-4d76-a891-350fccb2f3ce","ios":"levelo://app?vid=71c8f6c4-4b62-4d76-a891-350fccb2f3ce"},"vehicle_type_id":"4","last_reported":1735758380,"current_range_meters":14400,"station_id":"ce4bhbh2rcd13ifvqepg","pricing_plan_id":"cebpf4jnsgd1na2vs0mg"},{"bike_id":"4f939790-971c-4150-ba1c-57362882c2b7","system_id":"levelo_inurba_marseille","lat":43.29985,"lon":5.38476,"is_reserved":false,"is_disabled":false,"rental_uris":{"android":"levelo://app?vid=4f939790-971c-4150-ba1c-57362882c2b7","ios":"levelo://app?vid=4f939790-971c-4150-ba1c-57362882c2b7"},"vehicle_type_id":"4","last_reported":1735758380,"current_range_meters":7200,"station_id":"ce4bgj92rcd13ifvqbd0","pricing_plan_id":"cebpf4jnsgd1na2vs0mg"},{"bike_id":"9f9baf82-ccc3-4af6-a9ba-b1f658ca83af","system_id":"levelo_inurba_marseille","lat":43.2417,"lon":5.39709,"is_reserved":false,"is_disabled":false,"rental_uris":{"android":"levelo://app?vid=9f9baf82-ccc3-4af6-a9ba-b1f658ca83af","ios":"levelo://app?vid=9f9baf82-ccc3-4af6-a9ba-b1f658ca83af"},"vehicle_type_id":"4","last_reported":1735758380,"current_range_meters":16000,"station_id":"ce4bhn12rcd13ifvqgpg","pricing_plan_id":"cebpf4jnsgd1na2vs0mg"},{"bike_id":"9296373e-a8da-4ff9-a488-98089ece75a4","system_id":"levelo_inurba_marseille","lat":43.28429,"lon":5.34986,"is_reserved":false,"is_disabled":false,"rental_uris":{"android":"levelo://app?vid=9296373e-a8da-4ff9-a488-98089ece75a4","ios":"levelo://app?vid=9296373e-a8da-4ff9-a488-98089ece75a4"},"vehicle_type_id":"4","last_reported":1735758380,"current_range_meters":6000,"station_id":"ce4bhbh2rcd13ifvqepg","pricing_plan_id":"cebpf4jnsgd1na2vs0mg"},{"bike_id":"009590d6-3f17-4e51-8bc8-d39c7ec9c85d","system_id":"levelo_inurba_marseille","lat":43.30447,"lon":5.38897,"is_reserved":false,"is_disabled":false,"rental_uris":{"android":"levelo://app?vid=009590d6-3f17-4e51-8bc8-d39c7ec9c85d","ios":"levelo://app?vid=009590d6-3f17-4e51-8bc8-d39c7ec9c85d"},"vehicle_type_id":"4","last_reported":1735758380,"current_range_meters":39200,"station_id":"ce4bgk12rcd13ifvqbi0","pricing_plan_id":"cebpf4jnsgd1na2vs0mg"},{"bike_id":"b774f9e2-8d0b-464a-b4fd-25edae1fdbb0","system_id":"levelo_inurba_marseille","lat":43.31183,"lon":5.36891,"is_reserved":false,"is_disabled":false,"rental_uris":{"android":"levelo://app?vid=b774f9e2-8d0b-464a-b4fd-25edae1fdbb0","ios":"levelo://app?vid=b774f9e2-8d0b-464a-b4fd-25edae1fdbb0"},"vehicle_type_id":"4","last_reported":1735758380,"current_range_meters":32800,"station_id":"","pricing_plan_id":"cebpf4jnsgd1na2vs0mg"},{"bike_id":"d2e7c051-6db7-4786-ab4b-44e6a6530b6c","system_id":"levelo_inurba_marseille","lat":43.30134,"lon":5.37409,"is_reserved":false,"is_disabled":false,"rental_uris":{"android":"levelo://app?vid=d2e7c051-6db7-4786-ab4b-44e6a6530b6c","ios":"levelo://app?vid=d2e7c051-6db7-4786-ab4b-44e6a6530b6c"},"vehicle_type_id":"4","last_reported":1735758380,"current_range_meters":16400,"station_id":"ce4bgs92rcd13ifvqcc0","pricing_plan_id":"cebpf4jnsgd1na2vs0mg"},{"bike_id":"c44d076e-c1f0-47e0-a329-a52ce8462fee","system_id":"levelo_inurba_marseille","lat":43.31233,"lon":5.36864,"is_reserved":false,"is_disabled":false,"rental_uris":{"android":"levelo://app?vid=c44d076e-c1f0-47e0-a329-a52ce8462fee","ios":"levelo://app?vid=c44d076e-c1f0-47e0-a329-a52ce8462fee"},"vehicle_type_id":"4","last_reported":1735758380,"current_range_meters":30400,"station_id":"ce4bgl92rcd13ifvqbq0","pricing_plan_id":"cebpf4jnsgd1na2vs0mg"},{"bike_id":"062bd3e7-a1b0-4a7b-be3e-67845610f912","system_id":"levelo_inurba_marseille","lat":43.31326,"lon":5.4016,"is_reserved":false,"is_disabled":false,"rental_uris":{"android":"levelo://app?vid=062bd3e7-a1b0-4a7b-be3e-67845610f912","ios":"levelo://app?vid=062bd3e7-a1b0-4a7b-be3e-67845610f912"},"vehicle_type_id":"4","last_reported":1735758380,"current_range_meters":28400,"station_id":"","pricing_plan_id":"cebpf4jnsgd1na2vs0mg"},{"bike_id":"65de1a48-837c-4d3e-8090-e3b21b858f34","system_id":"levelo_inurba_marseille","lat":43.28076,"lon":5.39624,"is_reserved":false,"is_disabled":false,"rental_uris":{"android":"levelo://app?vid=65de1a48-837c-4d3e-8090-e3b21b858f34","ios":"levelo://app?vid=65de1a48-837c-4d3e-8090-e3b21b858f34"},"vehicle_type_id":"4","last_reported":1735758380,"current_range_meters":39200,"station_id":"ce4bho12rcd13ifvqh2g","pricing_plan_id":"cebpf4jnsgd1na2vs0mg"},{"bike_id":"ddb487b9-8adc-4c65-a4da-ed1e737c5e1d","system_id":"levelo_inurba_marseille","lat":43.28848,"lon":5.39313,"is_reserved":false,"is_disabled":false,"rental_uris":{"android":"levelo://app?vid=ddb487b9-8adc-4c65-a4da-ed1e737c5e1d","ios":"levelo://app?vid=ddb487b9-8adc-4c65-a4da-ed1e737c5e1d"},"vehicle_type_id":"4","last_reported":1735758380,"current_range_meters":38800,"station_id":"ce4bh2p2rcd13ifvqdi0","pricing_plan_id":"cebpf4jnsgd1na2vs0mg"},{"bike_id":"42d9687b-df97-4218-b4aa-bb5d351494d7","system_id":"levelo_inurba_marseille","lat":43.2815,"lon":5.4264,"is_reserved":false,"is_disabled":false,"rental_uris":{"android":"levelo://app?vid=42d9687b-df97-4218-b4aa-bb5d351494d7","ios":"levelo://app?vid=42d9687b-df97-4218-b4aa-bb5d351494d7"},"vehicle_type_id":"4","last_reported":1735758380,"current_range_meters":12800,"station_id":"ce4bhnh2rcd13ifvqgug","pricing_plan_id":"cebpf4jnsgd1na2vs0mg"},{"bike_id":"6ef39cf2-9335-427d-88a0-a018f070fb57","system_id":"levelo_inurba_marseille","lat":43.3175,"lon":5.39024,"is_reserved":false,"is_disabled":false,"rental_uris":{"android":"levelo://app?vid=6ef39cf2-9335-427d-88a0-a018f070fb57","ios":"levelo://app?vid=6ef39cf2-9335-427d-88a0-a018f070fb57"},"vehicle_type_id":"4","last_reported":1735758380,"current_range_meters":26800,"station_id":"ce4bhqp2rcd13ifvqhng","pricing_plan_id":"cebpf4jnsgd1na2vs0mg"},{"bike_id":"4fbcaf20-cf0a-4c4c-92d5-e96f1d04da7c","system_id":"levelo_inurba_marseille","lat":43.25003,"lon":5.38926,"is_reserved":false,"is_disabled":false,"rental_uris":{"android":"levelo://app?vid=4fbcaf20-cf0a-4c4c-92d5-e96f1d04da7c","ios":"levelo://app?vid=4fbcaf20-cf0a-4c4c-92d5-e96f1d04da7c"},"vehicle_type_id":"4","last_reported":1735758380,"current_range_meters":8800,"station_id":"ce4bhgp2rcd13ifvqfd0","pricing_plan_id":"cebpf4jnsgd1na2vs0mg"},{"bike_id":"b3dc9ac6-d5fd-4462-b3a0-7552cc8666a3","system_id":"levelo_inurba_marseille","lat":43.28853,"lon":5.39323,"is_reserved":false,"is_disabled":false,"rental_uris":{"android":"levelo://app?vid=b3dc9ac6-d5fd-4462-b3a0-7552cc8666a3","ios":"levelo://app?vid=b3dc9ac6-d5fd-4462-b3a0-7552cc8666a3"},"vehicle_type_id":"4","last_reported":1735758380,"current_range_meters":37600,"station_id":"ce4bh2p2rcd13ifvqdi0","pricing_plan_id":"cebpf4jnsgd1na2vs0mg"},{"bike_id":"d9039fb6-1526-43a5-ab47-bf6c74051347","system_id":"levelo_inurba_marseille","lat":43.28159,"lon":5.42625,"is_reserved":false,"is_disabled":false,"rental_uris":{"android":"levelo://app?vid=d9039fb6-1526-43a5-ab47-bf6c74051347","ios":"levelo://app?vid=d9039fb6-1526-43a5-ab47-bf6c74051347"},"vehicle_type_id":"4","last_reported":1735758380,"current_range_meters":6400,"station_id":"ce4bhnh2rcd13ifvqgug","pricing_plan_id":"cebpf4jnsgd1na2vs0mg"},{"bike_id":"b5e3865b-10bc-4c4f-ad14-18834fa7a270","system_id":"levelo_inurba_marseille","lat":43.30316,"lon":5.36896,"is_reserved":false,"is_disabled":false,"rental_uris":{"android":"levelo://app?vid=b5e3865b-10bc-4c4f-ad14-18834fa7a270","ios":"levelo://app?vid=b5e3865b-10bc-4c4f-ad14-18834fa7a270"},"vehicle_type_id":"4","last_reported":1735758380,"current_range_meters":39200,"station_id":"ce4bgqh2rcd13ifvqc5g","pricing_plan_id":"cebpf4jnsgd1na2vs0mg"},{"bike_id":"56dfe87c-4a9a-43f4-8cc5-fbd141905422","system_id":"levelo_inurba_marseille","lat":43.30125,"lon":5.39882,"is_reserved":false,"is_disabled":false,"rental_uris":{"android":"levelo://app?vid=56dfe87c-4a9a-43f4-8cc5-fbd141905422","ios":"levelo://app?vid=56dfe87c-4a9a-43f4-8cc5-fbd141905422"},"vehicle_type_id":"4","last_reported":1735758380,"current_range_meters":20800,"station_id":"ce4bh0h2rcd13ifvqd40","pricing_plan_id":"cebpf4jnsgd1na2vs0mg"},{"bike_id":"29e74cc3-01c5-4c68-9cf1-710cc057bc39","system_id":"levelo_inurba_marseille","lat":43.2861,"lon":5.35107,"is_reserved":false,"is_disabled":false,"rental_uris":{"android":"levelo://app?vid=29e74cc3-01c5-4c68-9cf1-710cc057bc39","ios":"levelo://app?vid=29e74cc3-01c5-4c68-9cf1-710cc057bc39"},"vehicle_type_id":"4","last_reported":1735758380,"current_range_meters":22400,"station_id":"ce4bhch2rcd13ifvqeug","pricing_plan_id":"cebpf4jnsgd1na2vs0mg"},{"bike_id":"022d826a-d31d-48ef-b07e-f8dd0ceaa746","system_id":"levelo_inurba_marseille","lat":43.24996,"lon":5.38935,"is_reserved":false,"is_disabled":false,"rental_uris":{"android":"levelo://app?vid=022d826a-d31d-48ef-b07e-f8dd0ceaa746","ios":"levelo://app?vid=022d826a-d31d-48ef-b07e-f8dd0ceaa746"},"vehicle_type_id":"4","last_reported":1735758380,"current_range_meters":31200,"station_id":"ce4bhgp2rcd13ifvqfd0","pricing_plan_id":"cebpf4jnsgd1na2vs0mg"},{"bike_id":"a20a7c6b-5d25-4b6b-b14e-de0632342600","system_id":"levelo_inurba_marseille","lat":43.31169,"lon":5.38711,"is_reserved":false,"is_disabled":false,"rental_uris":{"android":"levelo://app?vid=a20a7c6b-5d25-4b6b-b14e-de0632342600","ios":"levelo://app?vid=a20a7c6b-5d25-4b6b-b14e-de0632342600"},"vehicle_type_id":"4","last_reported":1735758380,"current_range_meters":34800,"station_id":"ce4bgv12rcd13ifvqcp0","pricing_plan_id":"cebpf4jnsgd1na2vs0mg"},{"bike_id":"04e7867a-1371-4222-a6db-9d80083cea73","system_id":"levelo_inurba_marseille","lat":43.28844,"lon":5.35846,"is_reserved":false,"is_disabled":false,"rental_uris":{"android":"levelo://app?vid=04e7867a-1371-4222-a6db-9d80083cea73","ios":"levelo://app?vid=04e7867a-1371-4222-a6db-9d80083cea73"},"vehicle_type_id":"4","last_reported":1735758380,"current_range_meters":32400,"station_id":"ce4bhb12rcd13ifvqem0","pricing_plan_id":"cebpf4jnsgd1na2vs0mg"},{"bike_id":"02ebe399-134a-4b91-bd01-fef639f34e09","system_id":"levelo_inurba_marseille","lat":43.25836,"lon":5.39437,"is_reserved":false,"is_disabled":false,"rental_uris":{"android":"levelo://app?vid=02ebe399-134a-4b91-bd01-fef639f34e09","ios":"levelo://app?vid=02ebe399-134a-4b91-bd01-fef639f34e09"},"vehicle_type_id":"4","last_reported":1735758380,"current_range_meters":25600,"station_id":"ce4bhip2rcd13ifvqft0","pricing_plan_id":"cebpf4jnsgd1na2vs0mg"},{"bike_id":"dd5bf540-d636-450a-84a5-d69d2a5201fa","system_id":"levelo_inurba_marseille","lat":43.31362,"lon":5.385,"is_reserved":false,"is_disabled":false,"rental_uris":{"android":"levelo://app?vid=dd5bf540-d636-450a-84a5-d69d2a5201fa","ios":"levelo://app?vid=dd5bf540-d636-450a-84a5-d69d2a5201fa"},"vehicle_type_id":"4","last_reported":1735758380,"current_range_meters":30800,"station_id":"ce4bgt92rcd13ifvqcf0","pricing_plan_id":"cebpf4jnsgd1na2vs0mg"},{"bike_id":"04fd48c9-54a4-4d82-867b-114eea4f6a18","system_id":"levelo_inurba_marseille","lat":43.28275,"lon":5.35072,"is_reserved":false,"is_disabled":false,"rental_uris":{"android":"levelo://app?vid=04fd48c9-54a4-4d82-867b-114eea4f6a18","ios":"levelo://app?vid=04fd48c9-54a4-4d82-867b-114eea4f6a18"},"vehicle_type_id":"4","last_reported":1735758380,"current_range_meters":28800,"station_id":"ce4bhbp2rcd13ifvqerg","pricing_plan_id":"cebpf4jnsgd1na2vs0mg"},{"bike_id":"16fa307c-bc46-4c6c-be6d-9d204a724375","system_id":"levelo_inurba_marseille","lat":43.28615,"lon":5.35099,"is_reserved":false,"is_disabled":true,"rental_uris":{"android":"levelo://app?vid=16fa307c-bc46-4c6c-be6d-9d204a724375","ios":"levelo://app?vid=16fa307c-bc46-4c6c-be6d-9d204a724375"},"vehicle_type_id":"4","last_reported":1735758380,"current_range_meters":27600,"station_id":"ce4bhch2rcd13ifvqeug","pricing_plan_id":"cebpf4jnsgd1na2vs0mg"},{"bike_id":"d6919b66-63b2-426d-a164-4e3034ee5698","system_id":"levelo_inurba_marseille","lat":43.29516,"lon":5.39047,"is_reserved":false,"is_disabled":false,"rental_uris":{"android":"levelo://app?vid=d6919b66-63b2-426d-a164-4e3034ee5698","ios":"levelo://app?vid=d6919b66-63b2-426d-a164-4e3034ee5698"},"vehicle_type_id":"4","last_reported":1735758380,"current_range_meters":38800,"station_id":"ce4bh3p2rcd13ifvqdp0","pricing_plan_id":"cebpf4jnsgd1na2vs0mg"},{"bike_id":"d159ce9e-4f2b-48e8-a8d3-449bfc5f8fd4","system_id":"levelo_inurba_marseille","lat":43.31325,"lon":5.39701,"is_reserved":false,"is_disabled":false,"rental_uris":{"android":"levelo://app?vid=d159ce9e-4f2b-48e8-a8d3-449bfc5f8fd4","ios":"levelo://app?vid=d159ce9e-4f2b-48e8-a8d3-449bfc5f8fd4"},"vehicle_type_id":"4","last_reported":1735758380,"current_range_meters":22400,"station_id":"ce4bgvp2rcd13ifvqcu0","pricing_plan_id":"cebpf4jnsgd1na2vs0mg"},{"bike_id":"50a1fe59-6de3-4565-8a2d-95a47c1519c3","system_id":"levelo_inurba_marseille","lat":43.27919,"lon":5.39581,"is_reserved":false,"is_disabled":false,"rental_uris":{"android":"levelo://app?vid=50a1fe59-6de3-4565-8a2d-95a47c1519c3","ios":"levelo://app?vid=50a1fe59-6de3-4565-8a2d-95a47c1519c3"},"vehicle_type_id":"4","last_reported":1735758380,"current_range_meters":20800,"station_id":"ce4bhf92rcd13ifvqf40","pricing_plan_id":"cebpf4jnsgd1na2vs0mg"},{"bike_id":"44d177c7-eea4-4936-8fb2-f4e78401eb94","system_id":"levelo_inurba_marseille","lat":43.25935,"lon":5.40911,"is_reserved":false,"is_disabled":true,"rental_uris":{"android":"levelo://app?vid=44d177c7-eea4-4936-8fb2-f4e78401eb94","ios":"levelo://app?vid=44d177c7-eea4-4936-8fb2-f4e78401eb94"},"vehicle_type_id":"4","last_reported":1735758380,"current_range_meters":400,"station_id":"ce4bhm92rcd13ifvqglg","pricing_plan_id":"cebpf4jnsgd1na2vs0mg"},{"bike_id":"350cf758-61b5-4914-a70c-ff104d24b281","system_id":"levelo_inurba_marseille","lat":43.29902,"lon":5.43669,"is_reserved":false,"is_disabled":false,"rental_uris":{"android":"levelo://app?vid=350cf758-61b5-4914-a70c-ff104d24b281","ios":"levelo://app?vid=350cf758-61b5-4914-a70c-ff104d24b281"},"vehicle_type_id":"4","last_reported":1735758380,"current_range_meters":38800,"station_id":"ce4bhpp2rcd13ifvqhfg","pricing_plan_id":"cebpf4jnsgd1na2vs0mg"},{"bike_id":"0d1ff5cf-b7b0-4046-9349-217de0019d60","system_id":"levelo_inurba_marseille","lat":43.28151,"lon":5.42652,"is_reserved":false,"is_disabled":false,"rental_uris":{"android":"levelo://app?vid=0d1ff5cf-b7b0-4046-9349-217de0019d60","ios":"levelo://app?vid=0d1ff5cf-b7b0-4046-9349-217de0019d60"},"vehicle_type_id":"4","last_reported":1735758380,"current_range_meters":12400,"station_id":"ce4bhnh2rcd13ifvqgug","pricing_plan_id":"cebpf4jnsgd1na2vs0mg"},{"bike_id":"a14add43-45fc-4660-a33e-37b39b91c096","system_id":"levelo_inurba_marseille","lat":43.2869,"lon":5.37409,"is_reserved":false,"is_disabled":false,"rental_uris":{"android":"levelo://app?vid=a14add43-45fc-4660-a33e-37b39b91c096","ios":"levelo://app?vid=a14add43-45fc-4660-a33e-37b39b91c096"},"vehicle_type_id":"4","last_reported":1735758380,"current_range_meters":37600,"station_id":"ce4bh3p2rcd13ifvqdq0","pricing_plan_id":"cebpf4jnsgd1na2vs0mg"},{"bike_id":"d9cdd14d-5b0e-4826-8b35-bdbc6fc9eceb","system_id":"levelo_inurba_marseille","lat":43.29219,"lon":5.3602,"is_reserved":false,"is_disabled":false,"rental_uris":{"android":"levelo://app?vid=d9cdd14d-5b0e-4826-8b35-bdbc6fc9eceb","ios":"levelo://app?vid=d9cdd14d-5b0e-4826-8b35-bdbc6fc9eceb"},"vehicle_type_id":"4","last_reported":1735758380,"current_range_meters":38800,"station_id":"ce4bhbh2rcd13ifvqeqg","pricing_plan_id":"cebpf4jnsgd1na2vs0mg"},{"bike_id":"ca16c776-2e50-4b16-9c6c-2a19719132b5","system_id":"levelo_inurba_marseille","lat":43.293395,"lon":5.370848,"is_reserved":false,"is_disabled":false,"rental_uris":{"android":"levelo://app?vid=ca16c776-2e50-4b16-9c6c-2a19719132b5","ios":"levelo://app?vid=ca16c776-2e50-4b16-9c6c-2a19719132b5"},"vehicle_type_id":"4","last_reported":1735758380,"current_range_meters":33200,"station_id":"","pricing_plan_id":"cebpf4jnsgd1na2vs0mg"},{"bike_id":"624a8e59-ef43-45a6-803a-3aa15936b2ff","system_id":"levelo_inurba_marseille","lat":43.25086,"lon":5.39526,"is_reserved":false,"is_disabled":true,"rental_uris":{"android":"levelo://app?vid=624a8e59-ef43-45a6-803a-3aa15936b2ff","ios":"levelo://app?vid=624a8e59-ef43-45a6-803a-3aa15936b2ff"},"vehicle_type_id":"4","last_reported":1735758380,"current_range_meters":20800,"station_id":"ce4bhm12rcd13ifvqgkg","pricing_plan_id":"cebpf4jnsgd1na2vs0mg"},{"bike_id":"575de015-57db-4606-a2e8-90d179a65e2f","system_id":"levelo_inurba_marseille","lat":43.29316,"lon":5.37184,"is_reserved":false,"is_disabled":false,"rental_uris":{"android":"levelo://app?vid=575de015-57db-4606-a2e8-90d179a65e2f","ios":"levelo://app?vid=575de015-57db-4606-a2e8-90d179a65e2f"},"vehicle_type_id":"4","last_reported":1735758380,"current_range_meters":10800,"station_id":"ce4bgh92rcd13ifvqb40","pricing_plan_id":"cebpf4jnsgd1na2vs0mg"},{"bike_id":"875ddf3d-2cfd-49c8-bd8d-f51a9265e541","system_id":"levelo_inurba_marseille","lat":43.26688,"lon":5.38272,"is_reserved":false,"is_disabled":false,"rental_uris":{"android":"levelo://app?vid=875ddf3d-2cfd-49c8-bd8d-f51a9265e541","ios":"levelo://app?vid=875ddf3d-2cfd-49c8-bd8d-f51a9265e541"},"vehicle_type_id":"4","last_reported":1735758380,"current_range_meters":27200,"station_id":"ce4bhg92rcd13ifvqf90","pricing_plan_id":"cebpf4jnsgd1na2vs0mg"},{"bike_id":"e7f232e6-9751-45f4-a24f-005b95d10947","system_id":"levelo_inurba_marseille","lat":43.29621,"lon":5.37709,"is_reserved":false,"is_disabled":true,"rental_uris":{"android":"levelo://app?vid=e7f232e6-9751-45f4-a24f-005b95d10947","ios":"levelo://app?vid=e7f232e6-9751-45f4-a24f-005b95d10947"},"vehicle_type_id":"4","last_reported":1735758380,"current_range_meters":6800,"station_id":"ce4bgi92rcd13ifvqb90","pricing_plan_id":"cebpf4jnsgd1na2vs0mg"},{"bike_id":"2124bfc2-7041-4239-86d3-4b503152cb3b","system_id":"levelo_inurba_marseille","lat":43.28853,"lon":5.35863,"is_reserved":false,"is_disabled":false,"rental_uris":{"android":"levelo://app?vid=2124bfc2-7041-4239-86d3-4b503152cb3b","ios":"levelo://app?vid=2124bfc2-7041-4239-86d3-4b503152cb3b"},"vehicle_type_id":"4","last_reported":1735758380,"current_range_meters":30800,"station_id":"ce4bhb12rcd13ifvqem0","pricing_plan_id":"cebpf4jnsgd1na2vs0mg"},{"bike_id":"f3998a04-3b93-4948-8eb7-aa16047370fd","system_id":"levelo_inurba_marseille","lat":43.27948,"lon":5.41055,"is_reserved":false,"is_disabled":false,"rental_uris":{"android":"levelo://app?vid=f3998a04-3b93-4948-8eb7-aa16047370fd","ios":"levelo://app?vid=f3998a04-3b93-4948-8eb7-aa16047370fd"},"vehicle_type_id":"4","last_reported":1735758380,"current_range_meters":26000,"station_id":"ce4bhnp2rcd13ifvqh0g","pricing_plan_id":"cebpf4jnsgd1na2vs0mg"},{"bike_id":"2241734e-29b7-4c37-ae32-2588a0ac3a7c","system_id":"levelo_inurba_marseille","lat":43.32485,"lon":5.36565,"is_reserved":false,"is_disabled":false,"rental_uris":{"android":"levelo://app?vid=2241734e-29b7-4c37-ae32-2588a0ac3a7c","ios":"levelo://app?vid=2241734e-29b7-4c37-ae32-2588a0ac3a7c"},"vehicle_type_id":"4","last_reported":1735758380,"current_range_meters":38800,"station_id":"ce4bhs12rcd13ifvqhvg","pricing_plan_id":"cebpf4jnsgd1na2vs0mg"},{"bike_id":"4e5ddd94-96b7-43d6-9911-f47ef0293625","system_id":"levelo_inurba_marseille","lat":43.30355,"lon":5.41866,"is_reserved":false,"is_disabled":false,"rental_uris":{"android":"levelo://app?vid=4e5ddd94-96b7-43d6-9911-f47ef0293625","ios":"levelo://app?vid=4e5ddd94-96b7-43d6-9911-f47ef0293625"},"vehicle_type_id":"4","last_reported":1735758380,"current_range_meters":38800,"station_id":"ce4bhop2rcd13ifvqh7g","pricing_plan_id":"cebpf4jnsgd1na2vs0mg"},{"bike_id":"454e635a-fe63-4370-ba83-5de3ae3da3e0","system_id":"levelo_inurba_marseille","lat":43.28398,"lon":5.37622,"is_reserved":false,"is_disabled":false,"rental_uris":{"android":"levelo://app?vid=454e635a-fe63-4370-ba83-5de3ae3da3e0","ios":"levelo://app?vid=454e635a-fe63-4370-ba83-5de3ae3da3e0"},"vehicle_type_id":"4","last_reported":1735758380,"current_range_meters":35600,"station_id":"","pricing_plan_id":"cebpf4jnsgd1na2vs0mg"},{"bike_id":"8ead7e35-2ddd-4db1-b525-2dbe32578065","system_id":"levelo_inurba_marseille","lat":43.30322,"lon":5.36907,"is_reserved":false,"is_disabled":true,"rental_uris":{"android":"levelo://app?vid=8ead7e35-2ddd-4db1-b525-2dbe32578065","ios":"levelo://app?vid=8ead7e35-2ddd-4db1-b525-2dbe32578065"},"vehicle_type_id":"4","last_reported":1735758380,"current_range_meters":33600,"station_id":"ce4bgqh2rcd13ifvqc5g","pricing_plan_id":"cebpf4jnsgd1na2vs0mg"},{"bike_id":"bb5a785f-e493-4000-9223-9d6b9f0e80a1","system_id":"levelo_inurba_marseille","lat":43.31169,"lon":5.38717,"is_reserved":false,"is_disabled":false,"rental_uris":{"android":"levelo://app?vid=bb5a785f-e493-4000-9223-9d6b9f0e80a1","ios":"levelo://app?vid=bb5a785f-e493-4000-9223-9d6b9f0e80a1"},"vehicle_type_id":"4","last_reported":1735758380,"current_range_meters":33600,"station_id":"ce4bgv12rcd13ifvqcp0","pricing_plan_id":"cebpf4jnsgd1na2vs0mg"},{"bike_id":"e157af35-862f-4ff3-a971-0cec14143385","system_id":"levelo_inurba_marseille","lat":43.27942,"lon":5.41049,"is_reserved":false,"is_disabled":false,"rental_uris":{"android":"levelo://app?vid=e157af35-862f-4ff3-a971-0cec14143385","ios":"levelo://app?vid=e157af35-862f-4ff3-a971-0cec14143385"},"vehicle_type_id":"4","last_reported":1735758380,"current_range_meters":31200,"station_id":"ce4bhnp2rcd13ifvqh0g","pricing_plan_id":"cebpf4jnsgd1na2vs0mg"},{"bike_id":"d81935cc-c2d8-41f1-87a6-1c6b256db8e0","system_id":"levelo_inurba_marseille","lat":43.3237,"lon":5.38887,"is_reserved":false,"is_disabled":false,"rental_uris":{"android":"levelo://app?vid=d81935cc-c2d8-41f1-87a6-1c6b256db8e0","ios":"levelo://app?vid=d81935cc-c2d8-41f1-87a6-1c6b256db8e0"},"vehicle_type_id":"4","last_reported":1735758380,"current_range_meters":30400,"station_id":"ce4bhqp2rcd13ifvqhog","pricing_plan_id":"cebpf4jnsgd1na2vs0mg"},{"bike_id":"703d0d5e-415c-49c6-943d-859388f28cf6","system_id":"levelo_inurba_marseille","lat":43.27192,"lon":5.4098,"is_reserved":false,"is_disabled":false,"rental_uris":{"android":"levelo://app?vid=703d0d5e-415c-49c6-943d-859388f28cf6","ios":"levelo://app?vid=703d0d5e-415c-49c6-943d-859388f28cf6"},"vehicle_type_id":"4","last_reported":1735758380,"current_range_meters":10000,"station_id":"ce4bhl12rcd13ifvqgf0","pricing_plan_id":"cebpf4jnsgd1na2vs0mg"},{"bike_id":"f5997a88-606e-48c9-933e-041b10894cea","system_id":"levelo_inurba_marseille","lat":43.2707,"lon":5.42273,"is_reserved":false,"is_disabled":false,"rental_uris":{"android":"levelo://app?vid=f5997a88-606e-48c9-933e-041b10894cea","ios":"levelo://app?vid=f5997a88-606e-48c9-933e-041b10894cea"},"vehicle_type_id":"4","last_reported":1735758380,"current_range_meters":17600,"station_id":"ce4bhk92rcd13ifvqgb0","pricing_plan_id":"cebpf4jnsgd1na2vs0mg"},{"bike_id":"18da1dff-2f53-49f3-b9e4-a97557da499d","system_id":"levelo_inurba_marseille","lat":43.295193,"lon":5.374995,"is_reserved":false,"is_disabled":false,"rental_uris":{"android":"levelo://app?vid=18da1dff-2f53-49f3-b9e4-a97557da499d","ios":"levelo://app?vid=18da1dff-2f53-49f3-b9e4-a97557da499d"},"vehicle_type_id":"4","last_reported":1735758380,"current_range_meters":28800,"station_id":"ce4bgkp2rcd13ifvqbmg","pricing_plan_id":"cebpf4jnsgd1na2vs0mg"},{"bike_id":"b2efc2c9-4c50-4ae0-9f7a-2ebbe60214c1","system_id":"levelo_inurba_marseille","lat":43.25116,"lon":5.40353,"is_reserved":false,"is_disabled":false,"rental_uris":{"android":"levelo://app?vid=b2efc2c9-4c50-4ae0-9f7a-2ebbe60214c1","ios":"levelo://app?vid=b2efc2c9-4c50-4ae0-9f7a-2ebbe60214c1"},"vehicle_type_id":"4","last_reported":1735758380,"current_range_meters":38800,"station_id":"ce4bhlh2rcd13ifvqgig","pricing_plan_id":"cebpf4jnsgd1na2vs0mg"},{"bike_id":"02b9e2b7-c456-4117-99f8-a5a1cc0170b4","system_id":"levelo_inurba_marseille","lat":43.31753,"lon":5.39038,"is_reserved":false,"is_disabled":false,"rental_uris":{"android":"levelo://app?vid=02b9e2b7-c456-4117-99f8-a5a1cc0170b4","ios":"levelo://app?vid=02b9e2b7-c456-4117-99f8-a5a1cc0170b4"},"vehicle_type_id":"4","last_reported":1735758380,"current_range_meters":36400,"station_id":"ce4bhqp2rcd13ifvqhng","pricing_plan_id":"cebpf4jnsgd1na2vs0mg"},{"bike_id":"c6538af1-ed8f-4a3e-80ff-79144ce5962d","system_id":"levelo_inurba_marseille","lat":43.3033,"lon":5.40429,"is_reserved":false,"is_disabled":false,"rental_uris":{"android":"levelo://app?vid=c6538af1-ed8f-4a3e-80ff-79144ce5962d","ios":"levelo://app?vid=c6538af1-ed8f-4a3e-80ff-79144ce5962d"},"vehicle_type_id":"4","last_reported":1735758380,"current_range_meters":34800,"station_id":"ce4bh012rcd13ifvqd10","pricing_plan_id":"cebpf4jnsgd1na2vs0mg"},{"bike_id":"54a0f462-5615-4e56-ad72-7f076a7c39fe","system_id":"levelo_inurba_marseille","lat":43.28666,"lon":5.36384,"is_reserved":false,"is_disabled":false,"rental_uris":{"android":"levelo://app?vid=54a0f462-5615-4e56-ad72-7f076a7c39fe","ios":"levelo://app?vid=54a0f462-5615-4e56-ad72-7f076a7c39fe"},"vehicle_type_id":"4","last_reported":1735758380,"current_range_meters":39200,"station_id":"ce4bhah2rcd13ifvqej0","pricing_plan_id":"cebpf4jnsgd1na2vs0mg"},{"bike_id":"4ae90592-e920-400e-8a25-b327a1d3d78f","system_id":"levelo_inurba_marseille","lat":43.246863,"lon":5.381663,"is_reserved":false,"is_disabled":false,"rental_uris":{"android":"levelo://app?vid=4ae90592-e920-400e-8a25-b327a1d3d78f","ios":"levelo://app?vid=4ae90592-e920-400e-8a25-b327a1d3d78f"},"vehicle_type_id":"4","last_reported":1735758380,"current_range_meters":38800,"station_id":"ce4bhih2rcd13ifvqfr0","pricing_plan_id":"cebpf4jnsgd1na2vs0mg"},{"bike_id":"6316c239-030a-4bc9-bf9b-dc31eb0124ff","system_id":"levelo_inurba_marseille","lat":43.29589,"lon":5.36735,"is_reserved":false,"is_disabled":false,"rental_uris":{"android":"levelo://app?vid=6316c239-030a-4bc9-bf9b-dc31eb0124ff","ios":"levelo://app?vid=6316c239-030a-4bc9-bf9b-dc31eb0124ff"},"vehicle_type_id":"4","last_reported":1735758380,"current_range_meters":38800,"station_id":"ce4bgph2rcd13ifvqc2g","pricing_plan_id":"cebpf4jnsgd1na2vs0mg"},{"bike_id":"bcd20683-a7d2-4d73-b9c6-b696fde50e59","system_id":"levelo_inurba_marseille","lat":43.27067,"lon":5.422775,"is_reserved":false,"is_disabled":true,"rental_uris":{"android":"levelo://app?vid=bcd20683-a7d2-4d73-b9c6-b696fde50e59","ios":"levelo://app?vid=bcd20683-a7d2-4d73-b9c6-b696fde50e59"},"vehicle_type_id":"4","last_reported":1735758380,"current_range_meters":1200,"station_id":"ce4bhk92rcd13ifvqgb0","pricing_plan_id":"cebpf4jnsgd1na2vs0mg"},{"bike_id":"386aea06-3064-4881-977d-136b3f2b5021","system_id":"levelo_inurba_marseille","lat":43.255,"lon":5.37661,"is_reserved":false,"is_disabled":false,"rental_uris":{"android":"levelo://app?vid=386aea06-3064-4881-977d-136b3f2b5021","ios":"levelo://app?vid=386aea06-3064-4881-977d-136b3f2b5021"},"vehicle_type_id":"4","last_reported":1735758380,"current_range_meters":38800,"station_id":"ce4bhh12rcd13ifvqff0","pricing_plan_id":"cebpf4jnsgd1na2vs0mg"},{"bike_id":"660aed1d-cdeb-4a3c-a6d4-d19ef9a2563b","system_id":"levelo_inurba_marseille","lat":43.29894,"lon":5.43666,"is_reserved":false,"is_disabled":false,"rental_uris":{"android":"levelo://app?vid=660aed1d-cdeb-4a3c-a6d4-d19ef9a2563b","ios":"levelo://app?vid=660aed1d-cdeb-4a3c-a6d4-d19ef9a2563b"},"vehicle_type_id":"4","last_reported":1735758380,"current_range_meters":22800,"station_id":"ce4bhpp2rcd13ifvqhfg","pricing_plan_id":"cebpf4jnsgd1na2vs0mg"},{"bike_id":"7d44431e-ed83-438c-86a7-892d7e053d01","system_id":"levelo_inurba_marseille","lat":43.32064,"lon":5.41526,"is_reserved":false,"is_disabled":false,"rental_uris":{"android":"levelo://app?vid=7d44431e-ed83-438c-86a7-892d7e053d01","ios":"levelo://app?vid=7d44431e-ed83-438c-86a7-892d7e053d01"},"vehicle_type_id":"4","last_reported":1735758380,"current_range_meters":38800,"station_id":"ce4bhq92rcd13ifvqhkg","pricing_plan_id":"cebpf4jnsgd1na2vs0mg"},{"bike_id":"84ff672c-254b-42d1-ad81-4f7d674dca47","system_id":"levelo_inurba_marseille","lat":43.24387,"lon":5.37041,"is_reserved":false,"is_disabled":false,"rental_uris":{"android":"levelo://app?vid=84ff672c-254b-42d1-ad81-4f7d674dca47","ios":"levelo://app?vid=84ff672c-254b-42d1-ad81-4f7d674dca47"},"vehicle_type_id":"4","last_reported":1735758380,"current_range_meters":39200,"station_id":"ce4bhhh2rcd13ifvqfk0","pricing_plan_id":"cebpf4jnsgd1na2vs0mg"},{"bike_id":"d1cc6b6d-73e2-4169-a036-4b8f55f5040c","system_id":"levelo_inurba_marseille","lat":43.31625,"lon":5.37727,"is_reserved":false,"is_disabled":false,"rental_uris":{"android":"levelo://app?vid=d1cc6b6d-73e2-4169-a036-4b8f55f5040c","ios":"levelo://app?vid=d1cc6b6d-73e2-4169-a036-4b8f55f5040c"},"vehicle_type_id":"4","last_reported":1735758380,"current_range_meters":38400,"station_id":"ce4bgth2rcd13ifvqch0","pricing_plan_id":"cebpf4jnsgd1na2vs0mg"},{"bike_id":"84574380-5e63-4a67-bbf0-475b0a817486","system_id":"levelo_inurba_marseille","lat":43.27675,"lon":5.38909,"is_reserved":false,"is_disabled":false,"rental_uris":{"android":"levelo://app?vid=84574380-5e63-4a67-bbf0-475b0a817486","ios":"levelo://app?vid=84574380-5e63-4a67-bbf0-475b0a817486"},"vehicle_type_id":"4","last_reported":1735758380,"current_range_meters":38800,"station_id":"ce4bhi12rcd13ifvqfo0","pricing_plan_id":"cebpf4jnsgd1na2vs0mg"},{"bike_id":"20b72417-8f1f-4c4a-818d-ef40534f14fa","system_id":"levelo_inurba_marseille","lat":43.29096,"lon":5.38111,"is_reserved":false,"is_disabled":false,"rental_uris":{"android":"levelo://app?vid=20b72417-8f1f-4c4a-818d-ef40534f14fa","ios":"levelo://app?vid=20b72417-8f1f-4c4a-818d-ef40534f14fa"},"vehicle_type_id":"4","last_reported":1735758380,"current_range_meters":24800,"station_id":"ce4bh512rcd13ifvqe2g","pricing_plan_id":"cebpf4jnsgd1na2vs0mg"},{"bike_id":"cf71aac8-1e52-435d-bf91-cac39ef804d5","system_id":"levelo_inurba_marseille","lat":43.34141,"lon":5.40923,"is_reserved":false,"is_disabled":false,"rental_uris":{"android":"levelo://app?vid=cf71aac8-1e52-435d-bf91-cac39ef804d5","ios":"levelo://app?vid=cf71aac8-1e52-435d-bf91-cac39ef804d5"},"vehicle_type_id":"4","last_reported":1735758380,"current_range_meters":37600,"station_id":"ce4bhqh2rcd13ifvqhlg","pricing_plan_id":"cebpf4jnsgd1na2vs0mg"},{"bike_id":"145ea73e-8190-48e4-8331-13a1a1cfe545","system_id":"levelo_inurba_marseille","lat":43.33725,"lon":5.39193,"is_reserved":false,"is_disabled":false,"rental_uris":{"android":"levelo://app?vid=145ea73e-8190-48e4-8331-13a1a1cfe545","ios":"levelo://app?vid=145ea73e-8190-48e4-8331-13a1a1cfe545"},"vehicle_type_id":"4","last_reported":1735758380,"current_range_meters":39200,"station_id":"ce4bhr92rcd13ifvqhsg","pricing_plan_id":"cebpf4jnsgd1na2vs0mg"},{"bike_id":"594be97a-e1af-44d9-b33f-28de40fe66bb","system_id":"levelo_inurba_marseille","lat":43.27911,"lon":5.38015,"is_reserved":false,"is_disabled":false,"rental_uris":{"android":"levelo://app?vid=594be97a-e1af-44d9-b33f-28de40fe66bb","ios":"levelo://app?vid=594be97a-e1af-44d9-b33f-28de40fe66bb"},"vehicle_type_id":"4","last_reported":1735758380,"current_range_meters":38800,"station_id":"ce4bhf92rcd13ifvqf50","pricing_plan_id":"cebpf4jnsgd1na2vs0mg"},{"bike_id":"083bd5ee-f568-4ecd-85bb-80cca5351662","system_id":"levelo_inurba_marseille","lat":43.30911,"lon":5.36852,"is_reserved":false,"is_disabled":false,"rental_uris":{"android":"levelo://app?vid=083bd5ee-f568-4ecd-85bb-80cca5351662","ios":"levelo://app?vid=083bd5ee-f568-4ecd-85bb-80cca5351662"},"vehicle_type_id":"4","last_reported":1735758380,"current_range_meters":36400,"station_id":"ce4bgn92rcd13ifvqbvg","pricing_plan_id":"cebpf4jnsgd1na2vs0mg"},{"bike_id":"80918c45-89b7-4fd7-996f-c047d892f254","system_id":"levelo_inurba_marseille","lat":43.28419,"lon":5.34984,"is_reserved":false,"is_disabled":false,"rental_uris":{"android":"levelo://app?vid=80918c45-89b7-4fd7-996f-c047d892f254","ios":"levelo://app?vid=80918c45-89b7-4fd7-996f-c047d892f254"},"vehicle_type_id":"4","last_reported":1735758380,"current_range_meters":32400,"station_id":"ce4bhbh2rcd13ifvqepg","pricing_plan_id":"cebpf4jnsgd1na2vs0mg"},{"bike_id":"d502592a-d2f4-462b-a981-e532ff6a3185","system_id":"levelo_inurba_marseille","lat":43.28939,"lon":5.39628,"is_reserved":false,"is_disabled":false,"rental_uris":{"android":"levelo://app?vid=d502592a-d2f4-462b-a981-e532ff6a3185","ios":"levelo://app?vid=d502592a-d2f4-462b-a981-e532ff6a3185"},"vehicle_type_id":"4","last_reported":1735758380,"current_range_meters":24400,"station_id":"ce4bh3h2rcd13ifvqdn0","pricing_plan_id":"cebpf4jnsgd1na2vs0mg"},{"bike_id":"4e2e926a-cc62-4529-8b24-3abbcf0f0be2","system_id":"levelo_inurba_marseille","lat":43.23181,"lon":5.35591,"is_reserved":false,"is_disabled":false,"rental_uris":{"android":"levelo://app?vid=4e2e926a-cc62-4529-8b24-3abbcf0f0be2","ios":"levelo://app?vid=4e2e926a-cc62-4529-8b24-3abbcf0f0be2"},"vehicle_type_id":"4","last_reported":1735758380,"current_range_meters":38800,"station_id":"ce4bhu92rcd13ifvqi70","pricing_plan_id":"cebpf4jnsgd1na2vs0mg"},{"bike_id":"576c3c6b-bcf6-433f-9d79-5f33ae917960","system_id":"levelo_inurba_marseille","lat":43.29557,"lon":5.42292,"is_reserved":false,"is_disabled":false,"rental_uris":{"android":"levelo://app?vid=576c3c6b-bcf6-433f-9d79-5f33ae917960","ios":"levelo://app?vid=576c3c6b-bcf6-433f-9d79-5f33ae917960"},"vehicle_type_id":"4","last_reported":1735758380,"current_range_meters":39200,"station_id":"ce4bhph2rcd13ifvqhdg","pricing_plan_id":"cebpf4jnsgd1na2vs0mg"},{"bike_id":"870af1b3-22e7-400d-87ec-d0c6752944ed","system_id":"levelo_inurba_marseille","lat":43.3117,"lon":5.38717,"is_reserved":false,"is_disabled":false,"rental_uris":{"android":"levelo://app?vid=870af1b3-22e7-400d-87ec-d0c6752944ed","ios":"levelo://app?vid=870af1b3-22e7-400d-87ec-d0c6752944ed"},"vehicle_type_id":"4","last_reported":1735758380,"current_range_meters":30800,"station_id":"ce4bgv12rcd13ifvqcp0","pricing_plan_id":"cebpf4jnsgd1na2vs0mg"},{"bike_id":"e2f425d3-808a-4b75-9ccb-0bcc870cc624","system_id":"levelo_inurba_marseille","lat":43.29614,"lon":5.37032,"is_reserved":false,"is_disabled":false,"rental_uris":{"android":"levelo://app?vid=e2f425d3-808a-4b75-9ccb-0bcc870cc624","ios":"levelo://app?vid=e2f425d3-808a-4b75-9ccb-0bcc870cc624"},"vehicle_type_id":"4","last_reported":1735758380,"current_range_meters":26800,"station_id":"","pricing_plan_id":"cebpf4jnsgd1na2vs0mg"},{"bike_id":"e8bfb197-6499-4133-851b-4f477e31e3f9","system_id":"levelo_inurba_marseille","lat":43.33726,"lon":5.39176,"is_reserved":false,"is_disabled":false,"rental_uris":{"android":"levelo://app?vid=e8bfb197-6499-4133-851b-4f477e31e3f9","ios":"levelo://app?vid=e8bfb197-6499-4133-851b-4f477e31e3f9"},"vehicle_type_id":"4","last_reported":1735758380,"current_range_meters":32400,"station_id":"ce4bhr92rcd13ifvqhsg","pricing_plan_id":"cebpf4jnsgd1na2vs0mg"},{"bike_id":"fd33bb42-4dab-4f92-9626-fdb1e5b44ad5","system_id":"levelo_inurba_marseille","lat":43.29371,"lon":5.37832,"is_reserved":false,"is_disabled":false,"rental_uris":{"android":"levelo://app?vid=fd33bb42-4dab-4f92-9626-fdb1e5b44ad5","ios":"levelo://app?vid=fd33bb42-4dab-4f92-9626-fdb1e5b44ad5"},"vehicle_type_id":"4","last_reported":1735758380,"current_range_meters":30400,"station_id":"ce4bgjh2rcd13ifvqbf0","pricing_plan_id":"cebpf4jnsgd1na2vs0mg"},{"bike_id":"2f71d5d0-4248-4fd8-90b9-7615dc7e3077","system_id":"levelo_inurba_marseille","lat":43.251282,"lon":5.4031,"is_reserved":false,"is_disabled":false,"rental_uris":{"android":"levelo://app?vid=2f71d5d0-4248-4fd8-90b9-7615dc7e3077","ios":"levelo://app?vid=2f71d5d0-4248-4fd8-90b9-7615dc7e3077"},"vehicle_type_id":"4","last_reported":1735758380,"current_range_meters":38800,"station_id":"ce4bhlh2rcd13ifvqgig","pricing_plan_id":"cebpf4jnsgd1na2vs0mg"},{"bike_id":"f46bd378-e30f-485c-b539-9d29fba578aa","system_id":"levelo_inurba_marseille","lat":43.34152,"lon":5.40906,"is_reserved":false,"is_disabled":false,"rental_uris":{"android":"levelo://app?vid=f46bd378-e30f-485c-b539-9d29fba578aa","ios":"levelo://app?vid=f46bd378-e30f-485c-b539-9d29fba578aa"},"vehicle_type_id":"4","last_reported":1735758380,"current_range_meters":38800,"station_id":"ce4bhqh2rcd13ifvqhlg","pricing_plan_id":"cebpf4jnsgd1na2vs0mg"},{"bike_id":"583adf00-139d-403f-8366-744378ddbd7e","system_id":"levelo_inurba_marseille","lat":43.28367,"lon":5.38636,"is_reserved":false,"is_disabled":false,"rental_uris":{"android":"levelo://app?vid=583adf00-139d-403f-8366-744378ddbd7e","ios":"levelo://app?vid=583adf00-139d-403f-8366-744378ddbd7e"},"vehicle_type_id":"4","last_reported":1735758380,"current_range_meters":38000,"station_id":"ce4bh492rcd13ifvqdvg","pricing_plan_id":"cebpf4jnsgd1na2vs0mg"},{"bike_id":"da023d9b-0b9b-40cd-9af3-2dab270c5343","system_id":"levelo_inurba_marseille","lat":43.29967,"lon":5.38494,"is_reserved":false,"is_disabled":false,"rental_uris":{"android":"levelo://app?vid=da023d9b-0b9b-40cd-9af3-2dab270c5343","ios":"levelo://app?vid=da023d9b-0b9b-40cd-9af3-2dab270c5343"},"vehicle_type_id":"4","last_reported":1735758380,"current_range_meters":30800,"station_id":"ce4bgj92rcd13ifvqbd0","pricing_plan_id":"cebpf4jnsgd1na2vs0mg"},{"bike_id":"8c487023-ed3e-497f-9b06-6becf8518c0e","system_id":"levelo_inurba_marseille","lat":43.28434,"lon":5.34985,"is_reserved":false,"is_disabled":false,"rental_uris":{"android":"levelo://app?vid=8c487023-ed3e-497f-9b06-6becf8518c0e","ios":"levelo://app?vid=8c487023-ed3e-497f-9b06-6becf8518c0e"},"vehicle_type_id":"4","last_reported":1735758380,"current_range_meters":24000,"station_id":"ce4bhbh2rcd13ifvqepg","pricing_plan_id":"cebpf4jnsgd1na2vs0mg"},{"bike_id":"df334d50-4421-42a5-a762-fb7f39807cc1","system_id":"levelo_inurba_marseille","lat":43.33755,"lon":5.37428,"is_reserved":false,"is_disabled":false,"rental_uris":{"android":"levelo://app?vid=df334d50-4421-42a5-a762-fb7f39807cc1","ios":"levelo://app?vid=df334d50-4421-42a5-a762-fb7f39807cc1"},"vehicle_type_id":"4","last_reported":1735758380,"current_range_meters":35200,"station_id":"","pricing_plan_id":"cebpf4jnsgd1na2vs0mg"},{"bike_id":"87b9a921-e93d-4ee9-818f-18845bfae0db","system_id":"levelo_inurba_marseille","lat":43.24988,"lon":5.38939,"is_reserved":false,"is_disabled":false,"rental_uris":{"android":"levelo://app?vid=87b9a921-e93d-4ee9-818f-18845bfae0db","ios":"levelo://app?vid=87b9a921-e93d-4ee9-818f-18845bfae0db"},"vehicle_type_id":"4","last_reported":1735758380,"current_range_meters":22400,"station_id":"ce4bhgp2rcd13ifvqfd0","pricing_plan_id":"cebpf4jnsgd1na2vs0mg"},{"bike_id":"35d7b981-f2f8-4e1f-bf58-6f3547d4e1f6","system_id":"levelo_inurba_marseille","lat":43.30306,"lon":5.36906,"is_reserved":false,"is_disabled":true,"rental_uris":{"android":"levelo://app?vid=35d7b981-f2f8-4e1f-bf58-6f3547d4e1f6","ios":"levelo://app?vid=35d7b981-f2f8-4e1f-bf58-6f3547d4e1f6"},"vehicle_type_id":"4","last_reported":1735758380,"current_range_meters":22800,"station_id":"ce4bgqh2rcd13ifvqc5g","pricing_plan_id":"cebpf4jnsgd1na2vs0mg"},{"bike_id":"fb669f54-ad44-40e8-add0-eae135f57ab5","system_id":"levelo_inurba_marseille","lat":43.29522,"lon":5.39411,"is_reserved":false,"is_disabled":false,"rental_uris":{"android":"levelo://app?vid=fb669f54-ad44-40e8-add0-eae135f57ab5","ios":"levelo://app?vid=fb669f54-ad44-40e8-add0-eae135f57ab5"},"vehicle_type_id":"4","last_reported":1735758380,"current_range_meters":39200,"station_id":"ce4bh292rcd13ifvqdf0","pricing_plan_id":"cebpf4jnsgd1na2vs0mg"},{"bike_id":"c87fd86c-be95-4284-8f58-4e548f7747ae","system_id":"levelo_inurba_marseille","lat":43.29905,"lon":5.3815,"is_reserved":false,"is_disabled":false,"rental_uris":{"android":"levelo://app?vid=c87fd86c-be95-4284-8f58-4e548f7747ae","ios":"levelo://app?vid=c87fd86c-be95-4284-8f58-4e548f7747ae"},"vehicle_type_id":"4","last_reported":1735758380,"current_range_meters":38000,"station_id":"ce4bgj12rcd13ifvqbc0","pricing_plan_id":"cebpf4jnsgd1na2vs0mg"},{"bike_id":"b6be71ca-eee6-4b74-abfd-aae6efda697e","system_id":"levelo_inurba_marseille","lat":43.29519,"lon":5.3749,"is_reserved":false,"is_disabled":false,"rental_uris":{"android":"levelo://app?vid=b6be71ca-eee6-4b74-abfd-aae6efda697e","ios":"levelo://app?vid=b6be71ca-eee6-4b74-abfd-aae6efda697e"},"vehicle_type_id":"4","last_reported":1735758380,"current_range_meters":38000,"station_id":"ce4bgkp2rcd13ifvqbmg","pricing_plan_id":"cebpf4jnsgd1na2vs0mg"},{"bike_id":"5367a292-5564-4681-91cd-97babb89fc00","system_id":"levelo_inurba_marseille","lat":43.22937,"lon":5.35366,"is_reserved":false,"is_disabled":false,"rental_uris":{"android":"levelo://app?vid=5367a292-5564-4681-91cd-97babb89fc00","ios":"levelo://app?vid=5367a292-5564-4681-91cd-97babb89fc00"},"vehicle_type_id":"4","last_reported":1735758380,"current_range_meters":22000,"station_id":"cpo3532slgdg3j2ikp40","pricing_plan_id":"cebpf4jnsgd1na2vs0mg"},{"bike_id":"1d5543c4-1c87-4447-ad2e-0cc64903ea75","system_id":"levelo_inurba_marseille","lat":43.25871,"lon":5.39895,"is_reserved":false,"is_disabled":false,"rental_uris":{"android":"levelo://app?vid=1d5543c4-1c87-4447-ad2e-0cc64903ea75","ios":"levelo://app?vid=1d5543c4-1c87-4447-ad2e-0cc64903ea75"},"vehicle_type_id":"4","last_reported":1735758380,"current_range_meters":38800,"station_id":"ce4bhl92rcd13ifvqghg","pricing_plan_id":"cebpf4jnsgd1na2vs0mg"},{"bike_id":"0483d5a5-12c2-4b90-8e6c-47d6d5a4b82c","system_id":"levelo_inurba_marseille","lat":43.25828,"lon":5.39441,"is_reserved":false,"is_disabled":false,"rental_uris":{"android":"levelo://app?vid=0483d5a5-12c2-4b90-8e6c-47d6d5a4b82c","ios":"levelo://app?vid=0483d5a5-12c2-4b90-8e6c-47d6d5a4b82c"},"vehicle_type_id":"4","last_reported":1735758380,"current_range_meters":38800,"station_id":"ce4bhip2rcd13ifvqft0","pricing_plan_id":"cebpf4jnsgd1na2vs0mg"},{"bike_id":"ce3e279f-7393-47ed-8884-9b3a9ec4c129","system_id":"levelo_inurba_marseille","lat":43.30143,"lon":5.38777,"is_reserved":false,"is_disabled":false,"rental_uris":{"android":"levelo://app?vid=ce3e279f-7393-47ed-8884-9b3a9ec4c129","ios":"levelo://app?vid=ce3e279f-7393-47ed-8884-9b3a9ec4c129"},"vehicle_type_id":"4","last_reported":1735758380,"current_range_meters":19600,"station_id":"ce4bhoh2rcd13ifvqh6g","pricing_plan_id":"cebpf4jnsgd1na2vs0mg"},{"bike_id":"33497993-8215-4c68-b6f5-46b36801a14d","system_id":"levelo_inurba_marseille","lat":43.31222,"lon":5.36853,"is_reserved":false,"is_disabled":false,"rental_uris":{"android":"levelo://app?vid=33497993-8215-4c68-b6f5-46b36801a14d","ios":"levelo://app?vid=33497993-8215-4c68-b6f5-46b36801a14d"},"vehicle_type_id":"4","last_reported":1735758380,"current_range_meters":39200,"station_id":"ce4bgl92rcd13ifvqbq0","pricing_plan_id":"cebpf4jnsgd1na2vs0mg"},{"bike_id":"c0a14ea9-b41c-4823-838d-3bd09892e0b2","system_id":"levelo_inurba_marseille","lat":43.262,"lon":5.3791,"is_reserved":false,"is_disabled":false,"rental_uris":{"android":"levelo://app?vid=c0a14ea9-b41c-4823-838d-3bd09892e0b2","ios":"levelo://app?vid=c0a14ea9-b41c-4823-838d-3bd09892e0b2"},"vehicle_type_id":"4","last_reported":1735758380,"current_range_meters":38800,"station_id":"ce4bhjp2rcd13ifvqg90","pricing_plan_id":"cebpf4jnsgd1na2vs0mg"},{"bike_id":"a5c3acba-f406-4696-aceb-5dc8022c1590","system_id":"levelo_inurba_marseille","lat":43.29627,"lon":5.40592,"is_reserved":false,"is_disabled":false,"rental_uris":{"android":"levelo://app?vid=a5c3acba-f406-4696-aceb-5dc8022c1590","ios":"levelo://app?vid=a5c3acba-f406-4696-aceb-5dc8022c1590"},"vehicle_type_id":"4","last_reported":1735758380,"current_range_meters":38800,"station_id":"ce4bh0h2rcd13ifvqd60","pricing_plan_id":"cebpf4jnsgd1na2vs0mg"},{"bike_id":"addd4f10-99f5-4e98-a77b-9d17d1d03a73","system_id":"levelo_inurba_marseille","lat":43.27385,"lon":5.36265,"is_reserved":false,"is_disabled":false,"rental_uris":{"android":"levelo://app?vid=addd4f10-99f5-4e98-a77b-9d17d1d03a73","ios":"levelo://app?vid=addd4f10-99f5-4e98-a77b-9d17d1d03a73"},"vehicle_type_id":"4","last_reported":1735758380,"current_range_meters":26000,"station_id":"ce4bhbh2rcd13ifvqeo0","pricing_plan_id":"cebpf4jnsgd1na2vs0mg"},{"bike_id":"62076514-d312-4a15-ad75-f85cfe6d3f46","system_id":"levelo_inurba_marseille","lat":43.22935,"lon":5.35379,"is_reserved":false,"is_disabled":false,"rental_uris":{"android":"levelo://app?vid=62076514-d312-4a15-ad75-f85cfe6d3f46","ios":"levelo://app?vid=62076514-d312-4a15-ad75-f85cfe6d3f46"},"vehicle_type_id":"4","last_reported":1735758380,"current_range_meters":19600,"station_id":"cpo3532slgdg3j2ikp40","pricing_plan_id":"cebpf4jnsgd1na2vs0mg"},{"bike_id":"921c161c-81a9-4f62-88c9-fa7031ed1ea4","system_id":"levelo_inurba_marseille","lat":43.30193,"lon":5.36606,"is_reserved":false,"is_disabled":false,"rental_uris":{"android":"levelo://app?vid=921c161c-81a9-4f62-88c9-fa7031ed1ea4","ios":"levelo://app?vid=921c161c-81a9-4f62-88c9-fa7031ed1ea4"},"vehicle_type_id":"4","last_reported":1735758380,"current_range_meters":38800,"station_id":"ce4bgrh2rcd13ifvqc8g","pricing_plan_id":"cebpf4jnsgd1na2vs0mg"},{"bike_id":"d3c3ecb6-59dd-4313-8afe-88cdbe30cb5c","system_id":"levelo_inurba_marseille","lat":43.248,"lon":5.37459,"is_reserved":false,"is_disabled":false,"rental_uris":{"android":"levelo://app?vid=d3c3ecb6-59dd-4313-8afe-88cdbe30cb5c","ios":"levelo://app?vid=d3c3ecb6-59dd-4313-8afe-88cdbe30cb5c"},"vehicle_type_id":"4","last_reported":1735758380,"current_range_meters":38800,"station_id":"ce4bhgh2rcd13ifvqfb0","pricing_plan_id":"cebpf4jnsgd1na2vs0mg"},{"bike_id":"3e6b1c3b-cf11-4303-b4d7-0ec5c145e60f","system_id":"levelo_inurba_marseille","lat":43.28038,"lon":5.36944,"is_reserved":false,"is_disabled":false,"rental_uris":{"android":"levelo://app?vid=3e6b1c3b-cf11-4303-b4d7-0ec5c145e60f","ios":"levelo://app?vid=3e6b1c3b-cf11-4303-b4d7-0ec5c145e60f"},"vehicle_type_id":"4","last_reported":1735758380,"current_range_meters":24400,"station_id":"ce4bha12rcd13ifvqef0","pricing_plan_id":"cebpf4jnsgd1na2vs0mg"},{"bike_id":"bf571958-3143-4f2b-af1b-ad65757dc7d7","system_id":"levelo_inurba_marseille","lat":43.29529,"lon":5.37488,"is_reserved":false,"is_disabled":false,"rental_uris":{"android":"levelo://app?vid=bf571958-3143-4f2b-af1b-ad65757dc7d7","ios":"levelo://app?vid=bf571958-3143-4f2b-af1b-ad65757dc7d7"},"vehicle_type_id":"4","last_reported":1735758380,"current_range_meters":38800,"station_id":"ce4bgkp2rcd13ifvqbmg","pricing_plan_id":"cebpf4jnsgd1na2vs0mg"},{"bike_id":"515e64d3-2742-40a4-9cbd-08e53c8330a3","system_id":"levelo_inurba_marseille","lat":43.2884,"lon":5.39468,"is_reserved":false,"is_disabled":false,"rental_uris":{"android":"levelo://app?vid=515e64d3-2742-40a4-9cbd-08e53c8330a3","ios":"levelo://app?vid=515e64d3-2742-40a4-9cbd-08e53c8330a3"},"vehicle_type_id":"4","last_reported":1735758380,"current_range_meters":38800,"station_id":"ce4bh2p2rcd13ifvqdi0","pricing_plan_id":"cebpf4jnsgd1na2vs0mg"},{"bike_id":"bbfc5010-5ad1-478a-9bf0-def17e142c1c","system_id":"levelo_inurba_marseille","lat":43.28031,"lon":5.36945,"is_reserved":false,"is_disabled":false,"rental_uris":{"android":"levelo://app?vid=bbfc5010-5ad1-478a-9bf0-def17e142c1c","ios":"levelo://app?vid=bbfc5010-5ad1-478a-9bf0-def17e142c1c"},"vehicle_type_id":"4","last_reported":1735758380,"current_range_meters":38800,"station_id":"ce4bha12rcd13ifvqef0","pricing_plan_id":"cebpf4jnsgd1na2vs0mg"},{"bike_id":"f11cb7a7-dd66-4e9c-bba9-e4103e1af885","system_id":"levelo_inurba_marseille","lat":43.29608,"lon":5.37733,"is_reserved":false,"is_disabled":false,"rental_uris":{"android":"levelo://app?vid=f11cb7a7-dd66-4e9c-bba9-e4103e1af885","ios":"levelo://app?vid=f11cb7a7-dd66-4e9c-bba9-e4103e1af885"},"vehicle_type_id":"4","last_reported":1735758380,"current_range_meters":23200,"station_id":"ce4bgi92rcd13ifvqb90","pricing_plan_id":"cebpf4jnsgd1na2vs0mg"},{"bike_id":"f4d31bdd-067d-44f1-8dce-9df56d6287d9","system_id":"levelo_inurba_marseille","lat":43.28402,"lon":5.37562,"is_reserved":false,"is_disabled":false,"rental_uris":{"android":"levelo://app?vid=f4d31bdd-067d-44f1-8dce-9df56d6287d9","ios":"levelo://app?vid=f4d31bdd-067d-44f1-8dce-9df56d6287d9"},"vehicle_type_id":"4","last_reported":1735758380,"current_range_meters":27600,"station_id":"ce4bh412rcd13ifvqds0","pricing_plan_id":"cebpf4jnsgd1na2vs0mg"},{"bike_id":"a3597e2d-fb98-407b-9432-8b4a2b613bde","system_id":"levelo_inurba_marseille","lat":43.30366,"lon":5.41866,"is_reserved":false,"is_disabled":false,"rental_uris":{"android":"levelo://app?vid=a3597e2d-fb98-407b-9432-8b4a2b613bde","ios":"levelo://app?vid=a3597e2d-fb98-407b-9432-8b4a2b613bde"},"vehicle_type_id":"4","last_reported":1735758380,"current_range_meters":39200,"station_id":"ce4bhop2rcd13ifvqh7g","pricing_plan_id":"cebpf4jnsgd1na2vs0mg"},{"bike_id":"9fc11948-a0d1-4b39-8d46-5ede6d39db06","system_id":"levelo_inurba_marseille","lat":43.27008,"lon":5.36595,"is_reserved":false,"is_disabled":false,"rental_uris":{"android":"levelo://app?vid=9fc11948-a0d1-4b39-8d46-5ede6d39db06","ios":"levelo://app?vid=9fc11948-a0d1-4b39-8d46-5ede6d39db06"},"vehicle_type_id":"4","last_reported":1735758380,"current_range_meters":6800,"station_id":"","pricing_plan_id":"cebpf4jnsgd1na2vs0mg"},{"bike_id":"dac94ecf-3203-4c89-acc0-21c14e979588","system_id":"levelo_inurba_marseille","lat":43.26696,"lon":5.38276,"is_reserved":false,"is_disabled":false,"rental_uris":{"android":"levelo://app?vid=dac94ecf-3203-4c89-acc0-21c14e979588","ios":"levelo://app?vid=dac94ecf-3203-4c89-acc0-21c14e979588"},"vehicle_type_id":"4","last_reported":1735758380,"current_range_meters":8000,"station_id":"ce4bhg92rcd13ifvqf90","pricing_plan_id":"cebpf4jnsgd1na2vs0mg"},{"bike_id":"4802f4cf-bdb4-4c46-ab2a-8cf4b2f0b54e","system_id":"levelo_inurba_marseille","lat":43.323668,"lon":5.38882,"is_reserved":false,"is_disabled":false,"rental_uris":{"android":"levelo://app?vid=4802f4cf-bdb4-4c46-ab2a-8cf4b2f0b54e","ios":"levelo://app?vid=4802f4cf-bdb4-4c46-ab2a-8cf4b2f0b54e"},"vehicle_type_id":"4","last_reported":1735758380,"current_range_meters":16800,"station_id":"ce4bhqp2rcd13ifvqhog","pricing_plan_id":"cebpf4jnsgd1na2vs0mg"},{"bike_id":"9c42c59a-a990-48ee-91ac-32ebebcaabf5","system_id":"levelo_inurba_marseille","lat":43.27577,"lon":5.38407,"is_reserved":false,"is_disabled":false,"rental_uris":{"android":"levelo://app?vid=9c42c59a-a990-48ee-91ac-32ebebcaabf5","ios":"levelo://app?vid=9c42c59a-a990-48ee-91ac-32ebebcaabf5"},"vehicle_type_id":"4","last_reported":1735758380,"current_range_meters":39200,"station_id":"ce4bhh92rcd13ifvqfi0","pricing_plan_id":"cebpf4jnsgd1na2vs0mg"},{"bike_id":"8718220a-6a37-41be-b92a-7cc1a59fedb2","system_id":"levelo_inurba_marseille","lat":43.27559,"lon":5.38425,"is_reserved":false,"is_disabled":false,"rental_uris":{"android":"levelo://app?vid=8718220a-6a37-41be-b92a-7cc1a59fedb2","ios":"levelo://app?vid=8718220a-6a37-41be-b92a-7cc1a59fedb2"},"vehicle_type_id":"4","last_reported":1735758380,"current_range_meters":10000,"station_id":"ce4bhh92rcd13ifvqfi0","pricing_plan_id":"cebpf4jnsgd1na2vs0mg"},{"bike_id":"a94d9271-3160-4ad2-b276-a13e05a4796f","system_id":"levelo_inurba_marseille","lat":43.27494,"lon":5.42436,"is_reserved":false,"is_disabled":false,"rental_uris":{"android":"levelo://app?vid=a94d9271-3160-4ad2-b276-a13e05a4796f","ios":"levelo://app?vid=a94d9271-3160-4ad2-b276-a13e05a4796f"},"vehicle_type_id":"4","last_reported":1735758380,"current_range_meters":28400,"station_id":"ce4bhn92rcd13ifvqgrg","pricing_plan_id":"cebpf4jnsgd1na2vs0mg"},{"bike_id":"9296bb38-e19a-4f98-b9d2-1c5de2b7867f","system_id":"levelo_inurba_marseille","lat":43.30423,"lon":5.38885,"is_reserved":false,"is_disabled":false,"rental_uris":{"android":"levelo://app?vid=9296bb38-e19a-4f98-b9d2-1c5de2b7867f","ios":"levelo://app?vid=9296bb38-e19a-4f98-b9d2-1c5de2b7867f"},"vehicle_type_id":"4","last_reported":1735758380,"current_range_meters":31200,"station_id":"ce4bgk12rcd13ifvqbi0","pricing_plan_id":"cebpf4jnsgd1na2vs0mg"},{"bike_id":"e76a1997-5d04-4a9a-b1f4-294fd443f7eb","system_id":"levelo_inurba_marseille","lat":43.23193,"lon":5.39979,"is_reserved":false,"is_disabled":false,"rental_uris":{"android":"levelo://app?vid=e76a1997-5d04-4a9a-b1f4-294fd443f7eb","ios":"levelo://app?vid=e76a1997-5d04-4a9a-b1f4-294fd443f7eb"},"vehicle_type_id":"4","last_reported":1735758380,"current_range_meters":23200,"station_id":"ce4bhn12rcd13ifvqgqg","pricing_plan_id":"cebpf4jnsgd1na2vs0mg"},{"bike_id":"0c295f32-ce55-46bc-ac79-5d9a4126869b","system_id":"levelo_inurba_marseille","lat":43.26943,"lon":5.40269,"is_reserved":false,"is_disabled":false,"rental_uris":{"android":"levelo://app?vid=0c295f32-ce55-46bc-ac79-5d9a4126869b","ios":"levelo://app?vid=0c295f32-ce55-46bc-ac79-5d9a4126869b"},"vehicle_type_id":"4","last_reported":1735758380,"current_range_meters":4000,"station_id":"cjm6bp8fraef2m0cb0m0","pricing_plan_id":"cebpf4jnsgd1na2vs0mg"},{"bike_id":"ed8bfe29-9ee8-403b-abb1-2548d831d298","system_id":"levelo_inurba_marseille","lat":43.30439,"lon":5.39705,"is_reserved":false,"is_disabled":false,"rental_uris":{"android":"levelo://app?vid=ed8bfe29-9ee8-403b-abb1-2548d831d298","ios":"levelo://app?vid=ed8bfe29-9ee8-403b-abb1-2548d831d298"},"vehicle_type_id":"4","last_reported":1735758380,"current_range_meters":32400,"station_id":"ce4bh092rcd13ifvqd20","pricing_plan_id":"cebpf4jnsgd1na2vs0mg"},{"bike_id":"d41d5945-5cc8-478b-aaaa-223a793c25f1","system_id":"levelo_inurba_marseille","lat":43.26057,"lon":5.39399,"is_reserved":false,"is_disabled":false,"rental_uris":{"android":"levelo://app?vid=d41d5945-5cc8-478b-aaaa-223a793c25f1","ios":"levelo://app?vid=d41d5945-5cc8-478b-aaaa-223a793c25f1"},"vehicle_type_id":"4","last_reported":1735758380,"current_range_meters":6400,"station_id":"ce4bhh92rcd13ifvqfj0","pricing_plan_id":"cebpf4jnsgd1na2vs0mg"},{"bike_id":"9bf2c934-e80a-4b69-9369-b6399c81de01","system_id":"levelo_inurba_marseille","lat":43.2511,"lon":5.40303,"is_reserved":false,"is_disabled":false,"rental_uris":{"android":"levelo://app?vid=9bf2c934-e80a-4b69-9369-b6399c81de01","ios":"levelo://app?vid=9bf2c934-e80a-4b69-9369-b6399c81de01"},"vehicle_type_id":"4","last_reported":1735758380,"current_range_meters":38800,"station_id":"ce4bhlh2rcd13ifvqgig","pricing_plan_id":"cebpf4jnsgd1na2vs0mg"},{"bike_id":"88434d85-5918-4af2-82a2-5c4c90e50737","system_id":"levelo_inurba_marseille","lat":43.29969,"lon":5.38497,"is_reserved":false,"is_disabled":false,"rental_uris":{"android":"levelo://app?vid=88434d85-5918-4af2-82a2-5c4c90e50737","ios":"levelo://app?vid=88434d85-5918-4af2-82a2-5c4c90e50737"},"vehicle_type_id":"4","last_reported":1735758380,"current_range_meters":7200,"station_id":"ce4bgj92rcd13ifvqbd0","pricing_plan_id":"cebpf4jnsgd1na2vs0mg"},{"bike_id":"e3b9e2f7-f837-40b2-b620-cd00feebd3b6","system_id":"levelo_inurba_marseille","lat":43.30135,"lon":5.39852,"is_reserved":false,"is_disabled":false,"rental_uris":{"android":"levelo://app?vid=e3b9e2f7-f837-40b2-b620-cd00feebd3b6","ios":"levelo://app?vid=e3b9e2f7-f837-40b2-b620-cd00feebd3b6"},"vehicle_type_id":"4","last_reported":1735758380,"current_range_meters":38800,"station_id":"ce4bh0h2rcd13ifvqd40","pricing_plan_id":"cebpf4jnsgd1na2vs0mg"},{"bike_id":"9c23194b-edc8-4913-abc5-3db87f1bd370","system_id":"levelo_inurba_marseille","lat":43.28144,"lon":5.4265,"is_reserved":false,"is_disabled":false,"rental_uris":{"android":"levelo://app?vid=9c23194b-edc8-4913-abc5-3db87f1bd370","ios":"levelo://app?vid=9c23194b-edc8-4913-abc5-3db87f1bd370"},"vehicle_type_id":"4","last_reported":1735758380,"current_range_meters":22800,"station_id":"ce4bhnh2rcd13ifvqgug","pricing_plan_id":"cebpf4jnsgd1na2vs0mg"},{"bike_id":"c14d1989-a72f-4241-a582-39661d0bcfcf","system_id":"levelo_inurba_marseille","lat":43.23194,"lon":5.35564,"is_reserved":false,"is_disabled":false,"rental_uris":{"android":"levelo://app?vid=c14d1989-a72f-4241-a582-39661d0bcfcf","ios":"levelo://app?vid=c14d1989-a72f-4241-a582-39661d0bcfcf"},"vehicle_type_id":"4","last_reported":1735758380,"current_range_meters":39200,"station_id":"ce4bhu92rcd13ifvqi70","pricing_plan_id":"cebpf4jnsgd1na2vs0mg"},{"bike_id":"ef72cdb4-465d-4178-b952-49906f159c48","system_id":"levelo_inurba_marseille","lat":43.28155,"lon":5.42635,"is_reserved":false,"is_disabled":false,"rental_uris":{"android":"levelo://app?vid=ef72cdb4-465d-4178-b952-49906f159c48","ios":"levelo://app?vid=ef72cdb4-465d-4178-b952-49906f159c48"},"vehicle_type_id":"4","last_reported":1735758380,"current_range_meters":30400,"station_id":"ce4bhnh2rcd13ifvqgug","pricing_plan_id":"cebpf4jnsgd1na2vs0mg"},{"bike_id":"267d69b0-43da-48cd-8d87-48be53043437","system_id":"levelo_inurba_marseille","lat":43.29875,"lon":5.38916,"is_reserved":false,"is_disabled":false,"rental_uris":{"android":"levelo://app?vid=267d69b0-43da-48cd-8d87-48be53043437","ios":"levelo://app?vid=267d69b0-43da-48cd-8d87-48be53043437"},"vehicle_type_id":"4","last_reported":1735758380,"current_range_meters":15200,"station_id":"ce4bh392rcd13ifvqdl0","pricing_plan_id":"cebpf4jnsgd1na2vs0mg"},{"bike_id":"b6e50ce2-c263-43bc-9c92-fd5b8337c9d2","system_id":"levelo_inurba_marseille","lat":43.25108,"lon":5.4033,"is_reserved":false,"is_disabled":false,"rental_uris":{"android":"levelo://app?vid=b6e50ce2-c263-43bc-9c92-fd5b8337c9d2","ios":"levelo://app?vid=b6e50ce2-c263-43bc-9c92-fd5b8337c9d2"},"vehicle_type_id":"4","last_reported":1735758380,"current_range_meters":38800,"station_id":"ce4bhlh2rcd13ifvqgig","pricing_plan_id":"cebpf4jnsgd1na2vs0mg"},{"bike_id":"46841199-d2e2-4512-9805-58da3836adca","system_id":"levelo_inurba_marseille","lat":43.25105,"lon":5.40325,"is_reserved":false,"is_disabled":false,"rental_uris":{"android":"levelo://app?vid=46841199-d2e2-4512-9805-58da3836adca","ios":"levelo://app?vid=46841199-d2e2-4512-9805-58da3836adca"},"vehicle_type_id":"4","last_reported":1735758380,"current_range_meters":20000,"station_id":"ce4bhlh2rcd13ifvqgig","pricing_plan_id":"cebpf4jnsgd1na2vs0mg"},{"bike_id":"f9f5ae93-0a7a-4c62-bba3-cace48c1cf40","system_id":"levelo_inurba_marseille","lat":43.28491,"lon":5.38551,"is_reserved":false,"is_disabled":false,"rental_uris":{"android":"levelo://app?vid=f9f5ae93-0a7a-4c62-bba3-cace48c1cf40","ios":"levelo://app?vid=f9f5ae93-0a7a-4c62-bba3-cace48c1cf40"},"vehicle_type_id":"4","last_reported":1735758380,"current_range_meters":38000,"station_id":"ce4bh8p2rcd13ifvqeb0","pricing_plan_id":"cebpf4jnsgd1na2vs0mg"},{"bike_id":"c54648c5-6899-48be-9bc3-ec65bb3d9fda","system_id":"levelo_inurba_marseille","lat":43.28835,"lon":5.39353,"is_reserved":false,"is_disabled":false,"rental_uris":{"android":"levelo://app?vid=c54648c5-6899-48be-9bc3-ec65bb3d9fda","ios":"levelo://app?vid=c54648c5-6899-48be-9bc3-ec65bb3d9fda"},"vehicle_type_id":"4","last_reported":1735758380,"current_range_meters":32400,"station_id":"ce4bh2p2rcd13ifvqdi0","pricing_plan_id":"cebpf4jnsgd1na2vs0mg"},{"bike_id":"2eba9c5a-c2cf-46ec-9894-0c9c02191391","system_id":"levelo_inurba_marseille","lat":43.27815,"lon":5.40693,"is_reserved":false,"is_disabled":false,"rental_uris":{"android":"levelo://app?vid=2eba9c5a-c2cf-46ec-9894-0c9c02191391","ios":"levelo://app?vid=2eba9c5a-c2cf-46ec-9894-0c9c02191391"},"vehicle_type_id":"4","last_reported":1735758380,"current_range_meters":22000,"station_id":"ce4bhnh2rcd13ifvqgtg","pricing_plan_id":"cebpf4jnsgd1na2vs0mg"},