{"last_updated":1726319544,"ttl":30,"version":"2.2","data":{"bikes":[{"bike_id":"bc35aeaa-3e4d-43e6-9935-c8f1110a4b4c","system_id":"levelo_inurba_marseille","lat":43.30504,"lon":5.36704,"is_reserved":false,"is_disabled":false,"rental_uris":{"android":"levelo://app?vid=bc35aeaa-3e4d-43e6-9935-c8f1110a4b4c","ios":"levelo://app?vid=bc35aeaa-3e4d-43e6-9935-c8f1110a4b4c"},"vehicle_type_id":"4","last_reported":1726319544,"current_range_meters":32800,"station_id":"ce4bgrp2rcd13ifvqc9g","pricing_plan_id":"cebpf4jnsgd1na2vs0mg"},{"bike_id":"eb87fb95-d7e8-4523-9c3a-8580e30ec6d8","system_id":"levelo_inurba_marseille","lat":43.24391,"lon":5.3705,"is_reserved":false,"is_disabled":false,"rental_uris":{"android":"levelo://app?vid=eb87fb95-d7e8-4523-9c3a-8580e30ec6d8","ios":"levelo://app?vid=eb87fb95-d7e8-4523-9c3a-8580e30ec6d8"},"vehicle_type_id":"4","last_reported":1726319544,"current_range_meters":38400,"station_id":"ce4bhhh2rcd13ifvqfk0","pricing_plan_id":"cebpf4jnsgd1na2vs0mg"},{"bike_id":"436cf2d0-47d5-45b8-b9e9-e05936c9b5ce","system_id":"levelo_inurba_marseille","lat":43.30528,"lon":5.36524,"is_reserved":false,"is_disabled":false,"rental_uris":{"android":"levelo://app?vid=436cf2d0-47d5-45b8-b9e9-e05936c9b5ce","ios":"levelo://app?vid=436cf2d0-47d5-45b8-b9e9-e05936c9b5ce"},"vehicle_type_id":"4","last_reported":1726319544,"current_range_meters":38800,"station_id":"ce4bgs12rcd13ifvqcag","pricing_plan_id":"cebpf4jnsgd1na2vs0mg"},{"bike_id":"02079676-c19e-41f4-9701-342266169723","system_id":"levelo_inurba_marseille","lat":43.29623,"lon":5.37172,"is_reserved":false,"is_disabled":false,"rental_uris":{"android":"levelo://app?vid=02079676-c19e-41f4-9701-342266169723","ios":"levelo://app?vid=02079676-c19e-41f4-9701-342266169723"},"vehicle_type_id":"4","last_reported":1726319544,"current_range_meters":21600,"station_id":"ce4bgnh2rcd13ifvqc0g","pricing_plan_id":"cebpf4jnsgd1na2vs0mg"},{"bike_id":"1433cc86-19c5-4d38-a0b5-c5c087739e0a","system_id":"levelo_inurba_marseille","lat":43.22928,"lon":5.3538,"is_reserved":false,"is_disabled":false,"rental_uris":{"android":"levelo://app?vid=1433cc86-19c5-4d38-a0b5-c5c087739e0a","ios":"levelo://app?vid=1433cc86-19c5-4d38-a0b5-c5c087739e0a"},"vehicle_type_id":"4","last_reported":1726319544,"current_range_meters":26000,"station_id":"cpo3532slgdg3j2ikp40","pricing_plan_id":"cebpf4jnsgd1na2vs0mg"},{"bike_id":"fa812e62-5a7a-4bc9-bad6-c22c286d9c5d","system_id":"levelo_inurba_marseille","lat":43.30481,"lon":5.37911,"is_reserved":false,"is_disabled":false,"rental_uris":{"android":"levelo://app?vid=fa812e62-5a7a-4bc9-bad6-c22c286d9c5d","ios":"levelo://app?vid=fa812e62-5a7a-4bc9-bad6-c22c286d9c5d"},"vehicle_type_id":"4","last_reported":1726319544,"current_range_meters":38800,"station_id":"ce4bgup2rcd13ifvqcn0","pricing_plan_id":"cebpf4jnsgd1na2vs0mg"},{"bike_id":"083984dd-1abd-4a7d-84c6-e8ceb7b63abe","system_id":"levelo_inurba_marseille","lat":43.31094,"lon":5.37765,"is_reserved":false,"is_disabled":false,"rental_uris":{"android":"levelo://app?vid=083984dd-1abd-4a7d-84c6-e8ceb7b63abe","ios":"levelo://app?vid=083984dd-1abd-4a7d-84c6-e8ceb7b63abe"},"vehicle_type_id":"4","last_reported":1726319544,"current_range_meters":36400,"station_id":"ce4bgt92rcd13ifvqcg0","pricing_plan_id":"cebpf4jnsgd1na2vs0mg"},{"bike_id":"e91fce1c-f6cc-42e5-84a9-56feb2431e2a","system_id":"levelo_inurba_marseille","lat":43.30531,"lon":5.3649,"is_reserved":false,"is_disabled":false,"rental_uris":{"android":"levelo://app?vid=e91fce1c-f6cc-42e5-84a9-56feb2431e2a","ios":"levelo://app?vid=e91fce1c-f6cc-42e5-84a9-56feb2431e2a"},"vehicle_type_id":"4","last_reported":1726319544,"current_range_meters":39200,"station_id":"ce4bgs12rcd13ifvqcag","pricing_plan_id":"cebpf4jnsgd1na2vs0mg"},{"bike_id":"4db07fce-ac17-497c-9f87-ca72e4e793ca","system_id":"levelo_inurba_marseille","lat":43.25583,"lon":5.3823,"is_reserved":false,"is_disabled":false,"rental_uris":{"android":"levelo://app?vid=4db07fce-ac17-497c-9f87-ca72e4e793ca","ios":"levelo://app?vid=4db07fce-ac17-497c-9f87-ca72e4e793ca"},"vehicle_type_id":"4","last_reported":1726319544,"current_range_meters":6800,"station_id":"ce4bhih2rcd13ifvqfs0","pricing_plan_id":"cebpf4jnsgd1na2vs0mg"},{"bike_id":"e2e0fe18-05d9-47db-9ca4-6c8aa41bce65","system_id":"levelo_inurba_marseille","lat":43.2903,"lon":5.37561,"is_reserved":false,"is_disabled":false,"rental_uris":{"android":"levelo://app?vid=e2e0fe18-05d9-47db-9ca4-6c8aa41bce65","ios":"levelo://app?vid=e2e0fe18-05d9-47db-9ca4-6c8aa41bce65"},"vehicle_type_id":"4","last_reported":1726319544,"current_range_meters":12000,"station_id":"ce4bh692rcd13ifvqe90","pricing_plan_id":"cebpf4jnsgd1na2vs0mg"},{"bike_id":"7d461f98-fcf2-473e-95f2-02e100aef88b","system_id":"levelo_inurba_marseille","lat":43.29631,"lon":5.37713,"is_reserved":false,"is_disabled":false,"rental_uris":{"android":"levelo://app?vid=7d461f98-fcf2-473e-95f2-02e100aef88b","ios":"levelo://app?vid=7d461f98-fcf2-473e-95f2-02e100aef88b"},"vehicle_type_id":"4","last_reported":1726319544,"current_range_meters":35200,"station_id":"ce4bgi92rcd13ifvqb90","pricing_plan_id":"cebpf4jnsgd1na2vs0mg"},{"bike_id":"78e8b1af-39b3-4486-9f1e-8f9320f078e7","system_id":"levelo_inurba_marseille","lat":43.2694,"lon":5.40256,"is_reserved":false,"is_disabled":false,"rental_uris":{"android":"levelo://app?vid=78e8b1af-39b3-4486-9f1e-8f9320f078e7","ios":"levelo://app?vid=78e8b1af-39b3-4486-9f1e-8f9320f078e7"},"vehicle_type_id":"4","last_reported":1726319544,"current_range_meters":38400,"station_id":"cjm6bp8fraef2m0cb0m0","pricing_plan_id":"cebpf4jnsgd1na2vs0mg"},{"bike_id":"57078c0b-9beb-4ca6-9619-12066e4ed91f","system_id":"levelo_inurba_marseille","lat":43.31756,"lon":5.39018,"is_reserved":false,"is_disabled":false,"rental_uris":{"android":"levelo://app?vid=57078c0b-9beb-4ca6-9619-12066e4ed91f","ios":"levelo://app?vid=57078c0b-9beb-4ca6-9619-12066e4ed91f"},"vehicle_type_id":"4","last_reported":1726319544,"current_range_meters":38800,"station_id":"ce4bhqp2rcd13ifvqhng","pricing_plan_id":"cebpf4jnsgd1na2vs0mg"},{"bike_id":"a725e6bd-2610-4052-aad1-4708c94b8d10","system_id":"levelo_inurba_marseille","lat":43.28273,"lon":5.35074,"is_reserved":false,"is_disabled":false,"rental_uris":{"android":"levelo://app?vid=a725e6bd-2610-4052-aad1-4708c94b8d10","ios":"levelo://app?vid=a725e6bd-2610-4052-aad1-4708c94b8d10"},"vehicle_type_id":"4","last_reported":1726319544,"current_range_meters":22000,"station_id":"ce4bhbp2rcd13ifvqerg","pricing_plan_id":"cebpf4jnsgd1na2vs0mg"},{"bike_id":"e869eba8-35c0-4afa-b325-14f60c232467","system_id":"levelo_inurba_marseille","lat":43.2319,"lon":5.3555,"is_reserved":false,"is_disabled":false,"rental_uris":{"android":"levelo://app?vid=e869eba8-35c0-4afa-b325-14f60c232467","ios":"levelo://app?vid=e869eba8-35c0-4afa-b325-14f60c232467"},"vehicle_type_id":"4","last_reported":1726319544,"current_range_meters":23200,"station_id":"ce4bhu92rcd13ifvqi70","pricing_plan_id":"cebpf4jnsgd1na2vs0mg"},{"bike_id":"b57d008e-cedc-4b84-9bf6-15384cb281cd","system_id":"levelo_inurba_marseille","lat":43.29846,"lon":5.36269,"is_reserved":false,"is_disabled":false,"rental_uris":{"android":"levelo://app?vid=b57d008e-cedc-4b84-9bf6-15384cb281cd","ios":"levelo://app?vid=b57d008e-cedc-4b84-9bf6-15384cb281cd"},"vehicle_type_id":"4","last_reported":1726319544,"current_range_meters":38800,"station_id":"ce4bgpp2rcd13ifvqc3g","pricing_plan_id":"cebpf4jnsgd1na2vs0mg"},{"bike_id":"13ec4916-f0ea-4897-8afc-596425b42c42","system_id":"levelo_inurba_marseille","lat":43.23195,"lon":5.35552,"is_reserved":false,"is_disabled":false,"rental_uris":{"android":"levelo://app?vid=13ec4916-f0ea-4897-8afc-596425b42c42","ios":"levelo://app?vid=13ec4916-f0ea-4897-8afc-596425b42c42"},"vehicle_type_id":"4","last_reported":1726319544,"current_range_meters":27200,"station_id":"ce4bhu92rcd13ifvqi70","pricing_plan_id":"cebpf4jnsgd1na2vs0mg"},{"bike_id":"5294d5cf-0188-4d15-bd26-9773ecbe5d0d","system_id":"levelo_inurba_marseille","lat":43.23967,"lon":5.36633,"is_reserved":false,"is_disabled":false,"rental_uris":{"android":"levelo://app?vid=5294d5cf-0188-4d15-bd26-9773ecbe5d0d","ios":"levelo://app?vid=5294d5cf-0188-4d15-bd26-9773ecbe5d0d"},"vehicle_type_id":"4","last_reported":1726319544,"current_range_meters":24000,"station_id":"ce4bhi12rcd13ifvqfp0","pricing_plan_id":"cebpf4jnsgd1na2vs0mg"},{"bike_id":"cb0eaffb-2812-4bc5-9ace-6454d6cac3eb","system_id":"levelo_inurba_marseille","lat":43.28617,"lon":5.35103,"is_reserved":false,"is_disabled":false,"rental_uris":{"android":"levelo://app?vid=cb0eaffb-2812-4bc5-9ace-6454d6cac3eb","ios":"levelo://app?vid=cb0eaffb-2812-4bc5-9ace-6454d6cac3eb"},"vehicle_type_id":"4","last_reported":1726319544,"current_range_meters":29600,"station_id":"ce4bhch2rcd13ifvqeug","pricing_plan_id":"cebpf4jnsgd1na2vs0mg"},{"bike_id":"3f1e932a-540c-4c5d-a4f8-ac49240977b8","system_id":"levelo_inurba_marseille","lat":43.24387,"lon":5.37052,"is_reserved":false,"is_disabled":false,"rental_uris":{"android":"levelo://app?vid=3f1e932a-540c-4c5d-a4f8-ac49240977b8","ios":"levelo://app?vid=3f1e932a-540c-4c5d-a4f8-ac49240977b8"},"vehicle_type_id":"4","last_reported":1726319544,"current_range_meters":38800,"station_id":"ce4bhhh2rcd13ifvqfk0","pricing_plan_id":"cebpf4jnsgd1na2vs0mg"},{"bike_id":"1b69e28d-b657-4802-b5dd-aa17fb5a768b","system_id":"levelo_inurba_marseille","lat":43.27135,"lon":5.42802,"is_reserved":false,"is_disabled":false,"rental_uris":{"android":"levelo://app?vid=1b69e28d-b657-4802-b5dd-aa17fb5a768b","ios":"levelo://app?vid=1b69e28d-b657-4802-b5dd-aa17fb5a768b"},"vehicle_type_id":"4","last_reported":1726319544,"current_range_meters":26800,"station_id":"","pricing_plan_id":"cebpf4jnsgd1na2vs0mg"},{"bike_id":"e75a2dac-187c-4d68-9f80-ded9f8b89b2d","system_id":"levelo_inurba_marseille","lat":43.2808,"lon":5.39659,"is_reserved":false,"is_disabled":false,"rental_uris":{"android":"levelo://app?vid=e75a2dac-187c-4d68-9f80-ded9f8b89b2d","ios":"levelo://app?vid=e75a2dac-187c-4d68-9f80-ded9f8b89b2d"},"vehicle_type_id":"4","last_reported":1726319544,"current_range_meters":35600,"station_id":"ce4bho12rcd13ifvqh2g","pricing_plan_id":"cebpf4jnsgd1na2vs0mg"},{"bike_id":"026a3fb4-5a7d-413d-850f-bdb6b382da7d","system_id":"levelo_inurba_marseille","lat":43.23202,"lon":5.35552,"is_reserved":false,"is_disabled":false,"rental_uris":{"android":"levelo://app?vid=026a3fb4-5a7d-413d-850f-bdb6b382da7d","ios":"levelo://app?vid=026a3fb4-5a7d-413d-850f-bdb6b382da7d"},"vehicle_type_id":"4","last_reported":1726319544,"current_range_meters":6800,"station_id":"ce4bhu92rcd13ifvqi70","pricing_plan_id":"cebpf4jnsgd1na2vs0mg"},{"bike_id":"9feab398-cf56-4b89-9b16-aeeeba7aded1","system_id":"levelo_inurba_marseille","lat":43.28039,"lon":5.36965,"is_reserved":false,"is_disabled":false,"rental_uris":{"android":"levelo://app?vid=9feab398-cf56-4b89-9b16-aeeeba7aded1","ios":"levelo://app?vid=9feab398-cf56-4b89-9b16-aeeeba7aded1"},"vehicle_type_id":"4","last_reported":1726319544,"current_range_meters":16400,"station_id":"ce4bha12rcd13ifvqef0","pricing_plan_id":"cebpf4jnsgd1na2vs0mg"},{"bike_id":"48d6cde3-172b-4adf-bd43-511b431bc5ad","system_id":"levelo_inurba_marseille","lat":43.28266,"lon":5.35064,"is_reserved":false,"is_disabled":false,"rental_uris":{"android":"levelo://app?vid=48d6cde3-172b-4adf-bd43-511b431bc5ad","ios":"levelo://app?vid=48d6cde3-172b-4adf-bd43-511b431bc5ad"},"vehicle_type_id":"4","last_reported":1726319544,"current_range_meters":3600,"station_id":"ce4bhbp2rcd13ifvqerg","pricing_plan_id":"cebpf4jnsgd1na2vs0mg"},{"bike_id":"995d3a7e-289e-4ebd-b785-9d2da426ad57","system_id":"levelo_inurba_marseille","lat":43.23193,"lon":5.35543,"is_reserved":false,"is_disabled":false,"rental_uris":{"android":"levelo://app?vid=995d3a7e-289e-4ebd-b785-9d2da426ad57","ios":"levelo://app?vid=995d3a7e-289e-4ebd-b785-9d2da426ad57"},"vehicle_type_id":"4","last_reported":1726319544,"current_range_meters":20000,"station_id":"ce4bhu92rcd13ifvqi70","pricing_plan_id":"cebpf4jnsgd1na2vs0mg"},{"bike_id":"74c67d55-8a5f-40c9-8066-d68354718f8c","system_id":"levelo_inurba_marseille","lat":43.23189,"lon":5.35555,"is_reserved":false,"is_disabled":false,"rental_uris":{"android":"levelo://app?vid=74c67d55-8a5f-40c9-8066-d68354718f8c","ios":"levelo://app?vid=74c67d55-8a5f-40c9-8066-d68354718f8c"},"vehicle_type_id":"4","last_reported":1726319544,"current_range_meters":25200,"station_id":"ce4bhu92rcd13ifvqi70","pricing_plan_id":"cebpf4jnsgd1na2vs0mg"},{"bike_id":"b59367b5-9cf2-454d-9c0c-9efa1a59998d","system_id":"levelo_inurba_marseille","lat":43.27205,"lon":5.39187,"is_reserved":false,"is_disabled":false,"rental_uris":{"android":"levelo://app?vid=b59367b5-9cf2-454d-9c0c-9efa1a59998d","ios":"levelo://app?vid=b59367b5-9cf2-454d-9c0c-9efa1a59998d"},"vehicle_type_id":"4","last_reported":1726319544,"current_range_meters":12800,"station_id":"ce4bhhp2rcd13ifvqfm0","pricing_plan_id":"cebpf4jnsgd1na2vs0mg"},{"bike_id":"bbff06e8-e26c-4f4a-87c2-0dbc5a84f5ee","system_id":"levelo_inurba_marseille","lat":43.30552,"lon":5.36532,"is_reserved":false,"is_disabled":false,"rental_uris":{"android":"levelo://app?vid=bbff06e8-e26c-4f4a-87c2-0dbc5a84f5ee","ios":"levelo://app?vid=bbff06e8-e26c-4f4a-87c2-0dbc5a84f5ee"},"vehicle_type_id":"4","last_reported":1726319544,"current_range_meters":39200,"station_id":"ce4bgs12rcd13ifvqcag","pricing_plan_id":"cebpf4jnsgd1na2vs0mg"},{"bike_id":"39583510-a917-45eb-8e61-36315c287b4b","system_id":"levelo_inurba_marseille","lat":43.28284,"lon":5.35073,"is_reserved":false,"is_disabled":false,"rental_uris":{"android":"levelo://app?vid=39583510-a917-45eb-8e61-36315c287b4b","ios":"levelo://app?vid=39583510-a917-45eb-8e61-36315c287b4b"},"vehicle_type_id":"4","last_reported":1726319544,"current_range_meters":22000,"station_id":"ce4bhbp2rcd13ifvqerg","pricing_plan_id":"cebpf4jnsgd1na2vs0mg"},{"bike_id":"b175abe2-736e-4361-9631-47d775c167a0","system_id":"levelo_inurba_marseille","lat":43.24392,"lon":5.37067,"is_reserved":false,"is_disabled":false,"rental_uris":{"android":"levelo://app?vid=b175abe2-736e-4361-9631-47d775c167a0","ios":"levelo://app?vid=b175abe2-736e-4361-9631-47d775c167a0"},"vehicle_type_id":"4","last_reported":1726319544,"current_range_meters":20000,"station_id":"ce4bhhh2rcd13ifvqfk0","pricing_plan_id":"cebpf4jnsgd1na2vs0mg"},{"bike_id":"24674f4b-bcb6-4d3e-a74d-7d8a6acb125c","system_id":"levelo_inurba_marseille","lat":43.24997,"lon":5.38936,"is_reserved":false,"is_disabled":false,"rental_uris":{"android":"levelo://app?vid=24674f4b-bcb6-4d3e-a74d-7d8a6acb125c","ios":"levelo://app?vid=24674f4b-bcb6-4d3e-a74d-7d8a6acb125c"},"vehicle_type_id":"4","last_reported":1726319544,"current_range_meters":27200,"station_id":"ce4bhgp2rcd13ifvqfd0","pricing_plan_id":"cebpf4jnsgd1na2vs0mg"},{"bike_id":"bf4e28ce-774c-4c4b-9b2b-5486c83eb589","system_id":"levelo_inurba_marseille","lat":43.292358,"lon":5.363175,"is_reserved":false,"is_disabled":false,"rental_uris":{"android":"levelo://app?vid=bf4e28ce-774c-4c4b-9b2b-5486c83eb589","ios":"levelo://app?vid=bf4e28ce-774c-4c4b-9b2b-5486c83eb589"},"vehicle_type_id":"4","last_reported":1726319544,"current_range_meters":6800,"station_id":"ce4bgn12rcd13ifvqbt0","pricing_plan_id":"cebpf4jnsgd1na2vs0mg"},{"bike_id":"c810d6b7-9e0b-4807-98d4-ce8673d16f3c","system_id":"levelo_inurba_marseille","lat":43.29747,"lon":5.37921,"is_reserved":false,"is_disabled":false,"rental_uris":{"android":"levelo://app?vid=c810d6b7-9e0b-4807-98d4-ce8673d16f3c","ios":"levelo://app?vid=c810d6b7-9e0b-4807-98d4-ce8673d16f3c"},"vehicle_type_id":"4","last_reported":1726319544,"current_range_meters":38800,"station_id":"","pricing_plan_id":"cebpf4jnsgd1na2vs0mg"},{"bike_id":"5d4d196a-dcd3-401c-bbda-3dae8babdc01","system_id":"levelo_inurba_marseille","lat":43.26209,"lon":5.37925,"is_reserved":false,"is_disabled":false,"rental_uris":{"android":"levelo://app?vid=5d4d196a-dcd3-401c-bbda-3dae8babdc01","ios":"levelo://app?vid=5d4d196a-dcd3-401c-bbda-3dae8babdc01"},"vehicle_type_id":"4","last_reported":1726319544,"current_range_meters":38800,"station_id":"ce4bhjp2rcd13ifvqg90","pricing_plan_id":"cebpf4jnsgd1na2vs0mg"},{"bike_id":"76102230-8c84-4888-b8b7-8f9724d15667","system_id":"levelo_inurba_marseille","lat":43.27206,"lon":5.39185,"is_reserved":false,"is_disabled":false,"rental_uris":{"android":"levelo://app?vid=76102230-8c84-4888-b8b7-8f9724d15667","ios":"levelo://app?vid=76102230-8c84-4888-b8b7-8f9724d15667"},"vehicle_type_id":"4","last_reported":1726319544,"current_range_meters":20800,"station_id":"ce4bhhp2rcd13ifvqfm0","pricing_plan_id":"cebpf4jnsgd1na2vs0mg"},{"bike_id":"8b085320-0367-48fd-9439-d5a2380ff618","system_id":"levelo_inurba_marseille","lat":43.27816,"lon":5.40716,"is_reserved":false,"is_disabled":false,"rental_uris":{"android":"levelo://app?vid=8b085320-0367-48fd-9439-d5a2380ff618","ios":"levelo://app?vid=8b085320-0367-48fd-9439-d5a2380ff618"},"vehicle_type_id":"4","last_reported":1726319544,"current_range_meters":22800,"station_id":"ce4bhnh2rcd13ifvqgtg","pricing_plan_id":"cebpf4jnsgd1na2vs0mg"},{"bike_id":"c00a267b-9f51-4707-9b6f-5420e973cb11","system_id":"levelo_inurba_marseille","lat":43.2573,"lon":5.41107,"is_reserved":false,"is_disabled":false,"rental_uris":{"android":"levelo://app?vid=c00a267b-9f51-4707-9b6f-5420e973cb11","ios":"levelo://app?vid=c00a267b-9f51-4707-9b6f-5420e973cb11"},"vehicle_type_id":"4","last_reported":1726319544,"current_range_meters":28400,"station_id":"ce4bhkp2rcd13ifvqgd0","pricing_plan_id":"cebpf4jnsgd1na2vs0mg"},{"bike_id":"e6bea8cd-bd1a-48c2-8a52-de5e2a98c0f4","system_id":"levelo_inurba_marseille","lat":43.25939,"lon":5.409,"is_reserved":false,"is_disabled":false,"rental_uris":{"android":"levelo://app?vid=e6bea8cd-bd1a-48c2-8a52-de5e2a98c0f4","ios":"levelo://app?vid=e6bea8cd-bd1a-48c2-8a52-de5e2a98c0f4"},"vehicle_type_id":"4","last_reported":1726319544,"current_range_meters":32000,"station_id":"ce4bhm92rcd13ifvqglg","pricing_plan_id":"cebpf4jnsgd1na2vs0mg"},{"bike_id":"9c28ec0f-4c95-4721-aa62-afca5f4a4fb7","system_id":"levelo_inurba_marseille","lat":43.3038,"lon":5.38019,"is_reserved":false,"is_disabled":false,"rental_uris":{"android":"levelo://app?vid=9c28ec0f-4c95-4721-aa62-afca5f4a4fb7","ios":"levelo://app?vid=9c28ec0f-4c95-4721-aa62-afca5f4a4fb7"},"vehicle_type_id":"4","last_reported":1726319544,"current_range_meters":9200,"station_id":"","pricing_plan_id":"cebpf4jnsgd1na2vs0mg"},{"bike_id":"25719f38-c078-495c-9328-7a625d03a8de","system_id":"levelo_inurba_marseille","lat":43.317,"lon":5.40473,"is_reserved":false,"is_disabled":false,"rental_uris":{"android":"levelo://app?vid=25719f38-c078-495c-9328-7a625d03a8de","ios":"levelo://app?vid=25719f38-c078-495c-9328-7a625d03a8de"},"vehicle_type_id":"4","last_reported":1726319544,"current_range_meters":14800,"station_id":"ce4bh012rcd13ifvqd00","pricing_plan_id":"cebpf4jnsgd1na2vs0mg"},{"bike_id":"7e862e61-75da-4e7f-8e5f-793a48533c82","system_id":"levelo_inurba_marseille","lat":43.24805,"lon":5.37454,"is_reserved":false,"is_disabled":false,"rental_uris":{"android":"levelo://app?vid=7e862e61-75da-4e7f-8e5f-793a48533c82","ios":"levelo://app?vid=7e862e61-75da-4e7f-8e5f-793a48533c82"},"vehicle_type_id":"4","last_reported":1726319544,"current_range_meters":10800,"station_id":"ce4bhgh2rcd13ifvqfb0","pricing_plan_id":"cebpf4jnsgd1na2vs0mg"},{"bike_id":"34721204-9cc8-4128-8304-5b698c26b1e6","system_id":"levelo_inurba_marseille","lat":43.2318,"lon":5.39982,"is_reserved":false,"is_disabled":false,"rental_uris":{"android":"levelo://app?vid=34721204-9cc8-4128-8304-5b698c26b1e6","ios":"levelo://app?vid=34721204-9cc8-4128-8304-5b698c26b1e6"},"vehicle_type_id":"4","last_reported":1726319544,"current_range_meters":39200,"station_id":"ce4bhn12rcd13ifvqgqg","pricing_plan_id":"cebpf4jnsgd1na2vs0mg"},{"bike_id":"d97d40ef-a035-4cb5-be51-347dfbed25c1","system_id":"levelo_inurba_marseille","lat":43.26201,"lon":5.37936,"is_reserved":false,"is_disabled":false,"rental_uris":{"android":"levelo://app?vid=d97d40ef-a035-4cb5-be51-347dfbed25c1","ios":"levelo://app?vid=d97d40ef-a035-4cb5-be51-347dfbed25c1"},"vehicle_type_id":"4","last_reported":1726319544,"current_range_meters":38800,"station_id":"ce4bhjp2rcd13ifvqg90","pricing_plan_id":"cebpf4jnsgd1na2vs0mg"},{"bike_id":"496f0604-e2ef-428c-9024-41611c2c552b","system_id":"levelo_inurba_marseille","lat":43.28271,"lon":5.35069,"is_reserved":false,"is_disabled":false,"rental_uris":{"android":"levelo://app?vid=496f0604-e2ef-428c-9024-41611c2c552b","ios":"levelo://app?vid=496f0604-e2ef-428c-9024-41611c2c552b"},"vehicle_type_id":"4","last_reported":1726319544,"current_range_meters":36000,"station_id":"ce4bhbp2rcd13ifvqerg","pricing_plan_id":"cebpf4jnsgd1na2vs0mg"},{"bike_id":"a65cb16f-df97-4cbb-91c8-0949a193856b","system_id":"levelo_inurba_marseille","lat":43.29276,"lon":5.36853,"is_reserved":false,"is_disabled":false,"rental_uris":{"android":"levelo://app?vid=a65cb16f-df97-4cbb-91c8-0949a193856b","ios":"levelo://app?vid=a65cb16f-df97-4cbb-91c8-0949a193856b"},"vehicle_type_id":"4","last_reported":1726319544,"current_range_meters":37600,"station_id":"ce4bhbp2rcd13ifvqesg","pricing_plan_id":"cebpf4jnsgd1na2vs0mg"},{"bike_id":"fc8b27c4-f2ac-4aa3-a72e-f0799ca48e22","system_id":"levelo_inurba_marseille","lat":43.23153,"lon":5.4371,"is_reserved":false,"is_disabled":false,"rental_uris":{"android":"levelo://app?vid=fc8b27c4-f2ac-4aa3-a72e-f0799ca48e22","ios":"levelo://app?vid=fc8b27c4-f2ac-4aa3-a72e-f0799ca48e22"},"vehicle_type_id":"4","last_reported":1726319544,"current_range_meters":17200,"station_id":"ce4bhmp2rcd13ifvqgog","pricing_plan_id":"cebpf4jnsgd1na2vs0mg"},{"bike_id":"d3fe0234-da22-4243-8ca3-21f3dcf87f01","system_id":"levelo_inurba_marseille","lat":43.2956,"lon":5.37513,"is_reserved":false,"is_disabled":false,"rental_uris":{"android":"levelo://app?vid=d3fe0234-da22-4243-8ca3-21f3dcf87f01","ios":"levelo://app?vid=d3fe0234-da22-4243-8ca3-21f3dcf87f01"},"vehicle_type_id":"4","last_reported":1726319544,"current_range_meters":28400,"station_id":"ce4bgh92rcd13ifvqb50","pricing_plan_id":"cebpf4jnsgd1na2vs0mg"},{"bike_id":"36eabae4-b4a8-41c5-abec-e9e9e11a20e9","system_id":"levelo_inurba_marseille","lat":43.27375,"lon":5.36248,"is_reserved":false,"is_disabled":false,"rental_uris":{"android":"levelo://app?vid=36eabae4-b4a8-41c5-abec-e9e9e11a20e9","ios":"levelo://app?vid=36eabae4-b4a8-41c5-abec-e9e9e11a20e9"},"vehicle_type_id":"4","last_reported":1726319544,"current_range_meters":22400,"station_id":"ce4bhbh2rcd13ifvqeo0","pricing_plan_id":"cebpf4jnsgd1na2vs0mg"},{"bike_id":"6c5599b1-0440-41da-ac45-dfda77054232","system_id":"levelo_inurba_marseille","lat":43.26938,"lon":5.4025,"is_reserved":false,"is_disabled":false,"rental_uris":{"android":"levelo://app?vid=6c5599b1-0440-41da-ac45-dfda77054232","ios":"levelo://app?vid=6c5599b1-0440-41da-ac45-dfda77054232"},"vehicle_type_id":"4","last_reported":1726319544,"current_range_meters":16000,"station_id":"cjm6bp8fraef2m0cb0m0","pricing_plan_id":"cebpf4jnsgd1na2vs0mg"},{"bike_id":"3ff49cd6-2a38-448d-a324-90182f8f251b","system_id":"levelo_inurba_marseille","lat":43.30544,"lon":5.36534,"is_reserved":false,"is_disabled":false,"rental_uris":{"android":"levelo://app?vid=3ff49cd6-2a38-448d-a324-90182f8f251b","ios":"levelo://app?vid=3ff49cd6-2a38-448d-a324-90182f8f251b"},"vehicle_type_id":"4","last_reported":1726319544,"current_range_meters":26000,"station_id":"ce4bgs12rcd13ifvqcag","pricing_plan_id":"cebpf4jnsgd1na2vs0mg"},{"bike_id":"9da0040f-535c-4c47-b881-a458a0ee6f78","system_id":"levelo_inurba_marseille","lat":43.231852,"lon":5.399994,"is_reserved":false,"is_disabled":false,"rental_uris":{"android":"levelo://app?vid=9da0040f-535c-4c47-b881-a458a0ee6f78","ios":"levelo://app?vid=9da0040f-535c-4c47-b881-a458a0ee6f78"},"vehicle_type_id":"4","last_reported":1726319544,"current_range_meters":38000,"station_id":"ce4bhn12rcd13ifvqgpg","pricing_plan_id":"cebpf4jnsgd1na2vs0mg"},{"bike_id":"083f80f9-af32-4b4b-98d9-51e7c9548087","system_id":"levelo_inurba_marseille","lat":43.32366,"lon":5.38886,"is_reserved":false,"is_disabled":false,"rental_uris":{"android":"levelo://app?vid=083f80f9-af32-4b4b-98d9-51e7c9548087","ios":"levelo://app?vid=083f80f9-af32-4b4b-98d9-51e7c9548087"},"vehicle_type_id":"4","last_reported":1726319544,"current_range_meters":10800,"station_id":"ce4bhqp2rcd13ifvqhog","pricing_plan_id":"cebpf4jnsgd1na2vs0mg"},{"bike_id":"16ca6d91-7513-415c-9a61-5d33eb8ad677","system_id":"levelo_inurba_marseille","lat":43.22934,"lon":5.35374,"is_reserved":false,"is_disabled":false,"rental_uris":{"android":"levelo://app?vid=16ca6d91-7513-415c-9a61-5d33eb8ad677","ios":"levelo://app?vid=16ca6d91-7513-415c-9a61-5d33eb8ad677"},"vehicle_type_id":"4","last_reported":1726319544,"current_range_meters":22400,"station_id":"cpo3532slgdg3j2ikp40","pricing_plan_id":"cebpf4jnsgd1na2vs0mg"},{"bike_id":"10cedbb4-1c1f-4b0e-acdf-6f0391c23bdc","system_id":"levelo_inurba_marseille","lat":43.28041,"lon":5.36945,"is_reserved":false,"is_disabled":false,"rental_uris":{"android":"levelo://app?vid=10cedbb4-1c1f-4b0e-acdf-6f0391c23bdc","ios":"levelo://app?vid=10cedbb4-1c1f-4b0e-acdf-6f0391c23bdc"},"vehicle_type_id":"4","last_reported":1726319544,"current_range_meters":6400,"station_id":"ce4bha12rcd13ifvqef0","pricing_plan_id":"cebpf4jnsgd1na2vs0mg"},{"bike_id":"971ff03d-2a2d-41c0-ac36-02885eb856b5","system_id":"levelo_inurba_marseille","lat":43.23965,"lon":5.36629,"is_reserved":false,"is_disabled":false,"rental_uris":{"android":"levelo://app?vid=971ff03d-2a2d-41c0-ac36-02885eb856b5","ios":"levelo://app?vid=971ff03d-2a2d-41c0-ac36-02885eb856b5"},"vehicle_type_id":"4","last_reported":1726319544,"current_range_meters":32400,"station_id":"ce4bhi12rcd13ifvqfp0","pricing_plan_id":"cebpf4jnsgd1na2vs0mg"},{"bike_id":"d38a17d1-a3ef-44ea-8c84-8c3822e22edc","system_id":"levelo_inurba_marseille","lat":43.27196,"lon":5.39185,"is_reserved":false,"is_disabled":false,"rental_uris":{"android":"levelo://app?vid=d38a17d1-a3ef-44ea-8c84-8c3822e22edc","ios":"levelo://app?vid=d38a17d1-a3ef-44ea-8c84-8c3822e22edc"},"vehicle_type_id":"4","last_reported":1726319544,"current_range_meters":24000,"station_id":"ce4bhhp2rcd13ifvqfm0","pricing_plan_id":"cebpf4jnsgd1na2vs0mg"},{"bike_id":"d817ddb8-8772-487d-8a90-d2d1b004b3cd","system_id":"levelo_inurba_marseille","lat":43.29021,"lon":5.37571,"is_reserved":false,"is_disabled":false,"rental_uris":{"android":"levelo://app?vid=d817ddb8-8772-487d-8a90-d2d1b004b3cd","ios":"levelo://app?vid=d817ddb8-8772-487d-8a90-d2d1b004b3cd"},"vehicle_type_id":"4","last_reported":1726319544,"current_range_meters":16400,"station_id":"ce4bh692rcd13ifvqe90","pricing_plan_id":"cebpf4jnsgd1na2vs0mg"},{"bike_id":"f4c36463-ddf2-4e8a-90a8-c12391e72ce0","system_id":"levelo_inurba_marseille","lat":43.28276,"lon":5.35073,"is_reserved":false,"is_disabled":false,"rental_uris":{"android":"levelo://app?vid=f4c36463-ddf2-4e8a-90a8-c12391e72ce0","ios":"levelo://app?vid=f4c36463-ddf2-4e8a-90a8-c12391e72ce0"},"vehicle_type_id":"4","last_reported":1726319544,"current_range_meters":38800,"station_id":"ce4bhbp2rcd13ifvqerg","pricing_plan_id":"cebpf4jnsgd1na2vs0mg"},{"bike_id":"4e89e71c-6504-4029-ac48-9173faa32d5b","system_id":"levelo_inurba_marseille","lat":43.29581,"lon":5.37502,"is_reserved":false,"is_disabled":false,"rental_uris":{"android":"levelo://app?vid=4e89e71c-6504-4029-ac48-9173faa32d5b","ios":"levelo://app?vid=4e89e71c-6504-4029-ac48-9173faa32d5b"},"vehicle_type_id":"4","last_reported":1726319544,"current_range_meters":32000,"station_id":"ce4bgh92rcd13ifvqb50","pricing_plan_id":"cebpf4jnsgd1na2vs0mg"},{"bike_id":"ce45b02b-b167-4654-b305-eb82cd566863","system_id":"levelo_inurba_marseille","lat":43.23195,"lon":5.35549,"is_reserved":false,"is_disabled":false,"rental_uris":{"android":"levelo://app?vid=ce45b02b-b167-4654-b305-eb82cd566863","ios":"levelo://app?vid=ce45b02b-b167-4654-b305-eb82cd566863"},"vehicle_type_id":"4","last_reported":1726319544,"current_range_meters":26000,"station_id":"ce4bhu92rcd13ifvqi70","pricing_plan_id":"cebpf4jnsgd1na2vs0mg"},{"bike_id":"ead27690-e975-4244-a596-648117461590","system_id":"levelo_inurba_marseille","lat":43.28279,"lon":5.35071,"is_reserved":false,"is_disabled":false,"rental_uris":{"android":"levelo://app?vid=ead27690-e975-4244-a596-648117461590","ios":"levelo://app?vid=ead27690-e975-4244-a596-648117461590"},"vehicle_type_id":"4","last_reported":1726319544,"current_range_meters":12000,"station_id":"ce4bhbp2rcd13ifvqerg","pricing_plan_id":"cebpf4jnsgd1na2vs0mg"},{"bike_id":"d19bb16c-c267-4bb6-a90b-b189dbb17733","system_id":"levelo_inurba_marseille","lat":43.27212,"lon":5.39175,"is_reserved":false,"is_disabled":false,"rental_uris":{"android":"levelo://app?vid=d19bb16c-c267-4bb6-a90b-b189dbb17733","ios":"levelo://app?vid=d19bb16c-c267-4bb6-a90b-b189dbb17733"},"vehicle_type_id":"4","last_reported":1726319544,"current_range_meters":24000,"station_id":"ce4bhhp2rcd13ifvqfm0","pricing_plan_id":"cebpf4jnsgd1na2vs0mg"},{"bike_id":"fff8974a-74a3-4f70-810a-1bfbd6a3ba1d","system_id":"levelo_inurba_marseille","lat":43.27369,"lon":5.36264,"is_reserved":false,"is_disabled":false,"rental_uris":{"android":"levelo://app?vid=fff8974a-74a3-4f70-810a-1bfbd6a3ba1d","ios":"levelo://app?vid=fff8974a-74a3-4f70-810a-1bfbd6a3ba1d"},"vehicle_type_id":"4","last_reported":1726319544,"current_range_meters":39200,"station_id":"ce4bhbh2rcd13ifvqeo0","pricing_plan_id":"cebpf4jnsgd1na2vs0mg"},{"bike_id":"106a0518-37b2-4522-a4fb-6df69f6c6f9a","system_id":"levelo_inurba_marseille","lat":43.29028,"lon":5.37568,"is_reserved":false,"is_disabled":false,"rental_uris":{"android":"levelo://app?vid=106a0518-37b2-4522-a4fb-6df69f6c6f9a","ios":"levelo://app?vid=106a0518-37b2-4522-a4fb-6df69f6c6f9a"},"vehicle_type_id":"4","last_reported":1726319544,"current_range_meters":38800,"station_id":"ce4bh692rcd13ifvqe90","pricing_plan_id":"cebpf4jnsgd1na2vs0mg"},{"bike_id":"725692c2-60db-4992-b528-031ce878f734","system_id":"levelo_inurba_marseille","lat":43.26565,"lon":5.39015,"is_reserved":false,"is_disabled":false,"rental_uris":{"android":"levelo://app?vid=725692c2-60db-4992-b528-031ce878f734","ios":"levelo://app?vid=725692c2-60db-4992-b528-031ce878f734"},"vehicle_type_id":"4","last_reported":1726319544,"current_range_meters":31200,"station_id":"ce4bhe12rcd13ifvqf30","pricing_plan_id":"cebpf4jnsgd1na2vs0mg"},{"bike_id":"4dcd54ea-7be8-4a59-88d6-0c6dbde6b9b4","system_id":"levelo_inurba_marseille","lat":43.2293,"lon":5.35379,"is_reserved":false,"is_disabled":false,"rental_uris":{"android":"levelo://app?vid=4dcd54ea-7be8-4a59-88d6-0c6dbde6b9b4","ios":"levelo://app?vid=4dcd54ea-7be8-4a59-88d6-0c6dbde6b9b4"},"vehicle_type_id":"4","last_reported":1726319544,"current_range_meters":12800,"station_id":"cpo3532slgdg3j2ikp40","pricing_plan_id":"cebpf4jnsgd1na2vs0mg"},{"bike_id":"920ab188-b742-46ff-82da-fa33f8f84c2e","system_id":"levelo_inurba_marseille","lat":43.23067,"lon":5.35496,"is_reserved":false,"is_disabled":false,"rental_uris":{"android":"levelo://app?vid=920ab188-b742-46ff-82da-fa33f8f84c2e","ios":"levelo://app?vid=920ab188-b742-46ff-82da-fa33f8f84c2e"},"vehicle_type_id":"4","last_reported":1726319544,"current_range_meters":24800,"station_id":"cpo3342slgdg3j2ifvpg","pricing_plan_id":"cebpf4jnsgd1na2vs0mg"},{"bike_id":"0a9e734e-a0d9-4575-b20f-9df6e80a84d9","system_id":"levelo_inurba_marseille","lat":43.28265,"lon":5.35066,"is_reserved":false,"is_disabled":false,"rental_uris":{"android":"levelo://app?vid=0a9e734e-a0d9-4575-b20f-9df6e80a84d9","ios":"levelo://app?vid=0a9e734e-a0d9-4575-b20f-9df6e80a84d9"},"vehicle_type_id":"4","last_reported":1726319544,"current_range_meters":18000,"station_id":"ce4bhbp2rcd13ifvqerg","pricing_plan_id":"cebpf4jnsgd1na2vs0mg"},{"bike_id":"26db0265-0a91-4c66-8aa8-67a94f7eef0d","system_id":"levelo_inurba_marseille","lat":43.26934,"lon":5.40057,"is_reserved":false,"is_disabled":false,"rental_uris":{"android":"levelo://app?vid=26db0265-0a91-4c66-8aa8-67a94f7eef0d","ios":"levelo://app?vid=26db0265-0a91-4c66-8aa8-67a94f7eef0d"},"vehicle_type_id":"4","last_reported":1726319544,"current_range_meters":17200,"station_id":"","pricing_plan_id":"cebpf4jnsgd1na2vs0mg"},{"bike_id":"9b49fc06-69dc-4375-9bc8-2ab31283d424","system_id":"levelo_inurba_marseille","lat":43.29907,"lon":5.43673,"is_reserved":false,"is_disabled":false,"rental_uris":{"android":"levelo://app?vid=9b49fc06-69dc-4375-9bc8-2ab31283d424","ios":"levelo://app?vid=9b49fc06-69dc-4375-9bc8-2ab31283d424"},"vehicle_type_id":"4","last_reported":1726319544,"current_range_meters":32400,"station_id":"ce4bhpp2rcd13ifvqhfg","pricing_plan_id":"cebpf4jnsgd1na2vs0mg"},{"bike_id":"4d75d199-02f1-485e-aa16-89176ed2c212","system_id":"levelo_inurba_marseille","lat":43.31165,"lon":5.39351,"is_reserved":false,"is_disabled":false,"rental_uris":{"android":"levelo://app?vid=4d75d199-02f1-485e-aa16-89176ed2c212","ios":"levelo://app?vid=4d75d199-02f1-485e-aa16-89176ed2c212"},"vehicle_type_id":"4","last_reported":1726319544,"current_range_meters":27200,"station_id":"","pricing_plan_id":"cebpf4jnsgd1na2vs0mg"},{"bike_id":"c7cd67a6-2f65-43e6-9e58-1489cab32866","system_id":"levelo_inurba_marseille","lat":43.24166,"lon":5.36395,"is_reserved":false,"is_disabled":false,"rental_uris":{"android":"levelo://app?vid=c7cd67a6-2f65-43e6-9e58-1489cab32866","ios":"levelo://app?vid=c7cd67a6-2f65-43e6-9e58-1489cab32866"},"vehicle_type_id":"4","last_reported":1726319544,"current_range_meters":38800,"station_id":"cpo36qri1sfpv3e86is0","pricing_plan_id":"cebpf4jnsgd1na2vs0mg"},{"bike_id":"4745391a-6583-4b62-b9b5-bd23bf5d5f43","system_id":"levelo_inurba_marseille","lat":43.29683,"lon":5.37285,"is_reserved":false,"is_disabled":false,"rental_uris":{"android":"levelo://app?vid=4745391a-6583-4b62-b9b5-bd23bf5d5f43","ios":"levelo://app?vid=4745391a-6583-4b62-b9b5-bd23bf5d5f43"},"vehicle_type_id":"4","last_reported":1726319544,"current_range_meters":29600,"station_id":"ce4bgk12rcd13ifvqbj0","pricing_plan_id":"cebpf4jnsgd1na2vs0mg"},{"bike_id":"bea2eb63-6dba-4a7f-ba8a-ed9270863fa0","system_id":"levelo_inurba_marseille","lat":43.25503,"lon":5.37652,"is_reserved":false,"is_disabled":false,"rental_uris":{"android":"levelo://app?vid=bea2eb63-6dba-4a7f-ba8a-ed9270863fa0","ios":"levelo://app?vid=bea2eb63-6dba-4a7f-ba8a-ed9270863fa0"},"vehicle_type_id":"4","last_reported":1726319544,"current_range_meters":34800,"station_id":"ce4bhh12rcd13ifvqff0","pricing_plan_id":"cebpf4jnsgd1na2vs0mg"},{"bike_id":"e00d038a-00c7-4258-ab4b-259bdb081cfd","system_id":"levelo_inurba_marseille","lat":43.23192,"lon":5.35548,"is_reserved":false,"is_disabled":false,"rental_uris":{"android":"levelo://app?vid=e00d038a-00c7-4258-ab4b-259bdb081cfd","ios":"levelo://app?vid=e00d038a-00c7-4258-ab4b-259bdb081cfd"},"vehicle_type_id":"4","last_reported":1726319544,"current_range_meters":36000,"station_id":"ce4bhu92rcd13ifvqi70","pricing_plan_id":"cebpf4jnsgd1na2vs0mg"},{"bike_id":"4f847161-8733-40c0-9d1a-924c211b3057","system_id":"levelo_inurba_marseille","lat":43.23194,"lon":5.35551,"is_reserved":false,"is_disabled":false,"rental_uris":{"android":"levelo://app?vid=4f847161-8733-40c0-9d1a-924c211b3057","ios":"levelo://app?vid=4f847161-8733-40c0-9d1a-924c211b3057"},"vehicle_type_id":"4","last_reported":1726319544,"current_range_meters":37600,"station_id":"ce4bhu92rcd13ifvqi70","pricing_plan_id":"cebpf4jnsgd1na2vs0mg"},{"bike_id":"6a0ba89f-d9cb-4b15-ad4d-931592dbcc7a","system_id":"levelo_inurba_marseille","lat":43.26945,"lon":5.40251,"is_reserved":false,"is_disabled":false,"rental_uris":{"android":"levelo://app?vid=6a0ba89f-d9cb-4b15-ad4d-931592dbcc7a","ios":"levelo://app?vid=6a0ba89f-d9cb-4b15-ad4d-931592dbcc7a"},"vehicle_type_id":"4","last_reported":1726319544,"current_range_meters":14400,"station_id":"cjm6bp8fraef2m0cb0m0","pricing_plan_id":"cebpf4jnsgd1na2vs0mg"},{"bike_id":"c8bcf91a-5827-41b8-81db-791cf371961e","system_id":"levelo_inurba_marseille","lat":43.26941,"lon":5.4025,"is_reserved":false,"is_disabled":false,"rental_uris":{"android":"levelo://app?vid=c8bcf91a-5827-41b8-81db-791cf371961e","ios":"levelo://app?vid=c8bcf91a-5827-41b8-81db-791cf371961e"},"vehicle_type_id":"4","last_reported":1726319544,"current_range_meters":38800,"station_id":"cjm6bp8fraef2m0cb0m0","pricing_plan_id":"cebpf4jnsgd1na2vs0mg"},{"bike_id":"8ce4abbe-aae7-434c-b92a-9bec98856472","system_id":"levelo_inurba_marseille","lat":43.25577,"lon":5.38234,"is_reserved":false,"is_disabled":false,"rental_uris":{"android":"levelo://app?vid=8ce4abbe-aae7-434c-b92a-9bec98856472","ios":"levelo://app?vid=8ce4abbe-aae7-434c-b92a-9bec98856472"},"vehicle_type_id":"4","last_reported":1726319544,"current_range_meters":19200,"station_id":"ce4bhih2rcd13ifvqfs0","pricing_plan_id":"cebpf4jnsgd1na2vs0mg"},{"bike_id":"0fba4330-9c5c-4922-b9d4-e0c55afb69fe","system_id":"levelo_inurba_marseille","lat":43.29579,"lon":5.37507,"is_reserved":false,"is_disabled":false,"rental_uris":{"android":"levelo://app?vid=0fba4330-9c5c-4922-b9d4-e0c55afb69fe","ios":"levelo://app?vid=0fba4330-9c5c-4922-b9d4-e0c55afb69fe"},"vehicle_type_id":"4","last_reported":1726319544,"current_range_meters":20400,"station_id":"ce4bgh92rcd13ifvqb50","pricing_plan_id":"cebpf4jnsgd1na2vs0mg"},{"bike_id":"9e6b05d9-5b9e-4e8c-a7ed-a6aa23fe9a42","system_id":"levelo_inurba_marseille","lat":43.28608,"lon":5.35104,"is_reserved":false,"is_disabled":false,"rental_uris":{"android":"levelo://app?vid=9e6b05d9-5b9e-4e8c-a7ed-a6aa23fe9a42","ios":"levelo://app?vid=9e6b05d9-5b9e-4e8c-a7ed-a6aa23fe9a42"},"vehicle_type_id":"4","last_reported":1726319544,"current_range_meters":27600,"station_id":"ce4bhch2rcd13ifvqeug","pricing_plan_id":"cebpf4jnsgd1na2vs0mg"},{"bike_id":"7832068e-cb42-4de0-b6b2-e8ebbbbcfb22","system_id":"levelo_inurba_marseille","lat":43.2396,"lon":5.36647,"is_reserved":false,"is_disabled":false,"rental_uris":{"android":"levelo://app?vid=7832068e-cb42-4de0-b6b2-e8ebbbbcfb22","ios":"levelo://app?vid=7832068e-cb42-4de0-b6b2-e8ebbbbcfb22"},"vehicle_type_id":"4","last_reported":1726319544,"current_range_meters":39200,"station_id":"ce4bhi12rcd13ifvqfp0","pricing_plan_id":"cebpf4jnsgd1na2vs0mg"},{"bike_id":"dc788086-12b9-406a-8b2e-33170e5c6155","system_id":"levelo_inurba_marseille","lat":43.273219,"lon":5.3908,"is_reserved":false,"is_disabled":false,"rental_uris":{"android":"levelo://app?vid=dc788086-12b9-406a-8b2e-33170e5c6155","ios":"levelo://app?vid=dc788086-12b9-406a-8b2e-33170e5c6155"},"vehicle_type_id":"4","last_reported":1726319544,"current_range_meters":7200,"station_id":"ce4bhgp2rcd13ifvqfe0","pricing_plan_id":"cebpf4jnsgd1na2vs0mg"},{"bike_id":"883d6aac-580d-461c-b94f-6721061913de","system_id":"levelo_inurba_marseille","lat":43.26805,"lon":5.40269,"is_reserved":false,"is_disabled":false,"rental_uris":{"android":"levelo://app?vid=883d6aac-580d-461c-b94f-6721061913de","ios":"levelo://app?vid=883d6aac-580d-461c-b94f-6721061913de"},"vehicle_type_id":"4","last_reported":1726319544,"current_range_meters":23200,"station_id":"ce501612rcd8frsf0b60","pricing_plan_id":"cebpf4jnsgd1na2vs0mg"},{"bike_id":"e235331f-296a-4f9e-a895-d2116fa3ab9b","system_id":"levelo_inurba_marseille","lat":43.25585,"lon":5.38225,"is_reserved":false,"is_disabled":false,"rental_uris":{"android":"levelo://app?vid=e235331f-296a-4f9e-a895-d2116fa3ab9b","ios":"levelo://app?vid=e235331f-296a-4f9e-a895-d2116fa3ab9b"},"vehicle_type_id":"4","last_reported":1726319544,"current_range_meters":12800,"station_id":"ce4bhih2rcd13ifvqfs0","pricing_plan_id":"cebpf4jnsgd1na2vs0mg"},{"bike_id":"51efaa28-be78-438d-9593-a5c65646c0fd","system_id":"levelo_inurba_marseille","lat":43.25932,"lon":5.40909,"is_reserved":false,"is_disabled":false,"rental_uris":{"android":"levelo://app?vid=51efaa28-be78-438d-9593-a5c65646c0fd","ios":"levelo://app?vid=51efaa28-be78-438d-9593-a5c65646c0fd"},"vehicle_type_id":"4","last_reported":1726319544,"current_range_meters":33600,"station_id":"ce4bhm92rcd13ifvqglg","pricing_plan_id":"cebpf4jnsgd1na2vs0mg"},{"bike_id":"db4c20b6-f4b5-4482-a87f-b7dbc97d968d","system_id":"levelo_inurba_marseille","lat":43.29677,"lon":5.3729,"is_reserved":false,"is_disabled":false,"rental_uris":{"android":"levelo://app?vid=db4c20b6-f4b5-4482-a87f-b7dbc97d968d","ios":"levelo://app?vid=db4c20b6-f4b5-4482-a87f-b7dbc97d968d"},"vehicle_type_id":"4","last_reported":1726319544,"current_range_meters":36000,"station_id":"ce4bgk12rcd13ifvqbj0","pricing_plan_id":"cebpf4jnsgd1na2vs0mg"},{"bike_id":"1bfdf08b-aea7-48fa-bfc2-ed373d3d9b5e","system_id":"levelo_inurba_marseille","lat":43.337444,"lon":5.374475,"is_reserved":false,"is_disabled":false,"rental_uris":{"android":"levelo://app?vid=1bfdf08b-aea7-48fa-bfc2-ed373d3d9b5e","ios":"levelo://app?vid=1bfdf08b-aea7-48fa-bfc2-ed373d3d9b5e"},"vehicle_type_id":"4","last_reported":1726319544,"current_range_meters":29600,"station_id":"ce4bgvp2rcd13ifvqcu0","pricing_plan_id":"cebpf4jnsgd1na2vs0mg"},{"bike_id":"10f98968-e41b-43d4-a7a8-4df30967654c","system_id":"levelo_inurba_marseille","lat":43.28414,"lon":5.37513,"is_reserved":false,"is_disabled":false,"rental_uris":{"android":"levelo://app?vid=10f98968-e41b-43d4-a7a8-4df30967654c","ios":"levelo://app?vid=10f98968-e41b-43d4-a7a8-4df30967654c"},"vehicle_type_id":"4","last_reported":1726319544,"current_range_meters":27200,"station_id":"ce4bh412rcd13ifvqds0","pricing_plan_id":"cebpf4jnsgd1na2vs0mg"},{"bike_id":"ba52106f-bece-4bf8-bc19-53dec48d34ee","system_id":"levelo_inurba_marseille","lat":43.31278,"lon":5.40175,"is_reserved":false,"is_disabled":false,"rental_uris":{"android":"levelo://app?vid=ba52106f-bece-4bf8-bc19-53dec48d34ee","ios":"levelo://app?vid=ba52106f-bece-4bf8-bc19-53dec48d34ee"},"vehicle_type_id":"4","last_reported":1726319544,"current_range_meters":24800,"station_id":"ce4bh092rcd13ifvqd30","pricing_plan_id":"cebpf4jnsgd1na2vs0mg"},{"bike_id":"55e97acc-15c3-4ea3-bee5-ac69efdac9b8","system_id":"levelo_inurba_marseille","lat":43.304596,"lon":5.367452,"is_reserved":false,"is_disabled":false,"rental_uris":{"android":"levelo://app?vid=55e97acc-15c3-4ea3-bee5-ac69efdac9b8","ios":"levelo://app?vid=55e97acc-15c3-4ea3-bee5-ac69efdac9b8"},"vehicle_type_id":"4","last_reported":1726319544,"current_range_meters":36400,"station_id":"ce4bgrp2rcd13ifvqc9g","pricing_plan_id":"cebpf4jnsgd1na2vs0mg"},{"bike_id":"8ef24239-c94b-41ce-bbd9-5fc277e1a02d","system_id":"levelo_inurba_marseille","lat":43.25938,"lon":5.40913,"is_reserved":false,"is_disabled":false,"rental_uris":{"android":"levelo://app?vid=8ef24239-c94b-41ce-bbd9-5fc277e1a02d","ios":"levelo://app?vid=8ef24239-c94b-41ce-bbd9-5fc277e1a02d"},"vehicle_type_id":"4","last_reported":1726319544,"current_range_meters":30000,"station_id":"ce4bhm92rcd13ifvqglg","pricing_plan_id":"cebpf4jnsgd1na2vs0mg"},{"bike_id":"b539ebd9-7ecc-4f7e-b4c7-7d15509ac9e8","system_id":"levelo_inurba_marseille","lat":43.27206,"lon":5.39187,"is_reserved":false,"is_disabled":false,"rental_uris":{"android":"levelo://app?vid=b539ebd9-7ecc-4f7e-b4c7-7d15509ac9e8","ios":"levelo://app?vid=b539ebd9-7ecc-4f7e-b4c7-7d15509ac9e8"},"vehicle_type_id":"4","last_reported":1726319544,"current_range_meters":36000,"station_id":"ce4bhhp2rcd13ifvqfm0","pricing_plan_id":"cebpf4jnsgd1na2vs0mg"},{"bike_id":"a558dd19-bcf9-4c44-a8d8-51477bc84b61","system_id":"levelo_inurba_marseille","lat":43.312073,"lon":5.368458,"is_reserved":false,"is_disabled":false,"rental_uris":{"android":"levelo://app?vid=a558dd19-bcf9-4c44-a8d8-51477bc84b61","ios":"levelo://app?vid=a558dd19-bcf9-4c44-a8d8-51477bc84b61"},"vehicle_type_id":"4","last_reported":1726319544,"current_range_meters":30400,"station_id":"ce4bht12rcd13ifvqi60","pricing_plan_id":"cebpf4jnsgd1na2vs0mg"},{"bike_id":"2cf26f88-4042-4323-a2fa-8ed6004f051b","system_id":"levelo_inurba_marseille","lat":43.28483,"lon":5.38058,"is_reserved":false,"is_disabled":false,"rental_uris":{"android":"levelo://app?vid=2cf26f88-4042-4323-a2fa-8ed6004f051b","ios":"levelo://app?vid=2cf26f88-4042-4323-a2fa-8ed6004f051b"},"vehicle_type_id":"4","last_reported":1726319544,"current_range_meters":3200,"station_id":"ce4bh412rcd13ifvqdr0","pricing_plan_id":"cebpf4jnsgd1na2vs0mg"},{"bike_id":"3b04105b-3d4a-4d6b-a0c7-58da2ab327f7","system_id":"levelo_inurba_marseille","lat":43.30165,"lon":5.38087,"is_reserved":false,"is_disabled":false,"rental_uris":{"android":"levelo://app?vid=3b04105b-3d4a-4d6b-a0c7-58da2ab327f7","ios":"levelo://app?vid=3b04105b-3d4a-4d6b-a0c7-58da2ab327f7"},"vehicle_type_id":"4","last_reported":1726319544,"current_range_meters":8400,"station_id":"ce4bgjp2rcd13ifvqbh0","pricing_plan_id":"cebpf4jnsgd1na2vs0mg"},{"bike_id":"6dca4450-ad2b-4e54-b899-97b8b05b15c7","system_id":"levelo_inurba_marseille","lat":43.26948,"lon":5.40251,"is_reserved":false,"is_disabled":false,"rental_uris":{"android":"levelo://app?vid=6dca4450-ad2b-4e54-b899-97b8b05b15c7","ios":"levelo://app?vid=6dca4450-ad2b-4e54-b899-97b8b05b15c7"},"vehicle_type_id":"4","last_reported":1726319544,"current_range_meters":10000,"station_id":"cjm6bp8fraef2m0cb0m0","pricing_plan_id":"cebpf4jnsgd1na2vs0mg"},{"bike_id":"035bde52-803e-478c-bf33-40783304b3ac","system_id":"levelo_inurba_marseille","lat":43.29226,"lon":5.36065,"is_reserved":false,"is_disabled":false,"rental_uris":{"android":"levelo://app?vid=035bde52-803e-478c-bf33-40783304b3ac","ios":"levelo://app?vid=035bde52-803e-478c-bf33-40783304b3ac"},"vehicle_type_id":"4","last_reported":1726319544,"current_range_meters":32800,"station_id":"ce4bhbh2rcd13ifvqeqg","pricing_plan_id":"cebpf4jnsgd1na2vs0mg"},{"bike_id":"75c35499-0de6-41a0-acf5-7c9b58381038","system_id":"levelo_inurba_marseille","lat":43.23184,"lon":5.39983,"is_reserved":false,"is_disabled":false,"rental_uris":{"android":"levelo://app?vid=75c35499-0de6-41a0-acf5-7c9b58381038","ios":"levelo://app?vid=75c35499-0de6-41a0-acf5-7c9b58381038"},"vehicle_type_id":"4","last_reported":1726319544,"current_range_meters":39200,"station_id":"ce4bhn12rcd13ifvqgqg","pricing_plan_id":"cebpf4jnsgd1na2vs0mg"},{"bike_id":"7c0f0af4-2cae-4050-b2dd-280d545fa007","system_id":"levelo_inurba_marseille","lat":43.3135,"lon":5.36721,"is_reserved":false,"is_disabled":false,"rental_uris":{"android":"levelo://app?vid=7c0f0af4-2cae-4050-b2dd-280d545fa007","ios":"levelo://app?vid=7c0f0af4-2cae-4050-b2dd-280d545fa007"},"vehicle_type_id":"4","last_reported":1726319544,"current_range_meters":35200,"station_id":"ce4bgr92rcd13ifvqc6g","pricing_plan_id":"cebpf4jnsgd1na2vs0mg"},{"bike_id":"8210403a-8f87-430b-90ca-48b1d5d34cf3","system_id":"levelo_inurba_marseille","lat":43.29037,"lon":5.37567,"is_reserved":false,"is_disabled":false,"rental_uris":{"android":"levelo://app?vid=8210403a-8f87-430b-90ca-48b1d5d34cf3","ios":"levelo://app?vid=8210403a-8f87-430b-90ca-48b1d5d34cf3"},"vehicle_type_id":"4","last_reported":1726319544,"current_range_meters":38800,"station_id":"ce4bh692rcd13ifvqe90","pricing_plan_id":"cebpf4jnsgd1na2vs0mg"},{"bike_id":"dfc7e944-178a-43bd-85e8-0abf1cafc416","system_id":"levelo_inurba_marseille","lat":43.2293,"lon":5.3538,"is_reserved":false,"is_disabled":false,"rental_uris":{"android":"levelo://app?vid=dfc7e944-178a-43bd-85e8-0abf1cafc416","ios":"levelo://app?vid=dfc7e944-178a-43bd-85e8-0abf1cafc416"},"vehicle_type_id":"4","last_reported":1726319544,"current_range_meters":26000,"station_id":"cpo3532slgdg3j2ikp40","pricing_plan_id":"cebpf4jnsgd1na2vs0mg"},{"bike_id":"94121508-9f7b-42b3-9b0f-40d6b1bee8e9","system_id":"levelo_inurba_marseille","lat":43.31225,"lon":5.36864,"is_reserved":false,"is_disabled":false,"rental_uris":{"android":"levelo://app?vid=94121508-9f7b-42b3-9b0f-40d6b1bee8e9","ios":"levelo://app?vid=94121508-9f7b-42b3-9b0f-40d6b1bee8e9"},"vehicle_type_id":"4","last_reported":1726319544,"current_range_meters":14000,"station_id":"ce4bgl92rcd13ifvqbq0","pricing_plan_id":"cebpf4jnsgd1na2vs0mg"},{"bike_id":"b645ac77-0d58-4fa9-8ad3-947af8bdb1d9","system_id":"levelo_inurba_marseille","lat":43.29901,"lon":5.43671,"is_reserved":false,"is_disabled":false,"rental_uris":{"android":"levelo://app?vid=b645ac77-0d58-4fa9-8ad3-947af8bdb1d9","ios":"levelo://app?vid=b645ac77-0d58-4fa9-8ad3-947af8bdb1d9"},"vehicle_type_id":"4","last_reported":1726319544,"current_range_meters":38000,"station_id":"ce4bhpp2rcd13ifvqhfg","pricing_plan_id":"cebpf4jnsgd1na2vs0mg"},{"bike_id":"0eac21b7-1cd6-4474-8e7e-0cb5ae7c6d2c","system_id":"levelo_inurba_marseille","lat":43.30546,"lon":5.36552,"is_reserved":false,"is_disabled":false,"rental_uris":{"android":"levelo://app?vid=0eac21b7-1cd6-4474-8e7e-0cb5ae7c6d2c","ios":"levelo://app?vid=0eac21b7-1cd6-4474-8e7e-0cb5ae7c6d2c"},"vehicle_type_id":"4","last_reported":1726319544,"current_range_meters":5600,"station_id":"ce4bgs12rcd13ifvqcag","pricing_plan_id":"cebpf4jnsgd1na2vs0mg"},{"bike_id":"8060395a-170d-4bf6-8107-7c7f2baa47fe","system_id":"levelo_inurba_marseille","lat":43.27219,"lon":5.39187,"is_reserved":false,"is_disabled":false,"rental_uris":{"android":"levelo://app?vid=8060395a-170d-4bf6-8107-7c7f2baa47fe","ios":"levelo://app?vid=8060395a-170d-4bf6-8107-7c7f2baa47fe"},"vehicle_type_id":"4","last_reported":1726319544,"current_range_meters":18800,"station_id":"ce4bhhp2rcd13ifvqfm0","pricing_plan_id":"cebpf4jnsgd1na2vs0mg"},{"bike_id":"91d155a1-0e95-42f4-9cf2-24e586735a13","system_id":"levelo_inurba_marseille","lat":43.33725,"lon":5.39178,"is_reserved":false,"is_disabled":false,"rental_uris":{"android":"levelo://app?vid=91d155a1-0e95-42f4-9cf2-24e586735a13","ios":"levelo://app?vid=91d155a1-0e95-42f4-9cf2-24e586735a13"},"vehicle_type_id":"4","last_reported":1726319544,"current_range_meters":38800,"station_id":"ce4bhr92rcd13ifvqhsg","pricing_plan_id":"cebpf4jnsgd1na2vs0mg"},{"bike_id":"23a55eff-686e-4ee7-943c-5bb1cacd94d3","system_id":"levelo_inurba_marseille","lat":43.27374,"lon":5.36254,"is_reserved":false,"is_disabled":false,"rental_uris":{"android":"levelo://app?vid=23a55eff-686e-4ee7-943c-5bb1cacd94d3","ios":"levelo://app?vid=23a55eff-686e-4ee7-943c-5bb1cacd94d3"},"vehicle_type_id":"4","last_reported":1726319544,"current_range_meters":14800,"station_id":"ce4bhbh2rcd13ifvqeo0","pricing_plan_id":"cebpf4jnsgd1na2vs0mg"},{"bike_id":"c9d52442-f838-4134-8483-12ee65e8869e","system_id":"levelo_inurba_marseille","lat":43.31722,"lon":5.42396,"is_reserved":false,"is_disabled":false,"rental_uris":{"android":"levelo://app?vid=c9d52442-f838-4134-8483-12ee65e8869e","ios":"levelo://app?vid=c9d52442-f838-4134-8483-12ee65e8869e"},"vehicle_type_id":"4","last_reported":1726319544,"current_range_meters":33600,"station_id":"ce4bhp92rcd13ifvqhbg","pricing_plan_id":"cebpf4jnsgd1na2vs0mg"},{"bike_id":"c4de4d9e-4fd2-4fb1-8d4a-3f74866662f0","system_id":"levelo_inurba_marseille","lat":43.29804,"lon":5.38091,"is_reserved":false,"is_disabled":false,"rental_uris":{"android":"levelo://app?vid=c4de4d9e-4fd2-4fb1-8d4a-3f74866662f0","ios":"levelo://app?vid=c4de4d9e-4fd2-4fb1-8d4a-3f74866662f0"},"vehicle_type_id":"4","last_reported":1726319544,"current_range_meters":5600,"station_id":"ce4bhgh2rcd13ifvqfa0","pricing_plan_id":"cebpf4jnsgd1na2vs0mg"},{"bike_id":"f31f27d3-2861-4f10-a30e-069a31efa852","system_id":"levelo_inurba_marseille","lat":43.2902,"lon":5.37563,"is_reserved":false,"is_disabled":false,"rental_uris":{"android":"levelo://app?vid=f31f27d3-2861-4f10-a30e-069a31efa852","ios":"levelo://app?vid=f31f27d3-2861-4f10-a30e-069a31efa852"},"vehicle_type_id":"4","last_reported":1726319544,"current_range_meters":16400,"station_id":"ce4bh692rcd13ifvqe90","pricing_plan_id":"cebpf4jnsgd1na2vs0mg"},{"bike_id":"0d9f035c-8e47-426d-8593-e2bc7f05f235","system_id":"levelo_inurba_marseille","lat":43.29874,"lon":5.36382,"is_reserved":false,"is_disabled":false,"rental_uris":{"android":"levelo://app?vid=0d9f035c-8e47-426d-8593-e2bc7f05f235","ios":"levelo://app?vid=0d9f035c-8e47-426d-8593-e2bc7f05f235"},"vehicle_type_id":"4","last_reported":1726319544,"current_range_meters":10800,"station_id":"","pricing_plan_id":"cebpf4jnsgd1na2vs0mg"},{"bike_id":"a700f7c0-23ab-4ba3-90d9-2f3ad37fa493","system_id":"levelo_inurba_marseille","lat":43.33025,"lon":5.39045,"is_reserved":false,"is_disabled":false,"rental_uris":{"android":"levelo://app?vid=a700f7c0-23ab-4ba3-90d9-2f3ad37fa493","ios":"levelo://app?vid=a700f7c0-23ab-4ba3-90d9-2f3ad37fa493"},"vehicle_type_id":"4","last_reported":1726319544,"current_range_meters":37600,"station_id":"ce4bhr92rcd13ifvqhrg","pricing_plan_id":"cebpf4jnsgd1na2vs0mg"},{"bike_id":"28976cc9-3e63-4ca8-995a-3b10b9d1d8c4","system_id":"levelo_inurba_marseille","lat":43.337444,"lon":5.374475,"is_reserved":false,"is_disabled":false,"rental_uris":{"android":"levelo://app?vid=28976cc9-3e63-4ca8-995a-3b10b9d1d8c4","ios":"levelo://app?vid=28976cc9-3e63-4ca8-995a-3b10b9d1d8c4"},"vehicle_type_id":"4","last_reported":1726319544,"current_range_meters":9600,"station_id":"ce4bh012rcd13ifvqcv0","pricing_plan_id":"cebpf4jnsgd1na2vs0mg"},{"bike_id":"5521d4fb-4f0d-447e-bad3-4982404b7d44","system_id":"levelo_inurba_marseille","lat":43.29616,"lon":5.37715,"is_reserved":false,"is_disabled":false,"rental_uris":{"android":"levelo://app?vid=5521d4fb-4f0d-447e-bad3-4982404b7d44","ios":"levelo://app?vid=5521d4fb-4f0d-447e-bad3-4982404b7d44"},"vehicle_type_id":"4","last_reported":1726319544,"current_range_meters":22000,"station_id":"ce4bgi92rcd13ifvqb90","pricing_plan_id":"cebpf4jnsgd1na2vs0mg"},{"bike_id":"e0b2d0e5-9bd5-4dd1-934d-0346dc83c706","system_id":"levelo_inurba_marseille","lat":43.29918,"lon":5.3748,"is_reserved":false,"is_disabled":false,"rental_uris":{"android":"levelo://app?vid=e0b2d0e5-9bd5-4dd1-934d-0346dc83c706","ios":"levelo://app?vid=e0b2d0e5-9bd5-4dd1-934d-0346dc83c706"},"vehicle_type_id":"4","last_reported":1726319544,"current_range_meters":24400,"station_id":"ce4bgjh2rcd13ifvqbg0","pricing_plan_id":"cebpf4jnsgd1na2vs0mg"},{"bike_id":"7740e5ef-e555-42a9-b370-43d6e38180e8","system_id":"levelo_inurba_marseille","lat":43.26686,"lon":5.38276,"is_reserved":false,"is_disabled":false,"rental_uris":{"android":"levelo://app?vid=7740e5ef-e555-42a9-b370-43d6e38180e8","ios":"levelo://app?vid=7740e5ef-e555-42a9-b370-43d6e38180e8"},"vehicle_type_id":"4","last_reported":1726319544,"current_range_meters":33600,"station_id":"ce4bhg92rcd13ifvqf90","pricing_plan_id":"cebpf4jnsgd1na2vs0mg"},{"bike_id":"a76a1c32-d1b7-41f6-94b8-633c2dbba591","system_id":"levelo_inurba_marseille","lat":43.29617,"lon":5.37715,"is_reserved":false,"is_disabled":false,"rental_uris":{"android":"levelo://app?vid=a76a1c32-d1b7-41f6-94b8-633c2dbba591","ios":"levelo://app?vid=a76a1c32-d1b7-41f6-94b8-633c2dbba591"},"vehicle_type_id":"4","last_reported":1726319544,"current_range_meters":25600,"station_id":"ce4bgi92rcd13ifvqb90","pricing_plan_id":"cebpf4jnsgd1na2vs0mg"},{"bike_id":"54db31f0-b233-48f2-aebf-cd1eb36ea97c","system_id":"levelo_inurba_marseille","lat":43.275463,"lon":5.360034,"is_reserved":false,"is_disabled":false,"rental_uris":{"android":"levelo://app?vid=54db31f0-b233-48f2-aebf-cd1eb36ea97c","ios":"levelo://app?vid=54db31f0-b233-48f2-aebf-cd1eb36ea97c"},"vehicle_type_id":"4","last_reported":1726319544,"current_range_meters":20800,"station_id":"ce4bgj92rcd13ifvqbe0","pricing_plan_id":"cebpf4jnsgd1na2vs0mg"},{"bike_id":"f81c9c0a-c2a9-4feb-9288-9725e8c2c56f","system_id":"levelo_inurba_marseille","lat":43.2315,"lon":5.43717,"is_reserved":false,"is_disabled":false,"rental_uris":{"android":"levelo://app?vid=f81c9c0a-c2a9-4feb-9288-9725e8c2c56f","ios":"levelo://app?vid=f81c9c0a-c2a9-4feb-9288-9725e8c2c56f"},"vehicle_type_id":"4","last_reported":1726319544,"current_range_meters":35200,"station_id":"ce4bhmp2rcd13ifvqgog","pricing_plan_id":"cebpf4jnsgd1na2vs0mg"},{"bike_id":"1cf47e59-3d02-4253-9b18-180a43e8c564","system_id":"levelo_inurba_marseille","lat":43.29625,"lon":5.37716,"is_reserved":false,"is_disabled":false,"rental_uris":{"android":"levelo://app?vid=1cf47e59-3d02-4253-9b18-180a43e8c564","ios":"levelo://app?vid=1cf47e59-3d02-4253-9b18-180a43e8c564"},"vehicle_type_id":"4","last_reported":1726319544,"current_range_meters":32800,"station_id":"ce4bgi92rcd13ifvqb90","pricing_plan_id":"cebpf4jnsgd1na2vs0mg"},{"bike_id":"f82b7809-0068-4a43-be6b-46ec85cbb6b9","system_id":"levelo_inurba_marseille","lat":43.30553,"lon":5.36537,"is_reserved":false,"is_disabled":false,"rental_uris":{"android":"levelo://app?vid=f82b7809-0068-4a43-be6b-46ec85cbb6b9","ios":"levelo://app?vid=f82b7809-0068-4a43-be6b-46ec85cbb6b9"},"vehicle_type_id":"4","last_reported":1726319544,"current_range_meters":38800,"station_id":"ce4bgs12rcd13ifvqcag","pricing_plan_id":"cebpf4jnsgd1na2vs0mg"},{"bike_id":"5e29fef9-e34e-4082-bc71-21f5f60f9731","system_id":"levelo_inurba_marseille","lat":43.27969,"lon":5.38746,"is_reserved":false,"is_disabled":false,"rental_uris":{"android":"levelo://app?vid=5e29fef9-e34e-4082-bc71-21f5f60f9731","ios":"levelo://app?vid=5e29fef9-e34e-4082-bc71-21f5f60f9731"},"vehicle_type_id":"4","last_reported":1726319544,"current_range_meters":38000,"station_id":"ce4bhg12rcd13ifvqf80","pricing_plan_id":"cebpf4jnsgd1na2vs0mg"},{"bike_id":"552ccea4-a0ab-4fa2-9015-1ea8da64cd61","system_id":"levelo_inurba_marseille","lat":43.25575,"lon":5.38233,"is_reserved":false,"is_disabled":false,"rental_uris":{"android":"levelo://app?vid=552ccea4-a0ab-4fa2-9015-1ea8da64cd61","ios":"levelo://app?vid=552ccea4-a0ab-4fa2-9015-1ea8da64cd61"},"vehicle_type_id":"4","last_reported":1726319544,"current_range_meters":5600,"station_id":"ce4bhih2rcd13ifvqfs0","pricing_plan_id":"cebpf4jnsgd1na2vs0mg"},{"bike_id":"45a3b1ba-dd08-4057-b94f-596867806e53","system_id":"levelo_inurba_marseille","lat":43.24392,"lon":5.37068,"is_reserved":false,"is_disabled":false,"rental_uris":{"android":"levelo://app?vid=45a3b1ba-dd08-4057-b94f-596867806e53","ios":"levelo://app?vid=45a3b1ba-dd08-4057-b94f-596867806e53"},"vehicle_type_id":"4","last_reported":1726319544,"current_range_meters":38000,"station_id":"ce4bhhh2rcd13ifvqfk0","pricing_plan_id":"cebpf4jnsgd1na2vs0mg"},{"bike_id":"fc1a4c7b-e019-4cf0-a56f-8c9a0777dcfb","system_id":"levelo_inurba_marseille","lat":43.30354,"lon":5.41882,"is_reserved":false,"is_disabled":false,"rental_uris":{"android":"levelo://app?vid=fc1a4c7b-e019-4cf0-a56f-8c9a0777dcfb","ios":"levelo://app?vid=fc1a4c7b-e019-4cf0-a56f-8c9a0777dcfb"},"vehicle_type_id":"4","last_reported":1726319544,"current_range_meters":33600,"station_id":"ce4bhop2rcd13ifvqh7g","pricing_plan_id":"cebpf4jnsgd1na2vs0mg"},{"bike_id":"3275e4b1-5584-4c59-b3d9-e163da6a34fe","system_id":"levelo_inurba_marseille","lat":43.24671,"lon":5.38163,"is_reserved":false,"is_disabled":false,"rental_uris":{"android":"levelo://app?vid=3275e4b1-5584-4c59-b3d9-e163da6a34fe","ios":"levelo://app?vid=3275e4b1-5584-4c59-b3d9-e163da6a34fe"},"vehicle_type_id":"4","last_reported":1726319544,"current_range_meters":38800,"station_id":"ce4bhih2rcd13ifvqfr0","pricing_plan_id":"cebpf4jnsgd1na2vs0mg"},{"bike_id":"73109423-065d-42c3-aba8-0ae1c5b4bb20","system_id":"levelo_inurba_marseille","lat":43.29939,"lon":5.36541,"is_reserved":false,"is_disabled":false,"rental_uris":{"android":"levelo://app?vid=73109423-065d-42c3-aba8-0ae1c5b4bb20","ios":"levelo://app?vid=73109423-065d-42c3-aba8-0ae1c5b4bb20"},"vehicle_type_id":"4","last_reported":1726319544,"current_range_meters":36800,"station_id":"ce4bgm92rcd13ifvqbr0","pricing_plan_id":"cebpf4jnsgd1na2vs0mg"},{"bike_id":"d85ab2af-d7ee-47c5-b97a-f55f599627be","system_id":"levelo_inurba_marseille","lat":43.24166,"lon":5.36392,"is_reserved":false,"is_disabled":false,"rental_uris":{"android":"levelo://app?vid=d85ab2af-d7ee-47c5-b97a-f55f599627be","ios":"levelo://app?vid=d85ab2af-d7ee-47c5-b97a-f55f599627be"},"vehicle_type_id":"4","last_reported":1726319544,"current_range_meters":36400,"station_id":"cpo36qri1sfpv3e86is0","pricing_plan_id":"cebpf4jnsgd1na2vs0mg"},{"bike_id":"53a2d874-293d-47cc-bdbd-a03b3468623b","system_id":"levelo_inurba_marseille","lat":43.29905,"lon":5.43685,"is_reserved":false,"is_disabled":false,"rental_uris":{"android":"levelo://app?vid=53a2d874-293d-47cc-bdbd-a03b3468623b","ios":"levelo://app?vid=53a2d874-293d-47cc-bdbd-a03b3468623b"},"vehicle_type_id":"4","last_reported":1726319544,"current_range_meters":9200,"station_id":"ce4bhpp2rcd13ifvqhfg","pricing_plan_id":"cebpf4jnsgd1na2vs0mg"},{"bike_id":"32aae29a-4a22-46f5-a8a5-378edbc33e4e","system_id":"levelo_inurba_marseille","lat":43.29617,"lon":5.3772,"is_reserved":false,"is_disabled":false,"rental_uris":{"android":"levelo://app?vid=32aae29a-4a22-46f5-a8a5-378edbc33e4e","ios":"levelo://app?vid=32aae29a-4a22-46f5-a8a5-378edbc33e4e"},"vehicle_type_id":"4","last_reported":1726319544,"current_range_meters":30800,"station_id":"ce4bgi92rcd13ifvqb90","pricing_plan_id":"cebpf4jnsgd1na2vs0mg"},{"bike_id":"d835c8af-bb7d-4139-9595-2b625e9bc322","system_id":"levelo_inurba_marseille","lat":43.26482,"lon":5.39551,"is_reserved":false,"is_disabled":false,"rental_uris":{"android":"levelo://app?vid=d835c8af-bb7d-4139-9595-2b625e9bc322","ios":"levelo://app?vid=d835c8af-bb7d-4139-9595-2b625e9bc322"},"vehicle_type_id":"4","last_reported":1726319544,"current_range_meters":11600,"station_id":"ce4bhi12rcd13ifvqfq0","pricing_plan_id":"cebpf4jnsgd1na2vs0mg"},{"bike_id":"bb7acf50-b6bc-4b2d-adf4-833abc23b24c","system_id":"levelo_inurba_marseille","lat":43.23194,"lon":5.35548,"is_reserved":false,"is_disabled":false,"rental_uris":{"android":"levelo://app?vid=bb7acf50-b6bc-4b2d-adf4-833abc23b24c","ios":"levelo://app?vid=bb7acf50-b6bc-4b2d-adf4-833abc23b24c"},"vehicle_type_id":"4","last_reported":1726319544,"current_range_meters":38800,"station_id":"ce4bhu92rcd13ifvqi70","pricing_plan_id":"cebpf4jnsgd1na2vs0mg"},{"bike_id":"1d0251ac-42c7-4b6a-af04-a715acb27e37","system_id":"levelo_inurba_marseille","lat":43.276398,"lon":5.38896,"is_reserved":false,"is_disabled":false,"rental_uris":{"android":"levelo://app?vid=1d0251ac-42c7-4b6a-af04-a715acb27e37","ios":"levelo://app?vid=1d0251ac-42c7-4b6a-af04-a715acb27e37"},"vehicle_type_id":"4","last_reported":1726319544,"current_range_meters":25600,"station_id":"ce4bhi12rcd13ifvqfo0","pricing_plan_id":"cebpf4jnsgd1na2vs0mg"},{"bike_id":"f6de5503-3f64-4c45-a987-7e74ca5c7044","system_id":"levelo_inurba_marseille","lat":43.24177,"lon":5.36393,"is_reserved":false,"is_disabled":false,"rental_uris":{"android":"levelo://app?vid=f6de5503-3f64-4c45-a987-7e74ca5c7044","ios":"levelo://app?vid=f6de5503-3f64-4c45-a987-7e74ca5c7044"},"vehicle_type_id":"4","last_reported":1726319544,"current_range_meters":31200,"station_id":"cpo36qri1sfpv3e86is0","pricing_plan_id":"cebpf4jnsgd1na2vs0mg"},{"bike_id":"bc8be1fd-7bee-49c5-817c-184bdd69b536","system_id":"levelo_inurba_marseille","lat":43.27374,"lon":5.41942,"is_reserved":false,"is_disabled":false,"rental_uris":{"android":"levelo://app?vid=bc8be1fd-7bee-49c5-817c-184bdd69b536","ios":"levelo://app?vid=bc8be1fd-7bee-49c5-817c-184bdd69b536"},"vehicle_type_id":"4","last_reported":1726319544,"current_range_meters":30800,"station_id":"","pricing_plan_id":"cebpf4jnsgd1na2vs0mg"},{"bike_id":"c3c3c8bd-0f46-4034-990b-852a73c5680c","system_id":"levelo_inurba_marseille","lat":43.28934,"lon":5.36634,"is_reserved":false,"is_disabled":false,"rental_uris":{"android":"levelo://app?vid=c3c3c8bd-0f46-4034-990b-852a73c5680c","ios":"levelo://app?vid=c3c3c8bd-0f46-4034-990b-852a73c5680c"},"vehicle_type_id":"4","last_reported":1726319544,"current_range_meters":31200,"station_id":"ce4bhap2rcd13ifvqek0","pricing_plan_id":"cebpf4jnsgd1na2vs0mg"},{"bike_id":"58ba248f-fbf8-44d2-b7ea-e0428813f220","system_id":"levelo_inurba_marseille","lat":43.29596,"lon":5.38103,"is_reserved":false,"is_disabled":false,"rental_uris":{"android":"levelo://app?vid=58ba248f-fbf8-44d2-b7ea-e0428813f220","ios":"levelo://app?vid=58ba248f-fbf8-44d2-b7ea-e0428813f220"},"vehicle_type_id":"4","last_reported":1726319544,"current_range_meters":32000,"station_id":"ce4bgl12rcd13ifvqbo0","pricing_plan_id":"cebpf4jnsgd1na2vs0mg"},{"bike_id":"310f1ff1-d889-41c6-aadb-c52eda72b052","system_id":"levelo_inurba_marseille","lat":43.26941,"lon":5.40255,"is_reserved":false,"is_disabled":false,"rental_uris":{"android":"levelo://app?vid=310f1ff1-d889-41c6-aadb-c52eda72b052","ios":"levelo://app?vid=310f1ff1-d889-41c6-aadb-c52eda72b052"},"vehicle_type_id":"4","last_reported":1726319544,"current_range_meters":39200,"station_id":"cjm6bp8fraef2m0cb0m0","pricing_plan_id":"cebpf4jnsgd1na2vs0mg"},{"bike_id":"632de835-3430-40ed-ac94-819588647085","system_id":"levelo_inurba_marseille","lat":43.24816,"lon":5.37461,"is_reserved":false,"is_disabled":false,"rental_uris":{"android":"levelo://app?vid=632de835-3430-40ed-ac94-819588647085","ios":"levelo://app?vid=632de835-3430-40ed-ac94-819588647085"},"vehicle_type_id":"4","last_reported":1726319544,"current_range_meters":6800,"station_id":"ce4bhgh2rcd13ifvqfb0","pricing_plan_id":"cebpf4jnsgd1na2vs0mg"},{"bike_id":"f54e5c3b-1cf3-48e7-836b-3151566aa199","system_id":"levelo_inurba_marseille","lat":43.32371,"lon":5.38877,"is_reserved":false,"is_disabled":false,"rental_uris":{"android":"levelo://app?vid=f54e5c3b-1cf3-48e7-836b-3151566aa199","ios":"levelo://app?vid=f54e5c3b-1cf3-48e7-836b-3151566aa199"},"vehicle_type_id":"4","last_reported":1726319544,"current_range_meters":2000,"station_id":"ce4bhqp2rcd13ifvqhog","pricing_plan_id":"cebpf4jnsgd1na2vs0mg"},{"bike_id":"5b8d0983-a39e-42ef-b930-2c3695850d77","system_id":"levelo_inurba_marseille","lat":43.30162,"lon":5.38084,"is_reserved":false,"is_disabled":false,"rental_uris":{"android":"levelo://app?vid=5b8d0983-a39e-42ef-b930-2c3695850d77","ios":"levelo://app?vid=5b8d0983-a39e-42ef-b930-2c3695850d77"},"vehicle_type_id":"4","last_reported":1726319544,"current_range_meters":27600,"station_id":"ce4bgjp2rcd13ifvqbh0","pricing_plan_id":"cebpf4jnsgd1na2vs0mg"},{"bike_id":"aab1bbd3-3f25-4ba5-938c-e2cc7b8a455d","system_id":"levelo_inurba_marseille","lat":43.28426,"lon":5.34987,"is_reserved":false,"is_disabled":false,"rental_uris":{"android":"levelo://app?vid=aab1bbd3-3f25-4ba5-938c-e2cc7b8a455d","ios":"levelo://app?vid=aab1bbd3-3f25-4ba5-938c-e2cc7b8a455d"},"vehicle_type_id":"4","last_reported":1726319544,"current_range_meters":2000,"station_id":"ce4bhbh2rcd13ifvqepg","pricing_plan_id":"cebpf4jnsgd1na2vs0mg"},{"bike_id":"c124f6bf-227d-48e6-be7f-e29c20c25b9f","system_id":"levelo_inurba_marseille","lat":43.26196,"lon":5.37452,"is_reserved":false,"is_disabled":false,"rental_uris":{"android":"levelo://app?vid=c124f6bf-227d-48e6-be7f-e29c20c25b9f","ios":"levelo://app?vid=c124f6bf-227d-48e6-be7f-e29c20c25b9f"},"vehicle_type_id":"4","last_reported":1726319544,"current_range_meters":15200,"station_id":"ce4bhgp2rcd13ifvqfc0","pricing_plan_id":"cebpf4jnsgd1na2vs0mg"},{"bike_id":"b6a5802b-4786-42a9-9b22-5e0b280071e6","system_id":"levelo_inurba_marseille","lat":43.30478,"lon":5.36792,"is_reserved":false,"is_disabled":false,"rental_uris":{"android":"levelo://app?vid=b6a5802b-4786-42a9-9b22-5e0b280071e6","ios":"levelo://app?vid=b6a5802b-4786-42a9-9b22-5e0b280071e6"},"vehicle_type_id":"4","last_reported":1726319544,"current_range_meters":19600,"station_id":"","pricing_plan_id":"cebpf4jnsgd1na2vs0mg"},{"bike_id":"aa37188e-6d02-447c-9bd7-7efc9e857b6f","system_id":"levelo_inurba_marseille","lat":43.2439,"lon":5.37061,"is_reserved":false,"is_disabled":false,"rental_uris":{"android":"levelo://app?vid=aa37188e-6d02-447c-9bd7-7efc9e857b6f","ios":"levelo://app?vid=aa37188e-6d02-447c-9bd7-7efc9e857b6f"},"vehicle_type_id":"4","last_reported":1726319544,"current_range_meters":11200,"station_id":"ce4bhhh2rcd13ifvqfk0","pricing_plan_id":"cebpf4jnsgd1na2vs0mg"},{"bike_id":"bd9993b0-31b7-42dc-ba35-a7829b4d9ee3","system_id":"levelo_inurba_marseille","lat":43.27317,"lon":5.39086,"is_reserved":false,"is_disabled":false,"rental_uris":{"android":"levelo://app?vid=bd9993b0-31b7-42dc-ba35-a7829b4d9ee3","ios":"levelo://app?vid=bd9993b0-31b7-42dc-ba35-a7829b4d9ee3"},"vehicle_type_id":"4","last_reported":1726319544,"current_range_meters":29600,"station_id":"ce4bhgp2rcd13ifvqfe0","pricing_plan_id":"cebpf4jnsgd1na2vs0mg"},{"bike_id":"05dce78e-2b1f-446e-8956-bcf56a752a91","system_id":"levelo_inurba_marseille","lat":43.26938,"lon":5.40256,"is_reserved":false,"is_disabled":false,"rental_uris":{"android":"levelo://app?vid=05dce78e-2b1f-446e-8956-bcf56a752a91","ios":"levelo://app?vid=05dce78e-2b1f-446e-8956-bcf56a752a91"},"vehicle_type_id":"4","last_reported":1726319544,"current_range_meters":38800,"station_id":"cjm6bp8fraef2m0cb0m0","pricing_plan_id":"cebpf4jnsgd1na2vs0mg"},{"bike_id":"9492f8d3-e468-4bd2-ab8c-132696ef487b","system_id":"levelo_inurba_marseille","lat":43.304349,"lon":5.397392,"is_reserved":false,"is_disabled":false,"rental_uris":{"android":"levelo://app?vid=9492f8d3-e468-4bd2-ab8c-132696ef487b","ios":"levelo://app?vid=9492f8d3-e468-4bd2-ab8c-132696ef487b"},"vehicle_type_id":"4","last_reported":1726319544,"current_range_meters":12800,"station_id":"ce4bgkp2rcd13ifvqbmg","pricing_plan_id":"cebpf4jnsgd1na2vs0mg"},{"bike_id":"c14b51b2-bf43-4357-aae5-c79ce5284397","system_id":"levelo_inurba_marseille","lat":43.29611,"lon":5.37727,"is_reserved":false,"is_disabled":false,"rental_uris":{"android":"levelo://app?vid=c14b51b2-bf43-4357-aae5-c79ce5284397","ios":"levelo://app?vid=c14b51b2-bf43-4357-aae5-c79ce5284397"},"vehicle_type_id":"4","last_reported":1726319544,"current_range_meters":24400,"station_id":"ce4bgi92rcd13ifvqb90","pricing_plan_id":"cebpf4jnsgd1na2vs0mg"},{"bike_id":"dbdd0cf1-9ac9-42ed-9e04-9369c829f327","system_id":"levelo_inurba_marseille","lat":43.26942,"lon":5.40255,"is_reserved":false,"is_disabled":false,"rental_uris":{"android":"levelo://app?vid=dbdd0cf1-9ac9-42ed-9e04-9369c829f327","ios":"levelo://app?vid=dbdd0cf1-9ac9-42ed-9e04-9369c829f327"},"vehicle_type_id":"4","last_reported":1726319544,"current_range_meters":24400,"station_id":"cjm6bp8fraef2m0cb0m0","pricing_plan_id":"cebpf4jnsgd1na2vs0mg"},{"bike_id":"026a8105-a313-4bd8-96fb-a8d6d1b140a9","system_id":"levelo_inurba_marseille","lat":43.23201,"lon":5.35551,"is_reserved":false,"is_disabled":false,"rental_uris":{"android":"levelo://app?vid=026a8105-a313-4bd8-96fb-a8d6d1b140a9","ios":"levelo://app?vid=026a8105-a313-4bd8-96fb-a8d6d1b140a9"},"vehicle_type_id":"4","last_reported":1726319544,"current_range_meters":37600,"station_id":"ce4bhu92rcd13ifvqi70","pricing_plan_id":"cebpf4jnsgd1na2vs0mg"},{"bike_id":"3bddd7c7-ebb5-4e96-ac24-19d729daff0d","system_id":"levelo_inurba_marseille","lat":43.27569,"lon":5.3843,"is_reserved":false,"is_disabled":false,"rental_uris":{"android":"levelo://app?vid=3bddd7c7-ebb5-4e96-ac24-19d729daff0d","ios":"levelo://app?vid=3bddd7c7-ebb5-4e96-ac24-19d729daff0d"},"vehicle_type_id":"4","last_reported":1726319544,"current_range_meters":27200,"station_id":"ce4bhh92rcd13ifvqfi0","pricing_plan_id":"cebpf4jnsgd1na2vs0mg"},{"bike_id":"b4d2016b-4ef4-48fe-844e-fbc7c5bc3557","system_id":"levelo_inurba_marseille","lat":43.283533,"lon":5.381019,"is_reserved":false,"is_disabled":false,"rental_uris":{"android":"levelo://app?vid=b4d2016b-4ef4-48fe-844e-fbc7c5bc3557","ios":"levelo://app?vid=b4d2016b-4ef4-48fe-844e-fbc7c5bc3557"},"vehicle_type_id":"4","last_reported":1726319544,"current_range_meters":28800,"station_id":"ce4bgn12rcd13ifvqbt0","pricing_plan_id":"cebpf4jnsgd1na2vs0mg"},{"bike_id":"04c379c3-7c5a-408b-862a-873b5e5187de","system_id":"levelo_inurba_marseille","lat":43.28154,"lon":5.42644,"is_reserved":false,"is_disabled":false,"rental_uris":{"android":"levelo://app?vid=04c379c3-7c5a-408b-862a-873b5e5187de","ios":"levelo://app?vid=04c379c3-7c5a-408b-862a-873b5e5187de"},"vehicle_type_id":"4","last_reported":1726319544,"current_range_meters":38400,"station_id":"ce4bhnh2rcd13ifvqgug","pricing_plan_id":"cebpf4jnsgd1na2vs0mg"},{"bike_id":"9378e46c-90ff-48e5-9112-f5aafd156a5f","system_id":"levelo_inurba_marseille","lat":43.29555,"lon":5.42285,"is_reserved":false,"is_disabled":false,"rental_uris":{"android":"levelo://app?vid=9378e46c-90ff-48e5-9112-f5aafd156a5f","ios":"levelo://app?vid=9378e46c-90ff-48e5-9112-f5aafd156a5f"},"vehicle_type_id":"4","last_reported":1726319544,"current_range_meters":24800,"station_id":"ce4bhph2rcd13ifvqhdg","pricing_plan_id":"cebpf4jnsgd1na2vs0mg"},{"bike_id":"51b93f73-c647-4dd9-b993-0e72de9b0462","system_id":"levelo_inurba_marseille","lat":43.2829,"lon":5.39079,"is_reserved":false,"is_disabled":false,"rental_uris":{"android":"levelo://app?vid=51b93f73-c647-4dd9-b993-0e72de9b0462","ios":"levelo://app?vid=51b93f73-c647-4dd9-b993-0e72de9b0462"},"vehicle_type_id":"4","last_reported":1726319544,"current_range_meters":28800,"station_id":"","pricing_plan_id":"cebpf4jnsgd1na2vs0mg"},{"bike_id":"13c57467-f06d-47da-b8a5-25df69c95f75","system_id":"levelo_inurba_marseille","lat":43.27561,"lon":5.38424,"is_reserved":false,"is_disabled":false,"rental_uris":{"android":"levelo://app?vid=13c57467-f06d-47da-b8a5-25df69c95f75","ios":"levelo://app?vid=13c57467-f06d-47da-b8a5-25df69c95f75"},"vehicle_type_id":"4","last_reported":1726319544,"current_range_meters":10800,"station_id":"ce4bhh92rcd13ifvqfi0","pricing_plan_id":"cebpf4jnsgd1na2vs0mg"},{"bike_id":"15ea120c-5f6d-4243-ad32-289a124fc62f","system_id":"levelo_inurba_marseille","lat":43.27616,"lon":5.36112,"is_reserved":false,"is_disabled":false,"rental_uris":{"android":"levelo://app?vid=15ea120c-5f6d-4243-ad32-289a124fc62f","ios":"levelo://app?vid=15ea120c-5f6d-4243-ad32-289a124fc62f"},"vehicle_type_id":"4","last_reported":1726319544,"current_range_meters":20400,"station_id":"ce4bgj92rcd13ifvqbe0","pricing_plan_id":"cebpf4jnsgd1na2vs0mg"},{"bike_id":"7e6beb0f-ceb9-4f6f-9745-764621121305","system_id":"levelo_inurba_marseille","lat":43.29677,"lon":5.37293,"is_reserved":false,"is_disabled":false,"rental_uris":{"android":"levelo://app?vid=7e6beb0f-ceb9-4f6f-9745-764621121305","ios":"levelo://app?vid=7e6beb0f-ceb9-4f6f-9745-764621121305"},"vehicle_type_id":"4","last_reported":1726319544,"current_range_meters":28000,"station_id":"ce4bgk12rcd13ifvqbj0","pricing_plan_id":"cebpf4jnsgd1na2vs0mg"},{"bike_id":"f2e77944-60a4-4c02-bb82-5589c37ffd8f","system_id":"levelo_inurba_marseille","lat":43.2603,"lon":5.37549,"is_reserved":false,"is_disabled":false,"rental_uris":{"android":"levelo://app?vid=f2e77944-60a4-4c02-bb82-5589c37ffd8f","ios":"levelo://app?vid=f2e77944-60a4-4c02-bb82-5589c37ffd8f"},"vehicle_type_id":"4","last_reported":1726319544,"current_range_meters":21600,"station_id":"ce4bhgh2rcd13ifvqfa0","pricing_plan_id":"cebpf4jnsgd1na2vs0mg"},{"bike_id":"edf1a68a-cd06-4002-99c4-c6ece5bac7e3","system_id":"levelo_inurba_marseille","lat":43.29706,"lon":5.36606,"is_reserved":false,"is_disabled":false,"rental_uris":{"android":"levelo://app?vid=edf1a68a-cd06-4002-99c4-c6ece5bac7e3","ios":"levelo://app?vid=edf1a68a-cd06-4002-99c4-c6ece5bac7e3"},"vehicle_type_id":"4","last_reported":1726319544,"current_range_meters":38800,"station_id":"ce4bgn12rcd13ifvqbt0","pricing_plan_id":"cebpf4jnsgd1na2vs0mg"},{"bike_id":"a6a8ac5a-9fcc-4c30-861d-5ec53d16473a","system_id":"levelo_inurba_marseille","lat":43.26501,"lon":5.39539,"is_reserved":false,"is_disabled":false,"rental_uris":{"android":"levelo://app?vid=a6a8ac5a-9fcc-4c30-861d-5ec53d16473a","ios":"levelo://app?vid=a6a8ac5a-9fcc-4c30-861d-5ec53d16473a"},"vehicle_type_id":"4","last_reported":1726319544,"current_range_meters":28800,"station_id":"ce4bhi12rcd13ifvqfq0","pricing_plan_id":"cebpf4jnsgd1na2vs0mg"},{"bike_id":"c4a48669-0dca-4829-afef-a2621639f240","system_id":"levelo_inurba_marseille","lat":43.28271,"lon":5.35081,"is_reserved":false,"is_disabled":false,"rental_uris":{"android":"levelo://app?vid=c4a48669-0dca-4829-afef-a2621639f240","ios":"levelo://app?vid=c4a48669-0dca-4829-afef-a2621639f240"},"vehicle_type_id":"4","last_reported":1726319544,"current_range_meters":38800,"station_id":"ce4bhbp2rcd13ifvqerg","pricing_plan_id":"cebpf4jnsgd1na2vs0mg"},{"bike_id":"d09aedb3-0212-456b-a0d7-0a019f75665d","system_id":"levelo_inurba_marseille","lat":43.23153,"lon":5.43707,"is_reserved":false,"is_disabled":false,"rental_uris":{"android":"levelo://app?vid=d09aedb3-0212-456b-a0d7-0a019f75665d","ios":"levelo://app?vid=d09aedb3-0212-456b-a0d7-0a019f75665d"},"vehicle_type_id":"4","last_reported":1726319544,"current_range_meters":39200,"station_id":"ce4bhmp2rcd13ifvqgog","pricing_plan_id":"cebpf4jnsgd1na2vs0mg"},{"bike_id":"b2e3c13f-e5d7-4801-ae89-c6a149b3cd8b","system_id":"levelo_inurba_marseille","lat":43.24086,"lon":5.37742,"is_reserved":false,"is_disabled":false,"rental_uris":{"android":"levelo://app?vid=b2e3c13f-e5d7-4801-ae89-c6a149b3cd8b","ios":"levelo://app?vid=b2e3c13f-e5d7-4801-ae89-c6a149b3cd8b"},"vehicle_type_id":"4","last_reported":1726319544,"current_range_meters":36000,"station_id":"ce4bhnp2rcd13ifvqgvg","pricing_plan_id":"cebpf4jnsgd1na2vs0mg"},{"bike_id":"02269f0e-1758-473f-8a5c-764f1ddf9ddc","system_id":"levelo_inurba_marseille","lat":43.23179,"lon":5.39993,"is_reserved":false,"is_disabled":false,"rental_uris":{"android":"levelo://app?vid=02269f0e-1758-473f-8a5c-764f1ddf9ddc","ios":"levelo://app?vid=02269f0e-1758-473f-8a5c-764f1ddf9ddc"},"vehicle_type_id":"4","last_reported":1726319544,"current_range_meters":39200,"station_id":"ce4bhn12rcd13ifvqgqg","pricing_plan_id":"cebpf4jnsgd1na2vs0mg"},{"bike_id":"43412657-8f93-44d7-90fb-da7639962547","system_id":"levelo_inurba_marseille","lat":43.33724,"lon":5.39183,"is_reserved":false,"is_disabled":false,"rental_uris":{"android":"levelo://app?vid=43412657-8f93-44d7-90fb-da7639962547","ios":"levelo://app?vid=43412657-8f93-44d7-90fb-da7639962547"},"vehicle_type_id":"4","last_reported":1726319544,"current_range_meters":26000,"station_id":"ce4bhr92rcd13ifvqhsg","pricing_plan_id":"cebpf4jnsgd1na2vs0mg"},{"bike_id":"2a29b388-d4ff-45e1-bf47-010ffa290630","system_id":"levelo_inurba_marseille","lat":43.27321,"lon":5.39085,"is_reserved":false,"is_disabled":false,"rental_uris":{"android":"levelo://app?vid=2a29b388-d4ff-45e1-bf47-010ffa290630","ios":"levelo://app?vid=2a29b388-d4ff-45e1-bf47-010ffa290630"},"vehicle_type_id":"4","last_reported":1726319544,"current_range_meters":26800,"station_id":"ce4bhgp2rcd13ifvqfe0","pricing_plan_id":"cebpf4jnsgd1na2vs0mg"},{"bike_id":"23a30e0b-59c3-4c64-b8ac-970643e0a75a","system_id":"levelo_inurba_marseille","lat":43.28156,"lon":5.42644,"is_reserved":false,"is_disabled":false,"rental_uris":{"android":"levelo://app?vid=23a30e0b-59c3-4c64-b8ac-970643e0a75a","ios":"levelo://app?vid=23a30e0b-59c3-4c64-b8ac-970643e0a75a"},"vehicle_type_id":"4","last_reported":1726319544,"current_range_meters":17600,"station_id":"ce4bhnh2rcd13ifvqgug","pricing_plan_id":"cebpf4jnsgd1na2vs0mg"},{"bike_id":"6873e479-2c54-402d-bc52-e4439d993244","system_id":"levelo_inurba_marseille","lat":43.302127,"lon":5.394728,"is_reserved":false,"is_disabled":false,"rental_uris":{"android":"levelo://app?vid=6873e479-2c54-402d-bc52-e4439d993244","ios":"levelo://app?vid=6873e479-2c54-402d-bc52-e4439d993244"},"vehicle_type_id":"4","last_reported":1726319544,"current_range_meters":38000,"station_id":"ce4bh0p2rcd13ifvqd70","pricing_plan_id":"cebpf4jnsgd1na2vs0mg"},{"bike_id":"04352160-7c1d-41d9-b42f-eb5950269798","system_id":"levelo_inurba_marseille","lat":43.24388,"lon":5.3706,"is_reserved":false,"is_disabled":false,"rental_uris":{"android":"levelo://app?vid=04352160-7c1d-41d9-b42f-eb5950269798","ios":"levelo://app?vid=04352160-7c1d-41d9-b42f-eb5950269798"},"vehicle_type_id":"4","last_reported":1726319544,"current_range_meters":25200,"station_id":"ce4bhhh2rcd13ifvqfk0","pricing_plan_id":"cebpf4jnsgd1na2vs0mg"},{"bike_id":"afb90e5f-b0e4-4434-9cbf-9852849bbb37","system_id":"levelo_inurba_marseille","lat":43.27204,"lon":5.39174,"is_reserved":false,"is_disabled":false,"rental_uris":{"android":"levelo://app?vid=afb90e5f-b0e4-4434-9cbf-9852849bbb37","ios":"levelo://app?vid=afb90e5f-b0e4-4434-9cbf-9852849bbb37"},"vehicle_type_id":"4","last_reported":1726319544,"current_range_meters":29600,"station_id":"ce4bhhp2rcd13ifvqfm0","pricing_plan_id":"cebpf4jnsgd1na2vs0mg"},{"bike_id":"61e00977-be43-400f-99ea-3c33330f7657","system_id":"levelo_inurba_marseille","lat":43.25009,"lon":5.38913,"is_reserved":false,"is_disabled":false,"rental_uris":{"android":"levelo://app?vid=61e00977-be43-400f-99ea-3c33330f7657","ios":"levelo://app?vid=61e00977-be43-400f-99ea-3c33330f7657"},"vehicle_type_id":"4","last_reported":1726319544,"current_range_meters":19600,"station_id":"ce4bhgp2rcd13ifvqfd0","pricing_plan_id":"cebpf4jnsgd1na2vs0mg"},{"bike_id":"815c93ab-6b75-4605-9a99-b2d3b12c4368","system_id":"levelo_inurba_marseille","lat":43.29039,"lon":5.37555,"is_reserved":false,"is_disabled":false,"rental_uris":{"android":"levelo://app?vid=815c93ab-6b75-4605-9a99-b2d3b12c4368","ios":"levelo://app?vid=815c93ab-6b75-4605-9a99-b2d3b12c4368"},"vehicle_type_id":"4","last_reported":1726319544,"current_range_meters":36400,"station_id":"ce4bh692rcd13ifvqe90","pricing_plan_id":"cebpf4jnsgd1na2vs0mg"},{"bike_id":"d1f38fcd-be46-4877-a9ac-34b365272c30","system_id":"levelo_inurba_marseille","lat":43.27099,"lon":5.43316,"is_reserved":false,"is_disabled":false,"rental_uris":{"android":"levelo://app?vid=d1f38fcd-be46-4877-a9ac-34b365272c30","ios":"levelo://app?vid=d1f38fcd-be46-4877-a9ac-34b365272c30"},"vehicle_type_id":"4","last_reported":1726319544,"current_range_meters":32400,"station_id":"","pricing_plan_id":"cebpf4jnsgd1na2vs0mg"},{"bike_id":"086ea8d8-e77a-4101-889d-b81698ca0c89","system_id":"levelo_inurba_marseille","lat":43.28425,"lon":5.34985,"is_reserved":false,"is_disabled":false,"rental_uris":{"android":"levelo://app?vid=086ea8d8-e77a-4101-889d-b81698ca0c89","ios":"levelo://app?vid=086ea8d8-e77a-4101-889d-b81698ca0c89"},"vehicle_type_id":"4","last_reported":1726319544,"current_range_meters":23200,"station_id":"ce4bhbh2rcd13ifvqepg","pricing_plan_id":"cebpf4jnsgd1na2vs0mg"},{"bike_id":"a6fd68f5-bfba-47eb-9d85-a8db2f1014b8","system_id":"levelo_inurba_marseille","lat":43.28269,"lon":5.35072,"is_reserved":false,"is_disabled":false,"rental_uris":{"android":"levelo://app?vid=a6fd68f5-bfba-47eb-9d85-a8db2f1014b8","ios":"levelo://app?vid=a6fd68f5-bfba-47eb-9d85-a8db2f1014b8"},"vehicle_type_id":"4","last_reported":1726319544,"current_range_meters":31200,"station_id":"ce4bhbp2rcd13ifvqerg","pricing_plan_id":"cebpf4jnsgd1na2vs0mg"},{"bike_id":"f9076aec-56e7-4b2e-a7b1-575337aca9d5","system_id":"levelo_inurba_marseille","lat":43.24167,"lon":5.36406,"is_reserved":false,"is_disabled":false,"rental_uris":{"android":"levelo://app?vid=f9076aec-56e7-4b2e-a7b1-575337aca9d5","ios":"levelo://app?vid=f9076aec-56e7-4b2e-a7b1-575337aca9d5"},"vehicle_type_id":"4","last_reported":1726319544,"current_range_meters":32800,"station_id":"cpo36qri1sfpv3e86is0","pricing_plan_id":"cebpf4jnsgd1na2vs0mg"},{"bike_id":"44599d50-cd45-4fc9-a51b-c30b3bf4a636","system_id":"levelo_inurba_marseille","lat":43.30539,"lon":5.36535,"is_reserved":false,"is_disabled":false,"rental_uris":{"android":"levelo://app?vid=44599d50-cd45-4fc9-a51b-c30b3bf4a636","ios":"levelo://app?vid=44599d50-cd45-4fc9-a51b-c30b3bf4a636"},"vehicle_type_id":"4","last_reported":1726319544,"current_range_meters":10800,"station_id":"ce4bgs12rcd13ifvqcag","pricing_plan_id":"cebpf4jnsgd1na2vs0mg"},{"bike_id":"a44ccc83-05fc-48c6-af85-d0b7e5aaa36a","system_id":"levelo_inurba_marseille","lat":43.26786,"lon":5.3942,"is_reserved":false,"is_disabled":false,"rental_uris":{"android":"levelo://app?vid=a44ccc83-05fc-48c6-af85-d0b7e5aaa36a","ios":"levelo://app?vid=a44ccc83-05fc-48c6-af85-d0b7e5aaa36a"},"vehicle_type_id":"4","last_reported":1726319544,"current_range_meters":38000,"station_id":"ce4bhh12rcd13ifvqfg0","pricing_plan_id":"cebpf4jnsgd1na2vs0mg"},{"bike_id":"9da3cfc3-76e1-45aa-bd84-0cc476fb2e0c","system_id":"levelo_inurba_marseille","lat":43.22924,"lon":5.35379,"is_reserved":false,"is_disabled":false,"rental_uris":{"android":"levelo://app?vid=9da3cfc3-76e1-45aa-bd84-0cc476fb2e0c","ios":"levelo://app?vid=9da3cfc3-76e1-45aa-bd84-0cc476fb2e0c"},"vehicle_type_id":"4","last_reported":1726319544,"current_range_meters":32800,"station_id":"cpo3532slgdg3j2ikp40","pricing_plan_id":"cebpf4jnsgd1na2vs0mg"},{"bike_id":"58953fa9-b80b-4a12-a04b-d8883624de33","system_id":"levelo_inurba_marseille","lat":43.27997,"lon":5.40007,"is_reserved":false,"is_disabled":false,"rental_uris":{"android":"levelo://app?vid=58953fa9-b80b-4a12-a04b-d8883624de33","ios":"levelo://app?vid=58953fa9-b80b-4a12-a04b-d8883624de33"},"vehicle_type_id":"4","last_reported":1726319544,"current_range_meters":4400,"station_id":"ce4bho92rcd13ifvqh4g","pricing_plan_id":"cebpf4jnsgd1na2vs0mg"},{"bike_id":"ce0abea9-32a0-4d3f-9b60-adb156b6dbd9","system_id":"levelo_inurba_marseille","lat":43.29096,"lon":5.38138,"is_reserved":false,"is_disabled":false,"rental_uris":{"android":"levelo://app?vid=ce0abea9-32a0-4d3f-9b60-adb156b6dbd9","ios":"levelo://app?vid=ce0abea9-32a0-4d3f-9b60-adb156b6dbd9"},"vehicle_type_id":"4","last_reported":1726319544,"current_range_meters":36800,"station_id":"ce4bh512rcd13ifvqe2g","pricing_plan_id":"cebpf4jnsgd1na2vs0mg"},{"bike_id":"103cf9f9-2f0a-447b-a31f-dbd4bc9e6e95","system_id":"levelo_inurba_marseille","lat":43.29554,"lon":5.42282,"is_reserved":false,"is_disabled":false,"rental_uris":{"android":"levelo://app?vid=103cf9f9-2f0a-447b-a31f-dbd4bc9e6e95","ios":"levelo://app?vid=103cf9f9-2f0a-447b-a31f-dbd4bc9e6e95"},"vehicle_type_id":"4","last_reported":1726319544,"current_range_meters":28000,"station_id":"ce4bhph2rcd13ifvqhdg","pricing_plan_id":"cebpf4jnsgd1na2vs0mg"},{"bike_id":"7eeb41d7-ac04-4e0b-8a11-4910c8407457","system_id":"levelo_inurba_marseille","lat":43.23182,"lon":5.39991,"is_reserved":false,"is_disabled":false,"rental_uris":{"android":"levelo://app?vid=7eeb41d7-ac04-4e0b-8a11-4910c8407457","ios":"levelo://app?vid=7eeb41d7-ac04-4e0b-8a11-4910c8407457"},"vehicle_type_id":"4","last_reported":1726319544,"current_range_meters":11600,"station_id":"ce4bhn12rcd13ifvqgqg","pricing_plan_id":"cebpf4jnsgd1na2vs0mg"},{"bike_id":"45d54e99-817d-44f4-bdb2-cbabdd58de29","system_id":"levelo_inurba_marseille","lat":43.29372,"lon":5.37859,"is_reserved":false,"is_disabled":false,"rental_uris":{"android":"levelo://app?vid=45d54e99-817d-44f4-bdb2-cbabdd58de29","ios":"levelo://app?vid=45d54e99-817d-44f4-bdb2-cbabdd58de29"},"vehicle_type_id":"4","last_reported":1726319544,"current_range_meters":28400,"station_id":"ce4bgjh2rcd13ifvqbf0","pricing_plan_id":"cebpf4jnsgd1na2vs0mg"},{"bike_id":"15a9ed03-9c5f-4b5a-b3f4-c5c4f763871c","system_id":"levelo_inurba_marseille","lat":43.28265,"lon":5.3507,"is_reserved":false,"is_disabled":false,"rental_uris":{"android":"levelo://app?vid=15a9ed03-9c5f-4b5a-b3f4-c5c4f763871c","ios":"levelo://app?vid=15a9ed03-9c5f-4b5a-b3f4-c5c4f763871c"},"vehicle_type_id":"4","last_reported":1726319544,"current_range_meters":38800,"station_id":"ce4bhbp2rcd13ifvqerg","pricing_plan_id":"cebpf4jnsgd1na2vs0mg"},{"bike_id":"7bdd48bb-8893-41e9-9205-9a6765272ea4","system_id":"levelo_inurba_marseille","lat":43.295135,"lon":5.375063,"is_reserved":false,"is_disabled":false,"rental_uris":{"android":"levelo://app?vid=7bdd48bb-8893-41e9-9205-9a6765272ea4","ios":"levelo://app?vid=7bdd48bb-8893-41e9-9205-9a6765272ea4"},"vehicle_type_id":"4","last_reported":1726319544,"current_range_meters":28800,"station_id":"ce4bgkp2rcd13ifvqbmg","pricing_plan_id":"cebpf4jnsgd1na2vs0mg"},{"bike_id":"aa640b84-93c8-4662-8c2a-4d14230c8b84","system_id":"levelo_inurba_marseille","lat":43.29611,"lon":5.37711,"is_reserved":false,"is_disabled":false,"rental_uris":{"android":"levelo://app?vid=aa640b84-93c8-4662-8c2a-4d14230c8b84","ios":"levelo://app?vid=aa640b84-93c8-4662-8c2a-4d14230c8b84"},"vehicle_type_id":"4","last_reported":1726319544,"current_range_meters":28000,"station_id":"ce4bgi92rcd13ifvqb90","pricing_plan_id":"cebpf4jnsgd1na2vs0mg"},{"bike_id":"990763d8-a3b3-4bbc-a5f5-dff0dedf925e","system_id":"levelo_inurba_marseille","lat":43.29024,"lon":5.37561,"is_reserved":false,"is_disabled":false,"rental_uris":{"android":"levelo://app?vid=990763d8-a3b3-4bbc-a5f5-dff0dedf925e","ios":"levelo://app?vid=990763d8-a3b3-4bbc-a5f5-dff0dedf925e"},"vehicle_type_id":"4","last_reported":1726319544,"current_range_meters":30400,"station_id":"ce4bh692rcd13ifvqe90","pricing_plan_id":"cebpf4jnsgd1na2vs0mg"},{"bike_id":"e25df674-25d0-4a64-82e8-fdaf812a14f7","system_id":"levelo_inurba_marseille","lat":43.29577,"lon":5.37511,"is_reserved":false,"is_disabled":false,"rental_uris":{"android":"levelo://app?vid=e25df674-25d0-4a64-82e8-fdaf812a14f7","ios":"levelo://app?vid=e25df674-25d0-4a64-82e8-fdaf812a14f7"},"vehicle_type_id":"4","last_reported":1726319544,"current_range_meters":38800,"station_id":"ce4bgh92rcd13ifvqb50","pricing_plan_id":"cebpf4jnsgd1na2vs0mg"},{"bike_id":"1ac8d5ab-f364-44d7-813a-9194e3b4c6e6","system_id":"levelo_inurba_marseille","lat":43.29977,"lon":5.37169,"is_reserved":false,"is_disabled":false,"rental_uris":{"android":"levelo://app?vid=1ac8d5ab-f364-44d7-813a-9194e3b4c6e6","ios":"levelo://app?vid=1ac8d5ab-f364-44d7-813a-9194e3b4c6e6"},"vehicle_type_id":"4","last_reported":1726319544,"current_range_meters":38000,"station_id":"ce4bgr92rcd13ifvqc7g","pricing_plan_id":"cebpf4jnsgd1na2vs0mg"},{"bike_id":"2d34cb33-c89a-49fd-90d8-af97978ea62c","system_id":"levelo_inurba_marseille","lat":43.29713,"lon":5.37697,"is_reserved":false,"is_disabled":false,"rental_uris":{"android":"levelo://app?vid=2d34cb33-c89a-49fd-90d8-af97978ea62c","ios":"levelo://app?vid=2d34cb33-c89a-49fd-90d8-af97978ea62c"},"vehicle_type_id":"4","last_reported":1726319544,"current_range_meters":30400,"station_id":"ce4bgkh2rcd13ifvqbl0","pricing_plan_id":"cebpf4jnsgd1na2vs0mg"},{"bike_id":"7b70e336-12de-4782-ac63-d8edf94e3884","system_id":"levelo_inurba_marseille","lat":43.25585,"lon":5.38237,"is_reserved":false,"is_disabled":false,"rental_uris":{"android":"levelo://app?vid=7b70e336-12de-4782-ac63-d8edf94e3884","ios":"levelo://app?vid=7b70e336-12de-4782-ac63-d8edf94e3884"},"vehicle_type_id":"4","last_reported":1726319544,"current_range_meters":38800,"station_id":"ce4bhih2rcd13ifvqfs0","pricing_plan_id":"cebpf4jnsgd1na2vs0mg"},{"bike_id":"6f03fcf7-9f42-4576-a622-3c67642cac65","system_id":"levelo_inurba_marseille","lat":43.337444,"lon":5.374475,"is_reserved":false,"is_disabled":false,"rental_uris":{"android":"levelo://app?vid=6f03fcf7-9f42-4576-a622-3c67642cac65","ios":"levelo://app?vid=6f03fcf7-9f42-4576-a622-3c67642cac65"},"vehicle_type_id":"4","last_reported":1726319544,"current_range_meters":23200,"station_id":"","pricing_plan_id":"cebpf4jnsgd1na2vs0mg"},{"bike_id":"ac2924dc-acd5-48f7-91b6-0db213b6f5a5","system_id":"levelo_inurba_marseille","lat":43.29632,"lon":5.37591,"is_reserved":false,"is_disabled":false,"rental_uris":{"android":"levelo://app?vid=ac2924dc-acd5-48f7-91b6-0db213b6f5a5","ios":"levelo://app?vid=ac2924dc-acd5-48f7-91b6-0db213b6f5a5"},"vehicle_type_id":"4","last_reported":1726319544,"current_range_meters":38000,"station_id":"","pricing_plan_id":"cebpf4jnsgd1na2vs0mg"},{"bike_id":"90520543-2819-4d3e-bd5d-f1651c145d1c","system_id":"levelo_inurba_marseille","lat":43.255,"lon":5.3765,"is_reserved":false,"is_disabled":false,"rental_uris":{"android":"levelo://app?vid=90520543-2819-4d3e-bd5d-f1651c145d1c","ios":"levelo://app?vid=90520543-2819-4d3e-bd5d-f1651c145d1c"},"vehicle_type_id":"4","last_reported":1726319544,"current_range_meters":27600,"station_id":"ce4bhh12rcd13ifvqff0","pricing_plan_id":"cebpf4jnsgd1na2vs0mg"},{"bike_id":"18210e44-5930-4789-bfee-aed3dd3e9fac","system_id":"levelo_inurba_marseille","lat":43.28269,"lon":5.35066,"is_reserved":false,"is_disabled":false,"rental_uris":{"android":"levelo://app?vid=18210e44-5930-4789-bfee-aed3dd3e9fac","ios":"levelo://app?vid=18210e44-5930-4789-bfee-aed3dd3e9fac"},"vehicle_type_id":"4","last_reported":1726319544,"current_range_meters":2000,"station_id":"ce4bhbp2rcd13ifvqerg","pricing_plan_id":"cebpf4jnsgd1na2vs0mg"},{"bike_id":"b45447da-1f99-4e09-bac3-76f27bd3071f","system_id":"levelo_inurba_marseille","lat":43.28421,"lon":5.37524,"is_reserved":false,"is_disabled":false,"rental_uris":{"android":"levelo://app?vid=b45447da-1f99-4e09-bac3-76f27bd3071f","ios":"levelo://app?vid=b45447da-1f99-4e09-bac3-76f27bd3071f"},"vehicle_type_id":"4","last_reported":1726319544,"current_range_meters":38000,"station_id":"ce4bh412rcd13ifvqds0","pricing_plan_id":"cebpf4jnsgd1na2vs0mg"},{"bike_id":"cd9c5fb6-d174-4615-b52b-2b8a5ec8f67c","system_id":"levelo_inurba_marseille","lat":43.31121,"lon":5.37775,"is_reserved":false,"is_disabled":false,"rental_uris":{"android":"levelo://app?vid=cd9c5fb6-d174-4615-b52b-2b8a5ec8f67c","ios":"levelo://app?vid=cd9c5fb6-d174-4615-b52b-2b8a5ec8f67c"},"vehicle_type_id":"4","last_reported":1726319544,"current_range_meters":17600,"station_id":"ce4bhqp2rcd13ifvqhng","pricing_plan_id":"cebpf4jnsgd1na2vs0mg"},{"bike_id":"14290f35-956d-45c2-a0a4-feac7b7ec252","system_id":"levelo_inurba_marseille","lat":43.28619,"lon":5.35096,"is_reserved":false,"is_disabled":false,"rental_uris":{"android":"levelo://app?vid=14290f35-956d-45c2-a0a4-feac7b7ec252","ios":"levelo://app?vid=14290f35-956d-45c2-a0a4-feac7b7ec252"},"vehicle_type_id":"4","last_reported":1726319544,"current_range_meters":18000,"station_id":"ce4bhch2rcd13ifvqeug","pricing_plan_id":"cebpf4jnsgd1na2vs0mg"},{"bike_id":"2ff486aa-37ab-45b6-99c0-dcb31e195a28","system_id":"levelo_inurba_marseille","lat":43.30306,"lon":5.39212,"is_reserved":false,"is_disabled":false,"rental_uris":{"android":"levelo://app?vid=2ff486aa-37ab-45b6-99c0-dcb31e195a28","ios":"levelo://app?vid=2ff486aa-37ab-45b6-99c0-dcb31e195a28"},"vehicle_type_id":"4","last_reported":1726319544,"current_range_meters":29600,"station_id":"ce4bgkh2rcd13ifvqbk0","pricing_plan_id":"cebpf4jnsgd1na2vs0mg"},{"bike_id":"af97313c-5eff-4f01-8281-7ae294759090","system_id":"levelo_inurba_marseille","lat":43.27317,"lon":5.39064,"is_reserved":false,"is_disabled":false,"rental_uris":{"android":"levelo://app?vid=af97313c-5eff-4f01-8281-7ae294759090","ios":"levelo://app?vid=af97313c-5eff-4f01-8281-7ae294759090"},"vehicle_type_id":"4","last_reported":1726319544,"current_range_meters":24000,"station_id":"ce4bhgp2rcd13ifvqfe0","pricing_plan_id":"cebpf4jnsgd1na2vs0mg"},{"bike_id":"47b913da-a851-4a2c-9b70-7296bc0501e1","system_id":"levelo_inurba_marseille","lat":43.30152,"lon":5.38079,"is_reserved":false,"is_disabled":false,"rental_uris":{"android":"levelo://app?vid=47b913da-a851-4a2c-9b70-7296bc0501e1","ios":"levelo://app?vid=47b913da-a851-4a2c-9b70-7296bc0501e1"},"vehicle_type_id":"4","last_reported":1726319544,"current_range_meters":36400,"station_id":"ce4bgjp2rcd13ifvqbh0","pricing_plan_id":"cebpf4jnsgd1na2vs0mg"},{"bike_id":"a2297e44-ed7c-404a-9891-8598306504eb","system_id":"levelo_inurba_marseille","lat":43.31724,"lon":5.42404,"is_reserved":false,"is_disabled":false,"rental_uris":{"android":"levelo://app?vid=a2297e44-ed7c-404a-9891-8598306504eb","ios":"levelo://app?vid=a2297e44-ed7c-404a-9891-8598306504eb"},"vehicle_type_id":"4","last_reported":1726319544,"current_range_meters":24800,"station_id":"ce4bhp92rcd13ifvqhbg","pricing_plan_id":"cebpf4jnsgd1na2vs0mg"},{"bike_id":"a6edaebb-aabc-48b1-89ad-8f140d5a2810","system_id":"levelo_inurba_marseille","lat":43.27219,"lon":5.39187,"is_reserved":false,"is_disabled":false,"rental_uris":{"android":"levelo://app?vid=a6edaebb-aabc-48b1-89ad-8f140d5a2810","ios":"levelo://app?vid=a6edaebb-aabc-48b1-89ad-8f140d5a2810"},"vehicle_type_id":"4","last_reported":1726319544,"current_range_meters":12800,"station_id":"ce4bhhp2rcd13ifvqfm0","pricing_plan_id":"cebpf4jnsgd1na2vs0mg"},{"bike_id":"af2bd19f-c8ee-4545-b7b1-11eb9781f16a","system_id":"levelo_inurba_marseille","lat":43.22933,"lon":5.35383,"is_reserved":false,"is_disabled":false,"rental_uris":{"android":"levelo://app?vid=af2bd19f-c8ee-4545-b7b1-11eb9781f16a","ios":"levelo://app?vid=af2bd19f-c8ee-4545-b7b1-11eb9781f16a"},"vehicle_type_id":"4","last_reported":1726319544,"current_range_meters":38800,"station_id":"cpo3532slgdg3j2ikp40","pricing_plan_id":"cebpf4jnsgd1na2vs0mg"},{"bike_id":"2849fa34-4322-437d-90d7-f27ebd53a7aa","system_id":"levelo_inurba_marseille","lat":43.29567,"lon":5.3751,"is_reserved":false,"is_disabled":false,"rental_uris":{"android":"levelo://app?vid=2849fa34-4322-437d-90d7-f27ebd53a7aa","ios":"levelo://app?vid=2849fa34-4322-437d-90d7-f27ebd53a7aa"},"vehicle_type_id":"4","last_reported":1726319544,"current_range_meters":38800,"station_id":"ce4bgh92rcd13ifvqb50","pricing_plan_id":"cebpf4jnsgd1na2vs0mg"},{"bike_id":"ee5adcc2-1cbc-4bf1-8d4b-a35212621eac","system_id":"levelo_inurba_marseille","lat":43.28614,"lon":5.3511,"is_reserved":false,"is_disabled":false,"rental_uris":{"android":"levelo://app?vid=ee5adcc2-1cbc-4bf1-8d4b-a35212621eac","ios":"levelo://app?vid=ee5adcc2-1cbc-4bf1-8d4b-a35212621eac"},"vehicle_type_id":"4","last_reported":1726319544,"current_range_meters":20800,"station_id":"ce4bhch2rcd13ifvqeug","pricing_plan_id":"cebpf4jnsgd1na2vs0mg"},{"bike_id":"d3762964-1cb9-4d3f-a9e1-d83e7ec1ead9","system_id":"levelo_inurba_marseille","lat":43.3095,"lon":5.39033,"is_reserved":false,"is_disabled":false,"rental_uris":{"android":"levelo://app?vid=d3762964-1cb9-4d3f-a9e1-d83e7ec1ead9","ios":"levelo://app?vid=d3762964-1cb9-4d3f-a9e1-d83e7ec1ead9"},"vehicle_type_id":"4","last_reported":1726319544,"current_range_meters":27600,"station_id":"ce4bgup2rcd13ifvqco0","pricing_plan_id":"cebpf4jnsgd1na2vs0mg"},{"bike_id":"fa706988-516c-4ec8-bc9d-e0a4367ddcce","system_id":"levelo_inurba_marseille","lat":43.33751,"lon":5.37437,"is_reserved":false,"is_disabled":false,"rental_uris":{"android":"levelo://app?vid=fa706988-516c-4ec8-bc9d-e0a4367ddcce","ios":"levelo://app?vid=fa706988-516c-4ec8-bc9d-e0a4367ddcce"},"vehicle_type_id":"4","last_reported":1726319544,"current_range_meters":16800,"station_id":"","pricing_plan_id":"cebpf4jnsgd1na2vs0mg"},{"bike_id":"1a8d95bb-879c-4611-bd97-4c76fe823257","system_id":"levelo_inurba_marseille","lat":43.29563,"lon":5.42293,"is_reserved":false,"is_disabled":false,"rental_uris":{"android":"levelo://app?vid=1a8d95bb-879c-4611-bd97-4c76fe823257","ios":"levelo://app?vid=1a8d95bb-879c-4611-bd97-4c76fe823257"},"vehicle_type_id":"4","last_reported":1726319544,"current_range_meters":20000,"station_id":"ce4bhph2rcd13ifvqhdg","pricing_plan_id":"cebpf4jnsgd1na2vs0mg"},{"bike_id":"3719821e-a828-432c-832c-a3eb52eb2968","system_id":"levelo_inurba_marseille","lat":43.29038,"lon":5.37567,"is_reserved":false,"is_disabled":false,"rental_uris":{"android":"levelo://app?vid=3719821e-a828-432c-832c-a3eb52eb2968","ios":"levelo://app?vid=3719821e-a828-432c-832c-a3eb52eb2968"},"vehicle_type_id":"4","last_reported":1726319544,"current_range_meters":33200,"station_id":"ce4bh692rcd13ifvqe90","pricing_plan_id":"cebpf4jnsgd1na2vs0mg"},{"bike_id":"37b3e62c-ef4f-4fe6-975c-4cd7e6246119","system_id":"levelo_inurba_marseille","lat":43.2957,"lon":5.37497,"is_reserved":false,"is_disabled":false,"rental_uris":{"android":"levelo://app?vid=37b3e62c-ef4f-4fe6-975c-4cd7e6246119","ios":"levelo://app?vid=37b3e62c-ef4f-4fe6-975c-4cd7e6246119"},"vehicle_type_id":"4","last_reported":1726319544,"current_range_meters":31200,"station_id":"ce4bgh92rcd13ifvqb50","pricing_plan_id":"cebpf4jnsgd1na2vs0mg"},{"bike_id":"9678e70e-474e-4aaf-be0e-6fc1d3ef4a5e","system_id":"levelo_inurba_marseille","lat":43.29726,"lon":5.37678,"is_reserved":false,"is_disabled":false,"rental_uris":{"android":"levelo://app?vid=9678e70e-474e-4aaf-be0e-6fc1d3ef4a5e","ios":"levelo://app?vid=9678e70e-474e-4aaf-be0e-6fc1d3ef4a5e"},"vehicle_type_id":"4","last_reported":1726319544,"current_range_meters":39200,"station_id":"ce4bgkh2rcd13ifvqbl0","pricing_plan_id":"cebpf4jnsgd1na2vs0mg"},{"bike_id":"00cc28f9-6858-48c0-9bc3-8c1ce02013f7","system_id":"levelo_inurba_marseille","lat":43.285461,"lon":5.373787,"is_reserved":false,"is_disabled":false,"rental_uris":{"android":"levelo://app?vid=00cc28f9-6858-48c0-9bc3-8c1ce02013f7","ios":"levelo://app?vid=00cc28f9-6858-48c0-9bc3-8c1ce02013f7"},"vehicle_type_id":"4","last_reported":1726319544,"current_range_meters":20800,"station_id":"","pricing_plan_id":"cebpf4jnsgd1na2vs0mg"},{"bike_id":"13e4e1f1-ca7a-4e6f-b284-520dc9687025","system_id":"levelo_inurba_marseille","lat":43.26196,"lon":5.37448,"is_reserved":false,"is_disabled":false,"rental_uris":{"android":"levelo://app?vid=13e4e1f1-ca7a-4e6f-b284-520dc9687025","ios":"levelo://app?vid=13e4e1f1-ca7a-4e6f-b284-520dc9687025"},"vehicle_type_id":"4","last_reported":1726319544,"current_range_meters":19200,"station_id":"ce4bhgp2rcd13ifvqfc0","pricing_plan_id":"cebpf4jnsgd1na2vs0mg"},